{"last_updated":1684609450,"ttl":30,"version":"2.2","data":{"bikes":[{"bike_id":"32b74d7b-e2eb-4609-add9-6dc4e28a0ff3","system_id":"levelo_inurba_marseille","lat":43.313391,"lon":5.36706,"is_reserved":false,"is_disabled":false,"rental_uris":{"android":"levelo://app?vid=32b74d7b-e2eb-4609-add9-6dc4e28a0ff3","ios":"levelo://app?vid=32b74d7b-e2eb-4609-add9-6dc4e28a0ff3"},"vehicle_type_id":"4","last_reported":1684609450,"current_range_meters":27200,"station_id":"ce4bgr92rcd13ifvqc6g","pricing_plan_id":"free"},{"bike_id":"a1c981e9-b61a-4f92-9da3-bc88edc1cf4a","system_id":"levelo_inurba_marseille","lat":43.31341,"lon":5.367098,"is_reserved":false,"is_disabled":false,"rental_uris":{"android":"levelo://app?vid=a1c981e9-b61a-4f92-9da3-bc88edc1cf4a","ios":"levelo://app?vid=a1c981e9-b61a-4f92-9da3-bc88edc1cf4a"},"vehicle_type_id":"4","last_reported":1684609450,"current_range_meters":30400,"station_id":"ce4bgr92rcd13ifvqc6g","pricing_plan_id":"free"},{"bike_id":"31a6a8f8-35fd-49f7-9a38-8e1123c1c126","system_id":"levelo_inurba_marseille","lat":43.31341,"lon":5.367098,"is_reserved":false,"is_disabled":false,"rental_uris":{"android":"levelo://app?vid=31a6a8f8-35fd-49f7-9a38-8e1123c1c126","ios":"levelo://app?vid=31a6a8f8-35fd-49f7-9a38-8e1123c1c126"},"vehicle_type_id":"4","last_reported":1684609450,"current_range_meters":28800,"station_id":"ce4bgr92rcd13ifvqc6g","pricing_plan_id":"free"},{"bike_id":"7bdf4c5f-5855-4aae-93f1-1f2abb30b761","system_id":"levelo_inurba_marseille","lat":43.31341,"lon":5.367098,"is_reserved":false,"is_disabled":false,"rental_uris":{"android":"levelo://app?vid=7bdf4c5f-5855-4aae-93f1-1f2abb30b761","ios":"levelo://app?vid=7bdf4c5f-5855-4aae-93f1-1f2abb30b761"},"vehicle_type_id":"4","last_reported":1684609450,"current_range_meters":31600,"station_id":"ce4bgr92rcd13ifvqc6g","pricing_plan_id":"free"},{"bike_id":"c11e8c0d-8f2e-4468-9d4a-529348fce7ac","system_id":"levelo_inurba_marseille","lat":43.31341,"lon":5.367098,"is_reserved":false,"is_disabled":false,"rental_uris":{"android":"levelo://app?vid=c11e8c0d-8f2e-4468-9d4a-529348fce7ac","ios":"levelo://app?vid=c11e8c0d-8f2e-4468-9d4a-529348fce7ac"},"vehicle_type_id":"4","last_reported":1684609450,"current_range_meters":30800,"station_id":"ce4bgr92rcd13ifvqc6g","pricing_plan_id":"free"},{"bike_id":"423051dc-23e3-41ae-a453-4e9c309d34ab","system_id":"levelo_inurba_marseille","lat":43.31341,"lon":5.367098,"is_reserved":false,"is_disabled":false,"rental_uris":{"android":"levelo://app?vid=423051dc-23e3-41ae-a453-4e9c309d34ab","ios":"levelo://app?vid=423051dc-23e3-41ae-a453-4e9c309d34ab"},"vehicle_type_id":"4","last_reported":1684609450,"current_range_meters":31600,"station_id":"ce4bgr92rcd13ifvqc6g","pricing_plan_id":"free"},{"bike_id":"b68d8102-992e-4d73-8af3-3071ab25293c","system_id":"levelo_inurba_marseille","lat":43.312239,"lon":5.368562,"is_reserved":false,"is_disabled":false,"rental_uris":{"android":"levelo://app?vid=b68d8102-992e-4d73-8af3-3071ab25293c","ios":"levelo://app?vid=b68d8102-992e-4d73-8af3-3071ab25293c"},"vehicle_type_id":"4","last_reported":1684609450,"current_range_meters":25200,"station_id":"ce4bgl92rcd13ifvqbq0","pricing_plan_id":"free"},{"bike_id":"a02c534a-1ed2-4dbc-9170-1fea269ea955","system_id":"levelo_inurba_marseille","lat":43.312239,"lon":5.368562,"is_reserved":false,"is_disabled":false,"rental_uris":{"android":"levelo://app?vid=a02c534a-1ed2-4dbc-9170-1fea269ea955","ios":"levelo://app?vid=a02c534a-1ed2-4dbc-9170-1fea269ea955"},"vehicle_type_id":"4","last_reported":1684609450,"current_range_meters":7200,"station_id":"ce4bgl92rcd13ifvqbq0","pricing_plan_id":"free"},{"bike_id":"bd32a1b9-3f5c-4caf-b724-871ee9e54ea2","system_id":"levelo_inurba_marseille","lat":43.312239,"lon":5.368562,"is_reserved":false,"is_disabled":false,"rental_uris":{"android":"levelo://app?vid=bd32a1b9-3f5c-4caf-b724-871ee9e54ea2","ios":"levelo://app?vid=bd32a1b9-3f5c-4caf-b724-871ee9e54ea2"},"vehicle_type_id":"4","last_reported":1684609450,"current_range_meters":20800,"station_id":"ce4bgl92rcd13ifvqbq0","pricing_plan_id":"free"},{"bike_id":"02e41708-8beb-4995-b683-23c8aadcac8b","system_id":"levelo_inurba_marseille","lat":43.312239,"lon":5.368562,"is_reserved":false,"is_disabled":false,"rental_uris":{"android":"levelo://app?vid=02e41708-8beb-4995-b683-23c8aadcac8b","ios":"levelo://app?vid=02e41708-8beb-4995-b683-23c8aadcac8b"},"vehicle_type_id":"4","last_reported":1684609450,"current_range_meters":31200,"station_id":"ce4bgl92rcd13ifvqbq0","pricing_plan_id":"free"},{"bike_id":"79dc37ee-0d88-4a2b-81de-8f86b0985009","system_id":"levelo_inurba_marseille","lat":43.312239,"lon":5.368562,"is_reserved":false,"is_disabled":false,"rental_uris":{"android":"levelo://app?vid=79dc37ee-0d88-4a2b-81de-8f86b0985009","ios":"levelo://app?vid=79dc37ee-0d88-4a2b-81de-8f86b0985009"},"vehicle_type_id":"4","last_reported":1684609450,"current_range_meters":31600,"station_id":"ce4bgl92rcd13ifvqbq0","pricing_plan_id":"free"},{"bike_id":"4052371d-0b40-45a2-a6cf-9cf2875c3212","system_id":"levelo_inurba_marseille","lat":43.31209,"lon":5.36869,"is_reserved":false,"is_disabled":false,"rental_uris":{"android":"levelo://app?vid=4052371d-0b40-45a2-a6cf-9cf2875c3212","ios":"levelo://app?vid=4052371d-0b40-45a2-a6cf-9cf2875c3212"},"vehicle_type_id":"4","last_reported":1684609450,"current_range_meters":31600,"station_id":"ce4bgl92rcd13ifvqbq0","pricing_plan_id":"free"},{"bike_id":"3a66aaf4-f597-4b8a-9b1e-815e18e32f3c","system_id":"levelo_inurba_marseille","lat":43.312239,"lon":5.368562,"is_reserved":false,"is_disabled":false,"rental_uris":{"android":"levelo://app?vid=3a66aaf4-f597-4b8a-9b1e-815e18e32f3c","ios":"levelo://app?vid=3a66aaf4-f597-4b8a-9b1e-815e18e32f3c"},"vehicle_type_id":"4","last_reported":1684609450,"current_range_meters":30800,"station_id":"ce4bgl92rcd13ifvqbq0","pricing_plan_id":"free"},{"bike_id":"5e1dbe6a-8459-4aed-8189-73d8264a152c","system_id":"levelo_inurba_marseille","lat":43.312239,"lon":5.368562,"is_reserved":false,"is_disabled":false,"rental_uris":{"android":"levelo://app?vid=5e1dbe6a-8459-4aed-8189-73d8264a152c","ios":"levelo://app?vid=5e1dbe6a-8459-4aed-8189-73d8264a152c"},"vehicle_type_id":"4","last_reported":1684609450,"current_range_meters":30800,"station_id":"ce4bgl92rcd13ifvqbq0","pricing_plan_id":"free"},{"bike_id":"bfe82e9e-462c-444a-b983-be7224cd6917","system_id":"levelo_inurba_marseille","lat":43.309076,"lon":5.368465,"is_reserved":false,"is_disabled":false,"rental_uris":{"android":"levelo://app?vid=bfe82e9e-462c-444a-b983-be7224cd6917","ios":"levelo://app?vid=bfe82e9e-462c-444a-b983-be7224cd6917"},"vehicle_type_id":"4","last_reported":1684609450,"current_range_meters":14800,"station_id":"ce4bgn92rcd13ifvqbvg","pricing_plan_id":"free"},{"bike_id":"686f6868-6048-4068-a64e-9bfcece3c84d","system_id":"levelo_inurba_marseille","lat":43.309076,"lon":5.368465,"is_reserved":false,"is_disabled":false,"rental_uris":{"android":"levelo://app?vid=686f6868-6048-4068-a64e-9bfcece3c84d","ios":"levelo://app?vid=686f6868-6048-4068-a64e-9bfcece3c84d"},"vehicle_type_id":"4","last_reported":1684609450,"current_range_meters":31600,"station_id":"ce4bgn92rcd13ifvqbvg","pricing_plan_id":"free"},{"bike_id":"46a958db-deea-4536-9495-95f4bcdc056c","system_id":"levelo_inurba_marseille","lat":43.314811,"lon":5.373103,"is_reserved":false,"is_disabled":false,"rental_uris":{"android":"levelo://app?vid=46a958db-deea-4536-9495-95f4bcdc056c","ios":"levelo://app?vid=46a958db-deea-4536-9495-95f4bcdc056c"},"vehicle_type_id":"4","last_reported":1684609450,"current_range_meters":31200,"station_id":"ce4bgt12rcd13ifvqcd0","pricing_plan_id":"free"},{"bike_id":"096c91ae-eae5-49a2-8895-be3e2ef8808f","system_id":"levelo_inurba_marseille","lat":43.314811,"lon":5.373103,"is_reserved":false,"is_disabled":false,"rental_uris":{"android":"levelo://app?vid=096c91ae-eae5-49a2-8895-be3e2ef8808f","ios":"levelo://app?vid=096c91ae-eae5-49a2-8895-be3e2ef8808f"},"vehicle_type_id":"4","last_reported":1684609450,"current_range_meters":15600,"station_id":"ce4bgt12rcd13ifvqcd0","pricing_plan_id":"free"},{"bike_id":"d734d8f3-6c46-49d1-9671-0ad92bcd2953","system_id":"levelo_inurba_marseille","lat":43.314811,"lon":5.373103,"is_reserved":false,"is_disabled":false,"rental_uris":{"android":"levelo://app?vid=d734d8f3-6c46-49d1-9671-0ad92bcd2953","ios":"levelo://app?vid=d734d8f3-6c46-49d1-9671-0ad92bcd2953"},"vehicle_type_id":"4","last_reported":1684609450,"current_range_meters":31200,"station_id":"ce4bgt12rcd13ifvqcd0","pricing_plan_id":"free"},{"bike_id":"306387f1-7539-458d-9c7c-1d3f902480fc","system_id":"levelo_inurba_marseille","lat":43.31504,"lon":5.3729,"is_reserved":false,"is_disabled":false,"rental_uris":{"android":"levelo://app?vid=306387f1-7539-458d-9c7c-1d3f902480fc","ios":"levelo://app?vid=306387f1-7539-458d-9c7c-1d3f902480fc"},"vehicle_type_id":"4","last_reported":1684609450,"current_range_meters":18800,"station_id":"","pricing_plan_id":"free"},{"bike_id":"216d5b2c-006a-476d-b0b4-4dee0ac788c7","system_id":"levelo_inurba_marseille","lat":43.3149,"lon":5.37307,"is_reserved":false,"is_disabled":false,"rental_uris":{"android":"levelo://app?vid=216d5b2c-006a-476d-b0b4-4dee0ac788c7","ios":"levelo://app?vid=216d5b2c-006a-476d-b0b4-4dee0ac788c7"},"vehicle_type_id":"4","last_reported":1684609450,"current_range_meters":31200,"station_id":"ce4bgt12rcd13ifvqcd0","pricing_plan_id":"free"},{"bike_id":"1348a136-dd3b-4d5d-b063-c704d7190d52","system_id":"levelo_inurba_marseille","lat":43.314811,"lon":5.373103,"is_reserved":false,"is_disabled":false,"rental_uris":{"android":"levelo://app?vid=1348a136-dd3b-4d5d-b063-c704d7190d52","ios":"levelo://app?vid=1348a136-dd3b-4d5d-b063-c704d7190d52"},"vehicle_type_id":"4","last_reported":1684609450,"current_range_meters":21600,"station_id":"ce4bgt12rcd13ifvqcd0","pricing_plan_id":"free"},{"bike_id":"e0992195-4c45-4aa2-9415-4fef18478594","system_id":"levelo_inurba_marseille","lat":43.308614,"lon":5.372098,"is_reserved":false,"is_disabled":false,"rental_uris":{"android":"levelo://app?vid=e0992195-4c45-4aa2-9415-4fef18478594","ios":"levelo://app?vid=e0992195-4c45-4aa2-9415-4fef18478594"},"vehicle_type_id":"4","last_reported":1684609450,"current_range_meters":27200,"station_id":"ce4bguh2rcd13ifvqckg","pricing_plan_id":"free"},{"bike_id":"3b9abfcf-be2e-4603-9fb4-bc0ab9d2eaa7","system_id":"levelo_inurba_marseille","lat":43.308614,"lon":5.372098,"is_reserved":false,"is_disabled":false,"rental_uris":{"android":"levelo://app?vid=3b9abfcf-be2e-4603-9fb4-bc0ab9d2eaa7","ios":"levelo://app?vid=3b9abfcf-be2e-4603-9fb4-bc0ab9d2eaa7"},"vehicle_type_id":"4","last_reported":1684609450,"current_range_meters":15600,"station_id":"ce4bguh2rcd13ifvqckg","pricing_plan_id":"free"},{"bike_id":"9a85d8e4-448f-465d-8887-5096e5032f79","system_id":"levelo_inurba_marseille","lat":43.308614,"lon":5.372098,"is_reserved":false,"is_disabled":false,"rental_uris":{"android":"levelo://app?vid=9a85d8e4-448f-465d-8887-5096e5032f79","ios":"levelo://app?vid=9a85d8e4-448f-465d-8887-5096e5032f79"},"vehicle_type_id":"4","last_reported":1684609450,"current_range_meters":20000,"station_id":"ce4bguh2rcd13ifvqckg","pricing_plan_id":"free"},{"bike_id":"83e5ff5f-10af-4aeb-b374-96f263f8c063","system_id":"levelo_inurba_marseille","lat":43.308614,"lon":5.372098,"is_reserved":false,"is_disabled":false,"rental_uris":{"android":"levelo://app?vid=83e5ff5f-10af-4aeb-b374-96f263f8c063","ios":"levelo://app?vid=83e5ff5f-10af-4aeb-b374-96f263f8c063"},"vehicle_type_id":"4","last_reported":1684609450,"current_range_meters":31200,"station_id":"ce4bguh2rcd13ifvqckg","pricing_plan_id":"free"},{"bike_id":"3646b87a-93a3-4734-9883-6c51d831f921","system_id":"levelo_inurba_marseille","lat":43.305706,"lon":5.365654,"is_reserved":false,"is_disabled":false,"rental_uris":{"android":"levelo://app?vid=3646b87a-93a3-4734-9883-6c51d831f921","ios":"levelo://app?vid=3646b87a-93a3-4734-9883-6c51d831f921"},"vehicle_type_id":"4","last_reported":1684609450,"current_range_meters":31200,"station_id":"ce4bgs12rcd13ifvqcag","pricing_plan_id":"free"},{"bike_id":"df051663-baa8-4eab-9ddd-fc851c41dd8d","system_id":"levelo_inurba_marseille","lat":43.305706,"lon":5.365654,"is_reserved":false,"is_disabled":false,"rental_uris":{"android":"levelo://app?vid=df051663-baa8-4eab-9ddd-fc851c41dd8d","ios":"levelo://app?vid=df051663-baa8-4eab-9ddd-fc851c41dd8d"},"vehicle_type_id":"4","last_reported":1684609450,"current_range_meters":30400,"station_id":"ce4bgs12rcd13ifvqcag","pricing_plan_id":"free"},{"bike_id":"a9a86a19-e328-423e-a326-d535231bdd26","system_id":"levelo_inurba_marseille","lat":43.305706,"lon":5.365654,"is_reserved":false,"is_disabled":false,"rental_uris":{"android":"levelo://app?vid=a9a86a19-e328-423e-a326-d535231bdd26","ios":"levelo://app?vid=a9a86a19-e328-423e-a326-d535231bdd26"},"vehicle_type_id":"4","last_reported":1684609450,"current_range_meters":19200,"station_id":"ce4bgs12rcd13ifvqcag","pricing_plan_id":"free"},{"bike_id":"1348413d-8796-4729-b223-1caf9be9bf16","system_id":"levelo_inurba_marseille","lat":43.30515,"lon":5.36545,"is_reserved":false,"is_disabled":false,"rental_uris":{"android":"levelo://app?vid=1348413d-8796-4729-b223-1caf9be9bf16","ios":"levelo://app?vid=1348413d-8796-4729-b223-1caf9be9bf16"},"vehicle_type_id":"4","last_reported":1684609450,"current_range_meters":16000,"station_id":"","pricing_plan_id":"free"},{"bike_id":"71e1299e-8fd4-4aca-ada5-273e8e5bdbd6","system_id":"levelo_inurba_marseille","lat":43.305989,"lon":5.37225,"is_reserved":false,"is_disabled":false,"rental_uris":{"android":"levelo://app?vid=71e1299e-8fd4-4aca-ada5-273e8e5bdbd6","ios":"levelo://app?vid=71e1299e-8fd4-4aca-ada5-273e8e5bdbd6"},"vehicle_type_id":"4","last_reported":1684609450,"current_range_meters":22800,"station_id":"ce4bgqh2rcd13ifvqc4g","pricing_plan_id":"free"},{"bike_id":"1b5f574b-1e1d-4401-823e-97173f9c377a","system_id":"levelo_inurba_marseille","lat":43.305989,"lon":5.37225,"is_reserved":false,"is_disabled":false,"rental_uris":{"android":"levelo://app?vid=1b5f574b-1e1d-4401-823e-97173f9c377a","ios":"levelo://app?vid=1b5f574b-1e1d-4401-823e-97173f9c377a"},"vehicle_type_id":"4","last_reported":1684609450,"current_range_meters":31200,"station_id":"ce4bgqh2rcd13ifvqc4g","pricing_plan_id":"free"},{"bike_id":"3e764068-0c0e-4053-9d84-292d9942519b","system_id":"levelo_inurba_marseille","lat":43.305989,"lon":5.37225,"is_reserved":false,"is_disabled":false,"rental_uris":{"android":"levelo://app?vid=3e764068-0c0e-4053-9d84-292d9942519b","ios":"levelo://app?vid=3e764068-0c0e-4053-9d84-292d9942519b"},"vehicle_type_id":"4","last_reported":1684609450,"current_range_meters":31200,"station_id":"ce4bgqh2rcd13ifvqc4g","pricing_plan_id":"free"},{"bike_id":"ad0b2edf-9ce6-484a-b2ff-4a1feabe9b31","system_id":"levelo_inurba_marseille","lat":43.305989,"lon":5.37225,"is_reserved":false,"is_disabled":false,"rental_uris":{"android":"levelo://app?vid=ad0b2edf-9ce6-484a-b2ff-4a1feabe9b31","ios":"levelo://app?vid=ad0b2edf-9ce6-484a-b2ff-4a1feabe9b31"},"vehicle_type_id":"4","last_reported":1684609450,"current_range_meters":18800,"station_id":"ce4bgqh2rcd13ifvqc4g","pricing_plan_id":"free"},{"bike_id":"826608b7-2198-4b8b-9447-c1e434aad4cf","system_id":"levelo_inurba_marseille","lat":43.311125,"lon":5.377624,"is_reserved":false,"is_disabled":false,"rental_uris":{"android":"levelo://app?vid=826608b7-2198-4b8b-9447-c1e434aad4cf","ios":"levelo://app?vid=826608b7-2198-4b8b-9447-c1e434aad4cf"},"vehicle_type_id":"4","last_reported":1684609450,"current_range_meters":14800,"station_id":"ce4bgt92rcd13ifvqcg0","pricing_plan_id":"free"},{"bike_id":"e58fedb9-a57d-4be1-8ab0-757e8b5b800f","system_id":"levelo_inurba_marseille","lat":43.31709,"lon":5.37653,"is_reserved":false,"is_disabled":false,"rental_uris":{"android":"levelo://app?vid=e58fedb9-a57d-4be1-8ab0-757e8b5b800f","ios":"levelo://app?vid=e58fedb9-a57d-4be1-8ab0-757e8b5b800f"},"vehicle_type_id":"4","last_reported":1684609450,"current_range_meters":4000,"station_id":"","pricing_plan_id":"free"},{"bike_id":"3fdf3590-377d-4457-aec6-c56425f43c68","system_id":"levelo_inurba_marseille","lat":43.3171,"lon":5.3767,"is_reserved":false,"is_disabled":false,"rental_uris":{"android":"levelo://app?vid=3fdf3590-377d-4457-aec6-c56425f43c68","ios":"levelo://app?vid=3fdf3590-377d-4457-aec6-c56425f43c68"},"vehicle_type_id":"4","last_reported":1684609450,"current_range_meters":0,"station_id":"","pricing_plan_id":"free"},{"bike_id":"906de340-506a-4f05-9639-8551c35c3cf4","system_id":"levelo_inurba_marseille","lat":43.317075,"lon":5.377367,"is_reserved":false,"is_disabled":false,"rental_uris":{"android":"levelo://app?vid=906de340-506a-4f05-9639-8551c35c3cf4","ios":"levelo://app?vid=906de340-506a-4f05-9639-8551c35c3cf4"},"vehicle_type_id":"4","last_reported":1684609450,"current_range_meters":31600,"station_id":"ce4bgth2rcd13ifvqch0","pricing_plan_id":"free"},{"bike_id":"a2e52e89-4351-4904-995e-8b042307d396","system_id":"levelo_inurba_marseille","lat":43.317075,"lon":5.377367,"is_reserved":false,"is_disabled":false,"rental_uris":{"android":"levelo://app?vid=a2e52e89-4351-4904-995e-8b042307d396","ios":"levelo://app?vid=a2e52e89-4351-4904-995e-8b042307d396"},"vehicle_type_id":"4","last_reported":1684609450,"current_range_meters":28400,"station_id":"ce4bgth2rcd13ifvqch0","pricing_plan_id":"free"},{"bike_id":"9f53324e-4118-4eb1-ae1f-c18ea90a6e62","system_id":"levelo_inurba_marseille","lat":43.31712,"lon":5.37758,"is_reserved":false,"is_disabled":false,"rental_uris":{"android":"levelo://app?vid=9f53324e-4118-4eb1-ae1f-c18ea90a6e62","ios":"levelo://app?vid=9f53324e-4118-4eb1-ae1f-c18ea90a6e62"},"vehicle_type_id":"4","last_reported":1684609450,"current_range_meters":30400,"station_id":"ce4bgth2rcd13ifvqch0","pricing_plan_id":"free"},{"bike_id":"1882916f-80f8-41b8-b1de-6c334bcf1f0b","system_id":"levelo_inurba_marseille","lat":43.317075,"lon":5.377367,"is_reserved":false,"is_disabled":false,"rental_uris":{"android":"levelo://app?vid=1882916f-80f8-41b8-b1de-6c334bcf1f0b","ios":"levelo://app?vid=1882916f-80f8-41b8-b1de-6c334bcf1f0b"},"vehicle_type_id":"4","last_reported":1684609450,"current_range_meters":31600,"station_id":"ce4bgth2rcd13ifvqch0","pricing_plan_id":"free"},{"bike_id":"c27523af-0050-40ba-86ce-6f147ab29d86","system_id":"levelo_inurba_marseille","lat":43.317075,"lon":5.377367,"is_reserved":false,"is_disabled":false,"rental_uris":{"android":"levelo://app?vid=c27523af-0050-40ba-86ce-6f147ab29d86","ios":"levelo://app?vid=c27523af-0050-40ba-86ce-6f147ab29d86"},"vehicle_type_id":"4","last_reported":1684609450,"current_range_meters":14800,"station_id":"ce4bgth2rcd13ifvqch0","pricing_plan_id":"free"},{"bike_id":"b67dfb91-386b-4581-b8b6-e63a115e83f6","system_id":"levelo_inurba_marseille","lat":43.317075,"lon":5.377367,"is_reserved":false,"is_disabled":false,"rental_uris":{"android":"levelo://app?vid=b67dfb91-386b-4581-b8b6-e63a115e83f6","ios":"levelo://app?vid=b67dfb91-386b-4581-b8b6-e63a115e83f6"},"vehicle_type_id":"4","last_reported":1684609450,"current_range_meters":27600,"station_id":"ce4bgth2rcd13ifvqch0","pricing_plan_id":"free"},{"bike_id":"752d47ae-6d5c-4077-8a80-524f92481ff9","system_id":"levelo_inurba_marseille","lat":43.3031,"lon":5.36896,"is_reserved":false,"is_disabled":false,"rental_uris":{"android":"levelo://app?vid=752d47ae-6d5c-4077-8a80-524f92481ff9","ios":"levelo://app?vid=752d47ae-6d5c-4077-8a80-524f92481ff9"},"vehicle_type_id":"4","last_reported":1684609450,"current_range_meters":26000,"station_id":"ce4bgqh2rcd13ifvqc5g","pricing_plan_id":"free"},{"bike_id":"ab20cd49-961a-48e1-846d-65b515192c98","system_id":"levelo_inurba_marseille","lat":43.315289,"lon":5.380349,"is_reserved":false,"is_disabled":false,"rental_uris":{"android":"levelo://app?vid=ab20cd49-961a-48e1-846d-65b515192c98","ios":"levelo://app?vid=ab20cd49-961a-48e1-846d-65b515192c98"},"vehicle_type_id":"4","last_reported":1684609450,"current_range_meters":31600,"station_id":"ce4bhsp2rcd13ifvqi50","pricing_plan_id":"free"},{"bike_id":"f9460b76-bd73-4919-8eb0-0d6d6b7e025b","system_id":"levelo_inurba_marseille","lat":43.315293,"lon":5.380349,"is_reserved":false,"is_disabled":false,"rental_uris":{"android":"levelo://app?vid=f9460b76-bd73-4919-8eb0-0d6d6b7e025b","ios":"levelo://app?vid=f9460b76-bd73-4919-8eb0-0d6d6b7e025b"},"vehicle_type_id":"4","last_reported":1684609450,"current_range_meters":27200,"station_id":"ce4bhsp2rcd13ifvqi50","pricing_plan_id":"free"},{"bike_id":"759d092a-9aee-4e39-8d64-c1b7b866e975","system_id":"levelo_inurba_marseille","lat":43.315293,"lon":5.380349,"is_reserved":false,"is_disabled":false,"rental_uris":{"android":"levelo://app?vid=759d092a-9aee-4e39-8d64-c1b7b866e975","ios":"levelo://app?vid=759d092a-9aee-4e39-8d64-c1b7b866e975"},"vehicle_type_id":"4","last_reported":1684609450,"current_range_meters":31600,"station_id":"ce4bhsp2rcd13ifvqi50","pricing_plan_id":"free"},{"bike_id":"5c875f93-100d-472e-a57b-04c13ba8d675","system_id":"levelo_inurba_marseille","lat":43.308012,"lon":5.381511,"is_reserved":false,"is_disabled":false,"rental_uris":{"android":"levelo://app?vid=5c875f93-100d-472e-a57b-04c13ba8d675","ios":"levelo://app?vid=5c875f93-100d-472e-a57b-04c13ba8d675"},"vehicle_type_id":"4","last_reported":1684609450,"current_range_meters":10800,"station_id":"ce4bgt12rcd13ifvqce0","pricing_plan_id":"free"},{"bike_id":"1c85d5b6-8ee4-4aa3-a270-977d5772da60","system_id":"levelo_inurba_marseille","lat":43.308012,"lon":5.381511,"is_reserved":false,"is_disabled":false,"rental_uris":{"android":"levelo://app?vid=1c85d5b6-8ee4-4aa3-a270-977d5772da60","ios":"levelo://app?vid=1c85d5b6-8ee4-4aa3-a270-977d5772da60"},"vehicle_type_id":"4","last_reported":1684609450,"current_range_meters":22400,"station_id":"ce4bgt12rcd13ifvqce0","pricing_plan_id":"free"},{"bike_id":"88884c60-6d71-47ce-83ee-5b4422b8b753","system_id":"levelo_inurba_marseille","lat":43.308012,"lon":5.381511,"is_reserved":false,"is_disabled":false,"rental_uris":{"android":"levelo://app?vid=88884c60-6d71-47ce-83ee-5b4422b8b753","ios":"levelo://app?vid=88884c60-6d71-47ce-83ee-5b4422b8b753"},"vehicle_type_id":"4","last_reported":1684609450,"current_range_meters":14400,"station_id":"ce4bgt12rcd13ifvqce0","pricing_plan_id":"free"},{"bike_id":"e974bce5-f02f-4930-a1ba-6edbff55b68a","system_id":"levelo_inurba_marseille","lat":43.308012,"lon":5.381511,"is_reserved":false,"is_disabled":false,"rental_uris":{"android":"levelo://app?vid=e974bce5-f02f-4930-a1ba-6edbff55b68a","ios":"levelo://app?vid=e974bce5-f02f-4930-a1ba-6edbff55b68a"},"vehicle_type_id":"4","last_reported":1684609450,"current_range_meters":23600,"station_id":"ce4bgt12rcd13ifvqce0","pricing_plan_id":"free"},{"bike_id":"6efd6c9f-e6cf-4928-9bfb-2dee82e54b3c","system_id":"levelo_inurba_marseille","lat":43.308012,"lon":5.381511,"is_reserved":false,"is_disabled":false,"rental_uris":{"android":"levelo://app?vid=6efd6c9f-e6cf-4928-9bfb-2dee82e54b3c","ios":"levelo://app?vid=6efd6c9f-e6cf-4928-9bfb-2dee82e54b3c"},"vehicle_type_id":"4","last_reported":1684609450,"current_range_meters":31200,"station_id":"ce4bgt12rcd13ifvqce0","pricing_plan_id":"free"},{"bike_id":"d955698b-9389-4edb-b6ee-2127306b00a9","system_id":"levelo_inurba_marseille","lat":43.304606,"lon":5.379026,"is_reserved":false,"is_disabled":false,"rental_uris":{"android":"levelo://app?vid=d955698b-9389-4edb-b6ee-2127306b00a9","ios":"levelo://app?vid=d955698b-9389-4edb-b6ee-2127306b00a9"},"vehicle_type_id":"4","last_reported":1684609450,"current_range_meters":3200,"station_id":"ce4bgup2rcd13ifvqcn0","pricing_plan_id":"free"},{"bike_id":"7142b64d-6cb8-4308-bcd7-643639486303","system_id":"levelo_inurba_marseille","lat":43.31993,"lon":5.38139,"is_reserved":false,"is_disabled":false,"rental_uris":{"android":"levelo://app?vid=7142b64d-6cb8-4308-bcd7-643639486303","ios":"levelo://app?vid=7142b64d-6cb8-4308-bcd7-643639486303"},"vehicle_type_id":"4","last_reported":1684609450,"current_range_meters":30400,"station_id":"ce4bhr12rcd13ifvqhpg","pricing_plan_id":"free"},{"bike_id":"ec21fc83-0656-4fb1-8d68-8074c67e0bce","system_id":"levelo_inurba_marseille","lat":43.313571,"lon":5.384829,"is_reserved":false,"is_disabled":false,"rental_uris":{"android":"levelo://app?vid=ec21fc83-0656-4fb1-8d68-8074c67e0bce","ios":"levelo://app?vid=ec21fc83-0656-4fb1-8d68-8074c67e0bce"},"vehicle_type_id":"4","last_reported":1684609450,"current_range_meters":30800,"station_id":"ce4bgt92rcd13ifvqcf0","pricing_plan_id":"free"},{"bike_id":"1e6f7d09-aa6d-4b8f-a940-c996b4be0c46","system_id":"levelo_inurba_marseille","lat":43.299222,"lon":5.365554,"is_reserved":false,"is_disabled":false,"rental_uris":{"android":"levelo://app?vid=1e6f7d09-aa6d-4b8f-a940-c996b4be0c46","ios":"levelo://app?vid=1e6f7d09-aa6d-4b8f-a940-c996b4be0c46"},"vehicle_type_id":"4","last_reported":1684609450,"current_range_meters":18400,"station_id":"ce4bgm92rcd13ifvqbr0","pricing_plan_id":"free"},{"bike_id":"cdee02f5-c3cc-4e03-b762-c2de8d28e1b0","system_id":"levelo_inurba_marseille","lat":43.299222,"lon":5.365554,"is_reserved":false,"is_disabled":false,"rental_uris":{"android":"levelo://app?vid=cdee02f5-c3cc-4e03-b762-c2de8d28e1b0","ios":"levelo://app?vid=cdee02f5-c3cc-4e03-b762-c2de8d28e1b0"},"vehicle_type_id":"4","last_reported":1684609450,"current_range_meters":25600,"station_id":"ce4bgm92rcd13ifvqbr0","pricing_plan_id":"free"},{"bike_id":"a3c38125-d01b-41a0-8fc7-ff73f34790a5","system_id":"levelo_inurba_marseille","lat":43.305364,"lon":5.384119,"is_reserved":false,"is_disabled":false,"rental_uris":{"android":"levelo://app?vid=a3c38125-d01b-41a0-8fc7-ff73f34790a5","ios":"levelo://app?vid=a3c38125-d01b-41a0-8fc7-ff73f34790a5"},"vehicle_type_id":"4","last_reported":1684609450,"current_range_meters":27600,"station_id":"ce4bgg92rcd13ifvqb30","pricing_plan_id":"free"},{"bike_id":"aa7ff445-8562-4b4b-b18c-16a6ff539ecf","system_id":"levelo_inurba_marseille","lat":43.29845,"lon":5.36276,"is_reserved":false,"is_disabled":false,"rental_uris":{"android":"levelo://app?vid=aa7ff445-8562-4b4b-b18c-16a6ff539ecf","ios":"levelo://app?vid=aa7ff445-8562-4b4b-b18c-16a6ff539ecf"},"vehicle_type_id":"4","last_reported":1684609450,"current_range_meters":23200,"station_id":"ce4bgpp2rcd13ifvqc3g","pricing_plan_id":"free"},{"bike_id":"c8055d66-e67d-4494-8b36-ba022f1c0e46","system_id":"levelo_inurba_marseille","lat":43.299243,"lon":5.374807,"is_reserved":false,"is_disabled":false,"rental_uris":{"android":"levelo://app?vid=c8055d66-e67d-4494-8b36-ba022f1c0e46","ios":"levelo://app?vid=c8055d66-e67d-4494-8b36-ba022f1c0e46"},"vehicle_type_id":"4","last_reported":1684609450,"current_range_meters":17600,"station_id":"ce4bgjh2rcd13ifvqbg0","pricing_plan_id":"free"},{"bike_id":"e66f6cdd-fb89-4a87-8588-ea0549ec081d","system_id":"levelo_inurba_marseille","lat":43.299243,"lon":5.374807,"is_reserved":false,"is_disabled":false,"rental_uris":{"android":"levelo://app?vid=e66f6cdd-fb89-4a87-8588-ea0549ec081d","ios":"levelo://app?vid=e66f6cdd-fb89-4a87-8588-ea0549ec081d"},"vehicle_type_id":"4","last_reported":1684609450,"current_range_meters":31600,"station_id":"ce4bgjh2rcd13ifvqbg0","pricing_plan_id":"free"},{"bike_id":"17758178-c0e1-4742-a332-e2df57be5107","system_id":"levelo_inurba_marseille","lat":43.2991,"lon":5.37464,"is_reserved":false,"is_disabled":false,"rental_uris":{"android":"levelo://app?vid=17758178-c0e1-4742-a332-e2df57be5107","ios":"levelo://app?vid=17758178-c0e1-4742-a332-e2df57be5107"},"vehicle_type_id":"4","last_reported":1684609450,"current_range_meters":23600,"station_id":"ce4bgjh2rcd13ifvqbg0","pricing_plan_id":"free"},{"bike_id":"71a7cd51-c98e-4b63-902f-c2f5a808a065","system_id":"levelo_inurba_marseille","lat":43.32766,"lon":5.36695,"is_reserved":false,"is_disabled":false,"rental_uris":{"android":"levelo://app?vid=71a7cd51-c98e-4b63-902f-c2f5a808a065","ios":"levelo://app?vid=71a7cd51-c98e-4b63-902f-c2f5a808a065"},"vehicle_type_id":"4","last_reported":1684609450,"current_range_meters":21600,"station_id":"","pricing_plan_id":"free"},{"bike_id":"41a2b8f0-2bb4-48af-b01a-5624103b582f","system_id":"levelo_inurba_marseille","lat":43.297794,"lon":5.370888,"is_reserved":false,"is_disabled":false,"rental_uris":{"android":"levelo://app?vid=41a2b8f0-2bb4-48af-b01a-5624103b582f","ios":"levelo://app?vid=41a2b8f0-2bb4-48af-b01a-5624103b582f"},"vehicle_type_id":"4","last_reported":1684609450,"current_range_meters":30400,"station_id":"ce4bgop2rcd13ifvqc1g","pricing_plan_id":"free"},{"bike_id":"c93f1c63-b12b-4280-a8de-ee4084296d56","system_id":"levelo_inurba_marseille","lat":43.297794,"lon":5.370888,"is_reserved":false,"is_disabled":false,"rental_uris":{"android":"levelo://app?vid=c93f1c63-b12b-4280-a8de-ee4084296d56","ios":"levelo://app?vid=c93f1c63-b12b-4280-a8de-ee4084296d56"},"vehicle_type_id":"4","last_reported":1684609450,"current_range_meters":25600,"station_id":"ce4bgop2rcd13ifvqc1g","pricing_plan_id":"free"},{"bike_id":"5cf7ffc9-a389-4209-a251-5b3b341d543c","system_id":"levelo_inurba_marseille","lat":43.297794,"lon":5.370888,"is_reserved":false,"is_disabled":false,"rental_uris":{"android":"levelo://app?vid=5cf7ffc9-a389-4209-a251-5b3b341d543c","ios":"levelo://app?vid=5cf7ffc9-a389-4209-a251-5b3b341d543c"},"vehicle_type_id":"4","last_reported":1684609450,"current_range_meters":31200,"station_id":"ce4bgop2rcd13ifvqc1g","pricing_plan_id":"free"},{"bike_id":"3a71f41b-23a8-4407-ba65-e6ca37d7f313","system_id":"levelo_inurba_marseille","lat":43.297794,"lon":5.370888,"is_reserved":false,"is_disabled":false,"rental_uris":{"android":"levelo://app?vid=3a71f41b-23a8-4407-ba65-e6ca37d7f313","ios":"levelo://app?vid=3a71f41b-23a8-4407-ba65-e6ca37d7f313"},"vehicle_type_id":"4","last_reported":1684609450,"current_range_meters":31200,"station_id":"ce4bgop2rcd13ifvqc1g","pricing_plan_id":"free"},{"bike_id":"f6125cd9-9865-47e7-b252-332a74b0e971","system_id":"levelo_inurba_marseille","lat":43.29777,"lon":5.37089,"is_reserved":false,"is_disabled":false,"rental_uris":{"android":"levelo://app?vid=f6125cd9-9865-47e7-b252-332a74b0e971","ios":"levelo://app?vid=f6125cd9-9865-47e7-b252-332a74b0e971"},"vehicle_type_id":"4","last_reported":1684609450,"current_range_meters":28800,"station_id":"ce4bgop2rcd13ifvqc1g","pricing_plan_id":"free"},{"bike_id":"de338054-150d-4f92-8ba2-f43c70283500","system_id":"levelo_inurba_marseille","lat":43.328371,"lon":5.366909,"is_reserved":false,"is_disabled":false,"rental_uris":{"android":"levelo://app?vid=de338054-150d-4f92-8ba2-f43c70283500","ios":"levelo://app?vid=de338054-150d-4f92-8ba2-f43c70283500"},"vehicle_type_id":"4","last_reported":1684609450,"current_range_meters":19600,"station_id":"ce4bhs92rcd13ifvqi0g","pricing_plan_id":"free"},{"bike_id":"fccfd339-db22-4277-bdd0-196f87e474ac","system_id":"levelo_inurba_marseille","lat":43.328371,"lon":5.366909,"is_reserved":false,"is_disabled":false,"rental_uris":{"android":"levelo://app?vid=fccfd339-db22-4277-bdd0-196f87e474ac","ios":"levelo://app?vid=fccfd339-db22-4277-bdd0-196f87e474ac"},"vehicle_type_id":"4","last_reported":1684609450,"current_range_meters":22400,"station_id":"ce4bhs92rcd13ifvqi0g","pricing_plan_id":"free"},{"bike_id":"411c53dc-8a67-493a-b123-b1e299cae53c","system_id":"levelo_inurba_marseille","lat":43.328371,"lon":5.366909,"is_reserved":false,"is_disabled":false,"rental_uris":{"android":"levelo://app?vid=411c53dc-8a67-493a-b123-b1e299cae53c","ios":"levelo://app?vid=411c53dc-8a67-493a-b123-b1e299cae53c"},"vehicle_type_id":"4","last_reported":1684609450,"current_range_meters":30800,"station_id":"ce4bhs92rcd13ifvqi0g","pricing_plan_id":"free"},{"bike_id":"603ebff5-e2d7-41cd-ab80-1218573f88c5","system_id":"levelo_inurba_marseille","lat":43.328371,"lon":5.366909,"is_reserved":false,"is_disabled":false,"rental_uris":{"android":"levelo://app?vid=603ebff5-e2d7-41cd-ab80-1218573f88c5","ios":"levelo://app?vid=603ebff5-e2d7-41cd-ab80-1218573f88c5"},"vehicle_type_id":"4","last_reported":1684609450,"current_range_meters":30400,"station_id":"ce4bhs92rcd13ifvqi0g","pricing_plan_id":"free"},{"bike_id":"9d891959-73d6-4c5c-ad12-227228d64e9d","system_id":"levelo_inurba_marseille","lat":43.328371,"lon":5.366909,"is_reserved":false,"is_disabled":false,"rental_uris":{"android":"levelo://app?vid=9d891959-73d6-4c5c-ad12-227228d64e9d","ios":"levelo://app?vid=9d891959-73d6-4c5c-ad12-227228d64e9d"},"vehicle_type_id":"4","last_reported":1684609450,"current_range_meters":20000,"station_id":"ce4bhs92rcd13ifvqi0g","pricing_plan_id":"free"},{"bike_id":"e2ca859c-adc2-490e-87b5-d090c43cf20d","system_id":"levelo_inurba_marseille","lat":43.328371,"lon":5.366909,"is_reserved":false,"is_disabled":false,"rental_uris":{"android":"levelo://app?vid=e2ca859c-adc2-490e-87b5-d090c43cf20d","ios":"levelo://app?vid=e2ca859c-adc2-490e-87b5-d090c43cf20d"},"vehicle_type_id":"4","last_reported":1684609450,"current_range_meters":2000,"station_id":"ce4bhs92rcd13ifvqi0g","pricing_plan_id":"free"},{"bike_id":"bd0cd171-ddc8-443f-ad52-c3c60e0946fd","system_id":"levelo_inurba_marseille","lat":43.29715,"lon":5.36618,"is_reserved":false,"is_disabled":false,"rental_uris":{"android":"levelo://app?vid=bd0cd171-ddc8-443f-ad52-c3c60e0946fd","ios":"levelo://app?vid=bd0cd171-ddc8-443f-ad52-c3c60e0946fd"},"vehicle_type_id":"4","last_reported":1684609450,"current_range_meters":3200,"station_id":"","pricing_plan_id":"free"},{"bike_id":"a7fb6a73-9ebf-4b56-938e-67995ffda768","system_id":"levelo_inurba_marseille","lat":43.328371,"lon":5.366909,"is_reserved":false,"is_disabled":false,"rental_uris":{"android":"levelo://app?vid=a7fb6a73-9ebf-4b56-938e-67995ffda768","ios":"levelo://app?vid=a7fb6a73-9ebf-4b56-938e-67995ffda768"},"vehicle_type_id":"4","last_reported":1684609450,"current_range_meters":31200,"station_id":"ce4bhs92rcd13ifvqi0g","pricing_plan_id":"free"},{"bike_id":"4b929a14-f780-486b-bbcc-511dfd1d59e1","system_id":"levelo_inurba_marseille","lat":43.29699,"lon":5.366,"is_reserved":false,"is_disabled":false,"rental_uris":{"android":"levelo://app?vid=4b929a14-f780-486b-bbcc-511dfd1d59e1","ios":"levelo://app?vid=4b929a14-f780-486b-bbcc-511dfd1d59e1"},"vehicle_type_id":"4","last_reported":1684609450,"current_range_meters":22400,"station_id":"","pricing_plan_id":"free"},{"bike_id":"8fd9343a-2fcc-420f-86ef-27715ca38bbc","system_id":"levelo_inurba_marseille","lat":43.2968,"lon":5.37291,"is_reserved":false,"is_disabled":false,"rental_uris":{"android":"levelo://app?vid=8fd9343a-2fcc-420f-86ef-27715ca38bbc","ios":"levelo://app?vid=8fd9343a-2fcc-420f-86ef-27715ca38bbc"},"vehicle_type_id":"4","last_reported":1684609450,"current_range_meters":28800,"station_id":"ce4bgk12rcd13ifvqbj0","pricing_plan_id":"free"},{"bike_id":"018b85d9-1f3f-4e4b-8baa-c745c0b04bb0","system_id":"levelo_inurba_marseille","lat":43.2968,"lon":5.37291,"is_reserved":false,"is_disabled":false,"rental_uris":{"android":"levelo://app?vid=018b85d9-1f3f-4e4b-8baa-c745c0b04bb0","ios":"levelo://app?vid=018b85d9-1f3f-4e4b-8baa-c745c0b04bb0"},"vehicle_type_id":"4","last_reported":1684609450,"current_range_meters":29200,"station_id":"ce4bgk12rcd13ifvqbj0","pricing_plan_id":"free"},{"bike_id":"a10d20a8-090c-4977-8302-b75d6d4c0794","system_id":"levelo_inurba_marseille","lat":43.2968,"lon":5.37291,"is_reserved":false,"is_disabled":false,"rental_uris":{"android":"levelo://app?vid=a10d20a8-090c-4977-8302-b75d6d4c0794","ios":"levelo://app?vid=a10d20a8-090c-4977-8302-b75d6d4c0794"},"vehicle_type_id":"4","last_reported":1684609450,"current_range_meters":31200,"station_id":"ce4bgk12rcd13ifvqbj0","pricing_plan_id":"free"},{"bike_id":"ee6619ff-faea-4d23-a990-697445c25ee4","system_id":"levelo_inurba_marseille","lat":43.296131,"lon":5.370773,"is_reserved":false,"is_disabled":false,"rental_uris":{"android":"levelo://app?vid=ee6619ff-faea-4d23-a990-697445c25ee4","ios":"levelo://app?vid=ee6619ff-faea-4d23-a990-697445c25ee4"},"vehicle_type_id":"4","last_reported":1684609450,"current_range_meters":24800,"station_id":"ce4bgnh2rcd13ifvqc0g","pricing_plan_id":"free"},{"bike_id":"1a70e888-756f-4b2b-8101-40121b4fd2d5","system_id":"levelo_inurba_marseille","lat":43.296129,"lon":5.370777,"is_reserved":false,"is_disabled":false,"rental_uris":{"android":"levelo://app?vid=1a70e888-756f-4b2b-8101-40121b4fd2d5","ios":"levelo://app?vid=1a70e888-756f-4b2b-8101-40121b4fd2d5"},"vehicle_type_id":"4","last_reported":1684609450,"current_range_meters":30400,"station_id":"ce4bgnh2rcd13ifvqc0g","pricing_plan_id":"free"},{"bike_id":"50d173d1-18ff-41f7-9eb8-ae9dc916a04c","system_id":"levelo_inurba_marseille","lat":43.296131,"lon":5.370791,"is_reserved":false,"is_disabled":false,"rental_uris":{"android":"levelo://app?vid=50d173d1-18ff-41f7-9eb8-ae9dc916a04c","ios":"levelo://app?vid=50d173d1-18ff-41f7-9eb8-ae9dc916a04c"},"vehicle_type_id":"4","last_reported":1684609450,"current_range_meters":28800,"station_id":"ce4bgnh2rcd13ifvqc0g","pricing_plan_id":"free"},{"bike_id":"9428382f-f8d8-43ea-8dce-6c96c2d3e1a1","system_id":"levelo_inurba_marseille","lat":43.296129,"lon":5.370777,"is_reserved":false,"is_disabled":false,"rental_uris":{"android":"levelo://app?vid=9428382f-f8d8-43ea-8dce-6c96c2d3e1a1","ios":"levelo://app?vid=9428382f-f8d8-43ea-8dce-6c96c2d3e1a1"},"vehicle_type_id":"4","last_reported":1684609450,"current_range_meters":18400,"station_id":"ce4bgnh2rcd13ifvqc0g","pricing_plan_id":"free"},{"bike_id":"14060c1f-51a9-426a-86f0-e4083e7e25f7","system_id":"levelo_inurba_marseille","lat":43.296131,"lon":5.370791,"is_reserved":false,"is_disabled":false,"rental_uris":{"android":"levelo://app?vid=14060c1f-51a9-426a-86f0-e4083e7e25f7","ios":"levelo://app?vid=14060c1f-51a9-426a-86f0-e4083e7e25f7"},"vehicle_type_id":"4","last_reported":1684609450,"current_range_meters":31600,"station_id":"ce4bgnh2rcd13ifvqc0g","pricing_plan_id":"free"},{"bike_id":"8c1ec357-0bbb-42b9-9a40-1859fc95bd78","system_id":"levelo_inurba_marseille","lat":43.296131,"lon":5.370773,"is_reserved":false,"is_disabled":false,"rental_uris":{"android":"levelo://app?vid=8c1ec357-0bbb-42b9-9a40-1859fc95bd78","ios":"levelo://app?vid=8c1ec357-0bbb-42b9-9a40-1859fc95bd78"},"vehicle_type_id":"4","last_reported":1684609450,"current_range_meters":18400,"station_id":"ce4bgnh2rcd13ifvqc0g","pricing_plan_id":"free"},{"bike_id":"6dbde9a3-2bd1-4af4-ac15-87072668b57a","system_id":"levelo_inurba_marseille","lat":43.296131,"lon":5.370773,"is_reserved":false,"is_disabled":false,"rental_uris":{"android":"levelo://app?vid=6dbde9a3-2bd1-4af4-ac15-87072668b57a","ios":"levelo://app?vid=6dbde9a3-2bd1-4af4-ac15-87072668b57a"},"vehicle_type_id":"4","last_reported":1684609450,"current_range_meters":28400,"station_id":"ce4bgnh2rcd13ifvqc0g","pricing_plan_id":"free"},{"bike_id":"657bca6d-8e8f-47c9-aff1-e87c0019496b","system_id":"levelo_inurba_marseille","lat":43.29573,"lon":5.367355,"is_reserved":false,"is_disabled":false,"rental_uris":{"android":"levelo://app?vid=657bca6d-8e8f-47c9-aff1-e87c0019496b","ios":"levelo://app?vid=657bca6d-8e8f-47c9-aff1-e87c0019496b"},"vehicle_type_id":"4","last_reported":1684609450,"current_range_meters":30400,"station_id":"ce4bgph2rcd13ifvqc2g","pricing_plan_id":"free"},{"bike_id":"1d0998d3-da8c-4aed-96f0-608a1f7a49d9","system_id":"levelo_inurba_marseille","lat":43.29573,"lon":5.367355,"is_reserved":false,"is_disabled":false,"rental_uris":{"android":"levelo://app?vid=1d0998d3-da8c-4aed-96f0-608a1f7a49d9","ios":"levelo://app?vid=1d0998d3-da8c-4aed-96f0-608a1f7a49d9"},"vehicle_type_id":"4","last_reported":1684609450,"current_range_meters":31600,"station_id":"ce4bgph2rcd13ifvqc2g","pricing_plan_id":"free"},{"bike_id":"961d69b5-7e0e-44c4-a861-e1ee014eb732","system_id":"levelo_inurba_marseille","lat":43.29573,"lon":5.367355,"is_reserved":false,"is_disabled":false,"rental_uris":{"android":"levelo://app?vid=961d69b5-7e0e-44c4-a861-e1ee014eb732","ios":"levelo://app?vid=961d69b5-7e0e-44c4-a861-e1ee014eb732"},"vehicle_type_id":"4","last_reported":1684609450,"current_range_meters":31200,"station_id":"ce4bgph2rcd13ifvqc2g","pricing_plan_id":"free"},{"bike_id":"ec735272-d4e9-4314-8b92-56bae96c785a","system_id":"levelo_inurba_marseille","lat":43.29573,"lon":5.367355,"is_reserved":false,"is_disabled":false,"rental_uris":{"android":"levelo://app?vid=ec735272-d4e9-4314-8b92-56bae96c785a","ios":"levelo://app?vid=ec735272-d4e9-4314-8b92-56bae96c785a"},"vehicle_type_id":"4","last_reported":1684609450,"current_range_meters":18400,"station_id":"ce4bgph2rcd13ifvqc2g","pricing_plan_id":"free"},{"bike_id":"8cb3327b-b1d9-45b2-a8ec-a509cdc59380","system_id":"levelo_inurba_marseille","lat":43.296129,"lon":5.370777,"is_reserved":false,"is_disabled":false,"rental_uris":{"android":"levelo://app?vid=8cb3327b-b1d9-45b2-a8ec-a509cdc59380","ios":"levelo://app?vid=8cb3327b-b1d9-45b2-a8ec-a509cdc59380"},"vehicle_type_id":"4","last_reported":1684609450,"current_range_meters":31600,"station_id":"ce4bgnh2rcd13ifvqc0g","pricing_plan_id":"free"},{"bike_id":"1939874e-e82b-47b6-9890-d1697efba9ef","system_id":"levelo_inurba_marseille","lat":43.296921,"lon":5.376579,"is_reserved":false,"is_disabled":false,"rental_uris":{"android":"levelo://app?vid=1939874e-e82b-47b6-9890-d1697efba9ef","ios":"levelo://app?vid=1939874e-e82b-47b6-9890-d1697efba9ef"},"vehicle_type_id":"4","last_reported":1684609450,"current_range_meters":27600,"station_id":"ce4bgkh2rcd13ifvqbl0","pricing_plan_id":"free"},{"bike_id":"fb93c5a0-9bd3-4259-a605-c6520d0c8359","system_id":"levelo_inurba_marseille","lat":43.31754,"lon":5.39003,"is_reserved":false,"is_disabled":false,"rental_uris":{"android":"levelo://app?vid=fb93c5a0-9bd3-4259-a605-c6520d0c8359","ios":"levelo://app?vid=fb93c5a0-9bd3-4259-a605-c6520d0c8359"},"vehicle_type_id":"4","last_reported":1684609450,"current_range_meters":25200,"station_id":"ce4bhqp2rcd13ifvqhng","pricing_plan_id":"free"},{"bike_id":"7ccdf964-879f-4af8-bcb9-0bfc70a2cad2","system_id":"levelo_inurba_marseille","lat":43.317557,"lon":5.390173,"is_reserved":false,"is_disabled":false,"rental_uris":{"android":"levelo://app?vid=7ccdf964-879f-4af8-bcb9-0bfc70a2cad2","ios":"levelo://app?vid=7ccdf964-879f-4af8-bcb9-0bfc70a2cad2"},"vehicle_type_id":"4","last_reported":1684609450,"current_range_meters":22000,"station_id":"ce4bhqp2rcd13ifvqhng","pricing_plan_id":"free"},{"bike_id":"5ecb331d-8c6f-4338-8806-8cde07be5d2b","system_id":"levelo_inurba_marseille","lat":43.317557,"lon":5.390173,"is_reserved":false,"is_disabled":false,"rental_uris":{"android":"levelo://app?vid=5ecb331d-8c6f-4338-8806-8cde07be5d2b","ios":"levelo://app?vid=5ecb331d-8c6f-4338-8806-8cde07be5d2b"},"vehicle_type_id":"4","last_reported":1684609450,"current_range_meters":20800,"station_id":"ce4bhqp2rcd13ifvqhng","pricing_plan_id":"free"},{"bike_id":"f033f00a-6274-4738-9f29-de87994da64a","system_id":"levelo_inurba_marseille","lat":43.317557,"lon":5.390173,"is_reserved":false,"is_disabled":false,"rental_uris":{"android":"levelo://app?vid=f033f00a-6274-4738-9f29-de87994da64a","ios":"levelo://app?vid=f033f00a-6274-4738-9f29-de87994da64a"},"vehicle_type_id":"4","last_reported":1684609450,"current_range_meters":6000,"station_id":"ce4bhqp2rcd13ifvqhng","pricing_plan_id":"free"},{"bike_id":"308b9c79-bd84-4e52-8df1-b9e114b2c86d","system_id":"levelo_inurba_marseille","lat":43.298037,"lon":5.381066,"is_reserved":false,"is_disabled":false,"rental_uris":{"android":"levelo://app?vid=308b9c79-bd84-4e52-8df1-b9e114b2c86d","ios":"levelo://app?vid=308b9c79-bd84-4e52-8df1-b9e114b2c86d"},"vehicle_type_id":"4","last_reported":1684609450,"current_range_meters":16000,"station_id":"ce4bgip2rcd13ifvqbb0","pricing_plan_id":"free"},{"bike_id":"c9ee41a9-6e34-4557-8c1e-08edb8f400a7","system_id":"levelo_inurba_marseille","lat":43.304278,"lon":5.388868,"is_reserved":false,"is_disabled":false,"rental_uris":{"android":"levelo://app?vid=c9ee41a9-6e34-4557-8c1e-08edb8f400a7","ios":"levelo://app?vid=c9ee41a9-6e34-4557-8c1e-08edb8f400a7"},"vehicle_type_id":"4","last_reported":1684609450,"current_range_meters":12800,"station_id":"ce4bgk12rcd13ifvqbi0","pricing_plan_id":"free"},{"bike_id":"28328cf3-83e7-413c-a4aa-21ebe15bb429","system_id":"levelo_inurba_marseille","lat":43.304274,"lon":5.388873,"is_reserved":false,"is_disabled":false,"rental_uris":{"android":"levelo://app?vid=28328cf3-83e7-413c-a4aa-21ebe15bb429","ios":"levelo://app?vid=28328cf3-83e7-413c-a4aa-21ebe15bb429"},"vehicle_type_id":"4","last_reported":1684609450,"current_range_meters":15200,"station_id":"ce4bgk12rcd13ifvqbi0","pricing_plan_id":"free"},{"bike_id":"875d54f4-72a4-4095-a784-6a6d7580b2d6","system_id":"levelo_inurba_marseille","lat":43.296277,"lon":5.377108,"is_reserved":false,"is_disabled":false,"rental_uris":{"android":"levelo://app?vid=875d54f4-72a4-4095-a784-6a6d7580b2d6","ios":"levelo://app?vid=875d54f4-72a4-4095-a784-6a6d7580b2d6"},"vehicle_type_id":"4","last_reported":1684609450,"current_range_meters":12800,"station_id":"ce4bgi92rcd13ifvqb90","pricing_plan_id":"free"},{"bike_id":"8226057b-d6c1-4dae-9479-0bac03549f6b","system_id":"levelo_inurba_marseille","lat":43.295279,"lon":5.375048,"is_reserved":false,"is_disabled":false,"rental_uris":{"android":"levelo://app?vid=8226057b-d6c1-4dae-9479-0bac03549f6b","ios":"levelo://app?vid=8226057b-d6c1-4dae-9479-0bac03549f6b"},"vehicle_type_id":"4","last_reported":1684609450,"current_range_meters":27600,"station_id":"ce4bgkp2rcd13ifvqbmg","pricing_plan_id":"free"},{"bike_id":"cdaafd20-5dbd-436c-8bdc-f9b2322cb1b6","system_id":"levelo_inurba_marseille","lat":43.29563,"lon":5.37543,"is_reserved":false,"is_disabled":false,"rental_uris":{"android":"levelo://app?vid=cdaafd20-5dbd-436c-8bdc-f9b2322cb1b6","ios":"levelo://app?vid=cdaafd20-5dbd-436c-8bdc-f9b2322cb1b6"},"vehicle_type_id":"4","last_reported":1684609450,"current_range_meters":26800,"station_id":"ce4bgh92rcd13ifvqb50","pricing_plan_id":"free"},{"bike_id":"584b2422-bd9e-4ba5-88f4-f220773a4778","system_id":"levelo_inurba_marseille","lat":43.299707,"lon":5.384859,"is_reserved":false,"is_disabled":false,"rental_uris":{"android":"levelo://app?vid=584b2422-bd9e-4ba5-88f4-f220773a4778","ios":"levelo://app?vid=584b2422-bd9e-4ba5-88f4-f220773a4778"},"vehicle_type_id":"4","last_reported":1684609450,"current_range_meters":29600,"station_id":"ce4bgj92rcd13ifvqbd0","pricing_plan_id":"free"},{"bike_id":"d6b26a8a-fcd1-45dd-b98e-ff8bbb3095da","system_id":"levelo_inurba_marseille","lat":43.29972,"lon":5.38487,"is_reserved":false,"is_disabled":false,"rental_uris":{"android":"levelo://app?vid=d6b26a8a-fcd1-45dd-b98e-ff8bbb3095da","ios":"levelo://app?vid=d6b26a8a-fcd1-45dd-b98e-ff8bbb3095da"},"vehicle_type_id":"4","last_reported":1684609450,"current_range_meters":12800,"station_id":"ce4bgj92rcd13ifvqbd0","pricing_plan_id":"free"},{"bike_id":"8d4198c4-62ad-46df-b495-84ccc6ce3c42","system_id":"levelo_inurba_marseille","lat":43.295279,"lon":5.375048,"is_reserved":false,"is_disabled":false,"rental_uris":{"android":"levelo://app?vid=8d4198c4-62ad-46df-b495-84ccc6ce3c42","ios":"levelo://app?vid=8d4198c4-62ad-46df-b495-84ccc6ce3c42"},"vehicle_type_id":"4","last_reported":1684609450,"current_range_meters":24000,"station_id":"ce4bgkp2rcd13ifvqbmg","pricing_plan_id":"free"},{"bike_id":"70c9777d-6031-4a07-ad4c-e1f64103dd61","system_id":"levelo_inurba_marseille","lat":43.295279,"lon":5.375048,"is_reserved":false,"is_disabled":false,"rental_uris":{"android":"levelo://app?vid=70c9777d-6031-4a07-ad4c-e1f64103dd61","ios":"levelo://app?vid=70c9777d-6031-4a07-ad4c-e1f64103dd61"},"vehicle_type_id":"4","last_reported":1684609450,"current_range_meters":19200,"station_id":"ce4bgkp2rcd13ifvqbmg","pricing_plan_id":"free"},{"bike_id":"0833bfd1-4c72-4028-aace-af61a6b37bdd","system_id":"levelo_inurba_marseille","lat":43.29966,"lon":5.38491,"is_reserved":false,"is_disabled":false,"rental_uris":{"android":"levelo://app?vid=0833bfd1-4c72-4028-aace-af61a6b37bdd","ios":"levelo://app?vid=0833bfd1-4c72-4028-aace-af61a6b37bdd"},"vehicle_type_id":"4","last_reported":1684609450,"current_range_meters":24400,"station_id":"ce4bgj92rcd13ifvqbd0","pricing_plan_id":"free"},{"bike_id":"f5c1b90c-3ae4-4f7d-afb4-6e3e76254bcf","system_id":"levelo_inurba_marseille","lat":43.29967,"lon":5.38495,"is_reserved":false,"is_disabled":false,"rental_uris":{"android":"levelo://app?vid=f5c1b90c-3ae4-4f7d-afb4-6e3e76254bcf","ios":"levelo://app?vid=f5c1b90c-3ae4-4f7d-afb4-6e3e76254bcf"},"vehicle_type_id":"4","last_reported":1684609450,"current_range_meters":9600,"station_id":"ce4bgj92rcd13ifvqbd0","pricing_plan_id":"free"},{"bike_id":"a5153643-42d3-45bb-a03d-3bbd2156b83b","system_id":"levelo_inurba_marseille","lat":43.29965,"lon":5.38498,"is_reserved":false,"is_disabled":false,"rental_uris":{"android":"levelo://app?vid=a5153643-42d3-45bb-a03d-3bbd2156b83b","ios":"levelo://app?vid=a5153643-42d3-45bb-a03d-3bbd2156b83b"},"vehicle_type_id":"4","last_reported":1684609450,"current_range_meters":20000,"station_id":"ce4bgj92rcd13ifvqbd0","pricing_plan_id":"free"},{"bike_id":"2fef7933-e62a-4b9d-9346-200e9a3467ef","system_id":"levelo_inurba_marseille","lat":43.29962,"lon":5.38494,"is_reserved":false,"is_disabled":false,"rental_uris":{"android":"levelo://app?vid=2fef7933-e62a-4b9d-9346-200e9a3467ef","ios":"levelo://app?vid=2fef7933-e62a-4b9d-9346-200e9a3467ef"},"vehicle_type_id":"4","last_reported":1684609450,"current_range_meters":28400,"station_id":"ce4bgj92rcd13ifvqbd0","pricing_plan_id":"free"},{"bike_id":"14274225-05c5-467a-9df3-e11850780ac9","system_id":"levelo_inurba_marseille","lat":43.29967,"lon":5.38501,"is_reserved":false,"is_disabled":false,"rental_uris":{"android":"levelo://app?vid=14274225-05c5-467a-9df3-e11850780ac9","ios":"levelo://app?vid=14274225-05c5-467a-9df3-e11850780ac9"},"vehicle_type_id":"4","last_reported":1684609450,"current_range_meters":23600,"station_id":"ce4bgj92rcd13ifvqbd0","pricing_plan_id":"free"},{"bike_id":"062e57e5-8581-4c83-a471-bd0100cbff32","system_id":"levelo_inurba_marseille","lat":43.295279,"lon":5.375048,"is_reserved":false,"is_disabled":false,"rental_uris":{"android":"levelo://app?vid=062e57e5-8581-4c83-a471-bd0100cbff32","ios":"levelo://app?vid=062e57e5-8581-4c83-a471-bd0100cbff32"},"vehicle_type_id":"4","last_reported":1684609450,"current_range_meters":29200,"station_id":"ce4bgkp2rcd13ifvqbmg","pricing_plan_id":"free"},{"bike_id":"ba827236-c337-4e35-8e30-402f5d820002","system_id":"levelo_inurba_marseille","lat":43.29962,"lon":5.38498,"is_reserved":false,"is_disabled":false,"rental_uris":{"android":"levelo://app?vid=ba827236-c337-4e35-8e30-402f5d820002","ios":"levelo://app?vid=ba827236-c337-4e35-8e30-402f5d820002"},"vehicle_type_id":"4","last_reported":1684609450,"current_range_meters":23600,"station_id":"ce4bgj92rcd13ifvqbd0","pricing_plan_id":"free"},{"bike_id":"03b8a0a9-c33b-43fa-a282-a3d337c274aa","system_id":"levelo_inurba_marseille","lat":43.295279,"lon":5.375048,"is_reserved":false,"is_disabled":false,"rental_uris":{"android":"levelo://app?vid=03b8a0a9-c33b-43fa-a282-a3d337c274aa","ios":"levelo://app?vid=03b8a0a9-c33b-43fa-a282-a3d337c274aa"},"vehicle_type_id":"4","last_reported":1684609450,"current_range_meters":31200,"station_id":"ce4bgkp2rcd13ifvqbmg","pricing_plan_id":"free"},{"bike_id":"b0d41c8b-ee8b-433a-87c8-bdff95c43ad6","system_id":"levelo_inurba_marseille","lat":43.297199,"lon":5.38128,"is_reserved":false,"is_disabled":false,"rental_uris":{"android":"levelo://app?vid=b0d41c8b-ee8b-433a-87c8-bdff95c43ad6","ios":"levelo://app?vid=b0d41c8b-ee8b-433a-87c8-bdff95c43ad6"},"vehicle_type_id":"4","last_reported":1684609450,"current_range_meters":25200,"station_id":"","pricing_plan_id":"free"},{"bike_id":"73045699-9656-449f-aed1-96552ac57a20","system_id":"levelo_inurba_marseille","lat":43.32359,"lon":5.38871,"is_reserved":false,"is_disabled":false,"rental_uris":{"android":"levelo://app?vid=73045699-9656-449f-aed1-96552ac57a20","ios":"levelo://app?vid=73045699-9656-449f-aed1-96552ac57a20"},"vehicle_type_id":"4","last_reported":1684609450,"current_range_meters":11600,"station_id":"ce4bhqp2rcd13ifvqhog","pricing_plan_id":"free"},{"bike_id":"52a6850f-f203-4723-9ad0-8e1af0436565","system_id":"levelo_inurba_marseille","lat":43.3236,"lon":5.38877,"is_reserved":false,"is_disabled":false,"rental_uris":{"android":"levelo://app?vid=52a6850f-f203-4723-9ad0-8e1af0436565","ios":"levelo://app?vid=52a6850f-f203-4723-9ad0-8e1af0436565"},"vehicle_type_id":"4","last_reported":1684609450,"current_range_meters":16000,"station_id":"ce4bhqp2rcd13ifvqhog","pricing_plan_id":"free"},{"bike_id":"e267f340-98f6-4e1c-9dff-034ba5864fb0","system_id":"levelo_inurba_marseille","lat":43.32367,"lon":5.388836,"is_reserved":false,"is_disabled":false,"rental_uris":{"android":"levelo://app?vid=e267f340-98f6-4e1c-9dff-034ba5864fb0","ios":"levelo://app?vid=e267f340-98f6-4e1c-9dff-034ba5864fb0"},"vehicle_type_id":"4","last_reported":1684609450,"current_range_meters":6800,"station_id":"ce4bhqp2rcd13ifvqhog","pricing_plan_id":"free"},{"bike_id":"4ac8d894-44aa-44fe-a5bc-75ed68bed853","system_id":"levelo_inurba_marseille","lat":43.32363,"lon":5.38878,"is_reserved":false,"is_disabled":false,"rental_uris":{"android":"levelo://app?vid=4ac8d894-44aa-44fe-a5bc-75ed68bed853","ios":"levelo://app?vid=4ac8d894-44aa-44fe-a5bc-75ed68bed853"},"vehicle_type_id":"4","last_reported":1684609450,"current_range_meters":20400,"station_id":"ce4bhqp2rcd13ifvqhog","pricing_plan_id":"free"},{"bike_id":"54116cb7-e06e-44b7-b6c6-7288ee4c40a3","system_id":"levelo_inurba_marseille","lat":43.32369,"lon":5.38883,"is_reserved":false,"is_disabled":false,"rental_uris":{"android":"levelo://app?vid=54116cb7-e06e-44b7-b6c6-7288ee4c40a3","ios":"levelo://app?vid=54116cb7-e06e-44b7-b6c6-7288ee4c40a3"},"vehicle_type_id":"4","last_reported":1684609450,"current_range_meters":2800,"station_id":"ce4bhqp2rcd13ifvqhog","pricing_plan_id":"free"},{"bike_id":"53c80b4b-d032-45da-9217-748d7d82aa73","system_id":"levelo_inurba_marseille","lat":43.3237,"lon":5.38883,"is_reserved":false,"is_disabled":false,"rental_uris":{"android":"levelo://app?vid=53c80b4b-d032-45da-9217-748d7d82aa73","ios":"levelo://app?vid=53c80b4b-d032-45da-9217-748d7d82aa73"},"vehicle_type_id":"4","last_reported":1684609450,"current_range_meters":15600,"station_id":"ce4bhqp2rcd13ifvqhog","pricing_plan_id":"free"},{"bike_id":"01d401da-ad68-4b2e-a4ac-24f3f8771d91","system_id":"levelo_inurba_marseille","lat":43.32367,"lon":5.388836,"is_reserved":false,"is_disabled":false,"rental_uris":{"android":"levelo://app?vid=01d401da-ad68-4b2e-a4ac-24f3f8771d91","ios":"levelo://app?vid=01d401da-ad68-4b2e-a4ac-24f3f8771d91"},"vehicle_type_id":"4","last_reported":1684609450,"current_range_meters":24800,"station_id":"ce4bhqp2rcd13ifvqhog","pricing_plan_id":"free"},{"bike_id":"15f6166a-696d-4753-ac1b-14e4a0e49f8c","system_id":"levelo_inurba_marseille","lat":43.29602,"lon":5.381084,"is_reserved":false,"is_disabled":false,"rental_uris":{"android":"levelo://app?vid=15f6166a-696d-4753-ac1b-14e4a0e49f8c","ios":"levelo://app?vid=15f6166a-696d-4753-ac1b-14e4a0e49f8c"},"vehicle_type_id":"4","last_reported":1684609450,"current_range_meters":16800,"station_id":"ce4bgl12rcd13ifvqbo0","pricing_plan_id":"free"},{"bike_id":"048ad76f-cf49-443f-97fe-53eaef1a6394","system_id":"levelo_inurba_marseille","lat":43.29601,"lon":5.381084,"is_reserved":false,"is_disabled":false,"rental_uris":{"android":"levelo://app?vid=048ad76f-cf49-443f-97fe-53eaef1a6394","ios":"levelo://app?vid=048ad76f-cf49-443f-97fe-53eaef1a6394"},"vehicle_type_id":"4","last_reported":1684609450,"current_range_meters":25600,"station_id":"ce4bgl12rcd13ifvqbo0","pricing_plan_id":"free"},{"bike_id":"46ef847f-4559-4e5b-ad03-9d076c4f2477","system_id":"levelo_inurba_marseille","lat":43.29602,"lon":5.381084,"is_reserved":false,"is_disabled":false,"rental_uris":{"android":"levelo://app?vid=46ef847f-4559-4e5b-ad03-9d076c4f2477","ios":"levelo://app?vid=46ef847f-4559-4e5b-ad03-9d076c4f2477"},"vehicle_type_id":"4","last_reported":1684609450,"current_range_meters":31600,"station_id":"ce4bgl12rcd13ifvqbo0","pricing_plan_id":"free"},{"bike_id":"6e08ddc6-4a2d-41da-ad3a-29eed0a7772b","system_id":"levelo_inurba_marseille","lat":43.29601,"lon":5.381084,"is_reserved":false,"is_disabled":false,"rental_uris":{"android":"levelo://app?vid=6e08ddc6-4a2d-41da-ad3a-29eed0a7772b","ios":"levelo://app?vid=6e08ddc6-4a2d-41da-ad3a-29eed0a7772b"},"vehicle_type_id":"4","last_reported":1684609450,"current_range_meters":30400,"station_id":"ce4bgl12rcd13ifvqbo0","pricing_plan_id":"free"},{"bike_id":"bb4d4ae5-9acd-4f8c-af44-7cae1efbdb2f","system_id":"levelo_inurba_marseille","lat":43.29602,"lon":5.381084,"is_reserved":false,"is_disabled":false,"rental_uris":{"android":"levelo://app?vid=bb4d4ae5-9acd-4f8c-af44-7cae1efbdb2f","ios":"levelo://app?vid=bb4d4ae5-9acd-4f8c-af44-7cae1efbdb2f"},"vehicle_type_id":"4","last_reported":1684609450,"current_range_meters":26400,"station_id":"ce4bgl12rcd13ifvqbo0","pricing_plan_id":"free"},{"bike_id":"553450be-0fba-476d-a7ac-1ad97fd72a38","system_id":"levelo_inurba_marseille","lat":43.292749,"lon":5.368398,"is_reserved":false,"is_disabled":false,"rental_uris":{"android":"levelo://app?vid=553450be-0fba-476d-a7ac-1ad97fd72a38","ios":"levelo://app?vid=553450be-0fba-476d-a7ac-1ad97fd72a38"},"vehicle_type_id":"4","last_reported":1684609450,"current_range_meters":18000,"station_id":"ce4bhbp2rcd13ifvqesg","pricing_plan_id":"free"},{"bike_id":"715dd391-22f7-4436-82aa-3dbe12939a8b","system_id":"levelo_inurba_marseille","lat":43.29312,"lon":5.37171,"is_reserved":false,"is_disabled":false,"rental_uris":{"android":"levelo://app?vid=715dd391-22f7-4436-82aa-3dbe12939a8b","ios":"levelo://app?vid=715dd391-22f7-4436-82aa-3dbe12939a8b"},"vehicle_type_id":"4","last_reported":1684609450,"current_range_meters":15600,"station_id":"ce4bgh92rcd13ifvqb40","pricing_plan_id":"free"},{"bike_id":"be1af857-fb03-4c88-9d44-548473ae3d85","system_id":"levelo_inurba_marseille","lat":43.29311,"lon":5.37173,"is_reserved":false,"is_disabled":false,"rental_uris":{"android":"levelo://app?vid=be1af857-fb03-4c88-9d44-548473ae3d85","ios":"levelo://app?vid=be1af857-fb03-4c88-9d44-548473ae3d85"},"vehicle_type_id":"4","last_reported":1684609450,"current_range_meters":27600,"station_id":"ce4bgh92rcd13ifvqb40","pricing_plan_id":"free"},{"bike_id":"2bf3ece4-f6ce-4f0e-a74d-ca3713bba45b","system_id":"levelo_inurba_marseille","lat":43.29309,"lon":5.37178,"is_reserved":false,"is_disabled":false,"rental_uris":{"android":"levelo://app?vid=2bf3ece4-f6ce-4f0e-a74d-ca3713bba45b","ios":"levelo://app?vid=2bf3ece4-f6ce-4f0e-a74d-ca3713bba45b"},"vehicle_type_id":"4","last_reported":1684609450,"current_range_meters":30400,"station_id":"","pricing_plan_id":"free"},{"bike_id":"e9382e74-96dc-415f-a476-1ceaa4e86568","system_id":"levelo_inurba_marseille","lat":43.29306,"lon":5.37174,"is_reserved":false,"is_disabled":false,"rental_uris":{"android":"levelo://app?vid=e9382e74-96dc-415f-a476-1ceaa4e86568","ios":"levelo://app?vid=e9382e74-96dc-415f-a476-1ceaa4e86568"},"vehicle_type_id":"4","last_reported":1684609450,"current_range_meters":31200,"station_id":"ce4bgh92rcd13ifvqb40","pricing_plan_id":"free"},{"bike_id":"9d4a523c-4236-4d29-a467-a285d6b1a309","system_id":"levelo_inurba_marseille","lat":43.29307,"lon":5.37183,"is_reserved":false,"is_disabled":false,"rental_uris":{"android":"levelo://app?vid=9d4a523c-4236-4d29-a467-a285d6b1a309","ios":"levelo://app?vid=9d4a523c-4236-4d29-a467-a285d6b1a309"},"vehicle_type_id":"4","last_reported":1684609450,"current_range_meters":15200,"station_id":"","pricing_plan_id":"free"},{"bike_id":"55d9a625-f125-4d1c-a60e-993556512075","system_id":"levelo_inurba_marseille","lat":43.29305,"lon":5.37169,"is_reserved":false,"is_disabled":false,"rental_uris":{"android":"levelo://app?vid=55d9a625-f125-4d1c-a60e-993556512075","ios":"levelo://app?vid=55d9a625-f125-4d1c-a60e-993556512075"},"vehicle_type_id":"4","last_reported":1684609450,"current_range_meters":15600,"station_id":"ce4bgh92rcd13ifvqb40","pricing_plan_id":"free"},{"bike_id":"e81a20f8-ecfa-4819-a0d2-9dd13463dc45","system_id":"levelo_inurba_marseille","lat":43.29301,"lon":5.37179,"is_reserved":false,"is_disabled":false,"rental_uris":{"android":"levelo://app?vid=e81a20f8-ecfa-4819-a0d2-9dd13463dc45","ios":"levelo://app?vid=e81a20f8-ecfa-4819-a0d2-9dd13463dc45"},"vehicle_type_id":"4","last_reported":1684609450,"current_range_meters":28000,"station_id":"","pricing_plan_id":"free"},{"bike_id":"fb83e14c-055e-4755-bfb4-6c2221489905","system_id":"levelo_inurba_marseille","lat":43.292749,"lon":5.368398,"is_reserved":false,"is_disabled":false,"rental_uris":{"android":"levelo://app?vid=fb83e14c-055e-4755-bfb4-6c2221489905","ios":"levelo://app?vid=fb83e14c-055e-4755-bfb4-6c2221489905"},"vehicle_type_id":"4","last_reported":1684609450,"current_range_meters":29600,"station_id":"ce4bhbp2rcd13ifvqesg","pricing_plan_id":"free"},{"bike_id":"229195cc-d118-4e64-91b4-2ad894fdeb5a","system_id":"levelo_inurba_marseille","lat":43.293025,"lon":5.374425,"is_reserved":false,"is_disabled":false,"rental_uris":{"android":"levelo://app?vid=229195cc-d118-4e64-91b4-2ad894fdeb5a","ios":"levelo://app?vid=229195cc-d118-4e64-91b4-2ad894fdeb5a"},"vehicle_type_id":"4","last_reported":1684609450,"current_range_meters":30000,"station_id":"ce4bhb12rcd13ifvqel0","pricing_plan_id":"free"},{"bike_id":"9d074ca4-a1f4-4744-8203-e893e3c63a0f","system_id":"levelo_inurba_marseille","lat":43.293009,"lon":5.374584,"is_reserved":false,"is_disabled":false,"rental_uris":{"android":"levelo://app?vid=9d074ca4-a1f4-4744-8203-e893e3c63a0f","ios":"levelo://app?vid=9d074ca4-a1f4-4744-8203-e893e3c63a0f"},"vehicle_type_id":"4","last_reported":1684609450,"current_range_meters":29200,"station_id":"ce4bgi12rcd13ifvqb70","pricing_plan_id":"free"},{"bike_id":"0f06af62-23a2-40b1-b945-841105315ddc","system_id":"levelo_inurba_marseille","lat":43.293009,"lon":5.374584,"is_reserved":false,"is_disabled":false,"rental_uris":{"android":"levelo://app?vid=0f06af62-23a2-40b1-b945-841105315ddc","ios":"levelo://app?vid=0f06af62-23a2-40b1-b945-841105315ddc"},"vehicle_type_id":"4","last_reported":1684609450,"current_range_meters":26400,"station_id":"ce4bgi12rcd13ifvqb70","pricing_plan_id":"free"},{"bike_id":"a6866917-dd8b-4212-a01f-8c6d15213116","system_id":"levelo_inurba_marseille","lat":43.293009,"lon":5.374584,"is_reserved":false,"is_disabled":false,"rental_uris":{"android":"levelo://app?vid=a6866917-dd8b-4212-a01f-8c6d15213116","ios":"levelo://app?vid=a6866917-dd8b-4212-a01f-8c6d15213116"},"vehicle_type_id":"4","last_reported":1684609450,"current_range_meters":31600,"station_id":"ce4bgi12rcd13ifvqb70","pricing_plan_id":"free"},{"bike_id":"9f143d8c-6570-4edd-a0f4-e03c957890d2","system_id":"levelo_inurba_marseille","lat":43.302992,"lon":5.392136,"is_reserved":false,"is_disabled":false,"rental_uris":{"android":"levelo://app?vid=9f143d8c-6570-4edd-a0f4-e03c957890d2","ios":"levelo://app?vid=9f143d8c-6570-4edd-a0f4-e03c957890d2"},"vehicle_type_id":"4","last_reported":1684609450,"current_range_meters":22400,"station_id":"ce4bgkh2rcd13ifvqbk0","pricing_plan_id":"free"},{"bike_id":"5835ef72-dd77-4642-9e7a-45761011225e","system_id":"levelo_inurba_marseille","lat":43.302992,"lon":5.392136,"is_reserved":false,"is_disabled":false,"rental_uris":{"android":"levelo://app?vid=5835ef72-dd77-4642-9e7a-45761011225e","ios":"levelo://app?vid=5835ef72-dd77-4642-9e7a-45761011225e"},"vehicle_type_id":"4","last_reported":1684609450,"current_range_meters":24000,"station_id":"ce4bgkh2rcd13ifvqbk0","pricing_plan_id":"free"},{"bike_id":"161bc4a4-f73d-4ff8-b99c-70d04fc2c239","system_id":"levelo_inurba_marseille","lat":43.2936,"lon":5.37835,"is_reserved":false,"is_disabled":false,"rental_uris":{"android":"levelo://app?vid=161bc4a4-f73d-4ff8-b99c-70d04fc2c239","ios":"levelo://app?vid=161bc4a4-f73d-4ff8-b99c-70d04fc2c239"},"vehicle_type_id":"4","last_reported":1684609450,"current_range_meters":30400,"station_id":"ce4bgjh2rcd13ifvqbf0","pricing_plan_id":"free"},{"bike_id":"3973048a-351d-4180-b2b2-f6a58a9b0f41","system_id":"levelo_inurba_marseille","lat":43.302992,"lon":5.392136,"is_reserved":false,"is_disabled":false,"rental_uris":{"android":"levelo://app?vid=3973048a-351d-4180-b2b2-f6a58a9b0f41","ios":"levelo://app?vid=3973048a-351d-4180-b2b2-f6a58a9b0f41"},"vehicle_type_id":"4","last_reported":1684609450,"current_range_meters":14800,"station_id":"ce4bgkh2rcd13ifvqbk0","pricing_plan_id":"free"},{"bike_id":"d8352bef-fce5-4813-8cec-74d623690023","system_id":"levelo_inurba_marseille","lat":43.2936,"lon":5.37835,"is_reserved":false,"is_disabled":false,"rental_uris":{"android":"levelo://app?vid=d8352bef-fce5-4813-8cec-74d623690023","ios":"levelo://app?vid=d8352bef-fce5-4813-8cec-74d623690023"},"vehicle_type_id":"4","last_reported":1684609450,"current_range_meters":24000,"station_id":"ce4bgjh2rcd13ifvqbf0","pricing_plan_id":"free"},{"bike_id":"3c8a82fe-f8ed-4ee6-8f03-a09f3f02c430","system_id":"levelo_inurba_marseille","lat":43.2936,"lon":5.37835,"is_reserved":false,"is_disabled":false,"rental_uris":{"android":"levelo://app?vid=3c8a82fe-f8ed-4ee6-8f03-a09f3f02c430","ios":"levelo://app?vid=3c8a82fe-f8ed-4ee6-8f03-a09f3f02c430"},"vehicle_type_id":"4","last_reported":1684609450,"current_range_meters":9600,"station_id":"ce4bgjh2rcd13ifvqbf0","pricing_plan_id":"free"},{"bike_id":"3e4d5677-e10e-4668-bdc9-2377e91874be","system_id":"levelo_inurba_marseille","lat":43.28856,"lon":5.358371,"is_reserved":false,"is_disabled":false,"rental_uris":{"android":"levelo://app?vid=3e4d5677-e10e-4668-bdc9-2377e91874be","ios":"levelo://app?vid=3e4d5677-e10e-4668-bdc9-2377e91874be"},"vehicle_type_id":"4","last_reported":1684609450,"current_range_meters":30000,"station_id":"ce4bhb12rcd13ifvqem0","pricing_plan_id":"free"},{"bike_id":"b7663966-0063-44d4-b238-ca99b6d892ab","system_id":"levelo_inurba_marseille","lat":43.302992,"lon":5.392136,"is_reserved":false,"is_disabled":false,"rental_uris":{"android":"levelo://app?vid=b7663966-0063-44d4-b238-ca99b6d892ab","ios":"levelo://app?vid=b7663966-0063-44d4-b238-ca99b6d892ab"},"vehicle_type_id":"4","last_reported":1684609450,"current_range_meters":10400,"station_id":"ce4bgkh2rcd13ifvqbk0","pricing_plan_id":"free"},{"bike_id":"537a2131-1d65-44d1-ac36-50b478b92c1c","system_id":"levelo_inurba_marseille","lat":43.293009,"lon":5.374584,"is_reserved":false,"is_disabled":false,"rental_uris":{"android":"levelo://app?vid=537a2131-1d65-44d1-ac36-50b478b92c1c","ios":"levelo://app?vid=537a2131-1d65-44d1-ac36-50b478b92c1c"},"vehicle_type_id":"4","last_reported":1684609450,"current_range_meters":10000,"station_id":"ce4bgi12rcd13ifvqb70","pricing_plan_id":"free"},{"bike_id":"67be9449-2478-4bca-9853-feb225d891f3","system_id":"levelo_inurba_marseille","lat":43.302992,"lon":5.392136,"is_reserved":false,"is_disabled":false,"rental_uris":{"android":"levelo://app?vid=67be9449-2478-4bca-9853-feb225d891f3","ios":"levelo://app?vid=67be9449-2478-4bca-9853-feb225d891f3"},"vehicle_type_id":"4","last_reported":1684609450,"current_range_meters":22000,"station_id":"ce4bgkh2rcd13ifvqbk0","pricing_plan_id":"free"},{"bike_id":"30d01f21-deb6-4fb9-aa67-7934461d5363","system_id":"levelo_inurba_marseille","lat":43.2936,"lon":5.37835,"is_reserved":false,"is_disabled":false,"rental_uris":{"android":"levelo://app?vid=30d01f21-deb6-4fb9-aa67-7934461d5363","ios":"levelo://app?vid=30d01f21-deb6-4fb9-aa67-7934461d5363"},"vehicle_type_id":"4","last_reported":1684609450,"current_range_meters":25200,"station_id":"ce4bgjh2rcd13ifvqbf0","pricing_plan_id":"free"},{"bike_id":"6c9b281a-dcaf-47d0-aff1-582228173fb2","system_id":"levelo_inurba_marseille","lat":43.300852,"lon":5.390859,"is_reserved":false,"is_disabled":false,"rental_uris":{"android":"levelo://app?vid=6c9b281a-dcaf-47d0-aff1-582228173fb2","ios":"levelo://app?vid=6c9b281a-dcaf-47d0-aff1-582228173fb2"},"vehicle_type_id":"4","last_reported":1684609450,"current_range_meters":29200,"station_id":"ce4bh192rcd13ifvqdb0","pricing_plan_id":"free"},{"bike_id":"d77a1e8b-a0fb-46d9-bc57-40a7afb4326e","system_id":"levelo_inurba_marseille","lat":43.300852,"lon":5.390859,"is_reserved":false,"is_disabled":false,"rental_uris":{"android":"levelo://app?vid=d77a1e8b-a0fb-46d9-bc57-40a7afb4326e","ios":"levelo://app?vid=d77a1e8b-a0fb-46d9-bc57-40a7afb4326e"},"vehicle_type_id":"4","last_reported":1684609450,"current_range_meters":30400,"station_id":"ce4bh192rcd13ifvqdb0","pricing_plan_id":"free"},{"bike_id":"4a132024-0321-443c-a8d7-22cc1c1bd7c0","system_id":"levelo_inurba_marseille","lat":43.298764,"lon":5.388973,"is_reserved":false,"is_disabled":false,"rental_uris":{"android":"levelo://app?vid=4a132024-0321-443c-a8d7-22cc1c1bd7c0","ios":"levelo://app?vid=4a132024-0321-443c-a8d7-22cc1c1bd7c0"},"vehicle_type_id":"4","last_reported":1684609450,"current_range_meters":23200,"station_id":"ce4bh392rcd13ifvqdl0","pricing_plan_id":"free"},{"bike_id":"a729ab1f-9983-435c-92d3-74a83b4048f6","system_id":"levelo_inurba_marseille","lat":43.291675,"lon":5.371583,"is_reserved":false,"is_disabled":false,"rental_uris":{"android":"levelo://app?vid=a729ab1f-9983-435c-92d3-74a83b4048f6","ios":"levelo://app?vid=a729ab1f-9983-435c-92d3-74a83b4048f6"},"vehicle_type_id":"4","last_reported":1684609450,"current_range_meters":31200,"station_id":"ce4bha92rcd13ifvqeh0","pricing_plan_id":"free"},{"bike_id":"168820a3-5cc1-445c-b7de-2ed9f6dcf6a5","system_id":"levelo_inurba_marseille","lat":43.298764,"lon":5.388973,"is_reserved":false,"is_disabled":false,"rental_uris":{"android":"levelo://app?vid=168820a3-5cc1-445c-b7de-2ed9f6dcf6a5","ios":"levelo://app?vid=168820a3-5cc1-445c-b7de-2ed9f6dcf6a5"},"vehicle_type_id":"4","last_reported":1684609450,"current_range_meters":0,"station_id":"ce4bh392rcd13ifvqdl0","pricing_plan_id":"free"},{"bike_id":"d4fdf4a6-839a-4b44-b03d-66bbb7ad8772","system_id":"levelo_inurba_marseille","lat":43.298764,"lon":5.388973,"is_reserved":false,"is_disabled":false,"rental_uris":{"android":"levelo://app?vid=d4fdf4a6-839a-4b44-b03d-66bbb7ad8772","ios":"levelo://app?vid=d4fdf4a6-839a-4b44-b03d-66bbb7ad8772"},"vehicle_type_id":"4","last_reported":1684609450,"current_range_meters":3600,"station_id":"ce4bh392rcd13ifvqdl0","pricing_plan_id":"free"},{"bike_id":"cf4cc00d-774c-4436-9168-bc3d313fea6f","system_id":"levelo_inurba_marseille","lat":43.298764,"lon":5.388973,"is_reserved":false,"is_disabled":false,"rental_uris":{"android":"levelo://app?vid=cf4cc00d-774c-4436-9168-bc3d313fea6f","ios":"levelo://app?vid=cf4cc00d-774c-4436-9168-bc3d313fea6f"},"vehicle_type_id":"4","last_reported":1684609450,"current_range_meters":15200,"station_id":"ce4bh392rcd13ifvqdl0","pricing_plan_id":"free"},{"bike_id":"734d3108-d469-4678-a552-8b6b171e70b5","system_id":"levelo_inurba_marseille","lat":43.29165,"lon":5.37142,"is_reserved":false,"is_disabled":false,"rental_uris":{"android":"levelo://app?vid=734d3108-d469-4678-a552-8b6b171e70b5","ios":"levelo://app?vid=734d3108-d469-4678-a552-8b6b171e70b5"},"vehicle_type_id":"4","last_reported":1684609450,"current_range_meters":20400,"station_id":"ce4bha92rcd13ifvqeh0","pricing_plan_id":"free"},{"bike_id":"57c90847-d950-461e-abbd-8c15226245ae","system_id":"levelo_inurba_marseille","lat":43.298764,"lon":5.388973,"is_reserved":false,"is_disabled":false,"rental_uris":{"android":"levelo://app?vid=57c90847-d950-461e-abbd-8c15226245ae","ios":"levelo://app?vid=57c90847-d950-461e-abbd-8c15226245ae"},"vehicle_type_id":"4","last_reported":1684609450,"current_range_meters":16800,"station_id":"ce4bh392rcd13ifvqdl0","pricing_plan_id":"free"},{"bike_id":"3dfbee86-8840-47ba-a0f4-5fa0de4a284d","system_id":"levelo_inurba_marseille","lat":43.309038,"lon":5.396546,"is_reserved":false,"is_disabled":false,"rental_uris":{"android":"levelo://app?vid=3dfbee86-8840-47ba-a0f4-5fa0de4a284d","ios":"levelo://app?vid=3dfbee86-8840-47ba-a0f4-5fa0de4a284d"},"vehicle_type_id":"4","last_reported":1684609450,"current_range_meters":23600,"station_id":"ce4bh012rcd13ifvqcv0","pricing_plan_id":"free"},{"bike_id":"c3bb868b-d73d-4d76-a0e2-f02ceaa0a50d","system_id":"levelo_inurba_marseille","lat":43.30885,"lon":5.39636,"is_reserved":false,"is_disabled":false,"rental_uris":{"android":"levelo://app?vid=c3bb868b-d73d-4d76-a0e2-f02ceaa0a50d","ios":"levelo://app?vid=c3bb868b-d73d-4d76-a0e2-f02ceaa0a50d"},"vehicle_type_id":"4","last_reported":1684609450,"current_range_meters":13200,"station_id":"ce4bh012rcd13ifvqcv0","pricing_plan_id":"free"},{"bike_id":"0c0ef071-b901-4368-9f46-46b3492353ea","system_id":"levelo_inurba_marseille","lat":43.313291,"lon":5.396838,"is_reserved":false,"is_disabled":false,"rental_uris":{"android":"levelo://app?vid=0c0ef071-b901-4368-9f46-46b3492353ea","ios":"levelo://app?vid=0c0ef071-b901-4368-9f46-46b3492353ea"},"vehicle_type_id":"4","last_reported":1684609450,"current_range_meters":4400,"station_id":"ce4bgvp2rcd13ifvqcu0","pricing_plan_id":"free"},{"bike_id":"560fb464-6bff-4314-aa59-c1cb6143d36c","system_id":"levelo_inurba_marseille","lat":43.309038,"lon":5.396546,"is_reserved":false,"is_disabled":false,"rental_uris":{"android":"levelo://app?vid=560fb464-6bff-4314-aa59-c1cb6143d36c","ios":"levelo://app?vid=560fb464-6bff-4314-aa59-c1cb6143d36c"},"vehicle_type_id":"4","last_reported":1684609450,"current_range_meters":22400,"station_id":"ce4bh012rcd13ifvqcv0","pricing_plan_id":"free"},{"bike_id":"83a54c1f-be2d-4315-8a6e-c23d1dea63b0","system_id":"levelo_inurba_marseille","lat":43.309038,"lon":5.396546,"is_reserved":false,"is_disabled":false,"rental_uris":{"android":"levelo://app?vid=83a54c1f-be2d-4315-8a6e-c23d1dea63b0","ios":"levelo://app?vid=83a54c1f-be2d-4315-8a6e-c23d1dea63b0"},"vehicle_type_id":"4","last_reported":1684609450,"current_range_meters":18400,"station_id":"ce4bh012rcd13ifvqcv0","pricing_plan_id":"free"},{"bike_id":"d2ae3085-2478-4856-a3eb-d79b11f9f3f2","system_id":"levelo_inurba_marseille","lat":43.30885,"lon":5.39643,"is_reserved":false,"is_disabled":false,"rental_uris":{"android":"levelo://app?vid=d2ae3085-2478-4856-a3eb-d79b11f9f3f2","ios":"levelo://app?vid=d2ae3085-2478-4856-a3eb-d79b11f9f3f2"},"vehicle_type_id":"4","last_reported":1684609450,"current_range_meters":3200,"station_id":"ce4bh012rcd13ifvqcv0","pricing_plan_id":"free"},{"bike_id":"00b4637a-42e4-41c2-b306-4969effcc106","system_id":"levelo_inurba_marseille","lat":43.30888,"lon":5.39644,"is_reserved":false,"is_disabled":false,"rental_uris":{"android":"levelo://app?vid=00b4637a-42e4-41c2-b306-4969effcc106","ios":"levelo://app?vid=00b4637a-42e4-41c2-b306-4969effcc106"},"vehicle_type_id":"4","last_reported":1684609450,"current_range_meters":30400,"station_id":"ce4bh012rcd13ifvqcv0","pricing_plan_id":"free"},{"bike_id":"4ff33288-f9a8-4337-9c3e-f024ba96b87c","system_id":"levelo_inurba_marseille","lat":43.3088,"lon":5.39644,"is_reserved":false,"is_disabled":false,"rental_uris":{"android":"levelo://app?vid=4ff33288-f9a8-4337-9c3e-f024ba96b87c","ios":"levelo://app?vid=4ff33288-f9a8-4337-9c3e-f024ba96b87c"},"vehicle_type_id":"4","last_reported":1684609450,"current_range_meters":25600,"station_id":"","pricing_plan_id":"free"},{"bike_id":"7bd616d9-1de0-4f44-beec-c18f87869800","system_id":"levelo_inurba_marseille","lat":43.30884,"lon":5.39646,"is_reserved":false,"is_disabled":false,"rental_uris":{"android":"levelo://app?vid=7bd616d9-1de0-4f44-beec-c18f87869800","ios":"levelo://app?vid=7bd616d9-1de0-4f44-beec-c18f87869800"},"vehicle_type_id":"4","last_reported":1684609450,"current_range_meters":31200,"station_id":"","pricing_plan_id":"free"},{"bike_id":"65e575fa-a358-41d8-a675-f34d67f48ecf","system_id":"levelo_inurba_marseille","lat":43.30888,"lon":5.39647,"is_reserved":false,"is_disabled":false,"rental_uris":{"android":"levelo://app?vid=65e575fa-a358-41d8-a675-f34d67f48ecf","ios":"levelo://app?vid=65e575fa-a358-41d8-a675-f34d67f48ecf"},"vehicle_type_id":"4","last_reported":1684609450,"current_range_meters":24400,"station_id":"ce4bh012rcd13ifvqcv0","pricing_plan_id":"free"},{"bike_id":"5b32f6b0-1519-42e8-a9ee-1509ac5b0f7f","system_id":"levelo_inurba_marseille","lat":43.291994,"lon":5.357886,"is_reserved":false,"is_disabled":false,"rental_uris":{"android":"levelo://app?vid=5b32f6b0-1519-42e8-a9ee-1509ac5b0f7f","ios":"levelo://app?vid=5b32f6b0-1519-42e8-a9ee-1509ac5b0f7f"},"vehicle_type_id":"4","last_reported":1684609450,"current_range_meters":14800,"station_id":"ce4bhb12rcd13ifvqel0","pricing_plan_id":"free"},{"bike_id":"dc368bd4-28a3-4521-a8ff-8f20aed7e729","system_id":"levelo_inurba_marseille","lat":43.30894,"lon":5.39649,"is_reserved":false,"is_disabled":false,"rental_uris":{"android":"levelo://app?vid=dc368bd4-28a3-4521-a8ff-8f20aed7e729","ios":"levelo://app?vid=dc368bd4-28a3-4521-a8ff-8f20aed7e729"},"vehicle_type_id":"4","last_reported":1684609450,"current_range_meters":21600,"station_id":"","pricing_plan_id":"free"},{"bike_id":"277d0ef9-8202-4f24-b4a4-a89d43b5f795","system_id":"levelo_inurba_marseille","lat":43.29187,"lon":5.35794,"is_reserved":false,"is_disabled":false,"rental_uris":{"android":"levelo://app?vid=277d0ef9-8202-4f24-b4a4-a89d43b5f795","ios":"levelo://app?vid=277d0ef9-8202-4f24-b4a4-a89d43b5f795"},"vehicle_type_id":"4","last_reported":1684609450,"current_range_meters":20000,"station_id":"ce4bhb12rcd13ifvqel0","pricing_plan_id":"free"},{"bike_id":"5fbe36ea-c489-48f6-816a-e5e9160aebc6","system_id":"levelo_inurba_marseille","lat":43.29529,"lon":5.385581,"is_reserved":false,"is_disabled":false,"rental_uris":{"android":"levelo://app?vid=5fbe36ea-c489-48f6-816a-e5e9160aebc6","ios":"levelo://app?vid=5fbe36ea-c489-48f6-816a-e5e9160aebc6"},"vehicle_type_id":"4","last_reported":1684609450,"current_range_meters":28400,"station_id":"ce4bgih2rcd13ifvqba0","pricing_plan_id":"free"},{"bike_id":"5fc11621-8cc8-4acf-8505-85b3b58da705","system_id":"levelo_inurba_marseille","lat":43.309038,"lon":5.396546,"is_reserved":false,"is_disabled":false,"rental_uris":{"android":"levelo://app?vid=5fc11621-8cc8-4acf-8505-85b3b58da705","ios":"levelo://app?vid=5fc11621-8cc8-4acf-8505-85b3b58da705"},"vehicle_type_id":"4","last_reported":1684609450,"current_range_meters":14400,"station_id":"ce4bh012rcd13ifvqcv0","pricing_plan_id":"free"},{"bike_id":"b9a95d32-069c-46cf-9967-0ebb521ecd5d","system_id":"levelo_inurba_marseille","lat":43.30879,"lon":5.39654,"is_reserved":false,"is_disabled":false,"rental_uris":{"android":"levelo://app?vid=b9a95d32-069c-46cf-9967-0ebb521ecd5d","ios":"levelo://app?vid=b9a95d32-069c-46cf-9967-0ebb521ecd5d"},"vehicle_type_id":"4","last_reported":1684609450,"current_range_meters":12400,"station_id":"","pricing_plan_id":"free"},{"bike_id":"a69305df-9e25-4162-993a-6bea34e1ca69","system_id":"levelo_inurba_marseille","lat":43.30893,"lon":5.3966,"is_reserved":false,"is_disabled":false,"rental_uris":{"android":"levelo://app?vid=a69305df-9e25-4162-993a-6bea34e1ca69","ios":"levelo://app?vid=a69305df-9e25-4162-993a-6bea34e1ca69"},"vehicle_type_id":"4","last_reported":1684609450,"current_range_meters":20000,"station_id":"ce4bh012rcd13ifvqcv0","pricing_plan_id":"free"},{"bike_id":"74e4ebeb-b928-4d2d-9f3a-959d4d05baa4","system_id":"levelo_inurba_marseille","lat":43.309038,"lon":5.396546,"is_reserved":false,"is_disabled":false,"rental_uris":{"android":"levelo://app?vid=74e4ebeb-b928-4d2d-9f3a-959d4d05baa4","ios":"levelo://app?vid=74e4ebeb-b928-4d2d-9f3a-959d4d05baa4"},"vehicle_type_id":"4","last_reported":1684609450,"current_range_meters":21200,"station_id":"ce4bh012rcd13ifvqcv0","pricing_plan_id":"free"},{"bike_id":"4eb0beed-14be-4983-88d9-dfc09b440871","system_id":"levelo_inurba_marseille","lat":43.29531,"lon":5.38532,"is_reserved":false,"is_disabled":false,"rental_uris":{"android":"levelo://app?vid=4eb0beed-14be-4983-88d9-dfc09b440871","ios":"levelo://app?vid=4eb0beed-14be-4983-88d9-dfc09b440871"},"vehicle_type_id":"4","last_reported":1684609450,"current_range_meters":31600,"station_id":"ce4bgih2rcd13ifvqba0","pricing_plan_id":"free"},{"bike_id":"b0b37863-9444-4044-b796-d981e2dda76d","system_id":"levelo_inurba_marseille","lat":43.29529,"lon":5.385581,"is_reserved":false,"is_disabled":false,"rental_uris":{"android":"levelo://app?vid=b0b37863-9444-4044-b796-d981e2dda76d","ios":"levelo://app?vid=b0b37863-9444-4044-b796-d981e2dda76d"},"vehicle_type_id":"4","last_reported":1684609450,"current_range_meters":20400,"station_id":"ce4bgih2rcd13ifvqba0","pricing_plan_id":"free"},{"bike_id":"86278db7-8898-4866-9e40-671e7eda7ded","system_id":"levelo_inurba_marseille","lat":43.309038,"lon":5.396546,"is_reserved":false,"is_disabled":false,"rental_uris":{"android":"levelo://app?vid=86278db7-8898-4866-9e40-671e7eda7ded","ios":"levelo://app?vid=86278db7-8898-4866-9e40-671e7eda7ded"},"vehicle_type_id":"4","last_reported":1684609450,"current_range_meters":20400,"station_id":"ce4bh012rcd13ifvqcv0","pricing_plan_id":"free"},{"bike_id":"b6f2b3a2-6861-41b2-a93e-9c5ff8afc542","system_id":"levelo_inurba_marseille","lat":43.29529,"lon":5.385581,"is_reserved":false,"is_disabled":false,"rental_uris":{"android":"levelo://app?vid=b6f2b3a2-6861-41b2-a93e-9c5ff8afc542","ios":"levelo://app?vid=b6f2b3a2-6861-41b2-a93e-9c5ff8afc542"},"vehicle_type_id":"4","last_reported":1684609450,"current_range_meters":17200,"station_id":"ce4bgih2rcd13ifvqba0","pricing_plan_id":"free"},{"bike_id":"21fa3c1b-5eca-4cfe-a60e-8f7c881be431","system_id":"levelo_inurba_marseille","lat":43.29529,"lon":5.385581,"is_reserved":false,"is_disabled":false,"rental_uris":{"android":"levelo://app?vid=21fa3c1b-5eca-4cfe-a60e-8f7c881be431","ios":"levelo://app?vid=21fa3c1b-5eca-4cfe-a60e-8f7c881be431"},"vehicle_type_id":"4","last_reported":1684609450,"current_range_meters":20800,"station_id":"ce4bgih2rcd13ifvqba0","pricing_plan_id":"free"},{"bike_id":"fc95d3b4-02a5-4732-b0ce-2308f3f0dc5c","system_id":"levelo_inurba_marseille","lat":43.29529,"lon":5.385581,"is_reserved":false,"is_disabled":false,"rental_uris":{"android":"levelo://app?vid=fc95d3b4-02a5-4732-b0ce-2308f3f0dc5c","ios":"levelo://app?vid=fc95d3b4-02a5-4732-b0ce-2308f3f0dc5c"},"vehicle_type_id":"4","last_reported":1684609450,"current_range_meters":28400,"station_id":"ce4bgih2rcd13ifvqba0","pricing_plan_id":"free"},{"bike_id":"5a34e7b1-6d47-4422-a257-5b7c5559283e","system_id":"levelo_inurba_marseille","lat":43.302008,"lon":5.394694,"is_reserved":false,"is_disabled":false,"rental_uris":{"android":"levelo://app?vid=5a34e7b1-6d47-4422-a257-5b7c5559283e","ios":"levelo://app?vid=5a34e7b1-6d47-4422-a257-5b7c5559283e"},"vehicle_type_id":"4","last_reported":1684609450,"current_range_meters":27200,"station_id":"ce4bh0p2rcd13ifvqd70","pricing_plan_id":"free"},{"bike_id":"2cbdf403-1448-413f-ad4f-af3b452ac8ae","system_id":"levelo_inurba_marseille","lat":43.289184,"lon":5.366408,"is_reserved":false,"is_disabled":false,"rental_uris":{"android":"levelo://app?vid=2cbdf403-1448-413f-ad4f-af3b452ac8ae","ios":"levelo://app?vid=2cbdf403-1448-413f-ad4f-af3b452ac8ae"},"vehicle_type_id":"4","last_reported":1684609450,"current_range_meters":27600,"station_id":"ce4bhap2rcd13ifvqek0","pricing_plan_id":"free"},{"bike_id":"21e7d252-72ce-4595-ab92-382775809899","system_id":"levelo_inurba_marseille","lat":43.290624,"lon":5.359245,"is_reserved":false,"is_disabled":false,"rental_uris":{"android":"levelo://app?vid=21e7d252-72ce-4595-ab92-382775809899","ios":"levelo://app?vid=21e7d252-72ce-4595-ab92-382775809899"},"vehicle_type_id":"4","last_reported":1684609450,"current_range_meters":30000,"station_id":"ce4bha92rcd13ifvqeg0","pricing_plan_id":"free"},{"bike_id":"624ce349-c348-40b1-8e20-6ade8b3b202b","system_id":"levelo_inurba_marseille","lat":43.290319,"lon":5.375732,"is_reserved":false,"is_disabled":false,"rental_uris":{"android":"levelo://app?vid=624ce349-c348-40b1-8e20-6ade8b3b202b","ios":"levelo://app?vid=624ce349-c348-40b1-8e20-6ade8b3b202b"},"vehicle_type_id":"4","last_reported":1684609450,"current_range_meters":26400,"station_id":"ce4bh692rcd13ifvqe90","pricing_plan_id":"free"},{"bike_id":"52840670-adf9-433a-a316-2a64c5a381b4","system_id":"levelo_inurba_marseille","lat":43.294153,"lon":5.386305,"is_reserved":false,"is_disabled":false,"rental_uris":{"android":"levelo://app?vid=52840670-adf9-433a-a316-2a64c5a381b4","ios":"levelo://app?vid=52840670-adf9-433a-a316-2a64c5a381b4"},"vehicle_type_id":"4","last_reported":1684609450,"current_range_meters":31200,"station_id":"ce4bh2h2rcd13ifvqdh0","pricing_plan_id":"free"},{"bike_id":"009bb9df-27b2-4075-a2d2-f749c3ae4413","system_id":"levelo_inurba_marseille","lat":43.29413,"lon":5.38616,"is_reserved":false,"is_disabled":false,"rental_uris":{"android":"levelo://app?vid=009bb9df-27b2-4075-a2d2-f749c3ae4413","ios":"levelo://app?vid=009bb9df-27b2-4075-a2d2-f749c3ae4413"},"vehicle_type_id":"4","last_reported":1684609450,"current_range_meters":18800,"station_id":"ce4bh2h2rcd13ifvqdh0","pricing_plan_id":"free"},{"bike_id":"02fa5ae5-b3ff-444d-b45a-54b9201ca890","system_id":"levelo_inurba_marseille","lat":43.294153,"lon":5.386305,"is_reserved":false,"is_disabled":false,"rental_uris":{"android":"levelo://app?vid=02fa5ae5-b3ff-444d-b45a-54b9201ca890","ios":"levelo://app?vid=02fa5ae5-b3ff-444d-b45a-54b9201ca890"},"vehicle_type_id":"4","last_reported":1684609450,"current_range_meters":31600,"station_id":"ce4bh2h2rcd13ifvqdh0","pricing_plan_id":"free"},{"bike_id":"d554c963-3dd3-4cd0-8427-56054b9b7f76","system_id":"levelo_inurba_marseille","lat":43.29412,"lon":5.38617,"is_reserved":false,"is_disabled":false,"rental_uris":{"android":"levelo://app?vid=d554c963-3dd3-4cd0-8427-56054b9b7f76","ios":"levelo://app?vid=d554c963-3dd3-4cd0-8427-56054b9b7f76"},"vehicle_type_id":"4","last_reported":1684609450,"current_range_meters":28400,"station_id":"ce4bh2h2rcd13ifvqdh0","pricing_plan_id":"free"},{"bike_id":"3a3e72e2-c6a3-49e8-b775-79d6a10a3504","system_id":"levelo_inurba_marseille","lat":43.294153,"lon":5.386305,"is_reserved":false,"is_disabled":false,"rental_uris":{"android":"levelo://app?vid=3a3e72e2-c6a3-49e8-b775-79d6a10a3504","ios":"levelo://app?vid=3a3e72e2-c6a3-49e8-b775-79d6a10a3504"},"vehicle_type_id":"4","last_reported":1684609450,"current_range_meters":10800,"station_id":"ce4bh2h2rcd13ifvqdh0","pricing_plan_id":"free"},{"bike_id":"9df58e7d-7ceb-450e-a784-212f6a8f0f6e","system_id":"levelo_inurba_marseille","lat":43.29417,"lon":5.38627,"is_reserved":false,"is_disabled":false,"rental_uris":{"android":"levelo://app?vid=9df58e7d-7ceb-450e-a784-212f6a8f0f6e","ios":"levelo://app?vid=9df58e7d-7ceb-450e-a784-212f6a8f0f6e"},"vehicle_type_id":"4","last_reported":1684609450,"current_range_meters":15200,"station_id":"ce4bh2h2rcd13ifvqdh0","pricing_plan_id":"free"},{"bike_id":"962087f6-81d5-4df7-bd30-73e08cc02a76","system_id":"levelo_inurba_marseille","lat":43.2941,"lon":5.38616,"is_reserved":false,"is_disabled":false,"rental_uris":{"android":"levelo://app?vid=962087f6-81d5-4df7-bd30-73e08cc02a76","ios":"levelo://app?vid=962087f6-81d5-4df7-bd30-73e08cc02a76"},"vehicle_type_id":"4","last_reported":1684609450,"current_range_meters":28800,"station_id":"ce4bh2h2rcd13ifvqdh0","pricing_plan_id":"free"},{"bike_id":"7f26f1e5-cd81-41d3-a68f-b332aad71eb4","system_id":"levelo_inurba_marseille","lat":43.29408,"lon":5.38621,"is_reserved":false,"is_disabled":false,"rental_uris":{"android":"levelo://app?vid=7f26f1e5-cd81-41d3-a68f-b332aad71eb4","ios":"levelo://app?vid=7f26f1e5-cd81-41d3-a68f-b332aad71eb4"},"vehicle_type_id":"4","last_reported":1684609450,"current_range_meters":23200,"station_id":"ce4bh2h2rcd13ifvqdh0","pricing_plan_id":"free"},{"bike_id":"30944d93-77e2-4dd6-8e2b-9531ff2fa636","system_id":"levelo_inurba_marseille","lat":43.289184,"lon":5.366408,"is_reserved":false,"is_disabled":false,"rental_uris":{"android":"levelo://app?vid=30944d93-77e2-4dd6-8e2b-9531ff2fa636","ios":"levelo://app?vid=30944d93-77e2-4dd6-8e2b-9531ff2fa636"},"vehicle_type_id":"4","last_reported":1684609450,"current_range_meters":28800,"station_id":"ce4bhap2rcd13ifvqek0","pricing_plan_id":"free"},{"bike_id":"09b9d192-b2d1-4574-b587-86d0c9821655","system_id":"levelo_inurba_marseille","lat":43.289184,"lon":5.366408,"is_reserved":false,"is_disabled":false,"rental_uris":{"android":"levelo://app?vid=09b9d192-b2d1-4574-b587-86d0c9821655","ios":"levelo://app?vid=09b9d192-b2d1-4574-b587-86d0c9821655"},"vehicle_type_id":"4","last_reported":1684609450,"current_range_meters":20800,"station_id":"ce4bhap2rcd13ifvqek0","pricing_plan_id":"free"},{"bike_id":"b21eae04-be64-4af9-8b8a-f480e65329c5","system_id":"levelo_inurba_marseille","lat":43.289184,"lon":5.366408,"is_reserved":false,"is_disabled":false,"rental_uris":{"android":"levelo://app?vid=b21eae04-be64-4af9-8b8a-f480e65329c5","ios":"levelo://app?vid=b21eae04-be64-4af9-8b8a-f480e65329c5"},"vehicle_type_id":"4","last_reported":1684609450,"current_range_meters":29200,"station_id":"ce4bhap2rcd13ifvqek0","pricing_plan_id":"free"},{"bike_id":"f4ba9800-9238-486b-bc2d-8e3a4492282e","system_id":"levelo_inurba_marseille","lat":43.289184,"lon":5.366408,"is_reserved":false,"is_disabled":false,"rental_uris":{"android":"levelo://app?vid=f4ba9800-9238-486b-bc2d-8e3a4492282e","ios":"levelo://app?vid=f4ba9800-9238-486b-bc2d-8e3a4492282e"},"vehicle_type_id":"4","last_reported":1684609450,"current_range_meters":24000,"station_id":"ce4bhap2rcd13ifvqek0","pricing_plan_id":"free"},{"bike_id":"4300a994-b575-4ee1-8aa5-240fd12fafec","system_id":"levelo_inurba_marseille","lat":43.292644,"lon":5.384257,"is_reserved":false,"is_disabled":false,"rental_uris":{"android":"levelo://app?vid=4300a994-b575-4ee1-8aa5-240fd12fafec","ios":"levelo://app?vid=4300a994-b575-4ee1-8aa5-240fd12fafec"},"vehicle_type_id":"4","last_reported":1684609450,"current_range_meters":12000,"station_id":"ce4bh692rcd13ifvqea0","pricing_plan_id":"free"},{"bike_id":"2657c4a6-4e18-4794-b08f-7e1e34f75cd4","system_id":"levelo_inurba_marseille","lat":43.29268,"lon":5.38431,"is_reserved":false,"is_disabled":false,"rental_uris":{"android":"levelo://app?vid=2657c4a6-4e18-4794-b08f-7e1e34f75cd4","ios":"levelo://app?vid=2657c4a6-4e18-4794-b08f-7e1e34f75cd4"},"vehicle_type_id":"4","last_reported":1684609450,"current_range_meters":25200,"station_id":"ce4bh692rcd13ifvqea0","pricing_plan_id":"free"},{"bike_id":"1962c686-e486-4015-8c71-e3b25df1edef","system_id":"levelo_inurba_marseille","lat":43.292642,"lon":5.384254,"is_reserved":false,"is_disabled":false,"rental_uris":{"android":"levelo://app?vid=1962c686-e486-4015-8c71-e3b25df1edef","ios":"levelo://app?vid=1962c686-e486-4015-8c71-e3b25df1edef"},"vehicle_type_id":"4","last_reported":1684609450,"current_range_meters":25600,"station_id":"ce4bh692rcd13ifvqea0","pricing_plan_id":"free"},{"bike_id":"15f670e4-fc29-48fe-8077-df7c661dac10","system_id":"levelo_inurba_marseille","lat":43.304274,"lon":5.397513,"is_reserved":false,"is_disabled":false,"rental_uris":{"android":"levelo://app?vid=15f670e4-fc29-48fe-8077-df7c661dac10","ios":"levelo://app?vid=15f670e4-fc29-48fe-8077-df7c661dac10"},"vehicle_type_id":"4","last_reported":1684609450,"current_range_meters":26800,"station_id":"ce4bh092rcd13ifvqd20","pricing_plan_id":"free"},{"bike_id":"ac421d7e-a014-4f2a-84df-4c0fff0710b0","system_id":"levelo_inurba_marseille","lat":43.292644,"lon":5.384257,"is_reserved":false,"is_disabled":false,"rental_uris":{"android":"levelo://app?vid=ac421d7e-a014-4f2a-84df-4c0fff0710b0","ios":"levelo://app?vid=ac421d7e-a014-4f2a-84df-4c0fff0710b0"},"vehicle_type_id":"4","last_reported":1684609450,"current_range_meters":18000,"station_id":"ce4bh692rcd13ifvqea0","pricing_plan_id":"free"},{"bike_id":"e2a56a5d-59b4-4755-84fe-f71aef69026e","system_id":"levelo_inurba_marseille","lat":43.292642,"lon":5.384254,"is_reserved":false,"is_disabled":false,"rental_uris":{"android":"levelo://app?vid=e2a56a5d-59b4-4755-84fe-f71aef69026e","ios":"levelo://app?vid=e2a56a5d-59b4-4755-84fe-f71aef69026e"},"vehicle_type_id":"4","last_reported":1684609450,"current_range_meters":26000,"station_id":"ce4bh692rcd13ifvqea0","pricing_plan_id":"free"},{"bike_id":"d4e361c7-aa06-46de-81d9-15308ba71532","system_id":"levelo_inurba_marseille","lat":43.292642,"lon":5.384254,"is_reserved":false,"is_disabled":false,"rental_uris":{"android":"levelo://app?vid=d4e361c7-aa06-46de-81d9-15308ba71532","ios":"levelo://app?vid=d4e361c7-aa06-46de-81d9-15308ba71532"},"vehicle_type_id":"4","last_reported":1684609450,"current_range_meters":30800,"station_id":"ce4bh692rcd13ifvqea0","pricing_plan_id":"free"},{"bike_id":"b2869aab-cff4-4267-a1ba-e300369287d0","system_id":"levelo_inurba_marseille","lat":43.304296,"lon":5.397513,"is_reserved":false,"is_disabled":false,"rental_uris":{"android":"levelo://app?vid=b2869aab-cff4-4267-a1ba-e300369287d0","ios":"levelo://app?vid=b2869aab-cff4-4267-a1ba-e300369287d0"},"vehicle_type_id":"4","last_reported":1684609450,"current_range_meters":26400,"station_id":"ce4bh092rcd13ifvqd20","pricing_plan_id":"free"},{"bike_id":"c9385c13-f39c-460f-b6b2-99ec8d617571","system_id":"levelo_inurba_marseille","lat":43.304296,"lon":5.397513,"is_reserved":false,"is_disabled":false,"rental_uris":{"android":"levelo://app?vid=c9385c13-f39c-460f-b6b2-99ec8d617571","ios":"levelo://app?vid=c9385c13-f39c-460f-b6b2-99ec8d617571"},"vehicle_type_id":"4","last_reported":1684609450,"current_range_meters":0,"station_id":"ce4bh092rcd13ifvqd20","pricing_plan_id":"free"},{"bike_id":"3a052c00-62d7-4ef3-b2f2-02d8d27f5c42","system_id":"levelo_inurba_marseille","lat":43.304274,"lon":5.397513,"is_reserved":false,"is_disabled":false,"rental_uris":{"android":"levelo://app?vid=3a052c00-62d7-4ef3-b2f2-02d8d27f5c42","ios":"levelo://app?vid=3a052c00-62d7-4ef3-b2f2-02d8d27f5c42"},"vehicle_type_id":"4","last_reported":1684609450,"current_range_meters":31600,"station_id":"ce4bh092rcd13ifvqd20","pricing_plan_id":"free"},{"bike_id":"d8359e83-b761-4285-9e9a-ae2065e0fd73","system_id":"levelo_inurba_marseille","lat":43.29256,"lon":5.38435,"is_reserved":false,"is_disabled":false,"rental_uris":{"android":"levelo://app?vid=d8359e83-b761-4285-9e9a-ae2065e0fd73","ios":"levelo://app?vid=d8359e83-b761-4285-9e9a-ae2065e0fd73"},"vehicle_type_id":"4","last_reported":1684609450,"current_range_meters":26800,"station_id":"ce4bh692rcd13ifvqea0","pricing_plan_id":"free"},{"bike_id":"4871afbd-2a5e-4b45-8369-7d8eb2c7331c","system_id":"levelo_inurba_marseille","lat":43.292642,"lon":5.384254,"is_reserved":false,"is_disabled":false,"rental_uris":{"android":"levelo://app?vid=4871afbd-2a5e-4b45-8369-7d8eb2c7331c","ios":"levelo://app?vid=4871afbd-2a5e-4b45-8369-7d8eb2c7331c"},"vehicle_type_id":"4","last_reported":1684609450,"current_range_meters":16400,"station_id":"ce4bh692rcd13ifvqea0","pricing_plan_id":"free"},{"bike_id":"ec5489ca-7481-4dc9-bc08-d0697a9f9ccb","system_id":"levelo_inurba_marseille","lat":43.292644,"lon":5.384257,"is_reserved":false,"is_disabled":false,"rental_uris":{"android":"levelo://app?vid=ec5489ca-7481-4dc9-bc08-d0697a9f9ccb","ios":"levelo://app?vid=ec5489ca-7481-4dc9-bc08-d0697a9f9ccb"},"vehicle_type_id":"4","last_reported":1684609450,"current_range_meters":26800,"station_id":"ce4bh692rcd13ifvqea0","pricing_plan_id":"free"},{"bike_id":"5be263dc-919e-40a7-bdba-c47480b414bc","system_id":"levelo_inurba_marseille","lat":43.292644,"lon":5.384257,"is_reserved":false,"is_disabled":false,"rental_uris":{"android":"levelo://app?vid=5be263dc-919e-40a7-bdba-c47480b414bc","ios":"levelo://app?vid=5be263dc-919e-40a7-bdba-c47480b414bc"},"vehicle_type_id":"4","last_reported":1684609450,"current_range_meters":18800,"station_id":"ce4bh692rcd13ifvqea0","pricing_plan_id":"free"},{"bike_id":"4fddac79-b8a0-47a9-9c6e-2d3755c608db","system_id":"levelo_inurba_marseille","lat":43.33034,"lon":5.38914,"is_reserved":false,"is_disabled":false,"rental_uris":{"android":"levelo://app?vid=4fddac79-b8a0-47a9-9c6e-2d3755c608db","ios":"levelo://app?vid=4fddac79-b8a0-47a9-9c6e-2d3755c608db"},"vehicle_type_id":"4","last_reported":1684609450,"current_range_meters":18000,"station_id":"ce4bhr92rcd13ifvqhrg","pricing_plan_id":"free"},{"bike_id":"96e0b596-e6f6-47a0-8171-9b893f754b00","system_id":"levelo_inurba_marseille","lat":43.33041,"lon":5.38919,"is_reserved":false,"is_disabled":false,"rental_uris":{"android":"levelo://app?vid=96e0b596-e6f6-47a0-8171-9b893f754b00","ios":"levelo://app?vid=96e0b596-e6f6-47a0-8171-9b893f754b00"},"vehicle_type_id":"4","last_reported":1684609450,"current_range_meters":14000,"station_id":"ce4bhr92rcd13ifvqhrg","pricing_plan_id":"free"},{"bike_id":"62dd3d9e-5195-47aa-bca0-3c538d4b633b","system_id":"levelo_inurba_marseille","lat":43.33043,"lon":5.38919,"is_reserved":false,"is_disabled":false,"rental_uris":{"android":"levelo://app?vid=62dd3d9e-5195-47aa-bca0-3c538d4b633b","ios":"levelo://app?vid=62dd3d9e-5195-47aa-bca0-3c538d4b633b"},"vehicle_type_id":"4","last_reported":1684609450,"current_range_meters":18000,"station_id":"ce4bhr92rcd13ifvqhrg","pricing_plan_id":"free"},{"bike_id":"a370176b-62ca-4524-a3a9-d5698318adc5","system_id":"levelo_inurba_marseille","lat":43.33044,"lon":5.38918,"is_reserved":false,"is_disabled":false,"rental_uris":{"android":"levelo://app?vid=a370176b-62ca-4524-a3a9-d5698318adc5","ios":"levelo://app?vid=a370176b-62ca-4524-a3a9-d5698318adc5"},"vehicle_type_id":"4","last_reported":1684609450,"current_range_meters":14400,"station_id":"ce4bhr92rcd13ifvqhrg","pricing_plan_id":"free"},{"bike_id":"414e54ce-ba22-4a4d-9806-b6e5e79532c5","system_id":"levelo_inurba_marseille","lat":43.33045,"lon":5.38918,"is_reserved":false,"is_disabled":false,"rental_uris":{"android":"levelo://app?vid=414e54ce-ba22-4a4d-9806-b6e5e79532c5","ios":"levelo://app?vid=414e54ce-ba22-4a4d-9806-b6e5e79532c5"},"vehicle_type_id":"4","last_reported":1684609450,"current_range_meters":23200,"station_id":"ce4bhr92rcd13ifvqhrg","pricing_plan_id":"free"},{"bike_id":"8b16e323-4f74-41b8-940c-5be9fb253fe1","system_id":"levelo_inurba_marseille","lat":43.33044,"lon":5.38921,"is_reserved":false,"is_disabled":false,"rental_uris":{"android":"levelo://app?vid=8b16e323-4f74-41b8-940c-5be9fb253fe1","ios":"levelo://app?vid=8b16e323-4f74-41b8-940c-5be9fb253fe1"},"vehicle_type_id":"4","last_reported":1684609450,"current_range_meters":20000,"station_id":"ce4bhr92rcd13ifvqhrg","pricing_plan_id":"free"},{"bike_id":"dc561eec-74b8-4a9d-8360-fde7940ea8ed","system_id":"levelo_inurba_marseille","lat":43.33046,"lon":5.38921,"is_reserved":false,"is_disabled":false,"rental_uris":{"android":"levelo://app?vid=dc561eec-74b8-4a9d-8360-fde7940ea8ed","ios":"levelo://app?vid=dc561eec-74b8-4a9d-8360-fde7940ea8ed"},"vehicle_type_id":"4","last_reported":1684609450,"current_range_meters":18000,"station_id":"ce4bhr92rcd13ifvqhrg","pricing_plan_id":"free"},{"bike_id":"2d04834a-69a2-413f-9f4a-d7f214aac159","system_id":"levelo_inurba_marseille","lat":43.33039,"lon":5.38942,"is_reserved":false,"is_disabled":false,"rental_uris":{"android":"levelo://app?vid=2d04834a-69a2-413f-9f4a-d7f214aac159","ios":"levelo://app?vid=2d04834a-69a2-413f-9f4a-d7f214aac159"},"vehicle_type_id":"4","last_reported":1684609450,"current_range_meters":27200,"station_id":"ce4bhr92rcd13ifvqhrg","pricing_plan_id":"free"},{"bike_id":"ec3e0bf2-98bf-407b-a7dc-65ac34703815","system_id":"levelo_inurba_marseille","lat":43.290995,"lon":5.381361,"is_reserved":false,"is_disabled":false,"rental_uris":{"android":"levelo://app?vid=ec3e0bf2-98bf-407b-a7dc-65ac34703815","ios":"levelo://app?vid=ec3e0bf2-98bf-407b-a7dc-65ac34703815"},"vehicle_type_id":"4","last_reported":1684609450,"current_range_meters":28800,"station_id":"ce4bh512rcd13ifvqe2g","pricing_plan_id":"free"},{"bike_id":"af9888d8-0e70-481c-a2b3-d838e9ea5b92","system_id":"levelo_inurba_marseille","lat":43.290995,"lon":5.381361,"is_reserved":false,"is_disabled":false,"rental_uris":{"android":"levelo://app?vid=af9888d8-0e70-481c-a2b3-d838e9ea5b92","ios":"levelo://app?vid=af9888d8-0e70-481c-a2b3-d838e9ea5b92"},"vehicle_type_id":"4","last_reported":1684609450,"current_range_meters":14400,"station_id":"ce4bh512rcd13ifvqe2g","pricing_plan_id":"free"},{"bike_id":"ae6496a8-56fc-48cc-9a2f-410c56376096","system_id":"levelo_inurba_marseille","lat":43.297814,"lon":5.393513,"is_reserved":false,"is_disabled":false,"rental_uris":{"android":"levelo://app?vid=ae6496a8-56fc-48cc-9a2f-410c56376096","ios":"levelo://app?vid=ae6496a8-56fc-48cc-9a2f-410c56376096"},"vehicle_type_id":"4","last_reported":1684609450,"current_range_meters":5600,"station_id":"chh1huq6cuj3fo74tm60","pricing_plan_id":"free"},{"bike_id":"6fdd0811-5c98-4714-8db0-f79fde859254","system_id":"levelo_inurba_marseille","lat":43.295169,"lon":5.390426,"is_reserved":false,"is_disabled":false,"rental_uris":{"android":"levelo://app?vid=6fdd0811-5c98-4714-8db0-f79fde859254","ios":"levelo://app?vid=6fdd0811-5c98-4714-8db0-f79fde859254"},