{"last_updated":1678903780,"ttl":30,"version":"2.2","data":{"bikes":[{"bike_id":"24d478f6-de25-448e-9b99-f07e748e7b4a","system_id":"levelo_inurba_marseille","lat":43.312239,"lon":5.368562,"is_reserved":false,"is_disabled":false,"rental_uris":{"android":"levelo://app?vid=24d478f6-de25-448e-9b99-f07e748e7b4a","ios":"levelo://app?vid=24d478f6-de25-448e-9b99-f07e748e7b4a"},"vehicle_type_id":"4","last_reported":1678903780,"current_range_meters":31200,"station_id":"ce4bgl92rcd13ifvqbq0","pricing_plan_id":"free"},{"bike_id":"a98e90f0-983b-42e5-ad4b-20021d10b07b","system_id":"levelo_inurba_marseille","lat":43.3089,"lon":5.37197,"is_reserved":false,"is_disabled":false,"rental_uris":{"android":"levelo://app?vid=a98e90f0-983b-42e5-ad4b-20021d10b07b","ios":"levelo://app?vid=a98e90f0-983b-42e5-ad4b-20021d10b07b"},"vehicle_type_id":"4","last_reported":1678903780,"current_range_meters":31600,"station_id":"","pricing_plan_id":"free"},{"bike_id":"d79c668f-cc11-4308-be2e-62d8f7463582","system_id":"levelo_inurba_marseille","lat":43.308614,"lon":5.372098,"is_reserved":false,"is_disabled":false,"rental_uris":{"android":"levelo://app?vid=d79c668f-cc11-4308-be2e-62d8f7463582","ios":"levelo://app?vid=d79c668f-cc11-4308-be2e-62d8f7463582"},"vehicle_type_id":"4","last_reported":1678903780,"current_range_meters":20800,"station_id":"ce4bguh2rcd13ifvqckg","pricing_plan_id":"free"},{"bike_id":"aef46515-595b-43ad-b2b1-e2eb920f3da1","system_id":"levelo_inurba_marseille","lat":43.317075,"lon":5.377367,"is_reserved":false,"is_disabled":false,"rental_uris":{"android":"levelo://app?vid=aef46515-595b-43ad-b2b1-e2eb920f3da1","ios":"levelo://app?vid=aef46515-595b-43ad-b2b1-e2eb920f3da1"},"vehicle_type_id":"4","last_reported":1678903780,"current_range_meters":5200,"station_id":"ce4bgth2rcd13ifvqch0","pricing_plan_id":"free"},{"bike_id":"583126c2-31a9-493e-b5e9-09bae9852822","system_id":"levelo_inurba_marseille","lat":43.317075,"lon":5.377367,"is_reserved":false,"is_disabled":false,"rental_uris":{"android":"levelo://app?vid=583126c2-31a9-493e-b5e9-09bae9852822","ios":"levelo://app?vid=583126c2-31a9-493e-b5e9-09bae9852822"},"vehicle_type_id":"4","last_reported":1678903780,"current_range_meters":30000,"station_id":"ce4bgth2rcd13ifvqch0","pricing_plan_id":"free"},{"bike_id":"12f05af7-5eeb-4f15-ac98-d1a867efa476","system_id":"levelo_inurba_marseille","lat":43.308012,"lon":5.381511,"is_reserved":false,"is_disabled":false,"rental_uris":{"android":"levelo://app?vid=12f05af7-5eeb-4f15-ac98-d1a867efa476","ios":"levelo://app?vid=12f05af7-5eeb-4f15-ac98-d1a867efa476"},"vehicle_type_id":"4","last_reported":1678903780,"current_range_meters":3600,"station_id":"ce4bgt12rcd13ifvqce0","pricing_plan_id":"free"},{"bike_id":"5c07e2f9-3303-4397-aded-920aa96f0d4f","system_id":"levelo_inurba_marseille","lat":43.301429,"lon":5.37413,"is_reserved":false,"is_disabled":false,"rental_uris":{"android":"levelo://app?vid=5c07e2f9-3303-4397-aded-920aa96f0d4f","ios":"levelo://app?vid=5c07e2f9-3303-4397-aded-920aa96f0d4f"},"vehicle_type_id":"4","last_reported":1678903780,"current_range_meters":24400,"station_id":"ce4bgs92rcd13ifvqcc0","pricing_plan_id":"free"},{"bike_id":"c69bf135-faae-4b13-b6c7-dc9d5f5f232f","system_id":"levelo_inurba_marseille","lat":43.31361,"lon":5.384955,"is_reserved":false,"is_disabled":false,"rental_uris":{"android":"levelo://app?vid=c69bf135-faae-4b13-b6c7-dc9d5f5f232f","ios":"levelo://app?vid=c69bf135-faae-4b13-b6c7-dc9d5f5f232f"},"vehicle_type_id":"4","last_reported":1678903780,"current_range_meters":0,"station_id":"ce4bgt92rcd13ifvqcf0","pricing_plan_id":"free"},{"bike_id":"8ff2969f-a303-4900-8617-08fcc65d26d5","system_id":"levelo_inurba_marseille","lat":43.298433,"lon":5.362774,"is_reserved":false,"is_disabled":false,"rental_uris":{"android":"levelo://app?vid=8ff2969f-a303-4900-8617-08fcc65d26d5","ios":"levelo://app?vid=8ff2969f-a303-4900-8617-08fcc65d26d5"},"vehicle_type_id":"4","last_reported":1678903780,"current_range_meters":5600,"station_id":"ce4bgpp2rcd13ifvqc3g","pricing_plan_id":"free"},{"bike_id":"366c3c8c-d3e3-4ddf-85d6-538d4e90256c","system_id":"levelo_inurba_marseille","lat":43.298433,"lon":5.362774,"is_reserved":false,"is_disabled":false,"rental_uris":{"android":"levelo://app?vid=366c3c8c-d3e3-4ddf-85d6-538d4e90256c","ios":"levelo://app?vid=366c3c8c-d3e3-4ddf-85d6-538d4e90256c"},"vehicle_type_id":"4","last_reported":1678903780,"current_range_meters":17200,"station_id":"ce4bgpp2rcd13ifvqc3g","pricing_plan_id":"free"},{"bike_id":"31b50ec1-1c20-4b95-9946-353c3c9367e0","system_id":"levelo_inurba_marseille","lat":43.328371,"lon":5.366912,"is_reserved":false,"is_disabled":false,"rental_uris":{"android":"levelo://app?vid=31b50ec1-1c20-4b95-9946-353c3c9367e0","ios":"levelo://app?vid=31b50ec1-1c20-4b95-9946-353c3c9367e0"},"vehicle_type_id":"4","last_reported":1678903780,"current_range_meters":16800,"station_id":"ce4bhs92rcd13ifvqi0g","pricing_plan_id":"free"},{"bike_id":"c5e4c59b-8094-4cf2-a197-6c5568059a2b","system_id":"levelo_inurba_marseille","lat":43.328371,"lon":5.366912,"is_reserved":false,"is_disabled":false,"rental_uris":{"android":"levelo://app?vid=c5e4c59b-8094-4cf2-a197-6c5568059a2b","ios":"levelo://app?vid=c5e4c59b-8094-4cf2-a197-6c5568059a2b"},"vehicle_type_id":"4","last_reported":1678903780,"current_range_meters":16000,"station_id":"ce4bhs92rcd13ifvqi0g","pricing_plan_id":"free"},{"bike_id":"f89f7ccd-5b15-4549-9c84-15ab44b7f263","system_id":"levelo_inurba_marseille","lat":43.328371,"lon":5.366912,"is_reserved":false,"is_disabled":false,"rental_uris":{"android":"levelo://app?vid=f89f7ccd-5b15-4549-9c84-15ab44b7f263","ios":"levelo://app?vid=f89f7ccd-5b15-4549-9c84-15ab44b7f263"},"vehicle_type_id":"4","last_reported":1678903780,"current_range_meters":24000,"station_id":"ce4bhs92rcd13ifvqi0g","pricing_plan_id":"free"},{"bike_id":"d894811d-ad94-44b8-89ff-52a7d770de8e","system_id":"levelo_inurba_marseille","lat":43.32828,"lon":5.36694,"is_reserved":false,"is_disabled":false,"rental_uris":{"android":"levelo://app?vid=d894811d-ad94-44b8-89ff-52a7d770de8e","ios":"levelo://app?vid=d894811d-ad94-44b8-89ff-52a7d770de8e"},"vehicle_type_id":"4","last_reported":1678903780,"current_range_meters":2400,"station_id":"","pricing_plan_id":"free"},{"bike_id":"3f1ecbd0-cf15-4224-9648-75f1ceebf9d1","system_id":"levelo_inurba_marseille","lat":43.328371,"lon":5.366912,"is_reserved":false,"is_disabled":false,"rental_uris":{"android":"levelo://app?vid=3f1ecbd0-cf15-4224-9648-75f1ceebf9d1","ios":"levelo://app?vid=3f1ecbd0-cf15-4224-9648-75f1ceebf9d1"},"vehicle_type_id":"4","last_reported":1678903780,"current_range_meters":1200,"station_id":"ce4bhs92rcd13ifvqi0g","pricing_plan_id":"free"},{"bike_id":"61276a3b-a248-47d7-a858-9e09345028d8","system_id":"levelo_inurba_marseille","lat":43.328303,"lon":5.366919,"is_reserved":false,"is_disabled":false,"rental_uris":{"android":"levelo://app?vid=61276a3b-a248-47d7-a858-9e09345028d8","ios":"levelo://app?vid=61276a3b-a248-47d7-a858-9e09345028d8"},"vehicle_type_id":"4","last_reported":1678903780,"current_range_meters":5600,"station_id":"ce4bhs92rcd13ifvqi0g","pricing_plan_id":"free"},{"bike_id":"61e87ae3-1630-4850-b4a1-3247adcaaef1","system_id":"levelo_inurba_marseille","lat":43.32831,"lon":5.36692,"is_reserved":false,"is_disabled":false,"rental_uris":{"android":"levelo://app?vid=61e87ae3-1630-4850-b4a1-3247adcaaef1","ios":"levelo://app?vid=61e87ae3-1630-4850-b4a1-3247adcaaef1"},"vehicle_type_id":"4","last_reported":1678903780,"current_range_meters":6800,"station_id":"","pricing_plan_id":"free"},{"bike_id":"9c07b28c-ec19-4987-8217-b808462d546f","system_id":"levelo_inurba_marseille","lat":43.328371,"lon":5.366912,"is_reserved":false,"is_disabled":false,"rental_uris":{"android":"levelo://app?vid=9c07b28c-ec19-4987-8217-b808462d546f","ios":"levelo://app?vid=9c07b28c-ec19-4987-8217-b808462d546f"},"vehicle_type_id":"4","last_reported":1678903780,"current_range_meters":1200,"station_id":"ce4bhs92rcd13ifvqi0g","pricing_plan_id":"free"},{"bike_id":"9166cb05-c854-4cf2-81df-94f7e72eddc6","system_id":"levelo_inurba_marseille","lat":43.29622,"lon":5.37149,"is_reserved":false,"is_disabled":false,"rental_uris":{"android":"levelo://app?vid=9166cb05-c854-4cf2-81df-94f7e72eddc6","ios":"levelo://app?vid=9166cb05-c854-4cf2-81df-94f7e72eddc6"},"vehicle_type_id":"4","last_reported":1678903780,"current_range_meters":16000,"station_id":"","pricing_plan_id":"free"},{"bike_id":"f24df148-0953-4b50-bb1b-a851f96d577d","system_id":"levelo_inurba_marseille","lat":43.304274,"lon":5.388873,"is_reserved":false,"is_disabled":false,"rental_uris":{"android":"levelo://app?vid=f24df148-0953-4b50-bb1b-a851f96d577d","ios":"levelo://app?vid=f24df148-0953-4b50-bb1b-a851f96d577d"},"vehicle_type_id":"4","last_reported":1678903780,"current_range_meters":31600,"station_id":"ce4bgk12rcd13ifvqbi0","pricing_plan_id":"free"},{"bike_id":"9e4b2150-9b46-48c9-aa83-c6e70ab7daea","system_id":"levelo_inurba_marseille","lat":43.304278,"lon":5.388868,"is_reserved":false,"is_disabled":false,"rental_uris":{"android":"levelo://app?vid=9e4b2150-9b46-48c9-aa83-c6e70ab7daea","ios":"levelo://app?vid=9e4b2150-9b46-48c9-aa83-c6e70ab7daea"},"vehicle_type_id":"4","last_reported":1678903780,"current_range_meters":27600,"station_id":"ce4bgk12rcd13ifvqbi0","pricing_plan_id":"free"},{"bike_id":"c60331bd-fbf3-4f8b-8f27-0daa54191d8b","system_id":"levelo_inurba_marseille","lat":43.295748,"lon":5.37522,"is_reserved":false,"is_disabled":false,"rental_uris":{"android":"levelo://app?vid=c60331bd-fbf3-4f8b-8f27-0daa54191d8b","ios":"levelo://app?vid=c60331bd-fbf3-4f8b-8f27-0daa54191d8b"},"vehicle_type_id":"4","last_reported":1678903780,"current_range_meters":9600,"station_id":"ce4bgh92rcd13ifvqb50","pricing_plan_id":"free"},{"bike_id":"59af6095-874d-4186-a4b0-2926e7edc968","system_id":"levelo_inurba_marseille","lat":43.304274,"lon":5.388873,"is_reserved":false,"is_disabled":false,"rental_uris":{"android":"levelo://app?vid=59af6095-874d-4186-a4b0-2926e7edc968","ios":"levelo://app?vid=59af6095-874d-4186-a4b0-2926e7edc968"},"vehicle_type_id":"4","last_reported":1678903780,"current_range_meters":31600,"station_id":"ce4bgk12rcd13ifvqbi0","pricing_plan_id":"free"},{"bike_id":"baed206d-250c-4585-a39d-884994b72d64","system_id":"levelo_inurba_marseille","lat":43.2943,"lon":5.37408,"is_reserved":false,"is_disabled":false,"rental_uris":{"android":"levelo://app?vid=baed206d-250c-4585-a39d-884994b72d64","ios":"levelo://app?vid=baed206d-250c-4585-a39d-884994b72d64"},"vehicle_type_id":"4","last_reported":1678903780,"current_range_meters":2400,"station_id":"","pricing_plan_id":"free"},{"bike_id":"9af48ff2-718a-4646-a1b5-1d5cbd478733","system_id":"levelo_inurba_marseille","lat":43.32361,"lon":5.38882,"is_reserved":false,"is_disabled":false,"rental_uris":{"android":"levelo://app?vid=9af48ff2-718a-4646-a1b5-1d5cbd478733","ios":"levelo://app?vid=9af48ff2-718a-4646-a1b5-1d5cbd478733"},"vehicle_type_id":"4","last_reported":1678903780,"current_range_meters":2800,"station_id":"ce4bhqp2rcd13ifvqhog","pricing_plan_id":"free"},{"bike_id":"49e9f1f7-126d-4f0d-b056-ceb25964a9a1","system_id":"levelo_inurba_marseille","lat":43.32365,"lon":5.38885,"is_reserved":false,"is_disabled":false,"rental_uris":{"android":"levelo://app?vid=49e9f1f7-126d-4f0d-b056-ceb25964a9a1","ios":"levelo://app?vid=49e9f1f7-126d-4f0d-b056-ceb25964a9a1"},"vehicle_type_id":"4","last_reported":1678903780,"current_range_meters":32000,"station_id":"","pricing_plan_id":"free"},{"bike_id":"9971499e-f6dc-4f03-9a75-9e9b57487b0c","system_id":"levelo_inurba_marseille","lat":43.32369,"lon":5.38882,"is_reserved":false,"is_disabled":false,"rental_uris":{"android":"levelo://app?vid=9971499e-f6dc-4f03-9a75-9e9b57487b0c","ios":"levelo://app?vid=9971499e-f6dc-4f03-9a75-9e9b57487b0c"},"vehicle_type_id":"4","last_reported":1678903780,"current_range_meters":29200,"station_id":"","pricing_plan_id":"free"},{"bike_id":"e38ef56d-2c54-4da4-9cdb-a655aa337559","system_id":"levelo_inurba_marseille","lat":43.32367,"lon":5.388836,"is_reserved":false,"is_disabled":false,"rental_uris":{"android":"levelo://app?vid=e38ef56d-2c54-4da4-9cdb-a655aa337559","ios":"levelo://app?vid=e38ef56d-2c54-4da4-9cdb-a655aa337559"},"vehicle_type_id":"4","last_reported":1678903780,"current_range_meters":6000,"station_id":"ce4bhqp2rcd13ifvqhog","pricing_plan_id":"free"},{"bike_id":"ddb58a1f-109b-4c51-ac1a-f6ce81819e83","system_id":"levelo_inurba_marseille","lat":43.32365,"lon":5.38886,"is_reserved":false,"is_disabled":false,"rental_uris":{"android":"levelo://app?vid=ddb58a1f-109b-4c51-ac1a-f6ce81819e83","ios":"levelo://app?vid=ddb58a1f-109b-4c51-ac1a-f6ce81819e83"},"vehicle_type_id":"4","last_reported":1678903780,"current_range_meters":14400,"station_id":"","pricing_plan_id":"free"},{"bike_id":"a808b8d9-6228-4724-84f4-46578b1508c9","system_id":"levelo_inurba_marseille","lat":43.32367,"lon":5.388836,"is_reserved":false,"is_disabled":false,"rental_uris":{"android":"levelo://app?vid=a808b8d9-6228-4724-84f4-46578b1508c9","ios":"levelo://app?vid=a808b8d9-6228-4724-84f4-46578b1508c9"},"vehicle_type_id":"4","last_reported":1678903780,"current_range_meters":1200,"station_id":"ce4bhqp2rcd13ifvqhog","pricing_plan_id":"free"},{"bike_id":"4d5a6395-13f3-42b3-81e7-3bf6168445b4","system_id":"levelo_inurba_marseille","lat":43.32367,"lon":5.388836,"is_reserved":false,"is_disabled":false,"rental_uris":{"android":"levelo://app?vid=4d5a6395-13f3-42b3-81e7-3bf6168445b4","ios":"levelo://app?vid=4d5a6395-13f3-42b3-81e7-3bf6168445b4"},"vehicle_type_id":"4","last_reported":1678903780,"current_range_meters":800,"station_id":"ce4bhqp2rcd13ifvqhog","pricing_plan_id":"free"},{"bike_id":"b390b54b-bd09-4ac9-acb7-e1f37473b1e8","system_id":"levelo_inurba_marseille","lat":43.32367,"lon":5.388836,"is_reserved":false,"is_disabled":false,"rental_uris":{"android":"levelo://app?vid=b390b54b-bd09-4ac9-acb7-e1f37473b1e8","ios":"levelo://app?vid=b390b54b-bd09-4ac9-acb7-e1f37473b1e8"},"vehicle_type_id":"4","last_reported":1678903780,"current_range_meters":9600,"station_id":"ce4bhqp2rcd13ifvqhog","pricing_plan_id":"free"},{"bike_id":"725ea325-1ad1-4d84-acf4-72007e88a0d4","system_id":"levelo_inurba_marseille","lat":43.32367,"lon":5.38888,"is_reserved":false,"is_disabled":false,"rental_uris":{"android":"levelo://app?vid=725ea325-1ad1-4d84-acf4-72007e88a0d4","ios":"levelo://app?vid=725ea325-1ad1-4d84-acf4-72007e88a0d4"},"vehicle_type_id":"4","last_reported":1678903780,"current_range_meters":25200,"station_id":"","pricing_plan_id":"free"},{"bike_id":"675579d7-318f-4b6a-92d0-b675b1aa3245","system_id":"levelo_inurba_marseille","lat":43.32366,"lon":5.38889,"is_reserved":false,"is_disabled":false,"rental_uris":{"android":"levelo://app?vid=675579d7-318f-4b6a-92d0-b675b1aa3245","ios":"levelo://app?vid=675579d7-318f-4b6a-92d0-b675b1aa3245"},"vehicle_type_id":"4","last_reported":1678903780,"current_range_meters":23200,"station_id":"","pricing_plan_id":"free"},{"bike_id":"166a0ce8-20eb-4489-a9c8-b411e29b06f9","system_id":"levelo_inurba_marseille","lat":43.29299,"lon":5.37169,"is_reserved":false,"is_disabled":false,"rental_uris":{"android":"levelo://app?vid=166a0ce8-20eb-4489-a9c8-b411e29b06f9","ios":"levelo://app?vid=166a0ce8-20eb-4489-a9c8-b411e29b06f9"},"vehicle_type_id":"4","last_reported":1678903780,"current_range_meters":0,"station_id":"","pricing_plan_id":"free"},{"bike_id":"90632206-5336-4ad2-a433-4dd8461fbf18","system_id":"levelo_inurba_marseille","lat":43.32367,"lon":5.388836,"is_reserved":false,"is_disabled":false,"rental_uris":{"android":"levelo://app?vid=90632206-5336-4ad2-a433-4dd8461fbf18","ios":"levelo://app?vid=90632206-5336-4ad2-a433-4dd8461fbf18"},"vehicle_type_id":"4","last_reported":1678903780,"current_range_meters":26800,"station_id":"ce4bhqp2rcd13ifvqhog","pricing_plan_id":"free"},{"bike_id":"2688cdea-47d7-4c42-9fd6-16538731958c","system_id":"levelo_inurba_marseille","lat":43.298994,"lon":5.388183,"is_reserved":false,"is_disabled":false,"rental_uris":{"android":"levelo://app?vid=2688cdea-47d7-4c42-9fd6-16538731958c","ios":"levelo://app?vid=2688cdea-47d7-4c42-9fd6-16538731958c"},"vehicle_type_id":"4","last_reported":1678903780,"current_range_meters":0,"station_id":"ce4bhb92rcd13ifvqen0","pricing_plan_id":"free"},{"bike_id":"8f805ca1-2879-41e7-9eac-5bc9b9a72c89","system_id":"levelo_inurba_marseille","lat":43.292643,"lon":5.35974,"is_reserved":false,"is_disabled":false,"rental_uris":{"android":"levelo://app?vid=8f805ca1-2879-41e7-9eac-5bc9b9a72c89","ios":"levelo://app?vid=8f805ca1-2879-41e7-9eac-5bc9b9a72c89"},"vehicle_type_id":"4","last_reported":1678903780,"current_range_meters":6000,"station_id":"","pricing_plan_id":"free"},{"bike_id":"eb46e802-b002-438c-bd21-815bb99d53d3","system_id":"levelo_inurba_marseille","lat":43.300852,"lon":5.390859,"is_reserved":false,"is_disabled":false,"rental_uris":{"android":"levelo://app?vid=eb46e802-b002-438c-bd21-815bb99d53d3","ios":"levelo://app?vid=eb46e802-b002-438c-bd21-815bb99d53d3"},"vehicle_type_id":"4","last_reported":1678903780,"current_range_meters":14000,"station_id":"ce4bh192rcd13ifvqdb0","pricing_plan_id":"free"},{"bike_id":"06195847-0150-4c61-8515-f77f7df5da67","system_id":"levelo_inurba_marseille","lat":43.313291,"lon":5.396838,"is_reserved":false,"is_disabled":false,"rental_uris":{"android":"levelo://app?vid=06195847-0150-4c61-8515-f77f7df5da67","ios":"levelo://app?vid=06195847-0150-4c61-8515-f77f7df5da67"},"vehicle_type_id":"4","last_reported":1678903780,"current_range_meters":26400,"station_id":"ce4bgvp2rcd13ifvqcu0","pricing_plan_id":"free"},{"bike_id":"3c00b7d5-223d-41d5-8044-d600f6f8fd45","system_id":"levelo_inurba_marseille","lat":43.313291,"lon":5.396838,"is_reserved":false,"is_disabled":false,"rental_uris":{"android":"levelo://app?vid=3c00b7d5-223d-41d5-8044-d600f6f8fd45","ios":"levelo://app?vid=3c00b7d5-223d-41d5-8044-d600f6f8fd45"},"vehicle_type_id":"4","last_reported":1678903780,"current_range_meters":31200,"station_id":"ce4bgvp2rcd13ifvqcu0","pricing_plan_id":"free"},{"bike_id":"caebd1f5-e2f1-4b56-a4b3-5a8ef4d87d6c","system_id":"levelo_inurba_marseille","lat":43.313291,"lon":5.396838,"is_reserved":false,"is_disabled":false,"rental_uris":{"android":"levelo://app?vid=caebd1f5-e2f1-4b56-a4b3-5a8ef4d87d6c","ios":"levelo://app?vid=caebd1f5-e2f1-4b56-a4b3-5a8ef4d87d6c"},"vehicle_type_id":"4","last_reported":1678903780,"current_range_meters":22400,"station_id":"ce4bgvp2rcd13ifvqcu0","pricing_plan_id":"free"},{"bike_id":"c1349bb6-9211-46a0-8192-c3754e4a1b1f","system_id":"levelo_inurba_marseille","lat":43.313291,"lon":5.396838,"is_reserved":false,"is_disabled":false,"rental_uris":{"android":"levelo://app?vid=c1349bb6-9211-46a0-8192-c3754e4a1b1f","ios":"levelo://app?vid=c1349bb6-9211-46a0-8192-c3754e4a1b1f"},"vehicle_type_id":"4","last_reported":1678903780,"current_range_meters":30800,"station_id":"ce4bgvp2rcd13ifvqcu0","pricing_plan_id":"free"},{"bike_id":"9fd54400-ac70-4618-8655-6b4ad8d54661","system_id":"levelo_inurba_marseille","lat":43.313291,"lon":5.396838,"is_reserved":false,"is_disabled":false,"rental_uris":{"android":"levelo://app?vid=9fd54400-ac70-4618-8655-6b4ad8d54661","ios":"levelo://app?vid=9fd54400-ac70-4618-8655-6b4ad8d54661"},"vehicle_type_id":"4","last_reported":1678903780,"current_range_meters":26800,"station_id":"ce4bgvp2rcd13ifvqcu0","pricing_plan_id":"free"},{"bike_id":"52f4fea3-1a73-4251-b90d-8d291db4a608","system_id":"levelo_inurba_marseille","lat":43.313291,"lon":5.396838,"is_reserved":false,"is_disabled":false,"rental_uris":{"android":"levelo://app?vid=52f4fea3-1a73-4251-b90d-8d291db4a608","ios":"levelo://app?vid=52f4fea3-1a73-4251-b90d-8d291db4a608"},"vehicle_type_id":"4","last_reported":1678903780,"current_range_meters":31200,"station_id":"ce4bgvp2rcd13ifvqcu0","pricing_plan_id":"free"},{"bike_id":"a4b901d0-d17e-455c-81db-7b4bb8c9b1b5","system_id":"levelo_inurba_marseille","lat":43.313291,"lon":5.396838,"is_reserved":false,"is_disabled":false,"rental_uris":{"android":"levelo://app?vid=a4b901d0-d17e-455c-81db-7b4bb8c9b1b5","ios":"levelo://app?vid=a4b901d0-d17e-455c-81db-7b4bb8c9b1b5"},"vehicle_type_id":"4","last_reported":1678903780,"current_range_meters":27600,"station_id":"ce4bgvp2rcd13ifvqcu0","pricing_plan_id":"free"},{"bike_id":"d806315e-239a-498b-874b-62390ad9e1c4","system_id":"levelo_inurba_marseille","lat":43.313291,"lon":5.396838,"is_reserved":false,"is_disabled":false,"rental_uris":{"android":"levelo://app?vid=d806315e-239a-498b-874b-62390ad9e1c4","ios":"levelo://app?vid=d806315e-239a-498b-874b-62390ad9e1c4"},"vehicle_type_id":"4","last_reported":1678903780,"current_range_meters":0,"station_id":"ce4bgvp2rcd13ifvqcu0","pricing_plan_id":"free"},{"bike_id":"02e1d325-5d0d-42c1-85b3-52bdb3e12c12","system_id":"levelo_inurba_marseille","lat":43.313291,"lon":5.396838,"is_reserved":false,"is_disabled":false,"rental_uris":{"android":"levelo://app?vid=02e1d325-5d0d-42c1-85b3-52bdb3e12c12","ios":"levelo://app?vid=02e1d325-5d0d-42c1-85b3-52bdb3e12c12"},"vehicle_type_id":"4","last_reported":1678903780,"current_range_meters":15200,"station_id":"ce4bgvp2rcd13ifvqcu0","pricing_plan_id":"free"},{"bike_id":"63f1f97c-4e8a-4f22-bbce-17dad63dd9ce","system_id":"levelo_inurba_marseille","lat":43.290613,"lon":5.371577,"is_reserved":false,"is_disabled":false,"rental_uris":{"android":"levelo://app?vid=63f1f97c-4e8a-4f22-bbce-17dad63dd9ce","ios":"levelo://app?vid=63f1f97c-4e8a-4f22-bbce-17dad63dd9ce"},"vehicle_type_id":"4","last_reported":1678903780,"current_range_meters":0,"station_id":"ce4bh5p2rcd13ifvqe4g","pricing_plan_id":"free"},{"bike_id":"90defd8e-0649-4429-a9df-c66070903225","system_id":"levelo_inurba_marseille","lat":43.302008,"lon":5.394694,"is_reserved":false,"is_disabled":false,"rental_uris":{"android":"levelo://app?vid=90defd8e-0649-4429-a9df-c66070903225","ios":"levelo://app?vid=90defd8e-0649-4429-a9df-c66070903225"},"vehicle_type_id":"4","last_reported":1678903780,"current_range_meters":17600,"station_id":"ce4bh0p2rcd13ifvqd70","pricing_plan_id":"free"},{"bike_id":"31d8bb41-9db0-4f87-a015-deefd8ba3235","system_id":"levelo_inurba_marseille","lat":43.302008,"lon":5.394694,"is_reserved":false,"is_disabled":false,"rental_uris":{"android":"levelo://app?vid=31d8bb41-9db0-4f87-a015-deefd8ba3235","ios":"levelo://app?vid=31d8bb41-9db0-4f87-a015-deefd8ba3235"},"vehicle_type_id":"4","last_reported":1678903780,"current_range_meters":0,"station_id":"ce4bh0p2rcd13ifvqd70","pricing_plan_id":"free"},{"bike_id":"927156d9-7302-41f7-8cdd-b635ee617bdd","system_id":"levelo_inurba_marseille","lat":43.290343,"lon":5.359287,"is_reserved":false,"is_disabled":false,"rental_uris":{"android":"levelo://app?vid=927156d9-7302-41f7-8cdd-b635ee617bdd","ios":"levelo://app?vid=927156d9-7302-41f7-8cdd-b635ee617bdd"},"vehicle_type_id":"4","last_reported":1678903780,"current_range_meters":31200,"station_id":"","pricing_plan_id":"free"},{"bike_id":"cce7fde8-6bf9-47c2-adae-64ef75a6c77c","system_id":"levelo_inurba_marseille","lat":43.294162,"lon":5.386292,"is_reserved":false,"is_disabled":false,"rental_uris":{"android":"levelo://app?vid=cce7fde8-6bf9-47c2-adae-64ef75a6c77c","ios":"levelo://app?vid=cce7fde8-6bf9-47c2-adae-64ef75a6c77c"},"vehicle_type_id":"4","last_reported":1678903780,"current_range_meters":14400,"station_id":"ce4bh2h2rcd13ifvqdh0","pricing_plan_id":"free"},{"bike_id":"7869b954-dcbf-401c-a789-6d74744db121","system_id":"levelo_inurba_marseille","lat":43.289184,"lon":5.366408,"is_reserved":false,"is_disabled":false,"rental_uris":{"android":"levelo://app?vid=7869b954-dcbf-401c-a789-6d74744db121","ios":"levelo://app?vid=7869b954-dcbf-401c-a789-6d74744db121"},"vehicle_type_id":"4","last_reported":1678903780,"current_range_meters":12800,"station_id":"ce4bhap2rcd13ifvqek0","pricing_plan_id":"free"},{"bike_id":"fa1f618e-2923-4372-8adb-a24047214efd","system_id":"levelo_inurba_marseille","lat":43.289184,"lon":5.366408,"is_reserved":false,"is_disabled":false,"rental_uris":{"android":"levelo://app?vid=fa1f618e-2923-4372-8adb-a24047214efd","ios":"levelo://app?vid=fa1f618e-2923-4372-8adb-a24047214efd"},"vehicle_type_id":"4","last_reported":1678903780,"current_range_meters":800,"station_id":"ce4bhap2rcd13ifvqek0","pricing_plan_id":"free"},{"bike_id":"5ab3c529-77e1-4538-952a-1e27365e26ae","system_id":"levelo_inurba_marseille","lat":43.28937,"lon":5.36635,"is_reserved":false,"is_disabled":false,"rental_uris":{"android":"levelo://app?vid=5ab3c529-77e1-4538-952a-1e27365e26ae","ios":"levelo://app?vid=5ab3c529-77e1-4538-952a-1e27365e26ae"},"vehicle_type_id":"4","last_reported":1678903780,"current_range_meters":18000,"station_id":"ce4bhap2rcd13ifvqek0","pricing_plan_id":"free"},{"bike_id":"09577b1f-ddb5-413c-8e86-4cfc656acb65","system_id":"levelo_inurba_marseille","lat":43.289468,"lon":5.363719,"is_reserved":false,"is_disabled":false,"rental_uris":{"android":"levelo://app?vid=09577b1f-ddb5-413c-8e86-4cfc656acb65","ios":"levelo://app?vid=09577b1f-ddb5-413c-8e86-4cfc656acb65"},"vehicle_type_id":"4","last_reported":1678903780,"current_range_meters":31600,"station_id":"ce4bhc92rcd13ifvqetg","pricing_plan_id":"free"},{"bike_id":"5d7ba2b7-1803-43cb-bc3c-626a47154b25","system_id":"levelo_inurba_marseille","lat":43.29269,"lon":5.38437,"is_reserved":false,"is_disabled":false,"rental_uris":{"android":"levelo://app?vid=5d7ba2b7-1803-43cb-bc3c-626a47154b25","ios":"levelo://app?vid=5d7ba2b7-1803-43cb-bc3c-626a47154b25"},"vehicle_type_id":"4","last_reported":1678903780,"current_range_meters":9600,"station_id":"ce4bh692rcd13ifvqea0","pricing_plan_id":"free"},{"bike_id":"34625a32-dac4-4b4d-9f3d-9ad1d1420edc","system_id":"levelo_inurba_marseille","lat":43.29255,"lon":5.38438,"is_reserved":false,"is_disabled":false,"rental_uris":{"android":"levelo://app?vid=34625a32-dac4-4b4d-9f3d-9ad1d1420edc","ios":"levelo://app?vid=34625a32-dac4-4b4d-9f3d-9ad1d1420edc"},"vehicle_type_id":"4","last_reported":1678903780,"current_range_meters":25200,"station_id":"","pricing_plan_id":"free"},{"bike_id":"cc307a7b-2de3-423d-a9c2-2ae38cf14257","system_id":"levelo_inurba_marseille","lat":43.33043,"lon":5.38919,"is_reserved":false,"is_disabled":false,"rental_uris":{"android":"levelo://app?vid=cc307a7b-2de3-423d-a9c2-2ae38cf14257","ios":"levelo://app?vid=cc307a7b-2de3-423d-a9c2-2ae38cf14257"},"vehicle_type_id":"4","last_reported":1678903780,"current_range_meters":13600,"station_id":"ce4bhr92rcd13ifvqhrg","pricing_plan_id":"free"},{"bike_id":"9d11eaf9-9cf7-4bbe-9368-6aebe9247420","system_id":"levelo_inurba_marseille","lat":43.330442,"lon":5.389148,"is_reserved":false,"is_disabled":false,"rental_uris":{"android":"levelo://app?vid=9d11eaf9-9cf7-4bbe-9368-6aebe9247420","ios":"levelo://app?vid=9d11eaf9-9cf7-4bbe-9368-6aebe9247420"},"vehicle_type_id":"4","last_reported":1678903780,"current_range_meters":16400,"station_id":"ce4bhr92rcd13ifvqhrg","pricing_plan_id":"free"},{"bike_id":"378d12f5-e7de-4d47-ac64-c7bc8acb2cab","system_id":"levelo_inurba_marseille","lat":43.290104,"lon":5.356111,"is_reserved":false,"is_disabled":false,"rental_uris":{"android":"levelo://app?vid=378d12f5-e7de-4d47-ac64-c7bc8acb2cab","ios":"levelo://app?vid=378d12f5-e7de-4d47-ac64-c7bc8acb2cab"},"vehicle_type_id":"4","last_reported":1678903780,"current_range_meters":26800,"station_id":"ce4bhb92rcd13ifvqen0","pricing_plan_id":"free"},{"bike_id":"35379e0c-575d-43c0-a966-448456f67c01","system_id":"levelo_inurba_marseille","lat":43.33043,"lon":5.38924,"is_reserved":false,"is_disabled":false,"rental_uris":{"android":"levelo://app?vid=35379e0c-575d-43c0-a966-448456f67c01","ios":"levelo://app?vid=35379e0c-575d-43c0-a966-448456f67c01"},"vehicle_type_id":"4","last_reported":1678903780,"current_range_meters":0,"station_id":"","pricing_plan_id":"free"},{"bike_id":"e2eb995f-db78-4667-b6dd-a24e88a10909","system_id":"levelo_inurba_marseille","lat":43.290104,"lon":5.356111,"is_reserved":false,"is_disabled":false,"rental_uris":{"android":"levelo://app?vid=e2eb995f-db78-4667-b6dd-a24e88a10909","ios":"levelo://app?vid=e2eb995f-db78-4667-b6dd-a24e88a10909"},"vehicle_type_id":"4","last_reported":1678903780,"current_range_meters":24000,"station_id":"ce4bhb92rcd13ifvqen0","pricing_plan_id":"free"},{"bike_id":"bf933f96-e4ad-4943-a2b2-2fb2d3600afa","system_id":"levelo_inurba_marseille","lat":43.33047,"lon":5.38921,"is_reserved":false,"is_disabled":false,"rental_uris":{"android":"levelo://app?vid=bf933f96-e4ad-4943-a2b2-2fb2d3600afa","ios":"levelo://app?vid=bf933f96-e4ad-4943-a2b2-2fb2d3600afa"},"vehicle_type_id":"4","last_reported":1678903780,"current_range_meters":10000,"station_id":"ce4bhr92rcd13ifvqhrg","pricing_plan_id":"free"},{"bike_id":"fba59e47-f17d-4ed8-93b9-7bf24762a1eb","system_id":"levelo_inurba_marseille","lat":43.290104,"lon":5.356111,"is_reserved":false,"is_disabled":false,"rental_uris":{"android":"levelo://app?vid=fba59e47-f17d-4ed8-93b9-7bf24762a1eb","ios":"levelo://app?vid=fba59e47-f17d-4ed8-93b9-7bf24762a1eb"},"vehicle_type_id":"4","last_reported":1678903780,"current_range_meters":25600,"station_id":"ce4bhb92rcd13ifvqen0","pricing_plan_id":"free"},{"bike_id":"76171178-7ab1-4057-8b26-914f8a4f0272","system_id":"levelo_inurba_marseille","lat":43.290104,"lon":5.356111,"is_reserved":false,"is_disabled":false,"rental_uris":{"android":"levelo://app?vid=76171178-7ab1-4057-8b26-914f8a4f0272","ios":"levelo://app?vid=76171178-7ab1-4057-8b26-914f8a4f0272"},"vehicle_type_id":"4","last_reported":1678903780,"current_range_meters":0,"station_id":"ce4bhb92rcd13ifvqen0","pricing_plan_id":"free"},{"bike_id":"d4169cd0-5c54-4159-9b83-e1d448fb151d","system_id":"levelo_inurba_marseille","lat":43.290995,"lon":5.381361,"is_reserved":false,"is_disabled":false,"rental_uris":{"android":"levelo://app?vid=d4169cd0-5c54-4159-9b83-e1d448fb151d","ios":"levelo://app?vid=d4169cd0-5c54-4159-9b83-e1d448fb151d"},"vehicle_type_id":"4","last_reported":1678903780,"current_range_meters":18400,"station_id":"ce4bh512rcd13ifvqe2g","pricing_plan_id":"free"},{"bike_id":"213d019f-be85-4283-b6b7-5558e65b9757","system_id":"levelo_inurba_marseille","lat":43.290995,"lon":5.381361,"is_reserved":false,"is_disabled":false,"rental_uris":{"android":"levelo://app?vid=213d019f-be85-4283-b6b7-5558e65b9757","ios":"levelo://app?vid=213d019f-be85-4283-b6b7-5558e65b9757"},"vehicle_type_id":"4","last_reported":1678903780,"current_range_meters":24800,"station_id":"ce4bh512rcd13ifvqe2g","pricing_plan_id":"free"},{"bike_id":"c3cd5039-f895-4338-acc2-e1f52cee35ee","system_id":"levelo_inurba_marseille","lat":43.295169,"lon":5.390426,"is_reserved":false,"is_disabled":false,"rental_uris":{"android":"levelo://app?vid=c3cd5039-f895-4338-acc2-e1f52cee35ee","ios":"levelo://app?vid=c3cd5039-f895-4338-acc2-e1f52cee35ee"},"vehicle_type_id":"4","last_reported":1678903780,"current_range_meters":19200,"station_id":"ce4bh3p2rcd13ifvqdp0","pricing_plan_id":"free"},{"bike_id":"50a60ce1-c0a8-43b0-aa22-2f7c65560cc4","system_id":"levelo_inurba_marseille","lat":43.295169,"lon":5.390426,"is_reserved":false,"is_disabled":false,"rental_uris":{"android":"levelo://app?vid=50a60ce1-c0a8-43b0-aa22-2f7c65560cc4","ios":"levelo://app?vid=50a60ce1-c0a8-43b0-aa22-2f7c65560cc4"},"vehicle_type_id":"4","last_reported":1678903780,"current_range_meters":0,"station_id":"ce4bh3p2rcd13ifvqdp0","pricing_plan_id":"free"},{"bike_id":"867c164f-fd7a-4725-a9f4-19ec3ed62704","system_id":"levelo_inurba_marseille","lat":43.289741,"lon":5.378306,"is_reserved":false,"is_disabled":false,"rental_uris":{"android":"levelo://app?vid=867c164f-fd7a-4725-a9f4-19ec3ed62704","ios":"levelo://app?vid=867c164f-fd7a-4725-a9f4-19ec3ed62704"},"vehicle_type_id":"4","last_reported":1678903780,"current_range_meters":12000,"station_id":"ce4bh9p2rcd13ifvqed0","pricing_plan_id":"free"},{"bike_id":"6af297d9-da56-4968-bad2-cde9b6f98777","system_id":"levelo_inurba_marseille","lat":43.295169,"lon":5.390426,"is_reserved":false,"is_disabled":false,"rental_uris":{"android":"levelo://app?vid=6af297d9-da56-4968-bad2-cde9b6f98777","ios":"levelo://app?vid=6af297d9-da56-4968-bad2-cde9b6f98777"},"vehicle_type_id":"4","last_reported":1678903780,"current_range_meters":16000,"station_id":"ce4bh3p2rcd13ifvqdp0","pricing_plan_id":"free"},{"bike_id":"73caaaad-e424-47db-b5ba-51e2d3d8079f","system_id":"levelo_inurba_marseille","lat":43.337544,"lon":5.374432,"is_reserved":false,"is_disabled":false,"rental_uris":{"android":"levelo://app?vid=73caaaad-e424-47db-b5ba-51e2d3d8079f","ios":"levelo://app?vid=73caaaad-e424-47db-b5ba-51e2d3d8079f"},"vehicle_type_id":"4","last_reported":1678903780,"current_range_meters":28000,"station_id":"","pricing_plan_id":"free"},{"bike_id":"c0c07b87-140b-4ea6-9c61-f16314fad2db","system_id":"levelo_inurba_marseille","lat":43.30642,"lon":5.401031,"is_reserved":false,"is_disabled":false,"rental_uris":{"android":"levelo://app?vid=c0c07b87-140b-4ea6-9c61-f16314fad2db","ios":"levelo://app?vid=c0c07b87-140b-4ea6-9c61-f16314fad2db"},"vehicle_type_id":"4","last_reported":1678903780,"current_range_meters":30000,"station_id":"ce4bh112rcd13ifvqda0","pricing_plan_id":"free"},{"bike_id":"32c8ad0d-7fe0-431e-a269-98978f6a63f0","system_id":"levelo_inurba_marseille","lat":43.30642,"lon":5.401031,"is_reserved":false,"is_disabled":false,"rental_uris":{"android":"levelo://app?vid=32c8ad0d-7fe0-431e-a269-98978f6a63f0","ios":"levelo://app?vid=32c8ad0d-7fe0-431e-a269-98978f6a63f0"},"vehicle_type_id":"4","last_reported":1678903780,"current_range_meters":27200,"station_id":"ce4bh112rcd13ifvqda0","pricing_plan_id":"free"},{"bike_id":"ce6572b8-8375-4142-921b-56877c6fcd14","system_id":"levelo_inurba_marseille","lat":43.306679,"lon":5.401656,"is_reserved":false,"is_disabled":false,"rental_uris":{"android":"levelo://app?vid=ce6572b8-8375-4142-921b-56877c6fcd14","ios":"levelo://app?vid=ce6572b8-8375-4142-921b-56877c6fcd14"},"vehicle_type_id":"4","last_reported":1678903780,"current_range_meters":4400,"station_id":"","pricing_plan_id":"free"},{"bike_id":"62d36493-7128-4154-9607-9621a6fc8187","system_id":"levelo_inurba_marseille","lat":43.295235,"lon":5.394097,"is_reserved":false,"is_disabled":false,"rental_uris":{"android":"levelo://app?vid=62d36493-7128-4154-9607-9621a6fc8187","ios":"levelo://app?vid=62d36493-7128-4154-9607-9621a6fc8187"},"vehicle_type_id":"4","last_reported":1678903780,"current_range_meters":0,"station_id":"ce4bh212rcd13ifvqde0","pricing_plan_id":"free"},{"bike_id":"6910f31b-9569-4475-900c-ff6d8fa2d69c","system_id":"levelo_inurba_marseille","lat":43.29517,"lon":5.39403,"is_reserved":false,"is_disabled":false,"rental_uris":{"android":"levelo://app?vid=6910f31b-9569-4475-900c-ff6d8fa2d69c","ios":"levelo://app?vid=6910f31b-9569-4475-900c-ff6d8fa2d69c"},"vehicle_type_id":"4","last_reported":1678903780,"current_range_meters":20000,"station_id":"ce4bh292rcd13ifvqdf0","pricing_plan_id":"free"},{"bike_id":"015715a7-30fb-44fe-ab0a-e15c8f9e0e20","system_id":"levelo_inurba_marseille","lat":43.2952,"lon":5.394095,"is_reserved":false,"is_disabled":false,"rental_uris":{"android":"levelo://app?vid=015715a7-30fb-44fe-ab0a-e15c8f9e0e20","ios":"levelo://app?vid=015715a7-30fb-44fe-ab0a-e15c8f9e0e20"},"vehicle_type_id":"4","last_reported":1678903780,"current_range_meters":30400,"station_id":"ce4bh212rcd13ifvqde0","pricing_plan_id":"free"},{"bike_id":"9991a574-7eff-460d-af65-223f414b1a0a","system_id":"levelo_inurba_marseille","lat":43.2952,"lon":5.3941,"is_reserved":false,"is_disabled":false,"rental_uris":{"android":"levelo://app?vid=9991a574-7eff-460d-af65-223f414b1a0a","ios":"levelo://app?vid=9991a574-7eff-460d-af65-223f414b1a0a"},"vehicle_type_id":"4","last_reported":1678903780,"current_range_meters":7600,"station_id":"ce4bh212rcd13ifvqde0","pricing_plan_id":"free"},{"bike_id":"529b15c4-12b2-478a-82a5-c26afdb223f7","system_id":"levelo_inurba_marseille","lat":43.295157,"lon":5.394097,"is_reserved":false,"is_disabled":false,"rental_uris":{"android":"levelo://app?vid=529b15c4-12b2-478a-82a5-c26afdb223f7","ios":"levelo://app?vid=529b15c4-12b2-478a-82a5-c26afdb223f7"},"vehicle_type_id":"4","last_reported":1678903780,"current_range_meters":5600,"station_id":"ce4bh212rcd13ifvqde0","pricing_plan_id":"free"},{"bike_id":"fe504fdf-ab05-481a-9798-da13079459ea","system_id":"levelo_inurba_marseille","lat":43.29511,"lon":5.39414,"is_reserved":false,"is_disabled":false,"rental_uris":{"android":"levelo://app?vid=fe504fdf-ab05-481a-9798-da13079459ea","ios":"levelo://app?vid=fe504fdf-ab05-481a-9798-da13079459ea"},"vehicle_type_id":"4","last_reported":1678903780,"current_range_meters":27200,"station_id":"ce4bh212rcd13ifvqde0","pricing_plan_id":"free"},{"bike_id":"b00efbfb-5de8-4b8e-bd4f-435b64098e3e","system_id":"levelo_inurba_marseille","lat":43.302759,"lon":5.400793,"is_reserved":false,"is_disabled":false,"rental_uris":{"android":"levelo://app?vid=b00efbfb-5de8-4b8e-bd4f-435b64098e3e","ios":"levelo://app?vid=b00efbfb-5de8-4b8e-bd4f-435b64098e3e"},"vehicle_type_id":"4","last_reported":1678903780,"current_range_meters":14400,"station_id":"ce4bgvh2rcd13ifvqcs0","pricing_plan_id":"free"},{"bike_id":"4beb2b95-d028-4059-8c8e-c25586472ab7","system_id":"levelo_inurba_marseille","lat":43.287185,"lon":5.379373,"is_reserved":false,"is_disabled":false,"rental_uris":{"android":"levelo://app?vid=4beb2b95-d028-4059-8c8e-c25586472ab7","ios":"levelo://app?vid=4beb2b95-d028-4059-8c8e-c25586472ab7"},"vehicle_type_id":"4","last_reported":1678903780,"current_range_meters":0,"station_id":"ce4bh9p2rcd13ifvqec0","pricing_plan_id":"free"},{"bike_id":"9f51ddcf-3fe7-4a2b-bef5-6d9fb1def4f1","system_id":"levelo_inurba_marseille","lat":43.287185,"lon":5.379373,"is_reserved":false,"is_disabled":false,"rental_uris":{"android":"levelo://app?vid=9f51ddcf-3fe7-4a2b-bef5-6d9fb1def4f1","ios":"levelo://app?vid=9f51ddcf-3fe7-4a2b-bef5-6d9fb1def4f1"},"vehicle_type_id":"4","last_reported":1678903780,"current_range_meters":7600,"station_id":"ce4bh9p2rcd13ifvqec0","pricing_plan_id":"free"},{"bike_id":"7bdcf89e-def5-452b-8e0a-e3cc10b1f7ea","system_id":"levelo_inurba_marseille","lat":43.284534,"lon":5.358662,"is_reserved":false,"is_disabled":false,"rental_uris":{"android":"levelo://app?vid=7bdcf89e-def5-452b-8e0a-e3cc10b1f7ea","ios":"levelo://app?vid=7bdcf89e-def5-452b-8e0a-e3cc10b1f7ea"},"vehicle_type_id":"4","last_reported":1678903780,"current_range_meters":12000,"station_id":"ce4bhah2rcd13ifvqei0","pricing_plan_id":"free"},{"bike_id":"38515a76-1577-4cbc-8a24-68d386a8a4c2","system_id":"levelo_inurba_marseille","lat":43.28466,"lon":5.35897,"is_reserved":false,"is_disabled":false,"rental_uris":{"android":"levelo://app?vid=38515a76-1577-4cbc-8a24-68d386a8a4c2","ios":"levelo://app?vid=38515a76-1577-4cbc-8a24-68d386a8a4c2"},"vehicle_type_id":"4","last_reported":1678903780,"current_range_meters":0,"station_id":"ce4bhah2rcd13ifvqei0","pricing_plan_id":"free"},{"bike_id":"6c86db45-cb62-42ba-ab47-63485ca1a647","system_id":"levelo_inurba_marseille","lat":43.284534,"lon":5.358662,"is_reserved":false,"is_disabled":false,"rental_uris":{"android":"levelo://app?vid=6c86db45-cb62-42ba-ab47-63485ca1a647","ios":"levelo://app?vid=6c86db45-cb62-42ba-ab47-63485ca1a647"},"vehicle_type_id":"4","last_reported":1678903780,"current_range_meters":19600,"station_id":"ce4bhah2rcd13ifvqei0","pricing_plan_id":"free"},{"bike_id":"f602a9b4-8dfb-4aa8-a4db-6856e75b7a83","system_id":"levelo_inurba_marseille","lat":43.284534,"lon":5.358662,"is_reserved":false,"is_disabled":false,"rental_uris":{"android":"levelo://app?vid=f602a9b4-8dfb-4aa8-a4db-6856e75b7a83","ios":"levelo://app?vid=f602a9b4-8dfb-4aa8-a4db-6856e75b7a83"},"vehicle_type_id":"4","last_reported":1678903780,"current_range_meters":6400,"station_id":"ce4bhah2rcd13ifvqei0","pricing_plan_id":"free"},{"bike_id":"ce0d4665-c41f-481f-8ad4-f8d6796bae07","system_id":"levelo_inurba_marseille","lat":43.284534,"lon":5.358662,"is_reserved":false,"is_disabled":false,"rental_uris":{"android":"levelo://app?vid=ce0d4665-c41f-481f-8ad4-f8d6796bae07","ios":"levelo://app?vid=ce0d4665-c41f-481f-8ad4-f8d6796bae07"},"vehicle_type_id":"4","last_reported":1678903780,"current_range_meters":15200,"station_id":"ce4bhah2rcd13ifvqei0","pricing_plan_id":"free"},{"bike_id":"6ad02cbb-083c-401d-9fe2-62b99ca5356c","system_id":"levelo_inurba_marseille","lat":43.2846,"lon":5.358993,"is_reserved":false,"is_disabled":false,"rental_uris":{"android":"levelo://app?vid=6ad02cbb-083c-401d-9fe2-62b99ca5356c","ios":"levelo://app?vid=6ad02cbb-083c-401d-9fe2-62b99ca5356c"},"vehicle_type_id":"4","last_reported":1678903780,"current_range_meters":20800,"station_id":"ce4bhah2rcd13ifvqei0","pricing_plan_id":"free"},{"bike_id":"5829f9ca-6c06-4c3f-b2a3-680568a3192e","system_id":"levelo_inurba_marseille","lat":43.284534,"lon":5.358662,"is_reserved":false,"is_disabled":false,"rental_uris":{"android":"levelo://app?vid=5829f9ca-6c06-4c3f-b2a3-680568a3192e","ios":"levelo://app?vid=5829f9ca-6c06-4c3f-b2a3-680568a3192e"},"vehicle_type_id":"4","last_reported":1678903780,"current_range_meters":18800,"station_id":"ce4bhah2rcd13ifvqei0","pricing_plan_id":"free"},{"bike_id":"facf2475-b1e8-4a1b-b9c4-23daf07dbc4b","system_id":"levelo_inurba_marseille","lat":43.284534,"lon":5.358662,"is_reserved":false,"is_disabled":false,"rental_uris":{"android":"levelo://app?vid=facf2475-b1e8-4a1b-b9c4-23daf07dbc4b","ios":"levelo://app?vid=facf2475-b1e8-4a1b-b9c4-23daf07dbc4b"},"vehicle_type_id":"4","last_reported":1678903780,"current_range_meters":19200,"station_id":"ce4bhah2rcd13ifvqei0","pricing_plan_id":"free"},{"bike_id":"4b1676cd-795b-4bc8-a3d7-8dea6b536126","system_id":"levelo_inurba_marseille","lat":43.286595,"lon":5.386795,"is_reserved":false,"is_disabled":false,"rental_uris":{"android":"levelo://app?vid=4b1676cd-795b-4bc8-a3d7-8dea6b536126","ios":"levelo://app?vid=4b1676cd-795b-4bc8-a3d7-8dea6b536126"},"vehicle_type_id":"4","last_reported":1678903780,"current_range_meters":0,"station_id":"ce4bh492rcd13ifvqdug","pricing_plan_id":"free"},{"bike_id":"51ebf2b8-4ce9-4c47-a4ce-c8bd1c545264","system_id":"levelo_inurba_marseille","lat":43.286595,"lon":5.386795,"is_reserved":false,"is_disabled":false,"rental_uris":{"android":"levelo://app?vid=51ebf2b8-4ce9-4c47-a4ce-c8bd1c545264","ios":"levelo://app?vid=51ebf2b8-4ce9-4c47-a4ce-c8bd1c545264"},"vehicle_type_id":"4","last_reported":1678903780,"current_range_meters":0,"station_id":"ce4bh492rcd13ifvqdug","pricing_plan_id":"free"},{"bike_id":"dd0dac25-dce6-4dc7-99b2-0a06cc982b80","system_id":"levelo_inurba_marseille","lat":43.286595,"lon":5.386795,"is_reserved":false,"is_disabled":false,"rental_uris":{"android":"levelo://app?vid=dd0dac25-dce6-4dc7-99b2-0a06cc982b80","ios":"levelo://app?vid=dd0dac25-dce6-4dc7-99b2-0a06cc982b80"},"vehicle_type_id":"4","last_reported":1678903780,"current_range_meters":14400,"station_id":"ce4bh492rcd13ifvqdug","pricing_plan_id":"free"},{"bike_id":"1c3dc4de-d626-4639-b19b-6a4b002c9f3d","system_id":"levelo_inurba_marseille","lat":43.33721,"lon":5.39182,"is_reserved":false,"is_disabled":false,"rental_uris":{"android":"levelo://app?vid=1c3dc4de-d626-4639-b19b-6a4b002c9f3d","ios":"levelo://app?vid=1c3dc4de-d626-4639-b19b-6a4b002c9f3d"},"vehicle_type_id":"4","last_reported":1678903780,"current_range_meters":6800,"station_id":"ce4bhr92rcd13ifvqhsg","pricing_plan_id":"free"},{"bike_id":"4bd797f9-7454-4f80-aa0c-bf48d3a8d990","system_id":"levelo_inurba_marseille","lat":43.3372,"lon":5.39184,"is_reserved":false,"is_disabled":false,"rental_uris":{"android":"levelo://app?vid=4bd797f9-7454-4f80-aa0c-bf48d3a8d990","ios":"levelo://app?vid=4bd797f9-7454-4f80-aa0c-bf48d3a8d990"},"vehicle_type_id":"4","last_reported":1678903780,"current_range_meters":22400,"station_id":"ce4bhr92rcd13ifvqhsg","pricing_plan_id":"free"},{"bike_id":"9539e4ee-6f2a-43db-aacc-4be5447ea4e2","system_id":"levelo_inurba_marseille","lat":43.33717,"lon":5.391857,"is_reserved":false,"is_disabled":false,"rental_uris":{"android":"levelo://app?vid=9539e4ee-6f2a-43db-aacc-4be5447ea4e2","ios":"levelo://app?vid=9539e4ee-6f2a-43db-aacc-4be5447ea4e2"},"vehicle_type_id":"4","last_reported":1678903780,"current_range_meters":27600,"station_id":"ce4bhr92rcd13ifvqhsg","pricing_plan_id":"free"},{"bike_id":"7602820e-a98d-42a0-90f2-9a2b257ac9e9","system_id":"levelo_inurba_marseille","lat":43.33717,"lon":5.391857,"is_reserved":false,"is_disabled":false,"rental_uris":{"android":"levelo://app?vid=7602820e-a98d-42a0-90f2-9a2b257ac9e9","ios":"levelo://app?vid=7602820e-a98d-42a0-90f2-9a2b257ac9e9"},"vehicle_type_id":"4","last_reported":1678903780,"current_range_meters":12800,"station_id":"ce4bhr92rcd13ifvqhsg","pricing_plan_id":"free"},{"bike_id":"34b7b8d0-079e-43aa-9abd-0106fac3b082","system_id":"levelo_inurba_marseille","lat":43.33717,"lon":5.391857,"is_reserved":false,"is_disabled":false,"rental_uris":{"android":"levelo://app?vid=34b7b8d0-079e-43aa-9abd-0106fac3b082","ios":"levelo://app?vid=34b7b8d0-079e-43aa-9abd-0106fac3b082"},"vehicle_type_id":"4","last_reported":1678903780,"current_range_meters":31600,"station_id":"ce4bhr92rcd13ifvqhsg","pricing_plan_id":"free"},{"bike_id":"8d4a1568-7189-4865-a568-2e38c8c658af","system_id":"levelo_inurba_marseille","lat":43.3231,"lon":5.406318,"is_reserved":false,"is_disabled":false,"rental_uris":{"android":"levelo://app?vid=8d4a1568-7189-4865-a568-2e38c8c658af","ios":"levelo://app?vid=8d4a1568-7189-4865-a568-2e38c8c658af"},"vehicle_type_id":"4","last_reported":1678903780,"current_range_meters":29200,"station_id":"","pricing_plan_id":"free"},{"bike_id":"8d10808b-f3f8-4635-84d4-ed1c0cc0ba7e","system_id":"levelo_inurba_marseille","lat":43.33717,"lon":5.391857,"is_reserved":false,"is_disabled":false,"rental_uris":{"android":"levelo://app?vid=8d10808b-f3f8-4635-84d4-ed1c0cc0ba7e","ios":"levelo://app?vid=8d10808b-f3f8-4635-84d4-ed1c0cc0ba7e"},"vehicle_type_id":"4","last_reported":1678903780,"current_range_meters":26400,"station_id":"ce4bhr92rcd13ifvqhsg","pricing_plan_id":"free"},{"bike_id":"339853a6-89f4-4b3b-9100-a20aa9d5d2ac","system_id":"levelo_inurba_marseille","lat":43.32331,"lon":5.40624,"is_reserved":false,"is_disabled":false,"rental_uris":{"android":"levelo://app?vid=339853a6-89f4-4b3b-9100-a20aa9d5d2ac","ios":"levelo://app?vid=339853a6-89f4-4b3b-9100-a20aa9d5d2ac"},"vehicle_type_id":"4","last_reported":1678903780,"current_range_meters":27600,"station_id":"ce4bhq92rcd13ifvqhjg","pricing_plan_id":"free"},{"bike_id":"c9a38481-ea48-4105-9e57-81cd5f36a687","system_id":"levelo_inurba_marseille","lat":43.323384,"lon":5.406232,"is_reserved":false,"is_disabled":false,"rental_uris":{"android":"levelo://app?vid=c9a38481-ea48-4105-9e57-81cd5f36a687","ios":"levelo://app?vid=c9a38481-ea48-4105-9e57-81cd5f36a687"},"vehicle_type_id":"4","last_reported":1678903780,"current_range_meters":31600,"station_id":"","pricing_plan_id":"free"},{"bike_id":"ed441882-6e56-43ed-aee8-ee87acd41cb9","system_id":"levelo_inurba_marseille","lat":43.323419,"lon":5.406215,"is_reserved":false,"is_disabled":false,"rental_uris":{"android":"levelo://app?vid=ed441882-6e56-43ed-aee8-ee87acd41cb9","ios":"levelo://app?vid=ed441882-6e56-43ed-aee8-ee87acd41cb9"},"vehicle_type_id":"4","last_reported":1678903780,"current_range_meters":29200,"station_id":"ce4bhq92rcd13ifvqhjg","pricing_plan_id":"free"},{"bike_id":"dc36b888-c12e-496f-b05c-f1f98a68fb93","system_id":"levelo_inurba_marseille","lat":43.323234,"lon":5.406317,"is_reserved":false,"is_disabled":false,"rental_uris":{"android":"levelo://app?vid=dc36b888-c12e-496f-b05c-f1f98a68fb93","ios":"levelo://app?vid=dc36b888-c12e-496f-b05c-f1f98a68fb93"},"vehicle_type_id":"4","last_reported":1678903780,"current_range_meters":31600,"station_id":"","pricing_plan_id":"free"},{"bike_id":"f027e0cb-0791-4eec-ba0f-fc3326906d61","system_id":"levelo_inurba_marseille","lat":43.323436,"lon":5.406215,"is_reserved":false,"is_disabled":false,"rental_uris":{"android":"levelo://app?vid=f027e0cb-0791-4eec-ba0f-fc3326906d61","ios":"levelo://app?vid=f027e0cb-0791-4eec-ba0f-fc3326906d61"},"vehicle_type_id":"4","last_reported":1678903780,"current_range_meters":31600,"station_id":"ce4bhq92rcd13ifvqhjg","pricing_plan_id":"free"},{"bike_id":"fb475c56-a592-455f-972f-ec9c5f4dc6af","system_id":"levelo_inurba_marseille","lat":43.337276,"lon":5.39189,"is_reserved":false,"is_disabled":false,"rental_uris":{"android":"levelo://app?vid=fb475c56-a592-455f-972f-ec9c5f4dc6af","ios":"levelo://app?vid=fb475c56-a592-455f-972f-ec9c5f4dc6af"},"vehicle_type_id":"4","last_reported":1678903780,"current_range_meters":27200,"station_id":"ce4bhr92rcd13ifvqhsg","pricing_plan_id":"free"},{"bike_id":"7e527013-48c8-43b3-92b5-c0280bdc931c","system_id":"levelo_inurba_marseille","lat":43.3373,"lon":5.391883,"is_reserved":false,"is_disabled":false,"rental_uris":{"android":"levelo://app?vid=7e527013-48c8-43b3-92b5-c0280bdc931c","ios":"levelo://app?vid=7e527013-48c8-43b3-92b5-c0280bdc931c"},"vehicle_type_id":"4","last_reported":1678903780,"current_range_meters":20000,"station_id":"ce4bhr92rcd13ifvqhsg","pricing_plan_id":"free"},{"bike_id":"c32ce35c-a207-458a-a59c-e17e51f695a3","system_id":"levelo_inurba_marseille","lat":43.33726,"lon":5.39199,"is_reserved":false,"is_disabled":false,"rental_uris":{"android":"levelo://app?vid=c32ce35c-a207-458a-a59c-e17e51f695a3","ios":"levelo://app?vid=c32ce35c-a207-458a-a59c-e17e51f695a3"},"vehicle_type_id":"4","last_reported":1678903780,"current_range_meters":21200,"station_id":"ce4bhr92rcd13ifvqhsg","pricing_plan_id":"free"},{"bike_id":"9c2a658d-918b-4b8c-a357-f96c61da6c01","system_id":"levelo_inurba_marseille","lat":43.323466,"lon":5.40627,"is_reserved":false,"is_disabled":false,"rental_uris":{"android":"levelo://app?vid=9c2a658d-918b-4b8c-a357-f96c61da6c01","ios":"levelo://app?vid=9c2a658d-918b-4b8c-a357-f96c61da6c01"},"vehicle_type_id":"4","last_reported":1678903780,"current_range_meters":29200,"station_id":"ce4bhq92rcd13ifvqhjg","pricing_plan_id":"free"},{"bike_id":"10bc6bc2-212b-4621-bdcf-5a77ae5017cc","system_id":"levelo_inurba_marseille","lat":43.284793,"lon":5.384113,"is_reserved":false,"is_disabled":false,"rental_uris":{"android":"levelo://app?vid=10bc6bc2-212b-4621-bdcf-5a77ae5017cc","ios":"levelo://app?vid=10bc6bc2-212b-4621-bdcf-5a77ae5017cc"},"vehicle_type_id":"4","last_reported":1678903780,"current_range_meters":0,"station_id":"ce4bh512rcd13ifvqe3g","pricing_plan_id":"free"},{"bike_id":"e2cf5dc2-2a4c-4500-bcf9-a50e13259dcc","system_id":"levelo_inurba_marseille","lat":43.284787,"lon":5.384116,"is_reserved":false,"is_disabled":false,"rental_uris":{"android":"levelo://app?vid=e2cf5dc2-2a4c-4500-bcf9-a50e13259dcc","ios":"levelo://app?vid=e2cf5dc2-2a4c-4500-bcf9-a50e13259dcc"},"vehicle_type_id":"4","last_reported":1678903780,"current_range_meters":4400,"station_id":"ce4bh512rcd13ifvqe3g","pricing_plan_id":"free"},{"bike_id":"a9e940ab-854e-4e9d-9139-943834da5e4e","system_id":"levelo_inurba_marseille","lat":43.28268,"lon":5.35067,"is_reserved":false,"is_disabled":false,"rental_uris":{"android":"levelo://app?vid=a9e940ab-854e-4e9d-9139-943834da5e4e","ios":"levelo://app?vid=a9e940ab-854e-4e9d-9139-943834da5e4e"},"vehicle_type_id":"4","last_reported":1678903780,"current_range_meters":16000,"station_id":"ce4bhbp2rcd13ifvqerg","pricing_plan_id":"free"},{"bike_id":"f54de4fe-f4a3-4060-8066-14e63c0e11b5","system_id":"levelo_inurba_marseille","lat":43.28039,"lon":5.369297,"is_reserved":false,"is_disabled":false,"rental_uris":{"android":"levelo://app?vid=f54de4fe-f4a3-4060-8066-14e63c0e11b5","ios":"levelo://app?vid=f54de4fe-f4a3-4060-8066-14e63c0e11b5"},"vehicle_type_id":"4","last_reported":1678903780,"current_range_meters":22800,"station_id":"ce4bha12rcd13ifvqef0","pricing_plan_id":"free"},{"bike_id":"fbd81724-0b1b-4143-95dc-ca9086439d49","system_id":"levelo_inurba_marseille","lat":43.28177,"lon":5.35277,"is_reserved":false,"is_disabled":false,"rental_uris":{"android":"levelo://app?vid=fbd81724-0b1b-4143-95dc-ca9086439d49","ios":"levelo://app?vid=fbd81724-0b1b-4143-95dc-ca9086439d49"},"vehicle_type_id":"4","last_reported":1678903780,"current_range_meters":6400,"station_id":"","pricing_plan_id":"free"},{"bike_id":"0be069c4-7141-469e-a29a-cdf76dc00f2a","system_id":"levelo_inurba_marseille","lat":43.280995,"lon":5.378483,"is_reserved":false,"is_disabled":false,"rental_uris":{"android":"levelo://app?vid=0be069c4-7141-469e-a29a-cdf76dc00f2a","ios":"levelo://app?vid=0be069c4-7141-469e-a29a-cdf76dc00f2a"},"vehicle_type_id":"4","last_reported":1678903780,"current_range_meters":31600,"station_id":"ce4bha12rcd13ifvqee0","pricing_plan_id":"free"},{"bike_id":"7ed261b2-4ae6-4cc9-ae94-8029f161bfc5","system_id":"levelo_inurba_marseille","lat":43.296263,"lon":5.40601,"is_reserved":false,"is_disabled":false,"rental_uris":{"android":"levelo://app?vid=7ed261b2-4ae6-4cc9-ae94-8029f161bfc5","ios":"levelo://app?vid=7ed261b2-4ae6-4cc9-ae94-8029f161bfc5"},"vehicle_type_id":"4","last_reported":1678903780,"current_range_meters":12800,"station_id":"ce4bh0h2rcd13ifvqd60","pricing_plan_id":"free"},{"bike_id":"30f45b21-d635-45f1-a0fc-2a30fbed31e4","system_id":"levelo_inurba_marseille","lat":43.279742,"lon":5.38744,"is_reserved":false,"is_disabled":false,"rental_uris":{"android":"levelo://app?vid=30f45b21-d635-45f1-a0fc-2a30fbed31e4","ios":"levelo://app?vid=30f45b21-d635-45f1-a0fc-2a30fbed31e4"},"vehicle_type_id":"4","last_reported":1678903780,"current_range_meters":13600,"station_id":"ce4bhg12rcd13ifvqf80","pricing_plan_id":"free"},{"bike_id":"18748e66-c446-4b52-820e-c6c0a5239b64","system_id":"levelo_inurba_marseille","lat":43.29986,"lon":5.41361,"is_reserved":false,"is_disabled":false,"rental_uris":{"android":"levelo://app?vid=18748e66-c446-4b52-820e-c6c0a5239b64","ios":"levelo://app?vid=18748e66-c446-4b52-820e-c6c0a5239b64"},"vehicle_type_id":"4","last_reported":1678903780,"current_range_meters":24000,"station_id":"","pricing_plan_id":"free"},{"bike_id":"8ee42eba-18cc-4553-91ec-58336b03b7a6","system_id":"levelo_inurba_marseille","lat":43.325243,"lon":5.414326,"is_reserved":false,"is_disabled":false,"rental_uris":{"android":"levelo://app?vid=8ee42eba-18cc-4553-91ec-58336b03b7a6","ios":"levelo://app?vid=8ee42eba-18cc-4553-91ec-58336b03b7a6"},"vehicle_type_id":"4","last_reported":1678903780,"current_range_meters":0,"station_id":"ce4bhq12rcd13ifvqhhg","pricing_plan_id":"free"},{"bike_id":"20f7b5e5-0893-485c-b8bc-31162d05e27e","system_id":"levelo_inurba_marseille","lat":43.292569,"lon":5.409107,"is_reserved":false,"is_disabled":false,"rental_uris":{"android":"levelo://app?vid=20f7b5e5-0893-485c-b8bc-31162d05e27e","ios":"levelo://app?vid=20f7b5e5-0893-485c-b8bc-31162d05e27e"},"vehicle_type_id":"4","last_reported":1678903780,"current_range_meters":1600,"station_id":"ce4bh192rcd13ifvqdc0","pricing_plan_id":"free"},{"bike_id":"ebf08be9-29cd-46b3-9573-44b8a548b358","system_id":"levelo_inurba_marseille","lat":43.292571,"lon":5.409107,"is_reserved":false,"is_disabled":false,"rental_uris":{"android":"levelo://app?vid=ebf08be9-29cd-46b3-9573-44b8a548b358","ios":"levelo://app?vid=ebf08be9-29cd-46b3-9573-44b8a548b358"},"vehicle_type_id":"4","last_reported":1678903780,"current_range_meters":12800,"station_id":"ce4bh192rcd13ifvqdc0","pricing_plan_id":"free"},{"bike_id":"4981bf8e-edc1-493a-8d1b-6e014013deb7","system_id":"levelo_inurba_marseille","lat":43.325243,"lon":5.414326,"is_reserved":false,"is_disabled":false,"rental_uris":{"android":"levelo://app?vid=4981bf8e-edc1-493a-8d1b-6e014013deb7","ios":"levelo://app?vid=4981bf8e-edc1-493a-8d1b-6e014013deb7"},"vehicle_type_id":"4","last_reported":1678903780,"current_range_meters":4800,"station_id":"ce4bhq12rcd13ifvqhhg","pricing_plan_id":"free"},{"bike_id":"ec56c621-9e18-4f2c-9f8e-02c7b18c867f","system_id":"levelo_inurba_marseille","lat":43.292571,"lon":5.409107,"is_reserved":false,"is_disabled":false,"rental_uris":{"android":"levelo://app?vid=ec56c621-9e18-4f2c-9f8e-02c7b18c867f","ios":"levelo://app?vid=ec56c621-9e18-4f2c-9f8e-02c7b18c867f"},"vehicle_type_id":"4","last_reported":1678903780,"current_range_meters":0,"station_id":"ce4bh192rcd13ifvqdc0","pricing_plan_id":"free"},{"bike_id":"51efb243-5b05-474a-b5bd-90b1cd237bfb","system_id":"levelo_inurba_marseille","lat":43.292571,"lon":5.409107,"is_reserved":false,"is_disabled":false,"rental_uris":{"android":"levelo://app?vid=51efb243-5b05-474a-b5bd-90b1cd237bfb","ios":"levelo://app?vid=51efb243-5b05-474a-b5bd-90b1cd237bfb"},"vehicle_type_id":"4","last_reported":1678903780,"current_range_meters":1600,"station_id":"ce4bh192rcd13ifvqdc0","pricing_plan_id":"free"},{"bike_id":"8e7d229f-41ef-4142-bce5-24b563b04bf6","system_id":"levelo_inurba_marseille","lat":43.280784,"lon":5.396622,"is_reserved":false,"is_disabled":false,"rental_uris":{"android":"levelo://app?vid=8e7d229f-41ef-4142-bce5-24b563b04bf6","ios":"levelo://app?vid=8e7d229f-41ef-4142-bce5-24b563b04bf6"},"vehicle_type_id":"4","last_reported":1678903780,"current_range_meters":2400,"station_id":"ce4bho12rcd13ifvqh2g","pricing_plan_id":"free"},{"bike_id":"fed67d13-cd19-41a8-b7c9-28172b0c2266","system_id":"levelo_inurba_marseille","lat":43.273613,"lon":5.362705,"is_reserved":false,"is_disabled":false,"rental_uris":{"android":"levelo://app?vid=fed67d13-cd19-41a8-b7c9-28172b0c2266","ios":"levelo://app?vid=fed67d13-cd19-41a8-b7c9-28172b0c2266"},"vehicle_type_id":"4","last_reported":1678903780,"current_range_meters":10800,"station_id":"ce4bhbh2rcd13ifvqeo0","pricing_plan_id":"free"},{"bike_id":"536e0f45-325d-443f-bea7-4114006c3f94","system_id":"levelo_inurba_marseille","lat":43.273613,"lon":5.362705,"is_reserved":false,"is_disabled":false,"rental_uris":{"android":"levelo://app?vid=536e0f45-325d-443f-bea7-4114006c3f94","ios":"levelo://app?vid=536e0f45-325d-443f-bea7-4114006c3f94"},"vehicle_type_id":"4","last_reported":1678903780,"current_range_meters":31200,"station_id":"ce4bhbh2rcd13ifvqeo0","pricing_plan_id":"free"},{"bike_id":"6ec05a53-8a13-4418-932e-ca3661ae3af4","system_id":"levelo_inurba_marseille","lat":43.273613,"lon":5.362705,"is_reserved":false,"is_disabled":false,"rental_uris":{"android":"levelo://app?vid=6ec05a53-8a13-4418-932e-ca3661ae3af4","ios":"levelo://app?vid=6ec05a53-8a13-4418-932e-ca3661ae3af4"},"vehicle_type_id":"4","last_reported":1678903780,"current_range_meters":29600,"station_id":"ce4bhbh2rcd13ifvqeo0","pricing_plan_id":"free"},{"bike_id":"923d8507-12c3-40fd-b22f-c57feba2b4fe","system_id":"levelo_inurba_marseille","lat":43.273613,"lon":5.362705,"is_reserved":false,"is_disabled":false,"rental_uris":{"android":"levelo://app?vid=923d8507-12c3-40fd-b22f-c57feba2b4fe","ios":"levelo://app?vid=923d8507-12c3-40fd-b22f-c57feba2b4fe"},"vehicle_type_id":"4","last_reported":1678903780,"current_range_meters":29200,"station_id":"ce4bhbh2rcd13ifvqeo0","pricing_plan_id":"free"},{"bike_id":"07585d5b-f490-4106-95ae-63d3ce04dd54","system_id":"levelo_inurba_marseille","lat":43.27375,"lon":5.36257,"is_reserved":false,"is_disabled":false,"rental_uris":{"android":"levelo://app?vid=07585d5b-f490-4106-95ae-63d3ce04dd54","ios":"levelo://app?vid=07585d5b-f490-4106-95ae-63d3ce04dd54"},"vehicle_type_id":"4","last_reported":1678903780,"current_range_meters":5600,"station_id":"","pricing_plan_id":"free"},{"bike_id":"fb94e2da-9185-4e46-9e0d-7ca16f8dd8a3","system_id":"levelo_inurba_marseille","lat":43.273613,"lon":5.362705,"is_reserved":false,"is_disabled":false,"rental_uris":{"android":"levelo://app?vid=fb94e2da-9185-4e46-9e0d-7ca16f8dd8a3","ios":"levelo://app?vid=fb94e2da-9185-4e46-9e0d-7ca16f8dd8a3"},"vehicle_type_id":"4","last_reported":1678903780,"current_range_meters":29600,"station_id":"ce4bhbh2rcd13ifvqeo0","pricing_plan_id":"free"},{"bike_id":"312e7706-6197-4733-9f0f-7f12ae489676","system_id":"levelo_inurba_marseille","lat":43.273613,"lon":5.362705,"is_reserved":false,"is_disabled":false,"rental_uris":{"android":"levelo://app?vid=312e7706-6197-4733-9f0f-7f12ae489676","ios":"levelo://app?vid=312e7706-6197-4733-9f0f-7f12ae489676"},"vehicle_type_id":"4","last_reported":1678903780,"current_range_meters":23200,"station_id":"ce4bhbh2rcd13ifvqeo0","pricing_plan_id":"free"},{"bike_id":"0d65cf68-9e3c-4f75-aa57-dd331cfc64fb","system_id":"levelo_inurba_marseille","lat":43.273613,"lon":5.362705,"is_reserved":false,"is_disabled":false,"rental_uris":{"android":"levelo://app?vid=0d65cf68-9e3c-4f75-aa57-dd331cfc64fb","ios":"levelo://app?vid=0d65cf68-9e3c-4f75-aa57-dd331cfc64fb"},"vehicle_type_id":"4","last_reported":1678903780,"current_range_meters":10800,"station_id":"ce4bhbh2rcd13ifvqeo0","pricing_plan_id":"free"},{"bike_id":"8d9be07a-6be3-4aff-be6e-cb563df5f0e8","system_id":"levelo_inurba_marseille","lat":43.273613,"lon":5.362705,"is_reserved":false,"is_disabled":false,"rental_uris":{"android":"levelo://app?vid=8d9be07a-6be3-4aff-be6e-cb563df5f0e8","ios":"levelo://app?vid=8d9be07a-6be3-4aff-be6e-cb563df5f0e8"},"vehicle_type_id":"4","last_reported":1678903780,"current_range_meters":24400,"station_id":"ce4bhbh2rcd13ifvqeo0","pricing_plan_id":"free"},{"bike_id":"022478b7-94ed-4842-b6b6-dfaef5138936","system_id":"levelo_inurba_marseille","lat":43.273613,"lon":5.362705,"is_reserved":false,"is_disabled":false,"rental_uris":{"android":"levelo://app?vid=022478b7-94ed-4842-b6b6-dfaef5138936","ios":"levelo://app?vid=022478b7-94ed-4842-b6b6-dfaef5138936"},"vehicle_type_id":"4","last_reported":1678903780,"current_range_meters":25200,"station_id":"ce4bhbh2rcd13ifvqeo0","pricing_plan_id":"free"},{"bike_id":"3cb0cf11-7213-47b0-b35e-15bb3d7e4a83","system_id":"levelo_inurba_marseille","lat":43.273613,"lon":5.362705,"is_reserved":false,"is_disabled":false,"rental_uris":{"android":"levelo://app?vid=3cb0cf11-7213-47b0-b35e-15bb3d7e4a83","ios":"levelo://app?vid=3cb0cf11-7213-47b0-b35e-15bb3d7e4a83"},"vehicle_type_id":"4","last_reported":1678903780,"current_range_meters":26400,"station_id":"ce4bhbh2rcd13ifvqeo0","pricing_plan_id":"free"},{"bike_id":"cc5fd69f-584a-47b4-a535-ce57865fa0d6","system_id":"levelo_inurba_marseille","lat":43.273613,"lon":5.362705,"is_reserved":false,"is_disabled":false,"rental_uris":{"android":"levelo://app?vid=cc5fd69f-584a-47b4-a535-ce57865fa0d6","ios":"levelo://app?vid=cc5fd69f-584a-47b4-a535-ce57865fa0d6"},"vehicle_type_id":"4","last_reported":1678903780,"current_range_meters":25200,"station_id":"ce4bhbh2rcd13ifvqeo0","pricing_plan_id":"free"},{"bike_id":"65fb85b2-39f1-4700-a721-8cdc1242fa0c","system_id":"levelo_inurba_marseille","lat":43.273613,"lon":5.362705,"is_reserved":false,"is_disabled":false,"rental_uris":{"android":"levelo://app?vid=65fb85b2-39f1-4700-a721-8cdc1242fa0c","ios":"levelo://app?vid=65fb85b2-39f1-4700-a721-8cdc1242fa0c"},"vehicle_type_id":"4","last_reported":1678903780,"current_range_meters":14800,"station_id":"ce4bhbh2rcd13ifvqeo0","pricing_plan_id":"free"},{"bike_id":"aa71d67c-ca7d-4694-87d9-e92142b197ae","system_id":"levelo_inurba_marseille","lat":43.276703,"lon":5.388957,"is_reserved":false,"is_disabled":false,"rental_uris":{"android":"levelo://app?vid=aa71d67c-ca7d-4694-87d9-e92142b197ae","ios":"levelo://app?vid=aa71d67c-ca7d-4694-87d9-e92142b197ae"},"vehicle_type_id":"4","last_reported":1678903780,"current_range_meters":0,"station_id":"","pricing_plan_id":"free"},{"bike_id":"4de02cdf-c69d-4ca6-a020-8ecb8e0dcffd","system_id":"levelo_inurba_marseille","lat":43.317121,"lon":5.423936,"is_reserved":false,"is_disabled":false,"rental_uris":{"android":"levelo://app?vid=4de02cdf-c69d-4ca6-a020-8ecb8e0dcffd","ios":"levelo://app?vid=4de02cdf-c69d-4ca6-a020-8ecb8e0dcffd"},"vehicle_type_id":"4","last_reported":1678903780,"current_range_meters":27600,"station_id":"ce4bhp92rcd13ifvqhbg","pricing_plan_id":"free"},{"bike_id":"1e49f72a-77dc-49fe-8fe0-cb4529080b21","system_id":"levelo_inurba_marseille","lat":43.27493,"lon":5.3951,"is_reserved":false,"is_disabled":false,"rental_uris":{"android":"levelo://app?vid=1e49f72a-77dc-49fe-8fe0-cb4529080b21","ios":"levelo://app?vid=1e49f72a-77dc-49fe-8fe0-cb4529080b21"},"vehicle_type_id":"4","last_reported":1678903780,"current_range_meters":0,"station_id":"","pricing_plan_id":"free"},{"bike_id":"949c5bb3-62c7-4008-815f-d916ba0c3ba6","system_id":"levelo_inurba_marseille","lat":43.295523,"lon":5.422926,"is_reserved":false,"is_disabled":false,"rental_uris":{"android":"levelo://app?vid=949c5bb3-62c7-4008-815f-d916ba0c3ba6","ios":"levelo://app?vid=949c5bb3-62c7-4008-815f-d916ba0c3ba6"},"vehicle_type_id":"4","last_reported":1678903780,"current_range_meters":5200,"station_id":"ce4bhph2rcd13ifvqhdg","pricing_plan_id":"free"},{"bike_id":"64896969-7398-48e4-9267-ae27e722b0ab","system_id":"levelo_inurba_marseille","lat":43.295523,"lon":5.422926,"is_reserved":false,"is_disabled":false,"rental_uris":{"android":"levelo://app?vid=64896969-7398-48e4-9267-ae27e722b0ab","ios":"levelo://app?vid=64896969-7398-48e4-9267-ae27e722b0ab"},"vehicle_type_id":"4","last_reported":1678903780,"current_range_meters":0,"station_id":"ce4bhph2rcd13ifvqhdg","pricing_plan_id":"free"},{"bike_id":"b5f6d975-4102-41b3-b5cd-2137a3521ed9","system_id":"levelo_inurba_marseille","lat":43.295527,"lon":5.422913,"is_reserved":false,"is_disabled":false,"rental_uris":{"android":"levelo://app?vid=b5f6d975-4102-41b3-b5cd-2137a3521ed9","ios":"levelo://app?vid=b5f6d975-4102-41b3-b5cd-2137a3521ed9"},"vehicle_type_id":"4","last_reported":1678903780,"current_range_meters":12400,"station_id":"","pricing_plan_id":"free"},{"bike_id":"c4a62fc8-9788-4222-b455-c3b946fb86a9","system_id":"levelo_inurba_marseille","lat":43.295523,"lon":5.422926,"is_reserved":false,"is_disabled":false,"rental_uris":{"android":"levelo://app?vid=c4a62fc8-9788-4222-b455-c3b946fb86a9","ios":"levelo://app?vid=c4a62fc8-9788-4222-b455-c3b946fb86a9"},"vehicle_type_id":"4","last_reported":1678903780,"current_range_meters":11600,"station_id":"ce4bhph2rcd13ifvqhdg","pricing_plan_id":"free"},{"bike_id":"d5d264fa-7a75-47af-8e5d-cdec1091e656","system_id":"levelo_inurba_marseille","lat":43.295523,"lon":5.422926,"is_reserved":false,"is_disabled":false,"rental_uris":{"android":"levelo://app?vid=d5d264fa-7a75-47af-8e5d-cdec1091e656","ios":"levelo://app?vid=d5d264fa-7a75-47af-8e5d-cdec1091e656"},"vehicle_type_id":"4","last_reported":1678903780,"current_range_meters":7200,"station_id":"ce4bhph2rcd13ifvqhdg","pricing_plan_id":"free"},{"bike_id":"5338249b-7a54-48a2-a18d-dd9928ca7b4d","system_id":"levelo_inurba_marseille","lat":43.27205,"lon":5.39183,"is_reserved":false,"is_disabled":false,"rental_uris":{"android":"levelo://app?vid=5338249b-7a54-48a2-a18d-dd9928ca7b4d","ios":"levelo://app?vid=5338249b-7a54-48a2-a18d-dd9928ca7b4d"},"vehicle_type_id":"4","last_reported":1678903780,"current_range_meters":16000,"station_id":"","pricing_plan_id":"free"},{"bike_id":"5a98b61c-0cb2-4897-a1b3-7a3fb7a5656a","system_id":"levelo_inurba_marseille","lat":43.278128,"lon":5.407195,"is_reserved":false,"is_disabled":false,"rental_uris":{"android":"levelo://app?vid=5a98b61c-0cb2-4897-a1b3-7a3fb7a5656a","ios":"levelo://app?vid=5a98b61c-0cb2-4897-a1b3-7a3fb7a5656a"},"vehicle_type_id":"4","last_reported":1678903780,"current_range_meters":28000,"station_id":"ce4bhnh2rcd13ifvqgtg","pricing_plan_id":"free"},{"bike_id":"c0da3416-e4de-4d08-8359-03f9cdfd31b9","system_id":"levelo_inurba_marseille","lat":43.278128,"lon":5.407195,"is_reserved":false,"is_disabled":false,"rental_uris":{"android":"levelo://app?vid=c0da3416-e4de-4d08-8359-03f9cdfd31b9","ios":"levelo://app?vid=c0da3416-e4de-4d08-8359-03f9cdfd31b9"},"vehicle_type_id":"4","last_reported":1678903780,"current_range_meters":30400,"station_id":"ce4bhnh2rcd13ifvqgtg","pricing_plan_id":"free"},{"bike_id":"5051245b-3c5c-4707-bc22-588231330626","system_id":"levelo_inurba_marseille","lat":43.269467,"lon":5.386439,"is_reserved":false,"is_disabled":false,"rental_uris":{"android":"levelo://app?vid=5051245b-3c5c-4707-bc22-588231330626","ios":"levelo://app?vid=5051245b-3c5c-4707-bc22-588231330626"},"vehicle_type_id":"4","last_reported":1678903780,"current_range_meters":1600,"station_id":"ce4bhh92rcd13ifvqfh0","pricing_plan_id":"free"},{"bike_id":"47af7ce1-416a-4845-bd8e-4c7770bdb070","system_id":"levelo_inurba_marseille","lat":43.26561,"lon":5.37276,"is_reserved":false,"is_disabled":false,"rental_uris":{"android":"levelo://app?vid=47af7ce1-416a-4845-bd8e-4c7770bdb070","ios":"levelo://app?vid=47af7ce1-416a-4845-bd8e-4c7770bdb070"},"vehicle_type_id":"4","last_reported":1678903780,"current_range_meters":16800,"station_id":"","pricing_plan_id":"free"},{"bike_id":"1362b156-10a4-4ff7-94bc-ef8fb76c0e64","system_id":"levelo_inurba_marseille","lat":43.265714,"lon":5.372891,"is_reserved":false,"is_disabled":false,"rental_uris":{"android":"levelo://app?vid=1362b156-10a4-4ff7-94bc-ef8fb76c0e64","ios":"levelo://app?vid=1362b156-10a4-4ff7-94bc-ef8fb76c0e64"},"vehicle_type_id":"4","last_reported":1678903780,"current_range_meters":13200,"station_id":"ce4bhg12rcd13ifvqf70","pricing_plan_id":"free"},{"bike_id":"9a3a85b5-3e3e-4164-9dec-673b6bbadd3e","system_id":"levelo_inurba_marseille","lat":43.26558,"lon":5.372887,"is_reserved":false,"is_disabled":false,"rental_uris":{"android":"levelo://app?vid=9a3a85b5-3e3e-4164-9dec-673b6bbadd3e","ios":"levelo://app?vid=9a3a85b5-3e3e-4164-9dec-673b6bbadd3e"},"vehicle_type_id":"4","last_reported":1678903780,"current_range_meters":11200,"station_id":"ce4bhg12rcd13ifvqf70","pricing_plan_id":"free"},{"bike_id":"5f8f49ff-7c10-43b9-ba4c-15d264a9b2b5","system_id":"levelo_inurba_marseille","lat":43.265714,"lon":5.372891,"is_reserved":false,"is_disabled":false,"rental_uris":{"android":"levelo://app?vid=5f8f49ff-7c10-43b9-ba4c-15d264a9b2b5","ios":"levelo://app?vid=5f8f49ff-7c10-43b9-ba4c-15d264a9b2b5"},"vehicle_type_id":"4","last_reported":1678903780,"current_range_meters":18400,"station_id":"ce4bhg12rcd13ifvqf70","pricing_plan_id":"free"},{"bike_id":"2790a368-c8ea-406c-8540-62e230edeb72","system_id":"levelo_inurba_marseille","lat":43.265563,"lon":5.372867,"is_reserved":false,"is_disabled":false,"rental_uris":{"android":"levelo://app?vid=2790a368-c8ea-406c-8540-62e230edeb72","ios":"levelo://app?vid=2790a368-c8ea-406c-8540-62e230edeb72"},"vehicle_type_id":"4","last_reported":1678903780,"current_range_meters":4400,"station_id":"ce4bhg12rcd13ifvqf70","pricing_plan_id":"free"},{"bike_id":"66e6f2e4-aa31-4215-952f-f34899d2e60f","system_id":"levelo_inurba_marseille","lat":43.265537,"lon":5.37285,"is_reserved":false,"is_disabled":false,"rental_uris":{"android":"levelo://app?vid=66e6f2e4-aa31-4215-952f-f34899d2e60f","ios":"levelo://app?vid=66e6f2e4-aa31-4215-952f-f34899d2e60f"},"vehicle_type_id":"4","last_reported":1678903780,"current_range_meters":0,"station_id":"","pricing_plan_id":"free"},{"bike_id":"d3f7ceb4-d35b-432f-82f2-93076147af84","system_id":"levelo_inurba_marseille","lat":43.268668,"lon":5.390982,"is_reserved":false,"is_disabled":false,"rental_uris":{"android":"levelo://app?vid=d3f7ceb4-d35b-432f-82f2-93076147af84","ios":"levelo://app?vid=d3f7ceb4-d35b-432f-82f2-93076147af84"},"vehicle_type_id":"4","last_reported":1678903780,"current_range_meters":22400,"station_id":"ce4bhe12rcd13ifvqf30","pricing_plan_id":"free"},{"bike_id":"2c62e217-2505-4d53-8e8a-264268003a56","system_id":"levelo_inurba_marseille","lat":43.27996,"lon":5.416624,"is_reserved":false,"is_disabled":false,"rental_uris":{"android":"levelo://app?vid=2c62e217-2505-4d53-8e8a-264268003a56","ios":"levelo://app?vid=2c62e217-2505-4d53-8e8a-264268003a56"},"vehicle_type_id":"4","last_reported":1678903780,"current_range_meters":19200,"station_id":"ce4bho12rcd13ifvqh1g","pricing_plan_id":"free"},{"bike_id":"35fcbc71-4d6e-4e31-ac69-34107d646b75","system_id":"levelo_inurba_marseille","lat":43.27995,"lon":5.41659,"is_reserved":false,"is_disabled":false,"rental_uris":{"android":"levelo://app?vid=35fcbc71-4d6e-4e31-ac69-34107d646b75","ios":"levelo://app?vid=35fcbc71-4d6e-4e31-ac69-34107d646b75"},"vehicle_type_id":"4","last_reported":1678903780,"current_range_meters":30000,"station_id":"ce4bho12rcd13ifvqh1g","pricing_plan_id":"free"},{"bike_id":"36aa6365-2456-41b8-9cdf-4483e857dfb7","system_id":"levelo_inurba_marseille","lat":43.27996,"lon":5.416624,"is_reserved":false,"is_disabled":false,"rental_uris":{"android":"levelo://app?vid=36aa6365-2456-41b8-9cdf-4483e857dfb7","ios":"levelo://app?vid=36aa6365-2456-41b8-9cdf-4483e857dfb7"},"vehicle_type_id":"4","last_reported":1678903780,"current_range_meters":0,"station_id":"ce4bho12rcd13ifvqh1g","pricing_plan_id":"free"},{"bike_id":"74d175d6-ddbb-4b7e-b82e-e771e29d9fe5","system_id":"levelo_inurba_marseille","lat":43.27996,"lon":5.416624,"is_reserved":false,"is_disabled":false,"rental_uris":{"android":"levelo://app?vid=74d175d6-ddbb-4b7e-b82e-e771e29d9fe5","ios":"levelo://app?vid=74d175d6-ddbb-4b7e-b82e-e771e29d9fe5"},"vehicle_type_id":"4","last_reported":1678903780,"current_range_meters":800,"station_id":"ce4bho12rcd13ifvqh1g","pricing_plan_id":"free"},{"bike_id":"7ee3b5e8-36dd-4fee-bf2a-baa08be7adb6","system_id":"levelo_inurba_marseille","lat":43.27996,"lon":5.416624,"is_reserved":false,"is_disabled":false,"rental_uris":{"android":"levelo://app?vid=7ee3b5e8-36dd-4fee-bf2a-baa08be7adb6","ios":"levelo://app?vid=7ee3b5e8-36dd-4fee-bf2a-baa08be7adb6"},"vehicle_type_id":"4","last_reported":1678903780,"current_range_meters":5200,"station_id":"ce4bho12rcd13ifvqh1g","pricing_plan_id":"free"},{"bike_id":"29ee4140-f05a-483a-ba14-a574596f748d","system_id":"levelo_inurba_marseille","lat":43.308051,"lon":5.43527,"is_reserved":false,"is_disabled":false,"rental_uris":{"android":"levelo://app?vid=29ee4140-f05a-483a-ba14-a574596f748d","ios":"levelo://app?vid=29ee4140-f05a-483a-ba14-a574596f748d"},"vehicle_type_id":"4","last_reported":1678903780,"current_range_meters":21200,"station_id":"ce4bhph2rcd13ifvqheg","pricing_plan_id":"free"},{"bike_id":"ec18c6a6-2911-4924-ac5f-7948b77bd548","system_id":"levelo_inurba_marseille","lat":43.265569,"lon":5.390047,"is_reserved":false,"is_disabled":false,"rental_uris":{"android":"levelo://app?vid=ec18c6a6-2911-4924-ac5f-7948b77bd548","ios":"levelo://app?vid=ec18c6a6-2911-4924-ac5f-7948b77bd548"},"vehicle_type_id":"4","last_reported":1678903780,"current_range_meters":23200,"station_id":"ce4bhe12rcd13ifvqf30","pricing_plan_id":"free"},{"bike_id":"92c2b318-fad5-42d5-826b-191b3d6c8841","system_id":"levelo_inurba_marseille","lat":43.265569,"lon":5.390047,"is_reserved":false,"is_disabled":false,"rental_uris":{"android":"levelo://app?vid=92c2b318-fad5-42d5-826b-191b3d6c8841","ios":"levelo://app?vid=92c2b318-fad5-42d5-826b-191b3d6c8841"},"vehicle_type_id":"4","last_reported":1678903780,"current_range_meters":18800,"station_id":"ce4bhe12rcd13ifvqf30","pricing_plan_id":"free"},{"bike_id":"3a2710ca-cd01-4131-83f3-ac91d4e0887c","system_id":"levelo_inurba_marseille","lat":43.307976,"lon":5.435313,"is_reserved":false,"is_disabled":false,"rental_uris":{"android":"levelo://app?vid=3a2710ca-cd01-4131-83f3-ac91d4e0887c","ios":"levelo://app?vid=3a2710ca-cd01-4131-83f3-ac91d4e0887c"},"vehicle_type_id":"4","last_reported":1678903780,"current_range_meters":20800,"station_id":"","pricing_plan_id":"free"},{"bike_id":"27249016-12bd-4e86-82e6-656d3919a1c8","system_id":"levelo_inurba_marseille","lat":43.317104,"lon":5.436818,"is_reserved":false,"is_disabled":false,"rental_uris":{"android":"levelo://app?vid=27249016-12bd-4e86-82e6-656d3919a1c8","ios":"levelo://app?vid=27249016-12bd-4e86-82e6-656d3919a1c8"},"vehicle_type_id":"4","last_reported":1678903780,"current_range_meters":800,"station_id":"ce4bhp92rcd13ifvqhcg","pricing_plan_id":"free"},{"bike_id":"9d878540-089b-4ea8-b42d-fe003e60de0d","system_id":"levelo_inurba_marseille","lat":43.317104,"lon":5.436818,"is_reserved":false,"is_disabled":false,"rental_uris":{"android":"levelo://app?vid=9d878540-089b-4ea8-b42d-fe003e60de0d","ios":"levelo://app?vid=9d878540-089b-4ea8-b42d-fe003e60de0d"},"vehicle_type_id":"4","last_reported":1678903780,"current_range_meters":5200,"station_id":"ce4bhp92rcd13ifvqhcg","pricing_plan_id":"free"},{"bike_id":"345d2690-b8b9-4a04-b9a6-9f275e0ecba2","system_id":"levelo_inurba_marseille","lat":43.26151,"lon":5.39351,"is_reserved":false,"is_disabled":false,"rental_uris":{"android":"levelo://app?vid=345d2690-b8b9-4a04-b9a6-9f275e0ecba2","ios":"levelo://app?vid=345d2690-b8b9-4a04-b9a6-9f275e0ecba2"},"vehicle_type_id":"4","last_reported":1678903780,"current_range_meters":22400,"station_id":"","pricing_plan_id":"free"},{"bike_id":"092986a8-72c4-45d2-8ba0-4549dc089177","system_id":"levelo_inurba_marseille","lat":43.2607,"lon":5.393983,"is_reserved":false,"is_disabled":false,"rental_uris":{"android":"levelo://app?vid=092986a8-72c4-45d2-8ba0-4549dc089177","ios":"levelo://app?vid=092986a8-72c4-45d2-8ba0-4549dc089177"},"vehicle_type_id":"4","last_reported":1678903780,"current_range_meters":19600,"station_id":"ce4bhh92rcd13ifvqfj0","pricing_plan_id":"free"},{"bike_id":"2028fdf3-4d8c-4937-8dc9-bc4603a281e0","system_id":"levelo_inurba_marseille","lat":43.2606,"lon":5.39396,"is_reserved":false,"is_disabled":false,"rental_uris":{"android":"levelo://app?vid=2028fdf3-4d8c-4937-8dc9-bc4603a281e0","ios":"levelo://app?vid=2028fdf3-4d8c-4937-8dc9-bc4603a281e0"},"vehicle_type_id":"4","last_reported":1678903780,"current_range_meters":3600,"station_id":"","pricing_plan_id":"free"},{"bike_id":"4d4638bf-2397-4dc0-8dfa-dd40ddb63f26","system_id":"levelo_inurba_marseille","lat":43.254947,"lon":5.376454,"is_reserved":false,"is_disabled":false,"rental_uris":{"android":"levelo://app?vid=4d4638bf-2397-4dc0-8dfa-dd40ddb63f26","ios":"levelo://app?vid=4d4638bf-2397-4dc0-8dfa-dd40ddb63f26"},"vehicle_type_id":"4","last_reported":1678903780,"current_range_meters":11600,"station_id":"ce4bhh12rcd13ifvqff0","pricing_plan_id":"free"},{"bike_id":"ebcbadf8-2f19-49a9-bc0a-b9706bb868f7","system_id":"levelo_inurba_marseille","lat":43.254947,"lon":5.376454,"is_reserved":false,"is_disabled":false,"rental_uris":{"android":"levelo://app?vid=ebcbadf8-2f19-49a9-bc0a-b9706bb868f7","ios":"levelo://app?vid=ebcbadf8-2f19-49a9-bc0a-b9706bb868f7"},"vehicle_type_id":"4","last_reported":1678903780,"current_range_meters":31600,"station_id":"ce4bhh12rcd13ifvqff0","pricing_plan_id":"free"},{"bike_id":"fed0f2fc-6dc1-4a4a-8824-1234f151932b","system_id":"levelo_inurba_marseille","lat":43.254947,"lon":5.376454,"is_reserved":false,"is_disabled":false,"rental_uris":{"android":"levelo://app?vid=fed0f2fc-6dc1-4a4a-8824-1234f151932b","ios":"levelo://app?vid=fed0f2fc-6dc1-4a4a-8824-1234f151932b"},"vehicle_type_id":"4","last_reported":1678903780,"current_range_meters":0,"station_id":"ce4bhh12rcd13ifvqff0","pricing_plan_id":"free"},{"bike_id":"4df6198a-4cb0-46de-ae45-62c1209fa121","system_id":"levelo_inurba_marseille","lat":43.254947,"lon":5.376454,"is_reserved":false,"is_disabled":false,"rental_uris":{"android":"levelo://app?vid=4df6198a-4cb0-46de-ae45-62c1209fa121","ios":"levelo://app?vid=4df6198a-4cb0-46de-ae45-62c1209fa121"},"vehicle_type_id":"4","last_reported":1678903780,"current_range_meters":26800,"station_id":"ce4bhh12rcd13ifvqff0","pricing_plan_id":"free"},{"bike_id":"816fba2a-a4f6-4776-abe3-99e90fc2efdb","system_id":"levelo_inurba_marseille","lat":43.270721,"lon":5.422764,"is_reserved":false,"is_disabled":false,"rental_uris":{"android":"levelo://app?vid=816fba2a-a4f6-4776-abe3-99e90fc2efdb","ios":"levelo://app?vid=816fba2a-a4f6-4776-abe3-99e90fc2efdb"},"vehicle_type_id":"4","last_reported":1678903780,"current_range_meters":2400,"station_id":"ce4bhk92rcd13ifvqgb0","pricing_plan_id":"free"},{"bike_id":"ef1a4e0c-b547-4cd1-a037-f6f1663fb72a","system_id":"levelo_inurba_marseille","lat":43.25869,"lon":5.39896,"is_reserved":false,"is_disabled":false,"rental_uris":{"android":"levelo://app?vid=ef1a4e0c-b547-4cd1-a037-f6f1663fb72a","ios":"levelo://app?vid=ef1a4e0c-b547-4cd1-a037-f6f1663fb72a"},"vehicle_type_id":"4","last_reported":1678903780,"current_range_meters":0,"station_id":"ce4bhl92rcd13ifvqghg","pricing_plan_id":"free"},{"bike_id":"cadf3c63-ba18-4b3f-ad23-f15979a58933","system_id":"levelo_inurba_marseille","lat":43.258658,"lon":5.398935,"is_reserved":false,"is_disabled":false,"rental_uris":{"android":"levelo://app?vid=cadf3c63-ba18-4b3f-ad23-f15979a58933","ios":"levelo://app?vid=cadf3c63-ba18-4b3f-ad23-f15979a58933"},"vehicle_type_id":"4","last_reported":1678903780,"current_range_meters":23200,"station_id":"ce4bhl92rcd13ifvqghg","pricing_plan_id":"free"},{"bike_id":"e9887930-425c-4342-a515-2a3e9cf051bb","system_id":"levelo_inurba_marseille","lat":43.248157,"lon":5.374671,"is_reserved":false,"is_disabled":false,"rental_uris":{"android":"levelo://app?vid=e9887930-425c-4342-a515-2a3e9cf051bb","ios":"levelo://app?vid=e9887930-425c-4342-a515-2a3e9cf051bb"},"vehicle_type_id":"4","last_reported":1678903780,"current_range_meters":4000,"station_id":"","pricing_plan_id":"free"},{"bike_id":"6a084f2a-45a2-4740-b81b-8e5bcbc42ee3","system_id":"levelo_inurba_marseille","lat":43.2479,"lon":5.374457,"is_reserved":false,"is_disabled":false,"rental_uris":{"android":"levelo://app?vid=6a084f2a-45a2-4740-b81b-8e5bcbc42ee3","ios":"levelo://app?vid=6a084f2a-45a2-4740-b81b-8e5bcbc42ee3"},"vehicle_type_id":"4","last_reported":1678903780,"current_range_meters":24400,"station_id":"ce4bhgh2rcd13ifvqfb0","pricing_plan_id":"free"},{"bike_id":"6ae56d4a-2873-4281-951e-1ff879e38a1d","system_id":"levelo_inurba_marseille","lat":43.2479,"lon":5.374457,"is_reserved":false,"is_disabled":false,"rental_uris":{"android":"levelo://app?vid=6ae56d4a-2873-4281-951e-1ff879e38a1d","ios":"levelo://app?vid=6ae56d4a-2873-4281-951e-1ff879e38a1d"},"vehicle_type_id":"4","last_reported":1678903780,"current_range_meters":12000,"station_id":"ce4bhgh2rcd13ifvqfb0","pricing_plan_id":"free"},{"bike_id":"958defe5-8ff1-4f06-b58a-b07827c22aa1","system_id":"levelo_inurba_marseille","lat":43.2479,"lon":5.374457,"is_reserved":false,"is_disabled":false,"rental_uris":{"android":"levelo://app?vid=958defe5-8ff1-4f06-b58a-b07827c22aa1","ios":"levelo://app?vid=958defe5-8ff1-4f06-b58a-b07827c22aa1"},"vehicle_type_id":"4","last_reported":1678903780,"current_range_meters":26000,"station_id":"ce4bhgh2rcd13ifvqfb0","pricing_plan_id":"free"},{"bike_id":"887d0d97-4300-4ec6-9eca-9540ded31de8","system_id":"levelo_inurba_marseille","lat":43.2479,"lon":5.374457,"is_reserved":false,"is_disabled":false,"rental_uris":{"android":"levelo://app?vid=887d0d97-4300-4ec6-9eca-9540ded31de8","ios":"levelo://app?vid=887d0d97-4300-4ec6-9eca-9540ded31de8"},"vehicle_type_id":"4","last_reported":1678903780,"current_range_meters":1600,"station_id":"ce4bhgh2rcd13ifvqfb0","pricing_plan_id":"free"},{"bike_id":"8bac2915-0926-4707-8d91-88ccd14bc1ce","system_id":"levelo_inurba_marseille","lat":43.2479,"lon":5.374457,"is_reserved":false,"is_disabled":false,"rental_uris":{"android":"levelo://app?vid=8bac2915-0926-4707-8d91-88ccd14bc1ce","ios":"levelo://app?vid=8bac2915-0926-4707-8d91-88ccd14bc1ce"},"vehicle_type_id":"4","last_reported":1678903780,"current_range_meters":20800,"station_id":"ce4bhgh2rcd13ifvqfb0","pricing_plan_id":"free"},{"bike_id":"f8b4196b-6280-41b2-a97e-88ed014762b6","system_id":"levelo_inurba_marseille","lat":43.2479,"lon":5.374457,"is_reserved":false,"is_disabled":false,"rental_uris":{"android":"levelo://app?vid=f8b4196b-6280-41b2-a97e-88ed014762b6","ios":"levelo://app?vid=f8b4196b-6280-41b2-a97e-88ed014762b6"},"vehicle_type_id":"4","last_reported":1678903780,"current_range_meters":4000,"station_id":"ce4bhgh2rcd13ifvqfb0","pricing_plan_id":"free"},{"bike_id":"ec8ff8dd-270c-4077-b4d8-fe39bffb2ea9","system_id":"levelo_inurba_marseille","lat":43.2479,"lon":5.374457,"is_reserved":false,"is_disabled":false,"rental_uris":{"android":"levelo://app?vid=ec8ff8dd-270c-4077-b4d8-fe39bffb2ea9","ios":"levelo://app?vid=ec8ff8dd-270c-4077-b4d8-fe39bffb2ea9"},"vehicle_type_id":"4","last_reported":1678903780,"current_range_meters":6400,"station_id":"ce4bhgh2rcd13ifvqfb0","pricing_plan_id":"free"},{"bike_id":"2e8a2d71-9e4e-4541-abe4-ce9dbc1c0086","system_id":"levelo_inurba_marseille","lat":43.250966,"lon":5.395186,"is_reserved":false,"is_disabled":false,"rental_uris":{"android":"levelo://app?vid=2e8a2d71-9e4e-4541-abe4-ce9dbc1c0086","ios":"levelo://app?vid=2e8a2d71-9e4e-4541-abe4-ce9dbc1c0086"},"vehicle_type_id":"4","last_reported":1678903780,"current_range_meters":10800,"station_id":"ce4bhm12rcd13ifvqgkg","pricing_plan_id":"free"},{"bike_id":"b2abef3f-0720-4aed-8fbd-b3efab72244a","system_id":"levelo_inurba_marseille","lat":43.24693,"lon":5.382096,"is_reserved":false,"is_disabled":false,"rental_uris":{"android":"levelo://app?vid=b2abef3f-0720-4aed-8fbd-b3efab72244a","ios":"levelo://app?vid=b2abef3f-0720-4aed-8fbd-b3efab72244a"},"vehicle_type_id":"4","last_reported":1678903780,"current_range_meters":0,"station_id":"ce4bhih2rcd13ifvqfr0","pricing_plan_id":"free"},{"bike_id":"13f8d6fc-1389-4fb9-bc8b-0d213ec08141","system_id":"levelo_inurba_marseille","lat":43.25102,"lon":5.403214,"is_reserved":false,"is_disabled":false,"rental_uris":{"android":"levelo://app?vid=13f8d6fc-1389-4fb9-bc8b-0d213ec08141","ios":"levelo://app?vid=13f8d6fc-1389-4fb9-bc8b-0d213ec08141"},"vehicle_type_id":"4","last_reported":1678903780,"current_range_meters":32000,"station_id":"ce4bhlh2rcd13ifvqgig","pricing_plan_id":"free"},{"bike_id":"277fbe1a-92e3-4568-aa07-d07cd8b17f6a","system_id":"levelo_inurba_marseille","lat":43.25102,"lon":5.403214,"is_reserved":false,"is_disabled":false,"rental_uris":{"android":"levelo://app?vid=277fbe1a-92e3-4568-aa07-d07cd8b17f6a","ios":"levelo://app?vid=277fbe1a-92e3-4568-aa07-d07cd8b17f6a"},"vehicle_type_id":"4","last_reported":1678903780,"current_range_meters":23600,"station_id":"ce4bhlh2rcd13ifvqgig","pricing_plan_id":"free"},{"bike_id":"085850e7-3097-4840-a688-1828cb3f56fd","system_id":"levelo_inurba_marseille","lat":43.25102,"lon":5.403214,"is_reserved":false,"is_disabled":false,"rental_uris":{"android":"levelo://app?vid=085850e7-3097-4840-a688-1828cb3f56fd","ios":"levelo://app?vid=085850e7-3097-4840-a688-1828cb3f56fd"},"vehicle_type_id":"4","last_reported":1678903780,"current_range_meters":28800,"station_id":"ce4bhlh2rcd13ifvqgig","pricing_plan_id":"free"},{"bike_id":"a7300a43-d0b7-43fa-8f70-c197e96bf4bd","system_id":"levelo_inurba_marseille","lat":43.25102,"lon":5.403214,"is_reserved":false,"is_disabled":false,"rental_uris":{"android":"levelo://app?vid=a7300a43-d0b7-43fa-8f70-c197e96bf4bd","ios":"levelo://app?vid=a7300a43-d0b7-43fa-8f70-c197e96bf4bd"},"vehicle_type_id":"4","last_reported":1678903780,"current_range_meters":8000,"station_id":"ce4bhlh2rcd13ifvqgig","pricing_plan_id":"free"},{"bike_id":"d7a18e3b-8719-48e4-bcef-b51fef03cd56","system_id":"levelo_inurba_marseille","lat":43.25102,"lon":5.403214,"is_reserved":false,"is_disabled":false,"rental_uris":{"android":"levelo://app?vid=d7a18e3b-8719-48e4-bcef-b51fef03cd56","ios":"levelo://app?vid=d7a18e3b-8719-48e4-bcef-b51fef03cd56"},"vehicle_type_id":"4","last_reported":1678903780,"current_range_meters":32000,"station_id":"ce4bhlh2rcd13ifvqgig","pricing_plan_id":"free"},{"bike_id":"1250f5c0-92b1-46b2-b3ff-5cddc7900d1e","system_id":"levelo_inurba_marseille","lat":43.25102,"lon":5.403214,"is_reserved":false,"is_disabled":false,"rental_uris":{"android":"levelo://app?vid=1250f5c0-92b1-46b2-b3ff-5cddc7900d1e","ios":"levelo://app?vid=1250f5c0-92b1-46b2-b3ff-5cddc7900d1e"},"vehicle_type_id":"4","last_reported":1678903780,"current_range_meters":26400,"station_id":"ce4bhlh2rcd13ifvqgig","pricing_plan_id":"free"},{"bike_id":"08d26549-fe3b-402a-8d98-3bfadc8759a5","system_id":"levelo_inurba_marseille","lat":43.25102,"lon":5.403214,"is_reserved":false,"is_disabled":false,"rental_uris":{"android":"levelo://app?vid=08d26549-fe3b-402a-8d98-3bfadc8759a5","ios":"levelo://app?vid=08d26549-fe3b-402a-8d98-3bfadc8759a5"},"vehicle_type_id":"4","last_reported":1678903780,"current_range_meters":32000,"station_id":"ce4bhlh2rcd13ifvqgig","pricing_plan_id":"free"},{"bike_id":"1b2f2699-894c-4a30-8cb4-ecfcf49c771a","system_id":"levelo_inurba_marseille","lat":43.25102,"lon":5.403214,"is_reserved":false,"is_disabled":false,"rental_uris":{"android":"levelo://app?vid=1b2f2699-894c-4a30-8cb4-ecfcf49c771a","ios":"levelo://app?vid=1b2f2699-894c-4a30-8cb4-ecfcf49c771a"},"vehicle_type_id":"4","last_reported":1678903780,"current_range_meters":26000,"station_id":"ce4bhlh2rcd13ifvqgig","pricing_plan_id":"free"},{"bike_id":"a1449dc3-7819-4186-aae5-20638bb0ffc6","system_id":"levelo_inurba_marseille","lat":43.24693,"lon":5.382096,"is_reserved":false,"is_disabled":false,"rental_uris":{"android":"levelo://app?vid=a1449dc3-7819-4186-aae5-20638bb0ffc6","ios":"levelo://app?vid=a1449dc3-7819-4186-aae5-20638bb0ffc6"},"vehicle_type_id":"4","last_reported":1678903780,"current_range_meters":0,"station_id":"ce4bhih2rcd13ifvqfr0","pricing_plan_id":"free"},{"bike_id":"82d561b7-ae91-46dc-9687-5cee46e5368e","system_id":"levelo_inurba_marseille","lat":43.25102,"lon":5.403214,"is_reserved":false,"is_disabled":false,"rental_uris":{"android":"levelo://app?vid=82d561b7-ae91-46dc-9687-5cee46e5368e","ios":"levelo://app?vid=82d561b7-ae91-46dc-9687-5cee46e5368e"},"vehicle_type_id":"4","last_reported":1678903780,"current_range_meters":16400,"station_id":"ce4bhlh2rcd13ifvqgig","pricing_plan_id":"free"},{"bike_id":"5af7fa68-0366-4529-8ba2-745b561ed545","system_id":"levelo_inurba_marseille","lat":43.25102,"lon":5.403214,"is_reserved":false,"is_disabled":false,"rental_uris":{"android":"levelo://app?vid=5af7fa68-0366-4529-8ba2-745b561ed545","ios":"levelo://app?vid=5af7fa68-0366-4529-8ba2-745b561ed545"},"vehicle_type_id":"4","last_reported":1678903780,"current_range_meters":16000,"station_id":"ce4bhlh2rcd13ifvqgig","pricing_plan_id":"free"},{"bike_id":"cac65916-2b84-4aea-836a-266e2deff243","system_id":"levelo_inurba_marseille","lat":43.25102,"lon":5.403214,"is_reserved":false,"is_disabled":false,"rental_uris":{"android":"levelo://app?vid=cac65916-2b84-4aea-836a-266e2deff243","ios":"levelo://app?vid=cac65916-2b84-4aea-836a-266e2deff243"},"vehicle_type_id":"4","last_reported":1678903780,"current_range_meters":18400,"station_id":"ce4bhlh2rcd13ifvqgig","pricing_plan_id":"free"},{"bike_id":"df39c92b-3db2-4288-893f-d59f85c9d87f","system_id":"levelo_inurba_marseille","lat":43.25112,"lon":5.40327,"is_reserved":false,"is_disabled":false,"rental_uris":{"android":"levelo://app?vid=df39c92b-3db2-4288-893f-d59f85c9d87f","ios":"levelo://app?vid=df39c92b-3db2-4288-893f-d59f85c9d87f"},"vehicle_type_id":"4","last_reported":1678903780,"current_range_meters":18800,"station_id":"ce4bhlh2rcd13ifvqgig","pricing_plan_id":"free"},{"bike_id":"665673a1-dddf-4348-b8d1-5a17663a012d","system_id":"levelo_inurba_marseille","lat":43.25107,"lon":5.40323,"is_reserved":false,"is_disabled":false,"rental_uris":{"android":"levelo://app?vid=665673a1-dddf-4348-b8d1-5a17663a012d","ios":"levelo://app?vid=665673a1-dddf-4348-b8d1-5a17663a012d"},"vehicle_type_id":"4","last_reported":1678903780,"current_range_meters":5600,"station_id":"ce4bhlh2rcd13ifvqgig","pricing_plan_id":"free"},{"bike_id":"6ec4b19f-170d-4cd6-ab24-4b8c212aa81f","system_id":"levelo_inurba_marseille","lat":43.25102,"lon":5.403214,"is_reserved":false,"is_disabled":false,"rental_uris":{"android":"levelo://app?vid=6ec4b19f-170d-4cd6-ab24-4b8c212aa81f","ios":"levelo://app?vid=6ec4b19f-170d-4cd6-ab24-4b8c212aa81f"},"vehicle_type_id":"4","last_reported":1678903780,"current_range_meters":3200,"station_id":"ce4bhlh2rcd13ifvqgig","pricing_plan_id":"free"},{"bike_id":"f5729146-4197-4983-81b7-85d23d5b05eb","system_id":"levelo_inurba_marseille","lat":43.23969,"lon":5.36637,"is_reserved":false,"is_disabled":false,"rental_uris":{"android":"levelo://app?vid=f5729146-4197-4983-81b7-85d23d5b05eb","ios":"levelo://app?vid=f5729146-4197-4983-81b7-85d23d5b05eb"},"vehicle_type_id":"4","last_reported":1678903780,"current_range_meters":2800,"station_id":"ce4bhi12rcd13ifvqfp0","pricing_plan_id":"free"},{"bike_id":"84eeeee1-4758-494d-b9bf-97735f3a1ed3","system_id":"levelo_inurba_marseille","lat":43.23969,"lon":5.36634,"is_reserved":false,"is_disabled":false,"rental_uris":{"android":"levelo://app?vid=84eeeee1-4758-494d-b9bf-97735f3a1ed3","ios":"levelo://app?vid=84eeeee1-4758-494d-b9bf-97735f3a1ed3"},"vehicle_type_id":"4","last_reported":1678903780,"current_range_meters":13600,"station_id":"","pricing_plan_id":"free"},{"bike_id":"ed0d644d-2804-454e-bb07-7cf84e54c5f4","system_id":"levelo_inurba_marseille","lat":43.239588,"lon":5.366238,"is_reserved":false,"is_disabled":false,"rental_uris":{"android":"levelo://app?vid=ed0d644d-2804-454e-bb07-7cf84e54c5f4","ios":"levelo://app?vid=ed0d644d-2804-454e-bb07-7cf84e54c5f4"},"vehicle_type_id":"4","last_reported":1678903780,"current_range_meters":13200,"station_id":"ce4bhi12rcd13ifvqfp0","pricing_plan_id":"free"},{"bike_id":"1ce6deb1-a4e2-4eaa-8dd6-c1a10f0c4dcf","system_id":"levelo_inurba_marseille","lat":43.239588,"lon":5.366238,"is_reserved":false,"is_disabled":false,"rental_uris":{"android":"levelo://app?vid=1ce6deb1-a4e2-4eaa-8dd6-c1a10f0c4dcf","ios":"levelo://app?vid=1ce6deb1-a4e2-4eaa-8dd6-c1a10f0c4dcf"},"vehicle_type_id":"4","last_reported":1678903780,"current_range_meters":400,"station_id":"ce4bhi12rcd13ifvqfp0","pricing_plan_id":"free"},{"bike_id":"d6c59ebf-f492-47b4-bbbe-f4b95dd26b17","system_id":"levelo_inurba_marseille","lat":43.239588,"lon":5.366238,"is_reserved":false,"is_disabled":false,"rental_uris":{"android":"levelo://app?vid=d6c59ebf-f492-47b4-bbbe-f4b95dd26b17","ios":"levelo://app?vid=d6c59ebf-f492-47b4-bbbe-f4b95dd26b17"},"vehicle_type_id":"4","last_reported":1678903780,"current_range_meters":29200,"station_id":"ce4bhi12rcd13ifvqfp0","pricing_plan_id":"free"},{"bike_id":"7d5de6f3-2ff4-4869-a29e-be56debcccc6","system_id":"levelo_inurba_marseille","lat":43.241782,"lon":5.397264,"is_reserved":false,"is_disabled":false,"rental_uris":{"android":"levelo://app?vid=7d5de6f3-2ff4-4869-a29e-be56debcccc6","ios":"levelo://app?vid=7d5de6f3-2ff4-4869-a29e-be56debcccc6"},"vehicle_type_id":"4","last_reported":1678903780,"current_range_meters":26000,"station_id":"ce4bhn12rcd13ifvqgpg","pricing_plan_id":"free"},{"bike_id":"b7d751d8-b255-42dc-b59a-68372c2ab854","system_id":"levelo_inurba_marseille","lat":43.231919,"lon":5.355532,"is_reserved":false,"is_disabled":false,"rental_uris":{"android":"levelo://app?vid=b7d751d8-b255-42dc-b59a-68372c2ab854","ios":"levelo://app?vid=b7d751d8-b255-42dc-b59a-68372c2ab854"},"vehicle_type_id":"4","last_reported":1678903780,"current_range_meters":30000,"station_id":"ce4bhu92rcd13ifvqi70","pricing_plan_id":"free"},{"bike_id":"dd85d4fa-3f6d-41f6-bba5-59c6d796aa0e","system_id":"levelo_inurba_marseille","lat":43.231923,"lon":5.355545,"is_reserved":false,"is_disabled":false,"rental_uris":{"android":"levelo://app?vid=dd85d4fa-3f6d-41f6-bba5-59c6d796aa0e","ios":"levelo://app?vid=dd85d4fa-3f6d-41f6-bba5-59c6d796aa0e"},"vehicle_type_id":"4","last_reported":1678903780,"current_range_meters":30400,"station_id":"ce4bhu92rcd13ifvqi70","pricing_plan_id":"free"},{"bike_id":"17ccf651-bd5e-4d96-8b1a-fbe471d72943","system_id":"levelo_inurba_marseille","lat":43.231923,"lon":5.355545,"is_reserved":false,"is_disabled":false,"rental_uris":{"android":"levelo://app?vid=17ccf651-bd5e-4d96-8b1a-fbe471d72943","ios":"levelo://app?vid=17ccf651-bd5e-4d96-8b1a-fbe471d72943"},"vehicle_type_id":"4","last_reported":1678903780,"current_range_meters":31600,"station_id":"ce4bhu92rcd13ifvqi70","pricing_plan_id":"free"},{"bike_id":"7834a285-4642-44c8-aa3d-c5cce2cf1bd7","system_id":"levelo_inurba_marseille","lat":43.231919,"lon":5.355532,"is_reserved":false,"is_disabled":false,"rental_uris":{"android":"levelo://app?vid=7834a285-4642-44c8-aa3d-c5cce2cf1bd7","ios":"levelo://app?vid=7834a285-4642-44c8-aa3d-c5cce2cf1bd7"},"vehicle_type_id":"4","last_reported":1678903780,"current_range_meters":28000,"station_id":"ce4bhu92rcd13ifvqi70","pricing_plan_id":"free"},{"bike_id":"1ebc095d-fae3-4a1b-8f0b-5027a4c5bd4d","system_id":"levelo_inurba_marseille","lat":43.231923,"lon":5.355545,"is_reserved":false,"is_disabled":false,"rental_uris":{"android":"levelo://app?vid=1ebc095d-fae3-4a1b-8f0b-5027a4c5bd4d","ios":"levelo://app?vid=1ebc095d-fae3-4a1b-8f0b-5027a4c5bd4d"},"vehicle_type_id":"4","last_reported":1678903780,"current_range_meters":29200,"station_id":"ce4bhu92rcd13ifvqi70","pricing_plan_id":"free"},{"bike_id":"2c8b4d30-0c77-40da-a0bd-b07b23e40e9f","system_id":"levelo_inurba_marseille","lat":43.285895,"lon":5.47935,"is_reserved":false,"is_disabled":false,"rental_uris":{"android":"levelo://app?vid=2c8b4d30-0c77-40da-a0bd-b07b23e40e9f","ios":"levelo://app?vid=2c8b4d30-0c77-40da-a0bd-b07b23e40e9f"},"vehicle_type_id":"4","last_reported":1678903780,"current_range_meters":15200,"station_id":"","pricing_plan_id":"free"}]}}