{"last_updated":1730398340,"ttl":60,"version":"2.2","data":{"bikes":[{"bike_id":"a871acf4-3ac0-4e23-8feb-74013fc0f472","system_id":"levelo_inurba_marseille","lat":43.29101,"lon":5.38154,"is_reserved":false,"is_disabled":false,"rental_uris":{"android":"levelo://app?vid=a871acf4-3ac0-4e23-8feb-74013fc0f472","ios":"levelo://app?vid=a871acf4-3ac0-4e23-8feb-74013fc0f472"},"vehicle_type_id":"4","last_reported":1730398340,"current_range_meters":27200,"station_id":"ce4bh512rcd13ifvqe2g","pricing_plan_id":"cebpf4jnsgd1na2vs0mg"},{"bike_id":"017545e3-f945-4bf5-a8f4-9e171e0bdfdb","system_id":"levelo_inurba_marseille","lat":43.25578,"lon":5.38229,"is_reserved":false,"is_disabled":false,"rental_uris":{"android":"levelo://app?vid=017545e3-f945-4bf5-a8f4-9e171e0bdfdb","ios":"levelo://app?vid=017545e3-f945-4bf5-a8f4-9e171e0bdfdb"},"vehicle_type_id":"4","last_reported":1730398340,"current_range_meters":38800,"station_id":"ce4bhih2rcd13ifvqfs0","pricing_plan_id":"cebpf4jnsgd1na2vs0mg"},{"bike_id":"b2c70f28-a912-4552-b447-91d706e36032","system_id":"levelo_inurba_marseille","lat":43.29799,"lon":5.40403,"is_reserved":false,"is_disabled":false,"rental_uris":{"android":"levelo://app?vid=b2c70f28-a912-4552-b447-91d706e36032","ios":"levelo://app?vid=b2c70f28-a912-4552-b447-91d706e36032"},"vehicle_type_id":"4","last_reported":1730398340,"current_range_meters":38000,"station_id":"ce4bh112rcd13ifvqd90","pricing_plan_id":"cebpf4jnsgd1na2vs0mg"},{"bike_id":"695423f6-b574-4d28-87bc-37f94ed982d2","system_id":"levelo_inurba_marseille","lat":43.31988,"lon":5.38151,"is_reserved":false,"is_disabled":false,"rental_uris":{"android":"levelo://app?vid=695423f6-b574-4d28-87bc-37f94ed982d2","ios":"levelo://app?vid=695423f6-b574-4d28-87bc-37f94ed982d2"},"vehicle_type_id":"4","last_reported":1730398340,"current_range_meters":12000,"station_id":"ce4bhr12rcd13ifvqhpg","pricing_plan_id":"cebpf4jnsgd1na2vs0mg"},{"bike_id":"06e32548-f808-43af-9ccc-f30b9b0d784e","system_id":"levelo_inurba_marseille","lat":43.29022,"lon":5.38133,"is_reserved":false,"is_disabled":false,"rental_uris":{"android":"levelo://app?vid=06e32548-f808-43af-9ccc-f30b9b0d784e","ios":"levelo://app?vid=06e32548-f808-43af-9ccc-f30b9b0d784e"},"vehicle_type_id":"4","last_reported":1730398340,"current_range_meters":38800,"station_id":"ce4bh4p2rcd13ifvqe1g","pricing_plan_id":"cebpf4jnsgd1na2vs0mg"},{"bike_id":"a1fde2f4-2f86-4437-896f-85eb5c671553","system_id":"levelo_inurba_marseille","lat":43.30923,"lon":5.40136,"is_reserved":false,"is_disabled":false,"rental_uris":{"android":"levelo://app?vid=a1fde2f4-2f86-4437-896f-85eb5c671553","ios":"levelo://app?vid=a1fde2f4-2f86-4437-896f-85eb5c671553"},"vehicle_type_id":"4","last_reported":1730398340,"current_range_meters":38800,"station_id":"ce4bgvp2rcd13ifvqct0","pricing_plan_id":"cebpf4jnsgd1na2vs0mg"},{"bike_id":"6d5f036e-7e12-430a-9fc6-8d070be6dbb4","system_id":"levelo_inurba_marseille","lat":43.29257,"lon":5.38439,"is_reserved":false,"is_disabled":false,"rental_uris":{"android":"levelo://app?vid=6d5f036e-7e12-430a-9fc6-8d070be6dbb4","ios":"levelo://app?vid=6d5f036e-7e12-430a-9fc6-8d070be6dbb4"},"vehicle_type_id":"4","last_reported":1730398340,"current_range_meters":4800,"station_id":"ce4bh692rcd13ifvqea0","pricing_plan_id":"cebpf4jnsgd1na2vs0mg"},{"bike_id":"dfaa3939-70cf-4826-8475-1cc11f1d0f20","system_id":"levelo_inurba_marseille","lat":43.29875,"lon":5.39728,"is_reserved":false,"is_disabled":false,"rental_uris":{"android":"levelo://app?vid=dfaa3939-70cf-4826-8475-1cc11f1d0f20","ios":"levelo://app?vid=dfaa3939-70cf-4826-8475-1cc11f1d0f20"},"vehicle_type_id":"4","last_reported":1730398340,"current_range_meters":26000,"station_id":"ce4bh0h2rcd13ifvqd50","pricing_plan_id":"cebpf4jnsgd1na2vs0mg"},{"bike_id":"5a630d2f-334a-434e-9444-556db0f632d1","system_id":"levelo_inurba_marseille","lat":43.30207,"lon":5.39475,"is_reserved":false,"is_disabled":false,"rental_uris":{"android":"levelo://app?vid=5a630d2f-334a-434e-9444-556db0f632d1","ios":"levelo://app?vid=5a630d2f-334a-434e-9444-556db0f632d1"},"vehicle_type_id":"4","last_reported":1730398340,"current_range_meters":32400,"station_id":"ce4bh0p2rcd13ifvqd70","pricing_plan_id":"cebpf4jnsgd1na2vs0mg"},{"bike_id":"a4627486-a087-47d1-bdea-e9476cd49986","system_id":"levelo_inurba_marseille","lat":43.23193,"lon":5.35548,"is_reserved":false,"is_disabled":false,"rental_uris":{"android":"levelo://app?vid=a4627486-a087-47d1-bdea-e9476cd49986","ios":"levelo://app?vid=a4627486-a087-47d1-bdea-e9476cd49986"},"vehicle_type_id":"4","last_reported":1730398340,"current_range_meters":36400,"station_id":"ce4bhu92rcd13ifvqi70","pricing_plan_id":"cebpf4jnsgd1na2vs0mg"},{"bike_id":"61a17217-866a-45e4-ad7d-ed917d0d9903","system_id":"levelo_inurba_marseille","lat":43.29536,"lon":5.3854,"is_reserved":false,"is_disabled":false,"rental_uris":{"android":"levelo://app?vid=61a17217-866a-45e4-ad7d-ed917d0d9903","ios":"levelo://app?vid=61a17217-866a-45e4-ad7d-ed917d0d9903"},"vehicle_type_id":"4","last_reported":1730398340,"current_range_meters":37600,"station_id":"ce4bgih2rcd13ifvqba0","pricing_plan_id":"cebpf4jnsgd1na2vs0mg"},{"bike_id":"efbe383f-83c6-4df5-ac1f-ffa8f2e0197b","system_id":"levelo_inurba_marseille","lat":43.31338,"lon":5.39695,"is_reserved":false,"is_disabled":false,"rental_uris":{"android":"levelo://app?vid=efbe383f-83c6-4df5-ac1f-ffa8f2e0197b","ios":"levelo://app?vid=efbe383f-83c6-4df5-ac1f-ffa8f2e0197b"},"vehicle_type_id":"4","last_reported":1730398340,"current_range_meters":15200,"station_id":"ce4bgvp2rcd13ifvqcu0","pricing_plan_id":"cebpf4jnsgd1na2vs0mg"},{"bike_id":"9501000e-52bd-4875-9834-93e1537dbf5f","system_id":"levelo_inurba_marseille","lat":43.2988,"lon":5.38908,"is_reserved":false,"is_disabled":false,"rental_uris":{"android":"levelo://app?vid=9501000e-52bd-4875-9834-93e1537dbf5f","ios":"levelo://app?vid=9501000e-52bd-4875-9834-93e1537dbf5f"},"vehicle_type_id":"4","last_reported":1730398340,"current_range_meters":37600,"station_id":"ce4bh392rcd13ifvqdl0","pricing_plan_id":"cebpf4jnsgd1na2vs0mg"},{"bike_id":"28edeb4e-a6aa-45b4-8a5d-b2278898a3b7","system_id":"levelo_inurba_marseille","lat":43.29197,"lon":5.39321,"is_reserved":false,"is_disabled":false,"rental_uris":{"android":"levelo://app?vid=28edeb4e-a6aa-45b4-8a5d-b2278898a3b7","ios":"levelo://app?vid=28edeb4e-a6aa-45b4-8a5d-b2278898a3b7"},"vehicle_type_id":"4","last_reported":1730398340,"current_range_meters":22400,"station_id":"ce4bh192rcd13ifvqdd0","pricing_plan_id":"cebpf4jnsgd1na2vs0mg"},{"bike_id":"4c2f85ab-6bed-4afc-a473-ecaa8da69f8e","system_id":"levelo_inurba_marseille","lat":43.29886,"lon":5.38899,"is_reserved":false,"is_disabled":false,"rental_uris":{"android":"levelo://app?vid=4c2f85ab-6bed-4afc-a473-ecaa8da69f8e","ios":"levelo://app?vid=4c2f85ab-6bed-4afc-a473-ecaa8da69f8e"},"vehicle_type_id":"4","last_reported":1730398340,"current_range_meters":22800,"station_id":"ce4bh392rcd13ifvqdl0","pricing_plan_id":"cebpf4jnsgd1na2vs0mg"},{"bike_id":"9ec06832-24ee-497b-b43a-c22e221cee6d","system_id":"levelo_inurba_marseille","lat":43.29527,"lon":5.38554,"is_reserved":false,"is_disabled":false,"rental_uris":{"android":"levelo://app?vid=9ec06832-24ee-497b-b43a-c22e221cee6d","ios":"levelo://app?vid=9ec06832-24ee-497b-b43a-c22e221cee6d"},"vehicle_type_id":"4","last_reported":1730398340,"current_range_meters":26800,"station_id":"ce4bgih2rcd13ifvqba0","pricing_plan_id":"cebpf4jnsgd1na2vs0mg"},{"bike_id":"93cf32d6-c9ea-4909-b0bd-7820a8d2213d","system_id":"levelo_inurba_marseille","lat":43.26682,"lon":5.38272,"is_reserved":false,"is_disabled":false,"rental_uris":{"android":"levelo://app?vid=93cf32d6-c9ea-4909-b0bd-7820a8d2213d","ios":"levelo://app?vid=93cf32d6-c9ea-4909-b0bd-7820a8d2213d"},"vehicle_type_id":"4","last_reported":1730398340,"current_range_meters":2800,"station_id":"ce4bhg92rcd13ifvqf90","pricing_plan_id":"cebpf4jnsgd1na2vs0mg"},{"bike_id":"a10852dc-77a0-4a12-a170-27ef188aa3cc","system_id":"levelo_inurba_marseille","lat":43.27972,"lon":5.38742,"is_reserved":false,"is_disabled":false,"rental_uris":{"android":"levelo://app?vid=a10852dc-77a0-4a12-a170-27ef188aa3cc","ios":"levelo://app?vid=a10852dc-77a0-4a12-a170-27ef188aa3cc"},"vehicle_type_id":"4","last_reported":1730398340,"current_range_meters":30800,"station_id":"ce4bhg12rcd13ifvqf80","pricing_plan_id":"cebpf4jnsgd1na2vs0mg"},{"bike_id":"adb0ea8b-9566-4d12-8630-a782db5ce23c","system_id":"levelo_inurba_marseille","lat":43.29538,"lon":5.38544,"is_reserved":false,"is_disabled":false,"rental_uris":{"android":"levelo://app?vid=adb0ea8b-9566-4d12-8630-a782db5ce23c","ios":"levelo://app?vid=adb0ea8b-9566-4d12-8630-a782db5ce23c"},"vehicle_type_id":"4","last_reported":1730398340,"current_range_meters":28000,"station_id":"ce4bgih2rcd13ifvqba0","pricing_plan_id":"cebpf4jnsgd1na2vs0mg"},{"bike_id":"dd1e6e7a-bc64-4da2-9950-11a570d7eaa5","system_id":"levelo_inurba_marseille","lat":43.29258,"lon":5.38435,"is_reserved":false,"is_disabled":false,"rental_uris":{"android":"levelo://app?vid=dd1e6e7a-bc64-4da2-9950-11a570d7eaa5","ios":"levelo://app?vid=dd1e6e7a-bc64-4da2-9950-11a570d7eaa5"},"vehicle_type_id":"4","last_reported":1730398340,"current_range_meters":4000,"station_id":"ce4bh692rcd13ifvqea0","pricing_plan_id":"cebpf4jnsgd1na2vs0mg"},{"bike_id":"a9abdf27-b7b7-4467-9675-0a08a52ad413","system_id":"levelo_inurba_marseille","lat":43.30803,"lon":5.38143,"is_reserved":false,"is_disabled":false,"rental_uris":{"android":"levelo://app?vid=a9abdf27-b7b7-4467-9675-0a08a52ad413","ios":"levelo://app?vid=a9abdf27-b7b7-4467-9675-0a08a52ad413"},"vehicle_type_id":"4","last_reported":1730398340,"current_range_meters":8400,"station_id":"ce4bgt12rcd13ifvqce0","pricing_plan_id":"cebpf4jnsgd1na2vs0mg"},{"bike_id":"0a8515c7-044b-494f-a07a-75aab8cc14f5","system_id":"levelo_inurba_marseille","lat":43.24175,"lon":5.3973,"is_reserved":false,"is_disabled":false,"rental_uris":{"android":"levelo://app?vid=0a8515c7-044b-494f-a07a-75aab8cc14f5","ios":"levelo://app?vid=0a8515c7-044b-494f-a07a-75aab8cc14f5"},"vehicle_type_id":"4","last_reported":1730398340,"current_range_meters":19600,"station_id":"ce4bhn12rcd13ifvqgpg","pricing_plan_id":"cebpf4jnsgd1na2vs0mg"},{"bike_id":"5cf54136-cf31-4c61-944a-6ea742d9b18b","system_id":"levelo_inurba_marseille","lat":43.295258,"lon":5.390351,"is_reserved":false,"is_disabled":false,"rental_uris":{"android":"levelo://app?vid=5cf54136-cf31-4c61-944a-6ea742d9b18b","ios":"levelo://app?vid=5cf54136-cf31-4c61-944a-6ea742d9b18b"},"vehicle_type_id":"4","last_reported":1730398340,"current_range_meters":30000,"station_id":"ce4bh3p2rcd13ifvqdp0","pricing_plan_id":"cebpf4jnsgd1na2vs0mg"},{"bike_id":"8b444f66-1871-4d39-ae6f-27aef6160d16","system_id":"levelo_inurba_marseille","lat":43.29509,"lon":5.39401,"is_reserved":false,"is_disabled":false,"rental_uris":{"android":"levelo://app?vid=8b444f66-1871-4d39-ae6f-27aef6160d16","ios":"levelo://app?vid=8b444f66-1871-4d39-ae6f-27aef6160d16"},"vehicle_type_id":"4","last_reported":1730398340,"current_range_meters":8800,"station_id":"ce4bh292rcd13ifvqdf0","pricing_plan_id":"cebpf4jnsgd1na2vs0mg"},{"bike_id":"9c697b6a-aecf-448a-97b2-3d026da42db9","system_id":"levelo_inurba_marseille","lat":43.29537,"lon":5.38552,"is_reserved":false,"is_disabled":false,"rental_uris":{"android":"levelo://app?vid=9c697b6a-aecf-448a-97b2-3d026da42db9","ios":"levelo://app?vid=9c697b6a-aecf-448a-97b2-3d026da42db9"},"vehicle_type_id":"4","last_reported":1730398340,"current_range_meters":38800,"station_id":"ce4bgih2rcd13ifvqba0","pricing_plan_id":"cebpf4jnsgd1na2vs0mg"},{"bike_id":"0f5dae60-0cc6-40c4-a252-5cbcf3e65168","system_id":"levelo_inurba_marseille","lat":43.30467,"lon":5.37901,"is_reserved":false,"is_disabled":false,"rental_uris":{"android":"levelo://app?vid=0f5dae60-0cc6-40c4-a252-5cbcf3e65168","ios":"levelo://app?vid=0f5dae60-0cc6-40c4-a252-5cbcf3e65168"},"vehicle_type_id":"4","last_reported":1730398340,"current_range_meters":17600,"station_id":"ce4bgup2rcd13ifvqcn0","pricing_plan_id":"cebpf4jnsgd1na2vs0mg"},{"bike_id":"b9748c4a-d4fd-4575-bdb4-d87ec7438bdc","system_id":"levelo_inurba_marseille","lat":43.29894,"lon":5.43663,"is_reserved":false,"is_disabled":false,"rental_uris":{"android":"levelo://app?vid=b9748c4a-d4fd-4575-bdb4-d87ec7438bdc","ios":"levelo://app?vid=b9748c4a-d4fd-4575-bdb4-d87ec7438bdc"},"vehicle_type_id":"4","last_reported":1730398340,"current_range_meters":14000,"station_id":"ce4bhpp2rcd13ifvqhfg","pricing_plan_id":"cebpf4jnsgd1na2vs0mg"},{"bike_id":"3e83603d-7c49-4775-8125-5bc140fcfbe7","system_id":"levelo_inurba_marseille","lat":43.28463,"lon":5.35874,"is_reserved":false,"is_disabled":false,"rental_uris":{"android":"levelo://app?vid=3e83603d-7c49-4775-8125-5bc140fcfbe7","ios":"levelo://app?vid=3e83603d-7c49-4775-8125-5bc140fcfbe7"},"vehicle_type_id":"4","last_reported":1730398340,"current_range_meters":38800,"station_id":"ce4bhah2rcd13ifvqei0","pricing_plan_id":"cebpf4jnsgd1na2vs0mg"},{"bike_id":"57205897-1def-4c8c-8c92-62bdd2901341","system_id":"levelo_inurba_marseille","lat":43.30311,"lon":5.39213,"is_reserved":false,"is_disabled":false,"rental_uris":{"android":"levelo://app?vid=57205897-1def-4c8c-8c92-62bdd2901341","ios":"levelo://app?vid=57205897-1def-4c8c-8c92-62bdd2901341"},"vehicle_type_id":"4","last_reported":1730398340,"current_range_meters":5600,"station_id":"ce4bgkh2rcd13ifvqbk0","pricing_plan_id":"cebpf4jnsgd1na2vs0mg"},{"bike_id":"d29d64e6-83e0-468a-bcfc-8db2abfc6009","system_id":"levelo_inurba_marseille","lat":43.30092,"lon":5.39087,"is_reserved":false,"is_disabled":false,"rental_uris":{"android":"levelo://app?vid=d29d64e6-83e0-468a-bcfc-8db2abfc6009","ios":"levelo://app?vid=d29d64e6-83e0-468a-bcfc-8db2abfc6009"},"vehicle_type_id":"4","last_reported":1730398340,"current_range_meters":38800,"station_id":"ce4bh192rcd13ifvqdb0","pricing_plan_id":"cebpf4jnsgd1na2vs0mg"},{"bike_id":"8050f703-99b3-4944-bb19-6a71c9e635c5","system_id":"levelo_inurba_marseille","lat":43.2987,"lon":5.39733,"is_reserved":false,"is_disabled":false,"rental_uris":{"android":"levelo://app?vid=8050f703-99b3-4944-bb19-6a71c9e635c5","ios":"levelo://app?vid=8050f703-99b3-4944-bb19-6a71c9e635c5"},"vehicle_type_id":"4","last_reported":1730398340,"current_range_meters":38800,"station_id":"ce4bh0h2rcd13ifvqd50","pricing_plan_id":"cebpf4jnsgd1na2vs0mg"},{"bike_id":"60b71c7c-4918-47ba-8287-329d23746782","system_id":"levelo_inurba_marseille","lat":43.29896,"lon":5.43662,"is_reserved":false,"is_disabled":false,"rental_uris":{"android":"levelo://app?vid=60b71c7c-4918-47ba-8287-329d23746782","ios":"levelo://app?vid=60b71c7c-4918-47ba-8287-329d23746782"},"vehicle_type_id":"4","last_reported":1730398340,"current_range_meters":36800,"station_id":"ce4bhpp2rcd13ifvqhfg","pricing_plan_id":"cebpf4jnsgd1na2vs0mg"},{"bike_id":"6942aef1-14f2-4453-a478-2a177a57fc58","system_id":"levelo_inurba_marseille","lat":43.2693,"lon":5.38915,"is_reserved":false,"is_disabled":false,"rental_uris":{"android":"levelo://app?vid=6942aef1-14f2-4453-a478-2a177a57fc58","ios":"levelo://app?vid=6942aef1-14f2-4453-a478-2a177a57fc58"},"vehicle_type_id":"4","last_reported":1730398340,"current_range_meters":29600,"station_id":"ce4bhhh2rcd13ifvqfl0","pricing_plan_id":"cebpf4jnsgd1na2vs0mg"},{"bike_id":"89c69ac8-94a8-411c-8fbc-3ae956f1323b","system_id":"levelo_inurba_marseille","lat":43.31997,"lon":5.38149,"is_reserved":false,"is_disabled":false,"rental_uris":{"android":"levelo://app?vid=89c69ac8-94a8-411c-8fbc-3ae956f1323b","ios":"levelo://app?vid=89c69ac8-94a8-411c-8fbc-3ae956f1323b"},"vehicle_type_id":"4","last_reported":1730398340,"current_range_meters":36800,"station_id":"ce4bhr12rcd13ifvqhpg","pricing_plan_id":"cebpf4jnsgd1na2vs0mg"},{"bike_id":"20685207-624b-4667-a847-3f4e3e1dfddf","system_id":"levelo_inurba_marseille","lat":43.28348,"lon":5.38113,"is_reserved":false,"is_disabled":false,"rental_uris":{"android":"levelo://app?vid=20685207-624b-4667-a847-3f4e3e1dfddf","ios":"levelo://app?vid=20685207-624b-4667-a847-3f4e3e1dfddf"},"vehicle_type_id":"4","last_reported":1730398340,"current_range_meters":22000,"station_id":"ce4bh412rcd13ifvqdr0","pricing_plan_id":"cebpf4jnsgd1na2vs0mg"},{"bike_id":"fece2b4d-5fbc-4072-950a-5fe5acd29804","system_id":"levelo_inurba_marseille","lat":43.29531,"lon":5.38547,"is_reserved":false,"is_disabled":false,"rental_uris":{"android":"levelo://app?vid=fece2b4d-5fbc-4072-950a-5fe5acd29804","ios":"levelo://app?vid=fece2b4d-5fbc-4072-950a-5fe5acd29804"},"vehicle_type_id":"4","last_reported":1730398340,"current_range_meters":16000,"station_id":"ce4bgih2rcd13ifvqba0","pricing_plan_id":"cebpf4jnsgd1na2vs0mg"},{"bike_id":"84098211-d98e-4aba-a423-13b0ea038f67","system_id":"levelo_inurba_marseille","lat":43.29264,"lon":5.38442,"is_reserved":false,"is_disabled":false,"rental_uris":{"android":"levelo://app?vid=84098211-d98e-4aba-a423-13b0ea038f67","ios":"levelo://app?vid=84098211-d98e-4aba-a423-13b0ea038f67"},"vehicle_type_id":"4","last_reported":1730398340,"current_range_meters":4000,"station_id":"ce4bh692rcd13ifvqea0","pricing_plan_id":"cebpf4jnsgd1na2vs0mg"},{"bike_id":"39e8b041-adb1-4368-9018-4beec5fbd600","system_id":"levelo_inurba_marseille","lat":43.29699,"lon":5.36609,"is_reserved":false,"is_disabled":false,"rental_uris":{"android":"levelo://app?vid=39e8b041-adb1-4368-9018-4beec5fbd600","ios":"levelo://app?vid=39e8b041-adb1-4368-9018-4beec5fbd600"},"vehicle_type_id":"4","last_reported":1730398340,"current_range_meters":35600,"station_id":"ce4bgn12rcd13ifvqbt0","pricing_plan_id":"cebpf4jnsgd1na2vs0mg"},{"bike_id":"ceb55059-2562-42a2-9035-244f2e2577c8","system_id":"levelo_inurba_marseille","lat":43.29281,"lon":5.38447,"is_reserved":false,"is_disabled":false,"rental_uris":{"android":"levelo://app?vid=ceb55059-2562-42a2-9035-244f2e2577c8","ios":"levelo://app?vid=ceb55059-2562-42a2-9035-244f2e2577c8"},"vehicle_type_id":"4","last_reported":1730398340,"current_range_meters":8800,"station_id":"ce4bh692rcd13ifvqea0","pricing_plan_id":"cebpf4jnsgd1na2vs0mg"},{"bike_id":"a9bbcbbe-e1bb-449c-adcd-34688245503d","system_id":"levelo_inurba_marseille","lat":43.29527,"lon":5.38556,"is_reserved":false,"is_disabled":false,"rental_uris":{"android":"levelo://app?vid=a9bbcbbe-e1bb-449c-adcd-34688245503d","ios":"levelo://app?vid=a9bbcbbe-e1bb-449c-adcd-34688245503d"},"vehicle_type_id":"4","last_reported":1730398340,"current_range_meters":38800,"station_id":"ce4bgih2rcd13ifvqba0","pricing_plan_id":"cebpf4jnsgd1na2vs0mg"},{"bike_id":"10dd4f0a-3352-467f-bdd2-7b7d82421551","system_id":"levelo_inurba_marseille","lat":43.244263,"lon":5.380254,"is_reserved":false,"is_disabled":false,"rental_uris":{"android":"levelo://app?vid=10dd4f0a-3352-467f-bdd2-7b7d82421551","ios":"levelo://app?vid=10dd4f0a-3352-467f-bdd2-7b7d82421551"},"vehicle_type_id":"4","last_reported":1730398340,"current_range_meters":25200,"station_id":"ce4bhkp2rcd13ifvqgd0","pricing_plan_id":"cebpf4jnsgd1na2vs0mg"},{"bike_id":"17a59865-bfcb-4c89-88e7-cfd6ab87dbd9","system_id":"levelo_inurba_marseille","lat":43.296274,"lon":5.371505,"is_reserved":false,"is_disabled":false,"rental_uris":{"android":"levelo://app?vid=17a59865-bfcb-4c89-88e7-cfd6ab87dbd9","ios":"levelo://app?vid=17a59865-bfcb-4c89-88e7-cfd6ab87dbd9"},"vehicle_type_id":"4","last_reported":1730398340,"current_range_meters":22800,"station_id":"ce4bgnh2rcd13ifvqc0g","pricing_plan_id":"cebpf4jnsgd1na2vs0mg"},{"bike_id":"bdd1624c-f4e5-4852-a7e3-0216ce999938","system_id":"levelo_inurba_marseille","lat":43.241882,"lon":5.396953,"is_reserved":false,"is_disabled":false,"rental_uris":{"android":"levelo://app?vid=bdd1624c-f4e5-4852-a7e3-0216ce999938","ios":"levelo://app?vid=bdd1624c-f4e5-4852-a7e3-0216ce999938"},"vehicle_type_id":"4","last_reported":1730398340,"current_range_meters":20400,"station_id":"ce4bhn12rcd13ifvqgpg","pricing_plan_id":"cebpf4jnsgd1na2vs0mg"},{"bike_id":"789ff411-67e2-4471-9fea-b47272aaf881","system_id":"levelo_inurba_marseille","lat":43.30274,"lon":5.37714,"is_reserved":false,"is_disabled":false,"rental_uris":{"android":"levelo://app?vid=789ff411-67e2-4471-9fea-b47272aaf881","ios":"levelo://app?vid=789ff411-67e2-4471-9fea-b47272aaf881"},"vehicle_type_id":"4","last_reported":1730398340,"current_range_meters":21600,"station_id":"ce4bgup2rcd13ifvqcn0","pricing_plan_id":"cebpf4jnsgd1na2vs0mg"},{"bike_id":"8bdc51d1-0be7-40c8-8710-55fd9fcc166c","system_id":"levelo_inurba_marseille","lat":43.31224,"lon":5.36861,"is_reserved":false,"is_disabled":false,"rental_uris":{"android":"levelo://app?vid=8bdc51d1-0be7-40c8-8710-55fd9fcc166c","ios":"levelo://app?vid=8bdc51d1-0be7-40c8-8710-55fd9fcc166c"},"vehicle_type_id":"4","last_reported":1730398340,"current_range_meters":38400,"station_id":"ce4bgl92rcd13ifvqbq0","pricing_plan_id":"cebpf4jnsgd1na2vs0mg"},{"bike_id":"177a1dce-0913-4771-bc5b-50168f4bfa18","system_id":"levelo_inurba_marseille","lat":43.25,"lon":5.38936,"is_reserved":false,"is_disabled":false,"rental_uris":{"android":"levelo://app?vid=177a1dce-0913-4771-bc5b-50168f4bfa18","ios":"levelo://app?vid=177a1dce-0913-4771-bc5b-50168f4bfa18"},"vehicle_type_id":"4","last_reported":1730398340,"current_range_meters":38800,"station_id":"ce4bhgp2rcd13ifvqfd0","pricing_plan_id":"cebpf4jnsgd1na2vs0mg"},{"bike_id":"6f091c9c-e1f4-4df3-aa18-c140e4b15b86","system_id":"levelo_inurba_marseille","lat":43.28707,"lon":5.37945,"is_reserved":false,"is_disabled":false,"rental_uris":{"android":"levelo://app?vid=6f091c9c-e1f4-4df3-aa18-c140e4b15b86","ios":"levelo://app?vid=6f091c9c-e1f4-4df3-aa18-c140e4b15b86"},"vehicle_type_id":"4","last_reported":1730398340,"current_range_meters":36400,"station_id":"ce4bh9p2rcd13ifvqec0","pricing_plan_id":"cebpf4jnsgd1na2vs0mg"},{"bike_id":"aeb7f287-ac2e-41a5-9086-a135e101c58d","system_id":"levelo_inurba_marseille","lat":43.24165,"lon":5.36397,"is_reserved":false,"is_disabled":false,"rental_uris":{"android":"levelo://app?vid=aeb7f287-ac2e-41a5-9086-a135e101c58d","ios":"levelo://app?vid=aeb7f287-ac2e-41a5-9086-a135e101c58d"},"vehicle_type_id":"4","last_reported":1730398340,"current_range_meters":9200,"station_id":"cpo36qri1sfpv3e86is0","pricing_plan_id":"cebpf4jnsgd1na2vs0mg"},{"bike_id":"33a098b5-2f3f-4957-af96-675614306bdc","system_id":"levelo_inurba_marseille","lat":43.28285,"lon":5.39021,"is_reserved":false,"is_disabled":false,"rental_uris":{"android":"levelo://app?vid=33a098b5-2f3f-4957-af96-675614306bdc","ios":"levelo://app?vid=33a098b5-2f3f-4957-af96-675614306bdc"},"vehicle_type_id":"4","last_reported":1730398340,"current_range_meters":20400,"station_id":"","pricing_plan_id":"cebpf4jnsgd1na2vs0mg"},{"bike_id":"441193e4-3fd1-4757-9828-4872c7c31975","system_id":"levelo_inurba_marseille","lat":43.29064,"lon":5.37165,"is_reserved":false,"is_disabled":false,"rental_uris":{"android":"levelo://app?vid=441193e4-3fd1-4757-9828-4872c7c31975","ios":"levelo://app?vid=441193e4-3fd1-4757-9828-4872c7c31975"},"vehicle_type_id":"4","last_reported":1730398340,"current_range_meters":39200,"station_id":"ce4bh5p2rcd13ifvqe4g","pricing_plan_id":"cebpf4jnsgd1na2vs0mg"},{"bike_id":"9af405a1-c97d-459e-93b1-f5cc0e91c166","system_id":"levelo_inurba_marseille","lat":43.304399,"lon":5.388798,"is_reserved":false,"is_disabled":false,"rental_uris":{"android":"levelo://app?vid=9af405a1-c97d-459e-93b1-f5cc0e91c166","ios":"levelo://app?vid=9af405a1-c97d-459e-93b1-f5cc0e91c166"},"vehicle_type_id":"4","last_reported":1730398340,"current_range_meters":24400,"station_id":"ce4bgs92rcd13ifvqcc0","pricing_plan_id":"cebpf4jnsgd1na2vs0mg"},{"bike_id":"31259968-2fb9-4674-8ba0-18e6be31c2f8","system_id":"levelo_inurba_marseille","lat":43.29789,"lon":5.38069,"is_reserved":false,"is_disabled":false,"rental_uris":{"android":"levelo://app?vid=31259968-2fb9-4674-8ba0-18e6be31c2f8","ios":"levelo://app?vid=31259968-2fb9-4674-8ba0-18e6be31c2f8"},"vehicle_type_id":"4","last_reported":1730398340,"current_range_meters":0,"station_id":"ce4bgip2rcd13ifvqbb0","pricing_plan_id":"cebpf4jnsgd1na2vs0mg"},{"bike_id":"e396ba31-7eab-4e6f-9cee-73bc7a68952d","system_id":"levelo_inurba_marseille","lat":43.28094,"lon":5.36727,"is_reserved":false,"is_disabled":false,"rental_uris":{"android":"levelo://app?vid=e396ba31-7eab-4e6f-9cee-73bc7a68952d","ios":"levelo://app?vid=e396ba31-7eab-4e6f-9cee-73bc7a68952d"},"vehicle_type_id":"4","last_reported":1730398340,"current_range_meters":6400,"station_id":"ce4bh412rcd13ifvqds0","pricing_plan_id":"cebpf4jnsgd1na2vs0mg"},{"bike_id":"7927cbc1-905b-46e8-bf89-c6980c10bf01","system_id":"levelo_inurba_marseille","lat":43.30541,"lon":5.38431,"is_reserved":false,"is_disabled":false,"rental_uris":{"android":"levelo://app?vid=7927cbc1-905b-46e8-bf89-c6980c10bf01","ios":"levelo://app?vid=7927cbc1-905b-46e8-bf89-c6980c10bf01"},"vehicle_type_id":"4","last_reported":1730398340,"current_range_meters":16800,"station_id":"ce4bgg92rcd13ifvqb30","pricing_plan_id":"cebpf4jnsgd1na2vs0mg"},{"bike_id":"3fa77693-cf62-494a-96e0-c73e17625edb","system_id":"levelo_inurba_marseille","lat":43.31325,"lon":5.39696,"is_reserved":false,"is_disabled":false,"rental_uris":{"android":"levelo://app?vid=3fa77693-cf62-494a-96e0-c73e17625edb","ios":"levelo://app?vid=3fa77693-cf62-494a-96e0-c73e17625edb"},"vehicle_type_id":"4","last_reported":1730398340,"current_range_meters":13600,"station_id":"ce4bgvp2rcd13ifvqcu0","pricing_plan_id":"cebpf4jnsgd1na2vs0mg"},{"bike_id":"6efb0d9b-2cf2-4834-b244-fe44aa3186e3","system_id":"levelo_inurba_marseille","lat":43.30208,"lon":5.39474,"is_reserved":false,"is_disabled":false,"rental_uris":{"android":"levelo://app?vid=6efb0d9b-2cf2-4834-b244-fe44aa3186e3","ios":"levelo://app?vid=6efb0d9b-2cf2-4834-b244-fe44aa3186e3"},"vehicle_type_id":"4","last_reported":1730398340,"current_range_meters":28800,"station_id":"ce4bh0p2rcd13ifvqd70","pricing_plan_id":"cebpf4jnsgd1na2vs0mg"},{"bike_id":"579bc124-07c9-4621-ad54-f46225bc069c","system_id":"levelo_inurba_marseille","lat":43.24996,"lon":5.38925,"is_reserved":false,"is_disabled":false,"rental_uris":{"android":"levelo://app?vid=579bc124-07c9-4621-ad54-f46225bc069c","ios":"levelo://app?vid=579bc124-07c9-4621-ad54-f46225bc069c"},"vehicle_type_id":"4","last_reported":1730398340,"current_range_meters":37600,"station_id":"ce4bhgp2rcd13ifvqfd0","pricing_plan_id":"cebpf4jnsgd1na2vs0mg"},{"bike_id":"cae7b15e-a9a9-4f33-b5c4-69cb631a99c2","system_id":"levelo_inurba_marseille","lat":43.30128,"lon":5.38773,"is_reserved":false,"is_disabled":false,"rental_uris":{"android":"levelo://app?vid=cae7b15e-a9a9-4f33-b5c4-69cb631a99c2","ios":"levelo://app?vid=cae7b15e-a9a9-4f33-b5c4-69cb631a99c2"},"vehicle_type_id":"4","last_reported":1730398340,"current_range_meters":36800,"station_id":"ce4bghh2rcd13ifvqb60","pricing_plan_id":"cebpf4jnsgd1na2vs0mg"},{"bike_id":"71c5d6bd-a77f-473d-a918-52502ff6d0c0","system_id":"levelo_inurba_marseille","lat":43.283539,"lon":5.381076,"is_reserved":false,"is_disabled":false,"rental_uris":{"android":"levelo://app?vid=71c5d6bd-a77f-473d-a918-52502ff6d0c0","ios":"levelo://app?vid=71c5d6bd-a77f-473d-a918-52502ff6d0c0"},"vehicle_type_id":"4","last_reported":1730398340,"current_range_meters":38800,"station_id":"ce4bh412rcd13ifvqdr0","pricing_plan_id":"cebpf4jnsgd1na2vs0mg"},{"bike_id":"0eac5a1d-d684-45e0-be5d-a22f3e11c4ca","system_id":"levelo_inurba_marseille","lat":43.23969,"lon":5.36632,"is_reserved":false,"is_disabled":false,"rental_uris":{"android":"levelo://app?vid=0eac5a1d-d684-45e0-be5d-a22f3e11c4ca","ios":"levelo://app?vid=0eac5a1d-d684-45e0-be5d-a22f3e11c4ca"},"vehicle_type_id":"4","last_reported":1730398340,"current_range_meters":10800,"station_id":"ce4bhi12rcd13ifvqfp0","pricing_plan_id":"cebpf4jnsgd1na2vs0mg"},{"bike_id":"a3384b08-9163-4b1e-88d3-9455458fafc3","system_id":"levelo_inurba_marseille","lat":43.28029,"lon":5.36937,"is_reserved":false,"is_disabled":false,"rental_uris":{"android":"levelo://app?vid=a3384b08-9163-4b1e-88d3-9455458fafc3","ios":"levelo://app?vid=a3384b08-9163-4b1e-88d3-9455458fafc3"},"vehicle_type_id":"4","last_reported":1730398340,"current_range_meters":17600,"station_id":"ce4bha12rcd13ifvqef0","pricing_plan_id":"cebpf4jnsgd1na2vs0mg"},{"bike_id":"e7b2be94-21fc-42ac-bdf7-d486710a5d9a","system_id":"levelo_inurba_marseille","lat":43.2319,"lon":5.35552,"is_reserved":false,"is_disabled":false,"rental_uris":{"android":"levelo://app?vid=e7b2be94-21fc-42ac-bdf7-d486710a5d9a","ios":"levelo://app?vid=e7b2be94-21fc-42ac-bdf7-d486710a5d9a"},"vehicle_type_id":"4","last_reported":1730398340,"current_range_meters":38800,"station_id":"ce4bhu92rcd13ifvqi70","pricing_plan_id":"cebpf4jnsgd1na2vs0mg"},{"bike_id":"540b0540-37b2-4e69-a88f-95b657e2f362","system_id":"levelo_inurba_marseille","lat":43.32657,"lon":5.40999,"is_reserved":false,"is_disabled":false,"rental_uris":{"android":"levelo://app?vid=540b0540-37b2-4e69-a88f-95b657e2f362","ios":"levelo://app?vid=540b0540-37b2-4e69-a88f-95b657e2f362"},"vehicle_type_id":"4","last_reported":1730398340,"current_range_meters":29600,"station_id":"ce4bhpp2rcd13ifvqhgg","pricing_plan_id":"cebpf4jnsgd1na2vs0mg"},{"bike_id":"927a874f-f1b8-4a9f-8e4d-6948cc98fa5b","system_id":"levelo_inurba_marseille","lat":43.30929,"lon":5.40133,"is_reserved":false,"is_disabled":false,"rental_uris":{"android":"levelo://app?vid=927a874f-f1b8-4a9f-8e4d-6948cc98fa5b","ios":"levelo://app?vid=927a874f-f1b8-4a9f-8e4d-6948cc98fa5b"},"vehicle_type_id":"4","last_reported":1730398340,"current_range_meters":14800,"station_id":"ce4bgvp2rcd13ifvqct0","pricing_plan_id":"cebpf4jnsgd1na2vs0mg"},{"bike_id":"44f1fee3-065b-480f-bee3-03564d71c7cc","system_id":"levelo_inurba_marseille","lat":43.29273,"lon":5.40132,"is_reserved":false,"is_disabled":false,"rental_uris":{"android":"levelo://app?vid=44f1fee3-065b-480f-bee3-03564d71c7cc","ios":"levelo://app?vid=44f1fee3-065b-480f-bee3-03564d71c7cc"},"vehicle_type_id":"4","last_reported":1730398340,"current_range_meters":4400,"station_id":"ce4bh312rcd13ifvqdk0","pricing_plan_id":"cebpf4jnsgd1na2vs0mg"},{"bike_id":"ddd61f92-90bb-4c96-bb29-cb24e60dddcf","system_id":"levelo_inurba_marseille","lat":43.29685,"lon":5.37284,"is_reserved":false,"is_disabled":false,"rental_uris":{"android":"levelo://app?vid=ddd61f92-90bb-4c96-bb29-cb24e60dddcf","ios":"levelo://app?vid=ddd61f92-90bb-4c96-bb29-cb24e60dddcf"},"vehicle_type_id":"4","last_reported":1730398340,"current_range_meters":17200,"station_id":"ce4bgk12rcd13ifvqbj0","pricing_plan_id":"cebpf4jnsgd1na2vs0mg"},{"bike_id":"dacaf0a1-652d-4a4b-ae67-ee7a01f2112c","system_id":"levelo_inurba_marseille","lat":43.23193,"lon":5.35554,"is_reserved":false,"is_disabled":false,"rental_uris":{"android":"levelo://app?vid=dacaf0a1-652d-4a4b-ae67-ee7a01f2112c","ios":"levelo://app?vid=dacaf0a1-652d-4a4b-ae67-ee7a01f2112c"},"vehicle_type_id":"4","last_reported":1730398340,"current_range_meters":21600,"station_id":"ce4bhu92rcd13ifvqi70","pricing_plan_id":"cebpf4jnsgd1na2vs0mg"},{"bike_id":"2afb4069-a895-442d-ad01-47e1143caf1f","system_id":"levelo_inurba_marseille","lat":43.29976,"lon":5.38487,"is_reserved":false,"is_disabled":false,"rental_uris":{"android":"levelo://app?vid=2afb4069-a895-442d-ad01-47e1143caf1f","ios":"levelo://app?vid=2afb4069-a895-442d-ad01-47e1143caf1f"},"vehicle_type_id":"4","last_reported":1730398340,"current_range_meters":36800,"station_id":"ce4bgj92rcd13ifvqbd0","pricing_plan_id":"cebpf4jnsgd1na2vs0mg"},{"bike_id":"33702412-0ebc-4d66-b9e3-799aebfd4a34","system_id":"levelo_inurba_marseille","lat":43.28562,"lon":5.39516,"is_reserved":false,"is_disabled":false,"rental_uris":{"android":"levelo://app?vid=33702412-0ebc-4d66-b9e3-799aebfd4a34","ios":"levelo://app?vid=33702412-0ebc-4d66-b9e3-799aebfd4a34"},"vehicle_type_id":"4","last_reported":1730398340,"current_range_meters":9200,"station_id":"ce4bh292rcd13ifvqdg0","pricing_plan_id":"cebpf4jnsgd1na2vs0mg"},{"bike_id":"a597b7fe-5abb-4d3b-a1fb-ad635a8727a5","system_id":"levelo_inurba_marseille","lat":43.30792,"lon":5.37664,"is_reserved":false,"is_disabled":false,"rental_uris":{"android":"levelo://app?vid=a597b7fe-5abb-4d3b-a1fb-ad635a8727a5","ios":"levelo://app?vid=a597b7fe-5abb-4d3b-a1fb-ad635a8727a5"},"vehicle_type_id":"4","last_reported":1730398340,"current_range_meters":30400,"station_id":"ce4bgv92rcd13ifvqcq0","pricing_plan_id":"cebpf4jnsgd1na2vs0mg"},{"bike_id":"b5278cb7-c52f-4aca-8990-b60be5d6c6da","system_id":"levelo_inurba_marseille","lat":43.25584,"lon":5.38243,"is_reserved":false,"is_disabled":false,"rental_uris":{"android":"levelo://app?vid=b5278cb7-c52f-4aca-8990-b60be5d6c6da","ios":"levelo://app?vid=b5278cb7-c52f-4aca-8990-b60be5d6c6da"},"vehicle_type_id":"4","last_reported":1730398340,"current_range_meters":6800,"station_id":"ce4bhih2rcd13ifvqfs0","pricing_plan_id":"cebpf4jnsgd1na2vs0mg"},{"bike_id":"55ba150b-037f-4325-b6c1-fef88b0ba175","system_id":"levelo_inurba_marseille","lat":43.24652,"lon":5.38896,"is_reserved":false,"is_disabled":false,"rental_uris":{"android":"levelo://app?vid=55ba150b-037f-4325-b6c1-fef88b0ba175","ios":"levelo://app?vid=55ba150b-037f-4325-b6c1-fef88b0ba175"},"vehicle_type_id":"4","last_reported":1730398340,"current_range_meters":24000,"station_id":"ce4bhg12rcd13ifvqf60","pricing_plan_id":"cebpf4jnsgd1na2vs0mg"},{"bike_id":"6ebb58ed-1590-42c1-bd35-58362bfc1769","system_id":"levelo_inurba_marseille","lat":43.32381,"lon":5.38925,"is_reserved":false,"is_disabled":false,"rental_uris":{"android":"levelo://app?vid=6ebb58ed-1590-42c1-bd35-58362bfc1769","ios":"levelo://app?vid=6ebb58ed-1590-42c1-bd35-58362bfc1769"},"vehicle_type_id":"4","last_reported":1730398340,"current_range_meters":6800,"station_id":"ce4bhqp2rcd13ifvqhog","pricing_plan_id":"cebpf4jnsgd1na2vs0mg"},{"bike_id":"0d7b75b1-fb45-4a76-9bfe-a6b4b700bf6e","system_id":"levelo_inurba_marseille","lat":43.27841,"lon":5.39206,"is_reserved":false,"is_disabled":false,"rental_uris":{"android":"levelo://app?vid=0d7b75b1-fb45-4a76-9bfe-a6b4b700bf6e","ios":"levelo://app?vid=0d7b75b1-fb45-4a76-9bfe-a6b4b700bf6e"},"vehicle_type_id":"4","last_reported":1730398340,"current_range_meters":3600,"station_id":"ce4bhjp2rcd13ifvqga0","pricing_plan_id":"cebpf4jnsgd1na2vs0mg"},{"bike_id":"dbe99495-1f17-4681-a606-3023e8b7f906","system_id":"levelo_inurba_marseille","lat":43.25111,"lon":5.40319,"is_reserved":false,"is_disabled":false,"rental_uris":{"android":"levelo://app?vid=dbe99495-1f17-4681-a606-3023e8b7f906","ios":"levelo://app?vid=dbe99495-1f17-4681-a606-3023e8b7f906"},"vehicle_type_id":"4","last_reported":1730398340,"current_range_meters":3600,"station_id":"ce4bhlh2rcd13ifvqgig","pricing_plan_id":"cebpf4jnsgd1na2vs0mg"},{"bike_id":"9ee5214e-9629-45a8-8070-7ca24c41cb86","system_id":"levelo_inurba_marseille","lat":43.32498,"lon":5.40689,"is_reserved":false,"is_disabled":false,"rental_uris":{"android":"levelo://app?vid=9ee5214e-9629-45a8-8070-7ca24c41cb86","ios":"levelo://app?vid=9ee5214e-9629-45a8-8070-7ca24c41cb86"},"vehicle_type_id":"4","last_reported":1730398340,"current_range_meters":25600,"station_id":"ce4bhq92rcd13ifvqhkg","pricing_plan_id":"cebpf4jnsgd1na2vs0mg"},{"bike_id":"1a79c110-0c6f-4256-b9da-dd1123928d03","system_id":"levelo_inurba_marseille","lat":43.28487,"lon":5.38563,"is_reserved":false,"is_disabled":false,"rental_uris":{"android":"levelo://app?vid=1a79c110-0c6f-4256-b9da-dd1123928d03","ios":"levelo://app?vid=1a79c110-0c6f-4256-b9da-dd1123928d03"},"vehicle_type_id":"4","last_reported":1730398340,"current_range_meters":4000,"station_id":"ce4bh8p2rcd13ifvqeb0","pricing_plan_id":"cebpf4jnsgd1na2vs0mg"},{"bike_id":"be6db18b-53f7-4a3d-8206-6d91f4a07d41","system_id":"levelo_inurba_marseille","lat":43.25574,"lon":5.38231,"is_reserved":false,"is_disabled":false,"rental_uris":{"android":"levelo://app?vid=be6db18b-53f7-4a3d-8206-6d91f4a07d41","ios":"levelo://app?vid=be6db18b-53f7-4a3d-8206-6d91f4a07d41"},"vehicle_type_id":"4","last_reported":1730398340,"current_range_meters":20800,"station_id":"ce4bhih2rcd13ifvqfs0","pricing_plan_id":"cebpf4jnsgd1na2vs0mg"},{"bike_id":"6badb0e3-569f-479f-ab58-214ac3d8e72a","system_id":"levelo_inurba_marseille","lat":43.29425,"lon":5.38629,"is_reserved":false,"is_disabled":false,"rental_uris":{"android":"levelo://app?vid=6badb0e3-569f-479f-ab58-214ac3d8e72a","ios":"levelo://app?vid=6badb0e3-569f-479f-ab58-214ac3d8e72a"},"vehicle_type_id":"4","last_reported":1730398340,"current_range_meters":38400,"station_id":"ce4bh2h2rcd13ifvqdh0","pricing_plan_id":"cebpf4jnsgd1na2vs0mg"},{"bike_id":"6f7baf4f-b3ff-45e0-9733-5c9aa456a711","system_id":"levelo_inurba_marseille","lat":43.274156,"lon":5.390584,"is_reserved":false,"is_disabled":false,"rental_uris":{"android":"levelo://app?vid=6f7baf4f-b3ff-45e0-9733-5c9aa456a711","ios":"levelo://app?vid=6f7baf4f-b3ff-45e0-9733-5c9aa456a711"},"vehicle_type_id":"4","last_reported":1730398340,"current_range_meters":3200,"station_id":"ce4bhg12rcd13ifvqf80","pricing_plan_id":"cebpf4jnsgd1na2vs0mg"},{"bike_id":"e3a98121-b36a-4fed-90ea-cb2befcd48c4","system_id":"levelo_inurba_marseille","lat":43.29865,"lon":5.39738,"is_reserved":false,"is_disabled":false,"rental_uris":{"android":"levelo://app?vid=e3a98121-b36a-4fed-90ea-cb2befcd48c4","ios":"levelo://app?vid=e3a98121-b36a-4fed-90ea-cb2befcd48c4"},"vehicle_type_id":"4","last_reported":1730398340,"current_range_meters":35200,"station_id":"ce4bh0h2rcd13ifvqd50","pricing_plan_id":"cebpf4jnsgd1na2vs0mg"},{"bike_id":"2080af06-73cf-4bdf-a453-5fb147d045c2","system_id":"levelo_inurba_marseille","lat":43.29503,"lon":5.374119,"is_reserved":false,"is_disabled":false,"rental_uris":{"android":"levelo://app?vid=2080af06-73cf-4bdf-a453-5fb147d045c2","ios":"levelo://app?vid=2080af06-73cf-4bdf-a453-5fb147d045c2"},"vehicle_type_id":"4","last_reported":1730398340,"current_range_meters":16000,"station_id":"cpo3532slgdg3j2ikp40","pricing_plan_id":"cebpf4jnsgd1na2vs0mg"},{"bike_id":"9ee09ed8-9904-4140-8d42-997fd176f2d0","system_id":"levelo_inurba_marseille","lat":43.30886,"lon":5.39654,"is_reserved":false,"is_disabled":false,"rental_uris":{"android":"levelo://app?vid=9ee09ed8-9904-4140-8d42-997fd176f2d0","ios":"levelo://app?vid=9ee09ed8-9904-4140-8d42-997fd176f2d0"},"vehicle_type_id":"4","last_reported":1730398340,"current_range_meters":24400,"station_id":"ce4bh012rcd13ifvqcv0","pricing_plan_id":"cebpf4jnsgd1na2vs0mg"},{"bike_id":"8d4de749-926e-4a4f-a8ee-a5edf0a03ecc","system_id":"levelo_inurba_marseille","lat":43.24999,"lon":5.38924,"is_reserved":false,"is_disabled":false,"rental_uris":{"android":"levelo://app?vid=8d4de749-926e-4a4f-a8ee-a5edf0a03ecc","ios":"levelo://app?vid=8d4de749-926e-4a4f-a8ee-a5edf0a03ecc"},"vehicle_type_id":"4","last_reported":1730398340,"current_range_meters":36000,"station_id":"ce4bhgp2rcd13ifvqfd0","pricing_plan_id":"cebpf4jnsgd1na2vs0mg"},{"bike_id":"01892d3a-78bf-4d35-baa8-7fb18c03af39","system_id":"levelo_inurba_marseille","lat":43.2804,"lon":5.36939,"is_reserved":false,"is_disabled":false,"rental_uris":{"android":"levelo://app?vid=01892d3a-78bf-4d35-baa8-7fb18c03af39","ios":"levelo://app?vid=01892d3a-78bf-4d35-baa8-7fb18c03af39"},"vehicle_type_id":"4","last_reported":1730398340,"current_range_meters":16800,"station_id":"ce4bha12rcd13ifvqef0","pricing_plan_id":"cebpf4jnsgd1na2vs0mg"},{"bike_id":"2f5df69f-8192-4e7d-a6c7-27df16a9ce03","system_id":"levelo_inurba_marseille","lat":43.29029,"lon":5.38138,"is_reserved":false,"is_disabled":false,"rental_uris":{"android":"levelo://app?vid=2f5df69f-8192-4e7d-a6c7-27df16a9ce03","ios":"levelo://app?vid=2f5df69f-8192-4e7d-a6c7-27df16a9ce03"},"vehicle_type_id":"4","last_reported":1730398340,"current_range_meters":10800,"station_id":"ce4bh4p2rcd13ifvqe1g","pricing_plan_id":"cebpf4jnsgd1na2vs0mg"},{"bike_id":"886f680f-8e91-44dd-b292-de0454d1704a","system_id":"levelo_inurba_marseille","lat":43.30422,"lon":5.412857,"is_reserved":false,"is_disabled":false,"rental_uris":{"android":"levelo://app?vid=886f680f-8e91-44dd-b292-de0454d1704a","ios":"levelo://app?vid=886f680f-8e91-44dd-b292-de0454d1704a"},"vehicle_type_id":"4","last_reported":1730398340,"current_range_meters":10000,"station_id":"ce4bhop2rcd13ifvqh8g","pricing_plan_id":"cebpf4jnsgd1na2vs0mg"},{"bike_id":"000a2711-60e8-4a72-9191-621224c3143b","system_id":"levelo_inurba_marseille","lat":43.3088,"lon":5.39656,"is_reserved":false,"is_disabled":false,"rental_uris":{"android":"levelo://app?vid=000a2711-60e8-4a72-9191-621224c3143b","ios":"levelo://app?vid=000a2711-60e8-4a72-9191-621224c3143b"},"vehicle_type_id":"4","last_reported":1730398340,"current_range_meters":39200,"station_id":"ce4bh012rcd13ifvqcv0","pricing_plan_id":"cebpf4jnsgd1na2vs0mg"},{"bike_id":"927cbb50-46f1-4370-a0b9-3785746215ba","system_id":"levelo_inurba_marseille","lat":43.28155,"lon":5.42642,"is_reserved":false,"is_disabled":false,"rental_uris":{"android":"levelo://app?vid=927cbb50-46f1-4370-a0b9-3785746215ba","ios":"levelo://app?vid=927cbb50-46f1-4370-a0b9-3785746215ba"},"vehicle_type_id":"4","last_reported":1730398340,"current_range_meters":31200,"station_id":"ce4bhnh2rcd13ifvqgug","pricing_plan_id":"cebpf4jnsgd1na2vs0mg"},{"bike_id":"654429cb-f41d-4ea6-96c1-5909a89d06a1","system_id":"levelo_inurba_marseille","lat":43.28925,"lon":5.38388,"is_reserved":false,"is_disabled":false,"rental_uris":{"android":"levelo://app?vid=654429cb-f41d-4ea6-96c1-5909a89d06a1","ios":"levelo://app?vid=654429cb-f41d-4ea6-96c1-5909a89d06a1"},"vehicle_type_id":"4","last_reported":1730398340,"current_range_meters":8800,"station_id":"ce4bh612rcd13ifvqe6g","pricing_plan_id":"cebpf4jnsgd1na2vs0mg"},{"bike_id":"cf984b07-c06a-489f-a198-682f7019d2a4","system_id":"levelo_inurba_marseille","lat":43.25581,"lon":5.38235,"is_reserved":false,"is_disabled":false,"rental_uris":{"android":"levelo://app?vid=cf984b07-c06a-489f-a198-682f7019d2a4","ios":"levelo://app?vid=cf984b07-c06a-489f-a198-682f7019d2a4"},"vehicle_type_id":"4","last_reported":1730398340,"current_range_meters":4400,"station_id":"ce4bhih2rcd13ifvqfs0","pricing_plan_id":"cebpf4jnsgd1na2vs0mg"},{"bike_id":"8f55f6cc-0b54-4d5f-9029-aa15dfd6d9b0","system_id":"levelo_inurba_marseille","lat":43.326605,"lon":5.40991,"is_reserved":false,"is_disabled":false,"rental_uris":{"android":"levelo://app?vid=8f55f6cc-0b54-4d5f-9029-aa15dfd6d9b0","ios":"levelo://app?vid=8f55f6cc-0b54-4d5f-9029-aa15dfd6d9b0"},"vehicle_type_id":"4","last_reported":1730398340,"current_range_meters":17200,"station_id":"","pricing_plan_id":"cebpf4jnsgd1na2vs0mg"},{"bike_id":"1c16d6d3-6a16-4039-9339-a5ee09eb69da","system_id":"levelo_inurba_marseille","lat":43.31695,"lon":5.40464,"is_reserved":false,"is_disabled":false,"rental_uris":{"android":"levelo://app?vid=1c16d6d3-6a16-4039-9339-a5ee09eb69da","ios":"levelo://app?vid=1c16d6d3-6a16-4039-9339-a5ee09eb69da"},"vehicle_type_id":"4","last_reported":1730398340,"current_range_meters":19200,"station_id":"ce4bh012rcd13ifvqd00","pricing_plan_id":"cebpf4jnsgd1na2vs0mg"},{"bike_id":"9dea5968-0e30-4366-947c-4679fc57c9ac","system_id":"levelo_inurba_marseille","lat":43.26062,"lon":5.39397,"is_reserved":false,"is_disabled":false,"rental_uris":{"android":"levelo://app?vid=9dea5968-0e30-4366-947c-4679fc57c9ac","ios":"levelo://app?vid=9dea5968-0e30-4366-947c-4679fc57c9ac"},"vehicle_type_id":"4","last_reported":1730398340,"current_range_meters":38000,"station_id":"ce4bhh92rcd13ifvqfj0","pricing_plan_id":"cebpf4jnsgd1na2vs0mg"},{"bike_id":"5ff74640-5d39-40f8-808a-e5695df59fd4","system_id":"levelo_inurba_marseille","lat":43.27209,"lon":5.41025,"is_reserved":false,"is_disabled":false,"rental_uris":{"android":"levelo://app?vid=5ff74640-5d39-40f8-808a-e5695df59fd4","ios":"levelo://app?vid=5ff74640-5d39-40f8-808a-e5695df59fd4"},"vehicle_type_id":"4","last_reported":1730398340,"current_range_meters":6800,"station_id":"ce4bhl12rcd13ifvqgf0","pricing_plan_id":"cebpf4jnsgd1na2vs0mg"},{"bike_id":"7f84b0c8-abff-4720-adab-24ed3cf5a1d7","system_id":"levelo_inurba_marseille","lat":43.29192,"lon":5.35803,"is_reserved":false,"is_disabled":false,"rental_uris":{"android":"levelo://app?vid=7f84b0c8-abff-4720-adab-24ed3cf5a1d7","ios":"levelo://app?vid=7f84b0c8-abff-4720-adab-24ed3cf5a1d7"},"vehicle_type_id":"4","last_reported":1730398340,"current_range_meters":38800,"station_id":"ce4bhb12rcd13ifvqel0","pricing_plan_id":"cebpf4jnsgd1na2vs0mg"},{"bike_id":"2055f497-fc2a-46ea-b5b7-5091322512d2","system_id":"levelo_inurba_marseille","lat":43.29533,"lon":5.38548,"is_reserved":false,"is_disabled":false,"rental_uris":{"android":"levelo://app?vid=2055f497-fc2a-46ea-b5b7-5091322512d2","ios":"levelo://app?vid=2055f497-fc2a-46ea-b5b7-5091322512d2"},"vehicle_type_id":"4","last_reported":1730398340,"current_range_meters":36800,"station_id":"ce4bgih2rcd13ifvqba0","pricing_plan_id":"cebpf4jnsgd1na2vs0mg"},{"bike_id":"30082249-30e1-49f9-859c-463259e82fb5","system_id":"levelo_inurba_marseille","lat":43.25578,"lon":5.38237,"is_reserved":false,"is_disabled":false,"rental_uris":{"android":"levelo://app?vid=30082249-30e1-49f9-859c-463259e82fb5","ios":"levelo://app?vid=30082249-30e1-49f9-859c-463259e82fb5"},"vehicle_type_id":"4","last_reported":1730398340,"current_range_meters":24400,"station_id":"ce4bhih2rcd13ifvqfs0","pricing_plan_id":"cebpf4jnsgd1na2vs0mg"},{"bike_id":"b34d17da-e196-41a3-9664-462f8cac6fbc","system_id":"levelo_inurba_marseille","lat":43.29257,"lon":5.40916,"is_reserved":false,"is_disabled":false,"rental_uris":{"android":"levelo://app?vid=b34d17da-e196-41a3-9664-462f8cac6fbc","ios":"levelo://app?vid=b34d17da-e196-41a3-9664-462f8cac6fbc"},"vehicle_type_id":"4","last_reported":1730398340,"current_range_meters":4400,"station_id":"ce4bh192rcd13ifvqdc0","pricing_plan_id":"cebpf4jnsgd1na2vs0mg"},{"bike_id":"7c228c99-fa82-4a3d-978e-0a78af8ea1f9","system_id":"levelo_inurba_marseille","lat":43.29784,"lon":5.37102,"is_reserved":false,"is_disabled":false,"rental_uris":{"android":"levelo://app?vid=7c228c99-fa82-4a3d-978e-0a78af8ea1f9","ios":"levelo://app?vid=7c228c99-fa82-4a3d-978e-0a78af8ea1f9"},"vehicle_type_id":"4","last_reported":1730398340,"current_range_meters":28000,"station_id":"ce4bgop2rcd13ifvqc1g","pricing_plan_id":"cebpf4jnsgd1na2vs0mg"},{"bike_id":"a931e96c-2049-447b-83ac-c717bfca3d41","system_id":"levelo_inurba_marseille","lat":43.25581,"lon":5.38232,"is_reserved":false,"is_disabled":false,"rental_uris":{"android":"levelo://app?vid=a931e96c-2049-447b-83ac-c717bfca3d41","ios":"levelo://app?vid=a931e96c-2049-447b-83ac-c717bfca3d41"},"vehicle_type_id":"4","last_reported":1730398340,"current_range_meters":2800,"station_id":"ce4bhih2rcd13ifvqfs0","pricing_plan_id":"cebpf4jnsgd1na2vs0mg"},{"bike_id":"28962a55-0901-4b31-843e-58b9a8b9dea1","system_id":"levelo_inurba_marseille","lat":43.25498,"lon":5.37649,"is_reserved":false,"is_disabled":false,"rental_uris":{"android":"levelo://app?vid=28962a55-0901-4b31-843e-58b9a8b9dea1","ios":"levelo://app?vid=28962a55-0901-4b31-843e-58b9a8b9dea1"},"vehicle_type_id":"4","last_reported":1730398340,"current_range_meters":11200,"station_id":"ce4bhh12rcd13ifvqff0","pricing_plan_id":"cebpf4jnsgd1na2vs0mg"},{"bike_id":"baa94ebb-d197-45ba-b224-2c282127231a","system_id":"levelo_inurba_marseille","lat":43.2621,"lon":5.37443,"is_reserved":false,"is_disabled":false,"rental_uris":{"android":"levelo://app?vid=baa94ebb-d197-45ba-b224-2c282127231a","ios":"levelo://app?vid=baa94ebb-d197-45ba-b224-2c282127231a"},"vehicle_type_id":"4","last_reported":1730398340,"current_range_meters":20000,"station_id":"ce4bhgp2rcd13ifvqfc0","pricing_plan_id":"cebpf4jnsgd1na2vs0mg"},{"bike_id":"ec6b9073-f040-4b5d-9196-6ef1515ae5be","system_id":"levelo_inurba_marseille","lat":43.31997,"lon":5.38153,"is_reserved":false,"is_disabled":false,"rental_uris":{"android":"levelo://app?vid=ec6b9073-f040-4b5d-9196-6ef1515ae5be","ios":"levelo://app?vid=ec6b9073-f040-4b5d-9196-6ef1515ae5be"},"vehicle_type_id":"4","last_reported":1730398340,"current_range_meters":17200,"station_id":"ce4bhr12rcd13ifvqhpg","pricing_plan_id":"cebpf4jnsgd1na2vs0mg"},{"bike_id":"41236def-cc0d-4b7b-b102-6a61a6373d2f","system_id":"levelo_inurba_marseille","lat":43.25006,"lon":5.3893,"is_reserved":false,"is_disabled":false,"rental_uris":{"android":"levelo://app?vid=41236def-cc0d-4b7b-b102-6a61a6373d2f","ios":"levelo://app?vid=41236def-cc0d-4b7b-b102-6a61a6373d2f"},"vehicle_type_id":"4","last_reported":1730398340,"current_range_meters":30000,"station_id":"ce4bhgp2rcd13ifvqfd0","pricing_plan_id":"cebpf4jnsgd1na2vs0mg"},{"bike_id":"6f2d5216-b4a6-47ed-89f1-35624c1357e3","system_id":"levelo_inurba_marseille","lat":43.27313,"lon":5.39077,"is_reserved":false,"is_disabled":false,"rental_uris":{"android":"levelo://app?vid=6f2d5216-b4a6-47ed-89f1-35624c1357e3","ios":"levelo://app?vid=6f2d5216-b4a6-47ed-89f1-35624c1357e3"},"vehicle_type_id":"4","last_reported":1730398340,"current_range_meters":24400,"station_id":"ce4bhgp2rcd13ifvqfe0","pricing_plan_id":"cebpf4jnsgd1na2vs0mg"},{"bike_id":"120a452e-cf08-465b-8dca-5ee09d4f28db","system_id":"levelo_inurba_marseille","lat":43.26949,"lon":5.38632,"is_reserved":false,"is_disabled":false,"rental_uris":{"android":"levelo://app?vid=120a452e-cf08-465b-8dca-5ee09d4f28db","ios":"levelo://app?vid=120a452e-cf08-465b-8dca-5ee09d4f28db"},"vehicle_type_id":"4","last_reported":1730398340,"current_range_meters":22000,"station_id":"ce4bhh92rcd13ifvqfh0","pricing_plan_id":"cebpf4jnsgd1na2vs0mg"},{"bike_id":"5b1beb29-08c3-4517-96e1-89c4b727e0c3","system_id":"levelo_inurba_marseille","lat":43.23197,"lon":5.35554,"is_reserved":false,"is_disabled":false,"rental_uris":{"android":"levelo://app?vid=5b1beb29-08c3-4517-96e1-89c4b727e0c3","ios":"levelo://app?vid=5b1beb29-08c3-4517-96e1-89c4b727e0c3"},"vehicle_type_id":"4","last_reported":1730398340,"current_range_meters":33600,"station_id":"ce4bhu92rcd13ifvqi70","pricing_plan_id":"cebpf4jnsgd1na2vs0mg"},{"bike_id":"a6a92ce8-042b-4d3f-83f3-c5c50ac1bf96","system_id":"levelo_inurba_marseille","lat":43.2811,"lon":5.37837,"is_reserved":false,"is_disabled":false,"rental_uris":{"android":"levelo://app?vid=a6a92ce8-042b-4d3f-83f3-c5c50ac1bf96","ios":"levelo://app?vid=a6a92ce8-042b-4d3f-83f3-c5c50ac1bf96"},"vehicle_type_id":"4","last_reported":1730398340,"current_range_meters":2000,"station_id":"ce4bha12rcd13ifvqee0","pricing_plan_id":"cebpf4jnsgd1na2vs0mg"},{"bike_id":"22e5e5c1-6dbf-40f4-b818-a64e5c930397","system_id":"levelo_inurba_marseille","lat":43.23963,"lon":5.36628,"is_reserved":false,"is_disabled":false,"rental_uris":{"android":"levelo://app?vid=22e5e5c1-6dbf-40f4-b818-a64e5c930397","ios":"levelo://app?vid=22e5e5c1-6dbf-40f4-b818-a64e5c930397"},"vehicle_type_id":"4","last_reported":1730398340,"current_range_meters":29600,"station_id":"ce4bhi12rcd13ifvqfp0","pricing_plan_id":"cebpf4jnsgd1na2vs0mg"},{"bike_id":"678bd49d-4e97-464a-9d6b-ff8f1a094f5f","system_id":"levelo_inurba_marseille","lat":43.29022,"lon":5.38635,"is_reserved":false,"is_disabled":false,"rental_uris":{"android":"levelo://app?vid=678bd49d-4e97-464a-9d6b-ff8f1a094f5f","ios":"levelo://app?vid=678bd49d-4e97-464a-9d6b-ff8f1a094f5f"},"vehicle_type_id":"4","last_reported":1730398340,"current_range_meters":24400,"station_id":"ce4bh4p2rcd13ifvqe0g","pricing_plan_id":"cebpf4jnsgd1na2vs0mg"},{"bike_id":"f99547b6-e0b7-4a86-b4bb-f600f8ca5cb2","system_id":"levelo_inurba_marseille","lat":43.24168,"lon":5.36401,"is_reserved":false,"is_disabled":false,"rental_uris":{"android":"levelo://app?vid=f99547b6-e0b7-4a86-b4bb-f600f8ca5cb2","ios":"levelo://app?vid=f99547b6-e0b7-4a86-b4bb-f600f8ca5cb2"},"vehicle_type_id":"4","last_reported":1730398340,"current_range_meters":9600,"station_id":"cpo36qri1sfpv3e86is0","pricing_plan_id":"cebpf4jnsgd1na2vs0mg"},{"bike_id":"45a34f09-7fb7-40ca-b8fb-591f79a3282d","system_id":"levelo_inurba_marseille","lat":43.24018,"lon":5.38469,"is_reserved":false,"is_disabled":false,"rental_uris":{"android":"levelo://app?vid=45a34f09-7fb7-40ca-b8fb-591f79a3282d","ios":"levelo://app?vid=45a34f09-7fb7-40ca-b8fb-591f79a3282d"},"vehicle_type_id":"4","last_reported":1730398340,"current_range_meters":20800,"station_id":"","pricing_plan_id":"cebpf4jnsgd1na2vs0mg"},{"bike_id":"20922681-d856-4073-952c-56761e00805d","system_id":"levelo_inurba_marseille","lat":43.3189,"lon":5.40746,"is_reserved":false,"is_disabled":false,"rental_uris":{"android":"levelo://app?vid=20922681-d856-4073-952c-56761e00805d","ios":"levelo://app?vid=20922681-d856-4073-952c-56761e00805d"},"vehicle_type_id":"4","last_reported":1730398340,"current_range_meters":5600,"station_id":"ce4bhq12rcd13ifvqhig","pricing_plan_id":"cebpf4jnsgd1na2vs0mg"},{"bike_id":"d24a84ff-a6f2-46c4-9081-c8b941261ed6","system_id":"levelo_inurba_marseille","lat":43.28414,"lon":5.37509,"is_reserved":false,"is_disabled":false,"rental_uris":{"android":"levelo://app?vid=d24a84ff-a6f2-46c4-9081-c8b941261ed6","ios":"levelo://app?vid=d24a84ff-a6f2-46c4-9081-c8b941261ed6"},"vehicle_type_id":"4","last_reported":1730398340,"current_range_meters":18800,"station_id":"ce4bh412rcd13ifvqds0","pricing_plan_id":"cebpf4jnsgd1na2vs0mg"},{"bike_id":"7869b7eb-e3ac-43ab-bdea-20f3c9927033","system_id":"levelo_inurba_marseille","lat":43.31694,"lon":5.40478,"is_reserved":false,"is_disabled":false,"rental_uris":{"android":"levelo://app?vid=7869b7eb-e3ac-43ab-bdea-20f3c9927033","ios":"levelo://app?vid=7869b7eb-e3ac-43ab-bdea-20f3c9927033"},"vehicle_type_id":"4","last_reported":1730398340,"current_range_meters":28800,"station_id":"ce4bh012rcd13ifvqd00","pricing_plan_id":"cebpf4jnsgd1na2vs0mg"},{"bike_id":"794d23c0-def7-4557-a69a-112ea268f585","system_id":"levelo_inurba_marseille","lat":43.232,"lon":5.35555,"is_reserved":false,"is_disabled":false,"rental_uris":{"android":"levelo://app?vid=794d23c0-def7-4557-a69a-112ea268f585","ios":"levelo://app?vid=794d23c0-def7-4557-a69a-112ea268f585"},"vehicle_type_id":"4","last_reported":1730398340,"current_range_meters":38000,"station_id":"ce4bhu92rcd13ifvqi70","pricing_plan_id":"cebpf4jnsgd1na2vs0mg"},{"bike_id":"e7b3876e-0692-4eb0-b28b-e396c7d0c567","system_id":"levelo_inurba_marseille","lat":43.29095,"lon":5.38141,"is_reserved":false,"is_disabled":false,"rental_uris":{"android":"levelo://app?vid=e7b3876e-0692-4eb0-b28b-e396c7d0c567","ios":"levelo://app?vid=e7b3876e-0692-4eb0-b28b-e396c7d0c567"},"vehicle_type_id":"4","last_reported":1730398340,"current_range_meters":38000,"station_id":"ce4bh512rcd13ifvqe2g","pricing_plan_id":"cebpf4jnsgd1na2vs0mg"},{"bike_id":"1205d633-4986-4c67-9432-2d423a89c40d","system_id":"levelo_inurba_marseille","lat":43.27181,"lon":5.40992,"is_reserved":false,"is_disabled":false,"rental_uris":{"android":"levelo://app?vid=1205d633-4986-4c67-9432-2d423a89c40d","ios":"levelo://app?vid=1205d633-4986-4c67-9432-2d423a89c40d"},"vehicle_type_id":"4","last_reported":1730398340,"current_range_meters":32800,"station_id":"ce4bhl12rcd13ifvqgf0","pricing_plan_id":"cebpf4jnsgd1na2vs0mg"},{"bike_id":"46e61866-3283-41f1-83fc-4b2779324ab6","system_id":"levelo_inurba_marseille","lat":43.29557,"lon":5.37503,"is_reserved":false,"is_disabled":false,"rental_uris":{"android":"levelo://app?vid=46e61866-3283-41f1-83fc-4b2779324ab6","ios":"levelo://app?vid=46e61866-3283-41f1-83fc-4b2779324ab6"},"vehicle_type_id":"4","last_reported":1730398340,"current_range_meters":38800,"station_id":"ce4bgh92rcd13ifvqb50","pricing_plan_id":"cebpf4jnsgd1na2vs0mg"},{"bike_id":"e1f38475-1a5f-460f-8d3a-c2ed01dbd393","system_id":"levelo_inurba_marseille","lat":43.246607,"lon":5.3817,"is_reserved":false,"is_disabled":false,"rental_uris":{"android":"levelo://app?vid=e1f38475-1a5f-460f-8d3a-c2ed01dbd393","ios":"levelo://app?vid=e1f38475-1a5f-460f-8d3a-c2ed01dbd393"},"vehicle_type_id":"4","last_reported":1730398340,"current_range_meters":4000,"station_id":"ce4bh4p2rcd13ifvqe0g","pricing_plan_id":"cebpf4jnsgd1na2vs0mg"},{"bike_id":"c480796a-0f0e-417b-8806-a177d3177efa","system_id":"levelo_inurba_marseille","lat":43.29631,"lon":5.40593,"is_reserved":false,"is_disabled":false,"rental_uris":{"android":"levelo://app?vid=c480796a-0f0e-417b-8806-a177d3177efa","ios":"levelo://app?vid=c480796a-0f0e-417b-8806-a177d3177efa"},"vehicle_type_id":"4","last_reported":1730398340,"current_range_meters":18800,"station_id":"ce4bh0h2rcd13ifvqd60","pricing_plan_id":"cebpf4jnsgd1na2vs0mg"},{"bike_id":"4714ada8-93a5-4108-ae0d-b8d49c924193","system_id":"levelo_inurba_marseille","lat":43.24178,"lon":5.39729,"is_reserved":false,"is_disabled":false,"rental_uris":{"android":"levelo://app?vid=4714ada8-93a5-4108-ae0d-b8d49c924193","ios":"levelo://app?vid=4714ada8-93a5-4108-ae0d-b8d49c924193"},"vehicle_type_id":"4","last_reported":1730398340,"current_range_meters":8400,"station_id":"ce4bhn12rcd13ifvqgpg","pricing_plan_id":"cebpf4jnsgd1na2vs0mg"},{"bike_id":"92c48959-4c9b-416a-87a7-44fbedc2e2e2","system_id":"levelo_inurba_marseille","lat":43.29866,"lon":5.39741,"is_reserved":false,"is_disabled":false,"rental_uris":{"android":"levelo://app?vid=92c48959-4c9b-416a-87a7-44fbedc2e2e2","ios":"levelo://app?vid=92c48959-4c9b-416a-87a7-44fbedc2e2e2"},"vehicle_type_id":"4","last_reported":1730398340,"current_range_meters":36800,"station_id":"ce4bh0h2rcd13ifvqd50","pricing_plan_id":"cebpf4jnsgd1na2vs0mg"},{"bike_id":"b4515282-8674-46e4-bad3-2bf216f81b1f","system_id":"levelo_inurba_marseille","lat":43.29687,"lon":5.37289,"is_reserved":false,"is_disabled":false,"rental_uris":{"android":"levelo://app?vid=b4515282-8674-46e4-bad3-2bf216f81b1f","ios":"levelo://app?vid=b4515282-8674-46e4-bad3-2bf216f81b1f"},"vehicle_type_id":"4","last_reported":1730398340,"current_range_meters":39200,"station_id":"ce4bgk12rcd13ifvqbj0","pricing_plan_id":"cebpf4jnsgd1na2vs0mg"},{"bike_id":"d4247ed7-9f1e-4c56-9be6-367fdf0ad3b2","system_id":"levelo_inurba_marseille","lat":43.29531,"lon":5.38547,"is_reserved":false,"is_disabled":false,"rental_uris":{"android":"levelo://app?vid=d4247ed7-9f1e-4c56-9be6-367fdf0ad3b2","ios":"levelo://app?vid=d4247ed7-9f1e-4c56-9be6-367fdf0ad3b2"},"vehicle_type_id":"4","last_reported":1730398340,"current_range_meters":31200,"station_id":"ce4bgih2rcd13ifvqba0","pricing_plan_id":"cebpf4jnsgd1na2vs0mg"},{"bike_id":"a170b4cb-3e23-4249-961a-c8b3c67a8011","system_id":"levelo_inurba_marseille","lat":43.29525,"lon":5.38548,"is_reserved":false,"is_disabled":false,"rental_uris":{"android":"levelo://app?vid=a170b4cb-3e23-4249-961a-c8b3c67a8011","ios":"levelo://app?vid=a170b4cb-3e23-4249-961a-c8b3c67a8011"},"vehicle_type_id":"4","last_reported":1730398340,"current_range_meters":16800,"station_id":"ce4bgih2rcd13ifvqba0","pricing_plan_id":"cebpf4jnsgd1na2vs0mg"},{"bike_id":"4c0edbe9-5c77-40e6-bc24-237ef4359ccc","system_id":"levelo_inurba_marseille","lat":43.30536,"lon":5.36705,"is_reserved":false,"is_disabled":false,"rental_uris":{"android":"levelo://app?vid=4c0edbe9-5c77-40e6-bc24-237ef4359ccc","ios":"levelo://app?vid=4c0edbe9-5c77-40e6-bc24-237ef4359ccc"},"vehicle_type_id":"4","last_reported":1730398340,"current_range_meters":38000,"station_id":"ce4bgrp2rcd13ifvqc9g","pricing_plan_id":"cebpf4jnsgd1na2vs0mg"},{"bike_id":"623c6bdc-3225-4369-b4db-84953af3f439","system_id":"levelo_inurba_marseille","lat":43.29878,"lon":5.38901,"is_reserved":false,"is_disabled":false,"rental_uris":{"android":"levelo://app?vid=623c6bdc-3225-4369-b4db-84953af3f439","ios":"levelo://app?vid=623c6bdc-3225-4369-b4db-84953af3f439"},"vehicle_type_id":"4","last_reported":1730398340,"current_range_meters":37600,"station_id":"ce4bh392rcd13ifvqdl0","pricing_plan_id":"cebpf4jnsgd1na2vs0mg"},{"bike_id":"03d91290-ef59-4e6b-879a-a5c13bb6a7ba","system_id":"levelo_inurba_marseille","lat":43.28846,"lon":5.39311,"is_reserved":false,"is_disabled":false,"rental_uris":{"android":"levelo://app?vid=03d91290-ef59-4e6b-879a-a5c13bb6a7ba","ios":"levelo://app?vid=03d91290-ef59-4e6b-879a-a5c13bb6a7ba"},"vehicle_type_id":"4","last_reported":1730398340,"current_range_meters":0,"station_id":"ce4bh2p2rcd13ifvqdi0","pricing_plan_id":"cebpf4jnsgd1na2vs0mg"},{"bike_id":"db475ed4-4f8d-416d-bc77-4dbcac88a531","system_id":"levelo_inurba_marseille","lat":43.29228,"lon":5.36066,"is_reserved":false,"is_disabled":false,"rental_uris":{"android":"levelo://app?vid=db475ed4-4f8d-416d-bc77-4dbcac88a531","ios":"levelo://app?vid=db475ed4-4f8d-416d-bc77-4dbcac88a531"},"vehicle_type_id":"4","last_reported":1730398340,"current_range_meters":35200,"station_id":"ce4bhbh2rcd13ifvqeqg","pricing_plan_id":"cebpf4jnsgd1na2vs0mg"},{"bike_id":"30cd3637-5231-4451-8b17-3902824e2d98","system_id":"levelo_inurba_marseille","lat":43.31439,"lon":5.39289,"is_reserved":false,"is_disabled":false,"rental_uris":{"android":"levelo://app?vid=30cd3637-5231-4451-8b17-3902824e2d98","ios":"levelo://app?vid=30cd3637-5231-4451-8b17-3902824e2d98"},"vehicle_type_id":"4","last_reported":1730398340,"current_range_meters":21600,"station_id":"","pricing_plan_id":"cebpf4jnsgd1na2vs0mg"},{"bike_id":"34d3d109-fa5f-42d7-ac88-59ff2afb63b9","system_id":"levelo_inurba_marseille","lat":43.33013,"lon":5.39035,"is_reserved":false,"is_disabled":false,"rental_uris":{"android":"levelo://app?vid=34d3d109-fa5f-42d7-ac88-59ff2afb63b9","ios":"levelo://app?vid=34d3d109-fa5f-42d7-ac88-59ff2afb63b9"},"vehicle_type_id":"4","last_reported":1730398340,"current_range_meters":38800,"station_id":"ce4bhr92rcd13ifvqhrg","pricing_plan_id":"cebpf4jnsgd1na2vs0mg"},{"bike_id":"55e8dde2-617e-4c29-bde2-a7deb8339727","system_id":"levelo_inurba_marseille","lat":43.30211,"lon":5.39466,"is_reserved":false,"is_disabled":false,"rental_uris":{"android":"levelo://app?vid=55e8dde2-617e-4c29-bde2-a7deb8339727","ios":"levelo://app?vid=55e8dde2-617e-4c29-bde2-a7deb8339727"},"vehicle_type_id":"4","last_reported":1730398340,"current_range_meters":38800,"station_id":"ce4bh0p2rcd13ifvqd70","pricing_plan_id":"cebpf4jnsgd1na2vs0mg"},{"bike_id":"b3c9a8b7-a166-4ae9-801e-b9b573e02c87","system_id":"levelo_inurba_marseille","lat":43.26556,"lon":5.37285,"is_reserved":false,"is_disabled":false,"rental_uris":{"android":"levelo://app?vid=b3c9a8b7-a166-4ae9-801e-b9b573e02c87","ios":"levelo://app?vid=b3c9a8b7-a166-4ae9-801e-b9b573e02c87"},"vehicle_type_id":"4","last_reported":1730398340,"current_range_meters":20800,"station_id":"ce4bhg12rcd13ifvqf70","pricing_plan_id":"cebpf4jnsgd1na2vs0mg"},{"bike_id":"dc97ce1c-4064-456e-9462-a2101ade4f3f","system_id":"levelo_inurba_marseille","lat":43.29296,"lon":5.37478,"is_reserved":false,"is_disabled":false,"rental_uris":{"android":"levelo://app?vid=dc97ce1c-4064-456e-9462-a2101ade4f3f","ios":"levelo://app?vid=dc97ce1c-4064-456e-9462-a2101ade4f3f"},"vehicle_type_id":"4","last_reported":1730398340,"current_range_meters":36400,"station_id":"ce4bgi12rcd13ifvqb70","pricing_plan_id":"cebpf4jnsgd1na2vs0mg"},{"bike_id":"8e63b503-778b-42f4-ae04-a1cee9c5ac08","system_id":"levelo_inurba_marseille","lat":43.29422,"lon":5.38635,"is_reserved":false,"is_disabled":false,"rental_uris":{"android":"levelo://app?vid=8e63b503-778b-42f4-ae04-a1cee9c5ac08","ios":"levelo://app?vid=8e63b503-778b-42f4-ae04-a1cee9c5ac08"},"vehicle_type_id":"4","last_reported":1730398340,"current_range_meters":24800,"station_id":"ce4bh2h2rcd13ifvqdh0","pricing_plan_id":"cebpf4jnsgd1na2vs0mg"},{"bike_id":"5a6040ac-3086-4385-a44b-d88b49cbeeec","system_id":"levelo_inurba_marseille","lat":43.27496,"lon":5.42449,"is_reserved":false,"is_disabled":false,"rental_uris":{"android":"levelo://app?vid=5a6040ac-3086-4385-a44b-d88b49cbeeec","ios":"levelo://app?vid=5a6040ac-3086-4385-a44b-d88b49cbeeec"},"vehicle_type_id":"4","last_reported":1730398340,"current_range_meters":27600,"station_id":"ce4bhn92rcd13ifvqgrg","pricing_plan_id":"cebpf4jnsgd1na2vs0mg"},{"bike_id":"1f9f3d62-d6b8-42ae-a1d5-0905e398dcba","system_id":"levelo_inurba_marseille","lat":43.2866,"lon":5.36352,"is_reserved":false,"is_disabled":false,"rental_uris":{"android":"levelo://app?vid=1f9f3d62-d6b8-42ae-a1d5-0905e398dcba","ios":"levelo://app?vid=1f9f3d62-d6b8-42ae-a1d5-0905e398dcba"},"vehicle_type_id":"4","last_reported":1730398340,"current_range_meters":6800,"station_id":"ce4bhah2rcd13ifvqej0","pricing_plan_id":"cebpf4jnsgd1na2vs0mg"},{"bike_id":"ee3ee3af-7546-4f38-a5b0-1aad818e840b","system_id":"levelo_inurba_marseille","lat":43.28969,"lon":5.378401,"is_reserved":false,"is_disabled":false,"rental_uris":{"android":"levelo://app?vid=ee3ee3af-7546-4f38-a5b0-1aad818e840b","ios":"levelo://app?vid=ee3ee3af-7546-4f38-a5b0-1aad818e840b"},"vehicle_type_id":"4","last_reported":1730398340,"current_range_meters":28400,"station_id":"ce4bh9p2rcd13ifvqed0","pricing_plan_id":"cebpf4jnsgd1na2vs0mg"},{"bike_id":"c569a582-5d93-4d31-9b80-b75d074d39b7","system_id":"levelo_inurba_marseille","lat":43.30883,"lon":5.39654,"is_reserved":false,"is_disabled":false,"rental_uris":{"android":"levelo://app?vid=c569a582-5d93-4d31-9b80-b75d074d39b7","ios":"levelo://app?vid=c569a582-5d93-4d31-9b80-b75d074d39b7"},"vehicle_type_id":"4","last_reported":1730398340,"current_range_meters":3600,"station_id":"ce4bh012rcd13ifvqcv0","pricing_plan_id":"cebpf4jnsgd1na2vs0mg"},{"bike_id":"94279a57-03c0-47b7-abe3-7226e86fd3b0","system_id":"levelo_inurba_marseille","lat":43.2761,"lon":5.36105,"is_reserved":false,"is_disabled":false,"rental_uris":{"android":"levelo://app?vid=94279a57-03c0-47b7-abe3-7226e86fd3b0","ios":"levelo://app?vid=94279a57-03c0-47b7-abe3-7226e86fd3b0"},"vehicle_type_id":"4","last_reported":1730398340,"current_range_meters":28400,"station_id":"ce4bgj92rcd13ifvqbe0","pricing_plan_id":"cebpf4jnsgd1na2vs0mg"},{"bike_id":"dd5fe4ad-1712-4134-a81d-22383f3a7149","system_id":"levelo_inurba_marseille","lat":43.246675,"lon":5.381694,"is_reserved":false,"is_disabled":false,"rental_uris":{"android":"levelo://app?vid=dd5fe4ad-1712-4134-a81d-22383f3a7149","ios":"levelo://app?vid=dd5fe4ad-1712-4134-a81d-22383f3a7149"},"vehicle_type_id":"4","last_reported":1730398340,"current_range_meters":6000,"station_id":"ce4bhih2rcd13ifvqfr0","pricing_plan_id":"cebpf4jnsgd1na2vs0mg"},{"bike_id":"94a877a4-8217-49da-9495-a5ad89537e8e","system_id":"levelo_inurba_marseille","lat":43.24664,"lon":5.38174,"is_reserved":false,"is_disabled":false,"rental_uris":{"android":"levelo://app?vid=94a877a4-8217-49da-9495-a5ad89537e8e","ios":"levelo://app?vid=94a877a4-8217-49da-9495-a5ad89537e8e"},"vehicle_type_id":"4","last_reported":1730398340,"current_range_meters":28800,"station_id":"ce4bhih2rcd13ifvqfr0","pricing_plan_id":"cebpf4jnsgd1na2vs0mg"},{"bike_id":"822d478f-f2c9-4ca9-857d-07c26e354867","system_id":"levelo_inurba_marseille","lat":43.28368,"lon":5.38097,"is_reserved":false,"is_disabled":false,"rental_uris":{"android":"levelo://app?vid=822d478f-f2c9-4ca9-857d-07c26e354867","ios":"levelo://app?vid=822d478f-f2c9-4ca9-857d-07c26e354867"},"vehicle_type_id":"4","last_reported":1730398340,"current_range_meters":36400,"station_id":"ce4bh412rcd13ifvqdr0","pricing_plan_id":"cebpf4jnsgd1na2vs0mg"},{"bike_id":"9e9467dc-08bd-4540-a622-7c942da68b8d","system_id":"levelo_inurba_marseille","lat":43.25578,"lon":5.38228,"is_reserved":false,"is_disabled":false,"rental_uris":{"android":"levelo://app?vid=9e9467dc-08bd-4540-a622-7c942da68b8d","ios":"levelo://app?vid=9e9467dc-08bd-4540-a622-7c942da68b8d"},"vehicle_type_id":"4","last_reported":1730398340,"current_range_meters":2800,"station_id":"ce4bhih2rcd13ifvqfs0","pricing_plan_id":"cebpf4jnsgd1na2vs0mg"},{"bike_id":"784cdc61-f3a2-4ae3-b4c2-cd5e52915dda","system_id":"levelo_inurba_marseille","lat":43.31707,"lon":5.37766,"is_reserved":false,"is_disabled":false,"rental_uris":{"android":"levelo://app?vid=784cdc61-f3a2-4ae3-b4c2-cd5e52915dda","ios":"levelo://app?vid=784cdc61-f3a2-4ae3-b4c2-cd5e52915dda"},"vehicle_type_id":"4","last_reported":1730398340,"current_range_meters":38800,"station_id":"ce4bgth2rcd13ifvqch0","pricing_plan_id":"cebpf4jnsgd1na2vs0mg"},{"bike_id":"e17b1ce5-0d94-43ef-8d4f-8b37f6cd19ce","system_id":"levelo_inurba_marseille","lat":43.28401,"lon":5.37516,"is_reserved":false,"is_disabled":false,"rental_uris":{"android":"levelo://app?vid=e17b1ce5-0d94-43ef-8d4f-8b37f6cd19ce","ios":"levelo://app?vid=e17b1ce5-0d94-43ef-8d4f-8b37f6cd19ce"},"vehicle_type_id":"4","last_reported":1730398340,"current_range_meters":28000,"station_id":"ce4bh412rcd13ifvqds0","pricing_plan_id":"cebpf4jnsgd1na2vs0mg"},{"bike_id":"d1e842fd-6fb7-460c-be33-abeebaa1d5dc","system_id":"levelo_inurba_marseille","lat":43.30883,"lon":5.39659,"is_reserved":false,"is_disabled":false,"rental_uris":{"android":"levelo://app?vid=d1e842fd-6fb7-460c-be33-abeebaa1d5dc","ios":"levelo://app?vid=d1e842fd-6fb7-460c-be33-abeebaa1d5dc"},"vehicle_type_id":"4","last_reported":1730398340,"current_range_meters":33200,"station_id":"ce4bh012rcd13ifvqcv0","pricing_plan_id":"cebpf4jnsgd1na2vs0mg"},{"bike_id":"50d8bfac-cca3-404b-a3ca-dfa0ed016936","system_id":"levelo_inurba_marseille","lat":43.28621,"lon":5.35109,"is_reserved":false,"is_disabled":false,"rental_uris":{"android":"levelo://app?vid=50d8bfac-cca3-404b-a3ca-dfa0ed016936","ios":"levelo://app?vid=50d8bfac-cca3-404b-a3ca-dfa0ed016936"},"vehicle_type_id":"4","last_reported":1730398340,"current_range_meters":32400,"station_id":"ce4bhch2rcd13ifvqeug","pricing_plan_id":"cebpf4jnsgd1na2vs0mg"},{"bike_id":"2ac87d96-eaf7-418e-a2b1-a75bb29ba701","system_id":"levelo_inurba_marseille","lat":43.300832,"lon":5.390818,"is_reserved":false,"is_disabled":false,"rental_uris":{"android":"levelo://app?vid=2ac87d96-eaf7-418e-a2b1-a75bb29ba701","ios":"levelo://app?vid=2ac87d96-eaf7-418e-a2b1-a75bb29ba701"},"vehicle_type_id":"4","last_reported":1730398340,"current_range_meters":4000,"station_id":"ce4bhi12rcd13ifvqfq0","pricing_plan_id":"cebpf4jnsgd1na2vs0mg"},{"bike_id":"c2e04192-bb2c-4443-bb2a-b18b9b741d5d","system_id":"levelo_inurba_marseille","lat":43.28408,"lon":5.37522,"is_reserved":false,"is_disabled":false,"rental_uris":{"android":"levelo://app?vid=c2e04192-bb2c-4443-bb2a-b18b9b741d5d","ios":"levelo://app?vid=c2e04192-bb2c-4443-bb2a-b18b9b741d5d"},"vehicle_type_id":"4","last_reported":1730398340,"current_range_meters":29600,"station_id":"ce4bh412rcd13ifvqds0","pricing_plan_id":"cebpf4jnsgd1na2vs0mg"},{"bike_id":"5d6a12d4-786f-49be-90a0-a9127ebdefbe","system_id":"levelo_inurba_marseille","lat":43.2561,"lon":5.38246,"is_reserved":false,"is_disabled":false,"rental_uris":{"android":"levelo://app?vid=5d6a12d4-786f-49be-90a0-a9127ebdefbe","ios":"levelo://app?vid=5d6a12d4-786f-49be-90a0-a9127ebdefbe"},"vehicle_type_id":"4","last_reported":1730398340,"current_range_meters":10800,"station_id":"ce4bhih2rcd13ifvqfs0","pricing_plan_id":"cebpf4jnsgd1na2vs0mg"},{"bike_id":"3a1bcd32-abed-4218-b3e6-0d070a018dda","system_id":"levelo_inurba_marseille","lat":43.290436,"lon":5.369657,"is_reserved":false,"is_disabled":false,"rental_uris":{"android":"levelo://app?vid=3a1bcd32-abed-4218-b3e6-0d070a018dda","ios":"levelo://app?vid=3a1bcd32-abed-4218-b3e6-0d070a018dda"},"vehicle_type_id":"4","last_reported":1730398340,"current_range_meters":30000,"station_id":"cki0cbj6b192h4jlfktg","pricing_plan_id":"cebpf4jnsgd1na2vs0mg"},{"bike_id":"a3126011-34ea-44f9-8739-4e0b0ad74aa0","system_id":"levelo_inurba_marseille","lat":43.23967,"lon":5.36635,"is_reserved":false,"is_disabled":false,"rental_uris":{"android":"levelo://app?vid=a3126011-34ea-44f9-8739-4e0b0ad74aa0","ios":"levelo://app?vid=a3126011-34ea-44f9-8739-4e0b0ad74aa0"},"vehicle_type_id":"4","last_reported":1730398340,"current_range_meters":14800,"station_id":"ce4bhi12rcd13ifvqfp0","pricing_plan_id":"cebpf4jnsgd1na2vs0mg"},{"bike_id":"e3ae7a6b-1100-42a2-82b1-dd76f3cef148","system_id":"levelo_inurba_marseille","lat":43.30255,"lon":5.40083,"is_reserved":false,"is_disabled":false,"rental_uris":{"android":"levelo://app?vid=e3ae7a6b-1100-42a2-82b1-dd76f3cef148","ios":"levelo://app?vid=e3ae7a6b-1100-42a2-82b1-dd76f3cef148"},"vehicle_type_id":"4","last_reported":1730398340,"current_range_meters":8000,"station_id":"ce4bgvh2rcd13ifvqcs0","pricing_plan_id":"cebpf4jnsgd1na2vs0mg"},{"bike_id":"003f25e7-3826-4385-a400-bb674396119e","system_id":"levelo_inurba_marseille","lat":43.29417,"lon":5.38628,"is_reserved":false,"is_disabled":false,"rental_uris":{"android":"levelo://app?vid=003f25e7-3826-4385-a400-bb674396119e","ios":"levelo://app?vid=003f25e7-3826-4385-a400-bb674396119e"},"vehicle_type_id":"4","last_reported":1730398340,"current_range_meters":3200,"station_id":"ce4bh2h2rcd13ifvqdh0","pricing_plan_id":"cebpf4jnsgd1na2vs0mg"},{"bike_id":"5eee4c02-bcab-48fe-93db-099212f8ecc5","system_id":"levelo_inurba_marseille","lat":43.23193,"lon":5.35551,"is_reserved":false,"is_disabled":false,"rental_uris":{"android":"levelo://app?vid=5eee4c02-bcab-48fe-93db-099212f8ecc5","ios":"levelo://app?vid=5eee4c02-bcab-48fe-93db-099212f8ecc5"},"vehicle_type_id":"4","last_reported":1730398340,"current_range_meters":18000,"station_id":"ce4bhu92rcd13ifvqi70","pricing_plan_id":"cebpf4jnsgd1na2vs0mg"},{"bike_id":"4959bb82-b58d-45f8-be4b-f9304405654b","system_id":"levelo_inurba_marseille","lat":43.31691,"lon":5.40473,"is_reserved":false,"is_disabled":false,"rental_uris":{"android":"levelo://app?vid=4959bb82-b58d-45f8-be4b-f9304405654b","ios":"levelo://app?vid=4959bb82-b58d-45f8-be4b-f9304405654b"},"vehicle_type_id":"4","last_reported":1730398340,"current_range_meters":38800,"station_id":"ce4bh012rcd13ifvqd00","pricing_plan_id":"cebpf4jnsgd1na2vs0mg"},{"bike_id":"d6f26591-ac73-49b0-81cd-ae655a25d91c","system_id":"levelo_inurba_marseille","lat":43.28411,"lon":5.37508,"is_reserved":false,"is_disabled":false,"rental_uris":{"android":"levelo://app?vid=d6f26591-ac73-49b0-81cd-ae655a25d91c","ios":"levelo://app?vid=d6f26591-ac73-49b0-81cd-ae655a25d91c"},"vehicle_type_id":"4","last_reported":1730398340,"current_range_meters":17200,"station_id":"ce4bh412rcd13ifvqds0","pricing_plan_id":"cebpf4jnsgd1na2vs0mg"},{"bike_id":"160c3125-d109-49e3-a687-ede78b99dea2","system_id":"levelo_inurba_marseille","lat":43.23196,"lon":5.35543,"is_reserved":false,"is_disabled":false,"rental_uris":{"android":"levelo://app?vid=160c3125-d109-49e3-a687-ede78b99dea2","ios":"levelo://app?vid=160c3125-d109-49e3-a687-ede78b99dea2"},"vehicle_type_id":"4","last_reported":1730398340,"current_range_meters":34000,"station_id":"ce4bhu92rcd13ifvqi70","pricing_plan_id":"cebpf4jnsgd1na2vs0mg"},{"bike_id":"d93ceb2b-2576-4335-8e1c-fe39a92d1174","system_id":"levelo_inurba_marseille","lat":43.27176,"lon":5.40993,"is_reserved":false,"is_disabled":false,"rental_uris":{"android":"levelo://app?vid=d93ceb2b-2576-4335-8e1c-fe39a92d1174","ios":"levelo://app?vid=d93ceb2b-2576-4335-8e1c-fe39a92d1174"},"vehicle_type_id":"4","last_reported":1730398340,"current_range_meters":38800,"station_id":"ce4bhl12rcd13ifvqgf0","pricing_plan_id":"cebpf4jnsgd1na2vs0mg"},{"bike_id":"6573b206-49b3-4050-a7ae-5c815e7e3b9b","system_id":"levelo_inurba_marseille","lat":43.29515,"lon":5.39033,"is_reserved":false,"is_disabled":false,"rental_uris":{"android":"levelo://app?vid=6573b206-49b3-4050-a7ae-5c815e7e3b9b","ios":"levelo://app?vid=6573b206-49b3-4050-a7ae-5c815e7e3b9b"},"vehicle_type_id":"4","last_reported":1730398340,"current_range_meters":38800,"station_id":"ce4bh3p2rcd13ifvqdp0","pricing_plan_id":"cebpf4jnsgd1na2vs0mg"},{"bike_id":"601b8f66-23fd-4f0d-9eed-a84664740c4a","system_id":"levelo_inurba_marseille","lat":43.28156,"lon":5.42643,"is_reserved":false,"is_disabled":false,"rental_uris":{"android":"levelo://app?vid=601b8f66-23fd-4f0d-9eed-a84664740c4a","ios":"levelo://app?vid=601b8f66-23fd-4f0d-9eed-a84664740c4a"},"vehicle_type_id":"4","last_reported":1730398340,"current_range_meters":8800,"station_id":"ce4bhnh2rcd13ifvqgug","pricing_plan_id":"cebpf4jnsgd1na2vs0mg"},{"bike_id":"9f4b3ed9-8fdf-49ee-82b0-52062da6c3cd","system_id":"levelo_inurba_marseille","lat":43.29496,"lon":5.38601,"is_reserved":false,"is_disabled":false,"rental_uris":{"android":"levelo://app?vid=9f4b3ed9-8fdf-49ee-82b0-52062da6c3cd","ios":"levelo://app?vid=9f4b3ed9-8fdf-49ee-82b0-52062da6c3cd"},"vehicle_type_id":"4","last_reported":1730398340,"current_range_meters":22400,"station_id":"ce4bgih2rcd13ifvqba0","pricing_plan_id":"cebpf4jnsgd1na2vs0mg"},{"bike_id":"ce397cf0-1ea8-4b46-9d35-02c0a5c7da40","system_id":"levelo_inurba_marseille","lat":43.33024,"lon":5.39039,"is_reserved":false,"is_disabled":false,"rental_uris":{"android":"levelo://app?vid=ce397cf0-1ea8-4b46-9d35-02c0a5c7da40","ios":"levelo://app?vid=ce397cf0-1ea8-4b46-9d35-02c0a5c7da40"},"vehicle_type_id":"4","last_reported":1730398340,"current_range_meters":25200,"station_id":"ce4bhr92rcd13ifvqhrg","pricing_plan_id":"cebpf4jnsgd1na2vs0mg"},{"bike_id":"71d10f41-2ffe-4394-bc10-bfa4bb58be1e","system_id":"levelo_inurba_marseille","lat":43.32346,"lon":5.40624,"is_reserved":false,"is_disabled":false,"rental_uris":{"android":"levelo://app?vid=71d10f41-2ffe-4394-bc10-bfa4bb58be1e","ios":"levelo://app?vid=71d10f41-2ffe-4394-bc10-bfa4bb58be1e"},"vehicle_type_id":"4","last_reported":1730398340,"current_range_meters":27600,"station_id":"ce4bhq92rcd13ifvqhjg","pricing_plan_id":"cebpf4jnsgd1na2vs0mg"},{"bike_id":"1c0f21af-322e-422d-b909-77c792bda765","system_id":"levelo_inurba_marseille","lat":43.2706,"lon":5.40257,"is_reserved":false,"is_disabled":false,"rental_uris":{"android":"levelo://app?vid=1c0f21af-322e-422d-b909-77c792bda765","ios":"levelo://app?vid=1c0f21af-322e-422d-b909-77c792bda765"},"vehicle_type_id":"4","last_reported":1730398340,"current_range_meters":38400,"station_id":"ce4bhk92rcd13ifvqgc0","pricing_plan_id":"cebpf4jnsgd1na2vs0mg"},{"bike_id":"b5f5bea2-b214-47b2-93cf-314130ff2bd6","system_id":"levelo_inurba_marseille","lat":43.29396,"lon":5.41244,"is_reserved":false,"is_disabled":false,"rental_uris":{"android":"levelo://app?vid=b5f5bea2-b214-47b2-93cf-314130ff2bd6","ios":"levelo://app?vid=b5f5bea2-b214-47b2-93cf-314130ff2bd6"},"vehicle_type_id":"4","last_reported":1730398340,"current_range_meters":22400,"station_id":"ce4bh192rcd13ifvqdc0","pricing_plan_id":"cebpf4jnsgd1na2vs0mg"},{"bike_id":"7169ef0c-fe6d-4ae2-a9a8-aa0275509a18","system_id":"levelo_inurba_marseille","lat":43.25499,"lon":5.37651,"is_reserved":false,"is_disabled":false,"rental_uris":{"android":"levelo://app?vid=7169ef0c-fe6d-4ae2-a9a8-aa0275509a18","ios":"levelo://app?vid=7169ef0c-fe6d-4ae2-a9a8-aa0275509a18"},"vehicle_type_id":"4","last_reported":1730398340,"current_range_meters":26000,"station_id":"ce4bhh12rcd13ifvqff0","pricing_plan_id":"cebpf4jnsgd1na2vs0mg"},{"bike_id":"2ce794df-a0b6-4849-a769-c07cbb46106b","system_id":"levelo_inurba_marseille","lat":43.29262,"lon":5.37948,"is_reserved":false,"is_disabled":false,"rental_uris":{"android":"levelo://app?vid=2ce794df-a0b6-4849-a769-c07cbb46106b","ios":"levelo://app?vid=2ce794df-a0b6-4849-a769-c07cbb46106b"},"vehicle_type_id":"4","last_reported":1730398340,"current_range_meters":32400,"station_id":"","pricing_plan_id":"cebpf4jnsgd1na2vs0mg"},{"bike_id":"9f484761-4c0a-458c-86b8-04d8e3a34207","system_id":"levelo_inurba_marseille","lat":43.24177,"lon":5.39735,"is_reserved":false,"is_disabled":false,"rental_uris":{"android":"levelo://app?vid=9f484761-4c0a-458c-86b8-04d8e3a34207","ios":"levelo://app?vid=9f484761-4c0a-458c-86b8-04d8e3a34207"},"vehicle_type_id":"4","last_reported":1730398340,"current_range_meters":28400,"station_id":"ce4bhn12rcd13ifvqgpg","pricing_plan_id":"cebpf4jnsgd1na2vs0mg"},{"bike_id":"6b930ddf-cf47-40fe-a6f7-caa714f6b62f","system_id":"levelo_inurba_marseille","lat":43.30925,"lon":5.40152,"is_reserved":false,"is_disabled":false,"rental_uris":{"android":"levelo://app?vid=6b930ddf-cf47-40fe-a6f7-caa714f6b62f","ios":"levelo://app?vid=6b930ddf-cf47-40fe-a6f7-caa714f6b62f"},"vehicle_type_id":"4","last_reported":1730398340,"current_range_meters":29600,"station_id":"ce4bgvp2rcd13ifvqct0","pricing_plan_id":"cebpf4jnsgd1na2vs0mg"},{"bike_id":"e79f8a6b-ba79-410e-a5f2-5250ede19608","system_id":"levelo_inurba_marseille","lat":43.23962,"lon":5.3663,"is_reserved":false,"is_disabled":false,"rental_uris":{"android":"levelo://app?vid=e79f8a6b-ba79-410e-a5f2-5250ede19608","ios":"levelo://app?vid=e79f8a6b-ba79-410e-a5f2-5250ede19608"},"vehicle_type_id":"4","last_reported":1730398340,"current_range_meters":7200,"station_id":"ce4bhi12rcd13ifvqfp0","pricing_plan_id":"cebpf4jnsgd1na2vs0mg"},{"bike_id":"2ad52b9d-dc96-44f3-ac4e-4b4e9119db2f","system_id":"levelo_inurba_marseille","lat":43.29555,"lon":5.42294,"is_reserved":false,"is_disabled":false,"rental_uris":{"android":"levelo://app?vid=2ad52b9d-dc96-44f3-ac4e-4b4e9119db2f","ios":"levelo://app?vid=2ad52b9d-dc96-44f3-ac4e-4b4e9119db2f"},"vehicle_type_id":"4","last_reported":1730398340,"current_range_meters":25200,"station_id":"ce4bhph2rcd13ifvqhdg","pricing_plan_id":"cebpf4jnsgd1na2vs0mg"},{"bike_id":"6fe95313-e873-4982-8420-95fec21f0b5f","system_id":"levelo_inurba_marseille","lat":43.31991,"lon":5.38153,"is_reserved":false,"is_disabled":false,"rental_uris":{"android":"levelo://app?vid=6fe95313-e873-4982-8420-95fec21f0b5f","ios":"levelo://app?vid=6fe95313-e873-4982-8420-95fec21f0b5f"},"vehicle_type_id":"4","last_reported":1730398340,"current_range_meters":24000,"station_id":"ce4bhr12rcd13ifvqhpg","pricing_plan_id":"cebpf4jnsgd1na2vs0mg"},{"bike_id":"e8293b4e-059a-4396-9bed-846c599622d5","system_id":"levelo_inurba_marseille","lat":43.27179,"lon":5.4099,"is_reserved":false,"is_disabled":false,"rental_uris":{"android":"levelo://app?vid=e8293b4e-059a-4396-9bed-846c599622d5","ios":"levelo://app?vid=e8293b4e-059a-4396-9bed-846c599622d5"},"vehicle_type_id":"4","last_reported":1730398340,"current_range_meters":38800,"station_id":"ce4bhl12rcd13ifvqgf0","pricing_plan_id":"cebpf4jnsgd1na2vs0mg"},{"bike_id":"d22e09bb-dafa-464b-bd89-da281c0b87cf","system_id":"levelo_inurba_marseille","lat":43.30237,"lon":5.40064,"is_reserved":false,"is_disabled":false,"rental_uris":{"android":"levelo://app?vid=d22e09bb-dafa-464b-bd89-da281c0b87cf","ios":"levelo://app?vid=d22e09bb-dafa-464b-bd89-da281c0b87cf"},"vehicle_type_id":"4","last_reported":1730398340,"current_range_meters":24400,"station_id":"ce4bgvh2rcd13ifvqcs0","pricing_plan_id":"cebpf4jnsgd1na2vs0mg"},{"bike_id":"2e679aa2-6222-4666-94d2-8febbbac34cf","system_id":"levelo_inurba_marseille","lat":43.28942,"lon":5.48071,"is_reserved":false,"is_disabled":false,"rental_uris":{"android":"levelo://app?vid=2e679aa2-6222-4666-94d2-8febbbac34cf","ios":"levelo://app?vid=2e679aa2-6222-4666-94d2-8febbbac34cf"},"vehicle_type_id":"4","last_reported":1730398340,"current_range_meters":10800,"station_id":"ce4bgvp2rcd13ifvqct0","pricing_plan_id":"cebpf4jnsgd1na2vs0mg"},{"bike_id":"3109fae2-c3ea-4fe2-995b-1cb86118b057","system_id":"levelo_inurba_marseille","lat":43.30206,"lon":5.39466,"is_reserved":false,"is_disabled":false,"rental_uris":{"android":"levelo://app?vid=3109fae2-c3ea-4fe2-995b-1cb86118b057","ios":"levelo://app?vid=3109fae2-c3ea-4fe2-995b-1cb86118b057"},"vehicle_type_id":"4","last_reported":1730398340,"current_range_meters":38800,"station_id":"ce4bh0p2rcd13ifvqd70","pricing_plan_id":"cebpf4jnsgd1na2vs0mg"},{"bike_id":"c2f1f60e-4da7-4ef6-8db0-1291cb12ffe0","system_id":"levelo_inurba_marseille","lat":43.292623,"lon":5.384453,"is_reserved":false,"is_disabled":false,"rental_uris":{"android":"levelo://app?vid=c2f1f60e-4da7-4ef6-8db0-1291cb12ffe0","ios":"levelo://app?vid=c2f1f60e-4da7-4ef6-8db0-1291cb12ffe0"},"vehicle_type_id":"4","last_reported":1730398340,"current_range_meters":20000,"station_id":"ce4bh692rcd13ifvqea0","pricing_plan_id":"cebpf4jnsgd1na2vs0mg"},{"bike_id":"0483bfa3-11fd-4a1f-8173-f5ded1239110","system_id":"levelo_inurba_marseille","lat":43.23968,"lon":5.36639,"is_reserved":false,"is_disabled":false,"rental_uris":{"android":"levelo://app?vid=0483bfa3-11fd-4a1f-8173-f5ded1239110","ios":"levelo://app?vid=0483bfa3-11fd-4a1f-8173-f5ded1239110"},"vehicle_type_id":"4","last_reported":1730398340,"current_range_meters":39200,"station_id":"ce4bhi12rcd13ifvqfp0","pricing_plan_id":"cebpf4jnsgd1na2vs0mg"},{"bike_id":"b88053c0-3809-4101-8975-e0f82a1bcb5d","system_id":"levelo_inurba_marseille","lat":43.30874,"lon":5.3971,"is_reserved":false,"is_disabled":false,"rental_uris":{"android":"levelo://app?vid=b88053c0-3809-4101-8975-e0f82a1bcb5d","ios":"levelo://app?vid=b88053c0-3809-4101-8975-e0f82a1bcb5d"},"vehicle_type_id":"4","last_reported":1730398340,"current_range_meters":14400,"station_id":"","pricing_plan_id":"cebpf4jnsgd1na2vs0mg"},{"bike_id":"f5beaaad-8417-4e05-9e45-532f96b8c7bf","system_id":"levelo_inurba_marseille","lat":43.30413,"lon":5.41287,"is_reserved":false,"is_disabled":false,"rental_uris":{"android":"levelo://app?vid=f5beaaad-8417-4e05-9e45-532f96b8c7bf","ios":"levelo://app?vid=f5beaaad-8417-4e05-9e45-532f96b8c7bf"},"vehicle_type_id":"4","last_reported":1730398340,"current_range_meters":39200,"station_id":"ce4bhop2rcd13ifvqh8g","pricing_plan_id":"cebpf4jnsgd1na2vs0mg"},{"bike_id":"33da830b-0f1c-40ec-8164-544727b20945","system_id":"levelo_inurba_marseille","lat":43.29535,"lon":5.3854,"is_reserved":false,"is_disabled":false,"rental_uris":{"android":"levelo://app?vid=33da830b-0f1c-40ec-8164-544727b20945","ios":"levelo://app?vid=33da830b-0f1c-40ec-8164-544727b20945"},"vehicle_type_id":"4","last_reported":1730398340,"current_range_meters":2800,"station_id":"ce4bgih2rcd13ifvqba0","pricing_plan_id":"cebpf4jnsgd1na2vs0mg"},{"bike_id":"d7b11ea7-002a-4efd-994b-9a9df4e42526","system_id":"levelo_inurba_marseille","lat":43.30238,"lon":5.4006,"is_reserved":false,"is_disabled":false,"rental_uris":{"android":"levelo://app?vid=d7b11ea7-002a-4efd-994b-9a9df4e42526","ios":"levelo://app?vid=d7b11ea7-002a-4efd-994b-9a9df4e42526"},"vehicle_type_id":"4","last_reported":1730398340,"current_range_meters":14800,"station_id":"ce4bgvh2rcd13ifvqcs0","pricing_plan_id":"cebpf4jnsgd1na2vs0mg"},{"bike_id":"ed279d38-b7eb-4b14-96b9-94c615824290","system_id":"levelo_inurba_marseille","lat":43.23198,"lon":5.3555,"is_reserved":false,"is_disabled":false,"rental_uris":{"android":"levelo://app?vid=ed279d38-b7eb-4b14-96b9-94c615824290","ios":"levelo://app?vid=ed279d38-b7eb-4b14-96b9-94c615824290"},"vehicle_type_id":"4","last_reported":1730398340,"current_range_meters":19200,"station_id":"ce4bhu92rcd13ifvqi70","pricing_plan_id":"cebpf4jnsgd1na2vs0mg"},{"bike_id":"8a747cb8-f6a1-4bc2-96fb-18e7dee5de4b","system_id":"levelo_inurba_marseille","lat":43.24646,"lon":5.38898,"is_reserved":false,"is_disabled":false,"rental_uris":{"android":"levelo://app?vid=8a747cb8-f6a1-4bc2-96fb-18e7dee5de4b","ios":"levelo://app?vid=8a747cb8-f6a1-4bc2-96fb-18e7dee5de4b"},"vehicle_type_id":"4","last_reported":1730398340,"current_range_meters":38400,"station_id":"ce4bhg12rcd13ifvqf60","pricing_plan_id":"cebpf4jnsgd1na2vs0mg"},{"bike_id":"aab39834-2a16-4c02-84ed-6e5d4ecaa4c2","system_id":"levelo_inurba_marseille","lat":43.29552,"lon":5.42284,"is_reserved":false,"is_disabled":false,"rental_uris":{"android":"levelo://app?vid=aab39834-2a16-4c02-84ed-6e5d4ecaa4c2","ios":"levelo://app?vid=aab39834-2a16-4c02-84ed-6e5d4ecaa4c2"},"vehicle_type_id":"4","last_reported":1730398340,"current_range_meters":31200,"station_id":"ce4bhph2rcd13ifvqhdg","pricing_plan_id":"cebpf4jnsgd1na2vs0mg"},{"bike_id":"4b830b54-15ec-473a-b398-9421abafadac","system_id":"levelo_inurba_marseille","lat":43.27814,"lon":5.40721,"is_reserved":false,"is_disabled":false,"rental_uris":{"android":"levelo://app?vid=4b830b54-15ec-473a-b398-9421abafadac","ios":"levelo://app?vid=4b830b54-15ec-473a-b398-9421abafadac"},"vehicle_type_id":"4","last_reported":1730398340,"current_range_meters":2000,"station_id":"ce4bhnh2rcd13ifvqgtg","pricing_plan_id":"cebpf4jnsgd1na2vs0mg"},{"bike_id":"ae465581-6788-4f38-bb06-d2e0533545d6","system_id":"levelo_inurba_marseille","lat":43.23203,"lon":5.35553,"is_reserved":false,"is_disabled":false,"rental_uris":{"android":"levelo://app?vid=ae465581-6788-4f38-bb06-d2e0533545d6","ios":"levelo://app?vid=ae465581-6788-4f38-bb06-d2e0533545d6"},"vehicle_type_id":"4","last_reported":1730398340,"current_range_meters":32400,"station_id":"ce4bhu92rcd13ifvqi70","pricing_plan_id":"cebpf4jnsgd1na2vs0mg"},{"bike_id":"52c46e1a-7d45-4390-8545-7d9353aa4459","system_id":"levelo_inurba_marseille","lat":43.29872,"lon":5.39748,"is_reserved":false,"is_disabled":false,"rental_uris":{"android":"levelo://app?vid=52c46e1a-7d45-4390-8545-7d9353aa4459","ios":"levelo://app?vid=52c46e1a-7d45-4390-8545-7d9353aa4459"},"vehicle_type_id":"4","last_reported":1730398340,"current_range_meters":38000,"station_id":"ce4bh0h2rcd13ifvqd50","pricing_plan_id":"cebpf4jnsgd1na2vs0mg"},{"bike_id":"6d49e9bc-4d5b-4918-bf60-89875974cbb0","system_id":"levelo_inurba_marseille","lat":43.29255,"lon":5.40912,"is_reserved":false,"is_disabled":false,"rental_uris":{"android":"levelo://app?vid=6d49e9bc-4d5b-4918-bf60-89875974cbb0","ios":"levelo://app?vid=6d49e9bc-4d5b-4918-bf60-89875974cbb0"},"vehicle_type_id":"4","last_reported":1730398340,"current_range_meters":8400,"station_id":"ce4bh192rcd13ifvqdc0","pricing_plan_id":"cebpf4jnsgd1na2vs0mg"},{"bike_id":"36fb883f-bf2b-463b-b62f-52724aa97e7d","system_id":"levelo_inurba_marseille","lat":43.28027,"lon":5.36945,"is_reserved":false,"is_disabled":false,"rental_uris":{"android":"levelo://app?vid=36fb883f-bf2b-463b-b62f-52724aa97e7d","ios":"levelo://app?vid=36fb883f-bf2b-463b-b62f-52724aa97e7d"},"vehicle_type_id":"4","last_reported":1730398340,"current_range_meters":4000,"station_id":"ce4bha12rcd13ifvqef0","pricing_plan_id":"cebpf4jnsgd1na2vs0mg"},{"bike_id":"693995a9-d2a0-4a1f-b0f0-563502c5d22c","system_id":"levelo_inurba_marseille","lat":43.27432,"lon":5.39421,"is_reserved":false,"is_disabled":false,"rental_uris":{"android":"levelo://app?vid=693995a9-d2a0-4a1f-b0f0-563502c5d22c","ios":"levelo://app?vid=693995a9-d2a0-4a1f-b0f0-563502c5d22c"},"vehicle_type_id":"4","last_reported":1730398340,"current_range_meters":38800,"station_id":"ce4bhdp2rcd13ifvqf20","pricing_plan_id":"cebpf4jnsgd1na2vs0mg"},{"bike_id":"b0218894-9343-49c5-84f1-f9216b9df020","system_id":"levelo_inurba_marseille","lat":43.29862,"lon":5.3974,"is_reserved":false,"is_disabled":false,"rental_uris":{"android":"levelo://app?vid=b0218894-9343-49c5-84f1-f9216b9df020","ios":"levelo://app?vid=b0218894-9343-49c5-84f1-f9216b9df020"},"vehicle_type_id":"4","last_reported":1730398340,"current_range_meters":38800,"station_id":"ce4bh0h2rcd13ifvqd50","pricing_plan_id":"cebpf4jnsgd1na2vs0mg"},{"bike_id":"0d4e0479-d8a2-45f2-91e0-dd87823320fe","system_id":"levelo_inurba_marseille","lat":43.33777,"lon":5.37469,"is_reserved":false,"is_disabled":false,"rental_uris":{"android":"levelo://app?vid=0d4e0479-d8a2-45f2-91e0-dd87823320fe","ios":"levelo://app?vid=0d4e0479-d8a2-45f2-91e0-dd87823320fe"},"vehicle_type_id":"4","last_reported":1730398340,"current_range_meters":29600,"station_id":"","pricing_plan_id":"cebpf4jnsgd1na2vs0mg"},{"bike_id":"c090c972-09c6-4f17-95b2-e68376f4878b","system_id":"levelo_inurba_marseille","lat":43.28485,"lon":5.38557,"is_reserved":false,"is_disabled":false,"rental_uris":{"android":"levelo://app?vid=c090c972-09c6-4f17-95b2-e68376f4878b","ios":"levelo://app?vid=c090c972-09c6-4f17-95b2-e68376f4878b"},"vehicle_type_id":"4","last_reported":1730398340,"current_range_meters":17200,"station_id":"ce4bh8p2rcd13ifvqeb0","pricing_plan_id":"cebpf4jnsgd1na2vs0mg"},{"bike_id":"3fb36b4d-6127-41ed-a4bc-04b76eddb2d7","system_id":"levelo_inurba_marseille","lat":43.24069,"lon":5.37767,"is_reserved":false,"is_disabled":false,"rental_uris":{"android":"levelo://app?vid=3fb36b4d-6127-41ed-a4bc-04b76eddb2d7","ios":"levelo://app?vid=3fb36b4d-6127-41ed-a4bc-04b76eddb2d7"},"vehicle_type_id":"4","last_reported":1730398340,"current_range_meters":24800,"station_id":"ce4bhnp2rcd13ifvqgvg","pricing_plan_id":"cebpf4jnsgd1na2vs0mg"},{"bike_id":"f3073531-19c3-4b36-b86c-08f4f2fbc0a7","system_id":"levelo_inurba_marseille","lat":43.32335,"lon":5.40627,"is_reserved":false,"is_disabled":false,"rental_uris":{"android":"levelo://app?vid=f3073531-19c3-4b36-b86c-08f4f2fbc0a7","ios":"levelo://app?vid=f3073531-19c3-4b36-b86c-08f4f2fbc0a7"},"vehicle_type_id":"4","last_reported":1730398340,"current_range_meters":20800,"station_id":"ce4bhq92rcd13ifvqhjg","pricing_plan_id":"cebpf4jnsgd1na2vs0mg"},{"bike_id":"e8e74bce-f56c-4367-8c15-1f5c6fa1a6d2","system_id":"levelo_inurba_marseille","lat":43.2799,"lon":5.41659,"is_reserved":false,"is_disabled":false,"rental_uris":{"android":"levelo://app?vid=e8e74bce-f56c-4367-8c15-1f5c6fa1a6d2","ios":"levelo://app?vid=e8e74bce-f56c-4367-8c15-1f5c6fa1a6d2"},"vehicle_type_id":"4","last_reported":1730398340,"current_range_meters":35600,"station_id":"ce4bho12rcd13ifvqh1g","pricing_plan_id":"cebpf4jnsgd1na2vs0mg"},{"bike_id":"353a7447-f509-4441-aaf9-9438df8a0c92","system_id":"levelo_inurba_marseille","lat":43.30252,"lon":5.40081,"is_reserved":false,"is_disabled":false,"rental_uris":{"android":"levelo://app?vid=353a7447-f509-4441-aaf9-9438df8a0c92","ios":"levelo://app?vid=353a7447-f509-4441-aaf9-9438df8a0c92"},"vehicle_type_id":"4","last_reported":1730398340,"current_range_meters":19600,"station_id":"ce4bgvh2rcd13ifvqcs0","pricing_plan_id":"cebpf4jnsgd1na2vs0mg"},{"bike_id":"56c1d460-4708-41f4-a78e-9a4e4df90e69","system_id":"levelo_inurba_marseille","lat":43.33607,"lon":5.41031,"is_reserved":false,"is_disabled":false,"rental_uris":{"android":"levelo://app?vid=56c1d460-4708-41f4-a78e-9a4e4df90e69","ios":"levelo://app?vid=56c1d460-4708-41f4-a78e-9a4e4df90e69"},"vehicle_type_id":"4","last_reported":1730398340,"current_range_meters":8400,"station_id":"ce4bhqh2rcd13ifvqhmg","pricing_plan_id":"cebpf4jnsgd1na2vs0mg"},{"bike_id":"80eb5a19-522e-415a-8b23-941901f32cdf","system_id":"levelo_inurba_marseille","lat":43.29014,"lon":5.38629,"is_reserved":false,"is_disabled":false,"rental_uris":{"android":"levelo://app?vid=80eb5a19-522e-415a-8b23-941901f32cdf","ios":"levelo://app?vid=80eb5a19-522e-415a-8b23-941901f32cdf"},"vehicle_type_id":"4","last_reported":1730398340,"current_range_meters":12400,"station_id":"ce4bh4p2rcd13ifvqe0g","pricing_plan_id":"cebpf4jnsgd1na2vs0mg"},{"bike_id":"4043f0b8-d53c-46f5-9bcd-98c19892b671","system_id":"levelo_inurba_marseille","lat":43.292624,"lon":5.384329,"is_reserved":false,"is_disabled":false,"rental_uris":{"android":"levelo://app?vid=4043f0b8-d53c-46f5-9bcd-98c19892b671","ios":"levelo://app?vid=4043f0b8-d53c-46f5-9bcd-98c19892b671"},"vehicle_type_id":"4","last_reported":1730398340,"current_range_meters":35600,"station_id":"ce4bh692rcd13ifvqea0","pricing_plan_id":"cebpf4jnsgd1na2vs0mg"},{"bike_id":"6f2234db-e08f-4eb9-a35c-73903eb66d66","system_id":"levelo_inurba_marseille","lat":43.29976,"lon":5.38487,"is_reserved":false,"is_disabled":false,"rental_uris":{"android":"levelo://app?vid=6f2234db-e08f-4eb9-a35c-73903eb66d66","ios":"levelo://app?vid=6f2234db-e08f-4eb9-a35c-73903eb66d66"},"vehicle_type_id":"4","last_reported":1730398340,"current_range_meters":38400,"station_id":"ce4bgj92rcd13ifvqbd0","pricing_plan_id":"cebpf4jnsgd1na2vs0mg"},{"bike_id":"5fa3826f-00f7-4a1f-9201-d592f7162ccf","system_id":"levelo_inurba_marseille","lat":43.29266,"lon":5.3843,"is_reserved":false,"is_disabled":false,"rental_uris":{"android":"levelo://app?vid=5fa3826f-00f7-4a1f-9201-d592f7162ccf","ios":"levelo://app?vid=5fa3826f-00f7-4a1f-9201-d592f7162ccf"},"vehicle_type_id":"4","last_reported":1730398340,"current_range_meters":24400,"station_id":"ce4bh692rcd13ifvqea0","pricing_plan_id":"cebpf4jnsgd1na2vs0mg"},{"bike_id":"4c51c8cd-923a-4c75-bd7d-801c4b8f113f","system_id":"levelo_inurba_marseille","lat":43.30879,"lon":5.3964,"is_reserved":false,"is_disabled":false,"rental_uris":{"android":"levelo://app?vid=4c51c8cd-923a-4c75-bd7d-801c4b8f113f","ios":"levelo://app?vid=4c51c8cd-923a-4c75-bd7d-801c4b8f113f"},"vehicle_type_id":"4","last_reported":1730398340,"current_range_meters":18800,"station_id":"ce4bh012rcd13ifvqcv0","pricing_plan_id":"cebpf4jnsgd1na2vs0mg"},{"bike_id":"53a6d53b-6bc5-4f80-b783-860011602993","system_id":"levelo_inurba_marseille","lat":43.28155,"lon":5.42641,"is_reserved":false,"is_disabled":false,"rental_uris":{"android":"levelo://app?vid=53a6d53b-6bc5-4f80-b783-860011602993","ios":"levelo://app?vid=53a6d53b-6bc5-4f80-b783-860011602993"},"vehicle_type_id":"4","last_reported":1730398340,"current_range_meters":10000,"station_id":"ce4bhnh2rcd13ifvqgug","pricing_plan_id":"cebpf4jnsgd1na2vs0mg"},{"bike_id":"e4050b8d-0c3e-4ee2-9f1a-bdb806242570","system_id":"levelo_inurba_marseille","lat":43.26562,"lon":5.37286,"is_reserved":false,"is_disabled":false,"rental_uris":{"android":"levelo://app?vid=e4050b8d-0c3e-4ee2-9f1a-bdb806242570","ios":"levelo://app?vid=e4050b8d-0c3e-4ee2-9f1a-bdb806242570"},"vehicle_type_id":"4","last_reported":1730398340,"current_range_meters":29600,"station_id":"ce4bhg12rcd13ifvqf70","pricing_plan_id":"cebpf4jnsgd1na2vs0mg"},{"bike_id":"0bd71fd0-6b85-431c-9898-2d60585d95a8","system_id":"levelo_inurba_marseille","lat":43.28156,"lon":5.42647,"is_reserved":false,"is_disabled":false,"rental_uris":{"android":"levelo://app?vid=0bd71fd0-6b85-431c-9898-2d60585d95a8","ios":"levelo://app?vid=0bd71fd0-6b85-431c-9898-2d60585d95a8"},"vehicle_type_id":"4","last_reported":1730398340,"current_range_meters":25600,"station_id":"ce4bhnh2rcd13ifvqgug","pricing_plan_id":"cebpf4jnsgd1na2vs0mg"},{"bike_id":"be95d513-9f26-44b4-b3cc-ca39226c2ce7","system_id":"levelo_inurba_marseille","lat":43.30932,"lon":5.40148,"is_reserved":false,"is_disabled":false,"rental_uris":{"android":"levelo://app?vid=be95d513-9f26-44b4-b3cc-ca39226c2ce7","ios":"levelo://app?vid=be95d513-9f26-44b4-b3cc-ca39226c2ce7"},"vehicle_type_id":"4","last_reported":1730398340,"current_range_meters":8400,"station_id":"ce4bgvp2rcd13ifvqct0","pricing_plan_id":"cebpf4jnsgd1na2vs0mg"},{"bike_id":"5b845125-d7b7-4639-81e5-d2c32492bd25","system_id":"levelo_inurba_marseille","lat":43.24651,"lon":5.38895,"is_reserved":false,"is_disabled":false,"rental_uris":{"android":"levelo://app?vid=5b845125-d7b7-4639-81e5-d2c32492bd25","ios":"levelo://app?vid=5b845125-d7b7-4639-81e5-d2c32492bd25"},"vehicle_type_id":"4","last_reported":1730398340,"current_range_meters":8800,"station_id":"ce4bhg12rcd13ifvqf60","pricing_plan_id":"cebpf4jnsgd1na2vs0mg"},{"bike_id":"fc44e6d9-57e9-4fa9-819b-2b8bf8fd4d65","system_id":"levelo_inurba_marseille","lat":43.30094,"lon":5.39075,"is_reserved":false,"is_disabled":false,"rental_uris":{"android":"levelo://app?vid=fc44e6d9-57e9-4fa9-819b-2b8bf8fd4d65","ios":"levelo://app?vid=fc44e6d9-57e9-4fa9-819b-2b8bf8fd4d65"},"vehicle_type_id":"4","last_reported":1730398340,"current_range_meters":9200,"station_id":"ce4bh192rcd13ifvqdb0","pricing_plan_id":"cebpf4jnsgd1na2vs0mg"},{"bike_id":"4c63c1ce-47c5-4ebd-a460-409c30e40c22","system_id":"levelo_inurba_marseille","lat":43.2934,"lon":5.37859,"is_reserved":false,"is_disabled":false,"rental_uris":{"android":"levelo://app?vid=4c63c1ce-47c5-4ebd-a460-409c30e40c22","ios":"levelo://app?vid=4c63c1ce-47c5-4ebd-a460-409c30e40c22"},"vehicle_type_id":"4","last_reported":1730398340,"current_range_meters":16000,"station_id":"ce4bgjh2rcd13ifvqbf0","pricing_plan_id":"cebpf4jnsgd1na2vs0mg"},{"bike_id":"3517966f-e9a6-4058-8f99-89c82a59e77f","system_id":"levelo_inurba_marseille","lat":43.24392,"lon":5.37068,"is_reserved":false,"is_disabled":false,"rental_uris":{"android":"levelo://app?vid=3517966f-e9a6-4058-8f99-89c82a59e77f","ios":"levelo://app?vid=3517966f-e9a6-4058-8f99-89c82a59e77f"},"vehicle_type_id":"4","last_reported":1730398340,"current_range_meters":27600,"station_id":"ce4bhhh2rcd13ifvqfk0","pricing_plan_id":"cebpf4jnsgd1na2vs0mg"},{"bike_id":"d6a79f0e-1ab5-4605-83a3-60133852e507","system_id":"levelo_inurba_marseille","lat":43.31478,"lon":5.37307,"is_reserved":false,"is_disabled":false,"rental_uris":{"android":"levelo://app?vid=d6a79f0e-1ab5-4605-83a3-60133852e507","ios":"levelo://app?vid=d6a79f0e-1ab5-4605-83a3-60133852e507"},"vehicle_type_id":"4","last_reported":1730398340,"current_range_meters":3600,"station_id":"ce4bh012rcd13ifvqcv0","pricing_plan_id":"cebpf4jnsgd1na2vs0mg"},{"bike_id":"165828b1-d06e-4b70-b3a7-636ec8e9ee04","system_id":"levelo_inurba_marseille","lat":43.24165,"lon":5.36392,"is_reserved":false,"is_disabled":false,"rental_uris":{"android":"levelo://app?vid=165828b1-d06e-4b70-b3a7-636ec8e9ee04","ios":"levelo://app?vid=165828b1-d06e-4b70-b3a7-636ec8e9ee04"},"vehicle_type_id":"4","last_reported":1730398340,"current_range_meters":32000,"station_id":"cpo36qri1sfpv3e86is0","pricing_plan_id":"cebpf4jnsgd1na2vs0mg"},{"bike_id":"13ce5f24-ff1c-4f98-b960-5a7836b67c8e","system_id":"levelo_inurba_marseille","lat":43.29538,"lon":5.3855,"is_reserved":false,"is_disabled":false,"rental_uris":{"android":"levelo://app?vid=13ce5f24-ff1c-4f98-b960-5a7836b67c8e","ios":"levelo://app?vid=13ce5f24-ff1c-4f98-b960-5a7836b67c8e"},"vehicle_type_id":"4","last_reported":1730398340,"current_range_meters":19200,"station_id":"ce4bgih2rcd13ifvqba0","pricing_plan_id":"cebpf4jnsgd1na2vs0mg"},