{"last_updated":1691435071,"ttl":30,"version":"2.2","data":{"bikes":[{"bike_id":"796dacdc-b66d-46b4-8792-dd7b1a138900","system_id":"levelo_inurba_marseille","lat":43.31332,"lon":5.36715,"is_reserved":false,"is_disabled":false,"rental_uris":{"android":"levelo://app?vid=796dacdc-b66d-46b4-8792-dd7b1a138900","ios":"levelo://app?vid=796dacdc-b66d-46b4-8792-dd7b1a138900"},"vehicle_type_id":"4","last_reported":1691435071,"current_range_meters":30800,"station_id":"ce4bgr92rcd13ifvqc6g","pricing_plan_id":"free"},{"bike_id":"752a8739-f579-441d-b652-d8998a9f829a","system_id":"levelo_inurba_marseille","lat":43.309076,"lon":5.368465,"is_reserved":false,"is_disabled":false,"rental_uris":{"android":"levelo://app?vid=752a8739-f579-441d-b652-d8998a9f829a","ios":"levelo://app?vid=752a8739-f579-441d-b652-d8998a9f829a"},"vehicle_type_id":"4","last_reported":1691435071,"current_range_meters":4000,"station_id":"ce4bgn92rcd13ifvqbvg","pricing_plan_id":"free"},{"bike_id":"f023148f-cdaa-4c04-ae33-acb0cd40c53a","system_id":"levelo_inurba_marseille","lat":43.309076,"lon":5.368465,"is_reserved":false,"is_disabled":false,"rental_uris":{"android":"levelo://app?vid=f023148f-cdaa-4c04-ae33-acb0cd40c53a","ios":"levelo://app?vid=f023148f-cdaa-4c04-ae33-acb0cd40c53a"},"vehicle_type_id":"4","last_reported":1691435071,"current_range_meters":0,"station_id":"ce4bgn92rcd13ifvqbvg","pricing_plan_id":"free"},{"bike_id":"a1975e34-d95a-41fd-a679-0a5ffb8a2810","system_id":"levelo_inurba_marseille","lat":43.314811,"lon":5.373103,"is_reserved":false,"is_disabled":false,"rental_uris":{"android":"levelo://app?vid=a1975e34-d95a-41fd-a679-0a5ffb8a2810","ios":"levelo://app?vid=a1975e34-d95a-41fd-a679-0a5ffb8a2810"},"vehicle_type_id":"4","last_reported":1691435071,"current_range_meters":11600,"station_id":"ce4bgt12rcd13ifvqcd0","pricing_plan_id":"free"},{"bike_id":"bb5c72c2-30a0-434c-a8a0-c09a135b9fa8","system_id":"levelo_inurba_marseille","lat":43.30883,"lon":5.37204,"is_reserved":false,"is_disabled":false,"rental_uris":{"android":"levelo://app?vid=bb5c72c2-30a0-434c-a8a0-c09a135b9fa8","ios":"levelo://app?vid=bb5c72c2-30a0-434c-a8a0-c09a135b9fa8"},"vehicle_type_id":"4","last_reported":1691435071,"current_range_meters":5600,"station_id":"ce4bguh2rcd13ifvqckg","pricing_plan_id":"free"},{"bike_id":"d776e59d-bca4-45be-bb72-4248c420c688","system_id":"levelo_inurba_marseille","lat":43.305413,"lon":5.367291,"is_reserved":false,"is_disabled":false,"rental_uris":{"android":"levelo://app?vid=d776e59d-bca4-45be-bb72-4248c420c688","ios":"levelo://app?vid=d776e59d-bca4-45be-bb72-4248c420c688"},"vehicle_type_id":"4","last_reported":1691435071,"current_range_meters":24000,"station_id":"ce4bgrp2rcd13ifvqc9g","pricing_plan_id":"free"},{"bike_id":"e37038ea-a323-42d8-a0a3-9d2b0f526782","system_id":"levelo_inurba_marseille","lat":43.305989,"lon":5.37225,"is_reserved":false,"is_disabled":false,"rental_uris":{"android":"levelo://app?vid=e37038ea-a323-42d8-a0a3-9d2b0f526782","ios":"levelo://app?vid=e37038ea-a323-42d8-a0a3-9d2b0f526782"},"vehicle_type_id":"4","last_reported":1691435071,"current_range_meters":3600,"station_id":"ce4bgqh2rcd13ifvqc4g","pricing_plan_id":"free"},{"bike_id":"f20ea888-8740-440b-bfeb-8eb2a7c1f652","system_id":"levelo_inurba_marseille","lat":43.305989,"lon":5.37225,"is_reserved":false,"is_disabled":false,"rental_uris":{"android":"levelo://app?vid=f20ea888-8740-440b-bfeb-8eb2a7c1f652","ios":"levelo://app?vid=f20ea888-8740-440b-bfeb-8eb2a7c1f652"},"vehicle_type_id":"4","last_reported":1691435071,"current_range_meters":31600,"station_id":"ce4bgqh2rcd13ifvqc4g","pricing_plan_id":"free"},{"bike_id":"e4caf5c2-af26-4807-a551-c2dbd4ccb58f","system_id":"levelo_inurba_marseille","lat":43.305989,"lon":5.37225,"is_reserved":false,"is_disabled":false,"rental_uris":{"android":"levelo://app?vid=e4caf5c2-af26-4807-a551-c2dbd4ccb58f","ios":"levelo://app?vid=e4caf5c2-af26-4807-a551-c2dbd4ccb58f"},"vehicle_type_id":"4","last_reported":1691435071,"current_range_meters":18400,"station_id":"ce4bgqh2rcd13ifvqc4g","pricing_plan_id":"free"},{"bike_id":"60ef2b75-96ee-41b0-89d3-5e4eb4de76e4","system_id":"levelo_inurba_marseille","lat":43.311131,"lon":5.377651,"is_reserved":false,"is_disabled":false,"rental_uris":{"android":"levelo://app?vid=60ef2b75-96ee-41b0-89d3-5e4eb4de76e4","ios":"levelo://app?vid=60ef2b75-96ee-41b0-89d3-5e4eb4de76e4"},"vehicle_type_id":"4","last_reported":1691435071,"current_range_meters":15600,"station_id":"ce4bgt92rcd13ifvqcg0","pricing_plan_id":"free"},{"bike_id":"aac8ca63-b192-4a28-bf8d-d8303fd2c89d","system_id":"levelo_inurba_marseille","lat":43.30431,"lon":5.3676,"is_reserved":false,"is_disabled":false,"rental_uris":{"android":"levelo://app?vid=aac8ca63-b192-4a28-bf8d-d8303fd2c89d","ios":"levelo://app?vid=aac8ca63-b192-4a28-bf8d-d8303fd2c89d"},"vehicle_type_id":"4","last_reported":1691435071,"current_range_meters":16400,"station_id":"","pricing_plan_id":"free"},{"bike_id":"1c85d8c5-ba46-4a51-a131-c2112a743d5a","system_id":"levelo_inurba_marseille","lat":43.30783,"lon":5.37647,"is_reserved":false,"is_disabled":false,"rental_uris":{"android":"levelo://app?vid=1c85d8c5-ba46-4a51-a131-c2112a743d5a","ios":"levelo://app?vid=1c85d8c5-ba46-4a51-a131-c2112a743d5a"},"vehicle_type_id":"4","last_reported":1691435071,"current_range_meters":14000,"station_id":"ce4bgv92rcd13ifvqcq0","pricing_plan_id":"free"},{"bike_id":"36ea8287-97db-4eee-ac55-8ca09c6322ac","system_id":"levelo_inurba_marseille","lat":43.317075,"lon":5.377367,"is_reserved":false,"is_disabled":false,"rental_uris":{"android":"levelo://app?vid=36ea8287-97db-4eee-ac55-8ca09c6322ac","ios":"levelo://app?vid=36ea8287-97db-4eee-ac55-8ca09c6322ac"},"vehicle_type_id":"4","last_reported":1691435071,"current_range_meters":31600,"station_id":"ce4bgth2rcd13ifvqch0","pricing_plan_id":"free"},{"bike_id":"051ff64c-3830-4be8-b601-4a94295b573e","system_id":"levelo_inurba_marseille","lat":43.31527,"lon":5.38043,"is_reserved":false,"is_disabled":false,"rental_uris":{"android":"levelo://app?vid=051ff64c-3830-4be8-b601-4a94295b573e","ios":"levelo://app?vid=051ff64c-3830-4be8-b601-4a94295b573e"},"vehicle_type_id":"4","last_reported":1691435071,"current_range_meters":6400,"station_id":"ce4bhsp2rcd13ifvqi50","pricing_plan_id":"free"},{"bike_id":"f6dfe85b-fa49-4255-a9af-0a965a61d92f","system_id":"levelo_inurba_marseille","lat":43.30189,"lon":5.36608,"is_reserved":false,"is_disabled":false,"rental_uris":{"android":"levelo://app?vid=f6dfe85b-fa49-4255-a9af-0a965a61d92f","ios":"levelo://app?vid=f6dfe85b-fa49-4255-a9af-0a965a61d92f"},"vehicle_type_id":"4","last_reported":1691435071,"current_range_meters":10800,"station_id":"ce4bgrh2rcd13ifvqc8g","pricing_plan_id":"free"},{"bike_id":"c2885d40-5a4c-4596-b0a7-5ac632cc200e","system_id":"levelo_inurba_marseille","lat":43.301939,"lon":5.366286,"is_reserved":false,"is_disabled":false,"rental_uris":{"android":"levelo://app?vid=c2885d40-5a4c-4596-b0a7-5ac632cc200e","ios":"levelo://app?vid=c2885d40-5a4c-4596-b0a7-5ac632cc200e"},"vehicle_type_id":"4","last_reported":1691435071,"current_range_meters":27200,"station_id":"ce4bgrh2rcd13ifvqc8g","pricing_plan_id":"free"},{"bike_id":"5fa6aa62-dd7f-4570-854c-792e5037c9d3","system_id":"levelo_inurba_marseille","lat":43.30801,"lon":5.38151,"is_reserved":false,"is_disabled":false,"rental_uris":{"android":"levelo://app?vid=5fa6aa62-dd7f-4570-854c-792e5037c9d3","ios":"levelo://app?vid=5fa6aa62-dd7f-4570-854c-792e5037c9d3"},"vehicle_type_id":"4","last_reported":1691435071,"current_range_meters":24000,"station_id":"ce4bgt12rcd13ifvqce0","pricing_plan_id":"free"},{"bike_id":"1a0527b8-be27-4bea-b624-5bbc0f156e07","system_id":"levelo_inurba_marseille","lat":43.304606,"lon":5.379026,"is_reserved":false,"is_disabled":false,"rental_uris":{"android":"levelo://app?vid=1a0527b8-be27-4bea-b624-5bbc0f156e07","ios":"levelo://app?vid=1a0527b8-be27-4bea-b624-5bbc0f156e07"},"vehicle_type_id":"4","last_reported":1691435071,"current_range_meters":28800,"station_id":"ce4bgup2rcd13ifvqcn0","pricing_plan_id":"free"},{"bike_id":"971ac98a-5566-4f44-b015-6a93a07d6844","system_id":"levelo_inurba_marseille","lat":43.304606,"lon":5.379026,"is_reserved":false,"is_disabled":false,"rental_uris":{"android":"levelo://app?vid=971ac98a-5566-4f44-b015-6a93a07d6844","ios":"levelo://app?vid=971ac98a-5566-4f44-b015-6a93a07d6844"},"vehicle_type_id":"4","last_reported":1691435071,"current_range_meters":25600,"station_id":"ce4bgup2rcd13ifvqcn0","pricing_plan_id":"free"},{"bike_id":"c43ba353-0a2f-44b9-8014-86f2733dfe2b","system_id":"levelo_inurba_marseille","lat":43.304606,"lon":5.379026,"is_reserved":false,"is_disabled":false,"rental_uris":{"android":"levelo://app?vid=c43ba353-0a2f-44b9-8014-86f2733dfe2b","ios":"levelo://app?vid=c43ba353-0a2f-44b9-8014-86f2733dfe2b"},"vehicle_type_id":"4","last_reported":1691435071,"current_range_meters":31200,"station_id":"ce4bgup2rcd13ifvqcn0","pricing_plan_id":"free"},{"bike_id":"cad49ac2-8286-4441-b02f-a0d143979ad2","system_id":"levelo_inurba_marseille","lat":43.304606,"lon":5.379026,"is_reserved":false,"is_disabled":false,"rental_uris":{"android":"levelo://app?vid=cad49ac2-8286-4441-b02f-a0d143979ad2","ios":"levelo://app?vid=cad49ac2-8286-4441-b02f-a0d143979ad2"},"vehicle_type_id":"4","last_reported":1691435071,"current_range_meters":16400,"station_id":"ce4bgup2rcd13ifvqcn0","pricing_plan_id":"free"},{"bike_id":"572f12a0-c8c0-4e61-a360-3f027a3edd3f","system_id":"levelo_inurba_marseille","lat":43.304606,"lon":5.379026,"is_reserved":false,"is_disabled":false,"rental_uris":{"android":"levelo://app?vid=572f12a0-c8c0-4e61-a360-3f027a3edd3f","ios":"levelo://app?vid=572f12a0-c8c0-4e61-a360-3f027a3edd3f"},"vehicle_type_id":"4","last_reported":1691435071,"current_range_meters":31600,"station_id":"ce4bgup2rcd13ifvqcn0","pricing_plan_id":"free"},{"bike_id":"ac6e760d-3237-40b6-b517-8f650ea924b4","system_id":"levelo_inurba_marseille","lat":43.304606,"lon":5.379026,"is_reserved":false,"is_disabled":false,"rental_uris":{"android":"levelo://app?vid=ac6e760d-3237-40b6-b517-8f650ea924b4","ios":"levelo://app?vid=ac6e760d-3237-40b6-b517-8f650ea924b4"},"vehicle_type_id":"4","last_reported":1691435071,"current_range_meters":14000,"station_id":"ce4bgup2rcd13ifvqcn0","pricing_plan_id":"free"},{"bike_id":"5f428b52-5794-4306-9043-cde77f9a4ec3","system_id":"levelo_inurba_marseille","lat":43.304606,"lon":5.379026,"is_reserved":false,"is_disabled":false,"rental_uris":{"android":"levelo://app?vid=5f428b52-5794-4306-9043-cde77f9a4ec3","ios":"levelo://app?vid=5f428b52-5794-4306-9043-cde77f9a4ec3"},"vehicle_type_id":"4","last_reported":1691435071,"current_range_meters":23600,"station_id":"ce4bgup2rcd13ifvqcn0","pricing_plan_id":"free"},{"bike_id":"476a2b08-de9e-49d0-983e-1fcf3440c49e","system_id":"levelo_inurba_marseille","lat":43.304606,"lon":5.379026,"is_reserved":false,"is_disabled":false,"rental_uris":{"android":"levelo://app?vid=476a2b08-de9e-49d0-983e-1fcf3440c49e","ios":"levelo://app?vid=476a2b08-de9e-49d0-983e-1fcf3440c49e"},"vehicle_type_id":"4","last_reported":1691435071,"current_range_meters":31600,"station_id":"ce4bgup2rcd13ifvqcn0","pricing_plan_id":"free"},{"bike_id":"2c93cb81-50b7-4ca1-a6d1-c1da391afbe5","system_id":"levelo_inurba_marseille","lat":43.304606,"lon":5.379026,"is_reserved":false,"is_disabled":false,"rental_uris":{"android":"levelo://app?vid=2c93cb81-50b7-4ca1-a6d1-c1da391afbe5","ios":"levelo://app?vid=2c93cb81-50b7-4ca1-a6d1-c1da391afbe5"},"vehicle_type_id":"4","last_reported":1691435071,"current_range_meters":12400,"station_id":"ce4bgup2rcd13ifvqcn0","pricing_plan_id":"free"},{"bike_id":"586a10d9-19d9-4fec-9eef-119441090278","system_id":"levelo_inurba_marseille","lat":43.304606,"lon":5.379026,"is_reserved":false,"is_disabled":false,"rental_uris":{"android":"levelo://app?vid=586a10d9-19d9-4fec-9eef-119441090278","ios":"levelo://app?vid=586a10d9-19d9-4fec-9eef-119441090278"},"vehicle_type_id":"4","last_reported":1691435071,"current_range_meters":27600,"station_id":"ce4bgup2rcd13ifvqcn0","pricing_plan_id":"free"},{"bike_id":"b8ede3f2-d0dc-40b8-9848-8a39faa515b6","system_id":"levelo_inurba_marseille","lat":43.304606,"lon":5.379026,"is_reserved":false,"is_disabled":false,"rental_uris":{"android":"levelo://app?vid=b8ede3f2-d0dc-40b8-9848-8a39faa515b6","ios":"levelo://app?vid=b8ede3f2-d0dc-40b8-9848-8a39faa515b6"},"vehicle_type_id":"4","last_reported":1691435071,"current_range_meters":26000,"station_id":"ce4bgup2rcd13ifvqcn0","pricing_plan_id":"free"},{"bike_id":"8d7bbbbc-8d5f-4bb8-908e-a626467dddb1","system_id":"levelo_inurba_marseille","lat":43.304606,"lon":5.379026,"is_reserved":false,"is_disabled":false,"rental_uris":{"android":"levelo://app?vid=8d7bbbbc-8d5f-4bb8-908e-a626467dddb1","ios":"levelo://app?vid=8d7bbbbc-8d5f-4bb8-908e-a626467dddb1"},"vehicle_type_id":"4","last_reported":1691435071,"current_range_meters":18800,"station_id":"ce4bgup2rcd13ifvqcn0","pricing_plan_id":"free"},{"bike_id":"3719a9d9-e394-4773-b928-f832666741d1","system_id":"levelo_inurba_marseille","lat":43.304606,"lon":5.379026,"is_reserved":false,"is_disabled":false,"rental_uris":{"android":"levelo://app?vid=3719a9d9-e394-4773-b928-f832666741d1","ios":"levelo://app?vid=3719a9d9-e394-4773-b928-f832666741d1"},"vehicle_type_id":"4","last_reported":1691435071,"current_range_meters":27600,"station_id":"ce4bgup2rcd13ifvqcn0","pricing_plan_id":"free"},{"bike_id":"d419f294-51dd-45f4-aa58-c75d5a384cbe","system_id":"levelo_inurba_marseille","lat":43.304606,"lon":5.379026,"is_reserved":false,"is_disabled":false,"rental_uris":{"android":"levelo://app?vid=d419f294-51dd-45f4-aa58-c75d5a384cbe","ios":"levelo://app?vid=d419f294-51dd-45f4-aa58-c75d5a384cbe"},"vehicle_type_id":"4","last_reported":1691435071,"current_range_meters":31600,"station_id":"ce4bgup2rcd13ifvqcn0","pricing_plan_id":"free"},{"bike_id":"7695d789-2b5e-4381-9232-2c60561813df","system_id":"levelo_inurba_marseille","lat":43.304606,"lon":5.379026,"is_reserved":false,"is_disabled":false,"rental_uris":{"android":"levelo://app?vid=7695d789-2b5e-4381-9232-2c60561813df","ios":"levelo://app?vid=7695d789-2b5e-4381-9232-2c60561813df"},"vehicle_type_id":"4","last_reported":1691435071,"current_range_meters":31600,"station_id":"ce4bgup2rcd13ifvqcn0","pricing_plan_id":"free"},{"bike_id":"740d06a7-d638-4596-86b9-60d6f99ed13f","system_id":"levelo_inurba_marseille","lat":43.304606,"lon":5.379026,"is_reserved":false,"is_disabled":false,"rental_uris":{"android":"levelo://app?vid=740d06a7-d638-4596-86b9-60d6f99ed13f","ios":"levelo://app?vid=740d06a7-d638-4596-86b9-60d6f99ed13f"},"vehicle_type_id":"4","last_reported":1691435071,"current_range_meters":31600,"station_id":"ce4bgup2rcd13ifvqcn0","pricing_plan_id":"free"},{"bike_id":"e373845f-dc29-4d0a-9254-bf54e8bc9ea8","system_id":"levelo_inurba_marseille","lat":43.302784,"lon":5.377158,"is_reserved":false,"is_disabled":false,"rental_uris":{"android":"levelo://app?vid=e373845f-dc29-4d0a-9254-bf54e8bc9ea8","ios":"levelo://app?vid=e373845f-dc29-4d0a-9254-bf54e8bc9ea8"},"vehicle_type_id":"4","last_reported":1691435071,"current_range_meters":7600,"station_id":"ce4bguh2rcd13ifvqcj0","pricing_plan_id":"free"},{"bike_id":"9b38b77e-6ede-455e-a650-9e9b58abeaf7","system_id":"levelo_inurba_marseille","lat":43.302784,"lon":5.377158,"is_reserved":false,"is_disabled":false,"rental_uris":{"android":"levelo://app?vid=9b38b77e-6ede-455e-a650-9e9b58abeaf7","ios":"levelo://app?vid=9b38b77e-6ede-455e-a650-9e9b58abeaf7"},"vehicle_type_id":"4","last_reported":1691435071,"current_range_meters":8800,"station_id":"ce4bguh2rcd13ifvqcj0","pricing_plan_id":"free"},{"bike_id":"05114b4d-21e0-4819-9961-93535e926e38","system_id":"levelo_inurba_marseille","lat":43.30272,"lon":5.37723,"is_reserved":false,"is_disabled":false,"rental_uris":{"android":"levelo://app?vid=05114b4d-21e0-4819-9961-93535e926e38","ios":"levelo://app?vid=05114b4d-21e0-4819-9961-93535e926e38"},"vehicle_type_id":"4","last_reported":1691435071,"current_range_meters":14400,"station_id":"ce4bguh2rcd13ifvqcj0","pricing_plan_id":"free"},{"bike_id":"899ae604-34c7-4b3b-91fb-f438d45314a6","system_id":"levelo_inurba_marseille","lat":43.31989,"lon":5.38154,"is_reserved":false,"is_disabled":false,"rental_uris":{"android":"levelo://app?vid=899ae604-34c7-4b3b-91fb-f438d45314a6","ios":"levelo://app?vid=899ae604-34c7-4b3b-91fb-f438d45314a6"},"vehicle_type_id":"4","last_reported":1691435071,"current_range_meters":21200,"station_id":"ce4bhr12rcd13ifvqhpg","pricing_plan_id":"free"},{"bike_id":"c9ad1520-0eb1-418b-b127-93596450068c","system_id":"levelo_inurba_marseille","lat":43.313571,"lon":5.384829,"is_reserved":false,"is_disabled":false,"rental_uris":{"android":"levelo://app?vid=c9ad1520-0eb1-418b-b127-93596450068c","ios":"levelo://app?vid=c9ad1520-0eb1-418b-b127-93596450068c"},"vehicle_type_id":"4","last_reported":1691435071,"current_range_meters":31600,"station_id":"ce4bgt92rcd13ifvqcf0","pricing_plan_id":"free"},{"bike_id":"48ef15b4-3e4f-4386-99d0-4615a299d199","system_id":"levelo_inurba_marseille","lat":43.313571,"lon":5.384829,"is_reserved":false,"is_disabled":false,"rental_uris":{"android":"levelo://app?vid=48ef15b4-3e4f-4386-99d0-4615a299d199","ios":"levelo://app?vid=48ef15b4-3e4f-4386-99d0-4615a299d199"},"vehicle_type_id":"4","last_reported":1691435071,"current_range_meters":4000,"station_id":"ce4bgt92rcd13ifvqcf0","pricing_plan_id":"free"},{"bike_id":"0c9d57f1-cca3-4815-b793-b70f3e9d7c88","system_id":"levelo_inurba_marseille","lat":43.313571,"lon":5.384829,"is_reserved":false,"is_disabled":false,"rental_uris":{"android":"levelo://app?vid=0c9d57f1-cca3-4815-b793-b70f3e9d7c88","ios":"levelo://app?vid=0c9d57f1-cca3-4815-b793-b70f3e9d7c88"},"vehicle_type_id":"4","last_reported":1691435071,"current_range_meters":3600,"station_id":"ce4bgt92rcd13ifvqcf0","pricing_plan_id":"free"},{"bike_id":"b95d0269-f03c-4220-98ec-61b4490ba37b","system_id":"levelo_inurba_marseille","lat":43.313571,"lon":5.384829,"is_reserved":false,"is_disabled":false,"rental_uris":{"android":"levelo://app?vid=b95d0269-f03c-4220-98ec-61b4490ba37b","ios":"levelo://app?vid=b95d0269-f03c-4220-98ec-61b4490ba37b"},"vehicle_type_id":"4","last_reported":1691435071,"current_range_meters":0,"station_id":"ce4bgt92rcd13ifvqcf0","pricing_plan_id":"free"},{"bike_id":"b4b4b15d-7b5b-4435-adae-7cb5c229f344","system_id":"levelo_inurba_marseille","lat":43.313571,"lon":5.384829,"is_reserved":false,"is_disabled":false,"rental_uris":{"android":"levelo://app?vid=b4b4b15d-7b5b-4435-adae-7cb5c229f344","ios":"levelo://app?vid=b4b4b15d-7b5b-4435-adae-7cb5c229f344"},"vehicle_type_id":"4","last_reported":1691435071,"current_range_meters":14400,"station_id":"ce4bgt92rcd13ifvqcf0","pricing_plan_id":"free"},{"bike_id":"dbe73d29-6306-4ae6-be68-1ea7a9c8d327","system_id":"levelo_inurba_marseille","lat":43.313571,"lon":5.384829,"is_reserved":false,"is_disabled":false,"rental_uris":{"android":"levelo://app?vid=dbe73d29-6306-4ae6-be68-1ea7a9c8d327","ios":"levelo://app?vid=dbe73d29-6306-4ae6-be68-1ea7a9c8d327"},"vehicle_type_id":"4","last_reported":1691435071,"current_range_meters":8000,"station_id":"ce4bgt92rcd13ifvqcf0","pricing_plan_id":"free"},{"bike_id":"7edfdc88-0848-42d5-986d-6e09a8bba759","system_id":"levelo_inurba_marseille","lat":43.313571,"lon":5.384829,"is_reserved":false,"is_disabled":false,"rental_uris":{"android":"levelo://app?vid=7edfdc88-0848-42d5-986d-6e09a8bba759","ios":"levelo://app?vid=7edfdc88-0848-42d5-986d-6e09a8bba759"},"vehicle_type_id":"4","last_reported":1691435071,"current_range_meters":14800,"station_id":"ce4bgt92rcd13ifvqcf0","pricing_plan_id":"free"},{"bike_id":"1af8176f-984b-438d-8769-08e432e8b6dc","system_id":"levelo_inurba_marseille","lat":43.299688,"lon":5.371867,"is_reserved":false,"is_disabled":false,"rental_uris":{"android":"levelo://app?vid=1af8176f-984b-438d-8769-08e432e8b6dc","ios":"levelo://app?vid=1af8176f-984b-438d-8769-08e432e8b6dc"},"vehicle_type_id":"4","last_reported":1691435071,"current_range_meters":10400,"station_id":"ce4bgr92rcd13ifvqc7g","pricing_plan_id":"free"},{"bike_id":"d117718d-76f7-475f-b7d1-57115e413665","system_id":"levelo_inurba_marseille","lat":43.305364,"lon":5.384119,"is_reserved":false,"is_disabled":false,"rental_uris":{"android":"levelo://app?vid=d117718d-76f7-475f-b7d1-57115e413665","ios":"levelo://app?vid=d117718d-76f7-475f-b7d1-57115e413665"},"vehicle_type_id":"4","last_reported":1691435071,"current_range_meters":16000,"station_id":"ce4bgg92rcd13ifvqb30","pricing_plan_id":"free"},{"bike_id":"30537d43-af02-4a10-b928-7b9b8cf633d2","system_id":"levelo_inurba_marseille","lat":43.305349,"lon":5.384196,"is_reserved":false,"is_disabled":false,"rental_uris":{"android":"levelo://app?vid=30537d43-af02-4a10-b928-7b9b8cf633d2","ios":"levelo://app?vid=30537d43-af02-4a10-b928-7b9b8cf633d2"},"vehicle_type_id":"4","last_reported":1691435071,"current_range_meters":26800,"station_id":"ce4bgg92rcd13ifvqb30","pricing_plan_id":"free"},{"bike_id":"985132e7-ae1e-4af3-83b4-2b9cf46f823b","system_id":"levelo_inurba_marseille","lat":43.311722,"lon":5.387247,"is_reserved":false,"is_disabled":false,"rental_uris":{"android":"levelo://app?vid=985132e7-ae1e-4af3-83b4-2b9cf46f823b","ios":"levelo://app?vid=985132e7-ae1e-4af3-83b4-2b9cf46f823b"},"vehicle_type_id":"4","last_reported":1691435071,"current_range_meters":800,"station_id":"ce4bgv12rcd13ifvqcp0","pricing_plan_id":"free"},{"bike_id":"b80af8ef-c2e5-4ec4-be69-b3d600462496","system_id":"levelo_inurba_marseille","lat":43.299243,"lon":5.374807,"is_reserved":false,"is_disabled":false,"rental_uris":{"android":"levelo://app?vid=b80af8ef-c2e5-4ec4-be69-b3d600462496","ios":"levelo://app?vid=b80af8ef-c2e5-4ec4-be69-b3d600462496"},"vehicle_type_id":"4","last_reported":1691435071,"current_range_meters":10800,"station_id":"ce4bgjh2rcd13ifvqbg0","pricing_plan_id":"free"},{"bike_id":"dec88311-1e78-49f3-b5ef-130dcf0ec3b6","system_id":"levelo_inurba_marseille","lat":43.299243,"lon":5.37481,"is_reserved":false,"is_disabled":false,"rental_uris":{"android":"levelo://app?vid=dec88311-1e78-49f3-b5ef-130dcf0ec3b6","ios":"levelo://app?vid=dec88311-1e78-49f3-b5ef-130dcf0ec3b6"},"vehicle_type_id":"4","last_reported":1691435071,"current_range_meters":800,"station_id":"ce4bgjh2rcd13ifvqbg0","pricing_plan_id":"free"},{"bike_id":"8188525c-5650-42ac-b48d-3b3a31e2705d","system_id":"levelo_inurba_marseille","lat":43.299243,"lon":5.37481,"is_reserved":false,"is_disabled":false,"rental_uris":{"android":"levelo://app?vid=8188525c-5650-42ac-b48d-3b3a31e2705d","ios":"levelo://app?vid=8188525c-5650-42ac-b48d-3b3a31e2705d"},"vehicle_type_id":"4","last_reported":1691435071,"current_range_meters":21600,"station_id":"ce4bgjh2rcd13ifvqbg0","pricing_plan_id":"free"},{"bike_id":"095a3832-1b15-4b70-ab5f-9a3ead5c294c","system_id":"levelo_inurba_marseille","lat":43.299243,"lon":5.37481,"is_reserved":false,"is_disabled":false,"rental_uris":{"android":"levelo://app?vid=095a3832-1b15-4b70-ab5f-9a3ead5c294c","ios":"levelo://app?vid=095a3832-1b15-4b70-ab5f-9a3ead5c294c"},"vehicle_type_id":"4","last_reported":1691435071,"current_range_meters":5200,"station_id":"ce4bgjh2rcd13ifvqbg0","pricing_plan_id":"free"},{"bike_id":"26181fcc-b63c-4d15-8e79-9ab98ba08391","system_id":"levelo_inurba_marseille","lat":43.297774,"lon":5.370875,"is_reserved":false,"is_disabled":false,"rental_uris":{"android":"levelo://app?vid=26181fcc-b63c-4d15-8e79-9ab98ba08391","ios":"levelo://app?vid=26181fcc-b63c-4d15-8e79-9ab98ba08391"},"vehicle_type_id":"4","last_reported":1691435071,"current_range_meters":12800,"station_id":"ce4bgop2rcd13ifvqc1g","pricing_plan_id":"free"},{"bike_id":"b441a352-ea26-492c-9fcb-9e0505e7eaae","system_id":"levelo_inurba_marseille","lat":43.32291,"lon":5.38262,"is_reserved":false,"is_disabled":false,"rental_uris":{"android":"levelo://app?vid=b441a352-ea26-492c-9fcb-9e0505e7eaae","ios":"levelo://app?vid=b441a352-ea26-492c-9fcb-9e0505e7eaae"},"vehicle_type_id":"4","last_reported":1691435071,"current_range_meters":22000,"station_id":"ce4bhr12rcd13ifvqhqg","pricing_plan_id":"free"},{"bike_id":"9a24aa06-c283-493d-9752-454528a292e8","system_id":"levelo_inurba_marseille","lat":43.297794,"lon":5.370888,"is_reserved":false,"is_disabled":false,"rental_uris":{"android":"levelo://app?vid=9a24aa06-c283-493d-9752-454528a292e8","ios":"levelo://app?vid=9a24aa06-c283-493d-9752-454528a292e8"},"vehicle_type_id":"4","last_reported":1691435071,"current_range_meters":25200,"station_id":"ce4bgop2rcd13ifvqc1g","pricing_plan_id":"free"},{"bike_id":"15b2f289-e8da-4c30-a721-2cf15799ace1","system_id":"levelo_inurba_marseille","lat":43.32291,"lon":5.38268,"is_reserved":false,"is_disabled":false,"rental_uris":{"android":"levelo://app?vid=15b2f289-e8da-4c30-a721-2cf15799ace1","ios":"levelo://app?vid=15b2f289-e8da-4c30-a721-2cf15799ace1"},"vehicle_type_id":"4","last_reported":1691435071,"current_range_meters":13600,"station_id":"ce4bhr12rcd13ifvqhqg","pricing_plan_id":"free"},{"bike_id":"bf4a0016-24b8-4a88-b88f-1624c511c71a","system_id":"levelo_inurba_marseille","lat":43.328371,"lon":5.366909,"is_reserved":false,"is_disabled":false,"rental_uris":{"android":"levelo://app?vid=bf4a0016-24b8-4a88-b88f-1624c511c71a","ios":"levelo://app?vid=bf4a0016-24b8-4a88-b88f-1624c511c71a"},"vehicle_type_id":"4","last_reported":1691435071,"current_range_meters":29600,"station_id":"ce4bhs92rcd13ifvqi0g","pricing_plan_id":"free"},{"bike_id":"b903a53c-959d-44ad-9c03-1aaac919aac3","system_id":"levelo_inurba_marseille","lat":43.328371,"lon":5.366909,"is_reserved":false,"is_disabled":false,"rental_uris":{"android":"levelo://app?vid=b903a53c-959d-44ad-9c03-1aaac919aac3","ios":"levelo://app?vid=b903a53c-959d-44ad-9c03-1aaac919aac3"},"vehicle_type_id":"4","last_reported":1691435071,"current_range_meters":0,"station_id":"ce4bhs92rcd13ifvqi0g","pricing_plan_id":"free"},{"bike_id":"6f6eeb13-8534-45e9-90bb-5ce321a043c4","system_id":"levelo_inurba_marseille","lat":43.328371,"lon":5.366909,"is_reserved":false,"is_disabled":false,"rental_uris":{"android":"levelo://app?vid=6f6eeb13-8534-45e9-90bb-5ce321a043c4","ios":"levelo://app?vid=6f6eeb13-8534-45e9-90bb-5ce321a043c4"},"vehicle_type_id":"4","last_reported":1691435071,"current_range_meters":11600,"station_id":"ce4bhs92rcd13ifvqi0g","pricing_plan_id":"free"},{"bike_id":"9aacb598-355c-442f-af25-c93db45947e6","system_id":"levelo_inurba_marseille","lat":43.32827,"lon":5.36687,"is_reserved":false,"is_disabled":false,"rental_uris":{"android":"levelo://app?vid=9aacb598-355c-442f-af25-c93db45947e6","ios":"levelo://app?vid=9aacb598-355c-442f-af25-c93db45947e6"},"vehicle_type_id":"4","last_reported":1691435071,"current_range_meters":0,"station_id":"ce4bhs92rcd13ifvqi0g","pricing_plan_id":"free"},{"bike_id":"97afdb01-5eea-4486-8c30-3859e0392bf5","system_id":"levelo_inurba_marseille","lat":43.32827,"lon":5.36682,"is_reserved":false,"is_disabled":false,"rental_uris":{"android":"levelo://app?vid=97afdb01-5eea-4486-8c30-3859e0392bf5","ios":"levelo://app?vid=97afdb01-5eea-4486-8c30-3859e0392bf5"},"vehicle_type_id":"4","last_reported":1691435071,"current_range_meters":1600,"station_id":"ce4bhs92rcd13ifvqi0g","pricing_plan_id":"free"},{"bike_id":"5836a1e4-4588-49af-9855-adde616cd7f7","system_id":"levelo_inurba_marseille","lat":43.32828,"lon":5.36671,"is_reserved":false,"is_disabled":false,"rental_uris":{"android":"levelo://app?vid=5836a1e4-4588-49af-9855-adde616cd7f7","ios":"levelo://app?vid=5836a1e4-4588-49af-9855-adde616cd7f7"},"vehicle_type_id":"4","last_reported":1691435071,"current_range_meters":13600,"station_id":"ce4bhs92rcd13ifvqi0g","pricing_plan_id":"free"},{"bike_id":"5598ba69-7d08-42d1-9376-d503db4ba6c0","system_id":"levelo_inurba_marseille","lat":43.32829,"lon":5.36672,"is_reserved":false,"is_disabled":false,"rental_uris":{"android":"levelo://app?vid=5598ba69-7d08-42d1-9376-d503db4ba6c0","ios":"levelo://app?vid=5598ba69-7d08-42d1-9376-d503db4ba6c0"},"vehicle_type_id":"4","last_reported":1691435071,"current_range_meters":28800,"station_id":"ce4bhs92rcd13ifvqi0g","pricing_plan_id":"free"},{"bike_id":"9fd7bfd1-6f30-484a-93d7-e323269d32c7","system_id":"levelo_inurba_marseille","lat":43.32831,"lon":5.36681,"is_reserved":false,"is_disabled":false,"rental_uris":{"android":"levelo://app?vid=9fd7bfd1-6f30-484a-93d7-e323269d32c7","ios":"levelo://app?vid=9fd7bfd1-6f30-484a-93d7-e323269d32c7"},"vehicle_type_id":"4","last_reported":1691435071,"current_range_meters":23200,"station_id":"ce4bhs92rcd13ifvqi0g","pricing_plan_id":"free"},{"bike_id":"1dfb0f28-fb21-43e0-9b30-d5e6195e19ba","system_id":"levelo_inurba_marseille","lat":43.32833,"lon":5.3667,"is_reserved":false,"is_disabled":false,"rental_uris":{"android":"levelo://app?vid=1dfb0f28-fb21-43e0-9b30-d5e6195e19ba","ios":"levelo://app?vid=1dfb0f28-fb21-43e0-9b30-d5e6195e19ba"},"vehicle_type_id":"4","last_reported":1691435071,"current_range_meters":28000,"station_id":"ce4bhs92rcd13ifvqi0g","pricing_plan_id":"free"},{"bike_id":"dd789220-e7b5-42c1-b9dc-dc4243148021","system_id":"levelo_inurba_marseille","lat":43.297163,"lon":5.365866,"is_reserved":false,"is_disabled":false,"rental_uris":{"android":"levelo://app?vid=dd789220-e7b5-42c1-b9dc-dc4243148021","ios":"levelo://app?vid=dd789220-e7b5-42c1-b9dc-dc4243148021"},"vehicle_type_id":"4","last_reported":1691435071,"current_range_meters":31600,"station_id":"ce4bgn12rcd13ifvqbt0","pricing_plan_id":"free"},{"bike_id":"3db88f0c-96d6-4bfa-afa7-ba0561f83237","system_id":"levelo_inurba_marseille","lat":43.296129,"lon":5.370777,"is_reserved":false,"is_disabled":false,"rental_uris":{"android":"levelo://app?vid=3db88f0c-96d6-4bfa-afa7-ba0561f83237","ios":"levelo://app?vid=3db88f0c-96d6-4bfa-afa7-ba0561f83237"},"vehicle_type_id":"4","last_reported":1691435071,"current_range_meters":16400,"station_id":"ce4bgnh2rcd13ifvqc0g","pricing_plan_id":"free"},{"bike_id":"d39b13cb-10b6-4f84-aa52-f0da48257f19","system_id":"levelo_inurba_marseille","lat":43.296129,"lon":5.370777,"is_reserved":false,"is_disabled":false,"rental_uris":{"android":"levelo://app?vid=d39b13cb-10b6-4f84-aa52-f0da48257f19","ios":"levelo://app?vid=d39b13cb-10b6-4f84-aa52-f0da48257f19"},"vehicle_type_id":"4","last_reported":1691435071,"current_range_meters":18800,"station_id":"ce4bgnh2rcd13ifvqc0g","pricing_plan_id":"free"},{"bike_id":"21374362-2209-4076-9cfb-2bda5269514d","system_id":"levelo_inurba_marseille","lat":43.296129,"lon":5.370777,"is_reserved":false,"is_disabled":false,"rental_uris":{"android":"levelo://app?vid=21374362-2209-4076-9cfb-2bda5269514d","ios":"levelo://app?vid=21374362-2209-4076-9cfb-2bda5269514d"},"vehicle_type_id":"4","last_reported":1691435071,"current_range_meters":0,"station_id":"ce4bgnh2rcd13ifvqc0g","pricing_plan_id":"free"},{"bike_id":"d0e7c477-2c03-4df0-88de-ec2dad798d04","system_id":"levelo_inurba_marseille","lat":43.29711,"lon":5.37688,"is_reserved":false,"is_disabled":false,"rental_uris":{"android":"levelo://app?vid=d0e7c477-2c03-4df0-88de-ec2dad798d04","ios":"levelo://app?vid=d0e7c477-2c03-4df0-88de-ec2dad798d04"},"vehicle_type_id":"4","last_reported":1691435071,"current_range_meters":1200,"station_id":"ce4bgkh2rcd13ifvqbl0","pricing_plan_id":"free"},{"bike_id":"f97b3f59-44b7-4050-b387-4ac4ae2a9f96","system_id":"levelo_inurba_marseille","lat":43.299028,"lon":5.381509,"is_reserved":false,"is_disabled":false,"rental_uris":{"android":"levelo://app?vid=f97b3f59-44b7-4050-b387-4ac4ae2a9f96","ios":"levelo://app?vid=f97b3f59-44b7-4050-b387-4ac4ae2a9f96"},"vehicle_type_id":"4","last_reported":1691435071,"current_range_meters":31600,"station_id":"ce4bgj12rcd13ifvqbc0","pricing_plan_id":"free"},{"bike_id":"bcb31600-5d24-49bc-a175-7b58c0d30dc3","system_id":"levelo_inurba_marseille","lat":43.299028,"lon":5.381509,"is_reserved":false,"is_disabled":false,"rental_uris":{"android":"levelo://app?vid=bcb31600-5d24-49bc-a175-7b58c0d30dc3","ios":"levelo://app?vid=bcb31600-5d24-49bc-a175-7b58c0d30dc3"},"vehicle_type_id":"4","last_reported":1691435071,"current_range_meters":28400,"station_id":"ce4bgj12rcd13ifvqbc0","pricing_plan_id":"free"},{"bike_id":"62b70186-0bc9-4671-a59a-b1894a6a3098","system_id":"levelo_inurba_marseille","lat":43.317557,"lon":5.390173,"is_reserved":false,"is_disabled":false,"rental_uris":{"android":"levelo://app?vid=62b70186-0bc9-4671-a59a-b1894a6a3098","ios":"levelo://app?vid=62b70186-0bc9-4671-a59a-b1894a6a3098"},"vehicle_type_id":"4","last_reported":1691435071,"current_range_meters":9200,"station_id":"ce4bhqp2rcd13ifvqhng","pricing_plan_id":"free"},{"bike_id":"a76e823f-9024-4be6-835c-30a284d10f19","system_id":"levelo_inurba_marseille","lat":43.317557,"lon":5.390173,"is_reserved":false,"is_disabled":false,"rental_uris":{"android":"levelo://app?vid=a76e823f-9024-4be6-835c-30a284d10f19","ios":"levelo://app?vid=a76e823f-9024-4be6-835c-30a284d10f19"},"vehicle_type_id":"4","last_reported":1691435071,"current_range_meters":27600,"station_id":"ce4bhqp2rcd13ifvqhng","pricing_plan_id":"free"},{"bike_id":"65caf4db-3a32-4d97-b6ff-6fd141e08d6d","system_id":"levelo_inurba_marseille","lat":43.298037,"lon":5.381066,"is_reserved":false,"is_disabled":false,"rental_uris":{"android":"levelo://app?vid=65caf4db-3a32-4d97-b6ff-6fd141e08d6d","ios":"levelo://app?vid=65caf4db-3a32-4d97-b6ff-6fd141e08d6d"},"vehicle_type_id":"4","last_reported":1691435071,"current_range_meters":30800,"station_id":"ce4bgip2rcd13ifvqbb0","pricing_plan_id":"free"},{"bike_id":"a4df99ce-0488-49dd-a888-94686f562e88","system_id":"levelo_inurba_marseille","lat":43.295748,"lon":5.37522,"is_reserved":false,"is_disabled":false,"rental_uris":{"android":"levelo://app?vid=a4df99ce-0488-49dd-a888-94686f562e88","ios":"levelo://app?vid=a4df99ce-0488-49dd-a888-94686f562e88"},"vehicle_type_id":"4","last_reported":1691435071,"current_range_meters":31600,"station_id":"ce4bgh92rcd13ifvqb50","pricing_plan_id":"free"},{"bike_id":"23370180-a7d1-4bf2-b251-5107da15f71a","system_id":"levelo_inurba_marseille","lat":43.304274,"lon":5.388873,"is_reserved":false,"is_disabled":false,"rental_uris":{"android":"levelo://app?vid=23370180-a7d1-4bf2-b251-5107da15f71a","ios":"levelo://app?vid=23370180-a7d1-4bf2-b251-5107da15f71a"},"vehicle_type_id":"4","last_reported":1691435071,"current_range_meters":10800,"station_id":"ce4bgk12rcd13ifvqbi0","pricing_plan_id":"free"},{"bike_id":"ea331aa4-0d8d-4d2a-9443-e9001485406a","system_id":"levelo_inurba_marseille","lat":43.295279,"lon":5.375048,"is_reserved":false,"is_disabled":false,"rental_uris":{"android":"levelo://app?vid=ea331aa4-0d8d-4d2a-9443-e9001485406a","ios":"levelo://app?vid=ea331aa4-0d8d-4d2a-9443-e9001485406a"},"vehicle_type_id":"4","last_reported":1691435071,"current_range_meters":24800,"station_id":"ce4bgkp2rcd13ifvqbmg","pricing_plan_id":"free"},{"bike_id":"3e1489a9-2d34-4e6d-898c-5cf063b0fec4","system_id":"levelo_inurba_marseille","lat":43.295279,"lon":5.375048,"is_reserved":false,"is_disabled":false,"rental_uris":{"android":"levelo://app?vid=3e1489a9-2d34-4e6d-898c-5cf063b0fec4","ios":"levelo://app?vid=3e1489a9-2d34-4e6d-898c-5cf063b0fec4"},"vehicle_type_id":"4","last_reported":1691435071,"current_range_meters":8400,"station_id":"ce4bgkp2rcd13ifvqbmg","pricing_plan_id":"free"},{"bike_id":"2c2ae5a8-f97f-42ae-b40c-0b06f4fb2a0e","system_id":"levelo_inurba_marseille","lat":43.295279,"lon":5.375048,"is_reserved":false,"is_disabled":false,"rental_uris":{"android":"levelo://app?vid=2c2ae5a8-f97f-42ae-b40c-0b06f4fb2a0e","ios":"levelo://app?vid=2c2ae5a8-f97f-42ae-b40c-0b06f4fb2a0e"},"vehicle_type_id":"4","last_reported":1691435071,"current_range_meters":22400,"station_id":"ce4bgkp2rcd13ifvqbmg","pricing_plan_id":"free"},{"bike_id":"74598c16-b5bc-40ca-a49f-10ed89e2d441","system_id":"levelo_inurba_marseille","lat":43.2951,"lon":5.37601,"is_reserved":false,"is_disabled":false,"rental_uris":{"android":"levelo://app?vid=74598c16-b5bc-40ca-a49f-10ed89e2d441","ios":"levelo://app?vid=74598c16-b5bc-40ca-a49f-10ed89e2d441"},"vehicle_type_id":"4","last_reported":1691435071,"current_range_meters":3200,"station_id":"","pricing_plan_id":"free"},{"bike_id":"0385959f-e4a4-4b53-a83f-b81824876402","system_id":"levelo_inurba_marseille","lat":43.32371,"lon":5.38868,"is_reserved":false,"is_disabled":false,"rental_uris":{"android":"levelo://app?vid=0385959f-e4a4-4b53-a83f-b81824876402","ios":"levelo://app?vid=0385959f-e4a4-4b53-a83f-b81824876402"},"vehicle_type_id":"4","last_reported":1691435071,"current_range_meters":29600,"station_id":"ce4bhqp2rcd13ifvqhog","pricing_plan_id":"free"},{"bike_id":"c075b882-9087-4faa-9754-b6047ec5ba58","system_id":"levelo_inurba_marseille","lat":43.32362,"lon":5.38879,"is_reserved":false,"is_disabled":false,"rental_uris":{"android":"levelo://app?vid=c075b882-9087-4faa-9754-b6047ec5ba58","ios":"levelo://app?vid=c075b882-9087-4faa-9754-b6047ec5ba58"},"vehicle_type_id":"4","last_reported":1691435071,"current_range_meters":27200,"station_id":"ce4bhqp2rcd13ifvqhog","pricing_plan_id":"free"},{"bike_id":"6ff09929-0008-4ced-b3a0-1f34d091ae86","system_id":"levelo_inurba_marseille","lat":43.32367,"lon":5.38882,"is_reserved":false,"is_disabled":false,"rental_uris":{"android":"levelo://app?vid=6ff09929-0008-4ced-b3a0-1f34d091ae86","ios":"levelo://app?vid=6ff09929-0008-4ced-b3a0-1f34d091ae86"},"vehicle_type_id":"4","last_reported":1691435071,"current_range_meters":20800,"station_id":"ce4bhqp2rcd13ifvqhog","pricing_plan_id":"free"},{"bike_id":"fb2f99da-6a0f-4a13-8a6e-b45d8292be21","system_id":"levelo_inurba_marseille","lat":43.32367,"lon":5.388836,"is_reserved":false,"is_disabled":false,"rental_uris":{"android":"levelo://app?vid=fb2f99da-6a0f-4a13-8a6e-b45d8292be21","ios":"levelo://app?vid=fb2f99da-6a0f-4a13-8a6e-b45d8292be21"},"vehicle_type_id":"4","last_reported":1691435071,"current_range_meters":1200,"station_id":"ce4bhqp2rcd13ifvqhog","pricing_plan_id":"free"},{"bike_id":"f8f3f344-a1a8-4af9-a436-b78109baad1f","system_id":"levelo_inurba_marseille","lat":43.32364,"lon":5.38886,"is_reserved":false,"is_disabled":false,"rental_uris":{"android":"levelo://app?vid=f8f3f344-a1a8-4af9-a436-b78109baad1f","ios":"levelo://app?vid=f8f3f344-a1a8-4af9-a436-b78109baad1f"},"vehicle_type_id":"4","last_reported":1691435071,"current_range_meters":24800,"station_id":"ce4bhqp2rcd13ifvqhog","pricing_plan_id":"free"},{"bike_id":"2ae0a8f6-3dd6-4ccf-9192-ac628f44f3cb","system_id":"levelo_inurba_marseille","lat":43.32367,"lon":5.388836,"is_reserved":false,"is_disabled":false,"rental_uris":{"android":"levelo://app?vid=2ae0a8f6-3dd6-4ccf-9192-ac628f44f3cb","ios":"levelo://app?vid=2ae0a8f6-3dd6-4ccf-9192-ac628f44f3cb"},"vehicle_type_id":"4","last_reported":1691435071,"current_range_meters":24000,"station_id":"ce4bhqp2rcd13ifvqhog","pricing_plan_id":"free"},{"bike_id":"c96ba745-44db-4d31-8cdc-49ec45156003","system_id":"levelo_inurba_marseille","lat":43.29601,"lon":5.381084,"is_reserved":false,"is_disabled":false,"rental_uris":{"android":"levelo://app?vid=c96ba745-44db-4d31-8cdc-49ec45156003","ios":"levelo://app?vid=c96ba745-44db-4d31-8cdc-49ec45156003"},"vehicle_type_id":"4","last_reported":1691435071,"current_range_meters":0,"station_id":"ce4bgl12rcd13ifvqbo0","pricing_plan_id":"free"},{"bike_id":"e5ddd2a0-b229-48d3-bfb4-6f88769259c1","system_id":"levelo_inurba_marseille","lat":43.29601,"lon":5.381084,"is_reserved":false,"is_disabled":false,"rental_uris":{"android":"levelo://app?vid=e5ddd2a0-b229-48d3-bfb4-6f88769259c1","ios":"levelo://app?vid=e5ddd2a0-b229-48d3-bfb4-6f88769259c1"},"vehicle_type_id":"4","last_reported":1691435071,"current_range_meters":18400,"station_id":"ce4bgl12rcd13ifvqbo0","pricing_plan_id":"free"},{"bike_id":"edf77873-d9b1-4319-acd4-7ea85866914d","system_id":"levelo_inurba_marseille","lat":43.29311,"lon":5.37189,"is_reserved":false,"is_disabled":false,"rental_uris":{"android":"levelo://app?vid=edf77873-d9b1-4319-acd4-7ea85866914d","ios":"levelo://app?vid=edf77873-d9b1-4319-acd4-7ea85866914d"},"vehicle_type_id":"4","last_reported":1691435071,"current_range_meters":12800,"station_id":"ce4bgh92rcd13ifvqb40","pricing_plan_id":"free"},{"bike_id":"f495f215-5b0d-489a-aba0-bd66c801ec11","system_id":"levelo_inurba_marseille","lat":43.29788,"lon":5.38538,"is_reserved":false,"is_disabled":false,"rental_uris":{"android":"levelo://app?vid=f495f215-5b0d-489a-aba0-bd66c801ec11","ios":"levelo://app?vid=f495f215-5b0d-489a-aba0-bd66c801ec11"},"vehicle_type_id":"4","last_reported":1691435071,"current_range_meters":13600,"station_id":"ce4bh692rcd13ifvqea0","pricing_plan_id":"free"},{"bike_id":"2233a897-458a-4dc5-a9c4-f79d52b0dd5b","system_id":"levelo_inurba_marseille","lat":43.292749,"lon":5.368398,"is_reserved":false,"is_disabled":false,"rental_uris":{"android":"levelo://app?vid=2233a897-458a-4dc5-a9c4-f79d52b0dd5b","ios":"levelo://app?vid=2233a897-458a-4dc5-a9c4-f79d52b0dd5b"},"vehicle_type_id":"4","last_reported":1691435071,"current_range_meters":5600,"station_id":"ce4bhbp2rcd13ifvqesg","pricing_plan_id":"free"},{"bike_id":"dbe406a0-e31d-4174-932b-0d8d584d17c2","system_id":"levelo_inurba_marseille","lat":43.292749,"lon":5.368398,"is_reserved":false,"is_disabled":false,"rental_uris":{"android":"levelo://app?vid=dbe406a0-e31d-4174-932b-0d8d584d17c2","ios":"levelo://app?vid=dbe406a0-e31d-4174-932b-0d8d584d17c2"},"vehicle_type_id":"4","last_reported":1691435071,"current_range_meters":31600,"station_id":"ce4bhbp2rcd13ifvqesg","pricing_plan_id":"free"},{"bike_id":"3fa22f82-6967-443c-b568-0cdc13e4f602","system_id":"levelo_inurba_marseille","lat":43.30592,"lon":5.39354,"is_reserved":false,"is_disabled":false,"rental_uris":{"android":"levelo://app?vid=3fa22f82-6967-443c-b568-0cdc13e4f602","ios":"levelo://app?vid=3fa22f82-6967-443c-b568-0cdc13e4f602"},"vehicle_type_id":"4","last_reported":1691435071,"current_range_meters":22400,"station_id":"ce4bh0p2rcd13ifvqd80","pricing_plan_id":"free"},{"bike_id":"512b03a8-4c08-4b85-bac5-6bc8e7f846c6","system_id":"levelo_inurba_marseille","lat":43.305994,"lon":5.393687,"is_reserved":false,"is_disabled":false,"rental_uris":{"android":"levelo://app?vid=512b03a8-4c08-4b85-bac5-6bc8e7f846c6","ios":"levelo://app?vid=512b03a8-4c08-4b85-bac5-6bc8e7f846c6"},"vehicle_type_id":"4","last_reported":1691435071,"current_range_meters":24000,"station_id":"ce4bh0p2rcd13ifvqd80","pricing_plan_id":"free"},{"bike_id":"d806f597-bbbd-4eb5-b62e-9b6414949837","system_id":"levelo_inurba_marseille","lat":43.305994,"lon":5.393687,"is_reserved":false,"is_disabled":false,"rental_uris":{"android":"levelo://app?vid=d806f597-bbbd-4eb5-b62e-9b6414949837","ios":"levelo://app?vid=d806f597-bbbd-4eb5-b62e-9b6414949837"},"vehicle_type_id":"4","last_reported":1691435071,"current_range_meters":22400,"station_id":"ce4bh0p2rcd13ifvqd80","pricing_plan_id":"free"},{"bike_id":"568d7e65-db57-463c-9184-e7a381e84e41","system_id":"levelo_inurba_marseille","lat":43.2936,"lon":5.37835,"is_reserved":false,"is_disabled":false,"rental_uris":{"android":"levelo://app?vid=568d7e65-db57-463c-9184-e7a381e84e41","ios":"levelo://app?vid=568d7e65-db57-463c-9184-e7a381e84e41"},"vehicle_type_id":"4","last_reported":1691435071,"current_range_meters":0,"station_id":"ce4bgjh2rcd13ifvqbf0","pricing_plan_id":"free"},{"bike_id":"cacc9225-7ce3-4523-b8fc-9712e538f614","system_id":"levelo_inurba_marseille","lat":43.302992,"lon":5.392136,"is_reserved":false,"is_disabled":false,"rental_uris":{"android":"levelo://app?vid=cacc9225-7ce3-4523-b8fc-9712e538f614","ios":"levelo://app?vid=cacc9225-7ce3-4523-b8fc-9712e538f614"},"vehicle_type_id":"4","last_reported":1691435071,"current_range_meters":20800,"station_id":"ce4bgkh2rcd13ifvqbk0","pricing_plan_id":"free"},{"bike_id":"68c16bef-0fbf-4497-aaed-bbb64ebdf4c5","system_id":"levelo_inurba_marseille","lat":43.300852,"lon":5.390859,"is_reserved":false,"is_disabled":false,"rental_uris":{"android":"levelo://app?vid=68c16bef-0fbf-4497-aaed-bbb64ebdf4c5","ios":"levelo://app?vid=68c16bef-0fbf-4497-aaed-bbb64ebdf4c5"},"vehicle_type_id":"4","last_reported":1691435071,"current_range_meters":4400,"station_id":"ce4bh192rcd13ifvqdb0","pricing_plan_id":"free"},{"bike_id":"c7049648-348e-4dd0-bd38-f940f96aca09","system_id":"levelo_inurba_marseille","lat":43.30085,"lon":5.390856,"is_reserved":false,"is_disabled":false,"rental_uris":{"android":"levelo://app?vid=c7049648-348e-4dd0-bd38-f940f96aca09","ios":"levelo://app?vid=c7049648-348e-4dd0-bd38-f940f96aca09"},"vehicle_type_id":"4","last_reported":1691435071,"current_range_meters":5600,"station_id":"ce4bh192rcd13ifvqdb0","pricing_plan_id":"free"},{"bike_id":"4b7c8003-a6a1-4363-8504-fa8038df0ed6","system_id":"levelo_inurba_marseille","lat":43.30085,"lon":5.390856,"is_reserved":false,"is_disabled":false,"rental_uris":{"android":"levelo://app?vid=4b7c8003-a6a1-4363-8504-fa8038df0ed6","ios":"levelo://app?vid=4b7c8003-a6a1-4363-8504-fa8038df0ed6"},"vehicle_type_id":"4","last_reported":1691435071,"current_range_meters":28400,"station_id":"ce4bh192rcd13ifvqdb0","pricing_plan_id":"free"},{"bike_id":"b99ed18a-b3dd-4125-8887-e31c89f59c6d","system_id":"levelo_inurba_marseille","lat":43.298764,"lon":5.388973,"is_reserved":false,"is_disabled":false,"rental_uris":{"android":"levelo://app?vid=b99ed18a-b3dd-4125-8887-e31c89f59c6d","ios":"levelo://app?vid=b99ed18a-b3dd-4125-8887-e31c89f59c6d"},"vehicle_type_id":"4","last_reported":1691435071,"current_range_meters":0,"station_id":"ce4bh392rcd13ifvqdl0","pricing_plan_id":"free"},{"bike_id":"6e4bbc64-ee8b-41ff-8515-883c1395b5eb","system_id":"levelo_inurba_marseille","lat":43.298764,"lon":5.388973,"is_reserved":false,"is_disabled":false,"rental_uris":{"android":"levelo://app?vid=6e4bbc64-ee8b-41ff-8515-883c1395b5eb","ios":"levelo://app?vid=6e4bbc64-ee8b-41ff-8515-883c1395b5eb"},"vehicle_type_id":"4","last_reported":1691435071,"current_range_meters":17200,"station_id":"ce4bh392rcd13ifvqdl0","pricing_plan_id":"free"},{"bike_id":"a8f4e0b7-8893-414f-8ee7-c1268bf88253","system_id":"levelo_inurba_marseille","lat":43.298764,"lon":5.388973,"is_reserved":false,"is_disabled":false,"rental_uris":{"android":"levelo://app?vid=a8f4e0b7-8893-414f-8ee7-c1268bf88253","ios":"levelo://app?vid=a8f4e0b7-8893-414f-8ee7-c1268bf88253"},"vehicle_type_id":"4","last_reported":1691435071,"current_range_meters":0,"station_id":"ce4bh392rcd13ifvqdl0","pricing_plan_id":"free"},{"bike_id":"e2fc2d3c-1302-4d5b-8f43-598bed24fa16","system_id":"levelo_inurba_marseille","lat":43.298764,"lon":5.388973,"is_reserved":false,"is_disabled":false,"rental_uris":{"android":"levelo://app?vid=e2fc2d3c-1302-4d5b-8f43-598bed24fa16","ios":"levelo://app?vid=e2fc2d3c-1302-4d5b-8f43-598bed24fa16"},"vehicle_type_id":"4","last_reported":1691435071,"current_range_meters":22800,"station_id":"ce4bh392rcd13ifvqdl0","pricing_plan_id":"free"},{"bike_id":"82339cc8-eece-42db-8cff-4969f4497cd7","system_id":"levelo_inurba_marseille","lat":43.298764,"lon":5.388973,"is_reserved":false,"is_disabled":false,"rental_uris":{"android":"levelo://app?vid=82339cc8-eece-42db-8cff-4969f4497cd7","ios":"levelo://app?vid=82339cc8-eece-42db-8cff-4969f4497cd7"},"vehicle_type_id":"4","last_reported":1691435071,"current_range_meters":23600,"station_id":"ce4bh392rcd13ifvqdl0","pricing_plan_id":"free"},{"bike_id":"086b0f59-d273-4c44-9176-abce67a6a411","system_id":"levelo_inurba_marseille","lat":43.30884,"lon":5.39636,"is_reserved":false,"is_disabled":false,"rental_uris":{"android":"levelo://app?vid=086b0f59-d273-4c44-9176-abce67a6a411","ios":"levelo://app?vid=086b0f59-d273-4c44-9176-abce67a6a411"},"vehicle_type_id":"4","last_reported":1691435071,"current_range_meters":26400,"station_id":"ce4bh012rcd13ifvqcv0","pricing_plan_id":"free"},{"bike_id":"dfd82cf3-5dd1-412c-846f-ed5aa1e0c375","system_id":"levelo_inurba_marseille","lat":43.30882,"lon":5.3964,"is_reserved":false,"is_disabled":false,"rental_uris":{"android":"levelo://app?vid=dfd82cf3-5dd1-412c-846f-ed5aa1e0c375","ios":"levelo://app?vid=dfd82cf3-5dd1-412c-846f-ed5aa1e0c375"},"vehicle_type_id":"4","last_reported":1691435071,"current_range_meters":24800,"station_id":"ce4bh012rcd13ifvqcv0","pricing_plan_id":"free"},{"bike_id":"45630c84-58b1-4d88-b1a0-18da5a3e96c5","system_id":"levelo_inurba_marseille","lat":43.30884,"lon":5.39654,"is_reserved":false,"is_disabled":false,"rental_uris":{"android":"levelo://app?vid=45630c84-58b1-4d88-b1a0-18da5a3e96c5","ios":"levelo://app?vid=45630c84-58b1-4d88-b1a0-18da5a3e96c5"},"vehicle_type_id":"4","last_reported":1691435071,"current_range_meters":14400,"station_id":"ce4bh012rcd13ifvqcv0","pricing_plan_id":"free"},{"bike_id":"c1381dc6-53ff-40d7-96f5-3ba68bab1c64","system_id":"levelo_inurba_marseille","lat":43.29529,"lon":5.385581,"is_reserved":false,"is_disabled":false,"rental_uris":{"android":"levelo://app?vid=c1381dc6-53ff-40d7-96f5-3ba68bab1c64","ios":"levelo://app?vid=c1381dc6-53ff-40d7-96f5-3ba68bab1c64"},"vehicle_type_id":"4","last_reported":1691435071,"current_range_meters":5200,"station_id":"ce4bgih2rcd13ifvqba0","pricing_plan_id":"free"},{"bike_id":"ffd1baa0-d325-4d0a-9a22-a2dd7a1981ed","system_id":"levelo_inurba_marseille","lat":43.29529,"lon":5.385581,"is_reserved":false,"is_disabled":false,"rental_uris":{"android":"levelo://app?vid=ffd1baa0-d325-4d0a-9a22-a2dd7a1981ed","ios":"levelo://app?vid=ffd1baa0-d325-4d0a-9a22-a2dd7a1981ed"},"vehicle_type_id":"4","last_reported":1691435071,"current_range_meters":3600,"station_id":"ce4bgih2rcd13ifvqba0","pricing_plan_id":"free"},{"bike_id":"81f8901f-0fad-468f-9726-20388ea0bc11","system_id":"levelo_inurba_marseille","lat":43.29529,"lon":5.385581,"is_reserved":false,"is_disabled":false,"rental_uris":{"android":"levelo://app?vid=81f8901f-0fad-468f-9726-20388ea0bc11","ios":"levelo://app?vid=81f8901f-0fad-468f-9726-20388ea0bc11"},"vehicle_type_id":"4","last_reported":1691435071,"current_range_meters":18000,"station_id":"ce4bgih2rcd13ifvqba0","pricing_plan_id":"free"},{"bike_id":"d8bf22bf-8f57-4c29-9b97-13d03b3d7a50","system_id":"levelo_inurba_marseille","lat":43.29529,"lon":5.385581,"is_reserved":false,"is_disabled":false,"rental_uris":{"android":"levelo://app?vid=d8bf22bf-8f57-4c29-9b97-13d03b3d7a50","ios":"levelo://app?vid=d8bf22bf-8f57-4c29-9b97-13d03b3d7a50"},"vehicle_type_id":"4","last_reported":1691435071,"current_range_meters":24400,"station_id":"ce4bgih2rcd13ifvqba0","pricing_plan_id":"free"},{"bike_id":"b1de38b3-ed19-43e3-8424-60267534a929","system_id":"levelo_inurba_marseille","lat":43.29529,"lon":5.385581,"is_reserved":false,"is_disabled":false,"rental_uris":{"android":"levelo://app?vid=b1de38b3-ed19-43e3-8424-60267534a929","ios":"levelo://app?vid=b1de38b3-ed19-43e3-8424-60267534a929"},"vehicle_type_id":"4","last_reported":1691435071,"current_range_meters":7600,"station_id":"ce4bgih2rcd13ifvqba0","pricing_plan_id":"free"},{"bike_id":"fba014f0-b655-4e7a-88c8-30783b27761a","system_id":"levelo_inurba_marseille","lat":43.29529,"lon":5.385581,"is_reserved":false,"is_disabled":false,"rental_uris":{"android":"levelo://app?vid=fba014f0-b655-4e7a-88c8-30783b27761a","ios":"levelo://app?vid=fba014f0-b655-4e7a-88c8-30783b27761a"},"vehicle_type_id":"4","last_reported":1691435071,"current_range_meters":8000,"station_id":"ce4bgih2rcd13ifvqba0","pricing_plan_id":"free"},{"bike_id":"41daba61-434b-49db-ba64-875ca4331131","system_id":"levelo_inurba_marseille","lat":43.29529,"lon":5.385581,"is_reserved":false,"is_disabled":false,"rental_uris":{"android":"levelo://app?vid=41daba61-434b-49db-ba64-875ca4331131","ios":"levelo://app?vid=41daba61-434b-49db-ba64-875ca4331131"},"vehicle_type_id":"4","last_reported":1691435071,"current_range_meters":27200,"station_id":"ce4bgih2rcd13ifvqba0","pricing_plan_id":"free"},{"bike_id":"57ff3957-7d41-4e54-8ce0-26fdc4900ce4","system_id":"levelo_inurba_marseille","lat":43.29076,"lon":5.37163,"is_reserved":false,"is_disabled":false,"rental_uris":{"android":"levelo://app?vid=57ff3957-7d41-4e54-8ce0-26fdc4900ce4","ios":"levelo://app?vid=57ff3957-7d41-4e54-8ce0-26fdc4900ce4"},"vehicle_type_id":"4","last_reported":1691435071,"current_range_meters":0,"station_id":"ce4bh5p2rcd13ifvqe4g","pricing_plan_id":"free"},{"bike_id":"ae40872f-8ff6-4ff3-ad60-e2180dbbcc30","system_id":"levelo_inurba_marseille","lat":43.290624,"lon":5.359245,"is_reserved":false,"is_disabled":false,"rental_uris":{"android":"levelo://app?vid=ae40872f-8ff6-4ff3-ad60-e2180dbbcc30","ios":"levelo://app?vid=ae40872f-8ff6-4ff3-ad60-e2180dbbcc30"},"vehicle_type_id":"4","last_reported":1691435071,"current_range_meters":30000,"station_id":"ce4bha92rcd13ifvqeg0","pricing_plan_id":"free"},{"bike_id":"4c33f7a3-7daf-4161-9a15-79ac3e267d84","system_id":"levelo_inurba_marseille","lat":43.294153,"lon":5.386305,"is_reserved":false,"is_disabled":false,"rental_uris":{"android":"levelo://app?vid=4c33f7a3-7daf-4161-9a15-79ac3e267d84","ios":"levelo://app?vid=4c33f7a3-7daf-4161-9a15-79ac3e267d84"},"vehicle_type_id":"4","last_reported":1691435071,"current_range_meters":0,"station_id":"ce4bh2h2rcd13ifvqdh0","pricing_plan_id":"free"},{"bike_id":"82fa6cc4-015a-4dee-8731-a4229c63a0e7","system_id":"levelo_inurba_marseille","lat":43.29418,"lon":5.38619,"is_reserved":false,"is_disabled":false,"rental_uris":{"android":"levelo://app?vid=82fa6cc4-015a-4dee-8731-a4229c63a0e7","ios":"levelo://app?vid=82fa6cc4-015a-4dee-8731-a4229c63a0e7"},"vehicle_type_id":"4","last_reported":1691435071,"current_range_meters":20800,"station_id":"","pricing_plan_id":"free"},{"bike_id":"5df25b16-6300-4532-bc6f-5c17e26e4623","system_id":"levelo_inurba_marseille","lat":43.294153,"lon":5.386305,"is_reserved":false,"is_disabled":false,"rental_uris":{"android":"levelo://app?vid=5df25b16-6300-4532-bc6f-5c17e26e4623","ios":"levelo://app?vid=5df25b16-6300-4532-bc6f-5c17e26e4623"},"vehicle_type_id":"4","last_reported":1691435071,"current_range_meters":7600,"station_id":"ce4bh2h2rcd13ifvqdh0","pricing_plan_id":"free"},{"bike_id":"93d1cafe-4640-4982-a8a6-7ff1262b905d","system_id":"levelo_inurba_marseille","lat":43.294153,"lon":5.386305,"is_reserved":false,"is_disabled":false,"rental_uris":{"android":"levelo://app?vid=93d1cafe-4640-4982-a8a6-7ff1262b905d","ios":"levelo://app?vid=93d1cafe-4640-4982-a8a6-7ff1262b905d"},"vehicle_type_id":"4","last_reported":1691435071,"current_range_meters":6400,"station_id":"ce4bh2h2rcd13ifvqdh0","pricing_plan_id":"free"},{"bike_id":"33eae8a5-a6ed-4ab2-9264-039eccc9a1a7","system_id":"levelo_inurba_marseille","lat":43.294162,"lon":5.386292,"is_reserved":false,"is_disabled":false,"rental_uris":{"android":"levelo://app?vid=33eae8a5-a6ed-4ab2-9264-039eccc9a1a7","ios":"levelo://app?vid=33eae8a5-a6ed-4ab2-9264-039eccc9a1a7"},"vehicle_type_id":"4","last_reported":1691435071,"current_range_meters":29600,"station_id":"ce4bh2h2rcd13ifvqdh0","pricing_plan_id":"free"},{"bike_id":"668d5f5f-b62c-4310-bf1c-961852acea5a","system_id":"levelo_inurba_marseille","lat":43.294153,"lon":5.386305,"is_reserved":false,"is_disabled":false,"rental_uris":{"android":"levelo://app?vid=668d5f5f-b62c-4310-bf1c-961852acea5a","ios":"levelo://app?vid=668d5f5f-b62c-4310-bf1c-961852acea5a"},"vehicle_type_id":"4","last_reported":1691435071,"current_range_meters":12000,"station_id":"ce4bh2h2rcd13ifvqdh0","pricing_plan_id":"free"},{"bike_id":"ff2f025e-a3be-4d1b-8d20-8c296b495156","system_id":"levelo_inurba_marseille","lat":43.294162,"lon":5.386292,"is_reserved":false,"is_disabled":false,"rental_uris":{"android":"levelo://app?vid=ff2f025e-a3be-4d1b-8d20-8c296b495156","ios":"levelo://app?vid=ff2f025e-a3be-4d1b-8d20-8c296b495156"},"vehicle_type_id":"4","last_reported":1691435071,"current_range_meters":15200,"station_id":"ce4bh2h2rcd13ifvqdh0","pricing_plan_id":"free"},{"bike_id":"6a22d795-e35f-4136-a849-aaa44a6f9ffe","system_id":"levelo_inurba_marseille","lat":43.294153,"lon":5.386305,"is_reserved":false,"is_disabled":false,"rental_uris":{"android":"levelo://app?vid=6a22d795-e35f-4136-a849-aaa44a6f9ffe","ios":"levelo://app?vid=6a22d795-e35f-4136-a849-aaa44a6f9ffe"},"vehicle_type_id":"4","last_reported":1691435071,"current_range_meters":0,"station_id":"ce4bh2h2rcd13ifvqdh0","pricing_plan_id":"free"},{"bike_id":"dc49a558-9b23-4f60-8df3-284a862f6c74","system_id":"levelo_inurba_marseille","lat":43.294162,"lon":5.386292,"is_reserved":false,"is_disabled":false,"rental_uris":{"android":"levelo://app?vid=dc49a558-9b23-4f60-8df3-284a862f6c74","ios":"levelo://app?vid=dc49a558-9b23-4f60-8df3-284a862f6c74"},"vehicle_type_id":"4","last_reported":1691435071,"current_range_meters":31600,"station_id":"ce4bh2h2rcd13ifvqdh0","pricing_plan_id":"free"},{"bike_id":"b79d5c6c-5f97-4cc3-a854-c701ec6b65b0","system_id":"levelo_inurba_marseille","lat":43.294162,"lon":5.386292,"is_reserved":false,"is_disabled":false,"rental_uris":{"android":"levelo://app?vid=b79d5c6c-5f97-4cc3-a854-c701ec6b65b0","ios":"levelo://app?vid=b79d5c6c-5f97-4cc3-a854-c701ec6b65b0"},"vehicle_type_id":"4","last_reported":1691435071,"current_range_meters":30000,"station_id":"ce4bh2h2rcd13ifvqdh0","pricing_plan_id":"free"},{"bike_id":"0e65905f-eeed-48b5-8948-e322de417493","system_id":"levelo_inurba_marseille","lat":43.294162,"lon":5.386292,"is_reserved":false,"is_disabled":false,"rental_uris":{"android":"levelo://app?vid=0e65905f-eeed-48b5-8948-e322de417493","ios":"levelo://app?vid=0e65905f-eeed-48b5-8948-e322de417493"},"vehicle_type_id":"4","last_reported":1691435071,"current_range_meters":19600,"station_id":"ce4bh2h2rcd13ifvqdh0","pricing_plan_id":"free"},{"bike_id":"0c4da44f-3cc5-4006-aef2-a149d0cd951b","system_id":"levelo_inurba_marseille","lat":43.28941,"lon":5.36633,"is_reserved":false,"is_disabled":false,"rental_uris":{"android":"levelo://app?vid=0c4da44f-3cc5-4006-aef2-a149d0cd951b","ios":"levelo://app?vid=0c4da44f-3cc5-4006-aef2-a149d0cd951b"},"vehicle_type_id":"4","last_reported":1691435071,"current_range_meters":16800,"station_id":"ce4bhap2rcd13ifvqek0","pricing_plan_id":"free"},{"bike_id":"a0ca6234-ca0e-4206-94af-df6b5f918a23","system_id":"levelo_inurba_marseille","lat":43.294162,"lon":5.386292,"is_reserved":false,"is_disabled":false,"rental_uris":{"android":"levelo://app?vid=a0ca6234-ca0e-4206-94af-df6b5f918a23","ios":"levelo://app?vid=a0ca6234-ca0e-4206-94af-df6b5f918a23"},"vehicle_type_id":"4","last_reported":1691435071,"current_range_meters":8000,"station_id":"ce4bh2h2rcd13ifvqdh0","pricing_plan_id":"free"},{"bike_id":"d7fa5628-b1ee-4c9d-89bd-9c3b09a1d027","system_id":"levelo_inurba_marseille","lat":43.292644,"lon":5.384257,"is_reserved":false,"is_disabled":false,"rental_uris":{"android":"levelo://app?vid=d7fa5628-b1ee-4c9d-89bd-9c3b09a1d027","ios":"levelo://app?vid=d7fa5628-b1ee-4c9d-89bd-9c3b09a1d027"},"vehicle_type_id":"4","last_reported":1691435071,"current_range_meters":8800,"station_id":"ce4bh692rcd13ifvqea0","pricing_plan_id":"free"},{"bike_id":"e9bd32ca-e164-4cab-8077-9353327f80bc","system_id":"levelo_inurba_marseille","lat":43.292642,"lon":5.384254,"is_reserved":false,"is_disabled":false,"rental_uris":{"android":"levelo://app?vid=e9bd32ca-e164-4cab-8077-9353327f80bc","ios":"levelo://app?vid=e9bd32ca-e164-4cab-8077-9353327f80bc"},"vehicle_type_id":"4","last_reported":1691435071,"current_range_meters":7200,"station_id":"ce4bh692rcd13ifvqea0","pricing_plan_id":"free"},{"bike_id":"c90d5070-861b-44c5-9dc1-c6b902362000","system_id":"levelo_inurba_marseille","lat":43.2927,"lon":5.38436,"is_reserved":false,"is_disabled":false,"rental_uris":{"android":"levelo://app?vid=c90d5070-861b-44c5-9dc1-c6b902362000","ios":"levelo://app?vid=c90d5070-861b-44c5-9dc1-c6b902362000"},"vehicle_type_id":"4","last_reported":1691435071,"current_range_meters":0,"station_id":"ce4bh692rcd13ifvqea0","pricing_plan_id":"free"},{"bike_id":"88c74dd6-f665-421f-b953-67c68871aa2f","system_id":"levelo_inurba_marseille","lat":43.292644,"lon":5.384257,"is_reserved":false,"is_disabled":false,"rental_uris":{"android":"levelo://app?vid=88c74dd6-f665-421f-b953-67c68871aa2f","ios":"levelo://app?vid=88c74dd6-f665-421f-b953-67c68871aa2f"},"vehicle_type_id":"4","last_reported":1691435071,"current_range_meters":25600,"station_id":"ce4bh692rcd13ifvqea0","pricing_plan_id":"free"},{"bike_id":"86955e39-16a7-4e9a-a6d3-9c211880e3b7","system_id":"levelo_inurba_marseille","lat":43.292642,"lon":5.384254,"is_reserved":false,"is_disabled":false,"rental_uris":{"android":"levelo://app?vid=86955e39-16a7-4e9a-a6d3-9c211880e3b7","ios":"levelo://app?vid=86955e39-16a7-4e9a-a6d3-9c211880e3b7"},"vehicle_type_id":"4","last_reported":1691435071,"current_range_meters":10000,"station_id":"ce4bh692rcd13ifvqea0","pricing_plan_id":"free"},{"bike_id":"7a2cd72f-9343-4a71-8aa5-074f8559e2ab","system_id":"levelo_inurba_marseille","lat":43.292661,"lon":5.384371,"is_reserved":false,"is_disabled":false,"rental_uris":{"android":"levelo://app?vid=7a2cd72f-9343-4a71-8aa5-074f8559e2ab","ios":"levelo://app?vid=7a2cd72f-9343-4a71-8aa5-074f8559e2ab"},"vehicle_type_id":"4","last_reported":1691435071,"current_range_meters":10800,"station_id":"ce4bh692rcd13ifvqea0","pricing_plan_id":"free"},{"bike_id":"c0c841ba-bdce-4d62-853f-cdbf1ff9eacf","system_id":"levelo_inurba_marseille","lat":43.29267,"lon":5.38441,"is_reserved":false,"is_disabled":false,"rental_uris":{"android":"levelo://app?vid=c0c841ba-bdce-4d62-853f-cdbf1ff9eacf","ios":"levelo://app?vid=c0c841ba-bdce-4d62-853f-cdbf1ff9eacf"},"vehicle_type_id":"4","last_reported":1691435071,"current_range_meters":21600,"station_id":"ce4bh692rcd13ifvqea0","pricing_plan_id":"free"},{"bike_id":"464a1a94-7e89-4544-9db0-c5a813a402c0","system_id":"levelo_inurba_marseille","lat":43.292644,"lon":5.384257,"is_reserved":false,"is_disabled":false,"rental_uris":{"android":"levelo://app?vid=464a1a94-7e89-4544-9db0-c5a813a402c0","ios":"levelo://app?vid=464a1a94-7e89-4544-9db0-c5a813a402c0"},"vehicle_type_id":"4","last_reported":1691435071,"current_range_meters":20400,"station_id":"ce4bh692rcd13ifvqea0","pricing_plan_id":"free"},{"bike_id":"bb2b4476-b34f-4e7c-ac31-efceced1691a","system_id":"levelo_inurba_marseille","lat":43.292644,"lon":5.384257,"is_reserved":false,"is_disabled":false,"rental_uris":{"android":"levelo://app?vid=bb2b4476-b34f-4e7c-ac31-efceced1691a","ios":"levelo://app?vid=bb2b4476-b34f-4e7c-ac31-efceced1691a"},"vehicle_type_id":"4","last_reported":1691435071,"current_range_meters":4400,"station_id":"ce4bh692rcd13ifvqea0","pricing_plan_id":"free"},{"bike_id":"d1aad9eb-68c6-4588-bdb3-993ecf89bccf","system_id":"levelo_inurba_marseille","lat":43.292642,"lon":5.384254,"is_reserved":false,"is_disabled":false,"rental_uris":{"android":"levelo://app?vid=d1aad9eb-68c6-4588-bdb3-993ecf89bccf","ios":"levelo://app?vid=d1aad9eb-68c6-4588-bdb3-993ecf89bccf"},"vehicle_type_id":"4","last_reported":1691435071,"current_range_meters":30000,"station_id":"ce4bh692rcd13ifvqea0","pricing_plan_id":"free"},{"bike_id":"39db1771-6a11-4b34-ad7c-7599fbc796bc","system_id":"levelo_inurba_marseille","lat":43.292644,"lon":5.384257,"is_reserved":false,"is_disabled":false,"rental_uris":{"android":"levelo://app?vid=39db1771-6a11-4b34-ad7c-7599fbc796bc","ios":"levelo://app?vid=39db1771-6a11-4b34-ad7c-7599fbc796bc"},"vehicle_type_id":"4","last_reported":1691435071,"current_range_meters":24400,"station_id":"ce4bh692rcd13ifvqea0","pricing_plan_id":"free"},{"bike_id":"28f320e3-0411-4816-9bff-c3794f29d11d","system_id":"levelo_inurba_marseille","lat":43.292642,"lon":5.384254,"is_reserved":false,"is_disabled":false,"rental_uris":{"android":"levelo://app?vid=28f320e3-0411-4816-9bff-c3794f29d11d","ios":"levelo://app?vid=28f320e3-0411-4816-9bff-c3794f29d11d"},"vehicle_type_id":"4","last_reported":1691435071,"current_range_meters":1200,"station_id":"ce4bh692rcd13ifvqea0","pricing_plan_id":"free"},{"bike_id":"710a8ca0-0a8d-4ce2-954b-8bfe38177df3","system_id":"levelo_inurba_marseille","lat":43.292644,"lon":5.384257,"is_reserved":false,"is_disabled":false,"rental_uris":{"android":"levelo://app?vid=710a8ca0-0a8d-4ce2-954b-8bfe38177df3","ios":"levelo://app?vid=710a8ca0-0a8d-4ce2-954b-8bfe38177df3"},"vehicle_type_id":"4","last_reported":1691435071,"current_range_meters":31600,"station_id":"ce4bh692rcd13ifvqea0","pricing_plan_id":"free"},{"bike_id":"0fd04a7e-90fd-4435-bcbd-a673abcca040","system_id":"levelo_inurba_marseille","lat":43.292644,"lon":5.384257,"is_reserved":false,"is_disabled":false,"rental_uris":{"android":"levelo://app?vid=0fd04a7e-90fd-4435-bcbd-a673abcca040","ios":"levelo://app?vid=0fd04a7e-90fd-4435-bcbd-a673abcca040"},"vehicle_type_id":"4","last_reported":1691435071,"current_range_meters":1200,"station_id":"ce4bh692rcd13ifvqea0","pricing_plan_id":"free"},{"bike_id":"1693300d-69b5-4138-ac7c-605b35a68836","system_id":"levelo_inurba_marseille","lat":43.29258,"lon":5.38437,"is_reserved":false,"is_disabled":false,"rental_uris":{"android":"levelo://app?vid=1693300d-69b5-4138-ac7c-605b35a68836","ios":"levelo://app?vid=1693300d-69b5-4138-ac7c-605b35a68836"},"vehicle_type_id":"4","last_reported":1691435071,"current_range_meters":0,"station_id":"ce4bh692rcd13ifvqea0","pricing_plan_id":"free"},{"bike_id":"1c972ca1-2cf0-41e2-ba61-c11923da19e9","system_id":"levelo_inurba_marseille","lat":43.29266,"lon":5.38455,"is_reserved":false,"is_disabled":false,"rental_uris":{"android":"levelo://app?vid=1c972ca1-2cf0-41e2-ba61-c11923da19e9","ios":"levelo://app?vid=1c972ca1-2cf0-41e2-ba61-c11923da19e9"},"vehicle_type_id":"4","last_reported":1691435071,"current_range_meters":0,"station_id":"ce4bh692rcd13ifvqea0","pricing_plan_id":"free"},{"bike_id":"e6f8e3e1-5f08-452e-a0f7-42572193a003","system_id":"levelo_inurba_marseille","lat":43.292644,"lon":5.384257,"is_reserved":false,"is_disabled":false,"rental_uris":{"android":"levelo://app?vid=e6f8e3e1-5f08-452e-a0f7-42572193a003","ios":"levelo://app?vid=e6f8e3e1-5f08-452e-a0f7-42572193a003"},"vehicle_type_id":"4","last_reported":1691435071,"current_range_meters":5600,"station_id":"ce4bh692rcd13ifvqea0","pricing_plan_id":"free"},{"bike_id":"2dbc4e31-2915-41d9-a9c5-ce97dc25829a","system_id":"levelo_inurba_marseille","lat":43.29263,"lon":5.38454,"is_reserved":false,"is_disabled":false,"rental_uris":{"android":"levelo://app?vid=2dbc4e31-2915-41d9-a9c5-ce97dc25829a","ios":"levelo://app?vid=2dbc4e31-2915-41d9-a9c5-ce97dc25829a"},"vehicle_type_id":"4","last_reported":1691435071,"current_range_meters":7200,"station_id":"ce4bh692rcd13ifvqea0","pricing_plan_id":"free"},{"bike_id":"1b8f4f48-36ed-4447-901a-1560f65b091f","system_id":"levelo_inurba_marseille","lat":43.2926,"lon":5.38448,"is_reserved":false,"is_disabled":false,"rental_uris":{"android":"levelo://app?vid=1b8f4f48-36ed-4447-901a-1560f65b091f","ios":"levelo://app?vid=1b8f4f48-36ed-4447-901a-1560f65b091f"},"vehicle_type_id":"4","last_reported":1691435071,"current_range_meters":13200,"station_id":"","pricing_plan_id":"free"},{"bike_id":"a22dde8f-9d05-4e32-9bf5-c5831c4c3767","system_id":"levelo_inurba_marseille","lat":43.292644,"lon":5.384257,"is_reserved":false,"is_disabled":false,"rental_uris":{"android":"levelo://app?vid=a22dde8f-9d05-4e32-9bf5-c5831c4c3767","ios":"levelo://app?vid=a22dde8f-9d05-4e32-9bf5-c5831c4c3767"},"vehicle_type_id":"4","last_reported":1691435071,"current_range_meters":9200,"station_id":"ce4bh692rcd13ifvqea0","pricing_plan_id":"free"},{"bike_id":"701896c9-053d-42af-8748-cab26e27c2a7","system_id":"levelo_inurba_marseille","lat":43.290092,"lon":5.356208,"is_reserved":false,"is_disabled":false,"rental_uris":{"android":"levelo://app?vid=701896c9-053d-42af-8748-cab26e27c2a7","ios":"levelo://app?vid=701896c9-053d-42af-8748-cab26e27c2a7"},"vehicle_type_id":"4","last_reported":1691435071,"current_range_meters":31200,"station_id":"ce4bhb92rcd13ifvqen0","pricing_plan_id":"free"},{"bike_id":"cd4535e0-38e9-4562-b29c-b7fd81d9e32a","system_id":"levelo_inurba_marseille","lat":43.290084,"lon":5.356164,"is_reserved":false,"is_disabled":false,"rental_uris":{"android":"levelo://app?vid=cd4535e0-38e9-4562-b29c-b7fd81d9e32a","ios":"levelo://app?vid=cd4535e0-38e9-4562-b29c-b7fd81d9e32a"},"vehicle_type_id":"4","last_reported":1691435071,"current_range_meters":31200,"station_id":"ce4bhb92rcd13ifvqen0","pricing_plan_id":"free"},{"bike_id":"c8a65f85-8e7d-4d37-ae6c-42965d3e32a9","system_id":"levelo_inurba_marseille","lat":43.330442,"lon":5.389148,"is_reserved":false,"is_disabled":false,"rental_uris":{"android":"levelo://app?vid=c8a65f85-8e7d-4d37-ae6c-42965d3e32a9","ios":"levelo://app?vid=c8a65f85-8e7d-4d37-ae6c-42965d3e32a9"},"vehicle_type_id":"4","last_reported":1691435071,"current_range_meters":19200,"station_id":"ce4bhr92rcd13ifvqhrg","pricing_plan_id":"free"},{"bike_id":"f4206dc8-b44a-45d4-89f4-46723b0ee39b","system_id":"levelo_inurba_marseille","lat":43.33049,"lon":5.3891,"is_reserved":false,"is_disabled":false,"rental_uris":{"android":"levelo://app?vid=f4206dc8-b44a-45d4-89f4-46723b0ee39b","ios":"levelo://app?vid=f4206dc8-b44a-45d4-89f4-46723b0ee39b"},"vehicle_type_id":"4","last_reported":1691435071,"current_range_meters":16800,"station_id":"ce4bhr92rcd13ifvqhrg","pricing_plan_id":"free"},{"bike_id":"80bdccbe-f686-410a-b64d-0d5779bfde69","system_id":"levelo_inurba_marseille","lat":43.290103,"lon":5.356114,"is_reserved":false,"is_disabled":false,"rental_uris":{"android":"levelo://app?vid=80bdccbe-f686-410a-b64d-0d5779bfde69","ios":"levelo://app?vid=80bdccbe-f686-410a-b64d-0d5779bfde69"},"vehicle_type_id":"4","last_reported":1691435071,"current_range_meters":3200,"station_id":"ce4bhb92rcd13ifvqen0","pricing_plan_id":"free"},{"bike_id":"b044e4bf-abbe-4cbb-bfa1-cb75a1663405","system_id":"levelo_inurba_marseille","lat":43.290104,"lon":5.356111,"is_reserved":false,"is_disabled":false,"rental_uris":{"android":"levelo://app?vid=b044e4bf-abbe-4cbb-bfa1-cb75a1663405","ios":"levelo://app?vid=b044e4bf-abbe-4cbb-bfa1-cb75a1663405"},"vehicle_type_id":"4","last_reported":1691435071,"current_range_meters":31600,"station_id":"ce4bhb92rcd13ifvqen0","pricing_plan_id":"free"},{"bike_id":"a7b47e41-e6cd-4787-85c2-0ca171ace079","system_id":"levelo_inurba_marseille","lat":43.290104,"lon":5.356111,"is_reserved":false,"is_disabled":false,"rental_uris":{"android":"levelo://app?vid=a7b47e41-e6cd-4787-85c2-0ca171ace079","ios":"levelo://app?vid=a7b47e41-e6cd-4787-85c2-0ca171ace079"},"vehicle_type_id":"4","last_reported":1691435071,"current_range_meters":26400,"station_id":"ce4bhb92rcd13ifvqen0","pricing_plan_id":"free"},{"bike_id":"db702e82-d715-40c5-af20-cc7d83b9cdbc","system_id":"levelo_inurba_marseille","lat":43.290104,"lon":5.356111,"is_reserved":false,"is_disabled":false,"rental_uris":{"android":"levelo://app?vid=db702e82-d715-40c5-af20-cc7d83b9cdbc","ios":"levelo://app?vid=db702e82-d715-40c5-af20-cc7d83b9cdbc"},"vehicle_type_id":"4","last_reported":1691435071,"current_range_meters":10000,"station_id":"ce4bhb92rcd13ifvqen0","pricing_plan_id":"free"},{"bike_id":"d92191b5-3897-428d-989c-4b986c7a7e64","system_id":"levelo_inurba_marseille","lat":43.29001,"lon":5.35603,"is_reserved":false,"is_disabled":false,"rental_uris":{"android":"levelo://app?vid=d92191b5-3897-428d-989c-4b986c7a7e64","ios":"levelo://app?vid=d92191b5-3897-428d-989c-4b986c7a7e64"},"vehicle_type_id":"4","last_reported":1691435071,"current_range_meters":13600,"station_id":"ce4bhb92rcd13ifvqen0","pricing_plan_id":"free"},{"bike_id":"c033d2f2-c2d3-4a81-8d5a-0a011b9d0322","system_id":"levelo_inurba_marseille","lat":43.290995,"lon":5.381361,"is_reserved":false,"is_disabled":false,"rental_uris":{"android":"levelo://app?vid=c033d2f2-c2d3-4a81-8d5a-0a011b9d0322","ios":"levelo://app?vid=c033d2f2-c2d3-4a81-8d5a-0a011b9d0322"},"vehicle_type_id":"4","last_reported":1691435071,"current_range_meters":30000,"station_id":"ce4bh512rcd13ifvqe2g","pricing_plan_id":"free"},{"bike_id":"78a1a5bb-1590-410b-a41c-786e430d786c","system_id":"levelo_inurba_marseille","lat":43.29798,"lon":5.39335,"is_reserved":false,"is_disabled":false,"rental_uris":{"android":"levelo://app?vid=78a1a5bb-1590-410b-a41c-786e430d786c","ios":"levelo://app?vid=78a1a5bb-1590-410b-a41c-786e430d786c"},"vehicle_type_id":"4","last_reported":1691435071,"current_range_meters":0,"station_id":"chh1huq6cuj3fo74tm60","pricing_plan_id":"free"},{"bike_id":"8dfaca61-5b8e-4213-a2b7-8418651d44a8","system_id":"levelo_inurba_marseille","lat":43.297815,"lon":5.393548,"is_reserved":false,"is_disabled":false,"rental_uris":{"android":"levelo://app?vid=8dfaca61-5b8e-4213-a2b7-8418651d44a8","ios":"levelo://app?vid=8dfaca61-5b8e-4213-a2b7-8418651d44a8"},"vehicle_type_id":"4","last_reported":1691435071,"current_range_meters":14800,"station_id":"chh1huq6cuj3fo74tm60","pricing_plan_id":"free"},{"bike_id":"e1ea1ad6-5e9b-4bfb-9771-2e53844d5a73","system_id":"levelo_inurba_marseille","lat":43.297815,"lon":5.393548,"is_reserved":false,"is_disabled":false,"rental_uris":{"android":"levelo://app?vid=e1ea1ad6-5e9b-4bfb-9771-2e53844d5a73","ios":"levelo://app?vid=e1ea1ad6-5e9b-4bfb-9771-2e53844d5a73"},"vehicle_type_id":"4","last_reported":1691435071,"current_range_meters":7200,"station_id":"chh1huq6cuj3fo74tm60","pricing_plan_id":"free"},{"bike_id":"0dd65405-b449-4ccf-8aa4-56aebe411d8b","system_id":"levelo_inurba_marseille","lat":43.297815,"lon":5.393548,"is_reserved":false,"is_disabled":false,"rental_uris":{"android":"levelo://app?vid=0dd65405-b449-4ccf-8aa4-56aebe411d8b","ios":"levelo://app?vid=0dd65405-b449-4ccf-8aa4-56aebe411d8b"},"vehicle_type_id":"4","last_reported":1691435071,"current_range_meters":7600,"station_id":"chh1huq6cuj3fo74tm60","pricing_plan_id":"free"},{"bike_id":"f2efe74e-0971-40de-9b21-5bd69a1dbe5b","system_id":"levelo_inurba_marseille","lat":43.29777,"lon":5.39335,"is_reserved":false,"is_disabled":false,"rental_uris":{"android":"levelo://app?vid=f2efe74e-0971-40de-9b21-5bd69a1dbe5b","ios":"levelo://app?vid=f2efe74e-0971-40de-9b21-5bd69a1dbe5b"},"vehicle_type_id":"4","last_reported":1691435071,"current_range_meters":27600,"station_id":"chh1huq6cuj3fo74tm60","pricing_plan_id":"free"},{"bike_id":"859fbdc4-adf3-4a59-8108-df373ac6e3a7","system_id":"levelo_inurba_marseille","lat":43.297815,"lon":5.393548,"is_reserved":false,"is_disabled":false,"rental_uris":{"android":"levelo://app?vid=859fbdc4-adf3-4a59-8108-df373ac6e3a7","ios":"levelo://app?vid=859fbdc4-adf3-4a59-8108-df373ac6e3a7"},"vehicle_type_id":"4","last_reported":1691435071,"current_range_meters":30000,"station_id":"chh1huq6cuj3fo74tm60","pricing_plan_id":"free"},{"bike_id":"a5ef641e-94ae-4eff-a2d9-f94a9a0c0379","system_id":"levelo_inurba_marseille","lat":43.297815,"lon":5.393548,"is_reserved":false,"is_disabled":false,"rental_uris":{"android":"levelo://app?vid=a5ef641e-94ae-4eff-a2d9-f94a9a0c0379","ios":"levelo://app?vid=a5ef641e-94ae-4eff-a2d9-f94a9a0c0379"},"vehicle_type_id":"4","last_reported":1691435071,"current_range_meters":12000,"station_id":"chh1huq6cuj3fo74tm60","pricing_plan_id":"free"},{"bike_id":"7fb20e49-3f5e-4793-b858-a1ee2c6c14db","system_id":"levelo_inurba_marseille","lat":43.295169,"lon":5.390426,"is_reserved":false,"is_disabled":false,"rental_uris":{"android":"levelo://app?vid=7fb20e49-3f5e-4793-b858-a1ee2c6c14db","ios":"levelo://app?vid=7fb20e49-3f5e-4793-b858-a1ee2c6c14db"},"vehicle_type_id":"4","last_reported":1691435071,"current_range_meters":6400,"station_id":"ce4bh3p2rcd13ifvqdp0","pricing_plan_id":"free"},{"bike_id":"284a56bc-4a69-480d-bdad-1d6f137c8c1e","system_id":"levelo_inurba_marseille","lat":43.297815,"lon":5.393548,"is_reserved":false,"is_disabled":false,"rental_uris":{"android":"levelo://app?vid=284a56bc-4a69-480d-bdad-1d6f137c8c1e","ios":"levelo://app?vid=284a56bc-4a69-480d-bdad-1d6f137c8c1e"},"vehicle_type_id":"4","last_reported":1691435071,"current_range_meters":26400,"station_id":"chh1huq6cuj3fo74tm60","pricing_plan_id":"free"},{"bike_id":"5486b30c-5b5c-41c2-ac9b-e0b220454332","system_id":"levelo_inurba_marseille","lat":43.295169,"lon":5.390426,"is_reserved":false,"is_disabled":false,"rental_uris":{"android":"levelo://app?vid=5486b30c-5b5c-41c2-ac9b-e0b220454332","ios":"levelo://app?vid=5486b30c-5b5c-41c2-ac9b-e0b220454332"},"vehicle_type_id":"4","last_reported":1691435071,"current_range_meters":24800,"station_id":"ce4bh3p2rcd13ifvqdp0","pricing_plan_id":"free"},{"bike_id":"ac9d03cb-53c8-4f53-9ce9-6a00eeb1d170","system_id":"levelo_inurba_marseille","lat":43.295169,"lon":5.390426,"is_reserved":false,"is_disabled":false,"rental_uris":{"android":"levelo://app?vid=ac9d03cb-53c8-4f53-9ce9-6a00eeb1d170","ios":"levelo://app?vid=ac9d03cb-53c8-4f53-9ce9-6a00eeb1d170"},"vehicle_type_id":"4","last_reported":1691435071,"current_range_meters":10000,"station_id":"ce4bh3p2rcd13ifvqdp0","pricing_plan_id":"free"},{"bike_id":"b4b78da3-a8ad-41cc-8bfa-23036b972873","system_id":"levelo_inurba_marseille","lat":43.295169,"lon":5.390426,"is_reserved":false,"is_disabled":false,"rental_uris":{"android":"levelo://app?vid=b4b78da3-a8ad-41cc-8bfa-23036b972873","ios":"levelo://app?vid=b4b78da3-a8ad-41cc-8bfa-23036b972873"},"vehicle_type_id":"4","last_reported":1691435071,"current_range_meters":12400,"station_id":"ce4bh3p2rcd13ifvqdp0","pricing_plan_id":"free"},{"bike_id":"8c8d7c73-863f-4d3b-95ca-00f43b87c1dc","system_id":"levelo_inurba_marseille","lat":43.295169,"lon":5.390426,"is_reserved":false,"is_disabled":false,"rental_uris":{"android":"levelo://app?vid=8c8d7c73-863f-4d3b-95ca-00f43b87c1dc","ios":"levelo://app?vid=8c8d7c73-863f-4d3b-95ca-00f43b87c1dc"},"vehicle_type_id":"4","last_reported":1691435071,"current_range_meters":11600,"station_id":"ce4bh3p2rcd13ifvqdp0","pricing_plan_id":"free"},{"bike_id":"f849f3d8-f1ec-4f18-a53e-48d88f7ccf7c","system_id":"levelo_inurba_marseille","lat":43.3127,"lon":5.40168,"is_reserved":false,"is_disabled":false,"rental_uris":{"android":"levelo://app?vid=f849f3d8-f1ec-4f18-a53e-48d88f7ccf7c","ios":"levelo://app?vid=f849f3d8-f1ec-4f18-a53e-48d88f7ccf7c"},"vehicle_type_id":"4","last_reported":1691435071,"current_range_meters":12000,"station_id":"ce4bh092rcd13ifvqd30","pricing_plan_id":"free"},{"bike_id":"85e75e98-c640-4234-8ebc-08111ff15469","system_id":"levelo_inurba_marseille","lat":43.31276,"lon":5.4017,"is_reserved":false,"is_disabled":false,"rental_uris":{"android":"levelo://app?vid=85e75e98-c640-4234-8ebc-08111ff15469","ios":"levelo://app?vid=85e75e98-c640-4234-8ebc-08111ff15469"},"vehicle_type_id":"4","last_reported":1691435071,"current_range_meters":0,"station_id":"ce4bh092rcd13ifvqd30","pricing_plan_id":"free"},{"bike_id":"6e227cb6-fa8a-49cf-af87-f8536bfd0556","system_id":"levelo_inurba_marseille","lat":43.312609,"lon":5.401662,"is_reserved":false,"is_disabled":false,"rental_uris":{"android":"levelo://app?vid=6e227cb6-fa8a-49cf-af87-f8536bfd0556","ios":"levelo://app?vid=6e227cb6-fa8a-49cf-af87-f8536bfd0556"},"vehicle_type_id":"4","last_reported":1691435071,"current_range_meters":14000,"station_id":"ce4bh092rcd13ifvqd30","pricing_plan_id":"free"},{"bike_id":"a998788e-eb80-48ea-873d-bf43beb8b386","system_id":"levelo_inurba_marseille","lat":43.30639,"lon":5.40101,"is_reserved":false,"is_disabled":false,"rental_uris":{"android":"levelo://app?vid=a998788e-eb80-48ea-873d-bf43beb8b386","ios":"levelo://app?vid=a998788e-eb80-48ea-873d-bf43beb8b386"},"vehicle_type_id":"4","last_reported":1691435071,"current_range_meters":14400,"station_id":"ce4bh112rcd13ifvqda0","pricing_plan_id":"free"},{"bike_id":"a6001892-51e5-4f73-97d0-6951ded04ddf","system_id":"levelo_inurba_marseille","lat":43.301117,"lon":5.398795,"is_reserved":false,"is_disabled":false,"rental_uris":{"android":"levelo://app?vid=a6001892-51e5-4f73-97d0-6951ded04ddf","ios":"levelo://app?vid=a6001892-51e5-4f73-97d0-6951ded04ddf"},"vehicle_type_id":"4","last_reported":1691435071,"current_range_meters":19600,"station_id":"ce4bh0h2rcd13ifvqd40","pricing_plan_id":"free"},{"bike_id":"2fc872f6-f79f-49a5-8e6f-e8232350ccf3","system_id":"levelo_inurba_marseille","lat":43.298681,"lon":5.397225,"is_reserved":false,"is_disabled":false,"rental_uris":{"android":"levelo://app?vid=2fc872f6-f79f-49a5-8e6f-e8232350ccf3","ios":"levelo://app?vid=2fc872f6-f79f-49a5-8e6f-e8232350ccf3"},"vehicle_type_id":"4","last_reported":1691435071,"current_range_meters":25200,"station_id":"ce4bh0h2rcd13ifvqd50","pricing_plan_id":"free"},{"bike_id":"e6882515-bbbe-4ab9-b64b-c5218ae9de51","system_id":"levelo_inurba_marseille","lat":43.298681,"lon":5.397225,"is_reserved":false,"is_disabled":false,"rental_uris":{"android":"levelo://app?vid=e6882515-bbbe-4ab9-b64b-c5218ae9de51","ios":"levelo://app?vid=e6882515-bbbe-4ab9-b64b-c5218ae9de51"},"vehicle_type_id":"4","last_reported":1691435071,"current_range_meters":31600,"station_id":"ce4bh0h2rcd13ifvqd50","pricing_plan_id":"free"},{"bike_id":"9b26c694-c67a-432f-b2e7-9610bc7bc149","system_id":"levelo_inurba_marseille","lat":43.298681,"lon":5.397225,"is_reserved":false,"is_disabled":false,"rental_uris":{"android":"levelo://app?vid=9b26c694-c67a-432f-b2e7-9610bc7bc149","ios":"levelo://app?vid=9b26c694-c67a-432f-b2e7-9610bc7bc149"},"vehicle_type_id":"4","last_reported":1691435071,"current_range_meters":14800,"station_id":"ce4bh0h2rcd13ifvqd50","pricing_plan_id":"free"},{"bike_id":"c78dc39f-279f-4982-a41f-1b5b1d08df6c","system_id":"levelo_inurba_marseille","lat":43.286591,"lon":5.363346,"is_reserved":false,"is_disabled":false,"rental_uris":{"android":"levelo://app?vid=c78dc39f-279f-4982-a41f-1b5b1d08df6c","ios":"levelo://app?vid=c78dc39f-279f-4982-a41f-1b5b1d08df6c"},"vehicle_type_id":"4","last_reported":1691435071,"current_range_meters":20800,"station_id":"ce4bhah2rcd13ifvqej0","pricing_plan_id":"free"},{"bike_id":"a439cd96-8663-4909-9534-03c985a950c4","system_id":"levelo_inurba_marseille","lat":43.298681,"lon":5.397225,"is_reserved":false,"is_disabled":false,"rental_uris":{"android":"levelo://app?vid=a439cd96-8663-4909-9534-03c985a950c4","ios":"levelo://app?vid=a439cd96-8663-4909-9534-03c985a950c4"},"vehicle_type_id":"4","last_reported":1691435071,"current_range_meters":1600,"station_id":"ce4bh0h2rcd13ifvqd50","pricing_plan_id":"free"},{"bike_id":"75199276-b705-4ad7-b6a9-49aeaa84628a","system_id":"levelo_inurba_marseille","lat":43.286591,"lon":5.363346,"is_reserved":false,"is_disabled":false,"rental_uris":{"android":"levelo://app?vid=75199276-b705-4ad7-b6a9-49aeaa84628a","ios":"levelo://app?vid=75199276-b705-4ad7-b6a9-49aeaa84628a"},"vehicle_type_id":"4","last_reported":1691435071,"current_range_meters":31600,"station_id":"ce4bhah2rcd13ifvqej0","pricing_plan_id":"free"},{"bike_id":"323b8c86-9b75-4958-b40d-98d9ff0b2e1f","system_id":"levelo_inurba_marseille","lat":43.295196,"lon":5.39397,"is_reserved":false,"is_disabled":false,"rental_uris":{"android":"levelo://app?vid=323b8c86-9b75-4958-b40d-98d9ff0b2e1f","ios":"levelo://app?vid=323b8c86-9b75-4958-b40d-98d9ff0b2e1f"},"vehicle_type_id":"4","last_reported":1691435071,"current_range_meters":1600,"station_id":"ce4bh292rcd13ifvqdf0","pricing_plan_id":"free"},{"bike_id":"f030ae21-9991-4c33-8f03-6d1267da1b26","system_id":"levelo_inurba_marseille","lat":43.286961,"lon":5.373785,"is_reserved":false,"is_disabled":false,"rental_uris":{"android":"levelo://app?vid=f030ae21-9991-4c33-8f03-6d1267da1b26","ios":"levelo://app?vid=f030ae21-9991-4c33-8f03-6d1267da1b26"},"vehicle_type_id":"4","last_reported":1691435071,"current_range_meters":13200,"station_id":"ce4bh3p2rcd13ifvqdq0","pricing_plan_id":"free"},{"bike_id":"a6bd8bc9-a96e-4a7b-8b9d-3cf7b2fee1bc","system_id":"levelo_inurba_marseille","lat":43.286961,"lon":5.373785,"is_reserved":false,"is_disabled":false,"rental_uris":{"android":"levelo://app?vid=a6bd8bc9-a96e-4a7b-8b9d-3cf7b2fee1bc","ios":"levelo://app?vid=a6bd8bc9-a96e-4a7b-8b9d-3cf7b2fee1bc"},"vehicle_type_id":"4","last_reported":1691435071,"current_range_meters":15600,"station_id":"ce4bh3p2rcd13ifvqdq0","pricing_plan_id":"free"},{"bike_id":"f1fed617-ffa7-4e5a-b5e1-4766c74cc09a","system_id":"levelo_inurba_marseille","lat":43.295194,"lon":5.39397,"is_reserved":false,"is_disabled":false,"rental_uris":{"android":"levelo://app?vid=f1fed617-ffa7-4e5a-b5e1-4766c74cc09a","ios":"levelo://app?vid=f1fed617-ffa7-4e5a-b5e1-4766c74cc09a"},"vehicle_type_id":"4","last_reported":1691435071,"current_range_meters":22800,"station_id":"ce4bh292rcd13ifvqdf0","pricing_plan_id":"free"},{"bike_id":"280835ba-bbdc-4a4b-b537-fe75465d6d78","system_id":"levelo_inurba_marseille","lat":43.295196,"lon":5.39397,"is_reserved":false,"is_disabled":false,"rental_uris":{"android":"levelo://app?vid=280835ba-bbdc-4a4b-b537-fe75465d6d78","ios":"levelo://app?vid=280835ba-bbdc-4a4b-b537-fe75465d6d78"},"vehicle_type_id":"4","last_reported":1691435071,"current_range_meters":14000,"station_id":"ce4bh292rcd13ifvqdf0","pricing_plan_id":"free"},{"bike_id":"8fc37957-c58e-4d9f-818d-22d3086d7d89","system_id":"levelo_inurba_marseille","lat":43.29387,"lon":5.39249,"is_reserved":false,"is_disabled":false,"rental_uris":{"android":"levelo://app?vid=8fc37957-c58e-4d9f-818d-22d3086d7d89","ios":"levelo://app?vid=8fc37957-c58e-4d9f-818d-22d3086d7d89"},"vehicle_type_id":"4","last_reported":1691435071,"current_range_meters":17200,"station_id":"","pricing_plan_id":"free"},{"bike_id":"7b9e2d57-7c2f-4652-8ec0-ee4d147afe24","system_id":"levelo_inurba_marseille","lat":43.302548,"lon":5.400568,"is_reserved":false,"is_disabled":false,"rental_uris":{"android":"levelo://app?vid=7b9e2d57-7c2f-4652-8ec0-ee4d147afe24","ios":"levelo://app?vid=7b9e2d57-7c2f-4652-8ec0-ee4d147afe24"},"vehicle_type_id":"4","last_reported":1691435071,"current_range_meters":2400,"station_id":"","pricing_plan_id":"free"},{"bike_id":"e842374c-e05e-4c1c-a971-d7724a75ea72","system_id":"levelo_inurba_marseille","lat":43.30246,"lon":5.4006,"is_reserved":false,"is_disabled":false,"rental_uris":{"android":"levelo://app?vid=e842374c-e05e-4c1c-a971-d7724a75ea72","ios":"levelo://app?vid=e842374c-e05e-4c1c-a971-d7724a75ea72"},"vehicle_type_id":"4","last_reported":1691435071,"current_range_meters":0,"station_id":"ce4bgvh2rcd13ifvqcs0","pricing_plan_id":"free"},{"bike_id":"b399db7d-470a-420d-a5f4-25d27ce6cffa","system_id":"levelo_inurba_marseille","lat":43.290336,"lon":5.386425,"is_reserved":false,"is_disabled":false,"rental_uris":{"android":"levelo://app?vid=b399db7d-470a-420d-a5f4-25d27ce6cffa","ios":"levelo://app?vid=b399db7d-470a-420d-a5f4-25d27ce6cffa"},"vehicle_type_id":"4","last_reported":1691435071,"current_range_meters":7200,"station_id":"ce4bh4p2rcd13ifvqe0g","pricing_plan_id":"free"},{"bike_id":"14f6862e-2496-4094-ad65-c29f90c1560b","system_id":"levelo_inurba_marseille","lat":43.302759,"lon":5.400793,"is_reserved":false,"is_disabled":false,"rental_uris":{"android":"levelo://app?vid=14f6862e-2496-4094-ad65-c29f90c1560b","ios":"levelo://app?vid=14f6862e-2496-4094-ad65-c29f90c1560b"},"vehicle_type_id":"4","last_reported":1691435071,"current_range_meters":28000,"station_id":"ce4bgvh2rcd13ifvqcs0","pricing_plan_id":"free"},{"bike_id":"327ef160-1f9e-4a6a-85a5-ccecc64f3097","system_id":"levelo_inurba_marseille","lat":43.30241,"lon":5.40068,"is_reserved":false,"is_disabled":false,"rental_uris":{"android":"levelo://app?vid=327ef160-1f9e-4a6a-85a5-ccecc64f3097","ios":"levelo://app?vid=327ef160-1f9e-4a6a-85a5-ccecc64f3097"},"vehicle_type_id":"4","last_reported":1691435071,"current_range_meters":0,"station_id":"ce4bgvh2rcd13ifvqcs0","pricing_plan_id":"free"},{"bike_id":"03818927-c134-4355-a8a9-05986d8f27e9","system_id":"levelo_inurba_marseille","lat":43.302759,"lon":5.400793,"is_reserved":false,"is_disabled":false,"rental_uris":{"android":"levelo://app?vid=03818927-c134-4355-a8a9-05986d8f27e9","ios":"levelo://app?vid=03818927-c134-4355-a8a9-05986d8f27e9"},"vehicle_type_id":"4","last_reported":1691435071,"current_range_meters":0,"station_id":"ce4bgvh2rcd13ifvqcs0","pricing_plan_id":"free"},{"bike_id":"bf3d7a75-bb9d-42df-9240-10f7d9a283d0","system_id":"levelo_inurba_marseille","lat":43.286039,"lon":5.370681,"is_reserved":false,"is_disabled":false,"rental_uris":{"android":"levelo://app?vid=bf3d7a75-bb9d-42df-9240-10f7d9a283d0","ios":"levelo://app?vid=bf3d7a75-bb9d-42df-9240-10f7d9a283d0"},"vehicle_type_id":"4","last_reported":1691435071,"current_range_meters":8400,"station_id":"ce4bht12rcd13ifvqi60","pricing_plan_id":"free"},{"bike_id":"d1242328-7d0b-4ecd-8e05-36c9364be44a","system_id":"levelo_inurba_marseille","lat":43.286039,"lon":5.370681,"is_reserved":false,"is_disabled":false,"rental_uris":{"android":"levelo://app?vid=d1242328-7d0b-4ecd-8e05-36c9364be44a","ios":"levelo://app?vid=d1242328-7d0b-4ecd-8e05-36c9364be44a"},"vehicle_type_id":"4","last_reported":1691435071,"current_range_meters":20000,"station_id":"ce4bht12rcd13ifvqi60","pricing_plan_id":"free"},{"bike_id":"863f9863-cfe6-42f7-8204-06d78d0b4fa7","system_id":"levelo_inurba_marseille","lat":43.28611,"lon":5.3705,"is_reserved":false,"is_disabled":false,"rental_uris":{"android":"levelo://app?vid=863f9863-cfe6-42f7-8204-06d78d0b4fa7","ios":"levelo://app?vid=863f9863-cfe6-42f7-8204-06d78d0b4fa7"},"vehicle_type_id":"4","last_reported":1691435071,"current_range_meters":30000,"station_id":"ce4bht12rcd13ifvqi60","pricing_plan_id":"free"},{"bike_id":"1a474f1a-e2e8-4fe1-9ee7-85b9f5376d66","system_id":"levelo_inurba_marseille","lat":43.2861,"lon":5.37057,"is_reserved":false,"is_disabled":false,"rental_uris":{"android":"levelo://app?vid=1a474f1a-e2e8-4fe1-9ee7-85b9f5376d66","ios":"levelo://app?vid=1a474f1a-e2e8-4fe1-9ee7-85b9f5376d66"},"vehicle_type_id":"4","last_reported":1691435071,"current_range_meters":31200,"station_id":"ce4bht12rcd13ifvqi60","pricing_plan_id":"free"},{"bike_id":"79e0142c-554e-43e8-88a9-663a64e222e9","system_id":"levelo_inurba_marseille","lat":43.2861,"lon":5.37057,"is_reserved":false,"is_disabled":false,"rental_uris":{"android":"levelo://app?vid=79e0142c-554e-43e8-88a9-663a64e222e9","ios":"levelo://app?vid=79e0142c-554e-43e8-88a9-663a64e222e9"},"vehicle_type_id":"4","last_reported":1691435071,"current_range_meters":4000,"station_id":"ce4bht12rcd13ifvqi60","pricing_plan_id":"free"},{"bike_id":"878b0671-ded1-4b86-81d0-e438155804ca","system_id":"levelo_inurba_marseille","lat":43.286039,"lon":5.370681,"is_reserved":false,"is_disabled":false,"rental_uris":{"android":"levelo://app?vid=878b0671-ded1-4b86-81d0-e438155804ca","ios":"levelo://app?vid=878b0671-ded1-4b86-81d0-e438155804ca"},"vehicle_type_id":"4","last_reported":1691435071,"current_range_meters":23600,"station_id":"ce4bht12rcd13ifvqi60","pricing_plan_id":"free"},{"bike_id":"0e20cac4-6b9b-497d-a30a-76daca704a99","system_id":"levelo_inurba_marseille","lat":43.286039,"lon":5.370681,"is_reserved":false,"is_disabled":false,"rental_uris":{"android":"levelo://app?vid=0e20cac4-6b9b-497d-a30a-76daca704a99","ios":"levelo://app?vid=0e20cac4-6b9b-497d-a30a-76daca704a99"},"vehicle_type_id":"4","last_reported":1691435071,"current_range_meters":4800,"station_id":"ce4bht12rcd13ifvqi60","pricing_plan_id":"free"},{"bike_id":"913cb2ad-f22d-4108-916b-e9ee493197d5","system_id":"levelo_inurba_marseille","lat":43.286039,"lon":5.370681,"is_reserved":false,"is_disabled":false,"rental_uris":{"android":"levelo://app?vid=913cb2ad-f22d-4108-916b-e9ee493197d5","ios":"levelo://app?vid=913cb2ad-f22d-4108-916b-e9ee493197d5"},"vehicle_type_id":"4","last_reported":1691435071,"current_range_meters":2400,"station_id":"ce4bht12rcd13ifvqi60","pricing_plan_id":"free"},{"bike_id":"3f90f0a1-19e9-4e5b-9b6b-ad728a182a25","system_id":"levelo_inurba_marseille","lat":43.28603,"lon":5.3707,"is_reserved":false,"is_disabled":false,"rental_uris":{"android":"levelo://app?vid=3f90f0a1-19e9-4e5b-9b6b-ad728a182a25","ios":"levelo://app?vid=3f90f0a1-19e9-4e5b-9b6b-ad728a182a25"},"vehicle_type_id":"4","last_reported":1691435071,"current_range_meters":18400,"station_id":"ce4bht12rcd13ifvqi60","pricing_plan_id":"free"},{"bike_id":"de355b45-d19c-403b-9225-4e869157a035","system_id":"levelo_inurba_marseille","lat":43.287184,"lon":5.37937,"is_reserved":false,"is_disabled":false,"rental_uris":{"android":"levelo://app?vid=de355b45-d19c-403b-9225-4e869157a035","ios":"levelo://app?vid=de355b45-d19c-403b-9225-4e869157a035"},"vehicle_type_id":"4","last_reported":1691435071,"current_range_meters":23600,"station_id":"ce4bh9p2rcd13ifvqec0","pricing_plan_id":"free"},{"bike_id":"cef63723-767f-402d-837c-01ef27578578","system_id":"levelo_inurba_marseille","lat":43.287184,"lon":5.37937,"is_reserved":false,"is_disabled":false,"rental_uris":{"android":"levelo://app?vid=cef63723-767f-402d-837c-01ef27578578","ios":"levelo://app?vid=cef63723-767f-402d-837c-01ef27578578"},"vehicle_type_id":"4","last_reported":1691435071,"current_range_meters":24000,"station_id":"ce4bh9p2rcd13ifvqec0","pricing_plan_id":"free"},{"bike_id":"492fbfdb-223d-4488-b089-643b3cc9ba5b","system_id":"levelo_inurba_marseille","lat":43.286039,"lon":5.370681,"is_reserved":false,"is_disabled":false,"rental_uris":{"android":"levelo://app?vid=492fbfdb-223d-4488-b089-643b3cc9ba5b","ios":"levelo://app?vid=492fbfdb-223d-4488-b089-643b3cc9ba5b"},"vehicle_type_id":"4","last_reported":1691435071,"current_range_meters":24400,"station_id":"ce4bht12rcd13ifvqi60","pricing_plan_id":"free"},{"bike_id":"12a26d8e-285f-4a3b-b447-3229cf77c984","system_id":"levelo_inurba_marseille","lat":43.31641,"lon":5.40427,"is_reserved":false,"is_disabled":false,"rental_uris":{"android":"levelo://app?vid=12a26d8e-285f-4a3b-b447-3229cf77c984","ios":"levelo://app?vid=12a26d8e-285f-4a3b-b447-3229cf77c984"},"vehicle_type_id":"4","last_reported":1691435071,"current_range_meters":27200,"station_id":"ce4bh012rcd13ifvqd00","pricing_plan_id":"free"},{"bike_id":"0238288f-0a11-4978-83ca-aa8bcde3e3f6","system_id":"levelo_inurba_marseille","lat":43.31645,"lon":5.40432,"is_reserved":false,"is_disabled":false,"rental_uris":{"android":"levelo://app?vid=0238288f-0a11-4978-83ca-aa8bcde3e3f6","ios":"levelo://app?vid=0238288f-0a11-4978-83ca-aa8bcde3e3f6"},"vehicle_type_id":"4","last_reported":1691435071,"current_range_meters":27200,"station_id":"ce4bh012rcd13ifvqd00","pricing_plan_id":"free"},{"bike_id":"c7e983fb-690a-471b-b033-292c7e7289c8","system_id":"levelo_inurba_marseille","lat":43.31647,"lon":5.40432,"is_reserved":false,"is_disabled":false,"rental_uris":{"android":"levelo://app?vid=c7e983fb-690a-471b-b033-292c7e7289c8","ios":"levelo://app?vid=c7e983fb-690a-471b-b033-292c7e7289c8"},"vehicle_type_id":"4","last_reported":1691435071,"current_range_meters":18000,"station_id":"ce4bh012rcd13ifvqd00","pricing_plan_id":"free"},{"bike_id":"db6c8fbd-431c-4cfc-a31f-9f1f15fe3b31","system_id":"levelo_inurba_marseille","lat":43.31646,"lon":5.40434,"is_reserved":false,"is_disabled":false,"rental_uris":{"android":"levelo://app?vid=db6c8fbd-431c-4cfc-a31f-9f1f15fe3b31","ios":"levelo://app?vid=db6c8fbd-431c-4cfc-a31f-9f1f15fe3b31"},"vehicle_type_id":"4","last_reported":1691435071,"current_range_meters":30400,"station_id":"ce4bh012rcd13ifvqd00","pricing_plan_id":"free"},{"bike_id":"39aa1114-e07d-4b76-bda8-591777b9c48a","system_id":"levelo_inurba_marseille","lat":43.31653,"lon":5.40433,"is_reserved":false,"is_disabled":false,"rental_uris":{"android":"levelo://app?vid=39aa1114-e07d-4b76-bda8-591777b9c48a","ios":"levelo://app?vid=39aa1114-e07d-4b76-bda8-591777b9c48a"},"vehicle_type_id":"4","last_reported":1691435071,"current_range_meters":26400,"station_id":"ce4bh012rcd13ifvqd00","pricing_plan_id":"free"},{"bike_id":"11327d1c-8937-422b-b963-0f9ddf721f1b","system_id":"levelo_inurba_marseille","lat":43.31645,"lon":5.40435,"is_reserved":false,"is_disabled":false,"rental_uris":{"android":"levelo://app?vid=11327d1c-8937-422b-b963-0f9ddf721f1b","ios":"levelo://app?vid=11327d1c-8937-422b-b963-0f9ddf721f1b"},"vehicle_type_id":"4","last_reported":1691435071,"current_range_meters":28800,"station_id":"ce4bh012rcd13ifvqd00","pricing_plan_id":"free"},{"bike_id":"93c542a7-0a44-4c60-9997-7ce8c089f8cd","system_id":"levelo_inurba_marseille","lat":43.3165,"lon":5.40435,"is_reserved":false,"is_disabled":false,"rental_uris":{"android":"levelo://app?vid=93c542a7-0a44-4c60-9997-7ce8c089f8cd","ios":"levelo://app?vid=93c542a7-0a44-4c60-9997-7ce8c089f8cd"},"vehicle_type_id":"4","last_reported":1691435071,"current_range_meters":24400,"station_id":"ce4bh012rcd13ifvqd00","pricing_plan_id":"free"},{"bike_id":"a2c32661-2c8b-4ac3-9625-e2734fe83214","system_id":"levelo_inurba_marseille","lat":43.31646,"lon":5.40436,"is_reserved":false,"is_disabled":false,"rental_uris":{"android":"levelo://app?vid=a2c32661-2c8b-4ac3-9625-e2734fe83214","ios":"levelo://app?vid=a2c32661-2c8b-4ac3-9625-e2734fe83214"},"vehicle_type_id":"4","last_reported":1691435071,"current_range_meters":29200,"station_id":"ce4bh012rcd13ifvqd00","pricing_plan_id":"free"},{"bike_id":"31682d5c-fb13-465b-9f7f-1afd8203d238","system_id":"levelo_inurba_marseille","lat":43.31644,"lon":5.4044,"is_reserved":false,"is_disabled":false,"rental_uris":{"android":"levelo://app?vid=31682d5c-fb13-465b-9f7f-1afd8203d238","ios":"levelo://app?vid=31682d5c-fb13-465b-9f7f-1afd8203d238"},"vehicle_type_id":"4","last_reported":1691435071,"current_range_meters":30400,"station_id":"ce4bh012rcd13ifvqd00","pricing_plan_id":"free"},{"bike_id":"18da9808-bd65-47c0-9b20-682656c752bd","system_id":"levelo_inurba_marseille","lat":43.3165,"lon":5.40448,"is_reserved":false,"is_disabled":false,"rental_uris":{"android":"levelo://app?vid=18da9808-bd65-47c0-9b20-682656c752bd","ios":"levelo://app?vid=18da9808-bd65-47c0-9b20-682656c752bd"},"vehicle_type_id":"4","last_reported":1691435071,"current_range_meters":30800,"station_id":"ce4bh012rcd13ifvqd00","pricing_plan_id":"free"},{"bike_id":"2a07ef3b-22e3-43af-8af5-369dbce2cf45","system_id":"levelo_inurba_marseille","lat":43.291994,"lon":5.392907,"is_reserved":false,"is_disabled":false,"rental_uris":{"android":"levelo://app?vid=2a07ef3b-22e3-43af-8af5-369dbce2cf45","ios":"levelo://app?vid=2a07ef3b-22e3-43af-8af5-369dbce2cf45"},"vehicle_type_id":"4","last_reported":1691435071,"current_range_meters":31200,"station_id":"ce4bh192rcd13ifvqdd0","pricing_plan_id":"free"},{"bike_id":"8ad77042-a07b-4dd0-ab2a-b4f26a849585","system_id":"levelo_inurba_marseille","lat":43.284538,"lon":5.358657,"is_reserved":false,"is_disabled":false,"rental_uris":{"android":"levelo://app?vid=8ad77042-a07b-4dd0-ab2a-b4f26a849585","ios":"levelo://app?vid=8ad77042-a07b-4dd0-ab2a-b4f26a849585"},"vehicle_type_id":"4","last_reported":1691435071,"current_range_meters":15200,"station_id":"ce4bhah2rcd13ifvqei0","pricing_plan_id":"free"},{"bike_id":"7b78d55e-e99c-4fa7-968a-c672d6912f00","system_id":"levelo_inurba_marseille","lat":43.28458,"lon":5.35896,"is_reserved":false,"is_disabled":false,"rental_uris":{"android":"levelo://app?vid=7b78d55e-e99c-4fa7-968a-c672d6912f00","ios":"levelo://app?vid=7b78d55e-e99c-4fa7-968a-c672d6912f00"},"vehicle_type_id":"4","last_reported":1691435071,"current_range_meters":30800,"station_id":"ce4bhah2rcd13ifvqei0","pricing_plan_id":"free"},{"bike_id":"7e779372-b108-46aa-9875-6f8cd660f231","system_id":"levelo_inurba_marseille","lat":43.284538,"lon":5.358657,"is_reserved":false,"is_disabled":false,"rental_uris":{"android":"levelo://app?vid=7e779372-b108-46aa-9875-6f8cd660f231","ios":"levelo://app?vid=7e779372-b108-46aa-9875-6f8cd660f231"},"vehicle_type_id":"4","last_reported":1691435071,"current_range_meters":8800,"station_id":"ce4bhah2rcd13ifvqei0","pricing_plan_id":"free"},{"bike_id":"01535868-c7b1-4ebd-9133-8c3889bc92f2","system_id":"levelo_inurba_marseille","lat":43.32885,"lon":5.39969,"is_reserved":false,"is_disabled":false,"rental_uris":{"android":"levelo://app?vid=01535868-c7b1-4ebd-9133-8c3889bc92f2","ios":"levelo://app?vid=01535868-c7b1-4ebd-9133-8c3889bc92f2"},"vehicle_type_id":"4","last_reported":1691435071,"current_range_meters":6000,"station_id":"","pricing_plan_id":"free"},{"bike_id":"67842c2a-cb5f-43f3-ab93-d93552b2da64","system_id":"levelo_inurba_marseille","lat":43.294314,"lon":5.397498,"is_reserved":false,"is_disabled":false,"rental_uris":{"android":"levelo://app?vid=67842c2a-cb5f-43f3-ab93-d93552b2da64","ios":"levelo://app?vid=67842c2a-cb5f-43f3-ab93-d93552b2da64"},"vehicle_type_id":"4","last_reported":1691435071,"current_range_meters":14800,"station_id":"ce4bh3h2rcd13ifvqdo0","pricing_plan_id":"free"},{"bike_id":"11e766a7-e9b9-4a64-b91b-a3ed7e320a24","system_id":"levelo_inurba_marseille","lat":43.285856,"lon":5.350771,"is_reserved":false,"is_disabled":false,"rental_uris":{"android":"levelo://app?vid=11e766a7-e9b9-4a64-b91b-a3ed7e320a24","ios":"levelo://app?vid=11e766a7-e9b9-4a64-b91b-a3ed7e320a24"},"vehicle_type_id":"4","last_reported":1691435071,"current_range_meters":22000,"station_id":"ce4bhch2rcd13ifvqeug","pricing_plan_id":"free"},