{"last_updated":1738951917,"ttl":60,"version":"2.2","data":{"bikes":[{"bike_id":"b8740638-8b15-4e39-9dd8-3d88c6eff33f","system_id":"levelo_inurba_marseille","lat":43.31237,"lon":5.36874,"is_reserved":false,"is_disabled":true,"rental_uris":{"android":"levelo://app?vid=b8740638-8b15-4e39-9dd8-3d88c6eff33f","ios":"levelo://app?vid=b8740638-8b15-4e39-9dd8-3d88c6eff33f"},"vehicle_type_id":"4","last_reported":1738951917,"current_range_meters":38800,"station_id":"ce4bgl92rcd13ifvqbq0","pricing_plan_id":"cebpf4jnsgd1na2vs0mg"},{"bike_id":"ccdc6efe-ebdd-4ab0-9036-6ff3200f0168","system_id":"levelo_inurba_marseille","lat":43.27182,"lon":5.41,"is_reserved":false,"is_disabled":true,"rental_uris":{"android":"levelo://app?vid=ccdc6efe-ebdd-4ab0-9036-6ff3200f0168","ios":"levelo://app?vid=ccdc6efe-ebdd-4ab0-9036-6ff3200f0168"},"vehicle_type_id":"4","last_reported":1738951917,"current_range_meters":30000,"station_id":"ce4bhl12rcd13ifvqgf0","pricing_plan_id":"cebpf4jnsgd1na2vs0mg"},{"bike_id":"feefdd7c-f4a3-48e3-8633-0e019ff3b8e3","system_id":"levelo_inurba_marseille","lat":43.29174,"lon":5.3578,"is_reserved":false,"is_disabled":true,"rental_uris":{"android":"levelo://app?vid=feefdd7c-f4a3-48e3-8633-0e019ff3b8e3","ios":"levelo://app?vid=feefdd7c-f4a3-48e3-8633-0e019ff3b8e3"},"vehicle_type_id":"4","last_reported":1738951917,"current_range_meters":30800,"station_id":"ce4bhb12rcd13ifvqel0","pricing_plan_id":"cebpf4jnsgd1na2vs0mg"},{"bike_id":"ffceeb90-8336-42a8-bd58-8a13c64ab906","system_id":"levelo_inurba_marseille","lat":43.32291,"lon":5.38268,"is_reserved":false,"is_disabled":false,"rental_uris":{"android":"levelo://app?vid=ffceeb90-8336-42a8-bd58-8a13c64ab906","ios":"levelo://app?vid=ffceeb90-8336-42a8-bd58-8a13c64ab906"},"vehicle_type_id":"4","last_reported":1738951917,"current_range_meters":18000,"station_id":"ce4bhr12rcd13ifvqhqg","pricing_plan_id":"cebpf4jnsgd1na2vs0mg"},{"bike_id":"cfa7f1cc-5150-48ed-843c-f6960ddad1e1","system_id":"levelo_inurba_marseille","lat":43.26484,"lon":5.39557,"is_reserved":false,"is_disabled":true,"rental_uris":{"android":"levelo://app?vid=cfa7f1cc-5150-48ed-843c-f6960ddad1e1","ios":"levelo://app?vid=cfa7f1cc-5150-48ed-843c-f6960ddad1e1"},"vehicle_type_id":"4","last_reported":1738951917,"current_range_meters":18800,"station_id":"ce4bhi12rcd13ifvqfq0","pricing_plan_id":"cebpf4jnsgd1na2vs0mg"},{"bike_id":"17aeabef-f1e1-4e92-90e4-7fa7e79973a5","system_id":"levelo_inurba_marseille","lat":43.28939,"lon":5.36645,"is_reserved":false,"is_disabled":false,"rental_uris":{"android":"levelo://app?vid=17aeabef-f1e1-4e92-90e4-7fa7e79973a5","ios":"levelo://app?vid=17aeabef-f1e1-4e92-90e4-7fa7e79973a5"},"vehicle_type_id":"4","last_reported":1738951917,"current_range_meters":38800,"station_id":"ce4bhap2rcd13ifvqek0","pricing_plan_id":"cebpf4jnsgd1na2vs0mg"},{"bike_id":"6b7fc38a-5e19-4029-9e7b-d290f7068a2e","system_id":"levelo_inurba_marseille","lat":43.27935,"lon":5.41034,"is_reserved":false,"is_disabled":false,"rental_uris":{"android":"levelo://app?vid=6b7fc38a-5e19-4029-9e7b-d290f7068a2e","ios":"levelo://app?vid=6b7fc38a-5e19-4029-9e7b-d290f7068a2e"},"vehicle_type_id":"4","last_reported":1738951917,"current_range_meters":24000,"station_id":"ce4bhnp2rcd13ifvqh0g","pricing_plan_id":"cebpf4jnsgd1na2vs0mg"},{"bike_id":"0b370460-2bdc-4346-a1f4-7aeb9dd2a707","system_id":"levelo_inurba_marseille","lat":43.28632,"lon":5.39138,"is_reserved":false,"is_disabled":true,"rental_uris":{"android":"levelo://app?vid=0b370460-2bdc-4346-a1f4-7aeb9dd2a707","ios":"levelo://app?vid=0b370460-2bdc-4346-a1f4-7aeb9dd2a707"},"vehicle_type_id":"4","last_reported":1738951917,"current_range_meters":14000,"station_id":"","pricing_plan_id":"cebpf4jnsgd1na2vs0mg"},{"bike_id":"83cc9d16-727d-411a-89b3-9413691fc264","system_id":"levelo_inurba_marseille","lat":43.30229,"lon":5.40052,"is_reserved":false,"is_disabled":true,"rental_uris":{"android":"levelo://app?vid=83cc9d16-727d-411a-89b3-9413691fc264","ios":"levelo://app?vid=83cc9d16-727d-411a-89b3-9413691fc264"},"vehicle_type_id":"4","last_reported":1738951917,"current_range_meters":400,"station_id":"","pricing_plan_id":"cebpf4jnsgd1na2vs0mg"},{"bike_id":"952ab6ee-c71f-431a-a116-28c771dc3a24","system_id":"levelo_inurba_marseille","lat":43.27941,"lon":5.41037,"is_reserved":false,"is_disabled":false,"rental_uris":{"android":"levelo://app?vid=952ab6ee-c71f-431a-a116-28c771dc3a24","ios":"levelo://app?vid=952ab6ee-c71f-431a-a116-28c771dc3a24"},"vehicle_type_id":"4","last_reported":1738951917,"current_range_meters":6000,"station_id":"ce4bhnp2rcd13ifvqh0g","pricing_plan_id":"cebpf4jnsgd1na2vs0mg"},{"bike_id":"e04ea2ee-1ba4-468e-b527-7b5400c42400","system_id":"levelo_inurba_marseille","lat":43.28677,"lon":5.38683,"is_reserved":false,"is_disabled":false,"rental_uris":{"android":"levelo://app?vid=e04ea2ee-1ba4-468e-b527-7b5400c42400","ios":"levelo://app?vid=e04ea2ee-1ba4-468e-b527-7b5400c42400"},"vehicle_type_id":"4","last_reported":1738951917,"current_range_meters":29600,"station_id":"ce4bh492rcd13ifvqdug","pricing_plan_id":"cebpf4jnsgd1na2vs0mg"},{"bike_id":"bc081c55-3595-4596-902f-6abff0d6318d","system_id":"levelo_inurba_marseille","lat":43.29008,"lon":5.35609,"is_reserved":false,"is_disabled":false,"rental_uris":{"android":"levelo://app?vid=bc081c55-3595-4596-902f-6abff0d6318d","ios":"levelo://app?vid=bc081c55-3595-4596-902f-6abff0d6318d"},"vehicle_type_id":"4","last_reported":1738951917,"current_range_meters":31200,"station_id":"ce4bhb92rcd13ifvqen0","pricing_plan_id":"cebpf4jnsgd1na2vs0mg"},{"bike_id":"ffdb6efc-7928-43a7-a4b4-0c9c4eb25b66","system_id":"levelo_inurba_marseille","lat":43.26933,"lon":5.40278,"is_reserved":false,"is_disabled":false,"rental_uris":{"android":"levelo://app?vid=ffdb6efc-7928-43a7-a4b4-0c9c4eb25b66","ios":"levelo://app?vid=ffdb6efc-7928-43a7-a4b4-0c9c4eb25b66"},"vehicle_type_id":"4","last_reported":1738951917,"current_range_meters":38800,"station_id":"cjm6bp8fraef2m0cb0m0","pricing_plan_id":"cebpf4jnsgd1na2vs0mg"},{"bike_id":"7ba58b2d-2569-43f9-a634-2d51e1c5ab54","system_id":"levelo_inurba_marseille","lat":43.28711,"lon":5.3999,"is_reserved":false,"is_disabled":true,"rental_uris":{"android":"levelo://app?vid=7ba58b2d-2569-43f9-a634-2d51e1c5ab54","ios":"levelo://app?vid=7ba58b2d-2569-43f9-a634-2d51e1c5ab54"},"vehicle_type_id":"4","last_reported":1738951917,"current_range_meters":0,"station_id":"ce4bho92rcd13ifvqh3g","pricing_plan_id":"cebpf4jnsgd1na2vs0mg"},{"bike_id":"027c2f0a-2084-4dff-b71b-f68042c8bace","system_id":"levelo_inurba_marseille","lat":43.291711,"lon":5.371572,"is_reserved":false,"is_disabled":false,"rental_uris":{"android":"levelo://app?vid=027c2f0a-2084-4dff-b71b-f68042c8bace","ios":"levelo://app?vid=027c2f0a-2084-4dff-b71b-f68042c8bace"},"vehicle_type_id":"4","last_reported":1738951917,"current_range_meters":27600,"station_id":"ce4bh5p2rcd13ifvqe4g","pricing_plan_id":"cebpf4jnsgd1na2vs0mg"},{"bike_id":"8b8a41d5-332c-4712-9179-8e06d5a2d46e","system_id":"levelo_inurba_marseille","lat":43.30371,"lon":5.41888,"is_reserved":false,"is_disabled":false,"rental_uris":{"android":"levelo://app?vid=8b8a41d5-332c-4712-9179-8e06d5a2d46e","ios":"levelo://app?vid=8b8a41d5-332c-4712-9179-8e06d5a2d46e"},"vehicle_type_id":"4","last_reported":1738951917,"current_range_meters":20800,"station_id":"ce4bhop2rcd13ifvqh7g","pricing_plan_id":"cebpf4jnsgd1na2vs0mg"},{"bike_id":"0e3e205c-def0-409b-93d1-6bd9975a7ce8","system_id":"levelo_inurba_marseille","lat":43.33792,"lon":5.37448,"is_reserved":false,"is_disabled":false,"rental_uris":{"android":"levelo://app?vid=0e3e205c-def0-409b-93d1-6bd9975a7ce8","ios":"levelo://app?vid=0e3e205c-def0-409b-93d1-6bd9975a7ce8"},"vehicle_type_id":"4","last_reported":1738951917,"current_range_meters":5600,"station_id":"","pricing_plan_id":"cebpf4jnsgd1na2vs0mg"},{"bike_id":"1a04bf90-1508-4077-924d-e62c674b15bc","system_id":"levelo_inurba_marseille","lat":43.26554,"lon":5.37284,"is_reserved":false,"is_disabled":false,"rental_uris":{"android":"levelo://app?vid=1a04bf90-1508-4077-924d-e62c674b15bc","ios":"levelo://app?vid=1a04bf90-1508-4077-924d-e62c674b15bc"},"vehicle_type_id":"4","last_reported":1738951917,"current_range_meters":38400,"station_id":"ce4bhg12rcd13ifvqf70","pricing_plan_id":"cebpf4jnsgd1na2vs0mg"},{"bike_id":"6a3bf5dc-6406-4053-977a-019d33b4193c","system_id":"levelo_inurba_marseille","lat":43.28405,"lon":5.37512,"is_reserved":false,"is_disabled":true,"rental_uris":{"android":"levelo://app?vid=6a3bf5dc-6406-4053-977a-019d33b4193c","ios":"levelo://app?vid=6a3bf5dc-6406-4053-977a-019d33b4193c"},"vehicle_type_id":"4","last_reported":1738951917,"current_range_meters":31200,"station_id":"ce4bh412rcd13ifvqds0","pricing_plan_id":"cebpf4jnsgd1na2vs0mg"},{"bike_id":"31012f46-6ad1-4f89-83ae-90be5fd931d1","system_id":"levelo_inurba_marseille","lat":43.28075,"lon":5.39656,"is_reserved":false,"is_disabled":false,"rental_uris":{"android":"levelo://app?vid=31012f46-6ad1-4f89-83ae-90be5fd931d1","ios":"levelo://app?vid=31012f46-6ad1-4f89-83ae-90be5fd931d1"},"vehicle_type_id":"4","last_reported":1738951917,"current_range_meters":28400,"station_id":"ce4bho12rcd13ifvqh2g","pricing_plan_id":"cebpf4jnsgd1na2vs0mg"},{"bike_id":"b2e77eda-2379-4ec9-ad43-3ebfe2b41edf","system_id":"levelo_inurba_marseille","lat":43.301538,"lon":5.392586,"is_reserved":false,"is_disabled":false,"rental_uris":{"android":"levelo://app?vid=b2e77eda-2379-4ec9-ad43-3ebfe2b41edf","ios":"levelo://app?vid=b2e77eda-2379-4ec9-ad43-3ebfe2b41edf"},"vehicle_type_id":"4","last_reported":1738951917,"current_range_meters":13600,"station_id":"ce4bh2h2rcd13ifvqdh0","pricing_plan_id":"cebpf4jnsgd1na2vs0mg"},{"bike_id":"45a92107-6702-4621-ac29-0fce6e6bc287","system_id":"levelo_inurba_marseille","lat":43.2893,"lon":5.36394,"is_reserved":false,"is_disabled":false,"rental_uris":{"android":"levelo://app?vid=45a92107-6702-4621-ac29-0fce6e6bc287","ios":"levelo://app?vid=45a92107-6702-4621-ac29-0fce6e6bc287"},"vehicle_type_id":"4","last_reported":1738951917,"current_range_meters":26800,"station_id":"ce4bhc92rcd13ifvqetg","pricing_plan_id":"cebpf4jnsgd1na2vs0mg"},{"bike_id":"453f193a-86d4-4632-99e1-d008b42cbd7f","system_id":"levelo_inurba_marseille","lat":43.27972,"lon":5.38684,"is_reserved":false,"is_disabled":true,"rental_uris":{"android":"levelo://app?vid=453f193a-86d4-4632-99e1-d008b42cbd7f","ios":"levelo://app?vid=453f193a-86d4-4632-99e1-d008b42cbd7f"},"vehicle_type_id":"4","last_reported":1738951917,"current_range_meters":1200,"station_id":"ce4bhg12rcd13ifvqf80","pricing_plan_id":"cebpf4jnsgd1na2vs0mg"},{"bike_id":"06bd393d-f5d8-4be6-8764-159361d0b0da","system_id":"levelo_inurba_marseille","lat":43.3171,"lon":5.37735,"is_reserved":false,"is_disabled":false,"rental_uris":{"android":"levelo://app?vid=06bd393d-f5d8-4be6-8764-159361d0b0da","ios":"levelo://app?vid=06bd393d-f5d8-4be6-8764-159361d0b0da"},"vehicle_type_id":"4","last_reported":1738951917,"current_range_meters":24800,"station_id":"ce4bgth2rcd13ifvqch0","pricing_plan_id":"cebpf4jnsgd1na2vs0mg"},{"bike_id":"6411bc62-420d-4cda-9405-5ec45c5030d4","system_id":"levelo_inurba_marseille","lat":43.261847,"lon":5.374597,"is_reserved":false,"is_disabled":false,"rental_uris":{"android":"levelo://app?vid=6411bc62-420d-4cda-9405-5ec45c5030d4","ios":"levelo://app?vid=6411bc62-420d-4cda-9405-5ec45c5030d4"},"vehicle_type_id":"4","last_reported":1738951917,"current_range_meters":35200,"station_id":"ce4bhgp2rcd13ifvqfc0","pricing_plan_id":"cebpf4jnsgd1na2vs0mg"},{"bike_id":"5deb610f-f630-4c7c-be42-0c35c32fca42","system_id":"levelo_inurba_marseille","lat":43.26939,"lon":5.40251,"is_reserved":false,"is_disabled":false,"rental_uris":{"android":"levelo://app?vid=5deb610f-f630-4c7c-be42-0c35c32fca42","ios":"levelo://app?vid=5deb610f-f630-4c7c-be42-0c35c32fca42"},"vehicle_type_id":"4","last_reported":1738951917,"current_range_meters":27600,"station_id":"cjm6bp8fraef2m0cb0m0","pricing_plan_id":"cebpf4jnsgd1na2vs0mg"},{"bike_id":"608b32fc-53be-40e2-9344-f18ccef6764a","system_id":"levelo_inurba_marseille","lat":43.24805,"lon":5.37455,"is_reserved":false,"is_disabled":false,"rental_uris":{"android":"levelo://app?vid=608b32fc-53be-40e2-9344-f18ccef6764a","ios":"levelo://app?vid=608b32fc-53be-40e2-9344-f18ccef6764a"},"vehicle_type_id":"4","last_reported":1738951917,"current_range_meters":27600,"station_id":"ce4bhgh2rcd13ifvqfb0","pricing_plan_id":"cebpf4jnsgd1na2vs0mg"},{"bike_id":"7ba7ef00-8005-4fba-8df9-91b897185c16","system_id":"levelo_inurba_marseille","lat":43.29581,"lon":5.37524,"is_reserved":false,"is_disabled":true,"rental_uris":{"android":"levelo://app?vid=7ba7ef00-8005-4fba-8df9-91b897185c16","ios":"levelo://app?vid=7ba7ef00-8005-4fba-8df9-91b897185c16"},"vehicle_type_id":"4","last_reported":1738951917,"current_range_meters":0,"station_id":"ce4bgh92rcd13ifvqb50","pricing_plan_id":"cebpf4jnsgd1na2vs0mg"},{"bike_id":"d25bc6a0-30b5-4aa4-922b-fcf83a985386","system_id":"levelo_inurba_marseille","lat":43.23965,"lon":5.36641,"is_reserved":false,"is_disabled":false,"rental_uris":{"android":"levelo://app?vid=d25bc6a0-30b5-4aa4-922b-fcf83a985386","ios":"levelo://app?vid=d25bc6a0-30b5-4aa4-922b-fcf83a985386"},"vehicle_type_id":"4","last_reported":1738951917,"current_range_meters":36800,"station_id":"ce4bhi12rcd13ifvqfp0","pricing_plan_id":"cebpf4jnsgd1na2vs0mg"},{"bike_id":"3574ef24-e6bf-426a-a8fa-07644196de6a","system_id":"levelo_inurba_marseille","lat":43.30229,"lon":5.40104,"is_reserved":false,"is_disabled":true,"rental_uris":{"android":"levelo://app?vid=3574ef24-e6bf-426a-a8fa-07644196de6a","ios":"levelo://app?vid=3574ef24-e6bf-426a-a8fa-07644196de6a"},"vehicle_type_id":"4","last_reported":1738951917,"current_range_meters":1200,"station_id":"","pricing_plan_id":"cebpf4jnsgd1na2vs0mg"},{"bike_id":"b14feff6-424d-43a9-a2e2-58713c3ad09c","system_id":"levelo_inurba_marseille","lat":43.278065,"lon":5.40702,"is_reserved":false,"is_disabled":false,"rental_uris":{"android":"levelo://app?vid=b14feff6-424d-43a9-a2e2-58713c3ad09c","ios":"levelo://app?vid=b14feff6-424d-43a9-a2e2-58713c3ad09c"},"vehicle_type_id":"4","last_reported":1738951917,"current_range_meters":6800,"station_id":"ce4bhnh2rcd13ifvqgtg","pricing_plan_id":"cebpf4jnsgd1na2vs0mg"},{"bike_id":"1960e03b-59ba-4348-bd99-f7dca286c2fa","system_id":"levelo_inurba_marseille","lat":43.286138,"lon":5.35117,"is_reserved":false,"is_disabled":false,"rental_uris":{"android":"levelo://app?vid=1960e03b-59ba-4348-bd99-f7dca286c2fa","ios":"levelo://app?vid=1960e03b-59ba-4348-bd99-f7dca286c2fa"},"vehicle_type_id":"4","last_reported":1738951917,"current_range_meters":38800,"station_id":"ce4bhch2rcd13ifvqeug","pricing_plan_id":"cebpf4jnsgd1na2vs0mg"},{"bike_id":"2d6a2e4c-47bb-4bf8-8e22-1e9c987f8b16","system_id":"levelo_inurba_marseille","lat":43.23965,"lon":5.36633,"is_reserved":false,"is_disabled":false,"rental_uris":{"android":"levelo://app?vid=2d6a2e4c-47bb-4bf8-8e22-1e9c987f8b16","ios":"levelo://app?vid=2d6a2e4c-47bb-4bf8-8e22-1e9c987f8b16"},"vehicle_type_id":"4","last_reported":1738951917,"current_range_meters":16800,"station_id":"ce4bhi12rcd13ifvqfp0","pricing_plan_id":"cebpf4jnsgd1na2vs0mg"},{"bike_id":"0fa06630-abbc-49ce-bd8f-094dee956051","system_id":"levelo_inurba_marseille","lat":43.25714,"lon":5.41109,"is_reserved":false,"is_disabled":false,"rental_uris":{"android":"levelo://app?vid=0fa06630-abbc-49ce-bd8f-094dee956051","ios":"levelo://app?vid=0fa06630-abbc-49ce-bd8f-094dee956051"},"vehicle_type_id":"4","last_reported":1738951917,"current_range_meters":36800,"station_id":"ce4bhkp2rcd13ifvqgd0","pricing_plan_id":"cebpf4jnsgd1na2vs0mg"},{"bike_id":"7769b291-6548-47f8-8f33-36d1192fb3a9","system_id":"levelo_inurba_marseille","lat":43.26598,"lon":5.39021,"is_reserved":false,"is_disabled":false,"rental_uris":{"android":"levelo://app?vid=7769b291-6548-47f8-8f33-36d1192fb3a9","ios":"levelo://app?vid=7769b291-6548-47f8-8f33-36d1192fb3a9"},"vehicle_type_id":"4","last_reported":1738951917,"current_range_meters":16000,"station_id":"ce4bhe12rcd13ifvqf30","pricing_plan_id":"cebpf4jnsgd1na2vs0mg"},{"bike_id":"984e66a9-958a-4ad4-8afe-42d9883f12f4","system_id":"levelo_inurba_marseille","lat":43.31702,"lon":5.37775,"is_reserved":false,"is_disabled":false,"rental_uris":{"android":"levelo://app?vid=984e66a9-958a-4ad4-8afe-42d9883f12f4","ios":"levelo://app?vid=984e66a9-958a-4ad4-8afe-42d9883f12f4"},"vehicle_type_id":"4","last_reported":1738951917,"current_range_meters":38800,"station_id":"ce4bgth2rcd13ifvqch0","pricing_plan_id":"cebpf4jnsgd1na2vs0mg"},{"bike_id":"098d220b-e449-43ea-8d6d-9fc78e0abad9","system_id":"levelo_inurba_marseille","lat":43.22938,"lon":5.35383,"is_reserved":false,"is_disabled":false,"rental_uris":{"android":"levelo://app?vid=098d220b-e449-43ea-8d6d-9fc78e0abad9","ios":"levelo://app?vid=098d220b-e449-43ea-8d6d-9fc78e0abad9"},"vehicle_type_id":"4","last_reported":1738951917,"current_range_meters":38800,"station_id":"cpo3532slgdg3j2ikp40","pricing_plan_id":"cebpf4jnsgd1na2vs0mg"},{"bike_id":"658b5f4a-4044-4ace-8264-664f029df52f","system_id":"levelo_inurba_marseille","lat":43.29371,"lon":5.37852,"is_reserved":false,"is_disabled":true,"rental_uris":{"android":"levelo://app?vid=658b5f4a-4044-4ace-8264-664f029df52f","ios":"levelo://app?vid=658b5f4a-4044-4ace-8264-664f029df52f"},"vehicle_type_id":"4","last_reported":1738951917,"current_range_meters":11600,"station_id":"ce4bgjh2rcd13ifvqbf0","pricing_plan_id":"cebpf4jnsgd1na2vs0mg"},{"bike_id":"014efb27-8a20-4364-96c1-56f79f380d86","system_id":"levelo_inurba_marseille","lat":43.30907,"lon":5.36686,"is_reserved":false,"is_disabled":true,"rental_uris":{"android":"levelo://app?vid=014efb27-8a20-4364-96c1-56f79f380d86","ios":"levelo://app?vid=014efb27-8a20-4364-96c1-56f79f380d86"},"vehicle_type_id":"4","last_reported":1738951917,"current_range_meters":0,"station_id":"","pricing_plan_id":"cebpf4jnsgd1na2vs0mg"},{"bike_id":"25265f47-6177-48e9-b4ee-d5d5e25bf867","system_id":"levelo_inurba_marseille","lat":43.2569,"lon":5.41037,"is_reserved":false,"is_disabled":false,"rental_uris":{"android":"levelo://app?vid=25265f47-6177-48e9-b4ee-d5d5e25bf867","ios":"levelo://app?vid=25265f47-6177-48e9-b4ee-d5d5e25bf867"},"vehicle_type_id":"4","last_reported":1738951917,"current_range_meters":17200,"station_id":"","pricing_plan_id":"cebpf4jnsgd1na2vs0mg"},{"bike_id":"dd833579-84b0-4839-89ea-03d9e4d3eaf3","system_id":"levelo_inurba_marseille","lat":43.27375,"lon":5.36245,"is_reserved":false,"is_disabled":false,"rental_uris":{"android":"levelo://app?vid=dd833579-84b0-4839-89ea-03d9e4d3eaf3","ios":"levelo://app?vid=dd833579-84b0-4839-89ea-03d9e4d3eaf3"},"vehicle_type_id":"4","last_reported":1738951917,"current_range_meters":17600,"station_id":"ce4bhbh2rcd13ifvqeo0","pricing_plan_id":"cebpf4jnsgd1na2vs0mg"},{"bike_id":"8134c42b-15c7-43df-91b1-9cea8c89299b","system_id":"levelo_inurba_marseille","lat":43.25872,"lon":5.39895,"is_reserved":false,"is_disabled":false,"rental_uris":{"android":"levelo://app?vid=8134c42b-15c7-43df-91b1-9cea8c89299b","ios":"levelo://app?vid=8134c42b-15c7-43df-91b1-9cea8c89299b"},"vehicle_type_id":"4","last_reported":1738951917,"current_range_meters":37600,"station_id":"ce4bhl92rcd13ifvqghg","pricing_plan_id":"cebpf4jnsgd1na2vs0mg"},{"bike_id":"109d8d07-d605-45c4-912d-3e7b38f9a9ae","system_id":"levelo_inurba_marseille","lat":43.24165,"lon":5.36398,"is_reserved":false,"is_disabled":false,"rental_uris":{"android":"levelo://app?vid=109d8d07-d605-45c4-912d-3e7b38f9a9ae","ios":"levelo://app?vid=109d8d07-d605-45c4-912d-3e7b38f9a9ae"},"vehicle_type_id":"4","last_reported":1738951917,"current_range_meters":17600,"station_id":"cpo36qri1sfpv3e86is0","pricing_plan_id":"cebpf4jnsgd1na2vs0mg"},{"bike_id":"2ebd233c-fd15-4f13-9700-c155c053523f","system_id":"levelo_inurba_marseille","lat":43.25932,"lon":5.40919,"is_reserved":false,"is_disabled":true,"rental_uris":{"android":"levelo://app?vid=2ebd233c-fd15-4f13-9700-c155c053523f","ios":"levelo://app?vid=2ebd233c-fd15-4f13-9700-c155c053523f"},"vehicle_type_id":"4","last_reported":1738951917,"current_range_meters":27200,"station_id":"ce4bhm92rcd13ifvqglg","pricing_plan_id":"cebpf4jnsgd1na2vs0mg"},{"bike_id":"af40deb1-f640-4b70-95d2-0b44fe79a0b8","system_id":"levelo_inurba_marseille","lat":43.26939,"lon":5.40254,"is_reserved":false,"is_disabled":false,"rental_uris":{"android":"levelo://app?vid=af40deb1-f640-4b70-95d2-0b44fe79a0b8","ios":"levelo://app?vid=af40deb1-f640-4b70-95d2-0b44fe79a0b8"},"vehicle_type_id":"4","last_reported":1738951917,"current_range_meters":20000,"station_id":"cjm6bp8fraef2m0cb0m0","pricing_plan_id":"cebpf4jnsgd1na2vs0mg"},{"bike_id":"34dd257f-ef86-4179-b69f-f9073e360d6d","system_id":"levelo_inurba_marseille","lat":43.3134,"lon":5.36711,"is_reserved":false,"is_disabled":false,"rental_uris":{"android":"levelo://app?vid=34dd257f-ef86-4179-b69f-f9073e360d6d","ios":"levelo://app?vid=34dd257f-ef86-4179-b69f-f9073e360d6d"},"vehicle_type_id":"4","last_reported":1738951917,"current_range_meters":37600,"station_id":"ce4bgr92rcd13ifvqc6g","pricing_plan_id":"cebpf4jnsgd1na2vs0mg"},{"bike_id":"da42ddbd-b08b-41f4-b5ea-594da99eb78a","system_id":"levelo_inurba_marseille","lat":43.30459,"lon":5.39874,"is_reserved":false,"is_disabled":true,"rental_uris":{"android":"levelo://app?vid=da42ddbd-b08b-41f4-b5ea-594da99eb78a","ios":"levelo://app?vid=da42ddbd-b08b-41f4-b5ea-594da99eb78a"},"vehicle_type_id":"4","last_reported":1738951917,"current_range_meters":800,"station_id":"","pricing_plan_id":"cebpf4jnsgd1na2vs0mg"},{"bike_id":"1b068509-d731-4a9f-834b-80d35b08bfb2","system_id":"levelo_inurba_marseille","lat":43.28031,"lon":5.36954,"is_reserved":false,"is_disabled":false,"rental_uris":{"android":"levelo://app?vid=1b068509-d731-4a9f-834b-80d35b08bfb2","ios":"levelo://app?vid=1b068509-d731-4a9f-834b-80d35b08bfb2"},"vehicle_type_id":"4","last_reported":1738951917,"current_range_meters":30800,"station_id":"ce4bha12rcd13ifvqef0","pricing_plan_id":"cebpf4jnsgd1na2vs0mg"},{"bike_id":"c13ae62e-d5d6-4d3f-b979-0be4fe4644ed","system_id":"levelo_inurba_marseille","lat":43.24656,"lon":5.38167,"is_reserved":false,"is_disabled":false,"rental_uris":{"android":"levelo://app?vid=c13ae62e-d5d6-4d3f-b979-0be4fe4644ed","ios":"levelo://app?vid=c13ae62e-d5d6-4d3f-b979-0be4fe4644ed"},"vehicle_type_id":"4","last_reported":1738951917,"current_range_meters":24800,"station_id":"ce4bhih2rcd13ifvqfr0","pricing_plan_id":"cebpf4jnsgd1na2vs0mg"},{"bike_id":"e2e45959-6fb0-43e0-b711-cad9f816d2c3","system_id":"levelo_inurba_marseille","lat":43.30655,"lon":5.40107,"is_reserved":false,"is_disabled":false,"rental_uris":{"android":"levelo://app?vid=e2e45959-6fb0-43e0-b711-cad9f816d2c3","ios":"levelo://app?vid=e2e45959-6fb0-43e0-b711-cad9f816d2c3"},"vehicle_type_id":"4","last_reported":1738951917,"current_range_meters":38800,"station_id":"ce4bh112rcd13ifvqda0","pricing_plan_id":"cebpf4jnsgd1na2vs0mg"},{"bike_id":"a6792e62-445f-45b2-a8fc-ffc7321fb2fb","system_id":"levelo_inurba_marseille","lat":43.312408,"lon":5.401509,"is_reserved":false,"is_disabled":false,"rental_uris":{"android":"levelo://app?vid=a6792e62-445f-45b2-a8fc-ffc7321fb2fb","ios":"levelo://app?vid=a6792e62-445f-45b2-a8fc-ffc7321fb2fb"},"vehicle_type_id":"4","last_reported":1738951917,"current_range_meters":20400,"station_id":"ce4bh092rcd13ifvqd30","pricing_plan_id":"cebpf4jnsgd1na2vs0mg"},{"bike_id":"bc9a4b67-fd92-40f9-a908-42a03d95f8de","system_id":"levelo_inurba_marseille","lat":43.30318,"lon":5.4042,"is_reserved":false,"is_disabled":false,"rental_uris":{"android":"levelo://app?vid=bc9a4b67-fd92-40f9-a908-42a03d95f8de","ios":"levelo://app?vid=bc9a4b67-fd92-40f9-a908-42a03d95f8de"},"vehicle_type_id":"4","last_reported":1738951917,"current_range_meters":38800,"station_id":"ce4bh012rcd13ifvqd10","pricing_plan_id":"cebpf4jnsgd1na2vs0mg"},{"bike_id":"52c084d5-048b-40ca-b498-71b9f0442312","system_id":"levelo_inurba_marseille","lat":43.2903,"lon":5.38639,"is_reserved":false,"is_disabled":false,"rental_uris":{"android":"levelo://app?vid=52c084d5-048b-40ca-b498-71b9f0442312","ios":"levelo://app?vid=52c084d5-048b-40ca-b498-71b9f0442312"},"vehicle_type_id":"4","last_reported":1738951917,"current_range_meters":16400,"station_id":"ce4bh4p2rcd13ifvqe0g","pricing_plan_id":"cebpf4jnsgd1na2vs0mg"},{"bike_id":"ae4aca48-4563-4c07-9d13-6e3ebfbed83e","system_id":"levelo_inurba_marseille","lat":43.28985,"lon":5.37861,"is_reserved":false,"is_disabled":false,"rental_uris":{"android":"levelo://app?vid=ae4aca48-4563-4c07-9d13-6e3ebfbed83e","ios":"levelo://app?vid=ae4aca48-4563-4c07-9d13-6e3ebfbed83e"},"vehicle_type_id":"4","last_reported":1738951917,"current_range_meters":38800,"station_id":"ce4bh9p2rcd13ifvqed0","pricing_plan_id":"cebpf4jnsgd1na2vs0mg"},{"bike_id":"6986b042-d67b-490d-a174-01e67df97cbc","system_id":"levelo_inurba_marseille","lat":43.28412,"lon":5.34976,"is_reserved":false,"is_disabled":false,"rental_uris":{"android":"levelo://app?vid=6986b042-d67b-490d-a174-01e67df97cbc","ios":"levelo://app?vid=6986b042-d67b-490d-a174-01e67df97cbc"},"vehicle_type_id":"4","last_reported":1738951917,"current_range_meters":38000,"station_id":"ce4bhbh2rcd13ifvqepg","pricing_plan_id":"cebpf4jnsgd1na2vs0mg"},{"bike_id":"6fcdd030-2bc2-4ae6-a6fb-6b8417f36d6e","system_id":"levelo_inurba_marseille","lat":43.30154,"lon":5.374,"is_reserved":false,"is_disabled":false,"rental_uris":{"android":"levelo://app?vid=6fcdd030-2bc2-4ae6-a6fb-6b8417f36d6e","ios":"levelo://app?vid=6fcdd030-2bc2-4ae6-a6fb-6b8417f36d6e"},"vehicle_type_id":"4","last_reported":1738951917,"current_range_meters":26000,"station_id":"ce4bgs92rcd13ifvqcc0","pricing_plan_id":"cebpf4jnsgd1na2vs0mg"},{"bike_id":"89912e32-c5f0-448f-82d2-e236e4d6d653","system_id":"levelo_inurba_marseille","lat":43.27794,"lon":5.39876,"is_reserved":false,"is_disabled":true,"rental_uris":{"android":"levelo://app?vid=89912e32-c5f0-448f-82d2-e236e4d6d653","ios":"levelo://app?vid=89912e32-c5f0-448f-82d2-e236e4d6d653"},"vehicle_type_id":"4","last_reported":1738951917,"current_range_meters":4000,"station_id":"","pricing_plan_id":"cebpf4jnsgd1na2vs0mg"},{"bike_id":"ca47654b-c587-4040-baff-9144b838d0f7","system_id":"levelo_inurba_marseille","lat":43.28845,"lon":5.35851,"is_reserved":false,"is_disabled":false,"rental_uris":{"android":"levelo://app?vid=ca47654b-c587-4040-baff-9144b838d0f7","ios":"levelo://app?vid=ca47654b-c587-4040-baff-9144b838d0f7"},"vehicle_type_id":"4","last_reported":1738951917,"current_range_meters":36800,"station_id":"ce4bhb12rcd13ifvqem0","pricing_plan_id":"cebpf4jnsgd1na2vs0mg"},{"bike_id":"0bf01347-6573-47e0-a521-b69a20d13beb","system_id":"levelo_inurba_marseille","lat":43.30793,"lon":5.43527,"is_reserved":false,"is_disabled":false,"rental_uris":{"android":"levelo://app?vid=0bf01347-6573-47e0-a521-b69a20d13beb","ios":"levelo://app?vid=0bf01347-6573-47e0-a521-b69a20d13beb"},"vehicle_type_id":"4","last_reported":1738951917,"current_range_meters":39200,"station_id":"ce4bhph2rcd13ifvqheg","pricing_plan_id":"cebpf4jnsgd1na2vs0mg"},{"bike_id":"7de8df5b-59de-4d15-b553-82e36a79a163","system_id":"levelo_inurba_marseille","lat":43.30207,"lon":5.39482,"is_reserved":false,"is_disabled":false,"rental_uris":{"android":"levelo://app?vid=7de8df5b-59de-4d15-b553-82e36a79a163","ios":"levelo://app?vid=7de8df5b-59de-4d15-b553-82e36a79a163"},"vehicle_type_id":"4","last_reported":1738951917,"current_range_meters":18800,"station_id":"ce4bh0p2rcd13ifvqd70","pricing_plan_id":"cebpf4jnsgd1na2vs0mg"},{"bike_id":"fb5a704f-a51b-458c-a6e9-f5586a789b94","system_id":"levelo_inurba_marseille","lat":43.24162,"lon":5.36417,"is_reserved":false,"is_disabled":false,"rental_uris":{"android":"levelo://app?vid=fb5a704f-a51b-458c-a6e9-f5586a789b94","ios":"levelo://app?vid=fb5a704f-a51b-458c-a6e9-f5586a789b94"},"vehicle_type_id":"4","last_reported":1738951917,"current_range_meters":38800,"station_id":"cpo36qri1sfpv3e86is0","pricing_plan_id":"cebpf4jnsgd1na2vs0mg"},{"bike_id":"f1c1e8ea-c768-43eb-bbb3-77dbe638329d","system_id":"levelo_inurba_marseille","lat":43.3229,"lon":5.38278,"is_reserved":false,"is_disabled":false,"rental_uris":{"android":"levelo://app?vid=f1c1e8ea-c768-43eb-bbb3-77dbe638329d","ios":"levelo://app?vid=f1c1e8ea-c768-43eb-bbb3-77dbe638329d"},"vehicle_type_id":"4","last_reported":1738951917,"current_range_meters":34800,"station_id":"ce4bhr12rcd13ifvqhqg","pricing_plan_id":"cebpf4jnsgd1na2vs0mg"},{"bike_id":"8d797448-0a09-4463-9803-677908ee7f27","system_id":"levelo_inurba_marseille","lat":43.2792,"lon":5.41026,"is_reserved":false,"is_disabled":false,"rental_uris":{"android":"levelo://app?vid=8d797448-0a09-4463-9803-677908ee7f27","ios":"levelo://app?vid=8d797448-0a09-4463-9803-677908ee7f27"},"vehicle_type_id":"4","last_reported":1738951917,"current_range_meters":16800,"station_id":"ce4bhnp2rcd13ifvqh0g","pricing_plan_id":"cebpf4jnsgd1na2vs0mg"},{"bike_id":"b73937ba-05e4-41c7-8959-6f24613e2797","system_id":"levelo_inurba_marseille","lat":43.22939,"lon":5.35382,"is_reserved":false,"is_disabled":false,"rental_uris":{"android":"levelo://app?vid=b73937ba-05e4-41c7-8959-6f24613e2797","ios":"levelo://app?vid=b73937ba-05e4-41c7-8959-6f24613e2797"},"vehicle_type_id":"4","last_reported":1738951917,"current_range_meters":32800,"station_id":"cpo3532slgdg3j2ikp40","pricing_plan_id":"cebpf4jnsgd1na2vs0mg"},{"bike_id":"d975e100-2a27-4e42-8101-7707ce7e9e5c","system_id":"levelo_inurba_marseille","lat":43.30303,"lon":5.36917,"is_reserved":false,"is_disabled":true,"rental_uris":{"android":"levelo://app?vid=d975e100-2a27-4e42-8101-7707ce7e9e5c","ios":"levelo://app?vid=d975e100-2a27-4e42-8101-7707ce7e9e5c"},"vehicle_type_id":"4","last_reported":1738951917,"current_range_meters":16400,"station_id":"ce4bgqh2rcd13ifvqc5g","pricing_plan_id":"cebpf4jnsgd1na2vs0mg"},{"bike_id":"798553ef-a9bb-436e-ad68-b9443c24a85b","system_id":"levelo_inurba_marseille","lat":43.3372,"lon":5.39186,"is_reserved":false,"is_disabled":false,"rental_uris":{"android":"levelo://app?vid=798553ef-a9bb-436e-ad68-b9443c24a85b","ios":"levelo://app?vid=798553ef-a9bb-436e-ad68-b9443c24a85b"},"vehicle_type_id":"4","last_reported":1738951917,"current_range_meters":8400,"station_id":"ce4bhr92rcd13ifvqhsg","pricing_plan_id":"cebpf4jnsgd1na2vs0mg"},{"bike_id":"ab54e2d0-4c2c-486a-84c7-811ed9008ddc","system_id":"levelo_inurba_marseille","lat":43.2786,"lon":5.42536,"is_reserved":false,"is_disabled":true,"rental_uris":{"android":"levelo://app?vid=ab54e2d0-4c2c-486a-84c7-811ed9008ddc","ios":"levelo://app?vid=ab54e2d0-4c2c-486a-84c7-811ed9008ddc"},"vehicle_type_id":"4","last_reported":1738951917,"current_range_meters":0,"station_id":"","pricing_plan_id":"cebpf4jnsgd1na2vs0mg"},{"bike_id":"2eebc95d-8a24-45d3-afdc-38de874c660d","system_id":"levelo_inurba_marseille","lat":43.30888,"lon":5.37196,"is_reserved":false,"is_disabled":false,"rental_uris":{"android":"levelo://app?vid=2eebc95d-8a24-45d3-afdc-38de874c660d","ios":"levelo://app?vid=2eebc95d-8a24-45d3-afdc-38de874c660d"},"vehicle_type_id":"4","last_reported":1738951917,"current_range_meters":20000,"station_id":"ce4bguh2rcd13ifvqckg","pricing_plan_id":"cebpf4jnsgd1na2vs0mg"},{"bike_id":"6835673f-f138-4499-8bdd-83c3f3bccf33","system_id":"levelo_inurba_marseille","lat":43.27992,"lon":5.40022,"is_reserved":false,"is_disabled":false,"rental_uris":{"android":"levelo://app?vid=6835673f-f138-4499-8bdd-83c3f3bccf33","ios":"levelo://app?vid=6835673f-f138-4499-8bdd-83c3f3bccf33"},"vehicle_type_id":"4","last_reported":1738951917,"current_range_meters":38000,"station_id":"ce4bho92rcd13ifvqh4g","pricing_plan_id":"cebpf4jnsgd1na2vs0mg"},{"bike_id":"bb1bab95-412e-41ba-879a-c483b6ec0924","system_id":"levelo_inurba_marseille","lat":43.27815,"lon":5.40705,"is_reserved":false,"is_disabled":false,"rental_uris":{"android":"levelo://app?vid=bb1bab95-412e-41ba-879a-c483b6ec0924","ios":"levelo://app?vid=bb1bab95-412e-41ba-879a-c483b6ec0924"},"vehicle_type_id":"4","last_reported":1738951917,"current_range_meters":17200,"station_id":"ce4bhnh2rcd13ifvqgtg","pricing_plan_id":"cebpf4jnsgd1na2vs0mg"},{"bike_id":"22e2ae1d-8b8d-4b67-b51a-612a07d817eb","system_id":"levelo_inurba_marseille","lat":43.3043,"lon":5.40101,"is_reserved":false,"is_disabled":false,"rental_uris":{"android":"levelo://app?vid=22e2ae1d-8b8d-4b67-b51a-612a07d817eb","ios":"levelo://app?vid=22e2ae1d-8b8d-4b67-b51a-612a07d817eb"},"vehicle_type_id":"4","last_reported":1738951917,"current_range_meters":3200,"station_id":"","pricing_plan_id":"cebpf4jnsgd1na2vs0mg"},{"bike_id":"363f89dc-7a31-4716-bf7c-5e8b960f961f","system_id":"levelo_inurba_marseille","lat":43.31083,"lon":5.4243,"is_reserved":false,"is_disabled":false,"rental_uris":{"android":"levelo://app?vid=363f89dc-7a31-4716-bf7c-5e8b960f961f","ios":"levelo://app?vid=363f89dc-7a31-4716-bf7c-5e8b960f961f"},"vehicle_type_id":"4","last_reported":1738951917,"current_range_meters":38800,"station_id":"ce4bhp92rcd13ifvqhag","pricing_plan_id":"cebpf4jnsgd1na2vs0mg"},{"bike_id":"cf1ec810-f7ec-419a-8ceb-08d76d0efda3","system_id":"levelo_inurba_marseille","lat":43.26559,"lon":5.37305,"is_reserved":false,"is_disabled":false,"rental_uris":{"android":"levelo://app?vid=cf1ec810-f7ec-419a-8ceb-08d76d0efda3","ios":"levelo://app?vid=cf1ec810-f7ec-419a-8ceb-08d76d0efda3"},"vehicle_type_id":"4","last_reported":1738951917,"current_range_meters":22400,"station_id":"ce4bhg12rcd13ifvqf70","pricing_plan_id":"cebpf4jnsgd1na2vs0mg"},{"bike_id":"a80b2f88-99b0-40dc-b9e5-1cf4c8fd6d1b","system_id":"levelo_inurba_marseille","lat":43.30519,"lon":5.366617,"is_reserved":false,"is_disabled":false,"rental_uris":{"android":"levelo://app?vid=a80b2f88-99b0-40dc-b9e5-1cf4c8fd6d1b","ios":"levelo://app?vid=a80b2f88-99b0-40dc-b9e5-1cf4c8fd6d1b"},"vehicle_type_id":"4","last_reported":1738951917,"current_range_meters":28800,"station_id":"ce4bgs12rcd13ifvqcag","pricing_plan_id":"cebpf4jnsgd1na2vs0mg"},{"bike_id":"40729d27-b63d-4821-af2d-eb805f78001a","system_id":"levelo_inurba_marseille","lat":43.274937,"lon":5.424557,"is_reserved":false,"is_disabled":false,"rental_uris":{"android":"levelo://app?vid=40729d27-b63d-4821-af2d-eb805f78001a","ios":"levelo://app?vid=40729d27-b63d-4821-af2d-eb805f78001a"},"vehicle_type_id":"4","last_reported":1738951917,"current_range_meters":15200,"station_id":"ce4bhn92rcd13ifvqgrg","pricing_plan_id":"cebpf4jnsgd1na2vs0mg"},{"bike_id":"9b7a8c62-e473-4d07-971b-e94975d6428e","system_id":"levelo_inurba_marseille","lat":43.32372,"lon":5.38875,"is_reserved":false,"is_disabled":false,"rental_uris":{"android":"levelo://app?vid=9b7a8c62-e473-4d07-971b-e94975d6428e","ios":"levelo://app?vid=9b7a8c62-e473-4d07-971b-e94975d6428e"},"vehicle_type_id":"4","last_reported":1738951917,"current_range_meters":18800,"station_id":"ce4bhqp2rcd13ifvqhog","pricing_plan_id":"cebpf4jnsgd1na2vs0mg"},{"bike_id":"70ac1a4f-6f86-42ba-b8c6-93e2a4c4f9f8","system_id":"levelo_inurba_marseille","lat":43.25503,"lon":5.37651,"is_reserved":false,"is_disabled":false,"rental_uris":{"android":"levelo://app?vid=70ac1a4f-6f86-42ba-b8c6-93e2a4c4f9f8","ios":"levelo://app?vid=70ac1a4f-6f86-42ba-b8c6-93e2a4c4f9f8"},"vehicle_type_id":"4","last_reported":1738951917,"current_range_meters":8400,"station_id":"ce4bhh12rcd13ifvqff0","pricing_plan_id":"cebpf4jnsgd1na2vs0mg"},{"bike_id":"10e1baa8-cda1-434f-b100-78c8a4fdb841","system_id":"levelo_inurba_marseille","lat":43.27618,"lon":5.36108,"is_reserved":false,"is_disabled":false,"rental_uris":{"android":"levelo://app?vid=10e1baa8-cda1-434f-b100-78c8a4fdb841","ios":"levelo://app?vid=10e1baa8-cda1-434f-b100-78c8a4fdb841"},"vehicle_type_id":"4","last_reported":1738951917,"current_range_meters":10000,"station_id":"ce4bgj92rcd13ifvqbe0","pricing_plan_id":"cebpf4jnsgd1na2vs0mg"},{"bike_id":"b6b93ca6-5723-4cfc-b699-bd7682cd884f","system_id":"levelo_inurba_marseille","lat":43.31683,"lon":5.40472,"is_reserved":false,"is_disabled":false,"rental_uris":{"android":"levelo://app?vid=b6b93ca6-5723-4cfc-b699-bd7682cd884f","ios":"levelo://app?vid=b6b93ca6-5723-4cfc-b699-bd7682cd884f"},"vehicle_type_id":"4","last_reported":1738951917,"current_range_meters":18800,"station_id":"ce4bh012rcd13ifvqd00","pricing_plan_id":"cebpf4jnsgd1na2vs0mg"},{"bike_id":"412348d0-e316-46bb-8138-df0a547a79ea","system_id":"levelo_inurba_marseille","lat":43.30876,"lon":5.39632,"is_reserved":false,"is_disabled":false,"rental_uris":{"android":"levelo://app?vid=412348d0-e316-46bb-8138-df0a547a79ea","ios":"levelo://app?vid=412348d0-e316-46bb-8138-df0a547a79ea"},"vehicle_type_id":"4","last_reported":1738951917,"current_range_meters":24000,"station_id":"ce4bh012rcd13ifvqcv0","pricing_plan_id":"cebpf4jnsgd1na2vs0mg"},{"bike_id":"defe4b26-8227-4bee-9f58-c93ef8babb39","system_id":"levelo_inurba_marseille","lat":43.30141,"lon":5.39877,"is_reserved":false,"is_disabled":false,"rental_uris":{"android":"levelo://app?vid=defe4b26-8227-4bee-9f58-c93ef8babb39","ios":"levelo://app?vid=defe4b26-8227-4bee-9f58-c93ef8babb39"},"vehicle_type_id":"4","last_reported":1738951917,"current_range_meters":31200,"station_id":"ce4bh0h2rcd13ifvqd40","pricing_plan_id":"cebpf4jnsgd1na2vs0mg"},{"bike_id":"0ccae692-16fa-48e3-88e0-236b5491d838","system_id":"levelo_inurba_marseille","lat":43.33734,"lon":5.39175,"is_reserved":false,"is_disabled":false,"rental_uris":{"android":"levelo://app?vid=0ccae692-16fa-48e3-88e0-236b5491d838","ios":"levelo://app?vid=0ccae692-16fa-48e3-88e0-236b5491d838"},"vehicle_type_id":"4","last_reported":1738951917,"current_range_meters":35200,"station_id":"ce4bhr92rcd13ifvqhsg","pricing_plan_id":"cebpf4jnsgd1na2vs0mg"},{"bike_id":"9b3684d5-481d-4327-8cfd-bf763b2c60b5","system_id":"levelo_inurba_marseille","lat":43.28929,"lon":5.36392,"is_reserved":false,"is_disabled":false,"rental_uris":{"android":"levelo://app?vid=9b3684d5-481d-4327-8cfd-bf763b2c60b5","ios":"levelo://app?vid=9b3684d5-481d-4327-8cfd-bf763b2c60b5"},"vehicle_type_id":"4","last_reported":1738951917,"current_range_meters":11600,"station_id":"ce4bhc92rcd13ifvqetg","pricing_plan_id":"cebpf4jnsgd1na2vs0mg"},{"bike_id":"1cfe21f7-6157-4ffb-a163-41af87f64a95","system_id":"levelo_inurba_marseille","lat":43.28456,"lon":5.35888,"is_reserved":false,"is_disabled":false,"rental_uris":{"android":"levelo://app?vid=1cfe21f7-6157-4ffb-a163-41af87f64a95","ios":"levelo://app?vid=1cfe21f7-6157-4ffb-a163-41af87f64a95"},"vehicle_type_id":"4","last_reported":1738951917,"current_range_meters":38800,"station_id":"ce4bhah2rcd13ifvqei0","pricing_plan_id":"cebpf4jnsgd1na2vs0mg"},{"bike_id":"50d78869-a092-41ce-a2b2-26f97401503e","system_id":"levelo_inurba_marseille","lat":43.27319,"lon":5.39085,"is_reserved":false,"is_disabled":false,"rental_uris":{"android":"levelo://app?vid=50d78869-a092-41ce-a2b2-26f97401503e","ios":"levelo://app?vid=50d78869-a092-41ce-a2b2-26f97401503e"},"vehicle_type_id":"4","last_reported":1738951917,"current_range_meters":10800,"station_id":"ce4bhgp2rcd13ifvqfe0","pricing_plan_id":"cebpf4jnsgd1na2vs0mg"},{"bike_id":"c5afe4ed-432e-4c43-8e07-8a9cecbd1a94","system_id":"levelo_inurba_marseille","lat":43.29266,"lon":5.38456,"is_reserved":false,"is_disabled":false,"rental_uris":{"android":"levelo://app?vid=c5afe4ed-432e-4c43-8e07-8a9cecbd1a94","ios":"levelo://app?vid=c5afe4ed-432e-4c43-8e07-8a9cecbd1a94"},"vehicle_type_id":"4","last_reported":1738951917,"current_range_meters":38800,"station_id":"ce4bh692rcd13ifvqea0","pricing_plan_id":"cebpf4jnsgd1na2vs0mg"},{"bike_id":"fe959b0e-70b3-4183-ac58-8d250171888d","system_id":"levelo_inurba_marseille","lat":43.31715,"lon":5.43708,"is_reserved":false,"is_disabled":false,"rental_uris":{"android":"levelo://app?vid=fe959b0e-70b3-4183-ac58-8d250171888d","ios":"levelo://app?vid=fe959b0e-70b3-4183-ac58-8d250171888d"},"vehicle_type_id":"4","last_reported":1738951917,"current_range_meters":14000,"station_id":"ce4bhp92rcd13ifvqhcg","pricing_plan_id":"cebpf4jnsgd1na2vs0mg"},{"bike_id":"061ad218-5e14-42ca-9e7e-ab9e18d283ef","system_id":"levelo_inurba_marseille","lat":43.2586,"lon":5.39911,"is_reserved":false,"is_disabled":false,"rental_uris":{"android":"levelo://app?vid=061ad218-5e14-42ca-9e7e-ab9e18d283ef","ios":"levelo://app?vid=061ad218-5e14-42ca-9e7e-ab9e18d283ef"},"vehicle_type_id":"4","last_reported":1738951917,"current_range_meters":22400,"station_id":"ce4bhl92rcd13ifvqghg","pricing_plan_id":"cebpf4jnsgd1na2vs0mg"},{"bike_id":"6c267f5d-a785-4cb0-b4ff-073fc943f447","system_id":"levelo_inurba_marseille","lat":43.30265,"lon":5.40086,"is_reserved":false,"is_disabled":false,"rental_uris":{"android":"levelo://app?vid=6c267f5d-a785-4cb0-b4ff-073fc943f447","ios":"levelo://app?vid=6c267f5d-a785-4cb0-b4ff-073fc943f447"},"vehicle_type_id":"4","last_reported":1738951917,"current_range_meters":28400,"station_id":"ce4bgvh2rcd13ifvqcs0","pricing_plan_id":"cebpf4jnsgd1na2vs0mg"},{"bike_id":"201ecfc8-9896-48c6-91ea-b68110b20dcc","system_id":"levelo_inurba_marseille","lat":43.278336,"lon":5.391967,"is_reserved":false,"is_disabled":true,"rental_uris":{"android":"levelo://app?vid=201ecfc8-9896-48c6-91ea-b68110b20dcc","ios":"levelo://app?vid=201ecfc8-9896-48c6-91ea-b68110b20dcc"},"vehicle_type_id":"4","last_reported":1738951917,"current_range_meters":400,"station_id":"ce4bhjp2rcd13ifvqga0","pricing_plan_id":"cebpf4jnsgd1na2vs0mg"},{"bike_id":"f67b7531-6c63-4f46-a9d4-4fdf588facb0","system_id":"levelo_inurba_marseille","lat":43.27853,"lon":5.40675,"is_reserved":false,"is_disabled":true,"rental_uris":{"android":"levelo://app?vid=f67b7531-6c63-4f46-a9d4-4fdf588facb0","ios":"levelo://app?vid=f67b7531-6c63-4f46-a9d4-4fdf588facb0"},"vehicle_type_id":"4","last_reported":1738951917,"current_range_meters":0,"station_id":"","pricing_plan_id":"cebpf4jnsgd1na2vs0mg"},{"bike_id":"b526e262-999e-484f-827d-51a1e672d63f","system_id":"levelo_inurba_marseille","lat":43.29304,"lon":5.37466,"is_reserved":false,"is_disabled":false,"rental_uris":{"android":"levelo://app?vid=b526e262-999e-484f-827d-51a1e672d63f","ios":"levelo://app?vid=b526e262-999e-484f-827d-51a1e672d63f"},"vehicle_type_id":"4","last_reported":1738951917,"current_range_meters":30800,"station_id":"ce4bgi12rcd13ifvqb70","pricing_plan_id":"cebpf4jnsgd1na2vs0mg"},{"bike_id":"ccc0d99a-4f06-4847-88ea-bfbf26a9a708","system_id":"levelo_inurba_marseille","lat":43.27366,"lon":5.36272,"is_reserved":false,"is_disabled":false,"rental_uris":{"android":"levelo://app?vid=ccc0d99a-4f06-4847-88ea-bfbf26a9a708","ios":"levelo://app?vid=ccc0d99a-4f06-4847-88ea-bfbf26a9a708"},"vehicle_type_id":"4","last_reported":1738951917,"current_range_meters":38800,"station_id":"ce4bhbh2rcd13ifvqeo0","pricing_plan_id":"cebpf4jnsgd1na2vs0mg"},{"bike_id":"1047ff1d-49b3-4860-859b-cb306bbb0b1e","system_id":"levelo_inurba_marseille","lat":43.25712,"lon":5.41786,"is_reserved":false,"is_disabled":false,"rental_uris":{"android":"levelo://app?vid=1047ff1d-49b3-4860-859b-cb306bbb0b1e","ios":"levelo://app?vid=1047ff1d-49b3-4860-859b-cb306bbb0b1e"},"vehicle_type_id":"4","last_reported":1738951917,"current_range_meters":7200,"station_id":"","pricing_plan_id":"cebpf4jnsgd1na2vs0mg"},{"bike_id":"a1ff6a73-36b2-4a61-a88f-8f0cc16371c7","system_id":"levelo_inurba_marseille","lat":43.2623,"lon":5.4044,"is_reserved":false,"is_disabled":false,"rental_uris":{"android":"levelo://app?vid=a1ff6a73-36b2-4a61-a88f-8f0cc16371c7","ios":"levelo://app?vid=a1ff6a73-36b2-4a61-a88f-8f0cc16371c7"},"vehicle_type_id":"4","last_reported":1738951917,"current_range_meters":36800,"station_id":"ce4bhmh2rcd13ifvqgmg","pricing_plan_id":"cebpf4jnsgd1na2vs0mg"},{"bike_id":"5a2d5dfd-03ec-4fe4-9110-6cf9df6cb751","system_id":"levelo_inurba_marseille","lat":43.28722,"lon":5.37936,"is_reserved":false,"is_disabled":true,"rental_uris":{"android":"levelo://app?vid=5a2d5dfd-03ec-4fe4-9110-6cf9df6cb751","ios":"levelo://app?vid=5a2d5dfd-03ec-4fe4-9110-6cf9df6cb751"},"vehicle_type_id":"4","last_reported":1738951917,"current_range_meters":26000,"station_id":"ce4bh9p2rcd13ifvqec0","pricing_plan_id":"cebpf4jnsgd1na2vs0mg"},{"bike_id":"359b6247-0c56-4066-9203-ed98a21ba5b2","system_id":"levelo_inurba_marseille","lat":43.27564,"lon":5.3842,"is_reserved":false,"is_disabled":false,"rental_uris":{"android":"levelo://app?vid=359b6247-0c56-4066-9203-ed98a21ba5b2","ios":"levelo://app?vid=359b6247-0c56-4066-9203-ed98a21ba5b2"},"vehicle_type_id":"4","last_reported":1738951917,"current_range_meters":38800,"station_id":"ce4bhh92rcd13ifvqfi0","pricing_plan_id":"cebpf4jnsgd1na2vs0mg"},{"bike_id":"114998f0-dfb0-494f-8117-273cb0fabd56","system_id":"levelo_inurba_marseille","lat":43.23188,"lon":5.39979,"is_reserved":false,"is_disabled":false,"rental_uris":{"android":"levelo://app?vid=114998f0-dfb0-494f-8117-273cb0fabd56","ios":"levelo://app?vid=114998f0-dfb0-494f-8117-273cb0fabd56"},"vehicle_type_id":"4","last_reported":1738951917,"current_range_meters":38800,"station_id":"ce4bhn12rcd13ifvqgqg","pricing_plan_id":"cebpf4jnsgd1na2vs0mg"},{"bike_id":"55c531ba-cb99-413a-81f9-84f3b3d5979e","system_id":"levelo_inurba_marseille","lat":43.22926,"lon":5.35375,"is_reserved":false,"is_disabled":false,"rental_uris":{"android":"levelo://app?vid=55c531ba-cb99-413a-81f9-84f3b3d5979e","ios":"levelo://app?vid=55c531ba-cb99-413a-81f9-84f3b3d5979e"},"vehicle_type_id":"4","last_reported":1738951917,"current_range_meters":24400,"station_id":"cpo3532slgdg3j2ikp40","pricing_plan_id":"cebpf4jnsgd1na2vs0mg"},{"bike_id":"5beaa8a8-c8f0-4d41-a060-3861bb870c5e","system_id":"levelo_inurba_marseille","lat":43.29255,"lon":5.38442,"is_reserved":false,"is_disabled":false,"rental_uris":{"android":"levelo://app?vid=5beaa8a8-c8f0-4d41-a060-3861bb870c5e","ios":"levelo://app?vid=5beaa8a8-c8f0-4d41-a060-3861bb870c5e"},"vehicle_type_id":"4","last_reported":1738951917,"current_range_meters":38800,"station_id":"ce4bh692rcd13ifvqea0","pricing_plan_id":"cebpf4jnsgd1na2vs0mg"},{"bike_id":"eeb1626b-d9a7-4181-8530-ac28fa96e047","system_id":"levelo_inurba_marseille","lat":43.290413,"lon":5.359143,"is_reserved":false,"is_disabled":false,"rental_uris":{"android":"levelo://app?vid=eeb1626b-d9a7-4181-8530-ac28fa96e047","ios":"levelo://app?vid=eeb1626b-d9a7-4181-8530-ac28fa96e047"},"vehicle_type_id":"4","last_reported":1738951917,"current_range_meters":38400,"station_id":"ce4bha92rcd13ifvqeg0","pricing_plan_id":"cebpf4jnsgd1na2vs0mg"},{"bike_id":"8c08c6a2-3404-4d8b-b103-439efea13c08","system_id":"levelo_inurba_marseille","lat":43.27938,"lon":5.41053,"is_reserved":false,"is_disabled":false,"rental_uris":{"android":"levelo://app?vid=8c08c6a2-3404-4d8b-b103-439efea13c08","ios":"levelo://app?vid=8c08c6a2-3404-4d8b-b103-439efea13c08"},"vehicle_type_id":"4","last_reported":1738951917,"current_range_meters":14000,"station_id":"ce4bhnp2rcd13ifvqh0g","pricing_plan_id":"cebpf4jnsgd1na2vs0mg"},{"bike_id":"42b00d6b-70d0-4750-bdd2-377deb18497e","system_id":"levelo_inurba_marseille","lat":43.229331,"lon":5.353819,"is_reserved":false,"is_disabled":false,"rental_uris":{"android":"levelo://app?vid=42b00d6b-70d0-4750-bdd2-377deb18497e","ios":"levelo://app?vid=42b00d6b-70d0-4750-bdd2-377deb18497e"},"vehicle_type_id":"4","last_reported":1738951917,"current_range_meters":27600,"station_id":"cpo3532slgdg3j2ikp40","pricing_plan_id":"cebpf4jnsgd1na2vs0mg"},{"bike_id":"aabb1cdc-f06b-4055-9f74-754a33430498","system_id":"levelo_inurba_marseille","lat":43.30931,"lon":5.40138,"is_reserved":false,"is_disabled":false,"rental_uris":{"android":"levelo://app?vid=aabb1cdc-f06b-4055-9f74-754a33430498","ios":"levelo://app?vid=aabb1cdc-f06b-4055-9f74-754a33430498"},"vehicle_type_id":"4","last_reported":1738951917,"current_range_meters":35600,"station_id":"ce4bgvp2rcd13ifvqct0","pricing_plan_id":"cebpf4jnsgd1na2vs0mg"},{"bike_id":"d26811a1-4240-4c38-9630-b44ae6b37a73","system_id":"levelo_inurba_marseille","lat":43.28144,"lon":5.42637,"is_reserved":false,"is_disabled":false,"rental_uris":{"android":"levelo://app?vid=d26811a1-4240-4c38-9630-b44ae6b37a73","ios":"levelo://app?vid=d26811a1-4240-4c38-9630-b44ae6b37a73"},"vehicle_type_id":"4","last_reported":1738951917,"current_range_meters":28000,"station_id":"ce4bhnh2rcd13ifvqgug","pricing_plan_id":"cebpf4jnsgd1na2vs0mg"},{"bike_id":"ea3d872f-e26a-4c91-8a3d-8dd3be540b63","system_id":"levelo_inurba_marseille","lat":43.31168,"lon":5.38715,"is_reserved":false,"is_disabled":false,"rental_uris":{"android":"levelo://app?vid=ea3d872f-e26a-4c91-8a3d-8dd3be540b63","ios":"levelo://app?vid=ea3d872f-e26a-4c91-8a3d-8dd3be540b63"},"vehicle_type_id":"4","last_reported":1738951917,"current_range_meters":9200,"station_id":"ce4bgv12rcd13ifvqcp0","pricing_plan_id":"cebpf4jnsgd1na2vs0mg"},{"bike_id":"f1bbac45-5b32-4b97-b4ef-d7ee065546b1","system_id":"levelo_inurba_marseille","lat":43.26051,"lon":5.3756,"is_reserved":false,"is_disabled":false,"rental_uris":{"android":"levelo://app?vid=f1bbac45-5b32-4b97-b4ef-d7ee065546b1","ios":"levelo://app?vid=f1bbac45-5b32-4b97-b4ef-d7ee065546b1"},"vehicle_type_id":"4","last_reported":1738951917,"current_range_meters":36800,"station_id":"ce4bhgh2rcd13ifvqfa0","pricing_plan_id":"cebpf4jnsgd1na2vs0mg"},{"bike_id":"3a959277-7982-4e64-8356-0ff2ab30f7da","system_id":"levelo_inurba_marseille","lat":43.26194,"lon":5.37456,"is_reserved":false,"is_disabled":false,"rental_uris":{"android":"levelo://app?vid=3a959277-7982-4e64-8356-0ff2ab30f7da","ios":"levelo://app?vid=3a959277-7982-4e64-8356-0ff2ab30f7da"},"vehicle_type_id":"4","last_reported":1738951917,"current_range_meters":25200,"station_id":"ce4bhgp2rcd13ifvqfc0","pricing_plan_id":"cebpf4jnsgd1na2vs0mg"},{"bike_id":"a790f29e-fa68-4849-b3ef-115e4af966a4","system_id":"levelo_inurba_marseille","lat":43.28099,"lon":5.37834,"is_reserved":false,"is_disabled":false,"rental_uris":{"android":"levelo://app?vid=a790f29e-fa68-4849-b3ef-115e4af966a4","ios":"levelo://app?vid=a790f29e-fa68-4849-b3ef-115e4af966a4"},"vehicle_type_id":"4","last_reported":1738951917,"current_range_meters":9600,"station_id":"ce4bha12rcd13ifvqee0","pricing_plan_id":"cebpf4jnsgd1na2vs0mg"},{"bike_id":"7fee275b-35a0-491c-8208-d0a0f9845041","system_id":"levelo_inurba_marseille","lat":43.30241,"lon":5.4007,"is_reserved":false,"is_disabled":false,"rental_uris":{"android":"levelo://app?vid=7fee275b-35a0-491c-8208-d0a0f9845041","ios":"levelo://app?vid=7fee275b-35a0-491c-8208-d0a0f9845041"},"vehicle_type_id":"4","last_reported":1738951917,"current_range_meters":32000,"station_id":"ce4bgvh2rcd13ifvqcs0","pricing_plan_id":"cebpf4jnsgd1na2vs0mg"},{"bike_id":"3c434100-0ec7-4174-be49-81df709efba1","system_id":"levelo_inurba_marseille","lat":43.26494,"lon":5.39542,"is_reserved":false,"is_disabled":false,"rental_uris":{"android":"levelo://app?vid=3c434100-0ec7-4174-be49-81df709efba1","ios":"levelo://app?vid=3c434100-0ec7-4174-be49-81df709efba1"},"vehicle_type_id":"4","last_reported":1738951917,"current_range_meters":27200,"station_id":"ce4bhi12rcd13ifvqfq0","pricing_plan_id":"cebpf4jnsgd1na2vs0mg"},{"bike_id":"c6fc4b4a-5347-4905-8d96-67ea4d004656","system_id":"levelo_inurba_marseille","lat":43.23201,"lon":5.35549,"is_reserved":false,"is_disabled":false,"rental_uris":{"android":"levelo://app?vid=c6fc4b4a-5347-4905-8d96-67ea4d004656","ios":"levelo://app?vid=c6fc4b4a-5347-4905-8d96-67ea4d004656"},"vehicle_type_id":"4","last_reported":1738951917,"current_range_meters":9600,"station_id":"ce4bhu92rcd13ifvqi70","pricing_plan_id":"cebpf4jnsgd1na2vs0mg"},{"bike_id":"1da8b17b-ad28-4780-a711-431647c244ed","system_id":"levelo_inurba_marseille","lat":43.2395,"lon":5.36634,"is_reserved":false,"is_disabled":false,"rental_uris":{"android":"levelo://app?vid=1da8b17b-ad28-4780-a711-431647c244ed","ios":"levelo://app?vid=1da8b17b-ad28-4780-a711-431647c244ed"},"vehicle_type_id":"4","last_reported":1738951917,"current_range_meters":27600,"station_id":"ce4bhi12rcd13ifvqfp0","pricing_plan_id":"cebpf4jnsgd1na2vs0mg"},{"bike_id":"b1db3003-a515-433c-b006-a61b3558f325","system_id":"levelo_inurba_marseille","lat":43.30206,"lon":5.39472,"is_reserved":false,"is_disabled":true,"rental_uris":{"android":"levelo://app?vid=b1db3003-a515-433c-b006-a61b3558f325","ios":"levelo://app?vid=b1db3003-a515-433c-b006-a61b3558f325"},"vehicle_type_id":"4","last_reported":1738951917,"current_range_meters":38800,"station_id":"ce4bh0p2rcd13ifvqd70","pricing_plan_id":"cebpf4jnsgd1na2vs0mg"},{"bike_id":"c0bdd613-d7bb-415d-a25a-3344b4f0cf47","system_id":"levelo_inurba_marseille","lat":43.2997,"lon":5.3849,"is_reserved":false,"is_disabled":false,"rental_uris":{"android":"levelo://app?vid=c0bdd613-d7bb-415d-a25a-3344b4f0cf47","ios":"levelo://app?vid=c0bdd613-d7bb-415d-a25a-3344b4f0cf47"},"vehicle_type_id":"4","last_reported":1738951917,"current_range_meters":36400,"station_id":"ce4bgj92rcd13ifvqbd0","pricing_plan_id":"cebpf4jnsgd1na2vs0mg"},{"bike_id":"719a0c7c-2400-4767-8b28-1c8221683083","system_id":"levelo_inurba_marseille","lat":43.25583,"lon":5.38237,"is_reserved":false,"is_disabled":false,"rental_uris":{"android":"levelo://app?vid=719a0c7c-2400-4767-8b28-1c8221683083","ios":"levelo://app?vid=719a0c7c-2400-4767-8b28-1c8221683083"},"vehicle_type_id":"4","last_reported":1738951917,"current_range_meters":24800,"station_id":"ce4bhih2rcd13ifvqfs0","pricing_plan_id":"cebpf4jnsgd1na2vs0mg"},{"bike_id":"9566c523-e452-496f-8a8f-9531284c6f80","system_id":"levelo_inurba_marseille","lat":43.3108,"lon":5.42432,"is_reserved":false,"is_disabled":false,"rental_uris":{"android":"levelo://app?vid=9566c523-e452-496f-8a8f-9531284c6f80","ios":"levelo://app?vid=9566c523-e452-496f-8a8f-9531284c6f80"},"vehicle_type_id":"4","last_reported":1738951917,"current_range_meters":15200,"station_id":"ce4bhp92rcd13ifvqhag","pricing_plan_id":"cebpf4jnsgd1na2vs0mg"},{"bike_id":"2fae3534-810e-4940-86fd-e401a727ea88","system_id":"levelo_inurba_marseille","lat":43.30318,"lon":5.40436,"is_reserved":false,"is_disabled":false,"rental_uris":{"android":"levelo://app?vid=2fae3534-810e-4940-86fd-e401a727ea88","ios":"levelo://app?vid=2fae3534-810e-4940-86fd-e401a727ea88"},"vehicle_type_id":"4","last_reported":1738951917,"current_range_meters":22800,"station_id":"ce4bh012rcd13ifvqd10","pricing_plan_id":"cebpf4jnsgd1na2vs0mg"},{"bike_id":"e408d721-1719-4f3b-bfb2-ee76b97560c7","system_id":"levelo_inurba_marseille","lat":43.24649,"lon":5.38896,"is_reserved":false,"is_disabled":false,"rental_uris":{"android":"levelo://app?vid=e408d721-1719-4f3b-bfb2-ee76b97560c7","ios":"levelo://app?vid=e408d721-1719-4f3b-bfb2-ee76b97560c7"},"vehicle_type_id":"4","last_reported":1738951917,"current_range_meters":38800,"station_id":"ce4bhg12rcd13ifvqf60","pricing_plan_id":"cebpf4jnsgd1na2vs0mg"},{"bike_id":"b535402c-25ad-4274-bf8f-573a8931886f","system_id":"levelo_inurba_marseille","lat":43.33018,"lon":5.39045,"is_reserved":false,"is_disabled":false,"rental_uris":{"android":"levelo://app?vid=b535402c-25ad-4274-bf8f-573a8931886f","ios":"levelo://app?vid=b535402c-25ad-4274-bf8f-573a8931886f"},"vehicle_type_id":"4","last_reported":1738951917,"current_range_meters":38800,"station_id":"ce4bhr92rcd13ifvqhrg","pricing_plan_id":"cebpf4jnsgd1na2vs0mg"},{"bike_id":"c8467e20-c52a-4fa4-90f2-f69c646cb59f","system_id":"levelo_inurba_marseille","lat":43.30796,"lon":5.43523,"is_reserved":false,"is_disabled":false,"rental_uris":{"android":"levelo://app?vid=c8467e20-c52a-4fa4-90f2-f69c646cb59f","ios":"levelo://app?vid=c8467e20-c52a-4fa4-90f2-f69c646cb59f"},"vehicle_type_id":"4","last_reported":1738951917,"current_range_meters":32000,"station_id":"ce4bhph2rcd13ifvqheg","pricing_plan_id":"cebpf4jnsgd1na2vs0mg"},{"bike_id":"ae0106a6-97d8-40c7-90aa-4fa50520ee95","system_id":"levelo_inurba_marseille","lat":43.2657,"lon":5.39026,"is_reserved":false,"is_disabled":false,"rental_uris":{"android":"levelo://app?vid=ae0106a6-97d8-40c7-90aa-4fa50520ee95","ios":"levelo://app?vid=ae0106a6-97d8-40c7-90aa-4fa50520ee95"},"vehicle_type_id":"4","last_reported":1738951917,"current_range_meters":38800,"station_id":"ce4bhe12rcd13ifvqf30","pricing_plan_id":"cebpf4jnsgd1na2vs0mg"},{"bike_id":"50556afe-291c-479b-ab44-06a8395200d8","system_id":"levelo_inurba_marseille","lat":43.30285,"lon":5.39221,"is_reserved":false,"is_disabled":false,"rental_uris":{"android":"levelo://app?vid=50556afe-291c-479b-ab44-06a8395200d8","ios":"levelo://app?vid=50556afe-291c-479b-ab44-06a8395200d8"},"vehicle_type_id":"4","last_reported":1738951917,"current_range_meters":38800,"station_id":"ce4bgkh2rcd13ifvqbk0","pricing_plan_id":"cebpf4jnsgd1na2vs0mg"},{"bike_id":"8b7ff651-145e-4b6f-b73e-f6e79c9f6087","system_id":"levelo_inurba_marseille","lat":43.31173,"lon":5.3871,"is_reserved":false,"is_disabled":false,"rental_uris":{"android":"levelo://app?vid=8b7ff651-145e-4b6f-b73e-f6e79c9f6087","ios":"levelo://app?vid=8b7ff651-145e-4b6f-b73e-f6e79c9f6087"},"vehicle_type_id":"4","last_reported":1738951917,"current_range_meters":38400,"station_id":"ce4bgv12rcd13ifvqcp0","pricing_plan_id":"cebpf4jnsgd1na2vs0mg"},{"bike_id":"0197f52a-7fe4-448e-93cf-8bdd2aecb08b","system_id":"levelo_inurba_marseille","lat":43.27619,"lon":5.36112,"is_reserved":false,"is_disabled":false,"rental_uris":{"android":"levelo://app?vid=0197f52a-7fe4-448e-93cf-8bdd2aecb08b","ios":"levelo://app?vid=0197f52a-7fe4-448e-93cf-8bdd2aecb08b"},"vehicle_type_id":"4","last_reported":1738951917,"current_range_meters":19200,"station_id":"ce4bgj92rcd13ifvqbe0","pricing_plan_id":"cebpf4jnsgd1na2vs0mg"},{"bike_id":"3eedb533-60be-417d-965d-a013ad266d09","system_id":"levelo_inurba_marseille","lat":43.27067,"lon":5.42283,"is_reserved":false,"is_disabled":true,"rental_uris":{"android":"levelo://app?vid=3eedb533-60be-417d-965d-a013ad266d09","ios":"levelo://app?vid=3eedb533-60be-417d-965d-a013ad266d09"},"vehicle_type_id":"4","last_reported":1738951917,"current_range_meters":0,"station_id":"ce4bhk92rcd13ifvqgb0","pricing_plan_id":"cebpf4jnsgd1na2vs0mg"},{"bike_id":"9563d2a6-bf60-4758-bc3e-9491576f38e3","system_id":"levelo_inurba_marseille","lat":43.31641,"lon":5.38951,"is_reserved":false,"is_disabled":false,"rental_uris":{"android":"levelo://app?vid=9563d2a6-bf60-4758-bc3e-9491576f38e3","ios":"levelo://app?vid=9563d2a6-bf60-4758-bc3e-9491576f38e3"},"vehicle_type_id":"4","last_reported":1738951917,"current_range_meters":38000,"station_id":"","pricing_plan_id":"cebpf4jnsgd1na2vs0mg"},{"bike_id":"befb5b6b-67f1-40f2-b4f1-f2e1c95c0f34","system_id":"levelo_inurba_marseille","lat":43.28838,"lon":5.35838,"is_reserved":false,"is_disabled":false,"rental_uris":{"android":"levelo://app?vid=befb5b6b-67f1-40f2-b4f1-f2e1c95c0f34","ios":"levelo://app?vid=befb5b6b-67f1-40f2-b4f1-f2e1c95c0f34"},"vehicle_type_id":"4","last_reported":1738951917,"current_range_meters":34800,"station_id":"ce4bhb12rcd13ifvqem0","pricing_plan_id":"cebpf4jnsgd1na2vs0mg"},{"bike_id":"cbf36858-68f2-47f8-b58b-07ec04118b03","system_id":"levelo_inurba_marseille","lat":43.30163,"lon":5.37395,"is_reserved":false,"is_disabled":false,"rental_uris":{"android":"levelo://app?vid=cbf36858-68f2-47f8-b58b-07ec04118b03","ios":"levelo://app?vid=cbf36858-68f2-47f8-b58b-07ec04118b03"},"vehicle_type_id":"4","last_reported":1738951917,"current_range_meters":29600,"station_id":"ce4bgs92rcd13ifvqcc0","pricing_plan_id":"cebpf4jnsgd1na2vs0mg"},{"bike_id":"7fd99da6-7d54-4ecc-aaae-7d87e57a569b","system_id":"levelo_inurba_marseille","lat":43.28412,"lon":5.37523,"is_reserved":false,"is_disabled":false,"rental_uris":{"android":"levelo://app?vid=7fd99da6-7d54-4ecc-aaae-7d87e57a569b","ios":"levelo://app?vid=7fd99da6-7d54-4ecc-aaae-7d87e57a569b"},"vehicle_type_id":"4","last_reported":1738951917,"current_range_meters":27600,"station_id":"ce4bh412rcd13ifvqds0","pricing_plan_id":"cebpf4jnsgd1na2vs0mg"},{"bike_id":"48e4415f-4bfa-4dd7-b8c6-72b96454ae71","system_id":"levelo_inurba_marseille","lat":43.26802,"lon":5.40299,"is_reserved":false,"is_disabled":false,"rental_uris":{"android":"levelo://app?vid=48e4415f-4bfa-4dd7-b8c6-72b96454ae71","ios":"levelo://app?vid=48e4415f-4bfa-4dd7-b8c6-72b96454ae71"},"vehicle_type_id":"4","last_reported":1738951917,"current_range_meters":38800,"station_id":"ce501612rcd8frsf0b60","pricing_plan_id":"cebpf4jnsgd1na2vs0mg"},{"bike_id":"86e7fe57-f8b6-4306-adb2-c48a1d6d6515","system_id":"levelo_inurba_marseille","lat":43.25726,"lon":5.41109,"is_reserved":false,"is_disabled":false,"rental_uris":{"android":"levelo://app?vid=86e7fe57-f8b6-4306-adb2-c48a1d6d6515","ios":"levelo://app?vid=86e7fe57-f8b6-4306-adb2-c48a1d6d6515"},"vehicle_type_id":"4","last_reported":1738951917,"current_range_meters":38400,"station_id":"ce4bhkp2rcd13ifvqgd0","pricing_plan_id":"cebpf4jnsgd1na2vs0mg"},{"bike_id":"3a4e5e2e-29e0-43a3-be62-8939165a3791","system_id":"levelo_inurba_marseille","lat":43.30811,"lon":5.38175,"is_reserved":false,"is_disabled":false,"rental_uris":{"android":"levelo://app?vid=3a4e5e2e-29e0-43a3-be62-8939165a3791","ios":"levelo://app?vid=3a4e5e2e-29e0-43a3-be62-8939165a3791"},"vehicle_type_id":"4","last_reported":1738951917,"current_range_meters":35200,"station_id":"ce4bgt12rcd13ifvqce0","pricing_plan_id":"cebpf4jnsgd1na2vs0mg"},{"bike_id":"20d6c88e-47e3-45a3-b6e5-c8978ffca51a","system_id":"levelo_inurba_marseille","lat":43.30312,"lon":5.39194,"is_reserved":false,"is_disabled":true,"rental_uris":{"android":"levelo://app?vid=20d6c88e-47e3-45a3-b6e5-c8978ffca51a","ios":"levelo://app?vid=20d6c88e-47e3-45a3-b6e5-c8978ffca51a"},"vehicle_type_id":"4","last_reported":1738951917,"current_range_meters":8400,"station_id":"ce4bgkh2rcd13ifvqbk0","pricing_plan_id":"cebpf4jnsgd1na2vs0mg"},{"bike_id":"52fa6073-143a-4860-9d36-10416dcfe482","system_id":"levelo_inurba_marseille","lat":43.24804,"lon":5.37456,"is_reserved":false,"is_disabled":false,"rental_uris":{"android":"levelo://app?vid=52fa6073-143a-4860-9d36-10416dcfe482","ios":"levelo://app?vid=52fa6073-143a-4860-9d36-10416dcfe482"},"vehicle_type_id":"4","last_reported":1738951917,"current_range_meters":38800,"station_id":"ce4bhgh2rcd13ifvqfb0","pricing_plan_id":"cebpf4jnsgd1na2vs0mg"},{"bike_id":"be03eb0a-4597-4fef-8e89-e0a6de105fab","system_id":"levelo_inurba_marseille","lat":43.32336,"lon":5.40622,"is_reserved":false,"is_disabled":false,"rental_uris":{"android":"levelo://app?vid=be03eb0a-4597-4fef-8e89-e0a6de105fab","ios":"levelo://app?vid=be03eb0a-4597-4fef-8e89-e0a6de105fab"},"vehicle_type_id":"4","last_reported":1738951917,"current_range_meters":32000,"station_id":"ce4bhq92rcd13ifvqhjg","pricing_plan_id":"cebpf4jnsgd1na2vs0mg"},{"bike_id":"9aeabaf7-93d5-45cf-8f3b-dfcdfc0a9a65","system_id":"levelo_inurba_marseille","lat":43.31712,"lon":5.43697,"is_reserved":false,"is_disabled":false,"rental_uris":{"android":"levelo://app?vid=9aeabaf7-93d5-45cf-8f3b-dfcdfc0a9a65","ios":"levelo://app?vid=9aeabaf7-93d5-45cf-8f3b-dfcdfc0a9a65"},"vehicle_type_id":"4","last_reported":1738951917,"current_range_meters":7200,"station_id":"ce4bhp92rcd13ifvqhcg","pricing_plan_id":"cebpf4jnsgd1na2vs0mg"},{"bike_id":"7fbb62dc-4839-4c73-ace8-b465a424ddcd","system_id":"levelo_inurba_marseille","lat":43.268132,"lon":5.402829,"is_reserved":false,"is_disabled":false,"rental_uris":{"android":"levelo://app?vid=7fbb62dc-4839-4c73-ace8-b465a424ddcd","ios":"levelo://app?vid=7fbb62dc-4839-4c73-ace8-b465a424ddcd"},"vehicle_type_id":"4","last_reported":1738951917,"current_range_meters":23200,"station_id":"ce501612rcd8frsf0b60","pricing_plan_id":"cebpf4jnsgd1na2vs0mg"},{"bike_id":"ed2947c7-416b-4f25-b15f-def172dbc755","system_id":"levelo_inurba_marseille","lat":43.30591,"lon":5.3656,"is_reserved":false,"is_disabled":false,"rental_uris":{"android":"levelo://app?vid=ed2947c7-416b-4f25-b15f-def172dbc755","ios":"levelo://app?vid=ed2947c7-416b-4f25-b15f-def172dbc755"},"vehicle_type_id":"4","last_reported":1738951917,"current_range_meters":35600,"station_id":"ce4bgs12rcd13ifvqcag","pricing_plan_id":"cebpf4jnsgd1na2vs0mg"},{"bike_id":"c9644187-ae17-4392-b409-a1833125d6ae","system_id":"levelo_inurba_marseille","lat":43.30146,"lon":5.38073,"is_reserved":false,"is_disabled":false,"rental_uris":{"android":"levelo://app?vid=c9644187-ae17-4392-b409-a1833125d6ae","ios":"levelo://app?vid=c9644187-ae17-4392-b409-a1833125d6ae"},"vehicle_type_id":"4","last_reported":1738951917,"current_range_meters":16800,"station_id":"ce4bgjp2rcd13ifvqbh0","pricing_plan_id":"cebpf4jnsgd1na2vs0mg"},{"bike_id":"a88cdc15-8d35-46a3-8e9b-9cc39589871a","system_id":"levelo_inurba_marseille","lat":43.26805,"lon":5.4027,"is_reserved":false,"is_disabled":false,"rental_uris":{"android":"levelo://app?vid=a88cdc15-8d35-46a3-8e9b-9cc39589871a","ios":"levelo://app?vid=a88cdc15-8d35-46a3-8e9b-9cc39589871a"},"vehicle_type_id":"4","last_reported":1738951917,"current_range_meters":28000,"station_id":"ce501612rcd8frsf0b60","pricing_plan_id":"cebpf4jnsgd1na2vs0mg"},{"bike_id":"1f6670c7-a6f4-49b8-a1d0-c65af11ed89a","system_id":"levelo_inurba_marseille","lat":43.28657,"lon":5.36361,"is_reserved":false,"is_disabled":false,"rental_uris":{"android":"levelo://app?vid=1f6670c7-a6f4-49b8-a1d0-c65af11ed89a","ios":"levelo://app?vid=1f6670c7-a6f4-49b8-a1d0-c65af11ed89a"},"vehicle_type_id":"4","last_reported":1738951917,"current_range_meters":32400,"station_id":"ce4bhah2rcd13ifvqej0","pricing_plan_id":"cebpf4jnsgd1na2vs0mg"},{"bike_id":"78ecc04f-c6b4-4a42-9dab-0f7e815391e1","system_id":"levelo_inurba_marseille","lat":43.29417,"lon":5.3863,"is_reserved":false,"is_disabled":false,"rental_uris":{"android":"levelo://app?vid=78ecc04f-c6b4-4a42-9dab-0f7e815391e1","ios":"levelo://app?vid=78ecc04f-c6b4-4a42-9dab-0f7e815391e1"},"vehicle_type_id":"4","last_reported":1738951917,"current_range_meters":30400,"station_id":"ce4bh2h2rcd13ifvqdh0","pricing_plan_id":"cebpf4jnsgd1na2vs0mg"},{"bike_id":"0337fae5-6aa1-4eb8-967d-a238ac070c40","system_id":"levelo_inurba_marseille","lat":43.29532,"lon":5.39414,"is_reserved":false,"is_disabled":false,"rental_uris":{"android":"levelo://app?vid=0337fae5-6aa1-4eb8-967d-a238ac070c40","ios":"levelo://app?vid=0337fae5-6aa1-4eb8-967d-a238ac070c40"},"vehicle_type_id":"4","last_reported":1738951917,"current_range_meters":30000,"station_id":"ce4bh292rcd13ifvqdf0","pricing_plan_id":"cebpf4jnsgd1na2vs0mg"},{"bike_id":"b9f6953b-deb3-4c85-8260-f7a2e1494b80","system_id":"levelo_inurba_marseille","lat":43.30657,"lon":5.40096,"is_reserved":false,"is_disabled":false,"rental_uris":{"android":"levelo://app?vid=b9f6953b-deb3-4c85-8260-f7a2e1494b80","ios":"levelo://app?vid=b9f6953b-deb3-4c85-8260-f7a2e1494b80"},"vehicle_type_id":"4","last_reported":1738951917,"current_range_meters":30000,"station_id":"ce4bh112rcd13ifvqda0","pricing_plan_id":"cebpf4jnsgd1na2vs0mg"},{"bike_id":"c5789181-d252-4c46-b75d-908f3a6a38fe","system_id":"levelo_inurba_marseille","lat":43.33728,"lon":5.39187,"is_reserved":false,"is_disabled":false,"rental_uris":{"android":"levelo://app?vid=c5789181-d252-4c46-b75d-908f3a6a38fe","ios":"levelo://app?vid=c5789181-d252-4c46-b75d-908f3a6a38fe"},"vehicle_type_id":"4","last_reported":1738951917,"current_range_meters":38800,"station_id":"ce4bhr92rcd13ifvqhsg","pricing_plan_id":"cebpf4jnsgd1na2vs0mg"},{"bike_id":"1421091f-d9bd-4f1c-be63-477178bb18b4","system_id":"levelo_inurba_marseille","lat":43.26683,"lon":5.38262,"is_reserved":false,"is_disabled":false,"rental_uris":{"android":"levelo://app?vid=1421091f-d9bd-4f1c-be63-477178bb18b4","ios":"levelo://app?vid=1421091f-d9bd-4f1c-be63-477178bb18b4"},"vehicle_type_id":"4","last_reported":1738951917,"current_range_meters":27600,"station_id":"ce4bhg92rcd13ifvqf90","pricing_plan_id":"cebpf4jnsgd1na2vs0mg"},{"bike_id":"bc1ecf24-d8f7-4d6b-b75c-04c148611d4c","system_id":"levelo_inurba_marseille","lat":43.28938,"lon":5.36642,"is_reserved":false,"is_disabled":false,"rental_uris":{"android":"levelo://app?vid=bc1ecf24-d8f7-4d6b-b75c-04c148611d4c","ios":"levelo://app?vid=bc1ecf24-d8f7-4d6b-b75c-04c148611d4c"},"vehicle_type_id":"4","last_reported":1738951917,"current_range_meters":29600,"station_id":"ce4bhap2rcd13ifvqek0","pricing_plan_id":"cebpf4jnsgd1na2vs0mg"},{"bike_id":"b8a288ef-4349-437d-a22a-753084f41b03","system_id":"levelo_inurba_marseille","lat":43.31789,"lon":5.3898,"is_reserved":false,"is_disabled":false,"rental_uris":{"android":"levelo://app?vid=b8a288ef-4349-437d-a22a-753084f41b03","ios":"levelo://app?vid=b8a288ef-4349-437d-a22a-753084f41b03"},"vehicle_type_id":"4","last_reported":1738951917,"current_range_meters":38400,"station_id":"ce4bhqp2rcd13ifvqhng","pricing_plan_id":"cebpf4jnsgd1na2vs0mg"},{"bike_id":"4b346763-af4b-47bb-8f20-016bb4fee202","system_id":"levelo_inurba_marseille","lat":43.27819,"lon":5.40697,"is_reserved":false,"is_disabled":false,"rental_uris":{"android":"levelo://app?vid=4b346763-af4b-47bb-8f20-016bb4fee202","ios":"levelo://app?vid=4b346763-af4b-47bb-8f20-016bb4fee202"},"vehicle_type_id":"4","last_reported":1738951917,"current_range_meters":38800,"station_id":"ce4bhnh2rcd13ifvqgtg","pricing_plan_id":"cebpf4jnsgd1na2vs0mg"},{"bike_id":"d6ba4340-da13-4b9a-9fa6-901f73e2edaa","system_id":"levelo_inurba_marseille","lat":43.28104,"lon":5.37836,"is_reserved":false,"is_disabled":false,"rental_uris":{"android":"levelo://app?vid=d6ba4340-da13-4b9a-9fa6-901f73e2edaa","ios":"levelo://app?vid=d6ba4340-da13-4b9a-9fa6-901f73e2edaa"},"vehicle_type_id":"4","last_reported":1738951917,"current_range_meters":31200,"station_id":"ce4bha12rcd13ifvqee0","pricing_plan_id":"cebpf4jnsgd1na2vs0mg"},{"bike_id":"c9688c80-c9aa-4cd3-8a74-23b85353c411","system_id":"levelo_inurba_marseille","lat":43.31491,"lon":5.37302,"is_reserved":false,"is_disabled":false,"rental_uris":{"android":"levelo://app?vid=c9688c80-c9aa-4cd3-8a74-23b85353c411","ios":"levelo://app?vid=c9688c80-c9aa-4cd3-8a74-23b85353c411"},"vehicle_type_id":"4","last_reported":1738951917,"current_range_meters":25200,"station_id":"ce4bgt12rcd13ifvqcd0","pricing_plan_id":"cebpf4jnsgd1na2vs0mg"},{"bike_id":"a4956a73-d3d6-49ac-80d4-2f85454d3e32","system_id":"levelo_inurba_marseille","lat":43.28404,"lon":5.3752,"is_reserved":false,"is_disabled":false,"rental_uris":{"android":"levelo://app?vid=a4956a73-d3d6-49ac-80d4-2f85454d3e32","ios":"levelo://app?vid=a4956a73-d3d6-49ac-80d4-2f85454d3e32"},"vehicle_type_id":"4","last_reported":1738951917,"current_range_meters":16800,"station_id":"ce4bh412rcd13ifvqds0","pricing_plan_id":"cebpf4jnsgd1na2vs0mg"},{"bike_id":"9df291fb-1aaa-46e9-b45f-323e94d6df84","system_id":"levelo_inurba_marseille","lat":43.29628,"lon":5.37152,"is_reserved":false,"is_disabled":false,"rental_uris":{"android":"levelo://app?vid=9df291fb-1aaa-46e9-b45f-323e94d6df84","ios":"levelo://app?vid=9df291fb-1aaa-46e9-b45f-323e94d6df84"},"vehicle_type_id":"4","last_reported":1738951917,"current_range_meters":36400,"station_id":"ce4bgnh2rcd13ifvqc0g","pricing_plan_id":"cebpf4jnsgd1na2vs0mg"},{"bike_id":"33f37d6b-08fe-4642-b4da-79d2133e4243","system_id":"levelo_inurba_marseille","lat":43.27317,"lon":5.42309,"is_reserved":false,"is_disabled":true,"rental_uris":{"android":"levelo://app?vid=33f37d6b-08fe-4642-b4da-79d2133e4243","ios":"levelo://app?vid=33f37d6b-08fe-4642-b4da-79d2133e4243"},"vehicle_type_id":"4","last_reported":1738951917,"current_range_meters":0,"station_id":"","pricing_plan_id":"cebpf4jnsgd1na2vs0mg"},{"bike_id":"0538f5da-0a33-43df-a3bf-46a6538b3281","system_id":"levelo_inurba_marseille","lat":43.25498,"lon":5.3766,"is_reserved":false,"is_disabled":false,"rental_uris":{"android":"levelo://app?vid=0538f5da-0a33-43df-a3bf-46a6538b3281","ios":"levelo://app?vid=0538f5da-0a33-43df-a3bf-46a6538b3281"},"vehicle_type_id":"4","last_reported":1738951917,"current_range_meters":38000,"station_id":"ce4bhh12rcd13ifvqff0","pricing_plan_id":"cebpf4jnsgd1na2vs0mg"},{"bike_id":"10498f6b-01c8-4f11-8439-79270cb5ef36","system_id":"levelo_inurba_marseille","lat":43.30145,"lon":5.39877,"is_reserved":false,"is_disabled":false,"rental_uris":{"android":"levelo://app?vid=10498f6b-01c8-4f11-8439-79270cb5ef36","ios":"levelo://app?vid=10498f6b-01c8-4f11-8439-79270cb5ef36"},"vehicle_type_id":"4","last_reported":1738951917,"current_range_meters":39200,"station_id":"ce4bh0h2rcd13ifvqd40","pricing_plan_id":"cebpf4jnsgd1na2vs0mg"},{"bike_id":"c1011d45-0e30-48f4-9c83-9de4a4d17063","system_id":"levelo_inurba_marseille","lat":43.29359,"lon":5.42848,"is_reserved":false,"is_disabled":false,"rental_uris":{"android":"levelo://app?vid=c1011d45-0e30-48f4-9c83-9de4a4d17063","ios":"levelo://app?vid=c1011d45-0e30-48f4-9c83-9de4a4d17063"},"vehicle_type_id":"4","last_reported":1738951917,"current_range_meters":19600,"station_id":"","pricing_plan_id":"cebpf4jnsgd1na2vs0mg"},{"bike_id":"d94da8e2-a1f1-46e4-bb51-ac3d4a761980","system_id":"levelo_inurba_marseille","lat":43.25829,"lon":5.39437,"is_reserved":false,"is_disabled":false,"rental_uris":{"android":"levelo://app?vid=d94da8e2-a1f1-46e4-bb51-ac3d4a761980","ios":"levelo://app?vid=d94da8e2-a1f1-46e4-bb51-ac3d4a761980"},"vehicle_type_id":"4","last_reported":1738951917,"current_range_meters":38800,"station_id":"ce4bhip2rcd13ifvqft0","pricing_plan_id":"cebpf4jnsgd1na2vs0mg"},{"bike_id":"446a2a51-65bb-4be0-964d-26be7b7bbce3","system_id":"levelo_inurba_marseille","lat":43.29532,"lon":5.39051,"is_reserved":false,"is_disabled":false,"rental_uris":{"android":"levelo://app?vid=446a2a51-65bb-4be0-964d-26be7b7bbce3","ios":"levelo://app?vid=446a2a51-65bb-4be0-964d-26be7b7bbce3"},"vehicle_type_id":"4","last_reported":1738951917,"current_range_meters":30000,"station_id":"ce4bh3p2rcd13ifvqdp0","pricing_plan_id":"cebpf4jnsgd1na2vs0mg"},{"bike_id":"616062e4-19db-444e-bc13-a16a639c15cb","system_id":"levelo_inurba_marseille","lat":43.30659,"lon":5.40087,"is_reserved":false,"is_disabled":true,"rental_uris":{"android":"levelo://app?vid=616062e4-19db-444e-bc13-a16a639c15cb","ios":"levelo://app?vid=616062e4-19db-444e-bc13-a16a639c15cb"},"vehicle_type_id":"4","last_reported":1738951917,"current_range_meters":7200,"station_id":"ce4bh112rcd13ifvqda0","pricing_plan_id":"cebpf4jnsgd1na2vs0mg"},{"bike_id":"adea3fe0-0d5f-493f-bc7a-8db19cd779cc","system_id":"levelo_inurba_marseille","lat":43.26199,"lon":5.37928,"is_reserved":false,"is_disabled":false,"rental_uris":{"android":"levelo://app?vid=adea3fe0-0d5f-493f-bc7a-8db19cd779cc","ios":"levelo://app?vid=adea3fe0-0d5f-493f-bc7a-8db19cd779cc"},"vehicle_type_id":"4","last_reported":1738951917,"current_range_meters":35600,"station_id":"ce4bhjp2rcd13ifvqg90","pricing_plan_id":"cebpf4jnsgd1na2vs0mg"},{"bike_id":"daac813c-5bec-4c4f-a682-765e0db33cac","system_id":"levelo_inurba_marseille","lat":43.304596,"lon":5.379094,"is_reserved":false,"is_disabled":false,"rental_uris":{"android":"levelo://app?vid=daac813c-5bec-4c4f-a682-765e0db33cac","ios":"levelo://app?vid=daac813c-5bec-4c4f-a682-765e0db33cac"},"vehicle_type_id":"4","last_reported":1738951917,"current_range_meters":26000,"station_id":"ce4bgup2rcd13ifvqcn0","pricing_plan_id":"cebpf4jnsgd1na2vs0mg"},{"bike_id":"5dc9f8b1-e43e-4139-9ccb-a188b00cd4df","system_id":"levelo_inurba_marseille","lat":43.25012,"lon":5.38914,"is_reserved":false,"is_disabled":false,"rental_uris":{"android":"levelo://app?vid=5dc9f8b1-e43e-4139-9ccb-a188b00cd4df","ios":"levelo://app?vid=5dc9f8b1-e43e-4139-9ccb-a188b00cd4df"},"vehicle_type_id":"4","last_reported":1738951917,"current_range_meters":38800,"station_id":"ce4bhgp2rcd13ifvqfd0","pricing_plan_id":"cebpf4jnsgd1na2vs0mg"},{"bike_id":"2e45d347-f2a9-4c8e-b5da-d3e56e0bf649","system_id":"levelo_inurba_marseille","lat":43.2318,"lon":5.39993,"is_reserved":false,"is_disabled":false,"rental_uris":{"android":"levelo://app?vid=2e45d347-f2a9-4c8e-b5da-d3e56e0bf649","ios":"levelo://app?vid=2e45d347-f2a9-4c8e-b5da-d3e56e0bf649"},"vehicle_type_id":"4","last_reported":1738951917,"current_range_meters":10000,"station_id":"ce4bhn12rcd13ifvqgqg","pricing_plan_id":"cebpf4jnsgd1na2vs0mg"},{"bike_id":"be9ad9de-4071-48b2-a9f1-3af5ab5f6e98","system_id":"levelo_inurba_marseille","lat":43.30127,"lon":5.39872,"is_reserved":false,"is_disabled":false,"rental_uris":{"android":"levelo://app?vid=be9ad9de-4071-48b2-a9f1-3af5ab5f6e98","ios":"levelo://app?vid=be9ad9de-4071-48b2-a9f1-3af5ab5f6e98"},"vehicle_type_id":"4","last_reported":1738951917,"current_range_meters":38000,"station_id":"ce4bh0h2rcd13ifvqd40","pricing_plan_id":"cebpf4jnsgd1na2vs0mg"},{"bike_id":"1120757f-5eb0-4bea-8876-a4c0a3c03707","system_id":"levelo_inurba_marseille","lat":43.27049,"lon":5.4026,"is_reserved":false,"is_disabled":false,"rental_uris":{"android":"levelo://app?vid=1120757f-5eb0-4bea-8876-a4c0a3c03707","ios":"levelo://app?vid=1120757f-5eb0-4bea-8876-a4c0a3c03707"},"vehicle_type_id":"4","last_reported":1738951917,"current_range_meters":5600,"station_id":"ce4bhk92rcd13ifvqgc0","pricing_plan_id":"cebpf4jnsgd1na2vs0mg"},{"bike_id":"a044fd26-28d0-41a2-a38c-78f76b77f73f","system_id":"levelo_inurba_marseille","lat":43.29968,"lon":5.38494,"is_reserved":false,"is_disabled":false,"rental_uris":{"android":"levelo://app?vid=a044fd26-28d0-41a2-a38c-78f76b77f73f","ios":"levelo://app?vid=a044fd26-28d0-41a2-a38c-78f76b77f73f"},"vehicle_type_id":"4","last_reported":1738951917,"current_range_meters":24400,"station_id":"ce4bgj92rcd13ifvqbd0","pricing_plan_id":"cebpf4jnsgd1na2vs0mg"},{"bike_id":"d1544e6d-3461-4195-ac84-560d47245e13","system_id":"levelo_inurba_marseille","lat":43.30209,"lon":5.39475,"is_reserved":false,"is_disabled":false,"rental_uris":{"android":"levelo://app?vid=d1544e6d-3461-4195-ac84-560d47245e13","ios":"levelo://app?vid=d1544e6d-3461-4195-ac84-560d47245e13"},"vehicle_type_id":"4","last_reported":1738951917,"current_range_meters":8800,"station_id":"ce4bh0p2rcd13ifvqd70","pricing_plan_id":"cebpf4jnsgd1na2vs0mg"},{"bike_id":"fd741a2c-6090-4746-8e0c-a3bcf67c55a8","system_id":"levelo_inurba_marseille","lat":43.23154,"lon":5.43703,"is_reserved":false,"is_disabled":true,"rental_uris":{"android":"levelo://app?vid=fd741a2c-6090-4746-8e0c-a3bcf67c55a8","ios":"levelo://app?vid=fd741a2c-6090-4746-8e0c-a3bcf67c55a8"},"vehicle_type_id":"4","last_reported":1738951917,"current_range_meters":0,"station_id":"ce4bhmp2rcd13ifvqgog","pricing_plan_id":"cebpf4jnsgd1na2vs0mg"},{"bike_id":"f2df57fd-48fb-42b4-9b53-5e639c9b06ad","system_id":"levelo_inurba_marseille","lat":43.32382,"lon":5.38885,"is_reserved":false,"is_disabled":false,"rental_uris":{"android":"levelo://app?vid=f2df57fd-48fb-42b4-9b53-5e639c9b06ad","ios":"levelo://app?vid=f2df57fd-48fb-42b4-9b53-5e639c9b06ad"},"vehicle_type_id":"4","last_reported":1738951917,"current_range_meters":37600,"station_id":"ce4bhqp2rcd13ifvqhog","pricing_plan_id":"cebpf4jnsgd1na2vs0mg"},{"bike_id":"7fb54ed2-79d9-4b01-906b-923e9f169a4e","system_id":"levelo_inurba_marseille","lat":43.27947,"lon":5.41037,"is_reserved":false,"is_disabled":false,"rental_uris":{"android":"levelo://app?vid=7fb54ed2-79d9-4b01-906b-923e9f169a4e","ios":"levelo://app?vid=7fb54ed2-79d9-4b01-906b-923e9f169a4e"},"vehicle_type_id":"4","last_reported":1738951917,"current_range_meters":24800,"station_id":"ce4bhnp2rcd13ifvqh0g","pricing_plan_id":"cebpf4jnsgd1na2vs0mg"},{"bike_id":"0db2bfd7-2ca1-4f77-9597-ebb3b2c72fef","system_id":"levelo_inurba_marseille","lat":43.273701,"lon":5.36259,"is_reserved":false,"is_disabled":false,"rental_uris":{"android":"levelo://app?vid=0db2bfd7-2ca1-4f77-9597-ebb3b2c72fef","ios":"levelo://app?vid=0db2bfd7-2ca1-4f77-9597-ebb3b2c72fef"},"vehicle_type_id":"4","last_reported":1738951917,"current_range_meters":20800,"station_id":"ce4bhbh2rcd13ifvqeo0","pricing_plan_id":"cebpf4jnsgd1na2vs0mg"},{"bike_id":"59db9156-837c-4bef-bdf0-6cb05d00fb23","system_id":"levelo_inurba_marseille","lat":43.241669,"lon":5.36402,"is_reserved":false,"is_disabled":false,"rental_uris":{"android":"levelo://app?vid=59db9156-837c-4bef-bdf0-6cb05d00fb23","ios":"levelo://app?vid=59db9156-837c-4bef-bdf0-6cb05d00fb23"},"vehicle_type_id":"4","last_reported":1738951917,"current_range_meters":30400,"station_id":"cpo36qri1sfpv3e86is0","pricing_plan_id":"cebpf4jnsgd1na2vs0mg"},{"bike_id":"da2d8c01-630b-457d-a9b4-7854372e8eba","system_id":"levelo_inurba_marseille","lat":43.30891,"lon":5.37193,"is_reserved":false,"is_disabled":false,"rental_uris":{"android":"levelo://app?vid=da2d8c01-630b-457d-a9b4-7854372e8eba","ios":"levelo://app?vid=da2d8c01-630b-457d-a9b4-7854372e8eba"},"vehicle_type_id":"4","last_reported":1738951917,"current_range_meters":23200,"station_id":"ce4bguh2rcd13ifvqckg","pricing_plan_id":"cebpf4jnsgd1na2vs0mg"},{"bike_id":"19c91191-64ee-4803-94d7-14a4a66340df","system_id":"levelo_inurba_marseille","lat":43.317169,"lon":5.424036,"is_reserved":false,"is_disabled":true,"rental_uris":{"android":"levelo://app?vid=19c91191-64ee-4803-94d7-14a4a66340df","ios":"levelo://app?vid=19c91191-64ee-4803-94d7-14a4a66340df"},"vehicle_type_id":"4","last_reported":1738951917,"current_range_meters":0,"station_id":"ce4bhp92rcd13ifvqhbg","pricing_plan_id":"cebpf4jnsgd1na2vs0mg"},{"bike_id":"253b4999-41c5-4f79-8ef7-b17022cf04e3","system_id":"levelo_inurba_marseille","lat":43.33023,"lon":5.39029,"is_reserved":false,"is_disabled":false,"rental_uris":{"android":"levelo://app?vid=253b4999-41c5-4f79-8ef7-b17022cf04e3","ios":"levelo://app?vid=253b4999-41c5-4f79-8ef7-b17022cf04e3"},"vehicle_type_id":"4","last_reported":1738951917,"current_range_meters":37600,"station_id":"ce4bhr92rcd13ifvqhrg","pricing_plan_id":"cebpf4jnsgd1na2vs0mg"},{"bike_id":"81410b5b-b3ad-4981-814b-e902e567ddcc","system_id":"levelo_inurba_marseille","lat":43.27619,"lon":5.36107,"is_reserved":false,"is_disabled":false,"rental_uris":{"android":"levelo://app?vid=81410b5b-b3ad-4981-814b-e902e567ddcc","ios":"levelo://app?vid=81410b5b-b3ad-4981-814b-e902e567ddcc"},"vehicle_type_id":"4","last_reported":1738951917,"current_range_meters":19200,"station_id":"ce4bgj92rcd13ifvqbe0","pricing_plan_id":"cebpf4jnsgd1na2vs0mg"},{"bike_id":"de295655-2dda-46a2-bf20-1c646117ad88","system_id":"levelo_inurba_marseille","lat":43.30797,"lon":5.43529,"is_reserved":false,"is_disabled":false,"rental_uris":{"android":"levelo://app?vid=de295655-2dda-46a2-bf20-1c646117ad88","ios":"levelo://app?vid=de295655-2dda-46a2-bf20-1c646117ad88"},"vehicle_type_id":"4","last_reported":1738951917,"current_range_meters":38800,"station_id":"ce4bhph2rcd13ifvqheg","pricing_plan_id":"cebpf4jnsgd1na2vs0mg"},{"bike_id":"cbbb1c5d-5d6b-4d20-b43e-88d9207ed9c2","system_id":"levelo_inurba_marseille","lat":43.29275,"lon":5.36843,"is_reserved":false,"is_disabled":false,"rental_uris":{"android":"levelo://app?vid=cbbb1c5d-5d6b-4d20-b43e-88d9207ed9c2","ios":"levelo://app?vid=cbbb1c5d-5d6b-4d20-b43e-88d9207ed9c2"},"vehicle_type_id":"4","last_reported":1738951917,"current_range_meters":9600,"station_id":"ce4bhbp2rcd13ifvqesg","pricing_plan_id":"cebpf4jnsgd1na2vs0mg"},{"bike_id":"07ac8a07-a3a2-4b1c-9536-975be6df34bc","system_id":"levelo_inurba_marseille","lat":43.29255,"lon":5.38425,"is_reserved":false,"is_disabled":false,"rental_uris":{"android":"levelo://app?vid=07ac8a07-a3a2-4b1c-9536-975be6df34bc","ios":"levelo://app?vid=07ac8a07-a3a2-4b1c-9536-975be6df34bc"},"vehicle_type_id":"4","last_reported":1738951917,"current_range_meters":36800,"station_id":"ce4bh692rcd13ifvqea0","pricing_plan_id":"cebpf4jnsgd1na2vs0mg"},{"bike_id":"44f15452-c030-415c-8e50-99a00c4b7c21","system_id":"levelo_inurba_marseille","lat":43.24665,"lon":5.38174,"is_reserved":false,"is_disabled":false,"rental_uris":{"android":"levelo://app?vid=44f15452-c030-415c-8e50-99a00c4b7c21","ios":"levelo://app?vid=44f15452-c030-415c-8e50-99a00c4b7c21"},"vehicle_type_id":"4","last_reported":1738951917,"current_range_meters":24400,"station_id":"ce4bhih2rcd13ifvqfr0","pricing_plan_id":"cebpf4jnsgd1na2vs0mg"},{"bike_id":"63502e7d-71b3-44d6-b82d-6352b6e3809f","system_id":"levelo_inurba_marseille","lat":43.25848,"lon":5.39412,"is_reserved":false,"is_disabled":false,"rental_uris":{"android":"levelo://app?vid=63502e7d-71b3-44d6-b82d-6352b6e3809f","ios":"levelo://app?vid=63502e7d-71b3-44d6-b82d-6352b6e3809f"},"vehicle_type_id":"4","last_reported":1738951917,"current_range_meters":36400,"station_id":"ce4bhip2rcd13ifvqft0","pricing_plan_id":"cebpf4jnsgd1na2vs0mg"},{"bike_id":"54bc081f-58f2-4ed7-bb64-5dac5c7e1c26","system_id":"levelo_inurba_marseille","lat":43.27612,"lon":5.36119,"is_reserved":false,"is_disabled":false,"rental_uris":{"android":"levelo://app?vid=54bc081f-58f2-4ed7-bb64-5dac5c7e1c26","ios":"levelo://app?vid=54bc081f-58f2-4ed7-bb64-5dac5c7e1c26"},"vehicle_type_id":"4","last_reported":1738951917,"current_range_meters":18800,"station_id":"ce4bgj92rcd13ifvqbe0","pricing_plan_id":"cebpf4jnsgd1na2vs0mg"},{"bike_id":"375e0cd2-469f-4762-942a-816fe40f9032","system_id":"levelo_inurba_marseille","lat":43.30916,"lon":5.36841,"is_reserved":false,"is_disabled":false,"rental_uris":{"android":"levelo://app?vid=375e0cd2-469f-4762-942a-816fe40f9032","ios":"levelo://app?vid=375e0cd2-469f-4762-942a-816fe40f9032"},"vehicle_type_id":"4","last_reported":1738951917,"current_range_meters":17200,"station_id":"ce4bgn92rcd13ifvqbvg","pricing_plan_id":"cebpf4jnsgd1na2vs0mg"},{"bike_id":"bf632409-033b-4e98-8d00-ae0a70719868","system_id":"levelo_inurba_marseille","lat":43.2318,"lon":5.3999,"is_reserved":false,"is_disabled":false,"rental_uris":{"android":"levelo://app?vid=bf632409-033b-4e98-8d00-ae0a70719868","ios":"levelo://app?vid=bf632409-033b-4e98-8d00-ae0a70719868"},"vehicle_type_id":"4","last_reported":1738951917,"current_range_meters":36800,"station_id":"ce4bhn12rcd13ifvqgqg","pricing_plan_id":"cebpf4jnsgd1na2vs0mg"},{"bike_id":"5d1dacf3-3fa1-40ba-8373-ce163dd2d283","system_id":"levelo_inurba_marseille","lat":43.26191,"lon":5.37936,"is_reserved":false,"is_disabled":false,"rental_uris":{"android":"levelo://app?vid=5d1dacf3-3fa1-40ba-8373-ce163dd2d283","ios":"levelo://app?vid=5d1dacf3-3fa1-40ba-8373-ce163dd2d283"},"vehicle_type_id":"4","last_reported":1738951917,"current_range_meters":38800,"station_id":"ce4bhjp2rcd13ifvqg90","pricing_plan_id":"cebpf4jnsgd1na2vs0mg"},{"bike_id":"37db5fc9-0f62-46fc-91e6-628868788ccc","system_id":"levelo_inurba_marseille","lat":43.29002,"lon":5.35606,"is_reserved":false,"is_disabled":false,"rental_uris":{"android":"levelo://app?vid=37db5fc9-0f62-46fc-91e6-628868788ccc","ios":"levelo://app?vid=37db5fc9-0f62-46fc-91e6-628868788ccc"},"vehicle_type_id":"4","last_reported":1738951917,"current_range_meters":38800,"station_id":"ce4bhb92rcd13ifvqen0","pricing_plan_id":"cebpf4jnsgd1na2vs0mg"},{"bike_id":"6ff781d1-2621-44d1-b299-83b571f09432","system_id":"levelo_inurba_marseille","lat":43.34064,"lon":5.3852,"is_reserved":false,"is_disabled":true,"rental_uris":{"android":"levelo://app?vid=6ff781d1-2621-44d1-b299-83b571f09432","ios":"levelo://app?vid=6ff781d1-2621-44d1-b299-83b571f09432"},"vehicle_type_id":"4","last_reported":1738951917,"current_range_meters":800,"station_id":"","pricing_plan_id":"cebpf4jnsgd1na2vs0mg"},{"bike_id":"a2e733be-b3e3-470d-b20e-7d85b62390d1","system_id":"levelo_inurba_marseille","lat":43.30107,"lon":5.39072,"is_reserved":false,"is_disabled":false,"rental_uris":{"android":"levelo://app?vid=a2e733be-b3e3-470d-b20e-7d85b62390d1","ios":"levelo://app?vid=a2e733be-b3e3-470d-b20e-7d85b62390d1"},"vehicle_type_id":"4","last_reported":1738951917,"current_range_meters":24800,"station_id":"ce4bh192rcd13ifvqdb0","pricing_plan_id":"cebpf4jnsgd1na2vs0mg"},{"bike_id":"7abed690-08ef-45b9-9f1c-53575137024f","system_id":"levelo_inurba_marseille","lat":43.28034,"lon":5.36943,"is_reserved":false,"is_disabled":false,"rental_uris":{"android":"levelo://app?vid=7abed690-08ef-45b9-9f1c-53575137024f","ios":"levelo://app?vid=7abed690-08ef-45b9-9f1c-53575137024f"},"vehicle_type_id":"4","last_reported":1738951917,"current_range_meters":24400,"station_id":"ce4bha12rcd13ifvqef0","pricing_plan_id":"cebpf4jnsgd1na2vs0mg"},{"bike_id":"8bec6f5e-e450-4c2b-8557-aced9db82d7a","system_id":"levelo_inurba_marseille","lat":43.25717,"lon":5.41107,"is_reserved":false,"is_disabled":false,"rental_uris":{"android":"levelo://app?vid=8bec6f5e-e450-4c2b-8557-aced9db82d7a","ios":"levelo://app?vid=8bec6f5e-e450-4c2b-8557-aced9db82d7a"},"vehicle_type_id":"4","last_reported":1738951917,"current_range_meters":38400,"station_id":"ce4bhkp2rcd13ifvqgd0","pricing_plan_id":"cebpf4jnsgd1na2vs0mg"},{"bike_id":"013966e3-238f-4f27-83d7-59548e859f1f","system_id":"levelo_inurba_marseille","lat":43.2958,"lon":5.36745,"is_reserved":false,"is_disabled":false,"rental_uris":{"android":"levelo://app?vid=013966e3-238f-4f27-83d7-59548e859f1f","ios":"levelo://app?vid=013966e3-238f-4f27-83d7-59548e859f1f"},"vehicle_type_id":"4","last_reported":1738951917,"current_range_meters":38800,"station_id":"ce4bgph2rcd13ifvqc2g","pricing_plan_id":"cebpf4jnsgd1na2vs0mg"},{"bike_id":"136b7431-fe25-4be5-acba-3a2786dece70","system_id":"levelo_inurba_marseille","lat":43.2942,"lon":5.38625,"is_reserved":false,"is_disabled":false,"rental_uris":{"android":"levelo://app?vid=136b7431-fe25-4be5-acba-3a2786dece70","ios":"levelo://app?vid=136b7431-fe25-4be5-acba-3a2786dece70"},"vehicle_type_id":"4","last_reported":1738951917,"current_range_meters":38800,"station_id":"ce4bh2h2rcd13ifvqdh0","pricing_plan_id":"cebpf4jnsgd1na2vs0mg"},{"bike_id":"59379d68-7d67-41b1-ab63-4459b0164b78","system_id":"levelo_inurba_marseille","lat":43.25726,"lon":5.41108,"is_reserved":false,"is_disabled":false,"rental_uris":{"android":"levelo://app?vid=59379d68-7d67-41b1-ab63-4459b0164b78","ios":"levelo://app?vid=59379d68-7d67-41b1-ab63-4459b0164b78"},"vehicle_type_id":"4","last_reported":1738951917,"current_range_meters":14400,"station_id":"ce4bhkp2rcd13ifvqgd0","pricing_plan_id":"cebpf4jnsgd1na2vs0mg"},{"bike_id":"957f8b7e-d828-49bc-a82c-23988c526e55","system_id":"levelo_inurba_marseille","lat":43.28949,"lon":5.36643,"is_reserved":false,"is_disabled":true,"rental_uris":{"android":"levelo://app?vid=957f8b7e-d828-49bc-a82c-23988c526e55","ios":"levelo://app?vid=957f8b7e-d828-49bc-a82c-23988c526e55"},"vehicle_type_id":"4","last_reported":1738951917,"current_range_meters":38400,"station_id":"ce4bhap2rcd13ifvqek0","pricing_plan_id":"cebpf4jnsgd1na2vs0mg"},{"bike_id":"6bdce455-5d4b-433c-9bae-45e9d99a5cad","system_id":"levelo_inurba_marseille","lat":43.31254,"lon":5.36913,"is_reserved":false,"is_disabled":false,"rental_uris":{"android":"levelo://app?vid=6bdce455-5d4b-433c-9bae-45e9d99a5cad","ios":"levelo://app?vid=6bdce455-5d4b-433c-9bae-45e9d99a5cad"},"vehicle_type_id":"4","last_reported":1738951917,"current_range_meters":3200,"station_id":"ce4bgl92rcd13ifvqbq0","pricing_plan_id":"cebpf4jnsgd1na2vs0mg"},{"bike_id":"f761df35-c0ba-4efa-9656-e869d826662f","system_id":"levelo_inurba_marseille","lat":43.29851,"lon":5.36294,"is_reserved":false,"is_disabled":true,"rental_uris":{"android":"levelo://app?vid=f761df35-c0ba-4efa-9656-e869d826662f","ios":"levelo://app?vid=f761df35-c0ba-4efa-9656-e869d826662f"},"vehicle_type_id":"4","last_reported":1738951917,"current_range_meters":35600,"station_id":"ce4bgpp2rcd13ifvqc3g","pricing_plan_id":"cebpf4jnsgd1na2vs0mg"},{"bike_id":"4102fc6c-e365-41e0-9416-211e5673c09f","system_id":"levelo_inurba_marseille","lat":43.28711,"lon":5.37418,"is_reserved":false,"is_disabled":false,"rental_uris":{"android":"levelo://app?vid=4102fc6c-e365-41e0-9416-211e5673c09f","ios":"levelo://app?vid=4102fc6c-e365-41e0-9416-211e5673c09f"},"vehicle_type_id":"4","last_reported":1738951917,"current_range_meters":16800,"station_id":"ce4bh3p2rcd13ifvqdq0","pricing_plan_id":"cebpf4jnsgd1na2vs0mg"},{"bike_id":"826ab98d-0da8-4d31-b2a6-6ec434732aa9","system_id":"levelo_inurba_marseille","lat":43.28924,"lon":5.38395,"is_reserved":false,"is_disabled":true,"rental_uris":{"android":"levelo://app?vid=826ab98d-0da8-4d31-b2a6-6ec434732aa9","ios":"levelo://app?vid=826ab98d-0da8-4d31-b2a6-6ec434732aa9"},"vehicle_type_id":"4","last_reported":1738951917,"current_range_meters":17200,"station_id":"ce4bh612rcd13ifvqe6g","pricing_plan_id":"cebpf4jnsgd1na2vs0mg"},{"bike_id":"b8559aaa-d80d-4c2e-9da7-b2be079c1eba","system_id":"levelo_inurba_marseille","lat":43.27569,"lon":5.38444,"is_reserved":false,"is_disabled":false,"rental_uris":{"android":"levelo://app?vid=b8559aaa-d80d-4c2e-9da7-b2be079c1eba","ios":"levelo://app?vid=b8559aaa-d80d-4c2e-9da7-b2be079c1eba"},"vehicle_type_id":"4","last_reported":1738951917,"current_range_meters":32000,"station_id":"ce4bhh92rcd13ifvqfi0","pricing_plan_id":"cebpf4jnsgd1na2vs0mg"},{"bike_id":"d4d1259c-fb1c-4b7a-bf01-646970d57048","system_id":"levelo_inurba_marseille","lat":43.29534,"lon":5.39401,"is_reserved":false,"is_disabled":false,"rental_uris":{"android":"levelo://app?vid=d4d1259c-fb1c-4b7a-bf01-646970d57048","ios":"levelo://app?vid=d4d1259c-fb1c-4b7a-bf01-646970d57048"},"vehicle_type_id":"4","last_reported":1738951917,"current_range_meters":32400,"station_id":"ce4bh292rcd13ifvqdf0","pricing_plan_id":"cebpf4jnsgd1na2vs0mg"},{"bike_id":"e82fa571-a0a5-482d-a191-562866bf1df5","system_id":"levelo_inurba_marseille","lat":43.2737,"lon":5.36263,"is_reserved":false,"is_disabled":false,"rental_uris":{"android":"levelo://app?vid=e82fa571-a0a5-482d-a191-562866bf1df5","ios":"levelo://app?vid=e82fa571-a0a5-482d-a191-562866bf1df5"},"vehicle_type_id":"4","last_reported":1738951917,"current_range_meters":38000,"station_id":"ce4bhbh2rcd13ifvqeo0","pricing_plan_id":"cebpf4jnsgd1na2vs0mg"},{"bike_id":"54821b8f-03ba-4360-abc1-91db00db4644","system_id":"levelo_inurba_marseille","lat":43.255,"lon":5.37654,"is_reserved":false,"is_disabled":false,"rental_uris":{"android":"levelo://app?vid=54821b8f-03ba-4360-abc1-91db00db4644","ios":"levelo://app?vid=54821b8f-03ba-4360-abc1-91db00db4644"},"vehicle_type_id":"4","last_reported":1738951917,"current_range_meters":38800,"station_id":"ce4bhh12rcd13ifvqff0","pricing_plan_id":"cebpf4jnsgd1na2vs0mg"},{"bike_id":"a6e1b439-04e4-421f-a5a6-259ce9531499","system_id":"levelo_inurba_marseille","lat":43.27058,"lon":5.40263,"is_reserved":false,"is_disabled":false,"rental_uris":{"android":"levelo://app?vid=a6e1b439-04e4-421f-a5a6-259ce9531499","ios":"levelo://app?vid=a6e1b439-04e4-421f-a5a6-259ce9531499"},"vehicle_type_id":"4","last_reported":1738951917,"current_range_meters":34000,"station_id":"ce4bhk92rcd13ifvqgc0","pricing_plan_id":"cebpf4jnsgd1na2vs0mg"},{"bike_id":"3d9e8870-3e96-498e-8528-7cac12a72a04","system_id":"levelo_inurba_marseille","lat":43.26538,"lon":5.37352,"is_reserved":false,"is_disabled":false,"rental_uris":{"android":"levelo://app?vid=3d9e8870-3e96-498e-8528-7cac12a72a04","ios":"levelo://app?vid=3d9e8870-3e96-498e-8528-7cac12a72a04"},"vehicle_type_id":"4","last_reported":1738951917,"current_range_meters":11600,"station_id":"","pricing_plan_id":"cebpf4jnsgd1na2vs0mg"},{"bike_id":"ded50ad8-17a2-4113-82e5-140c43410296","system_id":"levelo_inurba_marseille","lat":43.29042,"lon":5.35914,"is_reserved":false,"is_disabled":false,"rental_uris":{"android":"levelo://app?vid=ded50ad8-17a2-4113-82e5-140c43410296","ios":"levelo://app?vid=ded50ad8-17a2-4113-82e5-140c43410296"},"vehicle_type_id":"4","last_reported":1738951917,"current_range_meters":38000,"station_id":"ce4bha92rcd13ifvqeg0","pricing_plan_id":"cebpf4jnsgd1na2vs0mg"},{"bike_id":"6309769f-86e4-4e0d-aa5a-cd929527bc1b","system_id":"levelo_inurba_marseille","lat":43.298371,"lon":5.36274,"is_reserved":false,"is_disabled":false,"rental_uris":{"android":"levelo://app?vid=6309769f-86e4-4e0d-aa5a-cd929527bc1b","ios":"levelo://app?vid=6309769f-86e4-4e0d-aa5a-cd929527bc1b"},"vehicle_type_id":"4","last_reported":1738951917,"current_range_meters":12800,"station_id":"ce4bgpp2rcd13ifvqc3g","pricing_plan_id":"cebpf4jnsgd1na2vs0mg"},{"bike_id":"617c8a11-05d4-4638-8182-754b4aecd1f8","system_id":"levelo_inurba_marseille","lat":43.25581,"lon":5.38234,"is_reserved":false,"is_disabled":false,"rental_uris":{"android":"levelo://app?vid=617c8a11-05d4-4638-8182-754b4aecd1f8","ios":"levelo://app?vid=617c8a11-05d4-4638-8182-754b4aecd1f8"},"vehicle_type_id":"4","last_reported":1738951917,"current_range_meters":10000,"station_id":"ce4bhih2rcd13ifvqfs0","pricing_plan_id":"cebpf4jnsgd1na2vs0mg"},{"bike_id":"7787fd6a-b438-4775-831e-4f7d592ebf87","system_id":"levelo_inurba_marseille","lat":43.31181,"lon":5.38718,"is_reserved":false,"is_disabled":false,"rental_uris":{"android":"levelo://app?vid=7787fd6a-b438-4775-831e-4f7d592ebf87","ios":"levelo://app?vid=7787fd6a-b438-4775-831e-4f7d592ebf87"},"vehicle_type_id":"4","last_reported":1738951917,"current_range_meters":8800,"station_id":"ce4bgv12rcd13ifvqcp0","pricing_plan_id":"cebpf4jnsgd1na2vs0mg"},{"bike_id":"2b81af3c-387b-426d-aec4-b8105fa9a8d1","system_id":"levelo_inurba_marseille","lat":43.29501,"lon":5.39371,"is_reserved":false,"is_disabled":true,"rental_uris":{"android":"levelo://app?vid=2b81af3c-387b-426d-aec4-b8105fa9a8d1","ios":"levelo://app?vid=2b81af3c-387b-426d-aec4-b8105fa9a8d1"},"vehicle_type_id":"4","last_reported":1738951917,"current_range_meters":37600,"station_id":"ce4bh292rcd13ifvqdf0","pricing_plan_id":"cebpf4jnsgd1na2vs0mg"},{"bike_id":"d39a2685-ff1f-4a95-b7fe-802902b67914","system_id":"levelo_inurba_marseille","lat":43.32115,"lon":5.36774,"is_reserved":false,"is_disabled":false,"rental_uris":{"android":"levelo://app?vid=d39a2685-ff1f-4a95-b7fe-802902b67914","ios":"levelo://app?vid=d39a2685-ff1f-4a95-b7fe-802902b67914"},"vehicle_type_id":"4","last_reported":1738951917,"current_range_meters":24400,"station_id":"ce4bhrh2rcd13ifvqhug","pricing_plan_id":"cebpf4jnsgd1na2vs0mg"},{"bike_id":"b8f1048d-afde-40b5-9096-18c5ac3c61a0","system_id":"levelo_inurba_marseille","lat":43.27048,"lon":5.40271,"is_reserved":false,"is_disabled":false,"rental_uris":{"android":"levelo://app?vid=b8f1048d-afde-40b5-9096-18c5ac3c61a0","ios":"levelo://app?vid=b8f1048d-afde-40b5-9096-18c5ac3c61a0"},"vehicle_type_id":"4","last_reported":1738951917,"current_range_meters":10000,"station_id":"ce4bhk92rcd13ifvqgc0","pricing_plan_id":"cebpf4jnsgd1na2vs0mg"},{"bike_id":"65b93af7-02d1-426c-8b10-b3c3784727fa","system_id":"levelo_inurba_marseille","lat":43.30305,"lon":5.392,"is_reserved":false,"is_disabled":false,"rental_uris":{"android":"levelo://app?vid=65b93af7-02d1-426c-8b10-b3c3784727fa","ios":"levelo://app?vid=65b93af7-02d1-426c-8b10-b3c3784727fa"},"vehicle_type_id":"4","last_reported":1738951917,"current_range_meters":38800,"station_id":"ce4bgkh2rcd13ifvqbk0","pricing_plan_id":"cebpf4jnsgd1na2vs0mg"},{"bike_id":"8eecc113-9b29-4d7f-9f10-17488720aa4b","system_id":"levelo_inurba_marseille","lat":43.28726,"lon":5.3608,"is_reserved":false,"is_disabled":false,"rental_uris":{"android":"levelo://app?vid=8eecc113-9b29-4d7f-9f10-17488720aa4b","ios":"levelo://app?vid=8eecc113-9b29-4d7f-9f10-17488720aa4b"},"vehicle_type_id":"4","last_reported":1738951917,"current_range_meters":27200,"station_id":"cki0cbj6b192h4jlfktg","pricing_plan_id":"cebpf4jnsgd1na2vs0mg"},{"bike_id":"93addc78-ce17-413c-815b-67b735177823","system_id":"levelo_inurba_marseille","lat":43.28729,"lon":5.36082,"is_reserved":false,"is_disabled":false,"rental_uris":{"android":"levelo://app?vid=93addc78-ce17-413c-815b-67b735177823","ios":"levelo://app?vid=93addc78-ce17-413c-815b-67b735177823"},"vehicle_type_id":"4","last_reported":1738951917,"current_range_meters":11200,"station_id":"cki0cbj6b192h4jlfktg","pricing_plan_id":"cebpf4jnsgd1na2vs0mg"},{"bike_id":"0702c3c5-fcc9-40e5-999c-2b4e45e1a590","system_id":"levelo_inurba_marseille","lat":43.29911,"lon":5.39738,"is_reserved":false,"is_disabled":false,"rental_uris":{"android":"levelo://app?vid=0702c3c5-fcc9-40e5-999c-2b4e45e1a590","ios":"levelo://app?vid=0702c3c5-fcc9-40e5-999c-2b4e45e1a590"},"vehicle_type_id":"4","last_reported":1738951917,"current_range_meters":39200,"station_id":"ce4bh0h2rcd13ifvqd50","pricing_plan_id":"cebpf4jnsgd1na2vs0mg"},{"bike_id":"7ffc0f4b-2320-4cbd-b643-523dab446d45","system_id":"levelo_inurba_marseille","lat":43.25007,"lon":5.38921,"is_reserved":false,"is_disabled":false,"rental_uris":{"android":"levelo://app?vid=7ffc0f4b-2320-4cbd-b643-523dab446d45","ios":"levelo://app?vid=7ffc0f4b-2320-4cbd-b643-523dab446d45"},"vehicle_type_id":"4","last_reported":1738951917,"current_range_meters":35600,"station_id":"ce4bhgp2rcd13ifvqfd0","pricing_plan_id":"cebpf4jnsgd1na2vs0mg"},{"bike_id":"c42f278d-db31-410e-97b0-9e8cb5755544","system_id":"levelo_inurba_marseille","lat":43.295215,"lon":5.375035,"is_reserved":false,"is_disabled":true,"rental_uris":{"android":"levelo://app?vid=c42f278d-db31-410e-97b0-9e8cb5755544","ios":"levelo://app?vid=c42f278d-db31-410e-97b0-9e8cb5755544"},"vehicle_type_id":"4","last_reported":1738951917,"current_range_meters":30800,"station_id":"ce4bgkp2rcd13ifvqbmg","pricing_plan_id":"cebpf4jnsgd1na2vs0mg"},{"bike_id":"eb6fef38-6527-4040-b4f6-dfc22fae7a77","system_id":"levelo_inurba_marseille","lat":43.31709,"lon":5.37744,"is_reserved":false,"is_disabled":false,"rental_uris":{"android":"levelo://app?vid=eb6fef38-6527-4040-b4f6-dfc22fae7a77","ios":"levelo://app?vid=eb6fef38-6527-4040-b4f6-dfc22fae7a77"},