{"last_updated":1737101487,"ttl":60,"version":"2.2","data":{"bikes":[{"bike_id":"fbba789f-860c-4d62-8452-c64ff2ef0dd3","system_id":"levelo_inurba_marseille","lat":43.25117,"lon":5.40331,"is_reserved":false,"is_disabled":true,"rental_uris":{"android":"levelo://app?vid=fbba789f-860c-4d62-8452-c64ff2ef0dd3","ios":"levelo://app?vid=fbba789f-860c-4d62-8452-c64ff2ef0dd3"},"vehicle_type_id":"4","last_reported":1737101487,"current_range_meters":38800,"station_id":"ce4bhlh2rcd13ifvqgig","pricing_plan_id":"cebpf4jnsgd1na2vs0mg"},{"bike_id":"e5286821-3788-4028-9a69-b47d06f8b759","system_id":"levelo_inurba_marseille","lat":43.30239,"lon":5.40057,"is_reserved":false,"is_disabled":false,"rental_uris":{"android":"levelo://app?vid=e5286821-3788-4028-9a69-b47d06f8b759","ios":"levelo://app?vid=e5286821-3788-4028-9a69-b47d06f8b759"},"vehicle_type_id":"4","last_reported":1737101487,"current_range_meters":6800,"station_id":"ce4bgvh2rcd13ifvqcs0","pricing_plan_id":"cebpf4jnsgd1na2vs0mg"},{"bike_id":"49146a2f-a675-4dcf-95a8-4d9de4764386","system_id":"levelo_inurba_marseille","lat":43.29024,"lon":5.39983,"is_reserved":false,"is_disabled":false,"rental_uris":{"android":"levelo://app?vid=49146a2f-a675-4dcf-95a8-4d9de4764386","ios":"levelo://app?vid=49146a2f-a675-4dcf-95a8-4d9de4764386"},"vehicle_type_id":"4","last_reported":1737101487,"current_range_meters":9600,"station_id":"ce4bh392rcd13ifvqdm0","pricing_plan_id":"cebpf4jnsgd1na2vs0mg"},{"bike_id":"753ccb49-949e-4f76-bbe4-861c2515eec4","system_id":"levelo_inurba_marseille","lat":43.29909,"lon":5.37476,"is_reserved":false,"is_disabled":true,"rental_uris":{"android":"levelo://app?vid=753ccb49-949e-4f76-bbe4-861c2515eec4","ios":"levelo://app?vid=753ccb49-949e-4f76-bbe4-861c2515eec4"},"vehicle_type_id":"4","last_reported":1737101487,"current_range_meters":1200,"station_id":"ce4bgjh2rcd13ifvqbg0","pricing_plan_id":"cebpf4jnsgd1na2vs0mg"},{"bike_id":"a39c946b-f215-435b-b58f-d6dc4c7b0aaf","system_id":"levelo_inurba_marseille","lat":43.28162,"lon":5.42646,"is_reserved":false,"is_disabled":true,"rental_uris":{"android":"levelo://app?vid=a39c946b-f215-435b-b58f-d6dc4c7b0aaf","ios":"levelo://app?vid=a39c946b-f215-435b-b58f-d6dc4c7b0aaf"},"vehicle_type_id":"4","last_reported":1737101487,"current_range_meters":35200,"station_id":"ce4bhnh2rcd13ifvqgug","pricing_plan_id":"cebpf4jnsgd1na2vs0mg"},{"bike_id":"f920b982-cf2b-4f22-a8e5-d4ce681958df","system_id":"levelo_inurba_marseille","lat":43.29812,"lon":5.40409,"is_reserved":false,"is_disabled":false,"rental_uris":{"android":"levelo://app?vid=f920b982-cf2b-4f22-a8e5-d4ce681958df","ios":"levelo://app?vid=f920b982-cf2b-4f22-a8e5-d4ce681958df"},"vehicle_type_id":"4","last_reported":1737101487,"current_range_meters":39200,"station_id":"ce4bh112rcd13ifvqd90","pricing_plan_id":"cebpf4jnsgd1na2vs0mg"},{"bike_id":"e7d38c79-b108-46df-b33f-41bf2e9d9132","system_id":"levelo_inurba_marseille","lat":43.25934,"lon":5.40912,"is_reserved":false,"is_disabled":false,"rental_uris":{"android":"levelo://app?vid=e7d38c79-b108-46df-b33f-41bf2e9d9132","ios":"levelo://app?vid=e7d38c79-b108-46df-b33f-41bf2e9d9132"},"vehicle_type_id":"4","last_reported":1737101487,"current_range_meters":28400,"station_id":"ce4bhm92rcd13ifvqglg","pricing_plan_id":"cebpf4jnsgd1na2vs0mg"},{"bike_id":"184347c2-bade-47b6-b490-9c00aea3b933","system_id":"levelo_inurba_marseille","lat":43.28489,"lon":5.38416,"is_reserved":false,"is_disabled":false,"rental_uris":{"android":"levelo://app?vid=184347c2-bade-47b6-b490-9c00aea3b933","ios":"levelo://app?vid=184347c2-bade-47b6-b490-9c00aea3b933"},"vehicle_type_id":"4","last_reported":1737101487,"current_range_meters":34800,"station_id":"ce4bh512rcd13ifvqe3g","pricing_plan_id":"cebpf4jnsgd1na2vs0mg"},{"bike_id":"352789ba-5de3-4f6e-84a8-32c41d59996f","system_id":"levelo_inurba_marseille","lat":43.30287,"lon":5.37709,"is_reserved":false,"is_disabled":false,"rental_uris":{"android":"levelo://app?vid=352789ba-5de3-4f6e-84a8-32c41d59996f","ios":"levelo://app?vid=352789ba-5de3-4f6e-84a8-32c41d59996f"},"vehicle_type_id":"4","last_reported":1737101487,"current_range_meters":1600,"station_id":"ce4bguh2rcd13ifvqcj0","pricing_plan_id":"cebpf4jnsgd1na2vs0mg"},{"bike_id":"25b01166-8b4c-49d6-8386-8f83eb8111f5","system_id":"levelo_inurba_marseille","lat":43.25814,"lon":5.39437,"is_reserved":false,"is_disabled":false,"rental_uris":{"android":"levelo://app?vid=25b01166-8b4c-49d6-8386-8f83eb8111f5","ios":"levelo://app?vid=25b01166-8b4c-49d6-8386-8f83eb8111f5"},"vehicle_type_id":"4","last_reported":1737101487,"current_range_meters":38800,"station_id":"ce4bhip2rcd13ifvqft0","pricing_plan_id":"cebpf4jnsgd1na2vs0mg"},{"bike_id":"95fd8945-11bc-4aca-9132-2b559d7418ac","system_id":"levelo_inurba_marseille","lat":43.30144,"lon":5.38773,"is_reserved":false,"is_disabled":false,"rental_uris":{"android":"levelo://app?vid=95fd8945-11bc-4aca-9132-2b559d7418ac","ios":"levelo://app?vid=95fd8945-11bc-4aca-9132-2b559d7418ac"},"vehicle_type_id":"4","last_reported":1737101487,"current_range_meters":14400,"station_id":"ce4bhoh2rcd13ifvqh6g","pricing_plan_id":"cebpf4jnsgd1na2vs0mg"},{"bike_id":"75af83de-4768-4db0-966d-e644eadea2da","system_id":"levelo_inurba_marseille","lat":43.25002,"lon":5.3892,"is_reserved":false,"is_disabled":false,"rental_uris":{"android":"levelo://app?vid=75af83de-4768-4db0-966d-e644eadea2da","ios":"levelo://app?vid=75af83de-4768-4db0-966d-e644eadea2da"},"vehicle_type_id":"4","last_reported":1737101487,"current_range_meters":23200,"station_id":"ce4bhgp2rcd13ifvqfd0","pricing_plan_id":"cebpf4jnsgd1na2vs0mg"},{"bike_id":"8c5e0a5d-35be-4e1e-a55d-e41acd54cf77","system_id":"levelo_inurba_marseille","lat":43.24039,"lon":5.37753,"is_reserved":false,"is_disabled":false,"rental_uris":{"android":"levelo://app?vid=8c5e0a5d-35be-4e1e-a55d-e41acd54cf77","ios":"levelo://app?vid=8c5e0a5d-35be-4e1e-a55d-e41acd54cf77"},"vehicle_type_id":"4","last_reported":1737101487,"current_range_meters":25600,"station_id":"ce4bhnp2rcd13ifvqgvg","pricing_plan_id":"cebpf4jnsgd1na2vs0mg"},{"bike_id":"9564712b-78a3-4ed3-8291-2e2ae6c0de18","system_id":"levelo_inurba_marseille","lat":43.30539,"lon":5.3656,"is_reserved":false,"is_disabled":false,"rental_uris":{"android":"levelo://app?vid=9564712b-78a3-4ed3-8291-2e2ae6c0de18","ios":"levelo://app?vid=9564712b-78a3-4ed3-8291-2e2ae6c0de18"},"vehicle_type_id":"4","last_reported":1737101487,"current_range_meters":38800,"station_id":"ce4bgs12rcd13ifvqcag","pricing_plan_id":"cebpf4jnsgd1na2vs0mg"},{"bike_id":"ec628bb1-7486-496e-9453-1f0ffdb389fc","system_id":"levelo_inurba_marseille","lat":43.26951,"lon":5.38634,"is_reserved":false,"is_disabled":true,"rental_uris":{"android":"levelo://app?vid=ec628bb1-7486-496e-9453-1f0ffdb389fc","ios":"levelo://app?vid=ec628bb1-7486-496e-9453-1f0ffdb389fc"},"vehicle_type_id":"4","last_reported":1737101487,"current_range_meters":21600,"station_id":"ce4bhh92rcd13ifvqfh0","pricing_plan_id":"cebpf4jnsgd1na2vs0mg"},{"bike_id":"c1c86519-f5cc-47e9-b005-50914b54ad15","system_id":"levelo_inurba_marseille","lat":43.29039,"lon":5.37563,"is_reserved":false,"is_disabled":false,"rental_uris":{"android":"levelo://app?vid=c1c86519-f5cc-47e9-b005-50914b54ad15","ios":"levelo://app?vid=c1c86519-f5cc-47e9-b005-50914b54ad15"},"vehicle_type_id":"4","last_reported":1737101487,"current_range_meters":22000,"station_id":"ce4bh692rcd13ifvqe90","pricing_plan_id":"cebpf4jnsgd1na2vs0mg"},{"bike_id":"2bf65692-cbc9-4581-916b-1c0b607a4dbb","system_id":"levelo_inurba_marseille","lat":43.28426,"lon":5.39192,"is_reserved":false,"is_disabled":true,"rental_uris":{"android":"levelo://app?vid=2bf65692-cbc9-4581-916b-1c0b607a4dbb","ios":"levelo://app?vid=2bf65692-cbc9-4581-916b-1c0b607a4dbb"},"vehicle_type_id":"4","last_reported":1737101487,"current_range_meters":24800,"station_id":"ce4bhoh2rcd13ifvqh5g","pricing_plan_id":"cebpf4jnsgd1na2vs0mg"},{"bike_id":"ab67834a-26d7-4518-8349-5d073114b8c1","system_id":"levelo_inurba_marseille","lat":43.30275,"lon":5.37717,"is_reserved":false,"is_disabled":false,"rental_uris":{"android":"levelo://app?vid=ab67834a-26d7-4518-8349-5d073114b8c1","ios":"levelo://app?vid=ab67834a-26d7-4518-8349-5d073114b8c1"},"vehicle_type_id":"4","last_reported":1737101487,"current_range_meters":36400,"station_id":"ce4bguh2rcd13ifvqcj0","pricing_plan_id":"cebpf4jnsgd1na2vs0mg"},{"bike_id":"7f02950a-6af8-4077-8bd4-f17cb739a40e","system_id":"levelo_inurba_marseille","lat":43.270699,"lon":5.422751,"is_reserved":false,"is_disabled":false,"rental_uris":{"android":"levelo://app?vid=7f02950a-6af8-4077-8bd4-f17cb739a40e","ios":"levelo://app?vid=7f02950a-6af8-4077-8bd4-f17cb739a40e"},"vehicle_type_id":"4","last_reported":1737101487,"current_range_meters":17200,"station_id":"ce4bhk92rcd13ifvqgb0","pricing_plan_id":"cebpf4jnsgd1na2vs0mg"},{"bike_id":"d0790979-642c-4578-9799-6dcaf9a868a4","system_id":"levelo_inurba_marseille","lat":43.30539,"lon":5.36542,"is_reserved":false,"is_disabled":false,"rental_uris":{"android":"levelo://app?vid=d0790979-642c-4578-9799-6dcaf9a868a4","ios":"levelo://app?vid=d0790979-642c-4578-9799-6dcaf9a868a4"},"vehicle_type_id":"4","last_reported":1737101487,"current_range_meters":27600,"station_id":"ce4bgs12rcd13ifvqcag","pricing_plan_id":"cebpf4jnsgd1na2vs0mg"},{"bike_id":"4c641f70-5b8d-4281-a1a7-59dd680ce73d","system_id":"levelo_inurba_marseille","lat":43.31343,"lon":5.36724,"is_reserved":false,"is_disabled":false,"rental_uris":{"android":"levelo://app?vid=4c641f70-5b8d-4281-a1a7-59dd680ce73d","ios":"levelo://app?vid=4c641f70-5b8d-4281-a1a7-59dd680ce73d"},"vehicle_type_id":"4","last_reported":1737101487,"current_range_meters":34000,"station_id":"ce4bgr92rcd13ifvqc6g","pricing_plan_id":"cebpf4jnsgd1na2vs0mg"},{"bike_id":"e173ad86-c1af-446f-b053-2c886638ed46","system_id":"levelo_inurba_marseille","lat":43.29582,"lon":5.37507,"is_reserved":false,"is_disabled":true,"rental_uris":{"android":"levelo://app?vid=e173ad86-c1af-446f-b053-2c886638ed46","ios":"levelo://app?vid=e173ad86-c1af-446f-b053-2c886638ed46"},"vehicle_type_id":"4","last_reported":1737101487,"current_range_meters":1200,"station_id":"ce4bgh92rcd13ifvqb50","pricing_plan_id":"cebpf4jnsgd1na2vs0mg"},{"bike_id":"995dead0-2394-4106-8318-d0249f2ca238","system_id":"levelo_inurba_marseille","lat":43.30187,"lon":5.36613,"is_reserved":false,"is_disabled":false,"rental_uris":{"android":"levelo://app?vid=995dead0-2394-4106-8318-d0249f2ca238","ios":"levelo://app?vid=995dead0-2394-4106-8318-d0249f2ca238"},"vehicle_type_id":"4","last_reported":1737101487,"current_range_meters":29600,"station_id":"ce4bgrh2rcd13ifvqc8g","pricing_plan_id":"cebpf4jnsgd1na2vs0mg"},{"bike_id":"aa1c2cd9-ddaa-4aee-8c47-810e68694606","system_id":"levelo_inurba_marseille","lat":43.31677,"lon":5.37781,"is_reserved":false,"is_disabled":false,"rental_uris":{"android":"levelo://app?vid=aa1c2cd9-ddaa-4aee-8c47-810e68694606","ios":"levelo://app?vid=aa1c2cd9-ddaa-4aee-8c47-810e68694606"},"vehicle_type_id":"4","last_reported":1737101487,"current_range_meters":20800,"station_id":"ce4bgth2rcd13ifvqch0","pricing_plan_id":"cebpf4jnsgd1na2vs0mg"},{"bike_id":"58564729-1ac0-478c-943b-fce64cfda95e","system_id":"levelo_inurba_marseille","lat":43.29545,"lon":5.37548,"is_reserved":false,"is_disabled":false,"rental_uris":{"android":"levelo://app?vid=58564729-1ac0-478c-943b-fce64cfda95e","ios":"levelo://app?vid=58564729-1ac0-478c-943b-fce64cfda95e"},"vehicle_type_id":"4","last_reported":1737101487,"current_range_meters":28000,"station_id":"ce4bgh92rcd13ifvqb50","pricing_plan_id":"cebpf4jnsgd1na2vs0mg"},{"bike_id":"0c49301b-7525-4a5d-b3b0-12c6ce534ac0","system_id":"levelo_inurba_marseille","lat":43.2695,"lon":5.38639,"is_reserved":false,"is_disabled":false,"rental_uris":{"android":"levelo://app?vid=0c49301b-7525-4a5d-b3b0-12c6ce534ac0","ios":"levelo://app?vid=0c49301b-7525-4a5d-b3b0-12c6ce534ac0"},"vehicle_type_id":"4","last_reported":1737101487,"current_range_meters":38800,"station_id":"ce4bhh92rcd13ifvqfh0","pricing_plan_id":"cebpf4jnsgd1na2vs0mg"},{"bike_id":"c4fc9679-1008-473b-9e9b-26f1ed62312e","system_id":"levelo_inurba_marseille","lat":43.22929,"lon":5.35389,"is_reserved":false,"is_disabled":false,"rental_uris":{"android":"levelo://app?vid=c4fc9679-1008-473b-9e9b-26f1ed62312e","ios":"levelo://app?vid=c4fc9679-1008-473b-9e9b-26f1ed62312e"},"vehicle_type_id":"4","last_reported":1737101487,"current_range_meters":19200,"station_id":"cpo3532slgdg3j2ikp40","pricing_plan_id":"cebpf4jnsgd1na2vs0mg"},{"bike_id":"87911755-e5ea-4b1c-85d9-7185179f27cb","system_id":"levelo_inurba_marseille","lat":43.28486,"lon":5.38408,"is_reserved":false,"is_disabled":false,"rental_uris":{"android":"levelo://app?vid=87911755-e5ea-4b1c-85d9-7185179f27cb","ios":"levelo://app?vid=87911755-e5ea-4b1c-85d9-7185179f27cb"},"vehicle_type_id":"4","last_reported":1737101487,"current_range_meters":38800,"station_id":"ce4bh512rcd13ifvqe3g","pricing_plan_id":"cebpf4jnsgd1na2vs0mg"},{"bike_id":"d2a859b8-3f91-4b5b-89f4-40a6a11a76b6","system_id":"levelo_inurba_marseille","lat":43.24052,"lon":5.37764,"is_reserved":false,"is_disabled":false,"rental_uris":{"android":"levelo://app?vid=d2a859b8-3f91-4b5b-89f4-40a6a11a76b6","ios":"levelo://app?vid=d2a859b8-3f91-4b5b-89f4-40a6a11a76b6"},"vehicle_type_id":"4","last_reported":1737101487,"current_range_meters":38800,"station_id":"ce4bhnp2rcd13ifvqgvg","pricing_plan_id":"cebpf4jnsgd1na2vs0mg"},{"bike_id":"a1cf5c5e-dcc4-4b88-9c5b-d7d7a9589638","system_id":"levelo_inurba_marseille","lat":43.287,"lon":5.374075,"is_reserved":false,"is_disabled":true,"rental_uris":{"android":"levelo://app?vid=a1cf5c5e-dcc4-4b88-9c5b-d7d7a9589638","ios":"levelo://app?vid=a1cf5c5e-dcc4-4b88-9c5b-d7d7a9589638"},"vehicle_type_id":"4","last_reported":1737101487,"current_range_meters":35200,"station_id":"ce4bh3p2rcd13ifvqdq0","pricing_plan_id":"cebpf4jnsgd1na2vs0mg"},{"bike_id":"99edffd1-a5ba-4759-befa-f12a00faec89","system_id":"levelo_inurba_marseille","lat":43.285616,"lon":5.394966,"is_reserved":false,"is_disabled":true,"rental_uris":{"android":"levelo://app?vid=99edffd1-a5ba-4759-befa-f12a00faec89","ios":"levelo://app?vid=99edffd1-a5ba-4759-befa-f12a00faec89"},"vehicle_type_id":"4","last_reported":1737101487,"current_range_meters":10800,"station_id":"ce4bh292rcd13ifvqdg0","pricing_plan_id":"cebpf4jnsgd1na2vs0mg"},{"bike_id":"7bff6b70-c347-452a-86fc-ce3998f9f599","system_id":"levelo_inurba_marseille","lat":43.24083,"lon":5.37751,"is_reserved":false,"is_disabled":false,"rental_uris":{"android":"levelo://app?vid=7bff6b70-c347-452a-86fc-ce3998f9f599","ios":"levelo://app?vid=7bff6b70-c347-452a-86fc-ce3998f9f599"},"vehicle_type_id":"4","last_reported":1737101487,"current_range_meters":24400,"station_id":"ce4bhnp2rcd13ifvqgvg","pricing_plan_id":"cebpf4jnsgd1na2vs0mg"},{"bike_id":"4c95b24d-5e81-4bcc-9c3f-8e13fb6505af","system_id":"levelo_inurba_marseille","lat":43.27281,"lon":5.39975,"is_reserved":false,"is_disabled":false,"rental_uris":{"android":"levelo://app?vid=4c95b24d-5e81-4bcc-9c3f-8e13fb6505af","ios":"levelo://app?vid=4c95b24d-5e81-4bcc-9c3f-8e13fb6505af"},"vehicle_type_id":"4","last_reported":1737101487,"current_range_meters":36400,"station_id":"","pricing_plan_id":"cebpf4jnsgd1na2vs0mg"},{"bike_id":"017e8f80-df95-465a-8d42-b37cd001e8aa","system_id":"levelo_inurba_marseille","lat":43.31345,"lon":5.36713,"is_reserved":false,"is_disabled":false,"rental_uris":{"android":"levelo://app?vid=017e8f80-df95-465a-8d42-b37cd001e8aa","ios":"levelo://app?vid=017e8f80-df95-465a-8d42-b37cd001e8aa"},"vehicle_type_id":"4","last_reported":1737101487,"current_range_meters":27200,"station_id":"ce4bgr92rcd13ifvqc6g","pricing_plan_id":"cebpf4jnsgd1na2vs0mg"},{"bike_id":"05b54f2b-74b0-41e3-b88d-cb71c1548f97","system_id":"levelo_inurba_marseille","lat":43.28346,"lon":5.38107,"is_reserved":false,"is_disabled":false,"rental_uris":{"android":"levelo://app?vid=05b54f2b-74b0-41e3-b88d-cb71c1548f97","ios":"levelo://app?vid=05b54f2b-74b0-41e3-b88d-cb71c1548f97"},"vehicle_type_id":"4","last_reported":1737101487,"current_range_meters":30800,"station_id":"ce4bh412rcd13ifvqdr0","pricing_plan_id":"cebpf4jnsgd1na2vs0mg"},{"bike_id":"8240d19d-0738-4c35-b97a-8d2f95fb533d","system_id":"levelo_inurba_marseille","lat":43.276197,"lon":5.361077,"is_reserved":false,"is_disabled":false,"rental_uris":{"android":"levelo://app?vid=8240d19d-0738-4c35-b97a-8d2f95fb533d","ios":"levelo://app?vid=8240d19d-0738-4c35-b97a-8d2f95fb533d"},"vehicle_type_id":"4","last_reported":1737101487,"current_range_meters":38800,"station_id":"ce4bgj92rcd13ifvqbe0","pricing_plan_id":"cebpf4jnsgd1na2vs0mg"},{"bike_id":"a8513bfd-4fd3-4342-a553-667ab2f2734a","system_id":"levelo_inurba_marseille","lat":43.3149,"lon":5.37317,"is_reserved":false,"is_disabled":false,"rental_uris":{"android":"levelo://app?vid=a8513bfd-4fd3-4342-a553-667ab2f2734a","ios":"levelo://app?vid=a8513bfd-4fd3-4342-a553-667ab2f2734a"},"vehicle_type_id":"4","last_reported":1737101487,"current_range_meters":29600,"station_id":"ce4bgt12rcd13ifvqcd0","pricing_plan_id":"cebpf4jnsgd1na2vs0mg"},{"bike_id":"7ddbdcc7-9159-4005-b875-ec2d7fc85593","system_id":"levelo_inurba_marseille","lat":43.30151,"lon":5.38085,"is_reserved":false,"is_disabled":false,"rental_uris":{"android":"levelo://app?vid=7ddbdcc7-9159-4005-b875-ec2d7fc85593","ios":"levelo://app?vid=7ddbdcc7-9159-4005-b875-ec2d7fc85593"},"vehicle_type_id":"4","last_reported":1737101487,"current_range_meters":36400,"station_id":"ce4bgjp2rcd13ifvqbh0","pricing_plan_id":"cebpf4jnsgd1na2vs0mg"},{"bike_id":"59a300c4-1a89-45c3-9556-7035aabc7ce1","system_id":"levelo_inurba_marseille","lat":43.29281,"lon":5.40131,"is_reserved":false,"is_disabled":false,"rental_uris":{"android":"levelo://app?vid=59a300c4-1a89-45c3-9556-7035aabc7ce1","ios":"levelo://app?vid=59a300c4-1a89-45c3-9556-7035aabc7ce1"},"vehicle_type_id":"4","last_reported":1737101487,"current_range_meters":24000,"station_id":"ce4bh312rcd13ifvqdk0","pricing_plan_id":"cebpf4jnsgd1na2vs0mg"},{"bike_id":"66ec8711-3dbc-48f7-b091-25773ac6b77c","system_id":"levelo_inurba_marseille","lat":43.28133,"lon":5.44224,"is_reserved":false,"is_disabled":true,"rental_uris":{"android":"levelo://app?vid=66ec8711-3dbc-48f7-b091-25773ac6b77c","ios":"levelo://app?vid=66ec8711-3dbc-48f7-b091-25773ac6b77c"},"vehicle_type_id":"4","last_reported":1737101487,"current_range_meters":0,"station_id":"","pricing_plan_id":"cebpf4jnsgd1na2vs0mg"},{"bike_id":"8e6b34b1-09d8-4268-a365-e43071a71869","system_id":"levelo_inurba_marseille","lat":43.27494,"lon":5.42443,"is_reserved":false,"is_disabled":false,"rental_uris":{"android":"levelo://app?vid=8e6b34b1-09d8-4268-a365-e43071a71869","ios":"levelo://app?vid=8e6b34b1-09d8-4268-a365-e43071a71869"},"vehicle_type_id":"4","last_reported":1737101487,"current_range_meters":6800,"station_id":"ce4bhn92rcd13ifvqgrg","pricing_plan_id":"cebpf4jnsgd1na2vs0mg"},{"bike_id":"85b17b88-0932-436f-a3cd-d6633f9898b6","system_id":"levelo_inurba_marseille","lat":43.23188,"lon":5.39983,"is_reserved":false,"is_disabled":false,"rental_uris":{"android":"levelo://app?vid=85b17b88-0932-436f-a3cd-d6633f9898b6","ios":"levelo://app?vid=85b17b88-0932-436f-a3cd-d6633f9898b6"},"vehicle_type_id":"4","last_reported":1737101487,"current_range_meters":38800,"station_id":"ce4bhn12rcd13ifvqgqg","pricing_plan_id":"cebpf4jnsgd1na2vs0mg"},{"bike_id":"3b8503b5-261b-41f3-b8fa-947a19b8fbce","system_id":"levelo_inurba_marseille","lat":43.29372,"lon":5.37862,"is_reserved":false,"is_disabled":false,"rental_uris":{"android":"levelo://app?vid=3b8503b5-261b-41f3-b8fa-947a19b8fbce","ios":"levelo://app?vid=3b8503b5-261b-41f3-b8fa-947a19b8fbce"},"vehicle_type_id":"4","last_reported":1737101487,"current_range_meters":30800,"station_id":"ce4bgjh2rcd13ifvqbf0","pricing_plan_id":"cebpf4jnsgd1na2vs0mg"},{"bike_id":"7ee992e0-93b5-4e29-85a4-fc8532af4206","system_id":"levelo_inurba_marseille","lat":43.26939,"lon":5.38649,"is_reserved":false,"is_disabled":false,"rental_uris":{"android":"levelo://app?vid=7ee992e0-93b5-4e29-85a4-fc8532af4206","ios":"levelo://app?vid=7ee992e0-93b5-4e29-85a4-fc8532af4206"},"vehicle_type_id":"4","last_reported":1737101487,"current_range_meters":37600,"station_id":"ce4bhh92rcd13ifvqfh0","pricing_plan_id":"cebpf4jnsgd1na2vs0mg"},{"bike_id":"d1ed3753-016e-4649-bd2b-e9b622b29e62","system_id":"levelo_inurba_marseille","lat":43.2894,"lon":5.39635,"is_reserved":false,"is_disabled":false,"rental_uris":{"android":"levelo://app?vid=d1ed3753-016e-4649-bd2b-e9b622b29e62","ios":"levelo://app?vid=d1ed3753-016e-4649-bd2b-e9b622b29e62"},"vehicle_type_id":"4","last_reported":1737101487,"current_range_meters":32000,"station_id":"ce4bh3h2rcd13ifvqdn0","pricing_plan_id":"cebpf4jnsgd1na2vs0mg"},{"bike_id":"a081f130-2639-43c2-92eb-70e044a75aa7","system_id":"levelo_inurba_marseille","lat":43.315,"lon":5.37279,"is_reserved":false,"is_disabled":false,"rental_uris":{"android":"levelo://app?vid=a081f130-2639-43c2-92eb-70e044a75aa7","ios":"levelo://app?vid=a081f130-2639-43c2-92eb-70e044a75aa7"},"vehicle_type_id":"4","last_reported":1737101487,"current_range_meters":36800,"station_id":"ce4bgt12rcd13ifvqcd0","pricing_plan_id":"cebpf4jnsgd1na2vs0mg"},{"bike_id":"0321cd6b-aaff-46d7-aacd-a1fa403e5c50","system_id":"levelo_inurba_marseille","lat":43.33066,"lon":5.38254,"is_reserved":false,"is_disabled":false,"rental_uris":{"android":"levelo://app?vid=0321cd6b-aaff-46d7-aacd-a1fa403e5c50","ios":"levelo://app?vid=0321cd6b-aaff-46d7-aacd-a1fa403e5c50"},"vehicle_type_id":"4","last_reported":1737101487,"current_range_meters":2800,"station_id":"","pricing_plan_id":"cebpf4jnsgd1na2vs0mg"},{"bike_id":"01e11c1b-f76f-4038-8893-72bb5c4a18e4","system_id":"levelo_inurba_marseille","lat":43.29966,"lon":5.38491,"is_reserved":false,"is_disabled":false,"rental_uris":{"android":"levelo://app?vid=01e11c1b-f76f-4038-8893-72bb5c4a18e4","ios":"levelo://app?vid=01e11c1b-f76f-4038-8893-72bb5c4a18e4"},"vehicle_type_id":"4","last_reported":1737101487,"current_range_meters":24400,"station_id":"ce4bgj92rcd13ifvqbd0","pricing_plan_id":"cebpf4jnsgd1na2vs0mg"},{"bike_id":"197cd87e-cd79-4b1f-bc89-bd6c6de30de5","system_id":"levelo_inurba_marseille","lat":43.23958,"lon":5.36646,"is_reserved":false,"is_disabled":false,"rental_uris":{"android":"levelo://app?vid=197cd87e-cd79-4b1f-bc89-bd6c6de30de5","ios":"levelo://app?vid=197cd87e-cd79-4b1f-bc89-bd6c6de30de5"},"vehicle_type_id":"4","last_reported":1737101487,"current_range_meters":20000,"station_id":"ce4bhi12rcd13ifvqfp0","pricing_plan_id":"cebpf4jnsgd1na2vs0mg"},{"bike_id":"f49bbacb-e58b-4943-bbd1-f99a8960938f","system_id":"levelo_inurba_marseille","lat":43.2405,"lon":5.37769,"is_reserved":false,"is_disabled":false,"rental_uris":{"android":"levelo://app?vid=f49bbacb-e58b-4943-bbd1-f99a8960938f","ios":"levelo://app?vid=f49bbacb-e58b-4943-bbd1-f99a8960938f"},"vehicle_type_id":"4","last_reported":1737101487,"current_range_meters":16000,"station_id":"ce4bhnp2rcd13ifvqgvg","pricing_plan_id":"cebpf4jnsgd1na2vs0mg"},{"bike_id":"4d21a537-3816-432c-8aec-6acfffac2e27","system_id":"levelo_inurba_marseille","lat":43.3188,"lon":5.40733,"is_reserved":false,"is_disabled":false,"rental_uris":{"android":"levelo://app?vid=4d21a537-3816-432c-8aec-6acfffac2e27","ios":"levelo://app?vid=4d21a537-3816-432c-8aec-6acfffac2e27"},"vehicle_type_id":"4","last_reported":1737101487,"current_range_meters":36800,"station_id":"ce4bhq12rcd13ifvqhig","pricing_plan_id":"cebpf4jnsgd1na2vs0mg"},{"bike_id":"e6bc1741-36d9-44de-83fb-05dadc8f1cb4","system_id":"levelo_inurba_marseille","lat":43.29789,"lon":5.38094,"is_reserved":false,"is_disabled":false,"rental_uris":{"android":"levelo://app?vid=e6bc1741-36d9-44de-83fb-05dadc8f1cb4","ios":"levelo://app?vid=e6bc1741-36d9-44de-83fb-05dadc8f1cb4"},"vehicle_type_id":"4","last_reported":1737101487,"current_range_meters":38800,"station_id":"ce4bgip2rcd13ifvqbb0","pricing_plan_id":"cebpf4jnsgd1na2vs0mg"},{"bike_id":"fa53afd0-c3c0-46c2-be7e-d056eb14f6b8","system_id":"levelo_inurba_marseille","lat":43.26077,"lon":5.39368,"is_reserved":false,"is_disabled":false,"rental_uris":{"android":"levelo://app?vid=fa53afd0-c3c0-46c2-be7e-d056eb14f6b8","ios":"levelo://app?vid=fa53afd0-c3c0-46c2-be7e-d056eb14f6b8"},"vehicle_type_id":"4","last_reported":1737101487,"current_range_meters":36800,"station_id":"ce4bhh92rcd13ifvqfj0","pricing_plan_id":"cebpf4jnsgd1na2vs0mg"},{"bike_id":"a47874b2-92b6-4162-9330-775ee9873e24","system_id":"levelo_inurba_marseille","lat":43.32336,"lon":5.40628,"is_reserved":false,"is_disabled":false,"rental_uris":{"android":"levelo://app?vid=a47874b2-92b6-4162-9330-775ee9873e24","ios":"levelo://app?vid=a47874b2-92b6-4162-9330-775ee9873e24"},"vehicle_type_id":"4","last_reported":1737101487,"current_range_meters":16000,"station_id":"ce4bhq92rcd13ifvqhjg","pricing_plan_id":"cebpf4jnsgd1na2vs0mg"},{"bike_id":"9c5628e9-2927-49a7-8799-eb8035a3c8a9","system_id":"levelo_inurba_marseille","lat":43.30146,"lon":5.3741,"is_reserved":false,"is_disabled":false,"rental_uris":{"android":"levelo://app?vid=9c5628e9-2927-49a7-8799-eb8035a3c8a9","ios":"levelo://app?vid=9c5628e9-2927-49a7-8799-eb8035a3c8a9"},"vehicle_type_id":"4","last_reported":1737101487,"current_range_meters":38400,"station_id":"ce4bgs92rcd13ifvqcc0","pricing_plan_id":"cebpf4jnsgd1na2vs0mg"},{"bike_id":"576080a5-de9e-423d-a0bf-5bc9f04f8524","system_id":"levelo_inurba_marseille","lat":43.30592,"lon":5.39354,"is_reserved":false,"is_disabled":false,"rental_uris":{"android":"levelo://app?vid=576080a5-de9e-423d-a0bf-5bc9f04f8524","ios":"levelo://app?vid=576080a5-de9e-423d-a0bf-5bc9f04f8524"},"vehicle_type_id":"4","last_reported":1737101487,"current_range_meters":38800,"station_id":"ce4bh0p2rcd13ifvqd80","pricing_plan_id":"cebpf4jnsgd1na2vs0mg"},{"bike_id":"c7207a72-f304-47d9-b4e7-cb609bb8d1a3","system_id":"levelo_inurba_marseille","lat":43.2663,"lon":5.379811,"is_reserved":false,"is_disabled":true,"rental_uris":{"android":"levelo://app?vid=c7207a72-f304-47d9-b4e7-cb609bb8d1a3","ios":"levelo://app?vid=c7207a72-f304-47d9-b4e7-cb609bb8d1a3"},"vehicle_type_id":"4","last_reported":1737101487,"current_range_meters":800,"station_id":"ce4bhbh2rcd13ifvqeo0","pricing_plan_id":"cebpf4jnsgd1na2vs0mg"},{"bike_id":"e5353331-a25e-4822-8954-62626b2225b4","system_id":"levelo_inurba_marseille","lat":43.2922,"lon":5.36057,"is_reserved":false,"is_disabled":false,"rental_uris":{"android":"levelo://app?vid=e5353331-a25e-4822-8954-62626b2225b4","ios":"levelo://app?vid=e5353331-a25e-4822-8954-62626b2225b4"},"vehicle_type_id":"4","last_reported":1737101487,"current_range_meters":30400,"station_id":"ce4bhbh2rcd13ifvqeqg","pricing_plan_id":"cebpf4jnsgd1na2vs0mg"},{"bike_id":"93233641-e6db-4ffb-9a63-45199e050c05","system_id":"levelo_inurba_marseille","lat":43.27499,"lon":5.4244,"is_reserved":false,"is_disabled":false,"rental_uris":{"android":"levelo://app?vid=93233641-e6db-4ffb-9a63-45199e050c05","ios":"levelo://app?vid=93233641-e6db-4ffb-9a63-45199e050c05"},"vehicle_type_id":"4","last_reported":1737101487,"current_range_meters":22800,"station_id":"ce4bhn92rcd13ifvqgrg","pricing_plan_id":"cebpf4jnsgd1na2vs0mg"},{"bike_id":"ae120008-324c-42c2-ac43-e141f6add790","system_id":"levelo_inurba_marseille","lat":43.24075,"lon":5.37752,"is_reserved":false,"is_disabled":false,"rental_uris":{"android":"levelo://app?vid=ae120008-324c-42c2-ac43-e141f6add790","ios":"levelo://app?vid=ae120008-324c-42c2-ac43-e141f6add790"},"vehicle_type_id":"4","last_reported":1737101487,"current_range_meters":38800,"station_id":"ce4bhnp2rcd13ifvqgvg","pricing_plan_id":"cebpf4jnsgd1na2vs0mg"},{"bike_id":"d1862250-c49b-4fd7-98c4-e6bf2e57b9d5","system_id":"levelo_inurba_marseille","lat":43.26951,"lon":5.38635,"is_reserved":false,"is_disabled":false,"rental_uris":{"android":"levelo://app?vid=d1862250-c49b-4fd7-98c4-e6bf2e57b9d5","ios":"levelo://app?vid=d1862250-c49b-4fd7-98c4-e6bf2e57b9d5"},"vehicle_type_id":"4","last_reported":1737101487,"current_range_meters":16400,"station_id":"ce4bhh92rcd13ifvqfh0","pricing_plan_id":"cebpf4jnsgd1na2vs0mg"},{"bike_id":"ca0daeb3-551a-47db-9568-cfb249748609","system_id":"levelo_inurba_marseille","lat":43.29972,"lon":5.38511,"is_reserved":false,"is_disabled":true,"rental_uris":{"android":"levelo://app?vid=ca0daeb3-551a-47db-9568-cfb249748609","ios":"levelo://app?vid=ca0daeb3-551a-47db-9568-cfb249748609"},"vehicle_type_id":"4","last_reported":1737101487,"current_range_meters":26000,"station_id":"ce4bgj92rcd13ifvqbd0","pricing_plan_id":"cebpf4jnsgd1na2vs0mg"},{"bike_id":"13854c00-90bd-436b-a9a7-ad69233c6f13","system_id":"levelo_inurba_marseille","lat":43.29291,"lon":5.40156,"is_reserved":false,"is_disabled":true,"rental_uris":{"android":"levelo://app?vid=13854c00-90bd-436b-a9a7-ad69233c6f13","ios":"levelo://app?vid=13854c00-90bd-436b-a9a7-ad69233c6f13"},"vehicle_type_id":"4","last_reported":1737101487,"current_range_meters":6400,"station_id":"ce4bh312rcd13ifvqdk0","pricing_plan_id":"cebpf4jnsgd1na2vs0mg"},{"bike_id":"160c4de7-7f2e-4ddd-89ef-4765ad4546e8","system_id":"levelo_inurba_marseille","lat":43.289954,"lon":5.356028,"is_reserved":false,"is_disabled":false,"rental_uris":{"android":"levelo://app?vid=160c4de7-7f2e-4ddd-89ef-4765ad4546e8","ios":"levelo://app?vid=160c4de7-7f2e-4ddd-89ef-4765ad4546e8"},"vehicle_type_id":"4","last_reported":1737101487,"current_range_meters":35200,"station_id":"ce4bhb92rcd13ifvqen0","pricing_plan_id":"cebpf4jnsgd1na2vs0mg"},{"bike_id":"20a5cd54-a5ec-4b01-9e1b-ba43cdc86230","system_id":"levelo_inurba_marseille","lat":43.29049,"lon":5.39947,"is_reserved":false,"is_disabled":false,"rental_uris":{"android":"levelo://app?vid=20a5cd54-a5ec-4b01-9e1b-ba43cdc86230","ios":"levelo://app?vid=20a5cd54-a5ec-4b01-9e1b-ba43cdc86230"},"vehicle_type_id":"4","last_reported":1737101487,"current_range_meters":38800,"station_id":"ce4bh392rcd13ifvqdm0","pricing_plan_id":"cebpf4jnsgd1na2vs0mg"},{"bike_id":"f835befa-e0c4-4cbe-a2f0-932b8650c0b0","system_id":"levelo_inurba_marseille","lat":43.231782,"lon":5.399948,"is_reserved":false,"is_disabled":false,"rental_uris":{"android":"levelo://app?vid=f835befa-e0c4-4cbe-a2f0-932b8650c0b0","ios":"levelo://app?vid=f835befa-e0c4-4cbe-a2f0-932b8650c0b0"},"vehicle_type_id":"4","last_reported":1737101487,"current_range_meters":12400,"station_id":"ce4bhn12rcd13ifvqgqg","pricing_plan_id":"cebpf4jnsgd1na2vs0mg"},{"bike_id":"41b0b4ec-7526-4290-96f9-44cbe4cd1ada","system_id":"levelo_inurba_marseille","lat":43.26786,"lon":5.39426,"is_reserved":false,"is_disabled":false,"rental_uris":{"android":"levelo://app?vid=41b0b4ec-7526-4290-96f9-44cbe4cd1ada","ios":"levelo://app?vid=41b0b4ec-7526-4290-96f9-44cbe4cd1ada"},"vehicle_type_id":"4","last_reported":1737101487,"current_range_meters":17600,"station_id":"ce4bhh12rcd13ifvqfg0","pricing_plan_id":"cebpf4jnsgd1na2vs0mg"},{"bike_id":"069efd7d-6762-4318-bc30-25391460f9db","system_id":"levelo_inurba_marseille","lat":43.26942,"lon":5.40247,"is_reserved":false,"is_disabled":false,"rental_uris":{"android":"levelo://app?vid=069efd7d-6762-4318-bc30-25391460f9db","ios":"levelo://app?vid=069efd7d-6762-4318-bc30-25391460f9db"},"vehicle_type_id":"4","last_reported":1737101487,"current_range_meters":38400,"station_id":"cjm6bp8fraef2m0cb0m0","pricing_plan_id":"cebpf4jnsgd1na2vs0mg"},{"bike_id":"4d67d339-e8e1-4f5a-8086-1d6e90a5223c","system_id":"levelo_inurba_marseille","lat":43.30412,"lon":5.38769,"is_reserved":false,"is_disabled":false,"rental_uris":{"android":"levelo://app?vid=4d67d339-e8e1-4f5a-8086-1d6e90a5223c","ios":"levelo://app?vid=4d67d339-e8e1-4f5a-8086-1d6e90a5223c"},"vehicle_type_id":"4","last_reported":1737101487,"current_range_meters":37600,"station_id":"","pricing_plan_id":"cebpf4jnsgd1na2vs0mg"},{"bike_id":"e18a29f7-afc4-44b0-99b1-11f497096db4","system_id":"levelo_inurba_marseille","lat":43.26683,"lon":5.38279,"is_reserved":false,"is_disabled":false,"rental_uris":{"android":"levelo://app?vid=e18a29f7-afc4-44b0-99b1-11f497096db4","ios":"levelo://app?vid=e18a29f7-afc4-44b0-99b1-11f497096db4"},"vehicle_type_id":"4","last_reported":1737101487,"current_range_meters":24400,"station_id":"ce4bhg92rcd13ifvqf90","pricing_plan_id":"cebpf4jnsgd1na2vs0mg"},{"bike_id":"9dd5eb0e-e4b7-4224-8da7-7d77946e21bf","system_id":"levelo_inurba_marseille","lat":43.30407,"lon":5.38773,"is_reserved":false,"is_disabled":false,"rental_uris":{"android":"levelo://app?vid=9dd5eb0e-e4b7-4224-8da7-7d77946e21bf","ios":"levelo://app?vid=9dd5eb0e-e4b7-4224-8da7-7d77946e21bf"},"vehicle_type_id":"4","last_reported":1737101487,"current_range_meters":34000,"station_id":"","pricing_plan_id":"cebpf4jnsgd1na2vs0mg"},{"bike_id":"2c839bfc-228b-4afd-9c45-0e54b8f36672","system_id":"levelo_inurba_marseille","lat":43.24653,"lon":5.38889,"is_reserved":false,"is_disabled":false,"rental_uris":{"android":"levelo://app?vid=2c839bfc-228b-4afd-9c45-0e54b8f36672","ios":"levelo://app?vid=2c839bfc-228b-4afd-9c45-0e54b8f36672"},"vehicle_type_id":"4","last_reported":1737101487,"current_range_meters":38400,"station_id":"ce4bhg12rcd13ifvqf60","pricing_plan_id":"cebpf4jnsgd1na2vs0mg"},{"bike_id":"35bacf61-442e-4f08-b164-1d627f5b24e1","system_id":"levelo_inurba_marseille","lat":43.32539,"lon":5.41427,"is_reserved":false,"is_disabled":false,"rental_uris":{"android":"levelo://app?vid=35bacf61-442e-4f08-b164-1d627f5b24e1","ios":"levelo://app?vid=35bacf61-442e-4f08-b164-1d627f5b24e1"},"vehicle_type_id":"4","last_reported":1737101487,"current_range_meters":15200,"station_id":"ce4bhq12rcd13ifvqhhg","pricing_plan_id":"cebpf4jnsgd1na2vs0mg"},{"bike_id":"be5b5501-fc44-4d64-acaf-dcd56222556b","system_id":"levelo_inurba_marseille","lat":43.26954,"lon":5.38623,"is_reserved":false,"is_disabled":false,"rental_uris":{"android":"levelo://app?vid=be5b5501-fc44-4d64-acaf-dcd56222556b","ios":"levelo://app?vid=be5b5501-fc44-4d64-acaf-dcd56222556b"},"vehicle_type_id":"4","last_reported":1737101487,"current_range_meters":14800,"station_id":"ce4bhh92rcd13ifvqfh0","pricing_plan_id":"cebpf4jnsgd1na2vs0mg"},{"bike_id":"fed11d0f-977e-443b-a693-d5ff6345bfde","system_id":"levelo_inurba_marseille","lat":43.24067,"lon":5.37768,"is_reserved":false,"is_disabled":false,"rental_uris":{"android":"levelo://app?vid=fed11d0f-977e-443b-a693-d5ff6345bfde","ios":"levelo://app?vid=fed11d0f-977e-443b-a693-d5ff6345bfde"},"vehicle_type_id":"4","last_reported":1737101487,"current_range_meters":26800,"station_id":"ce4bhnp2rcd13ifvqgvg","pricing_plan_id":"cebpf4jnsgd1na2vs0mg"},{"bike_id":"36852f13-aa6c-409c-99d3-7142866f7549","system_id":"levelo_inurba_marseille","lat":43.30383,"lon":5.37903,"is_reserved":false,"is_disabled":false,"rental_uris":{"android":"levelo://app?vid=36852f13-aa6c-409c-99d3-7142866f7549","ios":"levelo://app?vid=36852f13-aa6c-409c-99d3-7142866f7549"},"vehicle_type_id":"4","last_reported":1737101487,"current_range_meters":36400,"station_id":"ce4bgup2rcd13ifvqcn0","pricing_plan_id":"cebpf4jnsgd1na2vs0mg"},{"bike_id":"9850ecce-4b23-4d74-866e-c4332dd24547","system_id":"levelo_inurba_marseille","lat":43.29278,"lon":5.40112,"is_reserved":false,"is_disabled":false,"rental_uris":{"android":"levelo://app?vid=9850ecce-4b23-4d74-866e-c4332dd24547","ios":"levelo://app?vid=9850ecce-4b23-4d74-866e-c4332dd24547"},"vehicle_type_id":"4","last_reported":1737101487,"current_range_meters":36400,"station_id":"ce4bh312rcd13ifvqdk0","pricing_plan_id":"cebpf4jnsgd1na2vs0mg"},{"bike_id":"e1a3393e-ee05-4b1c-b9fb-3908e373ee14","system_id":"levelo_inurba_marseille","lat":43.26554,"lon":5.373095,"is_reserved":false,"is_disabled":true,"rental_uris":{"android":"levelo://app?vid=e1a3393e-ee05-4b1c-b9fb-3908e373ee14","ios":"levelo://app?vid=e1a3393e-ee05-4b1c-b9fb-3908e373ee14"},"vehicle_type_id":"4","last_reported":1737101487,"current_range_meters":4000,"station_id":"ce4bhg12rcd13ifvqf70","pricing_plan_id":"cebpf4jnsgd1na2vs0mg"},{"bike_id":"7c7fb340-91d3-481f-bef7-3c012bdf7da2","system_id":"levelo_inurba_marseille","lat":43.27973,"lon":5.41657,"is_reserved":false,"is_disabled":true,"rental_uris":{"android":"levelo://app?vid=7c7fb340-91d3-481f-bef7-3c012bdf7da2","ios":"levelo://app?vid=7c7fb340-91d3-481f-bef7-3c012bdf7da2"},"vehicle_type_id":"4","last_reported":1737101487,"current_range_meters":36800,"station_id":"ce4bho12rcd13ifvqh1g","pricing_plan_id":"cebpf4jnsgd1na2vs0mg"},{"bike_id":"896d7675-74d4-41d5-b2ad-25fdef531a64","system_id":"levelo_inurba_marseille","lat":43.29569,"lon":5.37523,"is_reserved":false,"is_disabled":false,"rental_uris":{"android":"levelo://app?vid=896d7675-74d4-41d5-b2ad-25fdef531a64","ios":"levelo://app?vid=896d7675-74d4-41d5-b2ad-25fdef531a64"},"vehicle_type_id":"4","last_reported":1737101487,"current_range_meters":3600,"station_id":"ce4bgh92rcd13ifvqb50","pricing_plan_id":"cebpf4jnsgd1na2vs0mg"},{"bike_id":"7297aa7a-1e18-40e2-a5ba-2e1aaec48d86","system_id":"levelo_inurba_marseille","lat":43.28937,"lon":5.36386,"is_reserved":false,"is_disabled":false,"rental_uris":{"android":"levelo://app?vid=7297aa7a-1e18-40e2-a5ba-2e1aaec48d86","ios":"levelo://app?vid=7297aa7a-1e18-40e2-a5ba-2e1aaec48d86"},"vehicle_type_id":"4","last_reported":1737101487,"current_range_meters":36000,"station_id":"ce4bhc92rcd13ifvqetg","pricing_plan_id":"cebpf4jnsgd1na2vs0mg"},{"bike_id":"7a05db43-e9e9-4ee3-9391-8b13f5d33173","system_id":"levelo_inurba_marseille","lat":43.30314,"lon":5.36905,"is_reserved":false,"is_disabled":false,"rental_uris":{"android":"levelo://app?vid=7a05db43-e9e9-4ee3-9391-8b13f5d33173","ios":"levelo://app?vid=7a05db43-e9e9-4ee3-9391-8b13f5d33173"},"vehicle_type_id":"4","last_reported":1737101487,"current_range_meters":17200,"station_id":"ce4bgqh2rcd13ifvqc5g","pricing_plan_id":"cebpf4jnsgd1na2vs0mg"},{"bike_id":"222cb133-5b42-4b57-8acc-6982b2c8d4d0","system_id":"levelo_inurba_marseille","lat":43.33611,"lon":5.41024,"is_reserved":false,"is_disabled":false,"rental_uris":{"android":"levelo://app?vid=222cb133-5b42-4b57-8acc-6982b2c8d4d0","ios":"levelo://app?vid=222cb133-5b42-4b57-8acc-6982b2c8d4d0"},"vehicle_type_id":"4","last_reported":1737101487,"current_range_meters":27200,"station_id":"ce4bhqh2rcd13ifvqhmg","pricing_plan_id":"cebpf4jnsgd1na2vs0mg"},{"bike_id":"726d4d95-3596-4dcd-a0ae-7ee43e499334","system_id":"levelo_inurba_marseille","lat":43.25933,"lon":5.40911,"is_reserved":false,"is_disabled":false,"rental_uris":{"android":"levelo://app?vid=726d4d95-3596-4dcd-a0ae-7ee43e499334","ios":"levelo://app?vid=726d4d95-3596-4dcd-a0ae-7ee43e499334"},"vehicle_type_id":"4","last_reported":1737101487,"current_range_meters":17600,"station_id":"ce4bhm92rcd13ifvqglg","pricing_plan_id":"cebpf4jnsgd1na2vs0mg"},{"bike_id":"0f736ebc-b87e-42e4-bd96-a6e49d99dc0b","system_id":"levelo_inurba_marseille","lat":43.29273,"lon":5.36853,"is_reserved":false,"is_disabled":true,"rental_uris":{"android":"levelo://app?vid=0f736ebc-b87e-42e4-bd96-a6e49d99dc0b","ios":"levelo://app?vid=0f736ebc-b87e-42e4-bd96-a6e49d99dc0b"},"vehicle_type_id":"4","last_reported":1737101487,"current_range_meters":9200,"station_id":"ce4bhbp2rcd13ifvqesg","pricing_plan_id":"cebpf4jnsgd1na2vs0mg"},{"bike_id":"2c3fb720-29e2-4402-99a9-0d6591c7d722","system_id":"levelo_inurba_marseille","lat":43.31363,"lon":5.36707,"is_reserved":false,"is_disabled":false,"rental_uris":{"android":"levelo://app?vid=2c3fb720-29e2-4402-99a9-0d6591c7d722","ios":"levelo://app?vid=2c3fb720-29e2-4402-99a9-0d6591c7d722"},"vehicle_type_id":"4","last_reported":1737101487,"current_range_meters":35600,"station_id":"ce4bgr92rcd13ifvqc6g","pricing_plan_id":"cebpf4jnsgd1na2vs0mg"},{"bike_id":"ca3154b0-750e-4c64-8e75-fc83b6c8b5fb","system_id":"levelo_inurba_marseille","lat":43.24075,"lon":5.37748,"is_reserved":false,"is_disabled":false,"rental_uris":{"android":"levelo://app?vid=ca3154b0-750e-4c64-8e75-fc83b6c8b5fb","ios":"levelo://app?vid=ca3154b0-750e-4c64-8e75-fc83b6c8b5fb"},"vehicle_type_id":"4","last_reported":1737101487,"current_range_meters":4800,"station_id":"ce4bhnp2rcd13ifvqgvg","pricing_plan_id":"cebpf4jnsgd1na2vs0mg"},{"bike_id":"9287a006-6e72-4180-ae5c-541e660076f9","system_id":"levelo_inurba_marseille","lat":43.28354,"lon":5.38098,"is_reserved":false,"is_disabled":false,"rental_uris":{"android":"levelo://app?vid=9287a006-6e72-4180-ae5c-541e660076f9","ios":"levelo://app?vid=9287a006-6e72-4180-ae5c-541e660076f9"},"vehicle_type_id":"4","last_reported":1737101487,"current_range_meters":35600,"station_id":"ce4bh412rcd13ifvqdr0","pricing_plan_id":"cebpf4jnsgd1na2vs0mg"},{"bike_id":"e6d52744-fcef-4b04-b3e0-4aafb92377b1","system_id":"levelo_inurba_marseille","lat":43.30549,"lon":5.3673,"is_reserved":false,"is_disabled":true,"rental_uris":{"android":"levelo://app?vid=e6d52744-fcef-4b04-b3e0-4aafb92377b1","ios":"levelo://app?vid=e6d52744-fcef-4b04-b3e0-4aafb92377b1"},"vehicle_type_id":"4","last_reported":1737101487,"current_range_meters":33200,"station_id":"ce4bgrp2rcd13ifvqc9g","pricing_plan_id":"cebpf4jnsgd1na2vs0mg"},{"bike_id":"078fa2d8-b6e2-4689-814d-1564c1917c5d","system_id":"levelo_inurba_marseille","lat":43.2408,"lon":5.37737,"is_reserved":false,"is_disabled":false,"rental_uris":{"android":"levelo://app?vid=078fa2d8-b6e2-4689-814d-1564c1917c5d","ios":"levelo://app?vid=078fa2d8-b6e2-4689-814d-1564c1917c5d"},"vehicle_type_id":"4","last_reported":1737101487,"current_range_meters":38000,"station_id":"ce4bhnp2rcd13ifvqgvg","pricing_plan_id":"cebpf4jnsgd1na2vs0mg"},{"bike_id":"9be957d2-26d1-49a4-9f85-b06ee3432064","system_id":"levelo_inurba_marseille","lat":43.337321,"lon":5.391931,"is_reserved":false,"is_disabled":false,"rental_uris":{"android":"levelo://app?vid=9be957d2-26d1-49a4-9f85-b06ee3432064","ios":"levelo://app?vid=9be957d2-26d1-49a4-9f85-b06ee3432064"},"vehicle_type_id":"4","last_reported":1737101487,"current_range_meters":30800,"station_id":"ce4bhr92rcd13ifvqhsg","pricing_plan_id":"cebpf4jnsgd1na2vs0mg"},{"bike_id":"4488423e-fb64-4bbe-9192-9966dc0edac0","system_id":"levelo_inurba_marseille","lat":43.317,"lon":5.37794,"is_reserved":false,"is_disabled":false,"rental_uris":{"android":"levelo://app?vid=4488423e-fb64-4bbe-9192-9966dc0edac0","ios":"levelo://app?vid=4488423e-fb64-4bbe-9192-9966dc0edac0"},"vehicle_type_id":"4","last_reported":1737101487,"current_range_meters":38800,"station_id":"ce4bgth2rcd13ifvqch0","pricing_plan_id":"cebpf4jnsgd1na2vs0mg"},{"bike_id":"99a31782-c2ee-4a27-b493-d0450f1fbc77","system_id":"levelo_inurba_marseille","lat":43.31498,"lon":5.37329,"is_reserved":false,"is_disabled":false,"rental_uris":{"android":"levelo://app?vid=99a31782-c2ee-4a27-b493-d0450f1fbc77","ios":"levelo://app?vid=99a31782-c2ee-4a27-b493-d0450f1fbc77"},"vehicle_type_id":"4","last_reported":1737101487,"current_range_meters":38800,"station_id":"ce4bgt12rcd13ifvqcd0","pricing_plan_id":"cebpf4jnsgd1na2vs0mg"},{"bike_id":"ece2ae38-fa22-411a-b4b6-2bec87a39b75","system_id":"levelo_inurba_marseille","lat":43.32535,"lon":5.41452,"is_reserved":false,"is_disabled":false,"rental_uris":{"android":"levelo://app?vid=ece2ae38-fa22-411a-b4b6-2bec87a39b75","ios":"levelo://app?vid=ece2ae38-fa22-411a-b4b6-2bec87a39b75"},"vehicle_type_id":"4","last_reported":1737101487,"current_range_meters":38800,"station_id":"ce4bhq12rcd13ifvqhhg","pricing_plan_id":"cebpf4jnsgd1na2vs0mg"},{"bike_id":"4a4bdb5d-7f2d-4b22-a0dd-b6ee22b2db6e","system_id":"levelo_inurba_marseille","lat":43.25091,"lon":5.39514,"is_reserved":false,"is_disabled":false,"rental_uris":{"android":"levelo://app?vid=4a4bdb5d-7f2d-4b22-a0dd-b6ee22b2db6e","ios":"levelo://app?vid=4a4bdb5d-7f2d-4b22-a0dd-b6ee22b2db6e"},"vehicle_type_id":"4","last_reported":1737101487,"current_range_meters":38000,"station_id":"ce4bhm12rcd13ifvqgkg","pricing_plan_id":"cebpf4jnsgd1na2vs0mg"},{"bike_id":"f63ef32e-6a6d-4df7-ae8e-b5b84dd4ea09","system_id":"levelo_inurba_marseille","lat":43.29211,"lon":5.36072,"is_reserved":false,"is_disabled":false,"rental_uris":{"android":"levelo://app?vid=f63ef32e-6a6d-4df7-ae8e-b5b84dd4ea09","ios":"levelo://app?vid=f63ef32e-6a6d-4df7-ae8e-b5b84dd4ea09"},"vehicle_type_id":"4","last_reported":1737101487,"current_range_meters":30400,"station_id":"ce4bhbh2rcd13ifvqeqg","pricing_plan_id":"cebpf4jnsgd1na2vs0mg"},{"bike_id":"6691d7b5-893f-49fd-babf-60f7317b3915","system_id":"levelo_inurba_marseille","lat":43.31895,"lon":5.40751,"is_reserved":false,"is_disabled":false,"rental_uris":{"android":"levelo://app?vid=6691d7b5-893f-49fd-babf-60f7317b3915","ios":"levelo://app?vid=6691d7b5-893f-49fd-babf-60f7317b3915"},"vehicle_type_id":"4","last_reported":1737101487,"current_range_meters":34000,"station_id":"ce4bhq12rcd13ifvqhig","pricing_plan_id":"cebpf4jnsgd1na2vs0mg"},{"bike_id":"17ba7f5f-9a2e-4598-9723-3208f545da65","system_id":"levelo_inurba_marseille","lat":43.29265,"lon":5.38454,"is_reserved":false,"is_disabled":true,"rental_uris":{"android":"levelo://app?vid=17ba7f5f-9a2e-4598-9723-3208f545da65","ios":"levelo://app?vid=17ba7f5f-9a2e-4598-9723-3208f545da65"},"vehicle_type_id":"4","last_reported":1737101487,"current_range_meters":1600,"station_id":"ce4bh692rcd13ifvqea0","pricing_plan_id":"cebpf4jnsgd1na2vs0mg"},{"bike_id":"61d33c90-a781-4a26-bf58-4b4a4778ca8e","system_id":"levelo_inurba_marseille","lat":43.24073,"lon":5.37776,"is_reserved":false,"is_disabled":false,"rental_uris":{"android":"levelo://app?vid=61d33c90-a781-4a26-bf58-4b4a4778ca8e","ios":"levelo://app?vid=61d33c90-a781-4a26-bf58-4b4a4778ca8e"},"vehicle_type_id":"4","last_reported":1737101487,"current_range_meters":38800,"station_id":"ce4bhnp2rcd13ifvqgvg","pricing_plan_id":"cebpf4jnsgd1na2vs0mg"},{"bike_id":"242e1a46-c878-4185-b387-d1a4f0fb8589","system_id":"levelo_inurba_marseille","lat":43.276527,"lon":5.422377,"is_reserved":false,"is_disabled":false,"rental_uris":{"android":"levelo://app?vid=242e1a46-c878-4185-b387-d1a4f0fb8589","ios":"levelo://app?vid=242e1a46-c878-4185-b387-d1a4f0fb8589"},"vehicle_type_id":"4","last_reported":1737101487,"current_range_meters":7200,"station_id":"","pricing_plan_id":"cebpf4jnsgd1na2vs0mg"},{"bike_id":"cb0dd66e-6ddf-4d06-80b7-b32f084139b2","system_id":"levelo_inurba_marseille","lat":43.23965,"lon":5.36632,"is_reserved":false,"is_disabled":false,"rental_uris":{"android":"levelo://app?vid=cb0dd66e-6ddf-4d06-80b7-b32f084139b2","ios":"levelo://app?vid=cb0dd66e-6ddf-4d06-80b7-b32f084139b2"},"vehicle_type_id":"4","last_reported":1737101487,"current_range_meters":18800,"station_id":"ce4bhi12rcd13ifvqfp0","pricing_plan_id":"cebpf4jnsgd1na2vs0mg"},{"bike_id":"ceaa1458-83a9-43c8-aed6-e72ea07fb43a","system_id":"levelo_inurba_marseille","lat":43.31537,"lon":5.38915,"is_reserved":false,"is_disabled":false,"rental_uris":{"android":"levelo://app?vid=ceaa1458-83a9-43c8-aed6-e72ea07fb43a","ios":"levelo://app?vid=ceaa1458-83a9-43c8-aed6-e72ea07fb43a"},"vehicle_type_id":"4","last_reported":1737101487,"current_range_meters":10000,"station_id":"","pricing_plan_id":"cebpf4jnsgd1na2vs0mg"},{"bike_id":"c7b548c0-92b1-4b91-b606-2d963bec61ed","system_id":"levelo_inurba_marseille","lat":43.2749,"lon":5.42457,"is_reserved":false,"is_disabled":false,"rental_uris":{"android":"levelo://app?vid=c7b548c0-92b1-4b91-b606-2d963bec61ed","ios":"levelo://app?vid=c7b548c0-92b1-4b91-b606-2d963bec61ed"},"vehicle_type_id":"4","last_reported":1737101487,"current_range_meters":16400,"station_id":"ce4bhn92rcd13ifvqgrg","pricing_plan_id":"cebpf4jnsgd1na2vs0mg"},{"bike_id":"227e2104-9342-467a-bb13-dc81a29065f7","system_id":"levelo_inurba_marseille","lat":43.28485,"lon":5.389446,"is_reserved":false,"is_disabled":false,"rental_uris":{"android":"levelo://app?vid=227e2104-9342-467a-bb13-dc81a29065f7","ios":"levelo://app?vid=227e2104-9342-467a-bb13-dc81a29065f7"},"vehicle_type_id":"4","last_reported":1737101487,"current_range_meters":27600,"station_id":"","pricing_plan_id":"cebpf4jnsgd1na2vs0mg"},{"bike_id":"00268844-800e-432e-9f56-0b567fb9e2a0","system_id":"levelo_inurba_marseille","lat":43.29777,"lon":5.38121,"is_reserved":false,"is_disabled":true,"rental_uris":{"android":"levelo://app?vid=00268844-800e-432e-9f56-0b567fb9e2a0","ios":"levelo://app?vid=00268844-800e-432e-9f56-0b567fb9e2a0"},"vehicle_type_id":"4","last_reported":1737101487,"current_range_meters":33200,"station_id":"ce4bgip2rcd13ifvqbb0","pricing_plan_id":"cebpf4jnsgd1na2vs0mg"},{"bike_id":"516e6204-9dad-4554-93fc-892569dbc06c","system_id":"levelo_inurba_marseille","lat":43.29032,"lon":5.39975,"is_reserved":false,"is_disabled":false,"rental_uris":{"android":"levelo://app?vid=516e6204-9dad-4554-93fc-892569dbc06c","ios":"levelo://app?vid=516e6204-9dad-4554-93fc-892569dbc06c"},"vehicle_type_id":"4","last_reported":1737101487,"current_range_meters":36800,"station_id":"ce4bh392rcd13ifvqdm0","pricing_plan_id":"cebpf4jnsgd1na2vs0mg"},{"bike_id":"33b9daa8-650f-4e97-b8f8-0947c5972927","system_id":"levelo_inurba_marseille","lat":43.325403,"lon":5.41449,"is_reserved":false,"is_disabled":false,"rental_uris":{"android":"levelo://app?vid=33b9daa8-650f-4e97-b8f8-0947c5972927","ios":"levelo://app?vid=33b9daa8-650f-4e97-b8f8-0947c5972927"},"vehicle_type_id":"4","last_reported":1737101487,"current_range_meters":26000,"station_id":"ce4bhq12rcd13ifvqhhg","pricing_plan_id":"cebpf4jnsgd1na2vs0mg"},{"bike_id":"52967bef-3ac3-43d5-807a-9cfd1e60392e","system_id":"levelo_inurba_marseille","lat":43.26953,"lon":5.3863,"is_reserved":false,"is_disabled":false,"rental_uris":{"android":"levelo://app?vid=52967bef-3ac3-43d5-807a-9cfd1e60392e","ios":"levelo://app?vid=52967bef-3ac3-43d5-807a-9cfd1e60392e"},"vehicle_type_id":"4","last_reported":1737101487,"current_range_meters":28400,"station_id":"ce4bhh92rcd13ifvqfh0","pricing_plan_id":"cebpf4jnsgd1na2vs0mg"},{"bike_id":"06847a7c-81a3-47a7-969a-ce10f7980e65","system_id":"levelo_inurba_marseille","lat":43.23147,"lon":5.43702,"is_reserved":false,"is_disabled":true,"rental_uris":{"android":"levelo://app?vid=06847a7c-81a3-47a7-969a-ce10f7980e65","ios":"levelo://app?vid=06847a7c-81a3-47a7-969a-ce10f7980e65"},"vehicle_type_id":"4","last_reported":1737101487,"current_range_meters":35200,"station_id":"ce4bhmp2rcd13ifvqgog","pricing_plan_id":"cebpf4jnsgd1na2vs0mg"},{"bike_id":"61478a87-30f0-49fb-bc83-f40e90c542c7","system_id":"levelo_inurba_marseille","lat":43.3013,"lon":5.37398,"is_reserved":false,"is_disabled":false,"rental_uris":{"android":"levelo://app?vid=61478a87-30f0-49fb-bc83-f40e90c542c7","ios":"levelo://app?vid=61478a87-30f0-49fb-bc83-f40e90c542c7"},"vehicle_type_id":"4","last_reported":1737101487,"current_range_meters":23200,"station_id":"ce4bgs92rcd13ifvqcc0","pricing_plan_id":"cebpf4jnsgd1na2vs0mg"},{"bike_id":"13692a24-fa14-4270-86ad-88f1c1d9b123","system_id":"levelo_inurba_marseille","lat":43.29237,"lon":5.36036,"is_reserved":false,"is_disabled":false,"rental_uris":{"android":"levelo://app?vid=13692a24-fa14-4270-86ad-88f1c1d9b123","ios":"levelo://app?vid=13692a24-fa14-4270-86ad-88f1c1d9b123"},"vehicle_type_id":"4","last_reported":1737101487,"current_range_meters":19200,"station_id":"ce4bhbh2rcd13ifvqeqg","pricing_plan_id":"cebpf4jnsgd1na2vs0mg"},{"bike_id":"10d4a44b-4ac4-4905-b7ec-86d014e96ec1","system_id":"levelo_inurba_marseille","lat":43.3248,"lon":5.36558,"is_reserved":false,"is_disabled":false,"rental_uris":{"android":"levelo://app?vid=10d4a44b-4ac4-4905-b7ec-86d014e96ec1","ios":"levelo://app?vid=10d4a44b-4ac4-4905-b7ec-86d014e96ec1"},"vehicle_type_id":"4","last_reported":1737101487,"current_range_meters":30400,"station_id":"ce4bhs12rcd13ifvqhvg","pricing_plan_id":"cebpf4jnsgd1na2vs0mg"},{"bike_id":"05811cfe-5098-44e0-8fc0-9af4b9c64695","system_id":"levelo_inurba_marseille","lat":43.29589,"lon":5.37498,"is_reserved":false,"is_disabled":false,"rental_uris":{"android":"levelo://app?vid=05811cfe-5098-44e0-8fc0-9af4b9c64695","ios":"levelo://app?vid=05811cfe-5098-44e0-8fc0-9af4b9c64695"},"vehicle_type_id":"4","last_reported":1737101487,"current_range_meters":27200,"station_id":"ce4bgh92rcd13ifvqb50","pricing_plan_id":"cebpf4jnsgd1na2vs0mg"},{"bike_id":"05f89a4d-9e49-4e51-8cbc-aa66933493cb","system_id":"levelo_inurba_marseille","lat":43.30434,"lon":5.38884,"is_reserved":false,"is_disabled":true,"rental_uris":{"android":"levelo://app?vid=05f89a4d-9e49-4e51-8cbc-aa66933493cb","ios":"levelo://app?vid=05f89a4d-9e49-4e51-8cbc-aa66933493cb"},"vehicle_type_id":"4","last_reported":1737101487,"current_range_meters":0,"station_id":"ce4bgk12rcd13ifvqbi0","pricing_plan_id":"cebpf4jnsgd1na2vs0mg"},{"bike_id":"531ca6fb-072a-4a2c-8d49-fd42078dd318","system_id":"levelo_inurba_marseille","lat":43.32031,"lon":5.41562,"is_reserved":false,"is_disabled":false,"rental_uris":{"android":"levelo://app?vid=531ca6fb-072a-4a2c-8d49-fd42078dd318","ios":"levelo://app?vid=531ca6fb-072a-4a2c-8d49-fd42078dd318"},"vehicle_type_id":"4","last_reported":1737101487,"current_range_meters":14400,"station_id":"ce4bhq92rcd13ifvqhkg","pricing_plan_id":"cebpf4jnsgd1na2vs0mg"},{"bike_id":"450e4b2e-2717-46bb-9250-32754d000e21","system_id":"levelo_inurba_marseille","lat":43.31701,"lon":5.37777,"is_reserved":false,"is_disabled":false,"rental_uris":{"android":"levelo://app?vid=450e4b2e-2717-46bb-9250-32754d000e21","ios":"levelo://app?vid=450e4b2e-2717-46bb-9250-32754d000e21"},"vehicle_type_id":"4","last_reported":1737101487,"current_range_meters":38800,"station_id":"ce4bgth2rcd13ifvqch0","pricing_plan_id":"cebpf4jnsgd1na2vs0mg"},{"bike_id":"0d8b3f38-41dd-47ed-bfa6-3906b618d9f2","system_id":"levelo_inurba_marseille","lat":43.28271,"lon":5.35072,"is_reserved":false,"is_disabled":false,"rental_uris":{"android":"levelo://app?vid=0d8b3f38-41dd-47ed-bfa6-3906b618d9f2","ios":"levelo://app?vid=0d8b3f38-41dd-47ed-bfa6-3906b618d9f2"},"vehicle_type_id":"4","last_reported":1737101487,"current_range_meters":28400,"station_id":"ce4bhbp2rcd13ifvqerg","pricing_plan_id":"cebpf4jnsgd1na2vs0mg"},{"bike_id":"67c549d5-ce81-408a-a146-d43915340e7f","system_id":"levelo_inurba_marseille","lat":43.33719,"lon":5.39187,"is_reserved":false,"is_disabled":false,"rental_uris":{"android":"levelo://app?vid=67c549d5-ce81-408a-a146-d43915340e7f","ios":"levelo://app?vid=67c549d5-ce81-408a-a146-d43915340e7f"},"vehicle_type_id":"4","last_reported":1737101487,"current_range_meters":4800,"station_id":"ce4bhr92rcd13ifvqhsg","pricing_plan_id":"cebpf4jnsgd1na2vs0mg"},{"bike_id":"efd05c32-4d50-4342-9945-bb25c7efcd6f","system_id":"levelo_inurba_marseille","lat":43.279832,"lon":5.38749,"is_reserved":false,"is_disabled":false,"rental_uris":{"android":"levelo://app?vid=efd05c32-4d50-4342-9945-bb25c7efcd6f","ios":"levelo://app?vid=efd05c32-4d50-4342-9945-bb25c7efcd6f"},"vehicle_type_id":"4","last_reported":1737101487,"current_range_meters":38800,"station_id":"ce4bhg12rcd13ifvqf80","pricing_plan_id":"cebpf4jnsgd1na2vs0mg"},{"bike_id":"18c17e95-c1ad-4203-bf30-acbd9384c923","system_id":"levelo_inurba_marseille","lat":43.27423,"lon":5.39421,"is_reserved":false,"is_disabled":false,"rental_uris":{"android":"levelo://app?vid=18c17e95-c1ad-4203-bf30-acbd9384c923","ios":"levelo://app?vid=18c17e95-c1ad-4203-bf30-acbd9384c923"},"vehicle_type_id":"4","last_reported":1737101487,"current_range_meters":5600,"station_id":"ce4bhdp2rcd13ifvqf20","pricing_plan_id":"cebpf4jnsgd1na2vs0mg"},{"bike_id":"a4b779dc-e9f6-42d9-b786-46a4421bfccd","system_id":"levelo_inurba_marseille","lat":43.30595,"lon":5.37194,"is_reserved":false,"is_disabled":true,"rental_uris":{"android":"levelo://app?vid=a4b779dc-e9f6-42d9-b786-46a4421bfccd","ios":"levelo://app?vid=a4b779dc-e9f6-42d9-b786-46a4421bfccd"},"vehicle_type_id":"4","last_reported":1737101487,"current_range_meters":25600,"station_id":"ce4bgqh2rcd13ifvqc4g","pricing_plan_id":"cebpf4jnsgd1na2vs0mg"},{"bike_id":"26b2b9d0-0f40-4411-b5b2-7f27a5b691d0","system_id":"levelo_inurba_marseille","lat":43.24999,"lon":5.38929,"is_reserved":false,"is_disabled":false,"rental_uris":{"android":"levelo://app?vid=26b2b9d0-0f40-4411-b5b2-7f27a5b691d0","ios":"levelo://app?vid=26b2b9d0-0f40-4411-b5b2-7f27a5b691d0"},"vehicle_type_id":"4","last_reported":1737101487,"current_range_meters":17200,"station_id":"ce4bhgp2rcd13ifvqfd0","pricing_plan_id":"cebpf4jnsgd1na2vs0mg"},{"bike_id":"553c1025-399b-4cbd-bd78-9eb4398421f5","system_id":"levelo_inurba_marseille","lat":43.27318,"lon":5.39082,"is_reserved":false,"is_disabled":false,"rental_uris":{"android":"levelo://app?vid=553c1025-399b-4cbd-bd78-9eb4398421f5","ios":"levelo://app?vid=553c1025-399b-4cbd-bd78-9eb4398421f5"},"vehicle_type_id":"4","last_reported":1737101487,"current_range_meters":31200,"station_id":"ce4bhgp2rcd13ifvqfe0","pricing_plan_id":"cebpf4jnsgd1na2vs0mg"},{"bike_id":"f21955f8-a46c-4890-be70-66409620de02","system_id":"levelo_inurba_marseille","lat":43.23181,"lon":5.39989,"is_reserved":false,"is_disabled":false,"rental_uris":{"android":"levelo://app?vid=f21955f8-a46c-4890-be70-66409620de02","ios":"levelo://app?vid=f21955f8-a46c-4890-be70-66409620de02"},"vehicle_type_id":"4","last_reported":1737101487,"current_range_meters":7200,"station_id":"ce4bhn12rcd13ifvqgqg","pricing_plan_id":"cebpf4jnsgd1na2vs0mg"},{"bike_id":"34709e64-d1c8-4538-88a5-33805792c0a5","system_id":"levelo_inurba_marseille","lat":43.25831,"lon":5.39427,"is_reserved":false,"is_disabled":false,"rental_uris":{"android":"levelo://app?vid=34709e64-d1c8-4538-88a5-33805792c0a5","ios":"levelo://app?vid=34709e64-d1c8-4538-88a5-33805792c0a5"},"vehicle_type_id":"4","last_reported":1737101487,"current_range_meters":38400,"station_id":"ce4bhip2rcd13ifvqft0","pricing_plan_id":"cebpf4jnsgd1na2vs0mg"},{"bike_id":"deb05b1a-b900-4e6d-ae79-4bed81d3291f","system_id":"levelo_inurba_marseille","lat":43.270654,"lon":5.422813,"is_reserved":false,"is_disabled":true,"rental_uris":{"android":"levelo://app?vid=deb05b1a-b900-4e6d-ae79-4bed81d3291f","ios":"levelo://app?vid=deb05b1a-b900-4e6d-ae79-4bed81d3291f"},"vehicle_type_id":"4","last_reported":1737101487,"current_range_meters":400,"station_id":"ce4bhk92rcd13ifvqgb0","pricing_plan_id":"cebpf4jnsgd1na2vs0mg"},{"bike_id":"abd30ffe-8285-44ab-ac2a-53be6498a2ea","system_id":"levelo_inurba_marseille","lat":43.27211,"lon":5.39174,"is_reserved":false,"is_disabled":false,"rental_uris":{"android":"levelo://app?vid=abd30ffe-8285-44ab-ac2a-53be6498a2ea","ios":"levelo://app?vid=abd30ffe-8285-44ab-ac2a-53be6498a2ea"},"vehicle_type_id":"4","last_reported":1737101487,"current_range_meters":27200,"station_id":"ce4bhhp2rcd13ifvqfm0","pricing_plan_id":"cebpf4jnsgd1na2vs0mg"},{"bike_id":"58059c20-35ab-411a-9814-0374fc5d25fb","system_id":"levelo_inurba_marseille","lat":43.30529,"lon":5.36707,"is_reserved":false,"is_disabled":false,"rental_uris":{"android":"levelo://app?vid=58059c20-35ab-411a-9814-0374fc5d25fb","ios":"levelo://app?vid=58059c20-35ab-411a-9814-0374fc5d25fb"},"vehicle_type_id":"4","last_reported":1737101487,"current_range_meters":38400,"station_id":"ce4bgrp2rcd13ifvqc9g","pricing_plan_id":"cebpf4jnsgd1na2vs0mg"},{"bike_id":"5dc88dba-495e-484f-9b04-2299461d7f8a","system_id":"levelo_inurba_marseille","lat":43.26028,"lon":5.39406,"is_reserved":false,"is_disabled":false,"rental_uris":{"android":"levelo://app?vid=5dc88dba-495e-484f-9b04-2299461d7f8a","ios":"levelo://app?vid=5dc88dba-495e-484f-9b04-2299461d7f8a"},"vehicle_type_id":"4","last_reported":1737101487,"current_range_meters":24000,"station_id":"ce4bhh92rcd13ifvqfj0","pricing_plan_id":"cebpf4jnsgd1na2vs0mg"},{"bike_id":"2c7f6479-10c5-4cb5-b269-cf68f62e3cc6","system_id":"levelo_inurba_marseille","lat":43.337498,"lon":5.37453,"is_reserved":false,"is_disabled":false,"rental_uris":{"android":"levelo://app?vid=2c7f6479-10c5-4cb5-b269-cf68f62e3cc6","ios":"levelo://app?vid=2c7f6479-10c5-4cb5-b269-cf68f62e3cc6"},"vehicle_type_id":"4","last_reported":1737101487,"current_range_meters":38400,"station_id":"","pricing_plan_id":"cebpf4jnsgd1na2vs0mg"},{"bike_id":"d72b5ad6-407b-4ade-929c-464803e25438","system_id":"levelo_inurba_marseille","lat":43.27495,"lon":5.4246,"is_reserved":false,"is_disabled":false,"rental_uris":{"android":"levelo://app?vid=d72b5ad6-407b-4ade-929c-464803e25438","ios":"levelo://app?vid=d72b5ad6-407b-4ade-929c-464803e25438"},"vehicle_type_id":"4","last_reported":1737101487,"current_range_meters":18000,"station_id":"ce4bhn92rcd13ifvqgrg","pricing_plan_id":"cebpf4jnsgd1na2vs0mg"},{"bike_id":"56b8e9bc-f750-4815-bc98-9098414d16db","system_id":"levelo_inurba_marseille","lat":43.231908,"lon":5.355561,"is_reserved":false,"is_disabled":true,"rental_uris":{"android":"levelo://app?vid=56b8e9bc-f750-4815-bc98-9098414d16db","ios":"levelo://app?vid=56b8e9bc-f750-4815-bc98-9098414d16db"},"vehicle_type_id":"4","last_reported":1737101487,"current_range_meters":0,"station_id":"ce4bhu92rcd13ifvqi70","pricing_plan_id":"cebpf4jnsgd1na2vs0mg"},{"bike_id":"50d78c67-99a9-4efd-85a9-dc2f8648249c","system_id":"levelo_inurba_marseille","lat":43.29369,"lon":5.37838,"is_reserved":false,"is_disabled":false,"rental_uris":{"android":"levelo://app?vid=50d78c67-99a9-4efd-85a9-dc2f8648249c","ios":"levelo://app?vid=50d78c67-99a9-4efd-85a9-dc2f8648249c"},"vehicle_type_id":"4","last_reported":1737101487,"current_range_meters":28400,"station_id":"ce4bgjh2rcd13ifvqbf0","pricing_plan_id":"cebpf4jnsgd1na2vs0mg"},{"bike_id":"d7a710b0-adff-4c5c-bf44-f4013363962c","system_id":"levelo_inurba_marseille","lat":43.24695,"lon":5.39445,"is_reserved":false,"is_disabled":false,"rental_uris":{"android":"levelo://app?vid=d7a710b0-adff-4c5c-bf44-f4013363962c","ios":"levelo://app?vid=d7a710b0-adff-4c5c-bf44-f4013363962c"},"vehicle_type_id":"4","last_reported":1737101487,"current_range_meters":38400,"station_id":"","pricing_plan_id":"cebpf4jnsgd1na2vs0mg"},{"bike_id":"90e69b3d-55be-4c48-a806-bcdf6e4f5ea3","system_id":"levelo_inurba_marseille","lat":43.29037,"lon":5.3997,"is_reserved":false,"is_disabled":false,"rental_uris":{"android":"levelo://app?vid=90e69b3d-55be-4c48-a806-bcdf6e4f5ea3","ios":"levelo://app?vid=90e69b3d-55be-4c48-a806-bcdf6e4f5ea3"},"vehicle_type_id":"4","last_reported":1737101487,"current_range_meters":22000,"station_id":"ce4bh392rcd13ifvqdm0","pricing_plan_id":"cebpf4jnsgd1na2vs0mg"},{"bike_id":"5fff9b71-ec05-4f05-bcec-e19a841ef46f","system_id":"levelo_inurba_marseille","lat":43.27806,"lon":5.40708,"is_reserved":false,"is_disabled":false,"rental_uris":{"android":"levelo://app?vid=5fff9b71-ec05-4f05-bcec-e19a841ef46f","ios":"levelo://app?vid=5fff9b71-ec05-4f05-bcec-e19a841ef46f"},"vehicle_type_id":"4","last_reported":1737101487,"current_range_meters":15200,"station_id":"ce4bhnh2rcd13ifvqgtg","pricing_plan_id":"cebpf4jnsgd1na2vs0mg"},{"bike_id":"60c469fc-3d82-43ea-8ec4-fc0b26db70e6","system_id":"levelo_inurba_marseille","lat":43.24162,"lon":5.39733,"is_reserved":false,"is_disabled":false,"rental_uris":{"android":"levelo://app?vid=60c469fc-3d82-43ea-8ec4-fc0b26db70e6","ios":"levelo://app?vid=60c469fc-3d82-43ea-8ec4-fc0b26db70e6"},"vehicle_type_id":"4","last_reported":1737101487,"current_range_meters":25200,"station_id":"ce4bhn12rcd13ifvqgpg","pricing_plan_id":"cebpf4jnsgd1na2vs0mg"},{"bike_id":"1582d5c2-6c6c-41a9-8bdc-61be04b2faca","system_id":"levelo_inurba_marseille","lat":43.30297,"lon":5.36882,"is_reserved":false,"is_disabled":false,"rental_uris":{"android":"levelo://app?vid=1582d5c2-6c6c-41a9-8bdc-61be04b2faca","ios":"levelo://app?vid=1582d5c2-6c6c-41a9-8bdc-61be04b2faca"},"vehicle_type_id":"4","last_reported":1737101487,"current_range_meters":4000,"station_id":"ce4bgqh2rcd13ifvqc5g","pricing_plan_id":"cebpf4jnsgd1na2vs0mg"},{"bike_id":"7497d04d-f5a5-4c5c-80db-3387d8d360fa","system_id":"levelo_inurba_marseille","lat":43.29046,"lon":5.39985,"is_reserved":false,"is_disabled":false,"rental_uris":{"android":"levelo://app?vid=7497d04d-f5a5-4c5c-80db-3387d8d360fa","ios":"levelo://app?vid=7497d04d-f5a5-4c5c-80db-3387d8d360fa"},"vehicle_type_id":"4","last_reported":1737101487,"current_range_meters":22400,"station_id":"ce4bh392rcd13ifvqdm0","pricing_plan_id":"cebpf4jnsgd1na2vs0mg"},{"bike_id":"1aa811cc-358a-4b03-b561-da225e090eaf","system_id":"levelo_inurba_marseille","lat":43.29032,"lon":5.39968,"is_reserved":false,"is_disabled":false,"rental_uris":{"android":"levelo://app?vid=1aa811cc-358a-4b03-b561-da225e090eaf","ios":"levelo://app?vid=1aa811cc-358a-4b03-b561-da225e090eaf"},"vehicle_type_id":"4","last_reported":1737101487,"current_range_meters":13600,"station_id":"ce4bh392rcd13ifvqdm0","pricing_plan_id":"cebpf4jnsgd1na2vs0mg"},{"bike_id":"22465212-93af-4e0b-b803-6ee82bba56d5","system_id":"levelo_inurba_marseille","lat":43.3375,"lon":5.37482,"is_reserved":false,"is_disabled":false,"rental_uris":{"android":"levelo://app?vid=22465212-93af-4e0b-b803-6ee82bba56d5","ios":"levelo://app?vid=22465212-93af-4e0b-b803-6ee82bba56d5"},"vehicle_type_id":"4","last_reported":1737101487,"current_range_meters":32000,"station_id":"","pricing_plan_id":"cebpf4jnsgd1na2vs0mg"},{"bike_id":"65738d62-b35b-4989-a509-3ac269e67ca5","system_id":"levelo_inurba_marseille","lat":43.30547,"lon":5.36696,"is_reserved":false,"is_disabled":false,"rental_uris":{"android":"levelo://app?vid=65738d62-b35b-4989-a509-3ac269e67ca5","ios":"levelo://app?vid=65738d62-b35b-4989-a509-3ac269e67ca5"},"vehicle_type_id":"4","last_reported":1737101487,"current_range_meters":39200,"station_id":"ce4bgrp2rcd13ifvqc9g","pricing_plan_id":"cebpf4jnsgd1na2vs0mg"},{"bike_id":"950bc21b-63fe-44c1-b3fa-5c243fc9e8a8","system_id":"levelo_inurba_marseille","lat":43.28273,"lon":5.35061,"is_reserved":false,"is_disabled":false,"rental_uris":{"android":"levelo://app?vid=950bc21b-63fe-44c1-b3fa-5c243fc9e8a8","ios":"levelo://app?vid=950bc21b-63fe-44c1-b3fa-5c243fc9e8a8"},"vehicle_type_id":"4","last_reported":1737101487,"current_range_meters":24800,"station_id":"ce4bhbp2rcd13ifvqerg","pricing_plan_id":"cebpf4jnsgd1na2vs0mg"},{"bike_id":"2a1b292f-0089-4401-afe0-0e78e8cc3899","system_id":"levelo_inurba_marseille","lat":43.31766,"lon":5.39019,"is_reserved":false,"is_disabled":false,"rental_uris":{"android":"levelo://app?vid=2a1b292f-0089-4401-afe0-0e78e8cc3899","ios":"levelo://app?vid=2a1b292f-0089-4401-afe0-0e78e8cc3899"},"vehicle_type_id":"4","last_reported":1737101487,"current_range_meters":37600,"station_id":"ce4bhqp2rcd13ifvqhng","pricing_plan_id":"cebpf4jnsgd1na2vs0mg"},{"bike_id":"373fde6c-25c9-4cec-8101-badd358e7fd8","system_id":"levelo_inurba_marseille","lat":43.26558,"lon":5.37292,"is_reserved":false,"is_disabled":true,"rental_uris":{"android":"levelo://app?vid=373fde6c-25c9-4cec-8101-badd358e7fd8","ios":"levelo://app?vid=373fde6c-25c9-4cec-8101-badd358e7fd8"},"vehicle_type_id":"4","last_reported":1737101487,"current_range_meters":35600,"station_id":"ce4bhg12rcd13ifvqf70","pricing_plan_id":"cebpf4jnsgd1na2vs0mg"},{"bike_id":"f5495f8d-9a1a-4c72-8328-1c0882a8031a","system_id":"levelo_inurba_marseille","lat":43.28471,"lon":5.38413,"is_reserved":false,"is_disabled":true,"rental_uris":{"android":"levelo://app?vid=f5495f8d-9a1a-4c72-8328-1c0882a8031a","ios":"levelo://app?vid=f5495f8d-9a1a-4c72-8328-1c0882a8031a"},"vehicle_type_id":"4","last_reported":1737101487,"current_range_meters":25200,"station_id":"ce4bh512rcd13ifvqe3g","pricing_plan_id":"cebpf4jnsgd1na2vs0mg"},{"bike_id":"44686463-0987-4ea9-a4df-c9d15433c34c","system_id":"levelo_inurba_marseille","lat":43.29038,"lon":5.39973,"is_reserved":false,"is_disabled":false,"rental_uris":{"android":"levelo://app?vid=44686463-0987-4ea9-a4df-c9d15433c34c","ios":"levelo://app?vid=44686463-0987-4ea9-a4df-c9d15433c34c"},"vehicle_type_id":"4","last_reported":1737101487,"current_range_meters":30000,"station_id":"ce4bh392rcd13ifvqdm0","pricing_plan_id":"cebpf4jnsgd1na2vs0mg"},{"bike_id":"84708e74-0fe7-4fb2-addd-7c044bcdb32e","system_id":"levelo_inurba_marseille","lat":43.31982,"lon":5.38155,"is_reserved":false,"is_disabled":false,"rental_uris":{"android":"levelo://app?vid=84708e74-0fe7-4fb2-addd-7c044bcdb32e","ios":"levelo://app?vid=84708e74-0fe7-4fb2-addd-7c044bcdb32e"},"vehicle_type_id":"4","last_reported":1737101487,"current_range_meters":29600,"station_id":"ce4bhr12rcd13ifvqhpg","pricing_plan_id":"cebpf4jnsgd1na2vs0mg"},{"bike_id":"9b3f5263-092a-42a3-985e-303e3ee0becf","system_id":"levelo_inurba_marseille","lat":43.26495,"lon":5.39555,"is_reserved":false,"is_disabled":true,"rental_uris":{"android":"levelo://app?vid=9b3f5263-092a-42a3-985e-303e3ee0becf","ios":"levelo://app?vid=9b3f5263-092a-42a3-985e-303e3ee0becf"},"vehicle_type_id":"4","last_reported":1737101487,"current_range_meters":0,"station_id":"ce4bhi12rcd13ifvqfq0","pricing_plan_id":"cebpf4jnsgd1na2vs0mg"},{"bike_id":"ba3f556c-cf6a-4039-a072-0e6118db4c47","system_id":"levelo_inurba_marseille","lat":43.23136,"lon":5.43744,"is_reserved":false,"is_disabled":false,"rental_uris":{"android":"levelo://app?vid=ba3f556c-cf6a-4039-a072-0e6118db4c47","ios":"levelo://app?vid=ba3f556c-cf6a-4039-a072-0e6118db4c47"},"vehicle_type_id":"4","last_reported":1737101487,"current_range_meters":9200,"station_id":"ce4bhmp2rcd13ifvqgog","pricing_plan_id":"cebpf4jnsgd1na2vs0mg"},{"bike_id":"12d1acc0-d47e-4031-b610-839a5a37f231","system_id":"levelo_inurba_marseille","lat":43.30785,"lon":5.37646,"is_reserved":false,"is_disabled":true,"rental_uris":{"android":"levelo://app?vid=12d1acc0-d47e-4031-b610-839a5a37f231","ios":"levelo://app?vid=12d1acc0-d47e-4031-b610-839a5a37f231"},"vehicle_type_id":"4","last_reported":1737101487,"current_range_meters":28800,"station_id":"ce4bgv92rcd13ifvqcq0","pricing_plan_id":"cebpf4jnsgd1na2vs0mg"},{"bike_id":"40d9f560-f7c6-43f3-93ac-8f917c9c0a7d","system_id":"levelo_inurba_marseille","lat":43.25928,"lon":5.40908,"is_reserved":false,"is_disabled":false,"rental_uris":{"android":"levelo://app?vid=40d9f560-f7c6-43f3-93ac-8f917c9c0a7d","ios":"levelo://app?vid=40d9f560-f7c6-43f3-93ac-8f917c9c0a7d"},"vehicle_type_id":"4","last_reported":1737101487,"current_range_meters":2800,"station_id":"ce4bhm92rcd13ifvqglg","pricing_plan_id":"cebpf4jnsgd1na2vs0mg"},{"bike_id":"b126266b-2228-4a43-9222-e2ee66eb7535","system_id":"levelo_inurba_marseille","lat":43.29028,"lon":5.39984,"is_reserved":false,"is_disabled":false,"rental_uris":{"android":"levelo://app?vid=b126266b-2228-4a43-9222-e2ee66eb7535","ios":"levelo://app?vid=b126266b-2228-4a43-9222-e2ee66eb7535"},"vehicle_type_id":"4","last_reported":1737101487,"current_range_meters":36000,"station_id":"ce4bh392rcd13ifvqdm0","pricing_plan_id":"cebpf4jnsgd1na2vs0mg"},{"bike_id":"16764f9e-b1b9-4d6f-9dca-0161489fba20","system_id":"levelo_inurba_marseille","lat":43.30157,"lon":5.38092,"is_reserved":false,"is_disabled":false,"rental_uris":{"android":"levelo://app?vid=16764f9e-b1b9-4d6f-9dca-0161489fba20","ios":"levelo://app?vid=16764f9e-b1b9-4d6f-9dca-0161489fba20"},"vehicle_type_id":"4","last_reported":1737101487,"current_range_meters":28800,"station_id":"ce4bgjp2rcd13ifvqbh0","pricing_plan_id":"cebpf4jnsgd1na2vs0mg"},{"bike_id":"24bcc0cf-8c95-40af-8068-dc3c48d5cf59","system_id":"levelo_inurba_marseille","lat":43.33612,"lon":5.40968,"is_reserved":false,"is_disabled":false,"rental_uris":{"android":"levelo://app?vid=24bcc0cf-8c95-40af-8068-dc3c48d5cf59","ios":"levelo://app?vid=24bcc0cf-8c95-40af-8068-dc3c48d5cf59"},"vehicle_type_id":"4","last_reported":1737101487,"current_range_meters":38800,"station_id":"ce4bhqh2rcd13ifvqhmg","pricing_plan_id":"cebpf4jnsgd1na2vs0mg"},{"bike_id":"6a7366d7-ed8c-4629-bf0c-70c2abcda36d","system_id":"levelo_inurba_marseille","lat":43.23188,"lon":5.35564,"is_reserved":false,"is_disabled":false,"rental_uris":{"android":"levelo://app?vid=6a7366d7-ed8c-4629-bf0c-70c2abcda36d","ios":"levelo://app?vid=6a7366d7-ed8c-4629-bf0c-70c2abcda36d"},"vehicle_type_id":"4","last_reported":1737101487,"current_range_meters":8400,"station_id":"ce4bhu92rcd13ifvqi70","pricing_plan_id":"cebpf4jnsgd1na2vs0mg"},{"bike_id":"fb728eb9-c6dd-478e-b742-f6d266b3696e","system_id":"levelo_inurba_marseille","lat":43.240735,"lon":5.377553,"is_reserved":false,"is_disabled":false,"rental_uris":{"android":"levelo://app?vid=fb728eb9-c6dd-478e-b742-f6d266b3696e","ios":"levelo://app?vid=fb728eb9-c6dd-478e-b742-f6d266b3696e"},"vehicle_type_id":"4","last_reported":1737101487,"current_range_meters":37600,"station_id":"ce4bhnp2rcd13ifvqgvg","pricing_plan_id":"cebpf4jnsgd1na2vs0mg"},{"bike_id":"2d7f3353-743b-41e1-85f2-e32181d4ae48","system_id":"levelo_inurba_marseille","lat":43.32001,"lon":5.38164,"is_reserved":false,"is_disabled":false,"rental_uris":{"android":"levelo://app?vid=2d7f3353-743b-41e1-85f2-e32181d4ae48","ios":"levelo://app?vid=2d7f3353-743b-41e1-85f2-e32181d4ae48"},"vehicle_type_id":"4","last_reported":1737101487,"current_range_meters":29600,"station_id":"ce4bhr12rcd13ifvqhpg","pricing_plan_id":"cebpf4jnsgd1na2vs0mg"},{"bike_id":"573076c8-1172-47e5-b129-cb987286e5ee","system_id":"levelo_inurba_marseille","lat":43.27804,"lon":5.40738,"is_reserved":false,"is_disabled":false,"rental_uris":{"android":"levelo://app?vid=573076c8-1172-47e5-b129-cb987286e5ee","ios":"levelo://app?vid=573076c8-1172-47e5-b129-cb987286e5ee"},"vehicle_type_id":"4","last_reported":1737101487,"current_range_meters":38400,"station_id":"ce4bhnh2rcd13ifvqgtg","pricing_plan_id":"cebpf4jnsgd1na2vs0mg"},{"bike_id":"88fc87a1-8726-4e5b-8bd9-9f5e0af0d218","system_id":"levelo_inurba_marseille","lat":43.30591,"lon":5.39355,"is_reserved":false,"is_disabled":false,"rental_uris":{"android":"levelo://app?vid=88fc87a1-8726-4e5b-8bd9-9f5e0af0d218","ios":"levelo://app?vid=88fc87a1-8726-4e5b-8bd9-9f5e0af0d218"},"vehicle_type_id":"4","last_reported":1737101487,"current_range_meters":12400,"station_id":"ce4bh0p2rcd13ifvqd80","pricing_plan_id":"cebpf4jnsgd1na2vs0mg"},{"bike_id":"35deb437-7ef2-4ee7-9ea5-27ce0001ca7b","system_id":"levelo_inurba_marseille","lat":43.26063,"lon":5.39395,"is_reserved":false,"is_disabled":true,"rental_uris":{"android":"levelo://app?vid=35deb437-7ef2-4ee7-9ea5-27ce0001ca7b","ios":"levelo://app?vid=35deb437-7ef2-4ee7-9ea5-27ce0001ca7b"},"vehicle_type_id":"4","last_reported":1737101487,"current_range_meters":38000,"station_id":"ce4bhh92rcd13ifvqfj0","pricing_plan_id":"cebpf4jnsgd1na2vs0mg"},{"bike_id":"9d57abc3-ea43-43ec-8af5-ee074139083e","system_id":"levelo_inurba_marseille","lat":43.30942,"lon":5.39037,"is_reserved":false,"is_disabled":false,"rental_uris":{"android":"levelo://app?vid=9d57abc3-ea43-43ec-8af5-ee074139083e","ios":"levelo://app?vid=9d57abc3-ea43-43ec-8af5-ee074139083e"},"vehicle_type_id":"4","last_reported":1737101487,"current_range_meters":33600,"station_id":"ce4bgup2rcd13ifvqco0","pricing_plan_id":"cebpf4jnsgd1na2vs0mg"},{"bike_id":"0ddc2960-3078-4872-8306-28d4db193e70","system_id":"levelo_inurba_marseille","lat":43.29228,"lon":5.36067,"is_reserved":false,"is_disabled":false,"rental_uris":{"android":"levelo://app?vid=0ddc2960-3078-4872-8306-28d4db193e70","ios":"levelo://app?vid=0ddc2960-3078-4872-8306-28d4db193e70"},"vehicle_type_id":"4","last_reported":1737101487,"current_range_meters":4000,"station_id":"ce4bhbh2rcd13ifvqeqg","pricing_plan_id":"cebpf4jnsgd1na2vs0mg"},{"bike_id":"8154d294-bad5-4c57-bcee-7640029c7268","system_id":"levelo_inurba_marseille","lat":43.26058,"lon":5.39394,"is_reserved":false,"is_disabled":false,"rental_uris":{"android":"levelo://app?vid=8154d294-bad5-4c57-bcee-7640029c7268","ios":"levelo://app?vid=8154d294-bad5-4c57-bcee-7640029c7268"},"vehicle_type_id":"4","last_reported":1737101487,"current_range_meters":29600,"station_id":"ce4bhh92rcd13ifvqfj0","pricing_plan_id":"cebpf4jnsgd1na2vs0mg"},{"bike_id":"6bdea331-32f7-46ff-a178-aa3ec9a6cbb8","system_id":"levelo_inurba_marseille","lat":43.3188,"lon":5.40734,"is_reserved":false,"is_disabled":false,"rental_uris":{"android":"levelo://app?vid=6bdea331-32f7-46ff-a178-aa3ec9a6cbb8","ios":"levelo://app?vid=6bdea331-32f7-46ff-a178-aa3ec9a6cbb8"},"vehicle_type_id":"4","last_reported":1737101487,"current_range_meters":14800,"station_id":"ce4bhq12rcd13ifvqhig","pricing_plan_id":"cebpf4jnsgd1na2vs0mg"},{"bike_id":"089c4eb1-81de-4dbe-8e04-2db00f1a8bc7","system_id":"levelo_inurba_marseille","lat":43.29034,"lon":5.39973,"is_reserved":false,"is_disabled":false,"rental_uris":{"android":"levelo://app?vid=089c4eb1-81de-4dbe-8e04-2db00f1a8bc7","ios":"levelo://app?vid=089c4eb1-81de-4dbe-8e04-2db00f1a8bc7"},"vehicle_type_id":"4","last_reported":1737101487,"current_range_meters":9200,"station_id":"ce4bh392rcd13ifvqdm0","pricing_plan_id":"cebpf4jnsgd1na2vs0mg"},{"bike_id":"bf989edc-c671-4558-86c0-ca2a191ec8f3","system_id":"levelo_inurba_marseille","lat":43.32544,"lon":5.41484,"is_reserved":false,"is_disabled":false,"rental_uris":{"android":"levelo://app?vid=bf989edc-c671-4558-86c0-ca2a191ec8f3","ios":"levelo://app?vid=bf989edc-c671-4558-86c0-ca2a191ec8f3"},"vehicle_type_id":"4","last_reported":1737101487,"current_range_meters":36800,"station_id":"ce4bhq12rcd13ifvqhhg","pricing_plan_id":"cebpf4jnsgd1na2vs0mg"},{"bike_id":"0206b049-5599-4f6c-8703-cc024704c5e0","system_id":"levelo_inurba_marseille","lat":43.31486,"lon":5.37312,"is_reserved":false,"is_disabled":false,"rental_uris":{"android":"levelo://app?vid=0206b049-5599-4f6c-8703-cc024704c5e0","ios":"levelo://app?vid=0206b049-5599-4f6c-8703-cc024704c5e0"},"vehicle_type_id":"4","last_reported":1737101487,"current_range_meters":28000,"station_id":"ce4bgt12rcd13ifvqcd0","pricing_plan_id":"cebpf4jnsgd1na2vs0mg"},{"bike_id":"5d42a98e-bef8-43af-946e-751274f82d4c","system_id":"levelo_inurba_marseille","lat":43.236616,"lon":5.435955,"is_reserved":false,"is_disabled":true,"rental_uris":{"android":"levelo://app?vid=5d42a98e-bef8-43af-946e-751274f82d4c","ios":"levelo://app?vid=5d42a98e-bef8-43af-946e-751274f82d4c"},"vehicle_type_id":"4","last_reported":1737101487,"current_range_meters":28400,"station_id":"","pricing_plan_id":"cebpf4jnsgd1na2vs0mg"},{"bike_id":"f385db6a-7dcd-4b5c-81bf-ad5301981e68","system_id":"levelo_inurba_marseille","lat":43.292795,"lon":5.40125,"is_reserved":false,"is_disabled":true,"rental_uris":{"android":"levelo://app?vid=f385db6a-7dcd-4b5c-81bf-ad5301981e68","ios":"levelo://app?vid=f385db6a-7dcd-4b5c-81bf-ad5301981e68"},"vehicle_type_id":"4","last_reported":1737101487,"current_range_meters":38800,"station_id":"ce4bh312rcd13ifvqdk0","pricing_plan_id":"cebpf4jnsgd1na2vs0mg"},{"bike_id":"9fef62c1-09f6-4d53-ab83-76888bceebbd","system_id":"levelo_inurba_marseille","lat":43.26182,"lon":5.42082,"is_reserved":false,"is_disabled":false,"rental_uris":{"android":"levelo://app?vid=9fef62c1-09f6-4d53-ab83-76888bceebbd","ios":"levelo://app?vid=9fef62c1-09f6-4d53-ab83-76888bceebbd"},"vehicle_type_id":"4","last_reported":1737101487,"current_range_meters":25600,"station_id":"","pricing_plan_id":"cebpf4jnsgd1na2vs0mg"},{"bike_id":"10561a23-a6b3-43d9-a4da-938f77e97362","system_id":"levelo_inurba_marseille","lat":43.337444,"lon":5.374475,"is_reserved":false,"is_disabled":false,"rental_uris":{"android":"levelo://app?vid=10561a23-a6b3-43d9-a4da-938f77e97362","ios":"levelo://app?vid=10561a23-a6b3-43d9-a4da-938f77e97362"},"vehicle_type_id":"4","last_reported":1737101487,"current_range_meters":38400,"station_id":"","pricing_plan_id":"cebpf4jnsgd1na2vs0mg"},{"bike_id":"1bc46916-ca74-498d-8d82-1e7f9a99ebb2","system_id":"levelo_inurba_marseille","lat":43.29044,"lon":5.39947,"is_reserved":false,"is_disabled":false,"rental_uris":{"android":"levelo://app?vid=1bc46916-ca74-498d-8d82-1e7f9a99ebb2","ios":"levelo://app?vid=1bc46916-ca74-498d-8d82-1e7f9a99ebb2"},"vehicle_type_id":"4","last_reported":1737101487,"current_range_meters":39200,"station_id":"ce4bh392rcd13ifvqdm0","pricing_plan_id":"cebpf4jnsgd1na2vs0mg"},{"bike_id":"f7fecae7-c011-459a-be72-814405aac612","system_id":"levelo_inurba_marseille","lat":43.30599,"lon":5.39369,"is_reserved":false,"is_disabled":false,"rental_uris":{"android":"levelo://app?vid=f7fecae7-c011-459a-be72-814405aac612","ios":"levelo://app?vid=f7fecae7-c011-459a-be72-814405aac612"},"vehicle_type_id":"4","last_reported":1737101487,"current_range_meters":33600,"station_id":"ce4bh0p2rcd13ifvqd80","pricing_plan_id":"cebpf4jnsgd1na2vs0mg"},{"bike_id":"8eca6891-282f-4f00-9432-07553d6fed7f","system_id":"levelo_inurba_marseille","lat":43.32975,"lon":5.390385,"is_reserved":false,"is_disabled":false,"rental_uris":{"android":"levelo://app?vid=8eca6891-282f-4f00-9432-07553d6fed7f","ios":"levelo://app?vid=8eca6891-282f-4f00-9432-07553d6fed7f"},"vehicle_type_id":"4","last_reported":1737101487,"current_range_meters":22000,"station_id":"","pricing_plan_id":"cebpf4jnsgd1na2vs0mg"},{"bike_id":"37794e2e-33d5-4149-89bb-1d73a601aeb3","system_id":"levelo_inurba_marseille","lat":43.28941,"lon":5.36641,"is_reserved":false,"is_disabled":false,"rental_uris":{"android":"levelo://app?vid=37794e2e-33d5-4149-89bb-1d73a601aeb3","ios":"levelo://app?vid=37794e2e-33d5-4149-89bb-1d73a601aeb3"},"vehicle_type_id":"4","last_reported":1737101487,"current_range_meters":9200,"station_id":"ce4bhap2rcd13ifvqek0","pricing_plan_id":"cebpf4jnsgd1na2vs0mg"},{"bike_id":"c62910cd-fd68-4a67-8809-5beb6df71ad3","system_id":"levelo_inurba_marseille","lat":43.29973,"lon":5.37184,"is_reserved":false,"is_disabled":false,"rental_uris":{"android":"levelo://app?vid=c62910cd-fd68-4a67-8809-5beb6df71ad3","ios":"levelo://app?vid=c62910cd-fd68-4a67-8809-5beb6df71ad3"},"vehicle_type_id":"4","last_reported":1737101487,"current_range_meters":36400,"station_id":"ce4bgr92rcd13ifvqc7g","pricing_plan_id":"cebpf4jnsgd1na2vs0mg"},{"bike_id":"5b3e2687-53f3-4872-aea9-c615e16029aa","system_id":"levelo_inurba_marseille","lat":43.30941,"lon":5.39064,"is_reserved":false,"is_disabled":false,"rental_uris":{"android":"levelo://app?vid=5b3e2687-53f3-4872-aea9-c615e16029aa","ios":"levelo://app?vid=5b3e2687-53f3-4872-aea9-c615e16029aa"},"vehicle_type_id":"4","last_reported":1737101487,"current_range_meters":39200,"station_id":"ce4bgup2rcd13ifvqco0","pricing_plan_id":"cebpf4jnsgd1na2vs0mg"},{"bike_id":"e0787909-909a-4c51-bfbe-adb28f26837d","system_id":"levelo_inurba_marseille","lat":43.23962,"lon":5.36629,"is_reserved":false,"is_disabled":false,"rental_uris":{"android":"levelo://app?vid=e0787909-909a-4c51-bfbe-adb28f26837d","ios":"levelo://app?vid=e0787909-909a-4c51-bfbe-adb28f26837d"},"vehicle_type_id":"4","last_reported":1737101487,"current_range_meters":28800,"station_id":"ce4bhi12rcd13ifvqfp0","pricing_plan_id":"cebpf4jnsgd1na2vs0mg"},{"bike_id":"08651aa7-3b96-4acf-818e-074b84f36b09","system_id":"levelo_inurba_marseille","lat":43.34146,"lon":5.40902,"is_reserved":false,"is_disabled":false,"rental_uris":{"android":"levelo://app?vid=08651aa7-3b96-4acf-818e-074b84f36b09","ios":"levelo://app?vid=08651aa7-3b96-4acf-818e-074b84f36b09"},"vehicle_type_id":"4","last_reported":1737101487,"current_range_meters":39200,"station_id":"ce4bhqh2rcd13ifvqhlg","pricing_plan_id":"cebpf4jnsgd1na2vs0mg"},{"bike_id":"ea68a76e-b4c6-4be9-ab98-1a2f34b18dea","system_id":"levelo_inurba_marseille","lat":43.24165,"lon":5.39739,"is_reserved":false,"is_disabled":true,"rental_uris":{"android":"levelo://app?vid=ea68a76e-b4c6-4be9-ab98-1a2f34b18dea","ios":"levelo://app?vid=ea68a76e-b4c6-4be9-ab98-1a2f34b18dea"},"vehicle_type_id":"4","last_reported":1737101487,"current_range_meters":16000,"station_id":"ce4bhn12rcd13ifvqgpg","pricing_plan_id":"cebpf4jnsgd1na2vs0mg"},{"bike_id":"b0391bf3-d152-4a1c-9427-7093684bd3d3","system_id":"levelo_inurba_marseille","lat":43.30361,"lon":5.39099,"is_reserved":false,"is_disabled":true,"rental_uris":{"android":"levelo://app?vid=b0391bf3-d152-4a1c-9427-7093684bd3d3","ios":"levelo://app?vid=b0391bf3-d152-4a1c-9427-7093684bd3d3"},"vehicle_type_id":"4","last_reported":1737101487,"current_range_meters":0,"station_id":"ce4bgkh2rcd13ifvqbk0","pricing_plan_id":"cebpf4jnsgd1na2vs0mg"},{"bike_id":"963ada89-2813-41bb-a83b-b411c2ffb6f5","system_id":"levelo_inurba_marseille","lat":43.25932,"lon":5.40914,"is_reserved":false,"is_disabled":false,"rental_uris":{"android":"levelo://app?vid=963ada89-2813-41bb-a83b-b411c2ffb6f5","ios":"levelo://app?vid=963ada89-2813-41bb-a83b-b411c2ffb6f5"},"vehicle_type_id":"4","last_reported":1737101487,"current_range_meters":15200,"station_id":"ce4bhm92rcd13ifvqglg","pricing_plan_id":"cebpf4jnsgd1na2vs0mg"},{"bike_id":"fafda47e-f2ad-447c-b5eb-b7460634d9bc","system_id":"levelo_inurba_marseille","lat":43.27486,"lon":5.42462,"is_reserved":false,"is_disabled":false,"rental_uris":{"android":"levelo://app?vid=fafda47e-f2ad-447c-b5eb-b7460634d9bc","ios":"levelo://app?vid=fafda47e-f2ad-447c-b5eb-b7460634d9bc"},"vehicle_type_id":"4","last_reported":1737101487,"current_range_meters":10000,"station_id":"ce4bhn92rcd13ifvqgrg","pricing_plan_id":"cebpf4jnsgd1na2vs0mg"},{"bike_id":"0d23080e-06c3-45fa-a0a0-35b9e701809a","system_id":"levelo_inurba_marseille","lat":43.29805,"lon":5.37115,"is_reserved":false,"is_disabled":false,"rental_uris":{"android":"levelo://app?vid=0d23080e-06c3-45fa-a0a0-35b9e701809a","ios":"levelo://app?vid=0d23080e-06c3-45fa-a0a0-35b9e701809a"},"vehicle_type_id":"4","last_reported":1737101487,"current_range_meters":38000,"station_id":"ce4bgop2rcd13ifvqc1g","pricing_plan_id":"cebpf4jnsgd1na2vs0mg"},{"bike_id":"7383474c-b45a-4438-837c-99d7ae866fe7","system_id":"levelo_inurba_marseille","lat":43.26073,"lon":5.39383,"is_reserved":false,"is_disabled":false,"rental_uris":{"android":"levelo://app?vid=7383474c-b45a-4438-837c-99d7ae866fe7","ios":"levelo://app?vid=7383474c-b45a-4438-837c-99d7ae866fe7"},"vehicle_type_id":"4","last_reported":1737101487,"current_range_meters":38400,"station_id":"ce4bhh92rcd13ifvqfj0","pricing_plan_id":"cebpf4jnsgd1na2vs0mg"},{"bike_id":"ba8d97e8-84e2-44f7-963a-982532ef1fa9","system_id":"levelo_inurba_marseille","lat":43.27673,"lon":5.38931,"is_reserved":false,"is_disabled":false,"rental_uris":{"android":"levelo://app?vid=ba8d97e8-84e2-44f7-963a-982532ef1fa9","ios":"levelo://app?vid=ba8d97e8-84e2-44f7-963a-982532ef1fa9"},"vehicle_type_id":"4","last_reported":1737101487,"current_range_meters":38800,"station_id":"ce4bhi12rcd13ifvqfo0","pricing_plan_id":"cebpf4jnsgd1na2vs0mg"},{"bike_id":"dc88b6b1-eb03-4885-9794-761910451a48","system_id":"levelo_inurba_marseille","lat":43.23145,"lon":5.43714,"is_reserved":false,"is_disabled":false,"rental_uris":{"android":"levelo://app?vid=dc88b6b1-eb03-4885-9794-761910451a48","ios":"levelo://app?vid=dc88b6b1-eb03-4885-9794-761910451a48"},"vehicle_type_id":"4","last_reported":1737101487,"current_range_meters":24400,"station_id":"ce4bhmp2rcd13ifvqgog","pricing_plan_id":"cebpf4jnsgd1na2vs0mg"},{"bike_id":"009929df-1faf-4dac-8dc7-e2687222eca8","system_id":"levelo_inurba_marseille","lat":43.29165,"lon":5.37169,"is_reserved":false,"is_disabled":false,"rental_uris":{"android":"levelo://app?vid=009929df-1faf-4dac-8dc7-e2687222eca8","ios":"levelo://app?vid=009929df-1faf-4dac-8dc7-e2687222eca8"},"vehicle_type_id":"4","last_reported":1737101487,"current_range_meters":35600,"station_id":"ce4bha92rcd13ifvqeh0","pricing_plan_id":"cebpf4jnsgd1na2vs0mg"},{"bike_id":"0f1639ab-90d2-4609-9441-a7cee18da212","system_id":"levelo_inurba_marseille","lat":43.27486,"lon":5.42468,"is_reserved":false,"is_disabled":false,"rental_uris":{"android":"levelo://app?vid=0f1639ab-90d2-4609-9441-a7cee18da212","ios":"levelo://app?vid=0f1639ab-90d2-4609-9441-a7cee18da212"},"vehicle_type_id":"4","last_reported":1737101487,"current_range_meters":30400,"station_id":"ce4bhn92rcd13ifvqgrg","pricing_plan_id":"cebpf4jnsgd1na2vs0mg"},{"bike_id":"16d325dc-7c99-4415-9fea-abcbee5d2959","system_id":"levelo_inurba_marseille","lat":43.29779,"lon":5.39348,"is_reserved":false,"is_disabled":false,"rental_uris":{"android":"levelo://app?vid=16d325dc-7c99-4415-9fea-abcbee5d2959","ios":"levelo://app?vid=16d325dc-7c99-4415-9fea-abcbee5d2959"},"vehicle_type_id":"4","last_reported":1737101487,"current_range_meters":4400,"station_id":"chh1huq6cuj3fo74tm60","pricing_plan_id":"cebpf4jnsgd1na2vs0mg"},{"bike_id":"0dd19019-f68e-4196-b969-e64a3d920187","system_id":"levelo_inurba_marseille","lat":43.30538,"lon":5.36706,"is_reserved":false,"is_disabled":false,"rental_uris":{"android":"levelo://app?vid=0dd19019-f68e-4196-b969-e64a3d920187","ios":"levelo://app?vid=0dd19019-f68e-4196-b969-e64a3d920187"},"vehicle_type_id":"4","last_reported":1737101487,"current_range_meters":22800,"station_id":"ce4bgrp2rcd13ifvqc9g","pricing_plan_id":"cebpf4jnsgd1na2vs0mg"},{"bike_id":"80bda125-5478-44ba-9611-5f7486319cc1","system_id":"levelo_inurba_marseille","lat":43.29041,"lon":5.39965,"is_reserved":false,"is_disabled":false,"rental_uris":{"android":"levelo://app?vid=80bda125-5478-44ba-9611-5f7486319cc1","ios":"levelo://app?vid=80bda125-5478-44ba-9611-5f7486319cc1"},"vehicle_type_id":"4","last_reported":1737101487,"current_range_meters":22800,"station_id":"ce4bh392rcd13ifvqdm0","pricing_plan_id":"cebpf4jnsgd1na2vs0mg"},{"bike_id":"22ccf45d-452d-45b0-ab56-995b2e477ec6","system_id":"levelo_inurba_marseille","lat":43.31504,"lon":5.37284,"is_reserved":false,"is_disabled":false,"rental_uris":{"android":"levelo://app?vid=22ccf45d-452d-45b0-ab56-995b2e477ec6","ios":"levelo://app?vid=22ccf45d-452d-45b0-ab56-995b2e477ec6"},"vehicle_type_id":"4","last_reported":1737101487,"current_range_meters":8800,"station_id":"ce4bgt12rcd13ifvqcd0","pricing_plan_id":"cebpf4jnsgd1na2vs0mg"},{"bike_id":"44721705-52d0-4eba-b0b2-b41ea9586411","system_id":"levelo_inurba_marseille","lat":43.231991,"lon":5.355559,"is_reserved":false,"is_disabled":false,"rental_uris":{"android":"levelo://app?vid=44721705-52d0-4eba-b0b2-b41ea9586411","ios":"levelo://app?vid=44721705-52d0-4eba-b0b2-b41ea9586411"},"vehicle_type_id":"4","last_reported":1737101487,"current_range_meters":30800,"station_id":"ce4bhu92rcd13ifvqi70","pricing_plan_id":"cebpf4jnsgd1na2vs0mg"},{"bike_id":"bca8ca0e-e6bb-4c30-9c0f-003d202e822c","system_id":"levelo_inurba_marseille","lat":43.27326,"lon":5.39097,"is_reserved":false,"is_disabled":false,"rental_uris":{"android":"levelo://app?vid=bca8ca0e-e6bb-4c30-9c0f-003d202e822c","ios":"levelo://app?vid=bca8ca0e-e6bb-4c30-9c0f-003d202e822c"},"vehicle_type_id":"4","last_reported":1737101487,"current_range_meters":39200,"station_id":"ce4bhgp2rcd13ifvqfe0","pricing_plan_id":"cebpf4jnsgd1na2vs0mg"},{"bike_id":"fe4ca2de-39b1-4c54-a18c-5b9311dc9a5e","system_id":"levelo_inurba_marseille","lat":43.30525,"lon":5.36517,"is_reserved":false,"is_disabled":false,"rental_uris":{"android":"levelo://app?vid=fe4ca2de-39b1-4c54-a18c-5b9311dc9a5e","ios":"levelo://app?vid=fe4ca2de-39b1-4c54-a18c-5b9311dc9a5e"},"vehicle_type_id":"4","last_reported":1737101487,"current_range_meters":39200,"station_id":"ce4bgs12rcd13ifvqcag","pricing_plan_id":"cebpf4jnsgd1na2vs0mg"},{"bike_id":"7138f953-e5b4-4a72-b4e7-3913f820a576","system_id":"levelo_inurba_marseille","lat":43.27195,"lon":5.40996,"is_reserved":false,"is_disabled":false,"rental_uris":{"android":"levelo://app?vid=7138f953-e5b4-4a72-b4e7-3913f820a576","ios":"levelo://app?vid=7138f953-e5b4-4a72-b4e7-3913f820a576"},"vehicle_type_id":"4","last_reported":1737101487,"current_range_meters":38800,"station_id":"ce4bhl12rcd13ifvqgf0","pricing_plan_id":"cebpf4jnsgd1na2vs0mg"},{"bike_id":"56245a8a-0771-4764-b271-bc067c058109","system_id":"levelo_inurba_marseille","lat":43.30947,"lon":5.39037,"is_reserved":false,"is_disabled":false,"rental_uris":{"android":"levelo://app?vid=56245a8a-0771-4764-b271-bc067c058109","ios":"levelo://app?vid=56245a8a-0771-4764-b271-bc067c058109"},"vehicle_type_id":"4","last_reported":1737101487,"current_range_meters":26000,"station_id":"ce4bgup2rcd13ifvqco0","pricing_plan_id":"cebpf4jnsgd1na2vs0mg"},{"bike_id":"74a49e87-955e-4c9a-b750-326f53e619de","system_id":"levelo_inurba_marseille","lat":43.26214,"lon":5.37436,"is_reserved":false,"is_disabled":false,"rental_uris":{"android":"levelo://app?vid=74a49e87-955e-4c9a-b750-326f53e619de","ios":"levelo://app?vid=74a49e87-955e-4c9a-b750-326f53e619de"},"vehicle_type_id":"4","last_reported":1737101487,"current_range_meters":38800,"station_id":"ce4bhgp2rcd13ifvqfc0","pricing_plan_id":"cebpf4jnsgd1na2vs0mg"},{"bike_id":"d0b99c82-423c-44ce-98f1-87a1e3a9dd17","system_id":"levelo_inurba_marseille","lat":43.29796,"lon":5.39352,"is_reserved":false,"is_disabled":false,"rental_uris":{"android":"levelo://app?vid=d0b99c82-423c-44ce-98f1-87a1e3a9dd17","ios":"levelo://app?vid=d0b99c82-423c-44ce-98f1-87a1e3a9dd17"},"vehicle_type_id":"4","last_reported":1737101487,"current_range_meters":10800,"station_id":"chh1huq6cuj3fo74tm60","pricing_plan_id":"cebpf4jnsgd1na2vs0mg"},{"bike_id":"e1f9a0b5-1419-4e67-ab24-a72ee45dfd85","system_id":"levelo_inurba_marseille","lat":43.24165,"lon":5.36387,"is_reserved":false,"is_disabled":false,"rental_uris":{"android":"levelo://app?vid=e1f9a0b5-1419-4e67-ab24-a72ee45dfd85","ios":"levelo://app?vid=e1f9a0b5-1419-4e67-ab24-a72ee45dfd85"},"vehicle_type_id":"4","last_reported":1737101487,"current_range_meters":16800,"station_id":"cpo36qri1sfpv3e86is0","pricing_plan_id":"cebpf4jnsgd1na2vs0mg"},{"bike_id":"83631803-edbf-47a8-8030-d8daf73fac95","system_id":"levelo_inurba_marseille","lat":43.28948,"lon":5.36413,"is_reserved":false,"is_disabled":false,"rental_uris":{"android":"levelo://app?vid=83631803-edbf-47a8-8030-d8daf73fac95","ios":"levelo://app?vid=83631803-edbf-47a8-8030-d8daf73fac95"},"vehicle_type_id":"4","last_reported":1737101487,"current_range_meters":6800,"station_id":"ce4bhc92rcd13ifvqetg","pricing_plan_id":"cebpf4jnsgd1na2vs0mg"},{"bike_id":"b69a23fd-e5f8-47e2-9b53-02b3855728be","system_id":"levelo_inurba_marseille","lat":43.30948,"lon":5.39029,"is_reserved":false,"is_disabled":false,"rental_uris":{"android":"levelo://app?vid=b69a23fd-e5f8-47e2-9b53-02b3855728be","ios":"levelo://app?vid=b69a23fd-e5f8-47e2-9b53-02b3855728be"},"vehicle_type_id":"4","last_reported":1737101487,"current_range_meters":18800,"station_id":"ce4bgup2rcd13ifvqco0","pricing_plan_id":"cebpf4jnsgd1na2vs0mg"},{"bike_id":"8f614e1f-84f3-4dcd-b94a-4b22991f6e04","system_id":"levelo_inurba_marseille","lat":43.29225,"lon":5.36061,"is_reserved":false,"is_disabled":true,"rental_uris":{"android":"levelo://app?vid=8f614e1f-84f3-4dcd-b94a-4b22991f6e04","ios":"levelo://app?vid=8f614e1f-84f3-4dcd-b94a-4b22991f6e04"},"vehicle_type_id":"4","last_reported":1737101487,"current_range_meters":24000,"station_id":"ce4bhbh2rcd13ifvqeqg","pricing_plan_id":"cebpf4jnsgd1na2vs0mg"},{"bike_id":"882e3c20-dd13-45c9-b2cc-b9e0e7c63a64","system_id":"levelo_inurba_marseille","lat":43.30523,"lon":5.36528,"is_reserved":false,"is_disabled":false,"rental_uris":{"android":"levelo://app?vid=882e3c20-dd13-45c9-b2cc-b9e0e7c63a64","ios":"levelo://app?vid=882e3c20-dd13-45c9-b2cc-b9e0e7c63a64"},"vehicle_type_id":"4","last_reported":1737101487,"current_range_meters":39200,"station_id":"ce4bgs12rcd13ifvqcag","pricing_plan_id":"cebpf4jnsgd1na2vs0mg"},{"bike_id":"c3de6877-1f6c-46f2-8ace-6b8834abcbb4","system_id":"levelo_inurba_marseille","lat":43.29064,"lon":5.37164,"is_reserved":false,"is_disabled":true,"rental_uris":{"android":"levelo://app?vid=c3de6877-1f6c-46f2-8ace-6b8834abcbb4","ios":"levelo://app?vid=c3de6877-1f6c-46f2-8ace-6b8834abcbb4"},"vehicle_type_id":"4","last_reported":1737101487,"current_range_meters":27600,"station_id":"ce4bh5p2rcd13ifvqe4g","pricing_plan_id":"cebpf4jnsgd1na2vs0mg"},{"bike_id":"6e220c80-72f8-4d3e-871d-c980ceb80b9d","system_id":"levelo_inurba_marseille","lat":43.26816,"lon":5.39482,"is_reserved":false,"is_disabled":false,"rental_uris":{"android":"levelo://app?vid=6e220c80-72f8-4d3e-871d-c980ceb80b9d","ios":"levelo://app?vid=6e220c80-72f8-4d3e-871d-c980ceb80b9d"},"vehicle_type_id":"4","last_reported":1737101487,"current_range_meters":2800,"station_id":"ce4bhh12rcd13ifvqfg0","pricing_plan_id":"cebpf4jnsgd1na2vs0mg"},{"bike_id":"a546948e-bb31-4f0a-9dc4-24c5781b49ac","system_id":"levelo_inurba_marseille","lat":43.28442,"lon":5.39187,"is_reserved":false,"is_disabled":false,"rental_uris":{"android":"levelo://app?vid=a546948e-bb31-4f0a-9dc4-24c5781b49ac","ios":"levelo://app?vid=a546948e-bb31-4f0a-9dc4-24c5781b49ac"},"vehicle_type_id":"4","last_reported":1737101487,"current_range_meters":32800,"station_id":"ce4bhoh2rcd13ifvqh5g","pricing_plan_id":"cebpf4jnsgd1na2vs0mg"},{"bike_id":"040785f9-bc85-4d1f-b57d-614630d60385","system_id":"levelo_inurba_marseille","lat":43.27688,"lon":5.38887,"is_reserved":false,"is_disabled":true,"rental_uris":{"android":"levelo://app?vid=040785f9-bc85-4d1f-b57d-614630d60385","ios":"levelo://app?vid=040785f9-bc85-4d1f-b57d-614630d60385"},"vehicle_type_id":"4","last_reported":1737101487,"current_range_meters":28800,"station_id":"ce4bhi12rcd13ifvqfo0","pricing_plan_id":"cebpf4jnsgd1na2vs0mg"},{"bike_id":"e0b58fdf-8c8f-454b-8926-2f8df7a5baaf","system_id":"levelo_inurba_marseille","lat":43.23624,"lon":5.39203,"is_reserved":false,"is_disabled":false,"rental_uris":{"android":"levelo://app?vid=e0b58fdf-8c8f-454b-8926-2f8df7a5baaf","ios":"levelo://app?vid=e0b58fdf-8c8f-454b-8926-2f8df7a5baaf"},"vehicle_type_id":"4","last_reported":1737101487,"current_range_meters":14800,"station_id":"","pricing_plan_id":"cebpf4jnsgd1na2vs0mg"},{"bike_id":"6cbf59e6-0bb3-4821-85b9-5e1365575a2a","system_id":"levelo_inurba_marseille","lat":43.2582,"lon":5.39428,"is_reserved":false,"is_disabled":false,"rental_uris":{"android":"levelo://app?vid=6cbf59e6-0bb3-4821-85b9-5e1365575a2a","ios":"levelo://app?vid=6cbf59e6-0bb3-4821-85b9-5e1365575a2a"},"vehicle_type_id":"4","last_reported":1737101487,"current_range_meters":10000,"station_id":"ce4bhip2rcd13ifvqft0","pricing_plan_id":"cebpf4jnsgd1na2vs0mg"},{"bike_id":"9fd67735-0e42-4ea3-ba49-b3e72ffcfb28","system_id":"levelo_inurba_marseille","lat":43.30548,"lon":5.36699,"is_reserved":false,"is_disabled":false,"rental_uris":{"android":"levelo://app?vid=9fd67735-0e42-4ea3-ba49-b3e72ffcfb28","ios":"levelo://app?vid=9fd67735-0e42-4ea3-ba49-b3e72ffcfb28"},"vehicle_type_id":"4","last_reported":1737101487,"current_range_meters":39200,"station_id":"ce4bgrp2rcd13ifvqc9g","pricing_plan_id":"cebpf4jnsgd1na2vs0mg"},{"bike_id":"58816f06-6b5d-4f25-9ea2-ac8707506d12","system_id":"levelo_inurba_marseille","lat":43.26192,"lon":5.37452,"is_reserved":false,"is_disabled":true,"rental_uris":{"android":"levelo://app?vid=58816f06-6b5d-4f25-9ea2-ac8707506d12","ios":"levelo://app?vid=58816f06-6b5d-4f25-9ea2-ac8707506d12"},"vehicle_type_id":"4","last_reported":1737101487,"current_range_meters":1200,"station_id":"ce4bhgp2rcd13ifvqfc0","pricing_plan_id":"cebpf4jnsgd1na2vs0mg"},{"bike_id":"21ad4677-8cb2-40a1-bc28-10667b816173","system_id":"levelo_inurba_marseille","lat":43.29202,"lon":5.39309,"is_reserved":false,"is_disabled":false,"rental_uris":{"android":"levelo://app?vid=21ad4677-8cb2-40a1-bc28-10667b816173","ios":"levelo://app?vid=21ad4677-8cb2-40a1-bc28-10667b816173"},"vehicle_type_id":"4","last_reported":1737101487,"current_range_meters":33200,"station_id":"ce4bh192rcd13ifvqdd0","pricing_plan_id":"cebpf4jnsgd1na2vs0mg"},{"bike_id":"f5863b18-13a1-4c6e-92de-5668ea912ad3","system_id":"levelo_inurba_marseille","lat":43.26216,"lon":5.40468,"is_reserved":false,"is_disabled":true,"rental_uris":{"android":"levelo://app?vid=f5863b18-13a1-4c6e-92de-5668ea912ad3","ios":"levelo://app?vid=f5863b18-13a1-4c6e-92de-5668ea912ad3"},"vehicle_type_id":"4","last_reported":1737101487,"current_range_meters":0,"station_id":"","pricing_plan_id":"cebpf4jnsgd1na2vs0mg"},{"bike_id":"bbf725a3-843a-42c1-8fd8-b53dad5cabfe","system_id":"levelo_inurba_marseille","lat":43.27209,"lon":5.39176,"is_reserved":false,"is_disabled":false,"rental_uris":{"android":"levelo://app?vid=bbf725a3-843a-42c1-8fd8-b53dad5cabfe","ios":"levelo://app?vid=bbf725a3-843a-42c1-8fd8-b53dad5cabfe"},"vehicle_type_id":"4","last_reported":1737101487,"current_range_meters":30400,"station_id":"ce4bhhp2rcd13ifvqfm0","pricing_plan_id":"cebpf4jnsgd1na2vs0mg"},{"bike_id":"a8fad254-19bb-48fe-801d-9e93d4767cef","system_id":"levelo_inurba_marseille","lat":43.31419,"lon":5.37419,"is_reserved":false,"is_disabled":true,"rental_uris":{"android":"levelo://app?vid=a8fad254-19bb-48fe-801d-9e93d4767cef","ios":"levelo://app?vid=a8fad254-19bb-48fe-801d-9e93d4767cef"},"vehicle_type_id":"4","last_reported":1737101487,"current_range_meters":0,"station_id":"","pricing_plan_id":"cebpf4jnsgd1na2vs0mg"},{"bike_id":"7bc644f9-2ebc-47b7-b0fb-2add02b19521","system_id":"levelo_inurba_marseille","lat":43.27572,"lon":5.38406,"is_reserved":false,"is_disabled":true,"rental_uris":{"android":"levelo://app?vid=7bc644f9-2ebc-47b7-b0fb-2add02b19521","ios":"levelo://app?vid=7bc644f9-2ebc-47b7-b0fb-2add02b19521"},"vehicle_type_id":"4","last_reported":1737101487,"current_range_meters":16000,"station_id":"ce4bhh92rcd13ifvqfi0","pricing_plan_id":"cebpf4jnsgd1na2vs0mg"},{"bike_id":"c1725ead-01c3-4f75-84f2-0e37ba1865ed","system_id":"levelo_inurba_marseille","lat":43.32482,"lon":5.36562,"is_reserved":false,"is_disabled":false,"rental_uris":{"android":"levelo://app?vid=c1725ead-01c3-4f75-84f2-0e37ba1865ed","ios":"levelo://app?vid=c1725ead-01c3-4f75-84f2-0e37ba1865ed"},