{"last_updated":1739189857,"ttl":60,"version":"2.2","data":{"bikes":[{"bike_id":"5cda301b-bce8-41d3-abea-2e981f99524e","system_id":"levelo_inurba_marseille","lat":43.29868,"lon":5.36306,"is_reserved":false,"is_disabled":false,"rental_uris":{"android":"levelo://app?vid=5cda301b-bce8-41d3-abea-2e981f99524e","ios":"levelo://app?vid=5cda301b-bce8-41d3-abea-2e981f99524e"},"vehicle_type_id":"4","last_reported":1739189857,"current_range_meters":29600,"station_id":"ce4bgpp2rcd13ifvqc3g","pricing_plan_id":"cebpf4jnsgd1na2vs0mg"},{"bike_id":"08ca4197-625e-4f59-a02f-50d89e2b438c","system_id":"levelo_inurba_marseille","lat":43.28941,"lon":5.39635,"is_reserved":false,"is_disabled":false,"rental_uris":{"android":"levelo://app?vid=08ca4197-625e-4f59-a02f-50d89e2b438c","ios":"levelo://app?vid=08ca4197-625e-4f59-a02f-50d89e2b438c"},"vehicle_type_id":"4","last_reported":1739189857,"current_range_meters":11200,"station_id":"ce4bh3h2rcd13ifvqdn0","pricing_plan_id":"cebpf4jnsgd1na2vs0mg"},{"bike_id":"ea818ab4-c16d-46c0-9147-ffdb685d7195","system_id":"levelo_inurba_marseille","lat":43.2396,"lon":5.36651,"is_reserved":false,"is_disabled":false,"rental_uris":{"android":"levelo://app?vid=ea818ab4-c16d-46c0-9147-ffdb685d7195","ios":"levelo://app?vid=ea818ab4-c16d-46c0-9147-ffdb685d7195"},"vehicle_type_id":"4","last_reported":1739189857,"current_range_meters":38800,"station_id":"ce4bhi12rcd13ifvqfp0","pricing_plan_id":"cebpf4jnsgd1na2vs0mg"},{"bike_id":"1a028648-d965-4243-a1e8-5f650ec8b4aa","system_id":"levelo_inurba_marseille","lat":43.26476,"lon":5.39561,"is_reserved":false,"is_disabled":true,"rental_uris":{"android":"levelo://app?vid=1a028648-d965-4243-a1e8-5f650ec8b4aa","ios":"levelo://app?vid=1a028648-d965-4243-a1e8-5f650ec8b4aa"},"vehicle_type_id":"4","last_reported":1739189857,"current_range_meters":4800,"station_id":"ce4bhi12rcd13ifvqfq0","pricing_plan_id":"cebpf4jnsgd1na2vs0mg"},{"bike_id":"9857501a-9c64-4e8c-bbab-22c968b3d40f","system_id":"levelo_inurba_marseille","lat":43.30144,"lon":5.37438,"is_reserved":false,"is_disabled":false,"rental_uris":{"android":"levelo://app?vid=9857501a-9c64-4e8c-bbab-22c968b3d40f","ios":"levelo://app?vid=9857501a-9c64-4e8c-bbab-22c968b3d40f"},"vehicle_type_id":"4","last_reported":1739189857,"current_range_meters":38000,"station_id":"ce4bgs92rcd13ifvqcc0","pricing_plan_id":"cebpf4jnsgd1na2vs0mg"},{"bike_id":"49b29c16-c73b-41e7-9aac-06f56c44f20e","system_id":"levelo_inurba_marseille","lat":43.26831,"lon":5.39447,"is_reserved":false,"is_disabled":false,"rental_uris":{"android":"levelo://app?vid=49b29c16-c73b-41e7-9aac-06f56c44f20e","ios":"levelo://app?vid=49b29c16-c73b-41e7-9aac-06f56c44f20e"},"vehicle_type_id":"4","last_reported":1739189857,"current_range_meters":38800,"station_id":"","pricing_plan_id":"cebpf4jnsgd1na2vs0mg"},{"bike_id":"e59de84b-d6d0-4a15-852b-e1f506f60856","system_id":"levelo_inurba_marseille","lat":43.32062,"lon":5.41531,"is_reserved":false,"is_disabled":false,"rental_uris":{"android":"levelo://app?vid=e59de84b-d6d0-4a15-852b-e1f506f60856","ios":"levelo://app?vid=e59de84b-d6d0-4a15-852b-e1f506f60856"},"vehicle_type_id":"4","last_reported":1739189857,"current_range_meters":38800,"station_id":"ce4bhq92rcd13ifvqhkg","pricing_plan_id":"cebpf4jnsgd1na2vs0mg"},{"bike_id":"52bbfaa2-b8ac-4136-9dbb-460affee02ed","system_id":"levelo_inurba_marseille","lat":43.26031,"lon":5.3756,"is_reserved":false,"is_disabled":false,"rental_uris":{"android":"levelo://app?vid=52bbfaa2-b8ac-4136-9dbb-460affee02ed","ios":"levelo://app?vid=52bbfaa2-b8ac-4136-9dbb-460affee02ed"},"vehicle_type_id":"4","last_reported":1739189857,"current_range_meters":38800,"station_id":"ce4bhgh2rcd13ifvqfa0","pricing_plan_id":"cebpf4jnsgd1na2vs0mg"},{"bike_id":"cd43b8b3-9bce-4582-844f-517531c1058f","system_id":"levelo_inurba_marseille","lat":43.28284,"lon":5.38571,"is_reserved":false,"is_disabled":false,"rental_uris":{"android":"levelo://app?vid=cd43b8b3-9bce-4582-844f-517531c1058f","ios":"levelo://app?vid=cd43b8b3-9bce-4582-844f-517531c1058f"},"vehicle_type_id":"4","last_reported":1739189857,"current_range_meters":18000,"station_id":"","pricing_plan_id":"cebpf4jnsgd1na2vs0mg"},{"bike_id":"51b9a729-fd90-485f-a462-351308296e2e","system_id":"levelo_inurba_marseille","lat":43.2794,"lon":5.41041,"is_reserved":false,"is_disabled":true,"rental_uris":{"android":"levelo://app?vid=51b9a729-fd90-485f-a462-351308296e2e","ios":"levelo://app?vid=51b9a729-fd90-485f-a462-351308296e2e"},"vehicle_type_id":"4","last_reported":1739189857,"current_range_meters":0,"station_id":"ce4bhnp2rcd13ifvqh0g","pricing_plan_id":"cebpf4jnsgd1na2vs0mg"},{"bike_id":"8440a93c-9f0d-494a-8d04-da2f83d7ddb3","system_id":"levelo_inurba_marseille","lat":43.336089,"lon":5.410241,"is_reserved":false,"is_disabled":false,"rental_uris":{"android":"levelo://app?vid=8440a93c-9f0d-494a-8d04-da2f83d7ddb3","ios":"levelo://app?vid=8440a93c-9f0d-494a-8d04-da2f83d7ddb3"},"vehicle_type_id":"4","last_reported":1739189857,"current_range_meters":18800,"station_id":"ce4bhqh2rcd13ifvqhmg","pricing_plan_id":"cebpf4jnsgd1na2vs0mg"},{"bike_id":"037c679a-98bd-40a4-9941-fce0441d2613","system_id":"levelo_inurba_marseille","lat":43.30147,"lon":5.37411,"is_reserved":false,"is_disabled":false,"rental_uris":{"android":"levelo://app?vid=037c679a-98bd-40a4-9941-fce0441d2613","ios":"levelo://app?vid=037c679a-98bd-40a4-9941-fce0441d2613"},"vehicle_type_id":"4","last_reported":1739189857,"current_range_meters":5600,"station_id":"ce4bgs92rcd13ifvqcc0","pricing_plan_id":"cebpf4jnsgd1na2vs0mg"},{"bike_id":"4d2aff9d-39d9-4084-a4b3-cca120d88439","system_id":"levelo_inurba_marseille","lat":43.31718,"lon":5.40416,"is_reserved":false,"is_disabled":false,"rental_uris":{"android":"levelo://app?vid=4d2aff9d-39d9-4084-a4b3-cca120d88439","ios":"levelo://app?vid=4d2aff9d-39d9-4084-a4b3-cca120d88439"},"vehicle_type_id":"4","last_reported":1739189857,"current_range_meters":39200,"station_id":"ce4bh012rcd13ifvqd00","pricing_plan_id":"cebpf4jnsgd1na2vs0mg"},{"bike_id":"6beaa935-0adc-46d5-a5d7-e6968d1bf4fb","system_id":"levelo_inurba_marseille","lat":43.25116,"lon":5.40314,"is_reserved":false,"is_disabled":false,"rental_uris":{"android":"levelo://app?vid=6beaa935-0adc-46d5-a5d7-e6968d1bf4fb","ios":"levelo://app?vid=6beaa935-0adc-46d5-a5d7-e6968d1bf4fb"},"vehicle_type_id":"4","last_reported":1739189857,"current_range_meters":32400,"station_id":"ce4bhlh2rcd13ifvqgig","pricing_plan_id":"cebpf4jnsgd1na2vs0mg"},{"bike_id":"6371d8a1-ad74-4f39-83e3-04627e1cffe1","system_id":"levelo_inurba_marseille","lat":43.24663,"lon":5.38163,"is_reserved":false,"is_disabled":false,"rental_uris":{"android":"levelo://app?vid=6371d8a1-ad74-4f39-83e3-04627e1cffe1","ios":"levelo://app?vid=6371d8a1-ad74-4f39-83e3-04627e1cffe1"},"vehicle_type_id":"4","last_reported":1739189857,"current_range_meters":38800,"station_id":"ce4bhih2rcd13ifvqfr0","pricing_plan_id":"cebpf4jnsgd1na2vs0mg"},{"bike_id":"6d65ae34-2ff7-46e5-b87e-38814047fdee","system_id":"levelo_inurba_marseille","lat":43.31691,"lon":5.40471,"is_reserved":false,"is_disabled":false,"rental_uris":{"android":"levelo://app?vid=6d65ae34-2ff7-46e5-b87e-38814047fdee","ios":"levelo://app?vid=6d65ae34-2ff7-46e5-b87e-38814047fdee"},"vehicle_type_id":"4","last_reported":1739189857,"current_range_meters":38800,"station_id":"ce4bh012rcd13ifvqd00","pricing_plan_id":"cebpf4jnsgd1na2vs0mg"},{"bike_id":"344eebf3-3173-49d7-80b6-bfab43c58fce","system_id":"levelo_inurba_marseille","lat":43.27201,"lon":5.39185,"is_reserved":false,"is_disabled":false,"rental_uris":{"android":"levelo://app?vid=344eebf3-3173-49d7-80b6-bfab43c58fce","ios":"levelo://app?vid=344eebf3-3173-49d7-80b6-bfab43c58fce"},"vehicle_type_id":"4","last_reported":1739189857,"current_range_meters":22800,"station_id":"ce4bhhp2rcd13ifvqfm0","pricing_plan_id":"cebpf4jnsgd1na2vs0mg"},{"bike_id":"ef1878f8-7671-4a3f-a207-7ea8eab4d35b","system_id":"levelo_inurba_marseille","lat":43.29865,"lon":5.39758,"is_reserved":false,"is_disabled":false,"rental_uris":{"android":"levelo://app?vid=ef1878f8-7671-4a3f-a207-7ea8eab4d35b","ios":"levelo://app?vid=ef1878f8-7671-4a3f-a207-7ea8eab4d35b"},"vehicle_type_id":"4","last_reported":1739189857,"current_range_meters":38800,"station_id":"ce4bh0h2rcd13ifvqd50","pricing_plan_id":"cebpf4jnsgd1na2vs0mg"},{"bike_id":"737649a9-8fca-4752-8359-c3bbba21b8c6","system_id":"levelo_inurba_marseille","lat":43.30953,"lon":5.39047,"is_reserved":false,"is_disabled":false,"rental_uris":{"android":"levelo://app?vid=737649a9-8fca-4752-8359-c3bbba21b8c6","ios":"levelo://app?vid=737649a9-8fca-4752-8359-c3bbba21b8c6"},"vehicle_type_id":"4","last_reported":1739189857,"current_range_meters":10800,"station_id":"","pricing_plan_id":"cebpf4jnsgd1na2vs0mg"},{"bike_id":"fea52798-e931-45ae-a156-233e5c832d95","system_id":"levelo_inurba_marseille","lat":43.30536,"lon":5.36693,"is_reserved":false,"is_disabled":false,"rental_uris":{"android":"levelo://app?vid=fea52798-e931-45ae-a156-233e5c832d95","ios":"levelo://app?vid=fea52798-e931-45ae-a156-233e5c832d95"},"vehicle_type_id":"4","last_reported":1739189857,"current_range_meters":28400,"station_id":"ce4bgrp2rcd13ifvqc9g","pricing_plan_id":"cebpf4jnsgd1na2vs0mg"},{"bike_id":"4a55a8c0-1718-4c6e-893d-a5db1cfa18b0","system_id":"levelo_inurba_marseille","lat":43.28146,"lon":5.42656,"is_reserved":false,"is_disabled":false,"rental_uris":{"android":"levelo://app?vid=4a55a8c0-1718-4c6e-893d-a5db1cfa18b0","ios":"levelo://app?vid=4a55a8c0-1718-4c6e-893d-a5db1cfa18b0"},"vehicle_type_id":"4","last_reported":1739189857,"current_range_meters":38800,"station_id":"ce4bhnh2rcd13ifvqgug","pricing_plan_id":"cebpf4jnsgd1na2vs0mg"},{"bike_id":"ca62490e-1209-4d5b-b694-89bacead5861","system_id":"levelo_inurba_marseille","lat":43.28572,"lon":5.36718,"is_reserved":false,"is_disabled":false,"rental_uris":{"android":"levelo://app?vid=ca62490e-1209-4d5b-b694-89bacead5861","ios":"levelo://app?vid=ca62490e-1209-4d5b-b694-89bacead5861"},"vehicle_type_id":"4","last_reported":1739189857,"current_range_meters":19200,"station_id":"","pricing_plan_id":"cebpf4jnsgd1na2vs0mg"},{"bike_id":"f504ae25-f5a4-4b38-b42e-3a30562fb7f9","system_id":"levelo_inurba_marseille","lat":43.29597,"lon":5.36746,"is_reserved":false,"is_disabled":false,"rental_uris":{"android":"levelo://app?vid=f504ae25-f5a4-4b38-b42e-3a30562fb7f9","ios":"levelo://app?vid=f504ae25-f5a4-4b38-b42e-3a30562fb7f9"},"vehicle_type_id":"4","last_reported":1739189857,"current_range_meters":12400,"station_id":"ce4bgph2rcd13ifvqc2g","pricing_plan_id":"cebpf4jnsgd1na2vs0mg"},{"bike_id":"78af5c8d-2f5e-4a60-a218-6efcadbeb850","system_id":"levelo_inurba_marseille","lat":43.29852,"lon":5.36268,"is_reserved":false,"is_disabled":false,"rental_uris":{"android":"levelo://app?vid=78af5c8d-2f5e-4a60-a218-6efcadbeb850","ios":"levelo://app?vid=78af5c8d-2f5e-4a60-a218-6efcadbeb850"},"vehicle_type_id":"4","last_reported":1739189857,"current_range_meters":39200,"station_id":"ce4bgpp2rcd13ifvqc3g","pricing_plan_id":"cebpf4jnsgd1na2vs0mg"},{"bike_id":"0ec10906-ace0-4c24-9f95-c37ad07c9817","system_id":"levelo_inurba_marseille","lat":43.23963,"lon":5.36644,"is_reserved":false,"is_disabled":false,"rental_uris":{"android":"levelo://app?vid=0ec10906-ace0-4c24-9f95-c37ad07c9817","ios":"levelo://app?vid=0ec10906-ace0-4c24-9f95-c37ad07c9817"},"vehicle_type_id":"4","last_reported":1739189857,"current_range_meters":37600,"station_id":"ce4bhi12rcd13ifvqfp0","pricing_plan_id":"cebpf4jnsgd1na2vs0mg"},{"bike_id":"5391c93c-7685-48ea-9c51-32eb81a76c53","system_id":"levelo_inurba_marseille","lat":43.26197,"lon":5.37473,"is_reserved":false,"is_disabled":false,"rental_uris":{"android":"levelo://app?vid=5391c93c-7685-48ea-9c51-32eb81a76c53","ios":"levelo://app?vid=5391c93c-7685-48ea-9c51-32eb81a76c53"},"vehicle_type_id":"4","last_reported":1739189857,"current_range_meters":23200,"station_id":"ce4bhgp2rcd13ifvqfc0","pricing_plan_id":"cebpf4jnsgd1na2vs0mg"},{"bike_id":"74ed2df1-3204-44d2-a51d-efa564d7ab0d","system_id":"levelo_inurba_marseille","lat":43.26198,"lon":5.37936,"is_reserved":false,"is_disabled":false,"rental_uris":{"android":"levelo://app?vid=74ed2df1-3204-44d2-a51d-efa564d7ab0d","ios":"levelo://app?vid=74ed2df1-3204-44d2-a51d-efa564d7ab0d"},"vehicle_type_id":"4","last_reported":1739189857,"current_range_meters":28000,"station_id":"ce4bhjp2rcd13ifvqg90","pricing_plan_id":"cebpf4jnsgd1na2vs0mg"},{"bike_id":"ec577290-415e-4adf-bee8-70a702854fd7","system_id":"levelo_inurba_marseille","lat":43.28447,"lon":5.35888,"is_reserved":false,"is_disabled":false,"rental_uris":{"android":"levelo://app?vid=ec577290-415e-4adf-bee8-70a702854fd7","ios":"levelo://app?vid=ec577290-415e-4adf-bee8-70a702854fd7"},"vehicle_type_id":"4","last_reported":1739189857,"current_range_meters":38800,"station_id":"ce4bhah2rcd13ifvqei0","pricing_plan_id":"cebpf4jnsgd1na2vs0mg"},{"bike_id":"e999cb9c-f2fa-41ac-90e8-4a39e4b280bb","system_id":"levelo_inurba_marseille","lat":43.29608,"lon":5.37732,"is_reserved":false,"is_disabled":false,"rental_uris":{"android":"levelo://app?vid=e999cb9c-f2fa-41ac-90e8-4a39e4b280bb","ios":"levelo://app?vid=e999cb9c-f2fa-41ac-90e8-4a39e4b280bb"},"vehicle_type_id":"4","last_reported":1739189857,"current_range_meters":35600,"station_id":"ce4bgi92rcd13ifvqb90","pricing_plan_id":"cebpf4jnsgd1na2vs0mg"},{"bike_id":"5823c960-2ed7-4a58-b753-fe73da4d5c0f","system_id":"levelo_inurba_marseille","lat":43.2481,"lon":5.37458,"is_reserved":false,"is_disabled":false,"rental_uris":{"android":"levelo://app?vid=5823c960-2ed7-4a58-b753-fe73da4d5c0f","ios":"levelo://app?vid=5823c960-2ed7-4a58-b753-fe73da4d5c0f"},"vehicle_type_id":"4","last_reported":1739189857,"current_range_meters":39200,"station_id":"ce4bhgh2rcd13ifvqfb0","pricing_plan_id":"cebpf4jnsgd1na2vs0mg"},{"bike_id":"f798cbc4-a869-471f-bce8-f64397eebe81","system_id":"levelo_inurba_marseille","lat":43.23964,"lon":5.36641,"is_reserved":false,"is_disabled":false,"rental_uris":{"android":"levelo://app?vid=f798cbc4-a869-471f-bce8-f64397eebe81","ios":"levelo://app?vid=f798cbc4-a869-471f-bce8-f64397eebe81"},"vehicle_type_id":"4","last_reported":1739189857,"current_range_meters":26000,"station_id":"ce4bhi12rcd13ifvqfp0","pricing_plan_id":"cebpf4jnsgd1na2vs0mg"},{"bike_id":"b021e1a2-bb30-4956-b0f1-62e84c7a74e2","system_id":"levelo_inurba_marseille","lat":43.32376,"lon":5.36762,"is_reserved":false,"is_disabled":false,"rental_uris":{"android":"levelo://app?vid=b021e1a2-bb30-4956-b0f1-62e84c7a74e2","ios":"levelo://app?vid=b021e1a2-bb30-4956-b0f1-62e84c7a74e2"},"vehicle_type_id":"4","last_reported":1739189857,"current_range_meters":32800,"station_id":"ce4bhsh2rcd13ifvqi2g","pricing_plan_id":"cebpf4jnsgd1na2vs0mg"},{"bike_id":"8d598b5f-95e4-4c91-bd55-fb46edc3ebd2","system_id":"levelo_inurba_marseille","lat":43.2721,"lon":5.39182,"is_reserved":false,"is_disabled":false,"rental_uris":{"android":"levelo://app?vid=8d598b5f-95e4-4c91-bd55-fb46edc3ebd2","ios":"levelo://app?vid=8d598b5f-95e4-4c91-bd55-fb46edc3ebd2"},"vehicle_type_id":"4","last_reported":1739189857,"current_range_meters":25600,"station_id":"ce4bhhp2rcd13ifvqfm0","pricing_plan_id":"cebpf4jnsgd1na2vs0mg"},{"bike_id":"4905ea38-19a8-4cf8-85c9-3e5084221787","system_id":"levelo_inurba_marseille","lat":43.25823,"lon":5.3943,"is_reserved":false,"is_disabled":false,"rental_uris":{"android":"levelo://app?vid=4905ea38-19a8-4cf8-85c9-3e5084221787","ios":"levelo://app?vid=4905ea38-19a8-4cf8-85c9-3e5084221787"},"vehicle_type_id":"4","last_reported":1739189857,"current_range_meters":39200,"station_id":"ce4bhip2rcd13ifvqft0","pricing_plan_id":"cebpf4jnsgd1na2vs0mg"},{"bike_id":"776c444e-ae69-4270-af0f-40003d483afe","system_id":"levelo_inurba_marseille","lat":43.2397,"lon":5.36637,"is_reserved":false,"is_disabled":false,"rental_uris":{"android":"levelo://app?vid=776c444e-ae69-4270-af0f-40003d483afe","ios":"levelo://app?vid=776c444e-ae69-4270-af0f-40003d483afe"},"vehicle_type_id":"4","last_reported":1739189857,"current_range_meters":37600,"station_id":"ce4bhi12rcd13ifvqfp0","pricing_plan_id":"cebpf4jnsgd1na2vs0mg"},{"bike_id":"718523e2-6ad7-4c41-b83d-f95a915b8d9e","system_id":"levelo_inurba_marseille","lat":43.27616,"lon":5.36113,"is_reserved":false,"is_disabled":false,"rental_uris":{"android":"levelo://app?vid=718523e2-6ad7-4c41-b83d-f95a915b8d9e","ios":"levelo://app?vid=718523e2-6ad7-4c41-b83d-f95a915b8d9e"},"vehicle_type_id":"4","last_reported":1739189857,"current_range_meters":17200,"station_id":"ce4bgj92rcd13ifvqbe0","pricing_plan_id":"cebpf4jnsgd1na2vs0mg"},{"bike_id":"b7acf421-eb55-4afa-8780-b294810fbe00","system_id":"levelo_inurba_marseille","lat":43.29519,"lon":5.39406,"is_reserved":false,"is_disabled":false,"rental_uris":{"android":"levelo://app?vid=b7acf421-eb55-4afa-8780-b294810fbe00","ios":"levelo://app?vid=b7acf421-eb55-4afa-8780-b294810fbe00"},"vehicle_type_id":"4","last_reported":1739189857,"current_range_meters":23200,"station_id":"ce4bh292rcd13ifvqdf0","pricing_plan_id":"cebpf4jnsgd1na2vs0mg"},{"bike_id":"41aa0ef7-6d33-4f36-a9a6-ba3c18da23bd","system_id":"levelo_inurba_marseille","lat":43.32489,"lon":5.36574,"is_reserved":false,"is_disabled":false,"rental_uris":{"android":"levelo://app?vid=41aa0ef7-6d33-4f36-a9a6-ba3c18da23bd","ios":"levelo://app?vid=41aa0ef7-6d33-4f36-a9a6-ba3c18da23bd"},"vehicle_type_id":"4","last_reported":1739189857,"current_range_meters":38800,"station_id":"ce4bhs12rcd13ifvqhvg","pricing_plan_id":"cebpf4jnsgd1na2vs0mg"},{"bike_id":"1d372f93-b8e6-4f13-9d33-813b3a0ab7b3","system_id":"levelo_inurba_marseille","lat":43.29371,"lon":5.37861,"is_reserved":false,"is_disabled":false,"rental_uris":{"android":"levelo://app?vid=1d372f93-b8e6-4f13-9d33-813b3a0ab7b3","ios":"levelo://app?vid=1d372f93-b8e6-4f13-9d33-813b3a0ab7b3"},"vehicle_type_id":"4","last_reported":1739189857,"current_range_meters":37600,"station_id":"ce4bgjh2rcd13ifvqbf0","pricing_plan_id":"cebpf4jnsgd1na2vs0mg"},{"bike_id":"c93ba4b5-809f-42a1-951f-4f195f9c3735","system_id":"levelo_inurba_marseille","lat":43.29184,"lon":5.35793,"is_reserved":false,"is_disabled":false,"rental_uris":{"android":"levelo://app?vid=c93ba4b5-809f-42a1-951f-4f195f9c3735","ios":"levelo://app?vid=c93ba4b5-809f-42a1-951f-4f195f9c3735"},"vehicle_type_id":"4","last_reported":1739189857,"current_range_meters":38000,"station_id":"ce4bhb12rcd13ifvqel0","pricing_plan_id":"cebpf4jnsgd1na2vs0mg"},{"bike_id":"45f5e89f-f774-40f7-9cd2-319f3482a7b5","system_id":"levelo_inurba_marseille","lat":43.27898,"lon":5.38006,"is_reserved":false,"is_disabled":false,"rental_uris":{"android":"levelo://app?vid=45f5e89f-f774-40f7-9cd2-319f3482a7b5","ios":"levelo://app?vid=45f5e89f-f774-40f7-9cd2-319f3482a7b5"},"vehicle_type_id":"4","last_reported":1739189857,"current_range_meters":37600,"station_id":"ce4bhf92rcd13ifvqf50","pricing_plan_id":"cebpf4jnsgd1na2vs0mg"},{"bike_id":"1bc015b8-9198-435e-b40c-dc7d8a347d15","system_id":"levelo_inurba_marseille","lat":43.30925,"lon":5.3685,"is_reserved":false,"is_disabled":false,"rental_uris":{"android":"levelo://app?vid=1bc015b8-9198-435e-b40c-dc7d8a347d15","ios":"levelo://app?vid=1bc015b8-9198-435e-b40c-dc7d8a347d15"},"vehicle_type_id":"4","last_reported":1739189857,"current_range_meters":38800,"station_id":"ce4bgn92rcd13ifvqbvg","pricing_plan_id":"cebpf4jnsgd1na2vs0mg"},{"bike_id":"d212e68a-3cfa-4ec1-9e3e-b3c68830363d","system_id":"levelo_inurba_marseille","lat":43.26204,"lon":5.37437,"is_reserved":false,"is_disabled":false,"rental_uris":{"android":"levelo://app?vid=d212e68a-3cfa-4ec1-9e3e-b3c68830363d","ios":"levelo://app?vid=d212e68a-3cfa-4ec1-9e3e-b3c68830363d"},"vehicle_type_id":"4","last_reported":1739189857,"current_range_meters":30000,"station_id":"ce4bhgp2rcd13ifvqfc0","pricing_plan_id":"cebpf4jnsgd1na2vs0mg"},{"bike_id":"30a04f13-fea8-4b77-992f-0b729af72960","system_id":"levelo_inurba_marseille","lat":43.28111,"lon":5.37837,"is_reserved":false,"is_disabled":false,"rental_uris":{"android":"levelo://app?vid=30a04f13-fea8-4b77-992f-0b729af72960","ios":"levelo://app?vid=30a04f13-fea8-4b77-992f-0b729af72960"},"vehicle_type_id":"4","last_reported":1739189857,"current_range_meters":26000,"station_id":"ce4bha12rcd13ifvqee0","pricing_plan_id":"cebpf4jnsgd1na2vs0mg"},{"bike_id":"a1e1c154-9e5a-4afc-9a7e-cedaf38d9921","system_id":"levelo_inurba_marseille","lat":43.28948,"lon":5.35623,"is_reserved":false,"is_disabled":false,"rental_uris":{"android":"levelo://app?vid=a1e1c154-9e5a-4afc-9a7e-cedaf38d9921","ios":"levelo://app?vid=a1e1c154-9e5a-4afc-9a7e-cedaf38d9921"},"vehicle_type_id":"4","last_reported":1739189857,"current_range_meters":35600,"station_id":"ce4bhb92rcd13ifvqen0","pricing_plan_id":"cebpf4jnsgd1na2vs0mg"},{"bike_id":"726fb099-c3d7-4106-beb8-89951bfba46d","system_id":"levelo_inurba_marseille","lat":43.29574,"lon":5.37512,"is_reserved":false,"is_disabled":false,"rental_uris":{"android":"levelo://app?vid=726fb099-c3d7-4106-beb8-89951bfba46d","ios":"levelo://app?vid=726fb099-c3d7-4106-beb8-89951bfba46d"},"vehicle_type_id":"4","last_reported":1739189857,"current_range_meters":33600,"station_id":"ce4bgh92rcd13ifvqb50","pricing_plan_id":"cebpf4jnsgd1na2vs0mg"},{"bike_id":"a0786387-34cb-41ee-a124-76dad3f46db5","system_id":"levelo_inurba_marseille","lat":43.30459,"lon":5.37913,"is_reserved":false,"is_disabled":false,"rental_uris":{"android":"levelo://app?vid=a0786387-34cb-41ee-a124-76dad3f46db5","ios":"levelo://app?vid=a0786387-34cb-41ee-a124-76dad3f46db5"},"vehicle_type_id":"4","last_reported":1739189857,"current_range_meters":28400,"station_id":"ce4bgup2rcd13ifvqcn0","pricing_plan_id":"cebpf4jnsgd1na2vs0mg"},{"bike_id":"74b73069-a7be-4c88-84ba-e843e5884b3e","system_id":"levelo_inurba_marseille","lat":43.27922,"lon":5.39579,"is_reserved":false,"is_disabled":false,"rental_uris":{"android":"levelo://app?vid=74b73069-a7be-4c88-84ba-e843e5884b3e","ios":"levelo://app?vid=74b73069-a7be-4c88-84ba-e843e5884b3e"},"vehicle_type_id":"4","last_reported":1739189857,"current_range_meters":34000,"station_id":"ce4bhf92rcd13ifvqf40","pricing_plan_id":"cebpf4jnsgd1na2vs0mg"},{"bike_id":"41818734-8f57-49f9-98e5-973af4852d50","system_id":"levelo_inurba_marseille","lat":43.30147,"lon":5.39893,"is_reserved":false,"is_disabled":false,"rental_uris":{"android":"levelo://app?vid=41818734-8f57-49f9-98e5-973af4852d50","ios":"levelo://app?vid=41818734-8f57-49f9-98e5-973af4852d50"},"vehicle_type_id":"4","last_reported":1739189857,"current_range_meters":36800,"station_id":"ce4bh0h2rcd13ifvqd40","pricing_plan_id":"cebpf4jnsgd1na2vs0mg"},{"bike_id":"f077fbb7-1989-4de7-8eed-f67fa183edce","system_id":"levelo_inurba_marseille","lat":43.29975,"lon":5.38491,"is_reserved":false,"is_disabled":false,"rental_uris":{"android":"levelo://app?vid=f077fbb7-1989-4de7-8eed-f67fa183edce","ios":"levelo://app?vid=f077fbb7-1989-4de7-8eed-f67fa183edce"},"vehicle_type_id":"4","last_reported":1739189857,"current_range_meters":23200,"station_id":"ce4bgj92rcd13ifvqbd0","pricing_plan_id":"cebpf4jnsgd1na2vs0mg"},{"bike_id":"5728af05-01f3-4c14-afd6-c4ebe0f65611","system_id":"levelo_inurba_marseille","lat":43.24994,"lon":5.38933,"is_reserved":false,"is_disabled":false,"rental_uris":{"android":"levelo://app?vid=5728af05-01f3-4c14-afd6-c4ebe0f65611","ios":"levelo://app?vid=5728af05-01f3-4c14-afd6-c4ebe0f65611"},"vehicle_type_id":"4","last_reported":1739189857,"current_range_meters":8000,"station_id":"ce4bhgp2rcd13ifvqfd0","pricing_plan_id":"cebpf4jnsgd1na2vs0mg"},{"bike_id":"c589096b-2f0f-4a04-810c-5a98686a2581","system_id":"levelo_inurba_marseille","lat":43.28109,"lon":5.37841,"is_reserved":false,"is_disabled":false,"rental_uris":{"android":"levelo://app?vid=c589096b-2f0f-4a04-810c-5a98686a2581","ios":"levelo://app?vid=c589096b-2f0f-4a04-810c-5a98686a2581"},"vehicle_type_id":"4","last_reported":1739189857,"current_range_meters":28400,"station_id":"ce4bha12rcd13ifvqee0","pricing_plan_id":"cebpf4jnsgd1na2vs0mg"},{"bike_id":"b57c3c52-f51a-4e18-bdaf-76e91ccd9395","system_id":"levelo_inurba_marseille","lat":43.2415,"lon":5.39753,"is_reserved":false,"is_disabled":false,"rental_uris":{"android":"levelo://app?vid=b57c3c52-f51a-4e18-bdaf-76e91ccd9395","ios":"levelo://app?vid=b57c3c52-f51a-4e18-bdaf-76e91ccd9395"},"vehicle_type_id":"4","last_reported":1739189857,"current_range_meters":38800,"station_id":"ce4bhn12rcd13ifvqgpg","pricing_plan_id":"cebpf4jnsgd1na2vs0mg"},{"bike_id":"3441c74a-282b-45aa-b329-9e43a88c8a80","system_id":"levelo_inurba_marseille","lat":43.24818,"lon":5.37458,"is_reserved":false,"is_disabled":false,"rental_uris":{"android":"levelo://app?vid=3441c74a-282b-45aa-b329-9e43a88c8a80","ios":"levelo://app?vid=3441c74a-282b-45aa-b329-9e43a88c8a80"},"vehicle_type_id":"4","last_reported":1739189857,"current_range_meters":19600,"station_id":"ce4bhgh2rcd13ifvqfb0","pricing_plan_id":"cebpf4jnsgd1na2vs0mg"},{"bike_id":"e00cd517-4a6d-40d8-b46e-27fb98e2bb39","system_id":"levelo_inurba_marseille","lat":43.28459,"lon":5.35894,"is_reserved":false,"is_disabled":false,"rental_uris":{"android":"levelo://app?vid=e00cd517-4a6d-40d8-b46e-27fb98e2bb39","ios":"levelo://app?vid=e00cd517-4a6d-40d8-b46e-27fb98e2bb39"},"vehicle_type_id":"4","last_reported":1739189857,"current_range_meters":39200,"station_id":"ce4bhah2rcd13ifvqei0","pricing_plan_id":"cebpf4jnsgd1na2vs0mg"},{"bike_id":"6d35baf6-b40a-4254-a7f5-d19098690ec0","system_id":"levelo_inurba_marseille","lat":43.3054,"lon":5.36695,"is_reserved":false,"is_disabled":false,"rental_uris":{"android":"levelo://app?vid=6d35baf6-b40a-4254-a7f5-d19098690ec0","ios":"levelo://app?vid=6d35baf6-b40a-4254-a7f5-d19098690ec0"},"vehicle_type_id":"4","last_reported":1739189857,"current_range_meters":30000,"station_id":"ce4bgrp2rcd13ifvqc9g","pricing_plan_id":"cebpf4jnsgd1na2vs0mg"},{"bike_id":"ff7a2a59-7301-40ff-8498-3236d4a83429","system_id":"levelo_inurba_marseille","lat":43.2813,"lon":5.39857,"is_reserved":false,"is_disabled":false,"rental_uris":{"android":"levelo://app?vid=ff7a2a59-7301-40ff-8498-3236d4a83429","ios":"levelo://app?vid=ff7a2a59-7301-40ff-8498-3236d4a83429"},"vehicle_type_id":"4","last_reported":1739189857,"current_range_meters":20800,"station_id":"","pricing_plan_id":"cebpf4jnsgd1na2vs0mg"},{"bike_id":"8e2f681c-56b3-4dbe-acf6-d95949b97842","system_id":"levelo_inurba_marseille","lat":43.301561,"lon":5.380922,"is_reserved":false,"is_disabled":false,"rental_uris":{"android":"levelo://app?vid=8e2f681c-56b3-4dbe-acf6-d95949b97842","ios":"levelo://app?vid=8e2f681c-56b3-4dbe-acf6-d95949b97842"},"vehicle_type_id":"4","last_reported":1739189857,"current_range_meters":27200,"station_id":"","pricing_plan_id":"cebpf4jnsgd1na2vs0mg"},{"bike_id":"fa2aa83b-ea8e-4382-8883-daf1d30785d3","system_id":"levelo_inurba_marseille","lat":43.27075,"lon":5.42288,"is_reserved":false,"is_disabled":false,"rental_uris":{"android":"levelo://app?vid=fa2aa83b-ea8e-4382-8883-daf1d30785d3","ios":"levelo://app?vid=fa2aa83b-ea8e-4382-8883-daf1d30785d3"},"vehicle_type_id":"4","last_reported":1739189857,"current_range_meters":24000,"station_id":"ce4bhk92rcd13ifvqgb0","pricing_plan_id":"cebpf4jnsgd1na2vs0mg"},{"bike_id":"cadf3aa2-6f3e-4c91-b6a3-a66239a3c28a","system_id":"levelo_inurba_marseille","lat":43.32474,"lon":5.36567,"is_reserved":false,"is_disabled":false,"rental_uris":{"android":"levelo://app?vid=cadf3aa2-6f3e-4c91-b6a3-a66239a3c28a","ios":"levelo://app?vid=cadf3aa2-6f3e-4c91-b6a3-a66239a3c28a"},"vehicle_type_id":"4","last_reported":1739189857,"current_range_meters":20400,"station_id":"ce4bhs12rcd13ifvqhvg","pricing_plan_id":"cebpf4jnsgd1na2vs0mg"},{"bike_id":"b41d8475-1b61-4022-b648-2777adae10ea","system_id":"levelo_inurba_marseille","lat":43.24167,"lon":5.36407,"is_reserved":false,"is_disabled":false,"rental_uris":{"android":"levelo://app?vid=b41d8475-1b61-4022-b648-2777adae10ea","ios":"levelo://app?vid=b41d8475-1b61-4022-b648-2777adae10ea"},"vehicle_type_id":"4","last_reported":1739189857,"current_range_meters":29600,"station_id":"cpo36qri1sfpv3e86is0","pricing_plan_id":"cebpf4jnsgd1na2vs0mg"},{"bike_id":"2d48d954-3aa3-4c02-b438-dcb7590c00f0","system_id":"levelo_inurba_marseille","lat":43.28158,"lon":5.42646,"is_reserved":false,"is_disabled":false,"rental_uris":{"android":"levelo://app?vid=2d48d954-3aa3-4c02-b438-dcb7590c00f0","ios":"levelo://app?vid=2d48d954-3aa3-4c02-b438-dcb7590c00f0"},"vehicle_type_id":"4","last_reported":1739189857,"current_range_meters":20000,"station_id":"ce4bhnh2rcd13ifvqgug","pricing_plan_id":"cebpf4jnsgd1na2vs0mg"},{"bike_id":"d2073a62-16cd-40e9-bcc5-59550ac04715","system_id":"levelo_inurba_marseille","lat":43.26491,"lon":5.39551,"is_reserved":false,"is_disabled":false,"rental_uris":{"android":"levelo://app?vid=d2073a62-16cd-40e9-bcc5-59550ac04715","ios":"levelo://app?vid=d2073a62-16cd-40e9-bcc5-59550ac04715"},"vehicle_type_id":"4","last_reported":1739189857,"current_range_meters":38800,"station_id":"ce4bhi12rcd13ifvqfq0","pricing_plan_id":"cebpf4jnsgd1na2vs0mg"},{"bike_id":"637b3212-865a-447f-8d9d-b5a29cb60af2","system_id":"levelo_inurba_marseille","lat":43.3015,"lon":5.3809,"is_reserved":false,"is_disabled":false,"rental_uris":{"android":"levelo://app?vid=637b3212-865a-447f-8d9d-b5a29cb60af2","ios":"levelo://app?vid=637b3212-865a-447f-8d9d-b5a29cb60af2"},"vehicle_type_id":"4","last_reported":1739189857,"current_range_meters":30400,"station_id":"ce4bgjp2rcd13ifvqbh0","pricing_plan_id":"cebpf4jnsgd1na2vs0mg"},{"bike_id":"bed1d796-5dfd-41a0-adca-82db978b7695","system_id":"levelo_inurba_marseille","lat":43.29423,"lon":5.38619,"is_reserved":false,"is_disabled":true,"rental_uris":{"android":"levelo://app?vid=bed1d796-5dfd-41a0-adca-82db978b7695","ios":"levelo://app?vid=bed1d796-5dfd-41a0-adca-82db978b7695"},"vehicle_type_id":"4","last_reported":1739189857,"current_range_meters":33600,"station_id":"ce4bh2h2rcd13ifvqdh0","pricing_plan_id":"cebpf4jnsgd1na2vs0mg"},{"bike_id":"675db009-adea-49d3-8326-1a055230edf4","system_id":"levelo_inurba_marseille","lat":43.29287,"lon":5.37458,"is_reserved":false,"is_disabled":false,"rental_uris":{"android":"levelo://app?vid=675db009-adea-49d3-8326-1a055230edf4","ios":"levelo://app?vid=675db009-adea-49d3-8326-1a055230edf4"},"vehicle_type_id":"4","last_reported":1739189857,"current_range_meters":36000,"station_id":"ce4bgi12rcd13ifvqb70","pricing_plan_id":"cebpf4jnsgd1na2vs0mg"},{"bike_id":"f0759fbb-078d-4c4a-94cf-56a10a126ebc","system_id":"levelo_inurba_marseille","lat":43.29947,"lon":5.36528,"is_reserved":false,"is_disabled":false,"rental_uris":{"android":"levelo://app?vid=f0759fbb-078d-4c4a-94cf-56a10a126ebc","ios":"levelo://app?vid=f0759fbb-078d-4c4a-94cf-56a10a126ebc"},"vehicle_type_id":"4","last_reported":1739189857,"current_range_meters":32400,"station_id":"ce4bgm92rcd13ifvqbr0","pricing_plan_id":"cebpf4jnsgd1na2vs0mg"},{"bike_id":"51ab7186-5043-4bed-baca-73708608a302","system_id":"levelo_inurba_marseille","lat":43.29584,"lon":5.37026,"is_reserved":false,"is_disabled":true,"rental_uris":{"android":"levelo://app?vid=51ab7186-5043-4bed-baca-73708608a302","ios":"levelo://app?vid=51ab7186-5043-4bed-baca-73708608a302"},"vehicle_type_id":"4","last_reported":1739189857,"current_range_meters":12000,"station_id":"","pricing_plan_id":"cebpf4jnsgd1na2vs0mg"},{"bike_id":"70478788-e3d0-4c62-88f0-f0f33b97aa7e","system_id":"levelo_inurba_marseille","lat":43.27215,"lon":5.39166,"is_reserved":false,"is_disabled":false,"rental_uris":{"android":"levelo://app?vid=70478788-e3d0-4c62-88f0-f0f33b97aa7e","ios":"levelo://app?vid=70478788-e3d0-4c62-88f0-f0f33b97aa7e"},"vehicle_type_id":"4","last_reported":1739189857,"current_range_meters":38800,"station_id":"ce4bhhp2rcd13ifvqfm0","pricing_plan_id":"cebpf4jnsgd1na2vs0mg"},{"bike_id":"18e2ee96-ba19-4748-909f-e879ca84f5b5","system_id":"levelo_inurba_marseille","lat":43.27807,"lon":5.40731,"is_reserved":false,"is_disabled":false,"rental_uris":{"android":"levelo://app?vid=18e2ee96-ba19-4748-909f-e879ca84f5b5","ios":"levelo://app?vid=18e2ee96-ba19-4748-909f-e879ca84f5b5"},"vehicle_type_id":"4","last_reported":1739189857,"current_range_meters":38400,"station_id":"ce4bhnh2rcd13ifvqgtg","pricing_plan_id":"cebpf4jnsgd1na2vs0mg"},{"bike_id":"6bf584aa-4c4f-4f88-a9b6-6d0eb0dcbbb2","system_id":"levelo_inurba_marseille","lat":43.31357,"lon":5.36713,"is_reserved":false,"is_disabled":false,"rental_uris":{"android":"levelo://app?vid=6bf584aa-4c4f-4f88-a9b6-6d0eb0dcbbb2","ios":"levelo://app?vid=6bf584aa-4c4f-4f88-a9b6-6d0eb0dcbbb2"},"vehicle_type_id":"4","last_reported":1739189857,"current_range_meters":38800,"station_id":"ce4bgr92rcd13ifvqc6g","pricing_plan_id":"cebpf4jnsgd1na2vs0mg"},{"bike_id":"35d40514-edc7-4379-81cc-5baf740ed43b","system_id":"levelo_inurba_marseille","lat":43.29973,"lon":5.385,"is_reserved":false,"is_disabled":false,"rental_uris":{"android":"levelo://app?vid=35d40514-edc7-4379-81cc-5baf740ed43b","ios":"levelo://app?vid=35d40514-edc7-4379-81cc-5baf740ed43b"},"vehicle_type_id":"4","last_reported":1739189857,"current_range_meters":31200,"station_id":"ce4bgj92rcd13ifvqbd0","pricing_plan_id":"cebpf4jnsgd1na2vs0mg"},{"bike_id":"eea5f8eb-f0ca-4c94-b449-1f2fc875a9fe","system_id":"levelo_inurba_marseille","lat":43.2871,"lon":5.39978,"is_reserved":false,"is_disabled":false,"rental_uris":{"android":"levelo://app?vid=eea5f8eb-f0ca-4c94-b449-1f2fc875a9fe","ios":"levelo://app?vid=eea5f8eb-f0ca-4c94-b449-1f2fc875a9fe"},"vehicle_type_id":"4","last_reported":1739189857,"current_range_meters":24000,"station_id":"ce4bho92rcd13ifvqh3g","pricing_plan_id":"cebpf4jnsgd1na2vs0mg"},{"bike_id":"6a6e56ea-2eac-4727-b5bb-30ea17496dc7","system_id":"levelo_inurba_marseille","lat":43.28685,"lon":5.374,"is_reserved":false,"is_disabled":false,"rental_uris":{"android":"levelo://app?vid=6a6e56ea-2eac-4727-b5bb-30ea17496dc7","ios":"levelo://app?vid=6a6e56ea-2eac-4727-b5bb-30ea17496dc7"},"vehicle_type_id":"4","last_reported":1739189857,"current_range_meters":39200,"station_id":"ce4bh3p2rcd13ifvqdq0","pricing_plan_id":"cebpf4jnsgd1na2vs0mg"},{"bike_id":"14f83f93-1c84-46be-a879-d5ef2af23a46","system_id":"levelo_inurba_marseille","lat":43.23959,"lon":5.36626,"is_reserved":false,"is_disabled":false,"rental_uris":{"android":"levelo://app?vid=14f83f93-1c84-46be-a879-d5ef2af23a46","ios":"levelo://app?vid=14f83f93-1c84-46be-a879-d5ef2af23a46"},"vehicle_type_id":"4","last_reported":1739189857,"current_range_meters":14000,"station_id":"ce4bhi12rcd13ifvqfp0","pricing_plan_id":"cebpf4jnsgd1na2vs0mg"},{"bike_id":"e8b94338-d20e-4201-aad2-61b86d7c71d9","system_id":"levelo_inurba_marseille","lat":43.25003,"lon":5.38933,"is_reserved":false,"is_disabled":false,"rental_uris":{"android":"levelo://app?vid=e8b94338-d20e-4201-aad2-61b86d7c71d9","ios":"levelo://app?vid=e8b94338-d20e-4201-aad2-61b86d7c71d9"},"vehicle_type_id":"4","last_reported":1739189857,"current_range_meters":24800,"station_id":"ce4bhgp2rcd13ifvqfd0","pricing_plan_id":"cebpf4jnsgd1na2vs0mg"},{"bike_id":"3908e538-00fd-4ced-97b6-6632bb364ff4","system_id":"levelo_inurba_marseille","lat":43.24992,"lon":5.38932,"is_reserved":false,"is_disabled":false,"rental_uris":{"android":"levelo://app?vid=3908e538-00fd-4ced-97b6-6632bb364ff4","ios":"levelo://app?vid=3908e538-00fd-4ced-97b6-6632bb364ff4"},"vehicle_type_id":"4","last_reported":1739189857,"current_range_meters":23200,"station_id":"ce4bhgp2rcd13ifvqfd0","pricing_plan_id":"cebpf4jnsgd1na2vs0mg"},{"bike_id":"cfaf55cc-98e0-4b5b-a060-c1d4662467a4","system_id":"levelo_inurba_marseille","lat":43.33613,"lon":5.41016,"is_reserved":false,"is_disabled":false,"rental_uris":{"android":"levelo://app?vid=cfaf55cc-98e0-4b5b-a060-c1d4662467a4","ios":"levelo://app?vid=cfaf55cc-98e0-4b5b-a060-c1d4662467a4"},"vehicle_type_id":"4","last_reported":1739189857,"current_range_meters":30400,"station_id":"ce4bhqh2rcd13ifvqhmg","pricing_plan_id":"cebpf4jnsgd1na2vs0mg"},{"bike_id":"0cdcc8f7-f674-43f1-9b73-0f1949650402","system_id":"levelo_inurba_marseille","lat":43.2396,"lon":5.36635,"is_reserved":false,"is_disabled":false,"rental_uris":{"android":"levelo://app?vid=0cdcc8f7-f674-43f1-9b73-0f1949650402","ios":"levelo://app?vid=0cdcc8f7-f674-43f1-9b73-0f1949650402"},"vehicle_type_id":"4","last_reported":1739189857,"current_range_meters":38400,"station_id":"ce4bhi12rcd13ifvqfp0","pricing_plan_id":"cebpf4jnsgd1na2vs0mg"},{"bike_id":"acbbe2a4-acdb-4f1c-a74c-d789b74c69fd","system_id":"levelo_inurba_marseille","lat":43.26231,"lon":5.40451,"is_reserved":false,"is_disabled":false,"rental_uris":{"android":"levelo://app?vid=acbbe2a4-acdb-4f1c-a74c-d789b74c69fd","ios":"levelo://app?vid=acbbe2a4-acdb-4f1c-a74c-d789b74c69fd"},"vehicle_type_id":"4","last_reported":1739189857,"current_range_meters":18000,"station_id":"ce4bhmh2rcd13ifvqgmg","pricing_plan_id":"cebpf4jnsgd1na2vs0mg"},{"bike_id":"f5d7d961-486e-4e4d-9d0f-b439e4d7f6b1","system_id":"levelo_inurba_marseille","lat":43.305405,"lon":5.367122,"is_reserved":false,"is_disabled":false,"rental_uris":{"android":"levelo://app?vid=f5d7d961-486e-4e4d-9d0f-b439e4d7f6b1","ios":"levelo://app?vid=f5d7d961-486e-4e4d-9d0f-b439e4d7f6b1"},"vehicle_type_id":"4","last_reported":1739189857,"current_range_meters":36800,"station_id":"ce4bgrp2rcd13ifvqc9g","pricing_plan_id":"cebpf4jnsgd1na2vs0mg"},{"bike_id":"66776b49-5a24-4829-aa64-d290023efbe7","system_id":"levelo_inurba_marseille","lat":43.31874,"lon":5.40737,"is_reserved":false,"is_disabled":false,"rental_uris":{"android":"levelo://app?vid=66776b49-5a24-4829-aa64-d290023efbe7","ios":"levelo://app?vid=66776b49-5a24-4829-aa64-d290023efbe7"},"vehicle_type_id":"4","last_reported":1739189857,"current_range_meters":38800,"station_id":"ce4bhq12rcd13ifvqhig","pricing_plan_id":"cebpf4jnsgd1na2vs0mg"},{"bike_id":"ee079ffa-4416-4a91-bc98-3bd665acea3b","system_id":"levelo_inurba_marseille","lat":43.33727,"lon":5.39177,"is_reserved":false,"is_disabled":false,"rental_uris":{"android":"levelo://app?vid=ee079ffa-4416-4a91-bc98-3bd665acea3b","ios":"levelo://app?vid=ee079ffa-4416-4a91-bc98-3bd665acea3b"},"vehicle_type_id":"4","last_reported":1739189857,"current_range_meters":39200,"station_id":"ce4bhr92rcd13ifvqhsg","pricing_plan_id":"cebpf4jnsgd1na2vs0mg"},{"bike_id":"1fa82dc6-47d4-4356-bbca-393bf4461726","system_id":"levelo_inurba_marseille","lat":43.23957,"lon":5.36634,"is_reserved":false,"is_disabled":false,"rental_uris":{"android":"levelo://app?vid=1fa82dc6-47d4-4356-bbca-393bf4461726","ios":"levelo://app?vid=1fa82dc6-47d4-4356-bbca-393bf4461726"},"vehicle_type_id":"4","last_reported":1739189857,"current_range_meters":24000,"station_id":"ce4bhi12rcd13ifvqfp0","pricing_plan_id":"cebpf4jnsgd1na2vs0mg"},{"bike_id":"98754fe9-cb55-4db3-ac06-4ba83f0ae895","system_id":"levelo_inurba_marseille","lat":43.30467,"lon":5.37914,"is_reserved":false,"is_disabled":false,"rental_uris":{"android":"levelo://app?vid=98754fe9-cb55-4db3-ac06-4ba83f0ae895","ios":"levelo://app?vid=98754fe9-cb55-4db3-ac06-4ba83f0ae895"},"vehicle_type_id":"4","last_reported":1739189857,"current_range_meters":28400,"station_id":"ce4bgup2rcd13ifvqcn0","pricing_plan_id":"cebpf4jnsgd1na2vs0mg"},{"bike_id":"6e0a8eb8-1830-4586-9cf6-125e1f050f96","system_id":"levelo_inurba_marseille","lat":43.26209,"lon":5.37437,"is_reserved":false,"is_disabled":false,"rental_uris":{"android":"levelo://app?vid=6e0a8eb8-1830-4586-9cf6-125e1f050f96","ios":"levelo://app?vid=6e0a8eb8-1830-4586-9cf6-125e1f050f96"},"vehicle_type_id":"4","last_reported":1739189857,"current_range_meters":14000,"station_id":"ce4bhgp2rcd13ifvqfc0","pricing_plan_id":"cebpf4jnsgd1na2vs0mg"},{"bike_id":"8538082d-d32f-4abb-b19f-d0a609e586ba","system_id":"levelo_inurba_marseille","lat":43.34143,"lon":5.409,"is_reserved":false,"is_disabled":false,"rental_uris":{"android":"levelo://app?vid=8538082d-d32f-4abb-b19f-d0a609e586ba","ios":"levelo://app?vid=8538082d-d32f-4abb-b19f-d0a609e586ba"},"vehicle_type_id":"4","last_reported":1739189857,"current_range_meters":38800,"station_id":"ce4bhqh2rcd13ifvqhlg","pricing_plan_id":"cebpf4jnsgd1na2vs0mg"},{"bike_id":"67c77a93-95e0-4dde-b030-1b6a0f65cf9a","system_id":"levelo_inurba_marseille","lat":43.271856,"lon":5.410033,"is_reserved":false,"is_disabled":false,"rental_uris":{"android":"levelo://app?vid=67c77a93-95e0-4dde-b030-1b6a0f65cf9a","ios":"levelo://app?vid=67c77a93-95e0-4dde-b030-1b6a0f65cf9a"},"vehicle_type_id":"4","last_reported":1739189857,"current_range_meters":12800,"station_id":"ce4bhl12rcd13ifvqgf0","pricing_plan_id":"cebpf4jnsgd1na2vs0mg"},{"bike_id":"a19c1ced-506b-4c8a-b5bd-15fe6933ad7c","system_id":"levelo_inurba_marseille","lat":43.25713,"lon":5.4111,"is_reserved":false,"is_disabled":false,"rental_uris":{"android":"levelo://app?vid=a19c1ced-506b-4c8a-b5bd-15fe6933ad7c","ios":"levelo://app?vid=a19c1ced-506b-4c8a-b5bd-15fe6933ad7c"},"vehicle_type_id":"4","last_reported":1739189857,"current_range_meters":38800,"station_id":"ce4bhkp2rcd13ifvqgd0","pricing_plan_id":"cebpf4jnsgd1na2vs0mg"},{"bike_id":"2b224cb5-81d2-4fae-9b53-9e89b202ec4a","system_id":"levelo_inurba_marseille","lat":43.27401,"lon":5.39377,"is_reserved":false,"is_disabled":false,"rental_uris":{"android":"levelo://app?vid=2b224cb5-81d2-4fae-9b53-9e89b202ec4a","ios":"levelo://app?vid=2b224cb5-81d2-4fae-9b53-9e89b202ec4a"},"vehicle_type_id":"4","last_reported":1739189857,"current_range_meters":38800,"station_id":"ce4bhdp2rcd13ifvqf20","pricing_plan_id":"cebpf4jnsgd1na2vs0mg"},{"bike_id":"f53564a4-cbf9-4b55-bb72-8eda8cad3a05","system_id":"levelo_inurba_marseille","lat":43.27074,"lon":5.42291,"is_reserved":false,"is_disabled":false,"rental_uris":{"android":"levelo://app?vid=f53564a4-cbf9-4b55-bb72-8eda8cad3a05","ios":"levelo://app?vid=f53564a4-cbf9-4b55-bb72-8eda8cad3a05"},"vehicle_type_id":"4","last_reported":1739189857,"current_range_meters":23200,"station_id":"ce4bhk92rcd13ifvqgb0","pricing_plan_id":"cebpf4jnsgd1na2vs0mg"},{"bike_id":"094ce0d3-0869-4a4e-bc44-e588765eb895","system_id":"levelo_inurba_marseille","lat":43.27566,"lon":5.38404,"is_reserved":false,"is_disabled":false,"rental_uris":{"android":"levelo://app?vid=094ce0d3-0869-4a4e-bc44-e588765eb895","ios":"levelo://app?vid=094ce0d3-0869-4a4e-bc44-e588765eb895"},"vehicle_type_id":"4","last_reported":1739189857,"current_range_meters":16000,"station_id":"ce4bhh92rcd13ifvqfi0","pricing_plan_id":"cebpf4jnsgd1na2vs0mg"},{"bike_id":"05f6ac8f-0127-4e39-bd11-d53a74225ef8","system_id":"levelo_inurba_marseille","lat":43.27874,"lon":5.40597,"is_reserved":false,"is_disabled":true,"rental_uris":{"android":"levelo://app?vid=05f6ac8f-0127-4e39-bd11-d53a74225ef8","ios":"levelo://app?vid=05f6ac8f-0127-4e39-bd11-d53a74225ef8"},"vehicle_type_id":"4","last_reported":1739189857,"current_range_meters":0,"station_id":"","pricing_plan_id":"cebpf4jnsgd1na2vs0mg"},{"bike_id":"332b27ed-42ed-43eb-a83e-ad06a1eae9b4","system_id":"levelo_inurba_marseille","lat":43.30138,"lon":5.39866,"is_reserved":false,"is_disabled":false,"rental_uris":{"android":"levelo://app?vid=332b27ed-42ed-43eb-a83e-ad06a1eae9b4","ios":"levelo://app?vid=332b27ed-42ed-43eb-a83e-ad06a1eae9b4"},"vehicle_type_id":"4","last_reported":1739189857,"current_range_meters":37600,"station_id":"ce4bh0h2rcd13ifvqd40","pricing_plan_id":"cebpf4jnsgd1na2vs0mg"},{"bike_id":"9fa1b70c-346d-476c-8e94-22d58dd439d3","system_id":"levelo_inurba_marseille","lat":43.29576,"lon":5.37528,"is_reserved":false,"is_disabled":false,"rental_uris":{"android":"levelo://app?vid=9fa1b70c-346d-476c-8e94-22d58dd439d3","ios":"levelo://app?vid=9fa1b70c-346d-476c-8e94-22d58dd439d3"},"vehicle_type_id":"4","last_reported":1739189857,"current_range_meters":2800,"station_id":"ce4bgh92rcd13ifvqb50","pricing_plan_id":"cebpf4jnsgd1na2vs0mg"},{"bike_id":"d1730069-7c7b-40d7-ae95-b6a6617479d6","system_id":"levelo_inurba_marseille","lat":43.30619,"lon":5.37247,"is_reserved":false,"is_disabled":false,"rental_uris":{"android":"levelo://app?vid=d1730069-7c7b-40d7-ae95-b6a6617479d6","ios":"levelo://app?vid=d1730069-7c7b-40d7-ae95-b6a6617479d6"},"vehicle_type_id":"4","last_reported":1739189857,"current_range_meters":33600,"station_id":"ce4bgqh2rcd13ifvqc4g","pricing_plan_id":"cebpf4jnsgd1na2vs0mg"},{"bike_id":"efe7637c-9f55-4017-a969-c371bd5e3a3b","system_id":"levelo_inurba_marseille","lat":43.24076,"lon":5.37753,"is_reserved":false,"is_disabled":false,"rental_uris":{"android":"levelo://app?vid=efe7637c-9f55-4017-a969-c371bd5e3a3b","ios":"levelo://app?vid=efe7637c-9f55-4017-a969-c371bd5e3a3b"},"vehicle_type_id":"4","last_reported":1739189857,"current_range_meters":37600,"station_id":"ce4bhnp2rcd13ifvqgvg","pricing_plan_id":"cebpf4jnsgd1na2vs0mg"},{"bike_id":"6669319a-3311-46f9-855f-f1eef40cf4ce","system_id":"levelo_inurba_marseille","lat":43.293001,"lon":5.37454,"is_reserved":false,"is_disabled":true,"rental_uris":{"android":"levelo://app?vid=6669319a-3311-46f9-855f-f1eef40cf4ce","ios":"levelo://app?vid=6669319a-3311-46f9-855f-f1eef40cf4ce"},"vehicle_type_id":"4","last_reported":1739189857,"current_range_meters":16800,"station_id":"ce4bgi12rcd13ifvqb70","pricing_plan_id":"cebpf4jnsgd1na2vs0mg"},{"bike_id":"a00481ec-02ea-49dc-8d55-5199fc7162d1","system_id":"levelo_inurba_marseille","lat":43.27209,"lon":5.39194,"is_reserved":false,"is_disabled":false,"rental_uris":{"android":"levelo://app?vid=a00481ec-02ea-49dc-8d55-5199fc7162d1","ios":"levelo://app?vid=a00481ec-02ea-49dc-8d55-5199fc7162d1"},"vehicle_type_id":"4","last_reported":1739189857,"current_range_meters":36800,"station_id":"ce4bhhp2rcd13ifvqfm0","pricing_plan_id":"cebpf4jnsgd1na2vs0mg"},{"bike_id":"8b2f0194-9ba9-4ab1-a563-17899fd8fcf8","system_id":"levelo_inurba_marseille","lat":43.30172,"lon":5.38087,"is_reserved":false,"is_disabled":false,"rental_uris":{"android":"levelo://app?vid=8b2f0194-9ba9-4ab1-a563-17899fd8fcf8","ios":"levelo://app?vid=8b2f0194-9ba9-4ab1-a563-17899fd8fcf8"},"vehicle_type_id":"4","last_reported":1739189857,"current_range_meters":38400,"station_id":"ce4bgjp2rcd13ifvqbh0","pricing_plan_id":"cebpf4jnsgd1na2vs0mg"},{"bike_id":"fda33aa2-c3d8-4d28-94cd-7ac8107070d6","system_id":"levelo_inurba_marseille","lat":43.28687,"lon":5.37404,"is_reserved":false,"is_disabled":false,"rental_uris":{"android":"levelo://app?vid=fda33aa2-c3d8-4d28-94cd-7ac8107070d6","ios":"levelo://app?vid=fda33aa2-c3d8-4d28-94cd-7ac8107070d6"},"vehicle_type_id":"4","last_reported":1739189857,"current_range_meters":38000,"station_id":"ce4bh3p2rcd13ifvqdq0","pricing_plan_id":"cebpf4jnsgd1na2vs0mg"},{"bike_id":"f4b26390-acd7-49a5-b9ae-eb2e2296da89","system_id":"levelo_inurba_marseille","lat":43.32483,"lon":5.36559,"is_reserved":false,"is_disabled":false,"rental_uris":{"android":"levelo://app?vid=f4b26390-acd7-49a5-b9ae-eb2e2296da89","ios":"levelo://app?vid=f4b26390-acd7-49a5-b9ae-eb2e2296da89"},"vehicle_type_id":"4","last_reported":1739189857,"current_range_meters":38800,"station_id":"ce4bhs12rcd13ifvqhvg","pricing_plan_id":"cebpf4jnsgd1na2vs0mg"},{"bike_id":"fd7cd6eb-8023-4160-9061-39fa556cf25c","system_id":"levelo_inurba_marseille","lat":43.30335,"lon":5.40469,"is_reserved":false,"is_disabled":true,"rental_uris":{"android":"levelo://app?vid=fd7cd6eb-8023-4160-9061-39fa556cf25c","ios":"levelo://app?vid=fd7cd6eb-8023-4160-9061-39fa556cf25c"},"vehicle_type_id":"4","last_reported":1739189857,"current_range_meters":33200,"station_id":"ce4bh012rcd13ifvqd10","pricing_plan_id":"cebpf4jnsgd1na2vs0mg"},{"bike_id":"0e21f7aa-06e5-493f-93a8-8a8d203cf3cf","system_id":"levelo_inurba_marseille","lat":43.31693,"lon":5.40481,"is_reserved":false,"is_disabled":false,"rental_uris":{"android":"levelo://app?vid=0e21f7aa-06e5-493f-93a8-8a8d203cf3cf","ios":"levelo://app?vid=0e21f7aa-06e5-493f-93a8-8a8d203cf3cf"},"vehicle_type_id":"4","last_reported":1739189857,"current_range_meters":21600,"station_id":"ce4bh012rcd13ifvqd00","pricing_plan_id":"cebpf4jnsgd1na2vs0mg"},{"bike_id":"d32849cf-4c14-4032-9063-172d06d3f04f","system_id":"levelo_inurba_marseille","lat":43.23192,"lon":5.35571,"is_reserved":false,"is_disabled":false,"rental_uris":{"android":"levelo://app?vid=d32849cf-4c14-4032-9063-172d06d3f04f","ios":"levelo://app?vid=d32849cf-4c14-4032-9063-172d06d3f04f"},"vehicle_type_id":"4","last_reported":1739189857,"current_range_meters":37600,"station_id":"ce4bhu92rcd13ifvqi70","pricing_plan_id":"cebpf4jnsgd1na2vs0mg"},{"bike_id":"ec86d6d3-a6c8-4b32-94bb-4d0b6193fa2a","system_id":"levelo_inurba_marseille","lat":43.29308,"lon":5.3717,"is_reserved":false,"is_disabled":false,"rental_uris":{"android":"levelo://app?vid=ec86d6d3-a6c8-4b32-94bb-4d0b6193fa2a","ios":"levelo://app?vid=ec86d6d3-a6c8-4b32-94bb-4d0b6193fa2a"},"vehicle_type_id":"4","last_reported":1739189857,"current_range_meters":38800,"station_id":"ce4bgh92rcd13ifvqb40","pricing_plan_id":"cebpf4jnsgd1na2vs0mg"},{"bike_id":"fa17d990-ca8c-4cca-afc1-357fad4de9f2","system_id":"levelo_inurba_marseille","lat":43.25817,"lon":5.3942,"is_reserved":false,"is_disabled":false,"rental_uris":{"android":"levelo://app?vid=fa17d990-ca8c-4cca-afc1-357fad4de9f2","ios":"levelo://app?vid=fa17d990-ca8c-4cca-afc1-357fad4de9f2"},"vehicle_type_id":"4","last_reported":1739189857,"current_range_meters":39200,"station_id":"ce4bhip2rcd13ifvqft0","pricing_plan_id":"cebpf4jnsgd1na2vs0mg"},{"bike_id":"9a61f1b5-e674-471c-bc9c-e7e7fd89df11","system_id":"levelo_inurba_marseille","lat":43.27059,"lon":5.40268,"is_reserved":false,"is_disabled":false,"rental_uris":{"android":"levelo://app?vid=9a61f1b5-e674-471c-bc9c-e7e7fd89df11","ios":"levelo://app?vid=9a61f1b5-e674-471c-bc9c-e7e7fd89df11"},"vehicle_type_id":"4","last_reported":1739189857,"current_range_meters":24400,"station_id":"ce4bhk92rcd13ifvqgc0","pricing_plan_id":"cebpf4jnsgd1na2vs0mg"},{"bike_id":"1359346f-5246-4db4-9edb-1377b7f3f00f","system_id":"levelo_inurba_marseille","lat":43.23058,"lon":5.35493,"is_reserved":false,"is_disabled":false,"rental_uris":{"android":"levelo://app?vid=1359346f-5246-4db4-9edb-1377b7f3f00f","ios":"levelo://app?vid=1359346f-5246-4db4-9edb-1377b7f3f00f"},"vehicle_type_id":"4","last_reported":1739189857,"current_range_meters":38000,"station_id":"cpo3342slgdg3j2ifvpg","pricing_plan_id":"cebpf4jnsgd1na2vs0mg"},{"bike_id":"8017650e-fddd-4161-8c1a-75916b0435b9","system_id":"levelo_inurba_marseille","lat":43.24182,"lon":5.39735,"is_reserved":false,"is_disabled":false,"rental_uris":{"android":"levelo://app?vid=8017650e-fddd-4161-8c1a-75916b0435b9","ios":"levelo://app?vid=8017650e-fddd-4161-8c1a-75916b0435b9"},"vehicle_type_id":"4","last_reported":1739189857,"current_range_meters":38400,"station_id":"ce4bhn12rcd13ifvqgpg","pricing_plan_id":"cebpf4jnsgd1na2vs0mg"},{"bike_id":"61c2d911-dd8e-486d-a0bf-4941c2e96fee","system_id":"levelo_inurba_marseille","lat":43.29161,"lon":5.37165,"is_reserved":false,"is_disabled":false,"rental_uris":{"android":"levelo://app?vid=61c2d911-dd8e-486d-a0bf-4941c2e96fee","ios":"levelo://app?vid=61c2d911-dd8e-486d-a0bf-4941c2e96fee"},"vehicle_type_id":"4","last_reported":1739189857,"current_range_meters":27600,"station_id":"ce4bha92rcd13ifvqeh0","pricing_plan_id":"cebpf4jnsgd1na2vs0mg"},{"bike_id":"621f7b88-0667-4bf3-bb6e-1cbefb472a16","system_id":"levelo_inurba_marseille","lat":43.28149,"lon":5.42624,"is_reserved":false,"is_disabled":false,"rental_uris":{"android":"levelo://app?vid=621f7b88-0667-4bf3-bb6e-1cbefb472a16","ios":"levelo://app?vid=621f7b88-0667-4bf3-bb6e-1cbefb472a16"},"vehicle_type_id":"4","last_reported":1739189857,"current_range_meters":6800,"station_id":"ce4bhnh2rcd13ifvqgug","pricing_plan_id":"cebpf4jnsgd1na2vs0mg"},{"bike_id":"386a5c6b-0374-40ee-8fee-068f2ec38f9b","system_id":"levelo_inurba_marseille","lat":43.23958,"lon":5.36631,"is_reserved":false,"is_disabled":false,"rental_uris":{"android":"levelo://app?vid=386a5c6b-0374-40ee-8fee-068f2ec38f9b","ios":"levelo://app?vid=386a5c6b-0374-40ee-8fee-068f2ec38f9b"},"vehicle_type_id":"4","last_reported":1739189857,"current_range_meters":16400,"station_id":"ce4bhi12rcd13ifvqfp0","pricing_plan_id":"cebpf4jnsgd1na2vs0mg"},{"bike_id":"d4897387-d94a-4836-8801-67bff7723442","system_id":"levelo_inurba_marseille","lat":43.23185,"lon":5.39981,"is_reserved":false,"is_disabled":true,"rental_uris":{"android":"levelo://app?vid=d4897387-d94a-4836-8801-67bff7723442","ios":"levelo://app?vid=d4897387-d94a-4836-8801-67bff7723442"},"vehicle_type_id":"4","last_reported":1739189857,"current_range_meters":0,"station_id":"ce4bhn12rcd13ifvqgqg","pricing_plan_id":"cebpf4jnsgd1na2vs0mg"},{"bike_id":"526cc8c3-b20d-49fb-87af-c381b15295c6","system_id":"levelo_inurba_marseille","lat":43.24404,"lon":5.37067,"is_reserved":false,"is_disabled":false,"rental_uris":{"android":"levelo://app?vid=526cc8c3-b20d-49fb-87af-c381b15295c6","ios":"levelo://app?vid=526cc8c3-b20d-49fb-87af-c381b15295c6"},"vehicle_type_id":"4","last_reported":1739189857,"current_range_meters":29600,"station_id":"ce4bhhh2rcd13ifvqfk0","pricing_plan_id":"cebpf4jnsgd1na2vs0mg"},{"bike_id":"9ed77109-43e5-441b-b7a7-20bb19a32601","system_id":"levelo_inurba_marseille","lat":43.29065,"lon":5.37161,"is_reserved":false,"is_disabled":false,"rental_uris":{"android":"levelo://app?vid=9ed77109-43e5-441b-b7a7-20bb19a32601","ios":"levelo://app?vid=9ed77109-43e5-441b-b7a7-20bb19a32601"},"vehicle_type_id":"4","last_reported":1739189857,"current_range_meters":35200,"station_id":"ce4bh5p2rcd13ifvqe4g","pricing_plan_id":"cebpf4jnsgd1na2vs0mg"},{"bike_id":"cb0f8030-7612-42fa-b557-e3d6b3c0424b","system_id":"levelo_inurba_marseille","lat":43.28005,"lon":5.40005,"is_reserved":false,"is_disabled":false,"rental_uris":{"android":"levelo://app?vid=cb0f8030-7612-42fa-b557-e3d6b3c0424b","ios":"levelo://app?vid=cb0f8030-7612-42fa-b557-e3d6b3c0424b"},"vehicle_type_id":"4","last_reported":1739189857,"current_range_meters":36400,"station_id":"ce4bho92rcd13ifvqh4g","pricing_plan_id":"cebpf4jnsgd1na2vs0mg"},{"bike_id":"5204b727-c44d-4ec6-8ea2-acfda2c12272","system_id":"levelo_inurba_marseille","lat":43.3246,"lon":5.36547,"is_reserved":false,"is_disabled":false,"rental_uris":{"android":"levelo://app?vid=5204b727-c44d-4ec6-8ea2-acfda2c12272","ios":"levelo://app?vid=5204b727-c44d-4ec6-8ea2-acfda2c12272"},"vehicle_type_id":"4","last_reported":1739189857,"current_range_meters":26000,"station_id":"ce4bhs12rcd13ifvqhvg","pricing_plan_id":"cebpf4jnsgd1na2vs0mg"},{"bike_id":"6d6c1a71-cbc1-478c-b892-05b3c8cff896","system_id":"levelo_inurba_marseille","lat":43.30538,"lon":5.36504,"is_reserved":false,"is_disabled":false,"rental_uris":{"android":"levelo://app?vid=6d6c1a71-cbc1-478c-b892-05b3c8cff896","ios":"levelo://app?vid=6d6c1a71-cbc1-478c-b892-05b3c8cff896"},"vehicle_type_id":"4","last_reported":1739189857,"current_range_meters":38000,"station_id":"ce4bgs12rcd13ifvqcag","pricing_plan_id":"cebpf4jnsgd1na2vs0mg"},{"bike_id":"f2360dd3-d0c2-4c0e-abb3-d6a43cc62559","system_id":"levelo_inurba_marseille","lat":43.2957,"lon":5.39964,"is_reserved":false,"is_disabled":false,"rental_uris":{"android":"levelo://app?vid=f2360dd3-d0c2-4c0e-abb3-d6a43cc62559","ios":"levelo://app?vid=f2360dd3-d0c2-4c0e-abb3-d6a43cc62559"},"vehicle_type_id":"4","last_reported":1739189857,"current_range_meters":25200,"station_id":"ce4bh312rcd13ifvqdj0","pricing_plan_id":"cebpf4jnsgd1na2vs0mg"},{"bike_id":"5597fbbe-01c0-4c46-9be1-fdc8f64b8f5c","system_id":"levelo_inurba_marseille","lat":43.30946,"lon":5.39035,"is_reserved":false,"is_disabled":false,"rental_uris":{"android":"levelo://app?vid=5597fbbe-01c0-4c46-9be1-fdc8f64b8f5c","ios":"levelo://app?vid=5597fbbe-01c0-4c46-9be1-fdc8f64b8f5c"},"vehicle_type_id":"4","last_reported":1739189857,"current_range_meters":37600,"station_id":"","pricing_plan_id":"cebpf4jnsgd1na2vs0mg"},{"bike_id":"444df73d-d66d-4ef2-9b59-6e409b523fa0","system_id":"levelo_inurba_marseille","lat":43.28003,"lon":5.40007,"is_reserved":false,"is_disabled":false,"rental_uris":{"android":"levelo://app?vid=444df73d-d66d-4ef2-9b59-6e409b523fa0","ios":"levelo://app?vid=444df73d-d66d-4ef2-9b59-6e409b523fa0"},"vehicle_type_id":"4","last_reported":1739189857,"current_range_meters":38800,"station_id":"ce4bho92rcd13ifvqh4g","pricing_plan_id":"cebpf4jnsgd1na2vs0mg"},{"bike_id":"cc7043ec-4a0e-4347-91c6-c38a32330585","system_id":"levelo_inurba_marseille","lat":43.28939,"lon":5.3839,"is_reserved":false,"is_disabled":false,"rental_uris":{"android":"levelo://app?vid=cc7043ec-4a0e-4347-91c6-c38a32330585","ios":"levelo://app?vid=cc7043ec-4a0e-4347-91c6-c38a32330585"},"vehicle_type_id":"4","last_reported":1739189857,"current_range_meters":39200,"station_id":"ce4bh612rcd13ifvqe6g","pricing_plan_id":"cebpf4jnsgd1na2vs0mg"},{"bike_id":"747290f5-d9dd-4c4e-88dc-043a24163afe","system_id":"levelo_inurba_marseille","lat":43.2465,"lon":5.38863,"is_reserved":false,"is_disabled":false,"rental_uris":{"android":"levelo://app?vid=747290f5-d9dd-4c4e-88dc-043a24163afe","ios":"levelo://app?vid=747290f5-d9dd-4c4e-88dc-043a24163afe"},"vehicle_type_id":"4","last_reported":1739189857,"current_range_meters":39200,"station_id":"ce4bhg12rcd13ifvqf60","pricing_plan_id":"cebpf4jnsgd1na2vs0mg"},{"bike_id":"29cac0d6-e0de-4b5c-ab01-5ab56535b15a","system_id":"levelo_inurba_marseille","lat":43.28718,"lon":5.39996,"is_reserved":false,"is_disabled":true,"rental_uris":{"android":"levelo://app?vid=29cac0d6-e0de-4b5c-ab01-5ab56535b15a","ios":"levelo://app?vid=29cac0d6-e0de-4b5c-ab01-5ab56535b15a"},"vehicle_type_id":"4","last_reported":1739189857,"current_range_meters":38800,"station_id":"ce4bho92rcd13ifvqh3g","pricing_plan_id":"cebpf4jnsgd1na2vs0mg"},{"bike_id":"ad624044-36c8-4e6b-bed4-a1b1869f98c7","system_id":"levelo_inurba_marseille","lat":43.29988,"lon":5.37209,"is_reserved":false,"is_disabled":false,"rental_uris":{"android":"levelo://app?vid=ad624044-36c8-4e6b-bed4-a1b1869f98c7","ios":"levelo://app?vid=ad624044-36c8-4e6b-bed4-a1b1869f98c7"},"vehicle_type_id":"4","last_reported":1739189857,"current_range_meters":39200,"station_id":"ce4bgr92rcd13ifvqc7g","pricing_plan_id":"cebpf4jnsgd1na2vs0mg"},{"bike_id":"9571229b-d1f4-46a1-804f-ae5b773e1183","system_id":"levelo_inurba_marseille","lat":43.29983,"lon":5.38484,"is_reserved":false,"is_disabled":false,"rental_uris":{"android":"levelo://app?vid=9571229b-d1f4-46a1-804f-ae5b773e1183","ios":"levelo://app?vid=9571229b-d1f4-46a1-804f-ae5b773e1183"},"vehicle_type_id":"4","last_reported":1739189857,"current_range_meters":38400,"station_id":"ce4bgj92rcd13ifvqbd0","pricing_plan_id":"cebpf4jnsgd1na2vs0mg"},{"bike_id":"3054e8ed-603d-4aff-9710-431f0525d9ef","system_id":"levelo_inurba_marseille","lat":43.2742,"lon":5.39386,"is_reserved":false,"is_disabled":false,"rental_uris":{"android":"levelo://app?vid=3054e8ed-603d-4aff-9710-431f0525d9ef","ios":"levelo://app?vid=3054e8ed-603d-4aff-9710-431f0525d9ef"},"vehicle_type_id":"4","last_reported":1739189857,"current_range_meters":39200,"station_id":"ce4bhdp2rcd13ifvqf20","pricing_plan_id":"cebpf4jnsgd1na2vs0mg"},{"bike_id":"9f443121-e8ff-4aac-bc9a-d9077c8e664b","system_id":"levelo_inurba_marseille","lat":43.27068,"lon":5.42287,"is_reserved":false,"is_disabled":false,"rental_uris":{"android":"levelo://app?vid=9f443121-e8ff-4aac-bc9a-d9077c8e664b","ios":"levelo://app?vid=9f443121-e8ff-4aac-bc9a-d9077c8e664b"},"vehicle_type_id":"4","last_reported":1739189857,"current_range_meters":30000,"station_id":"ce4bhk92rcd13ifvqgb0","pricing_plan_id":"cebpf4jnsgd1na2vs0mg"},{"bike_id":"c88c445f-d63a-4819-92bb-9a36f6f82082","system_id":"levelo_inurba_marseille","lat":43.25106,"lon":5.40325,"is_reserved":false,"is_disabled":false,"rental_uris":{"android":"levelo://app?vid=c88c445f-d63a-4819-92bb-9a36f6f82082","ios":"levelo://app?vid=c88c445f-d63a-4819-92bb-9a36f6f82082"},"vehicle_type_id":"4","last_reported":1739189857,"current_range_meters":39200,"station_id":"ce4bhlh2rcd13ifvqgig","pricing_plan_id":"cebpf4jnsgd1na2vs0mg"},{"bike_id":"058b0f00-e5ce-47c6-9bbe-71cbfc68df54","system_id":"levelo_inurba_marseille","lat":43.31365,"lon":5.36702,"is_reserved":false,"is_disabled":false,"rental_uris":{"android":"levelo://app?vid=058b0f00-e5ce-47c6-9bbe-71cbfc68df54","ios":"levelo://app?vid=058b0f00-e5ce-47c6-9bbe-71cbfc68df54"},"vehicle_type_id":"4","last_reported":1739189857,"current_range_meters":23200,"station_id":"ce4bgr92rcd13ifvqc6g","pricing_plan_id":"cebpf4jnsgd1na2vs0mg"},{"bike_id":"a69dfcd0-86b4-4dd1-9d00-ba466809ccef","system_id":"levelo_inurba_marseille","lat":43.25002,"lon":5.38927,"is_reserved":false,"is_disabled":false,"rental_uris":{"android":"levelo://app?vid=a69dfcd0-86b4-4dd1-9d00-ba466809ccef","ios":"levelo://app?vid=a69dfcd0-86b4-4dd1-9d00-ba466809ccef"},"vehicle_type_id":"4","last_reported":1739189857,"current_range_meters":35200,"station_id":"ce4bhgp2rcd13ifvqfd0","pricing_plan_id":"cebpf4jnsgd1na2vs0mg"},{"bike_id":"c8664f5e-102f-4c5d-8a81-c0d641d00515","system_id":"levelo_inurba_marseille","lat":43.30148,"lon":5.38089,"is_reserved":false,"is_disabled":false,"rental_uris":{"android":"levelo://app?vid=c8664f5e-102f-4c5d-8a81-c0d641d00515","ios":"levelo://app?vid=c8664f5e-102f-4c5d-8a81-c0d641d00515"},"vehicle_type_id":"4","last_reported":1739189857,"current_range_meters":38800,"station_id":"ce4bgjp2rcd13ifvqbh0","pricing_plan_id":"cebpf4jnsgd1na2vs0mg"},{"bike_id":"b24af449-2c4e-4b20-b914-56c2b7f42882","system_id":"levelo_inurba_marseille","lat":43.23155,"lon":5.43712,"is_reserved":false,"is_disabled":false,"rental_uris":{"android":"levelo://app?vid=b24af449-2c4e-4b20-b914-56c2b7f42882","ios":"levelo://app?vid=b24af449-2c4e-4b20-b914-56c2b7f42882"},"vehicle_type_id":"4","last_reported":1739189857,"current_range_meters":28400,"station_id":"ce4bhmp2rcd13ifvqgog","pricing_plan_id":"cebpf4jnsgd1na2vs0mg"},{"bike_id":"478c89b1-a385-4b91-b040-dd8278ec907a","system_id":"levelo_inurba_marseille","lat":43.27209,"lon":5.39184,"is_reserved":false,"is_disabled":false,"rental_uris":{"android":"levelo://app?vid=478c89b1-a385-4b91-b040-dd8278ec907a","ios":"levelo://app?vid=478c89b1-a385-4b91-b040-dd8278ec907a"},"vehicle_type_id":"4","last_reported":1739189857,"current_range_meters":39200,"station_id":"ce4bhhp2rcd13ifvqfm0","pricing_plan_id":"cebpf4jnsgd1na2vs0mg"},{"bike_id":"ebfe9b19-a020-4e42-9515-d839082cd818","system_id":"levelo_inurba_marseille","lat":43.27998,"lon":5.40005,"is_reserved":false,"is_disabled":false,"rental_uris":{"android":"levelo://app?vid=ebfe9b19-a020-4e42-9515-d839082cd818","ios":"levelo://app?vid=ebfe9b19-a020-4e42-9515-d839082cd818"},"vehicle_type_id":"4","last_reported":1739189857,"current_range_meters":36800,"station_id":"ce4bho92rcd13ifvqh4g","pricing_plan_id":"cebpf4jnsgd1na2vs0mg"},{"bike_id":"717625c7-fce8-4c31-8d59-12eab4baff2f","system_id":"levelo_inurba_marseille","lat":43.29515,"lon":5.37501,"is_reserved":false,"is_disabled":false,"rental_uris":{"android":"levelo://app?vid=717625c7-fce8-4c31-8d59-12eab4baff2f","ios":"levelo://app?vid=717625c7-fce8-4c31-8d59-12eab4baff2f"},"vehicle_type_id":"4","last_reported":1739189857,"current_range_meters":38800,"station_id":"ce4bgkp2rcd13ifvqbmg","pricing_plan_id":"cebpf4jnsgd1na2vs0mg"},{"bike_id":"1f73100a-8043-44a4-bb6d-ffbbbec4b48b","system_id":"levelo_inurba_marseille","lat":43.29231,"lon":5.37488,"is_reserved":false,"is_disabled":false,"rental_uris":{"android":"levelo://app?vid=1f73100a-8043-44a4-bb6d-ffbbbec4b48b","ios":"levelo://app?vid=1f73100a-8043-44a4-bb6d-ffbbbec4b48b"},"vehicle_type_id":"4","last_reported":1739189857,"current_range_meters":32000,"station_id":"","pricing_plan_id":"cebpf4jnsgd1na2vs0mg"},{"bike_id":"95acb340-d0a2-4315-af63-8bedc49f9bd4","system_id":"levelo_inurba_marseille","lat":43.29972,"lon":5.37176,"is_reserved":false,"is_disabled":false,"rental_uris":{"android":"levelo://app?vid=95acb340-d0a2-4315-af63-8bedc49f9bd4","ios":"levelo://app?vid=95acb340-d0a2-4315-af63-8bedc49f9bd4"},"vehicle_type_id":"4","last_reported":1739189857,"current_range_meters":38800,"station_id":"ce4bgr92rcd13ifvqc7g","pricing_plan_id":"cebpf4jnsgd1na2vs0mg"},{"bike_id":"f4a09ce6-52ba-4f33-a1c4-2ffe4c5b70bb","system_id":"levelo_inurba_marseille","lat":43.30275,"lon":5.37683,"is_reserved":false,"is_disabled":false,"rental_uris":{"android":"levelo://app?vid=f4a09ce6-52ba-4f33-a1c4-2ffe4c5b70bb","ios":"levelo://app?vid=f4a09ce6-52ba-4f33-a1c4-2ffe4c5b70bb"},"vehicle_type_id":"4","last_reported":1739189857,"current_range_meters":39200,"station_id":"ce4bguh2rcd13ifvqcj0","pricing_plan_id":"cebpf4jnsgd1na2vs0mg"},{"bike_id":"37013ad9-dda1-4aaa-bc03-0fecfc70eba5","system_id":"levelo_inurba_marseille","lat":43.26949,"lon":5.38652,"is_reserved":false,"is_disabled":false,"rental_uris":{"android":"levelo://app?vid=37013ad9-dda1-4aaa-bc03-0fecfc70eba5","ios":"levelo://app?vid=37013ad9-dda1-4aaa-bc03-0fecfc70eba5"},"vehicle_type_id":"4","last_reported":1739189857,"current_range_meters":38000,"station_id":"ce4bhh92rcd13ifvqfh0","pricing_plan_id":"cebpf4jnsgd1na2vs0mg"},{"bike_id":"73fd2754-d050-4afd-9589-143741b28ae4","system_id":"levelo_inurba_marseille","lat":43.30561,"lon":5.36715,"is_reserved":false,"is_disabled":false,"rental_uris":{"android":"levelo://app?vid=73fd2754-d050-4afd-9589-143741b28ae4","ios":"levelo://app?vid=73fd2754-d050-4afd-9589-143741b28ae4"},"vehicle_type_id":"4","last_reported":1739189857,"current_range_meters":28800,"station_id":"ce4bgrp2rcd13ifvqc9g","pricing_plan_id":"cebpf4jnsgd1na2vs0mg"},{"bike_id":"bb30acd1-95ee-4ced-b44e-a18009dd0530","system_id":"levelo_inurba_marseille","lat":43.30888,"lon":5.37189,"is_reserved":false,"is_disabled":false,"rental_uris":{"android":"levelo://app?vid=bb30acd1-95ee-4ced-b44e-a18009dd0530","ios":"levelo://app?vid=bb30acd1-95ee-4ced-b44e-a18009dd0530"},"vehicle_type_id":"4","last_reported":1739189857,"current_range_meters":37600,"station_id":"ce4bguh2rcd13ifvqckg","pricing_plan_id":"cebpf4jnsgd1na2vs0mg"},{"bike_id":"23237db2-becc-4762-a4c6-f2d975d0a3e8","system_id":"levelo_inurba_marseille","lat":43.27999,"lon":5.40032,"is_reserved":false,"is_disabled":false,"rental_uris":{"android":"levelo://app?vid=23237db2-becc-4762-a4c6-f2d975d0a3e8","ios":"levelo://app?vid=23237db2-becc-4762-a4c6-f2d975d0a3e8"},"vehicle_type_id":"4","last_reported":1739189857,"current_range_meters":14800,"station_id":"ce4bho92rcd13ifvqh4g","pricing_plan_id":"cebpf4jnsgd1na2vs0mg"},{"bike_id":"8a3a96d2-a723-4c74-9997-337854f4533b","system_id":"levelo_inurba_marseille","lat":43.23153,"lon":5.437,"is_reserved":false,"is_disabled":false,"rental_uris":{"android":"levelo://app?vid=8a3a96d2-a723-4c74-9997-337854f4533b","ios":"levelo://app?vid=8a3a96d2-a723-4c74-9997-337854f4533b"},"vehicle_type_id":"4","last_reported":1739189857,"current_range_meters":38800,"station_id":"ce4bhmp2rcd13ifvqgog","pricing_plan_id":"cebpf4jnsgd1na2vs0mg"},{"bike_id":"b0ed4a6b-5c60-45f5-be10-5ab643013599","system_id":"levelo_inurba_marseille","lat":43.30355,"lon":5.41877,"is_reserved":false,"is_disabled":false,"rental_uris":{"android":"levelo://app?vid=b0ed4a6b-5c60-45f5-be10-5ab643013599","ios":"levelo://app?vid=b0ed4a6b-5c60-45f5-be10-5ab643013599"},"vehicle_type_id":"4","last_reported":1739189857,"current_range_meters":32800,"station_id":"ce4bhop2rcd13ifvqh7g","pricing_plan_id":"cebpf4jnsgd1na2vs0mg"},{"bike_id":"85834b4f-467d-4a31-8afe-60562d908bea","system_id":"levelo_inurba_marseille","lat":43.25004,"lon":5.38935,"is_reserved":false,"is_disabled":false,"rental_uris":{"android":"levelo://app?vid=85834b4f-467d-4a31-8afe-60562d908bea","ios":"levelo://app?vid=85834b4f-467d-4a31-8afe-60562d908bea"},"vehicle_type_id":"4","last_reported":1739189857,"current_range_meters":38800,"station_id":"ce4bhgp2rcd13ifvqfd0","pricing_plan_id":"cebpf4jnsgd1na2vs0mg"},{"bike_id":"64f7c304-9688-44f2-a78b-47eb6176aa77","system_id":"levelo_inurba_marseille","lat":43.31244,"lon":5.36865,"is_reserved":false,"is_disabled":false,"rental_uris":{"android":"levelo://app?vid=64f7c304-9688-44f2-a78b-47eb6176aa77","ios":"levelo://app?vid=64f7c304-9688-44f2-a78b-47eb6176aa77"},"vehicle_type_id":"4","last_reported":1739189857,"current_range_meters":38000,"station_id":"ce4bgl92rcd13ifvqbq0","pricing_plan_id":"cebpf4jnsgd1na2vs0mg"},{"bike_id":"ad40d2a2-165a-4482-8c9c-0e513a5e63e4","system_id":"levelo_inurba_marseille","lat":43.249969,"lon":5.389292,"is_reserved":false,"is_disabled":false,"rental_uris":{"android":"levelo://app?vid=ad40d2a2-165a-4482-8c9c-0e513a5e63e4","ios":"levelo://app?vid=ad40d2a2-165a-4482-8c9c-0e513a5e63e4"},"vehicle_type_id":"4","last_reported":1739189857,"current_range_meters":38800,"station_id":"ce4bhgp2rcd13ifvqfd0","pricing_plan_id":"cebpf4jnsgd1na2vs0mg"},{"bike_id":"6998168a-02ed-49b8-bc0c-4b81f2baa47a","system_id":"levelo_inurba_marseille","lat":43.33716,"lon":5.39194,"is_reserved":false,"is_disabled":false,"rental_uris":{"android":"levelo://app?vid=6998168a-02ed-49b8-bc0c-4b81f2baa47a","ios":"levelo://app?vid=6998168a-02ed-49b8-bc0c-4b81f2baa47a"},"vehicle_type_id":"4","last_reported":1739189857,"current_range_meters":38800,"station_id":"ce4bhr92rcd13ifvqhsg","pricing_plan_id":"cebpf4jnsgd1na2vs0mg"},{"bike_id":"ffb9f143-4b48-44b1-a496-c14960ce9c00","system_id":"levelo_inurba_marseille","lat":43.30127,"lon":5.37422,"is_reserved":false,"is_disabled":true,"rental_uris":{"android":"levelo://app?vid=ffb9f143-4b48-44b1-a496-c14960ce9c00","ios":"levelo://app?vid=ffb9f143-4b48-44b1-a496-c14960ce9c00"},"vehicle_type_id":"4","last_reported":1739189857,"current_range_meters":37600,"station_id":"ce4bgs92rcd13ifvqcc0","pricing_plan_id":"cebpf4jnsgd1na2vs0mg"},{"bike_id":"8cf52a42-0f98-4e8c-8ebb-2ee7a6a03a92","system_id":"levelo_inurba_marseille","lat":43.28003,"lon":5.4002,"is_reserved":false,"is_disabled":false,"rental_uris":{"android":"levelo://app?vid=8cf52a42-0f98-4e8c-8ebb-2ee7a6a03a92","ios":"levelo://app?vid=8cf52a42-0f98-4e8c-8ebb-2ee7a6a03a92"},"vehicle_type_id":"4","last_reported":1739189857,"current_range_meters":28800,"station_id":"ce4bho92rcd13ifvqh4g","pricing_plan_id":"cebpf4jnsgd1na2vs0mg"},{"bike_id":"9822b2ae-52c3-4719-90d2-ce97f6ea354c","system_id":"levelo_inurba_marseille","lat":43.29979,"lon":5.37171,"is_reserved":false,"is_disabled":false,"rental_uris":{"android":"levelo://app?vid=9822b2ae-52c3-4719-90d2-ce97f6ea354c","ios":"levelo://app?vid=9822b2ae-52c3-4719-90d2-ce97f6ea354c"},"vehicle_type_id":"4","last_reported":1739189857,"current_range_meters":39200,"station_id":"ce4bgr92rcd13ifvqc7g","pricing_plan_id":"cebpf4jnsgd1na2vs0mg"},{"bike_id":"7bd32d08-a625-47e8-a34b-042a4b9a6585","system_id":"levelo_inurba_marseille","lat":43.26941,"lon":5.40247,"is_reserved":false,"is_disabled":false,"rental_uris":{"android":"levelo://app?vid=7bd32d08-a625-47e8-a34b-042a4b9a6585","ios":"levelo://app?vid=7bd32d08-a625-47e8-a34b-042a4b9a6585"},"vehicle_type_id":"4","last_reported":1739189857,"current_range_meters":36000,"station_id":"cjm6bp8fraef2m0cb0m0","pricing_plan_id":"cebpf4jnsgd1na2vs0mg"},{"bike_id":"5c384343-26d8-4d1c-be9d-e4fc24dce8a4","system_id":"levelo_inurba_marseille","lat":43.27819,"lon":5.40752,"is_reserved":false,"is_disabled":false,"rental_uris":{"android":"levelo://app?vid=5c384343-26d8-4d1c-be9d-e4fc24dce8a4","ios":"levelo://app?vid=5c384343-26d8-4d1c-be9d-e4fc24dce8a4"},"vehicle_type_id":"4","last_reported":1739189857,"current_range_meters":38800,"station_id":"ce4bhnh2rcd13ifvqgtg","pricing_plan_id":"cebpf4jnsgd1na2vs0mg"},{"bike_id":"8aecd9f7-adb6-4881-9553-405df2813725","system_id":"levelo_inurba_marseille","lat":43.31692,"lon":5.40459,"is_reserved":false,"is_disabled":false,"rental_uris":{"android":"levelo://app?vid=8aecd9f7-adb6-4881-9553-405df2813725","ios":"levelo://app?vid=8aecd9f7-adb6-4881-9553-405df2813725"},"vehicle_type_id":"4","last_reported":1739189857,"current_range_meters":38800,"station_id":"ce4bh012rcd13ifvqd00","pricing_plan_id":"cebpf4jnsgd1na2vs0mg"},{"bike_id":"b9ae1c04-8b49-41fe-a1ca-cc17035aadbe","system_id":"levelo_inurba_marseille","lat":43.29258,"lon":5.38447,"is_reserved":false,"is_disabled":true,"rental_uris":{"android":"levelo://app?vid=b9ae1c04-8b49-41fe-a1ca-cc17035aadbe","ios":"levelo://app?vid=b9ae1c04-8b49-41fe-a1ca-cc17035aadbe"},"vehicle_type_id":"4","last_reported":1739189857,"current_range_meters":14800,"station_id":"ce4bh692rcd13ifvqea0","pricing_plan_id":"cebpf4jnsgd1na2vs0mg"},{"bike_id":"e8ac4fbd-cc8c-4152-95db-0021dd737969","system_id":"levelo_inurba_marseille","lat":43.24194,"lon":5.39717,"is_reserved":false,"is_disabled":false,"rental_uris":{"android":"levelo://app?vid=e8ac4fbd-cc8c-4152-95db-0021dd737969","ios":"levelo://app?vid=e8ac4fbd-cc8c-4152-95db-0021dd737969"},"vehicle_type_id":"4","last_reported":1739189857,"current_range_meters":17200,"station_id":"ce4bhn12rcd13ifvqgpg","pricing_plan_id":"cebpf4jnsgd1na2vs0mg"},{"bike_id":"97d6f0b2-848e-471f-93d1-5d3a1ec2b71f","system_id":"levelo_inurba_marseille","lat":43.27325,"lon":5.39093,"is_reserved":false,"is_disabled":false,"rental_uris":{"android":"levelo://app?vid=97d6f0b2-848e-471f-93d1-5d3a1ec2b71f","ios":"levelo://app?vid=97d6f0b2-848e-471f-93d1-5d3a1ec2b71f"},"vehicle_type_id":"4","last_reported":1739189857,"current_range_meters":37600,"station_id":"ce4bhgp2rcd13ifvqfe0","pricing_plan_id":"cebpf4jnsgd1na2vs0mg"},{"bike_id":"37ed81d0-065c-4a1d-948f-ddfd03cd968b","system_id":"levelo_inurba_marseille","lat":43.24798,"lon":5.37459,"is_reserved":false,"is_disabled":false,"rental_uris":{"android":"levelo://app?vid=37ed81d0-065c-4a1d-948f-ddfd03cd968b","ios":"levelo://app?vid=37ed81d0-065c-4a1d-948f-ddfd03cd968b"},"vehicle_type_id":"4","last_reported":1739189857,"current_range_meters":25200,"station_id":"ce4bhgh2rcd13ifvqfb0","pricing_plan_id":"cebpf4jnsgd1na2vs0mg"},{"bike_id":"6d104768-018b-46ab-b7c2-e97432232072","system_id":"levelo_inurba_marseille","lat":43.28438,"lon":5.37515,"is_reserved":false,"is_disabled":false,"rental_uris":{"android":"levelo://app?vid=6d104768-018b-46ab-b7c2-e97432232072","ios":"levelo://app?vid=6d104768-018b-46ab-b7c2-e97432232072"},"vehicle_type_id":"4","last_reported":1739189857,"current_range_meters":38800,"station_id":"ce4bh412rcd13ifvqds0","pricing_plan_id":"cebpf4jnsgd1na2vs0mg"},{"bike_id":"ee139c19-6a57-4a81-93d8-e4201d47d2e9","system_id":"levelo_inurba_marseille","lat":43.316085,"lon":5.384189,"is_reserved":false,"is_disabled":false,"rental_uris":{"android":"levelo://app?vid=ee139c19-6a57-4a81-93d8-e4201d47d2e9","ios":"levelo://app?vid=ee139c19-6a57-4a81-93d8-e4201d47d2e9"},"vehicle_type_id":"4","last_reported":1739189857,"current_range_meters":8000,"station_id":"ce4bgth2rcd13ifvqch0","pricing_plan_id":"cebpf4jnsgd1na2vs0mg"},{"bike_id":"38486539-d96a-43e4-8ce7-751a9dd2906a","system_id":"levelo_inurba_marseille","lat":43.32487,"lon":5.36564,"is_reserved":false,"is_disabled":false,"rental_uris":{"android":"levelo://app?vid=38486539-d96a-43e4-8ce7-751a9dd2906a","ios":"levelo://app?vid=38486539-d96a-43e4-8ce7-751a9dd2906a"},"vehicle_type_id":"4","last_reported":1739189857,"current_range_meters":28800,"station_id":"ce4bhs12rcd13ifvqhvg","pricing_plan_id":"cebpf4jnsgd1na2vs0mg"},{"bike_id":"64a49c20-30a0-466a-a317-fd800340682c","system_id":"levelo_inurba_marseille","lat":43.28999,"lon":5.35615,"is_reserved":false,"is_disabled":false,"rental_uris":{"android":"levelo://app?vid=64a49c20-30a0-466a-a317-fd800340682c","ios":"levelo://app?vid=64a49c20-30a0-466a-a317-fd800340682c"},"vehicle_type_id":"4","last_reported":1739189857,"current_range_meters":10000,"station_id":"ce4bhb92rcd13ifvqen0","pricing_plan_id":"cebpf4jnsgd1na2vs0mg"},{"bike_id":"b9e2a4ec-8d0a-4bf8-9836-8fbf8bbbf3ef","system_id":"levelo_inurba_marseille","lat":43.26953,"lon":5.38645,"is_reserved":false,"is_disabled":false,"rental_uris":{"android":"levelo://app?vid=b9e2a4ec-8d0a-4bf8-9836-8fbf8bbbf3ef","ios":"levelo://app?vid=b9e2a4ec-8d0a-4bf8-9836-8fbf8bbbf3ef"},"vehicle_type_id":"4","last_reported":1739189857,"current_range_meters":38800,"station_id":"ce4bhh92rcd13ifvqfh0","pricing_plan_id":"cebpf4jnsgd1na2vs0mg"},{"bike_id":"8071da97-6ed1-4ed6-a5b9-695a85132072","system_id":"levelo_inurba_marseille","lat":43.29847,"lon":5.36239,"is_reserved":false,"is_disabled":false,"rental_uris":{"android":"levelo://app?vid=8071da97-6ed1-4ed6-a5b9-695a85132072","ios":"levelo://app?vid=8071da97-6ed1-4ed6-a5b9-695a85132072"},"vehicle_type_id":"4","last_reported":1739189857,"current_range_meters":33600,"station_id":"ce4bgpp2rcd13ifvqc3g","pricing_plan_id":"cebpf4jnsgd1na2vs0mg"},{"bike_id":"b5d972a2-6ca5-4a4a-896f-9eeccc401858","system_id":"levelo_inurba_marseille","lat":43.304626,"lon":5.379123,"is_reserved":false,"is_disabled":false,"rental_uris":{"android":"levelo://app?vid=b5d972a2-6ca5-4a4a-896f-9eeccc401858","ios":"levelo://app?vid=b5d972a2-6ca5-4a4a-896f-9eeccc401858"},"vehicle_type_id":"4","last_reported":1739189857,"current_range_meters":22400,"station_id":"ce4bgup2rcd13ifvqcn0","pricing_plan_id":"cebpf4jnsgd1na2vs0mg"},{"bike_id":"4eb7d086-c36c-48b6-b614-67ca8a9c894a","system_id":"levelo_inurba_marseille","lat":43.29869,"lon":5.39725,"is_reserved":false,"is_disabled":false,"rental_uris":{"android":"levelo://app?vid=4eb7d086-c36c-48b6-b614-67ca8a9c894a","ios":"levelo://app?vid=4eb7d086-c36c-48b6-b614-67ca8a9c894a"},"vehicle_type_id":"4","last_reported":1739189857,"current_range_meters":35200,"station_id":"ce4bh0h2rcd13ifvqd50","pricing_plan_id":"cebpf4jnsgd1na2vs0mg"},{"bike_id":"86de48da-0ee2-4b92-bd9e-9b817eb5eb31","system_id":"levelo_inurba_marseille","lat":43.28413,"lon":5.37517,"is_reserved":false,"is_disabled":false,"rental_uris":{"android":"levelo://app?vid=86de48da-0ee2-4b92-bd9e-9b817eb5eb31","ios":"levelo://app?vid=86de48da-0ee2-4b92-bd9e-9b817eb5eb31"},"vehicle_type_id":"4","last_reported":1739189857,"current_range_meters":34000,"station_id":"ce4bh412rcd13ifvqds0","pricing_plan_id":"cebpf4jnsgd1na2vs0mg"},{"bike_id":"e1b46f7e-f734-4452-a34f-bad2f8b6b48d","system_id":"levelo_inurba_marseille","lat":43.29668,"lon":5.37289,"is_reserved":false,"is_disabled":false,"rental_uris":{"android":"levelo://app?vid=e1b46f7e-f734-4452-a34f-bad2f8b6b48d","ios":"levelo://app?vid=e1b46f7e-f734-4452-a34f-bad2f8b6b48d"},"vehicle_type_id":"4","last_reported":1739189857,"current_range_meters":36800,"station_id":"ce4bgk12rcd13ifvqbj0","pricing_plan_id":"cebpf4jnsgd1na2vs0mg"},{"bike_id":"db2cb8ba-850b-4646-be66-57100750f4fe","system_id":"levelo_inurba_marseille","lat":43.23195,"lon":5.35547,"is_reserved":false,"is_disabled":false,"rental_uris":{"android":"levelo://app?vid=db2cb8ba-850b-4646-be66-57100750f4fe","ios":"levelo://app?vid=db2cb8ba-850b-4646-be66-57100750f4fe"},"vehicle_type_id":"4","last_reported":1739189857,"current_range_meters":9600,"station_id":"ce4bhu92rcd13ifvqi70","pricing_plan_id":"cebpf4jnsgd1na2vs0mg"},{"bike_id":"841e0f04-b00a-44de-83b7-b9b92c40d93b","system_id":"levelo_inurba_marseille","lat":43.28169,"lon":5.42646,"is_reserved":false,"is_disabled":false,"rental_uris":{"android":"levelo://app?vid=841e0f04-b00a-44de-83b7-b9b92c40d93b","ios":"levelo://app?vid=841e0f04-b00a-44de-83b7-b9b92c40d93b"},"vehicle_type_id":"4","last_reported":1739189857,"current_range_meters":18800,"station_id":"ce4bhnh2rcd13ifvqgug","pricing_plan_id":"cebpf4jnsgd1na2vs0mg"},{"bike_id":"a1478cf5-fadf-4699-b7b9-16b4395a3868","system_id":"levelo_inurba_marseille","lat":43.30277,"lon":5.37722,"is_reserved":false,"is_disabled":false,"rental_uris":{"android":"levelo://app?vid=a1478cf5-fadf-4699-b7b9-16b4395a3868","ios":"levelo://app?vid=a1478cf5-fadf-4699-b7b9-16b4395a3868"},"vehicle_type_id":"4","last_reported":1739189857,"current_range_meters":35600,"station_id":"ce4bguh2rcd13ifvqcj0","pricing_plan_id":"cebpf4jnsgd1na2vs0mg"},{"bike_id":"704688a1-7c92-4b21-8a47-c46f6e496871","system_id":"levelo_inurba_marseille","lat":43.32288,"lon":5.38271,"is_reserved":false,"is_disabled":false,"rental_uris":{"android":"levelo://app?vid=704688a1-7c92-4b21-8a47-c46f6e496871","ios":"levelo://app?vid=704688a1-7c92-4b21-8a47-c46f6e496871"},"vehicle_type_id":"4","last_reported":1739189857,"current_range_meters":39200,"station_id":"ce4bhr12rcd13ifvqhqg","pricing_plan_id":"cebpf4jnsgd1na2vs0mg"},{"bike_id":"29796972-df3c-4171-8915-8797bd8e94e0","system_id":"levelo_inurba_marseille","lat":43.274296,"lon":5.394209,"is_reserved":false,"is_disabled":false,"rental_uris":{"android":"levelo://app?vid=29796972-df3c-4171-8915-8797bd8e94e0","ios":"levelo://app?vid=29796972-df3c-4171-8915-8797bd8e94e0"},"vehicle_type_id":"4","last_reported":1739189857,"current_range_meters":29600,"station_id":"ce4bhdp2rcd13ifvqf20","pricing_plan_id":"cebpf4jnsgd1na2vs0mg"},{"bike_id":"477f0ad2-c480-485f-aceb-1a49a0ad8389","system_id":"levelo_inurba_marseille","lat":43.27954,"lon":5.41054,"is_reserved":false,"is_disabled":false,"rental_uris":{"android":"levelo://app?vid=477f0ad2-c480-485f-aceb-1a49a0ad8389","ios":"levelo://app?vid=477f0ad2-c480-485f-aceb-1a49a0ad8389"},"vehicle_type_id":"4","last_reported":1739189857,"current_range_meters":38800,"station_id":"ce4bhnp2rcd13ifvqh0g","pricing_plan_id":"cebpf4jnsgd1na2vs0mg"},{"bike_id":"63499343-4397-4e6f-a8ae-83b801967d5f","system_id":"levelo_inurba_marseille","lat":43.27209,"lon":5.39179,"is_reserved":false,"is_disabled":false,"rental_uris":{"android":"levelo://app?vid=63499343-4397-4e6f-a8ae-83b801967d5f","ios":"levelo://app?vid=63499343-4397-4e6f-a8ae-83b801967d5f"},"vehicle_type_id":"4","last_reported":1739189857,"current_range_meters":38400,"station_id":"ce4bhhp2rcd13ifvqfm0","pricing_plan_id":"cebpf4jnsgd1na2vs0mg"},{"bike_id":"2afe2c46-123b-4f69-8f69-bb5de927b999","system_id":"levelo_inurba_marseille","lat":43.27828,"lon":5.40711,"is_reserved":false,"is_disabled":false,"rental_uris":{"android":"levelo://app?vid=2afe2c46-123b-4f69-8f69-bb5de927b999","ios":"levelo://app?vid=2afe2c46-123b-4f69-8f69-bb5de927b999"},"vehicle_type_id":"4","last_reported":1739189857,"current_range_meters":37600,"station_id":"ce4bhnh2rcd13ifvqgtg","pricing_plan_id":"cebpf4jnsgd1na2vs0mg"},{"bike_id":"1ec14052-2d33-4aa1-9ab8-58cc71db74d1","system_id":"levelo_inurba_marseille","lat":43.24163,"lon":5.36419,"is_reserved":false,"is_disabled":false,"rental_uris":{"android":"levelo://app?vid=1ec14052-2d33-4aa1-9ab8-58cc71db74d1","ios":"levelo://app?vid=1ec14052-2d33-4aa1-9ab8-58cc71db74d1"},"vehicle_type_id":"4","last_reported":1739189857,"current_range_meters":19200,"station_id":"cpo36qri1sfpv3e86is0","pricing_plan_id":"cebpf4jnsgd1na2vs0mg"},{"bike_id":"ae0dbd03-494d-4ce6-8b36-e3fa998daab3","system_id":"levelo_inurba_marseille","lat":43.27964,"lon":5.38744,"is_reserved":false,"is_disabled":false,"rental_uris":{"android":"levelo://app?vid=ae0dbd03-494d-4ce6-8b36-e3fa998daab3","ios":"levelo://app?vid=ae0dbd03-494d-4ce6-8b36-e3fa998daab3"},"vehicle_type_id":"4","last_reported":1739189857,"current_range_meters":28800,"station_id":"ce4bhg12rcd13ifvqf80","pricing_plan_id":"cebpf4jnsgd1na2vs0mg"},{"bike_id":"cfdc74e0-c746-422f-a518-2e9a6c2ffbda","system_id":"levelo_inurba_marseille","lat":43.29972,"lon":5.37175,"is_reserved":false,"is_disabled":false,"rental_uris":{"android":"levelo://app?vid=cfdc74e0-c746-422f-a518-2e9a6c2ffbda","ios":"levelo://app?vid=cfdc74e0-c746-422f-a518-2e9a6c2ffbda"},"vehicle_type_id":"4","last_reported":1739189857,"current_range_meters":37600,"station_id":"ce4bgr92rcd13ifvqc7g","pricing_plan_id":"cebpf4jnsgd1na2vs0mg"},{"bike_id":"d7bcfe9a-113a-4771-9ea3-6e06fd1f393f","system_id":"levelo_inurba_marseille","lat":43.29945,"lon":5.36535,"is_reserved":false,"is_disabled":false,"rental_uris":{"android":"levelo://app?vid=d7bcfe9a-113a-4771-9ea3-6e06fd1f393f","ios":"levelo://app?vid=d7bcfe9a-113a-4771-9ea3-6e06fd1f393f"},"vehicle_type_id":"4","last_reported":1739189857,"current_range_meters":33200,"station_id":"ce4bgm92rcd13ifvqbr0","pricing_plan_id":"cebpf4jnsgd1na2vs0mg"},{"bike_id":"77951dd4-9fa9-4454-957e-09cb573a3a88","system_id":"levelo_inurba_marseille","lat":43.34152,"lon":5.409,"is_reserved":false,"is_disabled":false,"rental_uris":{"android":"levelo://app?vid=77951dd4-9fa9-4454-957e-09cb573a3a88","ios":"levelo://app?vid=77951dd4-9fa9-4454-957e-09cb573a3a88"},"vehicle_type_id":"4","last_reported":1739189857,"current_range_meters":32400,"station_id":"ce4bhqh2rcd13ifvqhlg","pricing_plan_id":"cebpf4jnsgd1na2vs0mg"},{"bike_id":"c522bc34-78f2-4b55-8486-c69b4e7c03c2","system_id":"levelo_inurba_marseille","lat":43.29677,"lon":5.37299,"is_reserved":false,"is_disabled":false,"rental_uris":{"android":"levelo://app?vid=c522bc34-78f2-4b55-8486-c69b4e7c03c2","ios":"levelo://app?vid=c522bc34-78f2-4b55-8486-c69b4e7c03c2"},"vehicle_type_id":"4","last_reported":1739189857,"current_range_meters":38400,"station_id":"ce4bgk12rcd13ifvqbj0","pricing_plan_id":"cebpf4jnsgd1na2vs0mg"},{"bike_id":"c59d43d1-4162-4c2f-85fd-4134cc5757da","system_id":"levelo_inurba_marseille","lat":43.301503,"lon":5.381039,"is_reserved":false,"is_disabled":true,"rental_uris":{"android":"levelo://app?vid=c59d43d1-4162-4c2f-85fd-4134cc5757da","ios":"levelo://app?vid=c59d43d1-4162-4c2f-85fd-4134cc5757da"},"vehicle_type_id":"4","last_reported":1739189857,"current_range_meters":22400,"station_id":"ce4bgjp2rcd13ifvqbh0","pricing_plan_id":"cebpf4jnsgd1na2vs0mg"},{"bike_id":"cede73c9-3616-4c12-b690-7ddfcc73e0c6","system_id":"levelo_inurba_marseille","lat":43.2904,"lon":5.38657,"is_reserved":false,"is_disabled":false,"rental_uris":{"android":"levelo://app?vid=cede73c9-3616-4c12-b690-7ddfcc73e0c6","ios":"levelo://app?vid=cede73c9-3616-4c12-b690-7ddfcc73e0c6"},"vehicle_type_id":"4","last_reported":1739189857,"current_range_meters":20800,"station_id":"ce4bh4p2rcd13ifvqe0g","pricing_plan_id":"cebpf4jnsgd1na2vs0mg"},{"bike_id":"9f524422-b086-4500-8eb2-ec86aa84d162","system_id":"levelo_inurba_marseille","lat":43.29622,"lon":5.37155,"is_reserved":false,"is_disabled":true,"rental_uris":{"android":"levelo://app?vid=9f524422-b086-4500-8eb2-ec86aa84d162","ios":"levelo://app?vid=9f524422-b086-4500-8eb2-ec86aa84d162"},"vehicle_type_id":"4","last_reported":1739189857,"current_range_meters":1200,"station_id":"ce4bgnh2rcd13ifvqc0g","pricing_plan_id":"cebpf4jnsgd1na2vs0mg"},{"bike_id":"fbb98623-bd6f-4427-9463-8f7fc3b3bd20","system_id":"levelo_inurba_marseille","lat":43.28048,"lon":5.36955,"is_reserved":false,"is_disabled":false,"rental_uris":{"android":"levelo://app?vid=fbb98623-bd6f-4427-9463-8f7fc3b3bd20","ios":"levelo://app?vid=fbb98623-bd6f-4427-9463-8f7fc3b3bd20"},"vehicle_type_id":"4","last_reported":1739189857,"current_range_meters":33200,"station_id":"ce4bha12rcd13ifvqef0","pricing_plan_id":"cebpf4jnsgd1na2vs0mg"},{"bike_id":"b240e4be-5087-4bf0-bcf5-c3a97442d659","system_id":"levelo_inurba_marseille","lat":43.29165,"lon":5.37164,"is_reserved":false,"is_disabled":false,"rental_uris":{"android":"levelo://app?vid=b240e4be-5087-4bf0-bcf5-c3a97442d659","ios":"levelo://app?vid=b240e4be-5087-4bf0-bcf5-c3a97442d659"},"vehicle_type_id":"4","last_reported":1739189857,"current_range_meters":31200,"station_id":"ce4bha92rcd13ifvqeh0","pricing_plan_id":"cebpf4jnsgd1na2vs0mg"},{"bike_id":"c96f92a7-f6aa-4b72-bfcc-b3fd0520d382","system_id":"levelo_inurba_marseille","lat":43.26192,"lon":5.37463,"is_reserved":false,"is_disabled":false,"rental_uris":{"android":"levelo://app?vid=c96f92a7-f6aa-4b72-bfcc-b3fd0520d382","ios":"levelo://app?vid=c96f92a7-f6aa-4b72-bfcc-b3fd0520d382"},"vehicle_type_id":"4","last_reported":1739189857,"current_range_meters":7200,"station_id":"ce4bhgp2rcd13ifvqfc0","pricing_plan_id":"cebpf4jnsgd1na2vs0mg"},{"bike_id":"acd83fce-20d7-4fc5-b658-519f5e83fe17","system_id":"levelo_inurba_marseille","lat":43.28412,"lon":5.37516,"is_reserved":false,"is_disabled":false,"rental_uris":{"android":"levelo://app?vid=acd83fce-20d7-4fc5-b658-519f5e83fe17","ios":"levelo://app?vid=acd83fce-20d7-4fc5-b658-519f5e83fe17"},"vehicle_type_id":"4","last_reported":1739189857,"current_range_meters":11200,"station_id":"ce4bh412rcd13ifvqds0","pricing_plan_id":"cebpf4jnsgd1na2vs0mg"},{"bike_id":"53dedc30-10cb-4cf6-aa3e-119646708c08","system_id":"levelo_inurba_marseille","lat":43.26053,"lon":5.37551,"is_reserved":false,"is_disabled":false,"rental_uris":{"android":"levelo://app?vid=53dedc30-10cb-4cf6-aa3e-119646708c08","ios":"levelo://app?vid=53dedc30-10cb-4cf6-aa3e-119646708c08"},"vehicle_type_id":"4","last_reported":1739189857,"current_range_meters":39200,"station_id":"ce4bhgh2rcd13ifvqfa0","pricing_plan_id":"cebpf4jnsgd1na2vs0mg"},{"bike_id":"6346b15c-70b1-45a6-ab7f-3ff943557ebf","system_id":"levelo_inurba_marseille","lat":43.240701,"lon":5.377684,"is_reserved":false,"is_disabled":false,"rental_uris":{"android":"levelo://app?vid=6346b15c-70b1-45a6-ab7f-3ff943557ebf","ios":"levelo://app?vid=6346b15c-70b1-45a6-ab7f-3ff943557ebf"},"vehicle_type_id":"4","last_reported":1739189857,"current_range_meters":30400,"station_id":"ce4bhnp2rcd13ifvqgvg","pricing_plan_id":"cebpf4jnsgd1na2vs0mg"},{"bike_id":"d65a14c4-ecf3-4048-b05f-9a757ce2f182","system_id":"levelo_inurba_marseille","lat":43.24674,"lon":5.38173,"is_reserved":false,"is_disabled":false,"rental_uris":{"android":"levelo://app?vid=d65a14c4-ecf3-4048-b05f-9a757ce2f182","ios":"levelo://app?vid=d65a14c4-ecf3-4048-b05f-9a757ce2f182"},"vehicle_type_id":"4","last_reported":1739189857,"current_range_meters":38800,"station_id":"ce4bhih2rcd13ifvqfr0","pricing_plan_id":"cebpf4jnsgd1na2vs0mg"},{"bike_id":"a7af1cbd-e9c8-4f2d-bdbb-a2ebf6f28f8c","system_id":"levelo_inurba_marseille","lat":43.30428,"lon":5.39759,"is_reserved":false,"is_disabled":false,"rental_uris":{"android":"levelo://app?vid=a7af1cbd-e9c8-4f2d-bdbb-a2ebf6f28f8c","ios":"levelo://app?vid=a7af1cbd-e9c8-4f2d-bdbb-a2ebf6f28f8c"},"vehicle_type_id":"4","last_reported":1739189857,"current_range_meters":38800,"station_id":"ce4bh092rcd13ifvqd20","pricing_plan_id":"cebpf4jnsgd1na2vs0mg"},{"bike_id":"879d2030-c51b-4298-a606-cfdd56d5ce64","system_id":"levelo_inurba_marseille","lat":43.241826,"lon":5.397258,"is_reserved":false,"is_disabled":false,"rental_uris":{"android":"levelo://app?vid=879d2030-c51b-4298-a606-cfdd56d5ce64","ios":"levelo://app?vid=879d2030-c51b-4298-a606-cfdd56d5ce64"},"vehicle_type_id":"4","last_reported":1739189857,"current_range_meters":30000,"station_id":"ce4bhn12rcd13ifvqgpg","pricing_plan_id":"cebpf4jnsgd1na2vs0mg"},{"bike_id":"50adeff0-8d86-4f28-bb8b-c09f2ed56b81","system_id":"levelo_inurba_marseille","lat":43.29201,"lon":5.39337,"is_reserved":false,"is_disabled":false,"rental_uris":{"android":"levelo://app?vid=50adeff0-8d86-4f28-bb8b-c09f2ed56b81","ios":"levelo://app?vid=50adeff0-8d86-4f28-bb8b-c09f2ed56b81"},"vehicle_type_id":"4","last_reported":1739189857,"current_range_meters":38000,"station_id":"ce4bh192rcd13ifvqdd0","pricing_plan_id":"cebpf4jnsgd1na2vs0mg"},{"bike_id":"4ebbb54a-27cc-4c52-b632-3eae43c0a884","system_id":"levelo_inurba_marseille","lat":43.29419,"lon":5.3862,"is_reserved":false,"is_disabled":false,"rental_uris":{"android":"levelo://app?vid=4ebbb54a-27cc-4c52-b632-3eae43c0a884","ios":"levelo://app?vid=4ebbb54a-27cc-4c52-b632-3eae43c0a884"},"vehicle_type_id":"4","last_reported":1739189857,"current_range_meters":20400,"station_id":"ce4bh2h2rcd13ifvqdh0","pricing_plan_id":"cebpf4jnsgd1na2vs0mg"},{"bike_id":"7b75b5fc-2cc4-44ae-a9ff-63b4208ad5ba","system_id":"levelo_inurba_marseille","lat":43.29804,"lon":5.38092,"is_reserved":false,"is_disabled":false,"rental_uris":{"android":"levelo://app?vid=7b75b5fc-2cc4-44ae-a9ff-63b4208ad5ba","ios":"levelo://app?vid=7b75b5fc-2cc4-44ae-a9ff-63b4208ad5ba"},"vehicle_type_id":"4","last_reported":1739189857,"current_range_meters":36800,"station_id":"ce4bgip2rcd13ifvqbb0","pricing_plan_id":"cebpf4jnsgd1na2vs0mg"},{"bike_id":"c31ed913-e192-4963-8c55-1a8fa4abef8c","system_id":"levelo_inurba_marseille","lat":43.31884,"lon":5.40752,"is_reserved":false,"is_disabled":false,"rental_uris":{"android":"levelo://app?vid=c31ed913-e192-4963-8c55-1a8fa4abef8c","ios":"levelo://app?vid=c31ed913-e192-4963-8c55-1a8fa4abef8c"},"vehicle_type_id":"4","last_reported":1739189857,"current_range_meters":14000,"station_id":"ce4bhq12rcd13ifvqhig","pricing_plan_id":"cebpf4jnsgd1na2vs0mg"},{"bike_id":"67466fd0-6bc5-47f0-81d8-d2c9546eecf0","system_id":"levelo_inurba_marseille","lat":43.29022,"lon":5.38647,"is_reserved":false,"is_disabled":false,"rental_uris":{"android":"levelo://app?vid=67466fd0-6bc5-47f0-81d8-d2c9546eecf0","ios":"levelo://app?vid=67466fd0-6bc5-47f0-81d8-d2c9546eecf0"},"vehicle_type_id":"4","last_reported":1739189857,"current_range_meters":38800,"station_id":"ce4bh4p2rcd13ifvqe0g","pricing_plan_id":"cebpf4jnsgd1na2vs0mg"},{"bike_id":"26f106cf-8738-422f-bcb0-d7879a047329","system_id":"levelo_inurba_marseille","lat":43.29849,"lon":5.3627,"is_reserved":false,"is_disabled":false,"rental_uris":{"android":"levelo://app?vid=26f106cf-8738-422f-bcb0-d7879a047329","ios":"levelo://app?vid=26f106cf-8738-422f-bcb0-d7879a047329"},"vehicle_type_id":"4","last_reported":1739189857,"current_range_meters":39200,"station_id":"ce4bgpp2rcd13ifvqc3g","pricing_plan_id":"cebpf4jnsgd1na2vs0mg"},{"bike_id":"c62dd525-15a9-4e78-9828-f7329d361fcd","system_id":"levelo_inurba_marseille","lat":43.29253,"lon":5.40908,"is_reserved":false,"is_disabled":false,"rental_uris":{"android":"levelo://app?vid=c62dd525-15a9-4e78-9828-f7329d361fcd","ios":"levelo://app?vid=c62dd525-15a9-4e78-9828-f7329d361fcd"},"vehicle_type_id":"4","last_reported":1739189857,"current_range_meters":35600,"station_id":"ce4bh192rcd13ifvqdc0","pricing_plan_id":"cebpf4jnsgd1na2vs0mg"},{"bike_id":"210d7932-3cfc-401c-9f05-8b823288f7a5","system_id":"levelo_inurba_marseille","lat":43.30909,"lon":5.36846,"is_reserved":false,"is_disabled":false,"rental_uris":{"android":"levelo://app?vid=210d7932-3cfc-401c-9f05-8b823288f7a5","ios":"levelo://app?vid=210d7932-3cfc-401c-9f05-8b823288f7a5"},"vehicle_type_id":"4","last_reported":1739189857,"current_range_meters":24800,"station_id":"ce4bgn92rcd13ifvqbvg","pricing_plan_id":"cebpf4jnsgd1na2vs0mg"},{"bike_id":"c0b5e6a8-4d1c-4920-8bed-9cf80c7abe2a","system_id":"levelo_inurba_marseille","lat":43.3046,"lon":5.37902,"is_reserved":false,"is_disabled":false,"rental_uris":{"android":"levelo://app?vid=c0b5e6a8-4d1c-4920-8bed-9cf80c7abe2a","ios":"levelo://app?vid=c0b5e6a8-4d1c-4920-8bed-9cf80c7abe2a"},"vehicle_type_id":"4","last_reported":1739189857,"current_range_meters":4800,"station_id":"ce4bgup2rcd13ifvqcn0","pricing_plan_id":"cebpf4jnsgd1na2vs0mg"},{"bike_id":"2727597f-79bf-412c-a174-29206f2c1253","system_id":"levelo_inurba_marseille","lat":43.29604,"lon":5.377127,"is_reserved":false,"is_disabled":false,"rental_uris":{"android":"levelo://app?vid=2727597f-79bf-412c-a174-29206f2c1253","ios":"levelo://app?vid=2727597f-79bf-412c-a174-29206f2c1253"},"vehicle_type_id":"4","last_reported":1739189857,"current_range_meters":34800,"station_id":"ce4bgi92rcd13ifvqb90","pricing_plan_id":"cebpf4jnsgd1na2vs0mg"},{"bike_id":"118acaa8-c377-4759-a8f9-c3303973ef34","system_id":"levelo_inurba_marseille","lat":43.29873,"lon":5.38912,"is_reserved":false,"is_disabled":true,"rental_uris":{"android":"levelo://app?vid=118acaa8-c377-4759-a8f9-c3303973ef34","ios":"levelo://app?vid=118acaa8-c377-4759-a8f9-c3303973ef34"},"vehicle_type_id":"4","last_reported":1739189857,"current_range_meters":28800,"station_id":"ce4bh392rcd13ifvqdl0","pricing_plan_id":"cebpf4jnsgd1na2vs0mg"},{"bike_id":"f323145b-c47a-4432-9e5e-44b4bd7a6acf","system_id":"levelo_inurba_marseille","lat":43.27504,"lon":5.42474,"is_reserved":false,"is_disabled":false,"rental_uris":{"android":"levelo://app?vid=f323145b-c47a-4432-9e5e-44b4bd7a6acf","ios":"levelo://app?vid=f323145b-c47a-4432-9e5e-44b4bd7a6acf"},"vehicle_type_id":"4","last_reported":1739189857,"current_range_meters":38800,"station_id":"ce4bhn92rcd13ifvqgrg","pricing_plan_id":"cebpf4jnsgd1na2vs0mg"},{"bike_id":"b6eb01de-0fd7-4ae4-8d1e-b9197fd65b35","system_id":"levelo_inurba_marseille","lat":43.32286,"lon":5.382753,"is_reserved":false,"is_disabled":false,"rental_uris":{"android":"levelo://app?vid=b6eb01de-0fd7-4ae4-8d1e-b9197fd65b35","ios":"levelo://app?vid=b6eb01de-0fd7-4ae4-8d1e-b9197fd65b35"},"vehicle_type_id":"4","last_reported":1739189857,"current_range_meters":30800,"station_id":"ce4bhr12rcd13ifvqhqg","pricing_plan_id":"cebpf4jnsgd1na2vs0mg"},{"bike_id":"c2b10c21-fda5-4071-adec-660ac85050e8","system_id":"levelo_inurba_marseille","lat":43.30591,"lon":5.39353,"is_reserved":false,"is_disabled":false,"rental_uris":{"android":"levelo://app?vid=c2b10c21-fda5-4071-adec-660ac85050e8","ios":"levelo://app?vid=c2b10c21-fda5-4071-adec-660ac85050e8"},"vehicle_type_id":"4","last_reported":1739189857,"current_range_meters":20400,"station_id":"ce4bh0p2rcd13ifvqd80","pricing_plan_id":"cebpf4jnsgd1na2vs0mg"},{"bike_id":"10a8aa0e-b281-454d-8c08-561faec463d8","system_id":"levelo_inurba_marseille","lat":43.29225,"lon":5.36067,"is_reserved":false,"is_disabled":false,"rental_uris":{"android":"levelo://app?vid=10a8aa0e-b281-454d-8c08-561faec463d8","ios":"levelo://app?vid=10a8aa0e-b281-454d-8c08-561faec463d8"},"vehicle_type_id":"4","last_reported":1739189857,"current_range_meters":36800,"station_id":"ce4bhbh2rcd13ifvqeqg","pricing_plan_id":"cebpf4jnsgd1na2vs0mg"},{"bike_id":"54ce597b-1ca1-4d62-923d-d4b29eec04b3","system_id":"levelo_inurba_marseille","lat":43.31131,"lon":5.38261,"is_reserved":false,"is_disabled":false,"rental_uris":{"android":"levelo://app?vid=54ce597b-1ca1-4d62-923d-d4b29eec04b3","ios":"levelo://app?vid=54ce597b-1ca1-4d62-923d-d4b29eec04b3"},"vehicle_type_id":"4","last_reported":1739189857,"current_range_meters":26000,"station_id":"","pricing_plan_id":"cebpf4jnsgd1na2vs0mg"},{"bike_id":"b4765ae2-b7fb-4718-bf68-ce7ba2c817f9","system_id":"levelo_inurba_marseille","lat":43.27065,"lon":5.42274,"is_reserved":false,"is_disabled":false,"rental_uris":{"android":"levelo://app?vid=b4765ae2-b7fb-4718-bf68-ce7ba2c817f9","ios":"levelo://app?vid=b4765ae2-b7fb-4718-bf68-ce7ba2c817f9"},"vehicle_type_id":"4","last_reported":1739189857,"current_range_meters":28400,"station_id":"ce4bhk92rcd13ifvqgb0","pricing_plan_id":"cebpf4jnsgd1na2vs0mg"},{"bike_id":"0e2a811f-77c1-4794-813f-5a27ea22f548","system_id":"levelo_inurba_marseille","lat":43.29968,"lon":5.38484,"is_reserved":false,"is_disabled":false,"rental_uris":{"android":"levelo://app?vid=0e2a811f-77c1-4794-813f-5a27ea22f548","ios":"levelo://app?vid=0e2a811f-77c1-4794-813f-5a27ea22f548"},"vehicle_type_id":"4","last_reported":1739189857,"current_range_meters":32400,"station_id":"ce4bgj92rcd13ifvqbd0","pricing_plan_id":"cebpf4jnsgd1na2vs0mg"},{"bike_id":"cdc0d3a0-487d-4114-8190-ffb8774b935b","system_id":"levelo_inurba_marseille","lat":43.29298,"lon":5.37472,"is_reserved":false,"is_disabled":false,"rental_uris":{"android":"levelo://app?vid=cdc0d3a0-487d-4114-8190-ffb8774b935b","ios":"levelo://app?vid=cdc0d3a0-487d-4114-8190-ffb8774b935b"},"vehicle_type_id":"4","last_reported":1739189857,"current_range_meters":38800,"station_id":"ce4bgi12rcd13ifvqb70","pricing_plan_id":"cebpf4jnsgd1na2vs0mg"},{"bike_id":"90d1a8a8-5350-4d94-9502-14ac9fc62935","system_id":"levelo_inurba_marseille","lat":43.30214,"lon":5.39475,"is_reserved":false,"is_disabled":false,"rental_uris":{"android":"levelo://app?vid=90d1a8a8-5350-4d94-9502-14ac9fc62935","ios":"levelo://app?vid=90d1a8a8-5350-4d94-9502-14ac9fc62935"},"vehicle_type_id":"4","last_reported":1739189857,"current_range_meters":27200,"station_id":"ce4bh0p2rcd13ifvqd70","pricing_plan_id":"cebpf4jnsgd1na2vs0mg"},{"bike_id":"7783bfa8-41a8-4647-9723-689c49bd3c6a","system_id":"levelo_inurba_marseille","lat":43.2828,"lon":5.35064,"is_reserved":false,"is_disabled":false,"rental_uris":{"android":"levelo://app?vid=7783bfa8-41a8-4647-9723-689c49bd3c6a","ios":"levelo://app?vid=7783bfa8-41a8-4647-9723-689c49bd3c6a"},"vehicle_type_id":"4","last_reported":1739189857,"current_range_meters":26800,"station_id":"ce4bhbp2rcd13ifvqerg","pricing_plan_id":"cebpf4jnsgd1na2vs0mg"},{"bike_id":"86f01d3f-c958-40f4-9286-4ab127e94120","system_id":"levelo_inurba_marseille","lat":43.29858,"lon":5.362994,"is_reserved":false,"is_disabled":true,"rental_uris":{"android":"levelo://app?vid=86f01d3f-c958-40f4-9286-4ab127e94120","ios":"levelo://app?vid=86f01d3f-c958-40f4-9286-4ab127e94120"},"vehicle_type_id":"4","last_reported":1739189857,"current_range_meters":11200,"station_id":"ce4bgpp2rcd13ifvqc3g","pricing_plan_id":"cebpf4jnsgd1na2vs0mg"},{"bike_id":"6cc0d233-2e04-4263-8fd5-32d65c03ca83","system_id":"levelo_inurba_marseille","lat":43.301358,"lon":5.398626,"is_reserved":false,"is_disabled":false,"rental_uris":{"android":"levelo://app?vid=6cc0d233-2e04-4263-8fd5-32d65c03ca83","ios":"levelo://app?vid=6cc0d233-2e04-4263-8fd5-32d65c03ca83"},"vehicle_type_id":"4","last_reported":1739189857,"current_range_meters":24800,"station_id":"ce4bh0h2rcd13ifvqd40","pricing_plan_id":"cebpf4jnsgd1na2vs0mg"},