{"last_updated":1691075190,"ttl":30,"version":"2.2","data":{"bikes":[{"bike_id":"d27b59fe-ce5a-4999-b3c4-3b1a63443fb7","system_id":"levelo_inurba_marseille","lat":43.31383,"lon":5.36685,"is_reserved":false,"is_disabled":false,"rental_uris":{"android":"levelo://app?vid=d27b59fe-ce5a-4999-b3c4-3b1a63443fb7","ios":"levelo://app?vid=d27b59fe-ce5a-4999-b3c4-3b1a63443fb7"},"vehicle_type_id":"4","last_reported":1691075191,"current_range_meters":29200,"station_id":"ce4bgr92rcd13ifvqc6g","pricing_plan_id":"free"},{"bike_id":"a163d591-9df9-4876-8099-8e380338ce79","system_id":"levelo_inurba_marseille","lat":43.31226,"lon":5.36854,"is_reserved":false,"is_disabled":false,"rental_uris":{"android":"levelo://app?vid=a163d591-9df9-4876-8099-8e380338ce79","ios":"levelo://app?vid=a163d591-9df9-4876-8099-8e380338ce79"},"vehicle_type_id":"4","last_reported":1691075191,"current_range_meters":31200,"station_id":"ce4bgl92rcd13ifvqbq0","pricing_plan_id":"free"},{"bike_id":"4a103c84-20d2-46d9-923c-92e5ea949c94","system_id":"levelo_inurba_marseille","lat":43.312239,"lon":5.368562,"is_reserved":false,"is_disabled":false,"rental_uris":{"android":"levelo://app?vid=4a103c84-20d2-46d9-923c-92e5ea949c94","ios":"levelo://app?vid=4a103c84-20d2-46d9-923c-92e5ea949c94"},"vehicle_type_id":"4","last_reported":1691075191,"current_range_meters":28000,"station_id":"ce4bgl92rcd13ifvqbq0","pricing_plan_id":"free"},{"bike_id":"e5afd821-6a84-481d-b007-5c1d3ac5fb62","system_id":"levelo_inurba_marseille","lat":43.31216,"lon":5.36856,"is_reserved":false,"is_disabled":false,"rental_uris":{"android":"levelo://app?vid=e5afd821-6a84-481d-b007-5c1d3ac5fb62","ios":"levelo://app?vid=e5afd821-6a84-481d-b007-5c1d3ac5fb62"},"vehicle_type_id":"4","last_reported":1691075191,"current_range_meters":18800,"station_id":"ce4bgl92rcd13ifvqbq0","pricing_plan_id":"free"},{"bike_id":"789000fe-af4d-4dc7-a2dc-8b5b70dd479d","system_id":"levelo_inurba_marseille","lat":43.31225,"lon":5.36863,"is_reserved":false,"is_disabled":false,"rental_uris":{"android":"levelo://app?vid=789000fe-af4d-4dc7-a2dc-8b5b70dd479d","ios":"levelo://app?vid=789000fe-af4d-4dc7-a2dc-8b5b70dd479d"},"vehicle_type_id":"4","last_reported":1691075191,"current_range_meters":13200,"station_id":"ce4bgl92rcd13ifvqbq0","pricing_plan_id":"free"},{"bike_id":"1cb9832d-71c6-441c-99c6-ef8d20649be7","system_id":"levelo_inurba_marseille","lat":43.312239,"lon":5.368562,"is_reserved":false,"is_disabled":false,"rental_uris":{"android":"levelo://app?vid=1cb9832d-71c6-441c-99c6-ef8d20649be7","ios":"levelo://app?vid=1cb9832d-71c6-441c-99c6-ef8d20649be7"},"vehicle_type_id":"4","last_reported":1691075191,"current_range_meters":28400,"station_id":"ce4bgl92rcd13ifvqbq0","pricing_plan_id":"free"},{"bike_id":"d9ac4c20-67b4-494d-9791-4af1e249afed","system_id":"levelo_inurba_marseille","lat":43.309076,"lon":5.368465,"is_reserved":false,"is_disabled":false,"rental_uris":{"android":"levelo://app?vid=d9ac4c20-67b4-494d-9791-4af1e249afed","ios":"levelo://app?vid=d9ac4c20-67b4-494d-9791-4af1e249afed"},"vehicle_type_id":"4","last_reported":1691075191,"current_range_meters":6000,"station_id":"ce4bgn92rcd13ifvqbvg","pricing_plan_id":"free"},{"bike_id":"7c3584e2-8216-469e-b471-ee8769a8b6ca","system_id":"levelo_inurba_marseille","lat":43.309076,"lon":5.368465,"is_reserved":false,"is_disabled":false,"rental_uris":{"android":"levelo://app?vid=7c3584e2-8216-469e-b471-ee8769a8b6ca","ios":"levelo://app?vid=7c3584e2-8216-469e-b471-ee8769a8b6ca"},"vehicle_type_id":"4","last_reported":1691075191,"current_range_meters":31600,"station_id":"ce4bgn92rcd13ifvqbvg","pricing_plan_id":"free"},{"bike_id":"cb3adcf0-7c8e-44ec-94d7-dc464808b55e","system_id":"levelo_inurba_marseille","lat":43.309076,"lon":5.368465,"is_reserved":false,"is_disabled":false,"rental_uris":{"android":"levelo://app?vid=cb3adcf0-7c8e-44ec-94d7-dc464808b55e","ios":"levelo://app?vid=cb3adcf0-7c8e-44ec-94d7-dc464808b55e"},"vehicle_type_id":"4","last_reported":1691075191,"current_range_meters":31600,"station_id":"ce4bgn92rcd13ifvqbvg","pricing_plan_id":"free"},{"bike_id":"01672222-f9d6-4b75-883d-a9d3cd175b28","system_id":"levelo_inurba_marseille","lat":43.309,"lon":5.36854,"is_reserved":false,"is_disabled":false,"rental_uris":{"android":"levelo://app?vid=01672222-f9d6-4b75-883d-a9d3cd175b28","ios":"levelo://app?vid=01672222-f9d6-4b75-883d-a9d3cd175b28"},"vehicle_type_id":"4","last_reported":1691075191,"current_range_meters":20000,"station_id":"ce4bgn92rcd13ifvqbvg","pricing_plan_id":"free"},{"bike_id":"e858acd4-d6b8-4f26-9253-2b852337b164","system_id":"levelo_inurba_marseille","lat":43.30506,"lon":5.36636,"is_reserved":false,"is_disabled":false,"rental_uris":{"android":"levelo://app?vid=e858acd4-d6b8-4f26-9253-2b852337b164","ios":"levelo://app?vid=e858acd4-d6b8-4f26-9253-2b852337b164"},"vehicle_type_id":"4","last_reported":1691075191,"current_range_meters":12000,"station_id":"","pricing_plan_id":"free"},{"bike_id":"abd8b6de-3d86-4030-bd2c-b9788fdd1046","system_id":"levelo_inurba_marseille","lat":43.30605,"lon":5.37228,"is_reserved":false,"is_disabled":false,"rental_uris":{"android":"levelo://app?vid=abd8b6de-3d86-4030-bd2c-b9788fdd1046","ios":"levelo://app?vid=abd8b6de-3d86-4030-bd2c-b9788fdd1046"},"vehicle_type_id":"4","last_reported":1691075191,"current_range_meters":17200,"station_id":"","pricing_plan_id":"free"},{"bike_id":"f20ea888-8740-440b-bfeb-8eb2a7c1f652","system_id":"levelo_inurba_marseille","lat":43.30603,"lon":5.37227,"is_reserved":false,"is_disabled":false,"rental_uris":{"android":"levelo://app?vid=f20ea888-8740-440b-bfeb-8eb2a7c1f652","ios":"levelo://app?vid=f20ea888-8740-440b-bfeb-8eb2a7c1f652"},"vehicle_type_id":"4","last_reported":1691075191,"current_range_meters":31200,"station_id":"ce4bgqh2rcd13ifvqc4g","pricing_plan_id":"free"},{"bike_id":"8447b1b9-8177-41e9-b14b-e0fae2158e0b","system_id":"levelo_inurba_marseille","lat":43.305989,"lon":5.37225,"is_reserved":false,"is_disabled":false,"rental_uris":{"android":"levelo://app?vid=8447b1b9-8177-41e9-b14b-e0fae2158e0b","ios":"levelo://app?vid=8447b1b9-8177-41e9-b14b-e0fae2158e0b"},"vehicle_type_id":"4","last_reported":1691075191,"current_range_meters":23200,"station_id":"ce4bgqh2rcd13ifvqc4g","pricing_plan_id":"free"},{"bike_id":"77a28b3b-b5d4-4d79-8ebf-6a9dd4f90dd7","system_id":"levelo_inurba_marseille","lat":43.305989,"lon":5.37225,"is_reserved":false,"is_disabled":false,"rental_uris":{"android":"levelo://app?vid=77a28b3b-b5d4-4d79-8ebf-6a9dd4f90dd7","ios":"levelo://app?vid=77a28b3b-b5d4-4d79-8ebf-6a9dd4f90dd7"},"vehicle_type_id":"4","last_reported":1691075191,"current_range_meters":25600,"station_id":"ce4bgqh2rcd13ifvqc4g","pricing_plan_id":"free"},{"bike_id":"6eaa4a5b-8a17-46c5-a529-e96642e20dbd","system_id":"levelo_inurba_marseille","lat":43.30597,"lon":5.37233,"is_reserved":false,"is_disabled":false,"rental_uris":{"android":"levelo://app?vid=6eaa4a5b-8a17-46c5-a529-e96642e20dbd","ios":"levelo://app?vid=6eaa4a5b-8a17-46c5-a529-e96642e20dbd"},"vehicle_type_id":"4","last_reported":1691075191,"current_range_meters":13200,"station_id":"ce4bgqh2rcd13ifvqc4g","pricing_plan_id":"free"},{"bike_id":"46e74d59-c6d4-40ee-b484-f13dbf7075e7","system_id":"levelo_inurba_marseille","lat":43.307945,"lon":5.376487,"is_reserved":false,"is_disabled":false,"rental_uris":{"android":"levelo://app?vid=46e74d59-c6d4-40ee-b484-f13dbf7075e7","ios":"levelo://app?vid=46e74d59-c6d4-40ee-b484-f13dbf7075e7"},"vehicle_type_id":"4","last_reported":1691075191,"current_range_meters":7200,"station_id":"ce4bgv92rcd13ifvqcq0","pricing_plan_id":"free"},{"bike_id":"84263eb2-55d9-4dfd-bf1d-074fe888f591","system_id":"levelo_inurba_marseille","lat":43.307945,"lon":5.376487,"is_reserved":false,"is_disabled":false,"rental_uris":{"android":"levelo://app?vid=84263eb2-55d9-4dfd-bf1d-074fe888f591","ios":"levelo://app?vid=84263eb2-55d9-4dfd-bf1d-074fe888f591"},"vehicle_type_id":"4","last_reported":1691075191,"current_range_meters":12400,"station_id":"ce4bgv92rcd13ifvqcq0","pricing_plan_id":"free"},{"bike_id":"8b3c805f-d788-47bc-a207-c19163d03fca","system_id":"levelo_inurba_marseille","lat":43.30787,"lon":5.37657,"is_reserved":false,"is_disabled":false,"rental_uris":{"android":"levelo://app?vid=8b3c805f-d788-47bc-a207-c19163d03fca","ios":"levelo://app?vid=8b3c805f-d788-47bc-a207-c19163d03fca"},"vehicle_type_id":"4","last_reported":1691075191,"current_range_meters":18800,"station_id":"ce4bgv92rcd13ifvqcq0","pricing_plan_id":"free"},{"bike_id":"94964498-725d-4b90-be45-435819472a9a","system_id":"levelo_inurba_marseille","lat":43.30776,"lon":5.37649,"is_reserved":false,"is_disabled":false,"rental_uris":{"android":"levelo://app?vid=94964498-725d-4b90-be45-435819472a9a","ios":"levelo://app?vid=94964498-725d-4b90-be45-435819472a9a"},"vehicle_type_id":"4","last_reported":1691075191,"current_range_meters":27600,"station_id":"ce4bgv92rcd13ifvqcq0","pricing_plan_id":"free"},{"bike_id":"962d0702-6b86-493c-8f2c-6531e69b624a","system_id":"levelo_inurba_marseille","lat":43.317075,"lon":5.377367,"is_reserved":false,"is_disabled":false,"rental_uris":{"android":"levelo://app?vid=962d0702-6b86-493c-8f2c-6531e69b624a","ios":"levelo://app?vid=962d0702-6b86-493c-8f2c-6531e69b624a"},"vehicle_type_id":"4","last_reported":1691075191,"current_range_meters":26000,"station_id":"ce4bgth2rcd13ifvqch0","pricing_plan_id":"free"},{"bike_id":"6ec4bb7e-8606-49b4-a556-2cb681532bba","system_id":"levelo_inurba_marseille","lat":43.317075,"lon":5.377367,"is_reserved":false,"is_disabled":false,"rental_uris":{"android":"levelo://app?vid=6ec4bb7e-8606-49b4-a556-2cb681532bba","ios":"levelo://app?vid=6ec4bb7e-8606-49b4-a556-2cb681532bba"},"vehicle_type_id":"4","last_reported":1691075191,"current_range_meters":30800,"station_id":"ce4bgth2rcd13ifvqch0","pricing_plan_id":"free"},{"bike_id":"c472a128-0419-45a9-a295-6346dc7afbb1","system_id":"levelo_inurba_marseille","lat":43.30302,"lon":5.36854,"is_reserved":false,"is_disabled":false,"rental_uris":{"android":"levelo://app?vid=c472a128-0419-45a9-a295-6346dc7afbb1","ios":"levelo://app?vid=c472a128-0419-45a9-a295-6346dc7afbb1"},"vehicle_type_id":"4","last_reported":1691075191,"current_range_meters":18400,"station_id":"ce4bgqh2rcd13ifvqc5g","pricing_plan_id":"free"},{"bike_id":"2f937cf1-a17d-43ff-8926-0c5bbc02fd97","system_id":"levelo_inurba_marseille","lat":43.30304,"lon":5.368987,"is_reserved":false,"is_disabled":false,"rental_uris":{"android":"levelo://app?vid=2f937cf1-a17d-43ff-8926-0c5bbc02fd97","ios":"levelo://app?vid=2f937cf1-a17d-43ff-8926-0c5bbc02fd97"},"vehicle_type_id":"4","last_reported":1691075191,"current_range_meters":2800,"station_id":"ce4bgqh2rcd13ifvqc5g","pricing_plan_id":"free"},{"bike_id":"fb5bd12f-b48f-4c53-b063-e965b4277aed","system_id":"levelo_inurba_marseille","lat":43.31527,"lon":5.38035,"is_reserved":false,"is_disabled":false,"rental_uris":{"android":"levelo://app?vid=fb5bd12f-b48f-4c53-b063-e965b4277aed","ios":"levelo://app?vid=fb5bd12f-b48f-4c53-b063-e965b4277aed"},"vehicle_type_id":"4","last_reported":1691075191,"current_range_meters":31200,"station_id":"ce4bhsp2rcd13ifvqi50","pricing_plan_id":"free"},{"bike_id":"00892e19-ff2f-49f5-94f5-0dc2f6ff1faf","system_id":"levelo_inurba_marseille","lat":43.31527,"lon":5.38038,"is_reserved":false,"is_disabled":false,"rental_uris":{"android":"levelo://app?vid=00892e19-ff2f-49f5-94f5-0dc2f6ff1faf","ios":"levelo://app?vid=00892e19-ff2f-49f5-94f5-0dc2f6ff1faf"},"vehicle_type_id":"4","last_reported":1691075191,"current_range_meters":26400,"station_id":"ce4bhsp2rcd13ifvqi50","pricing_plan_id":"free"},{"bike_id":"94ac2495-de9a-4dce-b659-87801da2b2d7","system_id":"levelo_inurba_marseille","lat":43.315293,"lon":5.380349,"is_reserved":false,"is_disabled":false,"rental_uris":{"android":"levelo://app?vid=94ac2495-de9a-4dce-b659-87801da2b2d7","ios":"levelo://app?vid=94ac2495-de9a-4dce-b659-87801da2b2d7"},"vehicle_type_id":"4","last_reported":1691075191,"current_range_meters":17600,"station_id":"ce4bhsp2rcd13ifvqi50","pricing_plan_id":"free"},{"bike_id":"cf144abe-402a-4e78-b410-79c6d13361fb","system_id":"levelo_inurba_marseille","lat":43.31533,"lon":5.38038,"is_reserved":false,"is_disabled":false,"rental_uris":{"android":"levelo://app?vid=cf144abe-402a-4e78-b410-79c6d13361fb","ios":"levelo://app?vid=cf144abe-402a-4e78-b410-79c6d13361fb"},"vehicle_type_id":"4","last_reported":1691075191,"current_range_meters":17600,"station_id":"ce4bhsp2rcd13ifvqi50","pricing_plan_id":"free"},{"bike_id":"ca03c504-734e-402b-8597-fb77a9549039","system_id":"levelo_inurba_marseille","lat":43.31535,"lon":5.38047,"is_reserved":false,"is_disabled":false,"rental_uris":{"android":"levelo://app?vid=ca03c504-734e-402b-8597-fb77a9549039","ios":"levelo://app?vid=ca03c504-734e-402b-8597-fb77a9549039"},"vehicle_type_id":"4","last_reported":1691075191,"current_range_meters":31200,"station_id":"ce4bhsp2rcd13ifvqi50","pricing_plan_id":"free"},{"bike_id":"c5eb912d-c92b-4209-a6a5-b0305da9d99d","system_id":"levelo_inurba_marseille","lat":43.304606,"lon":5.379026,"is_reserved":false,"is_disabled":false,"rental_uris":{"android":"levelo://app?vid=c5eb912d-c92b-4209-a6a5-b0305da9d99d","ios":"levelo://app?vid=c5eb912d-c92b-4209-a6a5-b0305da9d99d"},"vehicle_type_id":"4","last_reported":1691075191,"current_range_meters":1600,"station_id":"ce4bgup2rcd13ifvqcn0","pricing_plan_id":"free"},{"bike_id":"c97102a8-0f0c-4383-ba4f-d207e38032f4","system_id":"levelo_inurba_marseille","lat":43.304606,"lon":5.379026,"is_reserved":false,"is_disabled":false,"rental_uris":{"android":"levelo://app?vid=c97102a8-0f0c-4383-ba4f-d207e38032f4","ios":"levelo://app?vid=c97102a8-0f0c-4383-ba4f-d207e38032f4"},"vehicle_type_id":"4","last_reported":1691075191,"current_range_meters":31200,"station_id":"ce4bgup2rcd13ifvqcn0","pricing_plan_id":"free"},{"bike_id":"69efd253-fbbb-4a73-9ba0-16d8244fa080","system_id":"levelo_inurba_marseille","lat":43.304606,"lon":5.379026,"is_reserved":false,"is_disabled":false,"rental_uris":{"android":"levelo://app?vid=69efd253-fbbb-4a73-9ba0-16d8244fa080","ios":"levelo://app?vid=69efd253-fbbb-4a73-9ba0-16d8244fa080"},"vehicle_type_id":"4","last_reported":1691075191,"current_range_meters":31600,"station_id":"ce4bgup2rcd13ifvqcn0","pricing_plan_id":"free"},{"bike_id":"73a618cb-2c99-4998-aa0e-09d7af1dcdd7","system_id":"levelo_inurba_marseille","lat":43.319935,"lon":5.381699,"is_reserved":false,"is_disabled":false,"rental_uris":{"android":"levelo://app?vid=73a618cb-2c99-4998-aa0e-09d7af1dcdd7","ios":"levelo://app?vid=73a618cb-2c99-4998-aa0e-09d7af1dcdd7"},"vehicle_type_id":"4","last_reported":1691075191,"current_range_meters":0,"station_id":"ce4bhr12rcd13ifvqhpg","pricing_plan_id":"free"},{"bike_id":"d92e79c6-8caa-430c-90be-6141442e45a4","system_id":"levelo_inurba_marseille","lat":43.31378,"lon":5.38486,"is_reserved":false,"is_disabled":false,"rental_uris":{"android":"levelo://app?vid=d92e79c6-8caa-430c-90be-6141442e45a4","ios":"levelo://app?vid=d92e79c6-8caa-430c-90be-6141442e45a4"},"vehicle_type_id":"4","last_reported":1691075191,"current_range_meters":14800,"station_id":"ce4bgt92rcd13ifvqcf0","pricing_plan_id":"free"},{"bike_id":"2c908abe-871d-4c83-8566-21f11464e071","system_id":"levelo_inurba_marseille","lat":43.313571,"lon":5.384829,"is_reserved":false,"is_disabled":false,"rental_uris":{"android":"levelo://app?vid=2c908abe-871d-4c83-8566-21f11464e071","ios":"levelo://app?vid=2c908abe-871d-4c83-8566-21f11464e071"},"vehicle_type_id":"4","last_reported":1691075191,"current_range_meters":31600,"station_id":"ce4bgt92rcd13ifvqcf0","pricing_plan_id":"free"},{"bike_id":"6787ec66-b590-4712-8000-aa522d353607","system_id":"levelo_inurba_marseille","lat":43.313571,"lon":5.384829,"is_reserved":false,"is_disabled":false,"rental_uris":{"android":"levelo://app?vid=6787ec66-b590-4712-8000-aa522d353607","ios":"levelo://app?vid=6787ec66-b590-4712-8000-aa522d353607"},"vehicle_type_id":"4","last_reported":1691075191,"current_range_meters":30400,"station_id":"ce4bgt92rcd13ifvqcf0","pricing_plan_id":"free"},{"bike_id":"a4368f9f-2a4b-4778-abbe-6fb5eef21062","system_id":"levelo_inurba_marseille","lat":43.313571,"lon":5.384829,"is_reserved":false,"is_disabled":false,"rental_uris":{"android":"levelo://app?vid=a4368f9f-2a4b-4778-abbe-6fb5eef21062","ios":"levelo://app?vid=a4368f9f-2a4b-4778-abbe-6fb5eef21062"},"vehicle_type_id":"4","last_reported":1691075191,"current_range_meters":6000,"station_id":"ce4bgt92rcd13ifvqcf0","pricing_plan_id":"free"},{"bike_id":"3cb7fd70-121e-4eb5-9a01-ecc8718aa1bb","system_id":"levelo_inurba_marseille","lat":43.29942,"lon":5.36537,"is_reserved":false,"is_disabled":false,"rental_uris":{"android":"levelo://app?vid=3cb7fd70-121e-4eb5-9a01-ecc8718aa1bb","ios":"levelo://app?vid=3cb7fd70-121e-4eb5-9a01-ecc8718aa1bb"},"vehicle_type_id":"4","last_reported":1691075191,"current_range_meters":31200,"station_id":"ce4bgm92rcd13ifvqbr0","pricing_plan_id":"free"},{"bike_id":"81b225ee-64ab-420a-b89a-ca88c95e5f03","system_id":"levelo_inurba_marseille","lat":43.29968,"lon":5.37154,"is_reserved":false,"is_disabled":false,"rental_uris":{"android":"levelo://app?vid=81b225ee-64ab-420a-b89a-ca88c95e5f03","ios":"levelo://app?vid=81b225ee-64ab-420a-b89a-ca88c95e5f03"},"vehicle_type_id":"4","last_reported":1691075191,"current_range_meters":25200,"station_id":"ce4bgr92rcd13ifvqc7g","pricing_plan_id":"free"},{"bike_id":"4a36e91f-c40f-4ab6-b84d-f08f669160ee","system_id":"levelo_inurba_marseille","lat":43.30582,"lon":5.38381,"is_reserved":false,"is_disabled":false,"rental_uris":{"android":"levelo://app?vid=4a36e91f-c40f-4ab6-b84d-f08f669160ee","ios":"levelo://app?vid=4a36e91f-c40f-4ab6-b84d-f08f669160ee"},"vehicle_type_id":"4","last_reported":1691075191,"current_range_meters":1200,"station_id":"","pricing_plan_id":"free"},{"bike_id":"30537d43-af02-4a10-b928-7b9b8cf633d2","system_id":"levelo_inurba_marseille","lat":43.30538,"lon":5.38427,"is_reserved":false,"is_disabled":false,"rental_uris":{"android":"levelo://app?vid=30537d43-af02-4a10-b928-7b9b8cf633d2","ios":"levelo://app?vid=30537d43-af02-4a10-b928-7b9b8cf633d2"},"vehicle_type_id":"4","last_reported":1691075191,"current_range_meters":29200,"station_id":"ce4bgg92rcd13ifvqb30","pricing_plan_id":"free"},{"bike_id":"c37352b8-d043-4604-93da-86804fe82cea","system_id":"levelo_inurba_marseille","lat":43.311722,"lon":5.387247,"is_reserved":false,"is_disabled":false,"rental_uris":{"android":"levelo://app?vid=c37352b8-d043-4604-93da-86804fe82cea","ios":"levelo://app?vid=c37352b8-d043-4604-93da-86804fe82cea"},"vehicle_type_id":"4","last_reported":1691075191,"current_range_meters":31600,"station_id":"ce4bgv12rcd13ifvqcp0","pricing_plan_id":"free"},{"bike_id":"04b8ab63-8a37-44b1-9995-d8ed30811409","system_id":"levelo_inurba_marseille","lat":43.311722,"lon":5.387247,"is_reserved":false,"is_disabled":false,"rental_uris":{"android":"levelo://app?vid=04b8ab63-8a37-44b1-9995-d8ed30811409","ios":"levelo://app?vid=04b8ab63-8a37-44b1-9995-d8ed30811409"},"vehicle_type_id":"4","last_reported":1691075191,"current_range_meters":31600,"station_id":"ce4bgv12rcd13ifvqcp0","pricing_plan_id":"free"},{"bike_id":"44b93421-3642-43b1-b81a-8c2366d54d5c","system_id":"levelo_inurba_marseille","lat":43.311722,"lon":5.387247,"is_reserved":false,"is_disabled":false,"rental_uris":{"android":"levelo://app?vid=44b93421-3642-43b1-b81a-8c2366d54d5c","ios":"levelo://app?vid=44b93421-3642-43b1-b81a-8c2366d54d5c"},"vehicle_type_id":"4","last_reported":1691075191,"current_range_meters":24800,"station_id":"ce4bgv12rcd13ifvqcp0","pricing_plan_id":"free"},{"bike_id":"08b2b6df-ed8f-4f0d-9867-d708d4ca5747","system_id":"levelo_inurba_marseille","lat":43.297774,"lon":5.370875,"is_reserved":false,"is_disabled":false,"rental_uris":{"android":"levelo://app?vid=08b2b6df-ed8f-4f0d-9867-d708d4ca5747","ios":"levelo://app?vid=08b2b6df-ed8f-4f0d-9867-d708d4ca5747"},"vehicle_type_id":"4","last_reported":1691075191,"current_range_meters":14800,"station_id":"ce4bgop2rcd13ifvqc1g","pricing_plan_id":"free"},{"bike_id":"7cf1aab8-38a1-47db-af16-2123c0ca6e97","system_id":"levelo_inurba_marseille","lat":43.322872,"lon":5.382756,"is_reserved":false,"is_disabled":false,"rental_uris":{"android":"levelo://app?vid=7cf1aab8-38a1-47db-af16-2123c0ca6e97","ios":"levelo://app?vid=7cf1aab8-38a1-47db-af16-2123c0ca6e97"},"vehicle_type_id":"4","last_reported":1691075191,"current_range_meters":20800,"station_id":"ce4bhr12rcd13ifvqhqg","pricing_plan_id":"free"},{"bike_id":"94d385b1-f593-4755-838a-e18d17d60e87","system_id":"levelo_inurba_marseille","lat":43.3229,"lon":5.38268,"is_reserved":false,"is_disabled":false,"rental_uris":{"android":"levelo://app?vid=94d385b1-f593-4755-838a-e18d17d60e87","ios":"levelo://app?vid=94d385b1-f593-4755-838a-e18d17d60e87"},"vehicle_type_id":"4","last_reported":1691075191,"current_range_meters":24400,"station_id":"ce4bhr12rcd13ifvqhqg","pricing_plan_id":"free"},{"bike_id":"04041c0e-725a-4973-8c34-0479d8f8c3e9","system_id":"levelo_inurba_marseille","lat":43.32291,"lon":5.38273,"is_reserved":false,"is_disabled":false,"rental_uris":{"android":"levelo://app?vid=04041c0e-725a-4973-8c34-0479d8f8c3e9","ios":"levelo://app?vid=04041c0e-725a-4973-8c34-0479d8f8c3e9"},"vehicle_type_id":"4","last_reported":1691075191,"current_range_meters":25600,"station_id":"ce4bhr12rcd13ifvqhqg","pricing_plan_id":"free"},{"bike_id":"499a0bd2-e043-4a7e-8415-ef006543fdf4","system_id":"levelo_inurba_marseille","lat":43.328371,"lon":5.366909,"is_reserved":false,"is_disabled":false,"rental_uris":{"android":"levelo://app?vid=499a0bd2-e043-4a7e-8415-ef006543fdf4","ios":"levelo://app?vid=499a0bd2-e043-4a7e-8415-ef006543fdf4"},"vehicle_type_id":"4","last_reported":1691075191,"current_range_meters":20800,"station_id":"ce4bhs92rcd13ifvqi0g","pricing_plan_id":"free"},{"bike_id":"ecfd0045-1d38-4e78-ba05-2f8cb1a7c161","system_id":"levelo_inurba_marseille","lat":43.3283,"lon":5.36679,"is_reserved":false,"is_disabled":false,"rental_uris":{"android":"levelo://app?vid=ecfd0045-1d38-4e78-ba05-2f8cb1a7c161","ios":"levelo://app?vid=ecfd0045-1d38-4e78-ba05-2f8cb1a7c161"},"vehicle_type_id":"4","last_reported":1691075191,"current_range_meters":21600,"station_id":"ce4bhs92rcd13ifvqi0g","pricing_plan_id":"free"},{"bike_id":"dddbedc8-6a42-40c6-936f-790bd1069b29","system_id":"levelo_inurba_marseille","lat":43.328371,"lon":5.366909,"is_reserved":false,"is_disabled":false,"rental_uris":{"android":"levelo://app?vid=dddbedc8-6a42-40c6-936f-790bd1069b29","ios":"levelo://app?vid=dddbedc8-6a42-40c6-936f-790bd1069b29"},"vehicle_type_id":"4","last_reported":1691075191,"current_range_meters":13600,"station_id":"ce4bhs92rcd13ifvqi0g","pricing_plan_id":"free"},{"bike_id":"1832ac29-ef2b-4f4e-a090-0f5739d49c40","system_id":"levelo_inurba_marseille","lat":43.328371,"lon":5.366909,"is_reserved":false,"is_disabled":false,"rental_uris":{"android":"levelo://app?vid=1832ac29-ef2b-4f4e-a090-0f5739d49c40","ios":"levelo://app?vid=1832ac29-ef2b-4f4e-a090-0f5739d49c40"},"vehicle_type_id":"4","last_reported":1691075191,"current_range_meters":31200,"station_id":"ce4bhs92rcd13ifvqi0g","pricing_plan_id":"free"},{"bike_id":"e4ec85a6-b9ce-4a6e-9842-d1c131ac1e8b","system_id":"levelo_inurba_marseille","lat":43.32831,"lon":5.36676,"is_reserved":false,"is_disabled":false,"rental_uris":{"android":"levelo://app?vid=e4ec85a6-b9ce-4a6e-9842-d1c131ac1e8b","ios":"levelo://app?vid=e4ec85a6-b9ce-4a6e-9842-d1c131ac1e8b"},"vehicle_type_id":"4","last_reported":1691075191,"current_range_meters":20400,"station_id":"ce4bhs92rcd13ifvqi0g","pricing_plan_id":"free"},{"bike_id":"359f6dd8-4114-464c-8447-3637dce8744e","system_id":"levelo_inurba_marseille","lat":43.328371,"lon":5.366909,"is_reserved":false,"is_disabled":false,"rental_uris":{"android":"levelo://app?vid=359f6dd8-4114-464c-8447-3637dce8744e","ios":"levelo://app?vid=359f6dd8-4114-464c-8447-3637dce8744e"},"vehicle_type_id":"4","last_reported":1691075191,"current_range_meters":20800,"station_id":"ce4bhs92rcd13ifvqi0g","pricing_plan_id":"free"},{"bike_id":"bb224614-7241-44f8-8205-8a0c7f36065f","system_id":"levelo_inurba_marseille","lat":43.328371,"lon":5.366909,"is_reserved":false,"is_disabled":false,"rental_uris":{"android":"levelo://app?vid=bb224614-7241-44f8-8205-8a0c7f36065f","ios":"levelo://app?vid=bb224614-7241-44f8-8205-8a0c7f36065f"},"vehicle_type_id":"4","last_reported":1691075191,"current_range_meters":12800,"station_id":"ce4bhs92rcd13ifvqi0g","pricing_plan_id":"free"},{"bike_id":"dd789220-e7b5-42c1-b9dc-dc4243148021","system_id":"levelo_inurba_marseille","lat":43.297163,"lon":5.365866,"is_reserved":false,"is_disabled":false,"rental_uris":{"android":"levelo://app?vid=dd789220-e7b5-42c1-b9dc-dc4243148021","ios":"levelo://app?vid=dd789220-e7b5-42c1-b9dc-dc4243148021"},"vehicle_type_id":"4","last_reported":1691075191,"current_range_meters":31600,"station_id":"ce4bgn12rcd13ifvqbt0","pricing_plan_id":"free"},{"bike_id":"a119d6cc-6e9a-4fa6-bb01-ee0409e14aa0","system_id":"levelo_inurba_marseille","lat":43.2968,"lon":5.37291,"is_reserved":false,"is_disabled":false,"rental_uris":{"android":"levelo://app?vid=a119d6cc-6e9a-4fa6-bb01-ee0409e14aa0","ios":"levelo://app?vid=a119d6cc-6e9a-4fa6-bb01-ee0409e14aa0"},"vehicle_type_id":"4","last_reported":1691075191,"current_range_meters":25600,"station_id":"ce4bgk12rcd13ifvqbj0","pricing_plan_id":"free"},{"bike_id":"9689e59d-2fc8-4215-9cb2-c09cfb01ecf5","system_id":"levelo_inurba_marseille","lat":43.296921,"lon":5.376579,"is_reserved":false,"is_disabled":false,"rental_uris":{"android":"levelo://app?vid=9689e59d-2fc8-4215-9cb2-c09cfb01ecf5","ios":"levelo://app?vid=9689e59d-2fc8-4215-9cb2-c09cfb01ecf5"},"vehicle_type_id":"4","last_reported":1691075191,"current_range_meters":26000,"station_id":"ce4bgkh2rcd13ifvqbl0","pricing_plan_id":"free"},{"bike_id":"f0b1921d-8fc5-42f6-8214-26455e772ce5","system_id":"levelo_inurba_marseille","lat":43.309589,"lon":5.390258,"is_reserved":false,"is_disabled":false,"rental_uris":{"android":"levelo://app?vid=f0b1921d-8fc5-42f6-8214-26455e772ce5","ios":"levelo://app?vid=f0b1921d-8fc5-42f6-8214-26455e772ce5"},"vehicle_type_id":"4","last_reported":1691075191,"current_range_meters":26400,"station_id":"ce4bgup2rcd13ifvqco0","pricing_plan_id":"free"},{"bike_id":"ed67957c-5bde-47e2-b220-2fe6a0ba8368","system_id":"levelo_inurba_marseille","lat":43.317557,"lon":5.390173,"is_reserved":false,"is_disabled":false,"rental_uris":{"android":"levelo://app?vid=ed67957c-5bde-47e2-b220-2fe6a0ba8368","ios":"levelo://app?vid=ed67957c-5bde-47e2-b220-2fe6a0ba8368"},"vehicle_type_id":"4","last_reported":1691075191,"current_range_meters":28000,"station_id":"ce4bhqp2rcd13ifvqhng","pricing_plan_id":"free"},{"bike_id":"725d5d1e-1cb6-477c-ac02-68bb55771088","system_id":"levelo_inurba_marseille","lat":43.298037,"lon":5.381066,"is_reserved":false,"is_disabled":false,"rental_uris":{"android":"levelo://app?vid=725d5d1e-1cb6-477c-ac02-68bb55771088","ios":"levelo://app?vid=725d5d1e-1cb6-477c-ac02-68bb55771088"},"vehicle_type_id":"4","last_reported":1691075191,"current_range_meters":24000,"station_id":"ce4bgip2rcd13ifvqbb0","pricing_plan_id":"free"},{"bike_id":"79d9d0ea-8574-4e57-886a-3ee31a64debe","system_id":"levelo_inurba_marseille","lat":43.298037,"lon":5.381066,"is_reserved":false,"is_disabled":false,"rental_uris":{"android":"levelo://app?vid=79d9d0ea-8574-4e57-886a-3ee31a64debe","ios":"levelo://app?vid=79d9d0ea-8574-4e57-886a-3ee31a64debe"},"vehicle_type_id":"4","last_reported":1691075191,"current_range_meters":24400,"station_id":"ce4bgip2rcd13ifvqbb0","pricing_plan_id":"free"},{"bike_id":"f884a1bc-81da-43b6-822c-9cb40d765e7d","system_id":"levelo_inurba_marseille","lat":43.298037,"lon":5.381066,"is_reserved":false,"is_disabled":false,"rental_uris":{"android":"levelo://app?vid=f884a1bc-81da-43b6-822c-9cb40d765e7d","ios":"levelo://app?vid=f884a1bc-81da-43b6-822c-9cb40d765e7d"},"vehicle_type_id":"4","last_reported":1691075191,"current_range_meters":5600,"station_id":"ce4bgip2rcd13ifvqbb0","pricing_plan_id":"free"},{"bike_id":"2d961182-90b3-427b-9eab-3cda0d7f8bcb","system_id":"levelo_inurba_marseille","lat":43.304278,"lon":5.388868,"is_reserved":false,"is_disabled":false,"rental_uris":{"android":"levelo://app?vid=2d961182-90b3-427b-9eab-3cda0d7f8bcb","ios":"levelo://app?vid=2d961182-90b3-427b-9eab-3cda0d7f8bcb"},"vehicle_type_id":"4","last_reported":1691075191,"current_range_meters":22000,"station_id":"ce4bgk12rcd13ifvqbi0","pricing_plan_id":"free"},{"bike_id":"f5edd822-bfd5-4bbb-9fee-153997ab9678","system_id":"levelo_inurba_marseille","lat":43.295748,"lon":5.37522,"is_reserved":false,"is_disabled":false,"rental_uris":{"android":"levelo://app?vid=f5edd822-bfd5-4bbb-9fee-153997ab9678","ios":"levelo://app?vid=f5edd822-bfd5-4bbb-9fee-153997ab9678"},"vehicle_type_id":"4","last_reported":1691075191,"current_range_meters":14000,"station_id":"ce4bgh92rcd13ifvqb50","pricing_plan_id":"free"},{"bike_id":"3ea7f0f4-0c54-414e-a516-428023527452","system_id":"levelo_inurba_marseille","lat":43.32364,"lon":5.38882,"is_reserved":false,"is_disabled":false,"rental_uris":{"android":"levelo://app?vid=3ea7f0f4-0c54-414e-a516-428023527452","ios":"levelo://app?vid=3ea7f0f4-0c54-414e-a516-428023527452"},"vehicle_type_id":"4","last_reported":1691075191,"current_range_meters":30000,"station_id":"ce4bhqp2rcd13ifvqhog","pricing_plan_id":"free"},{"bike_id":"660de016-7b00-4735-9d75-3ae99d5de62d","system_id":"levelo_inurba_marseille","lat":43.32368,"lon":5.38879,"is_reserved":false,"is_disabled":false,"rental_uris":{"android":"levelo://app?vid=660de016-7b00-4735-9d75-3ae99d5de62d","ios":"levelo://app?vid=660de016-7b00-4735-9d75-3ae99d5de62d"},"vehicle_type_id":"4","last_reported":1691075191,"current_range_meters":31200,"station_id":"ce4bhqp2rcd13ifvqhog","pricing_plan_id":"free"},{"bike_id":"83e40035-5ae5-4bb2-89ae-adf2ef147026","system_id":"levelo_inurba_marseille","lat":43.323676,"lon":5.388816,"is_reserved":false,"is_disabled":false,"rental_uris":{"android":"levelo://app?vid=83e40035-5ae5-4bb2-89ae-adf2ef147026","ios":"levelo://app?vid=83e40035-5ae5-4bb2-89ae-adf2ef147026"},"vehicle_type_id":"4","last_reported":1691075191,"current_range_meters":14800,"station_id":"","pricing_plan_id":"free"},{"bike_id":"6be534a9-96c6-4989-b3bb-e9dea76376c4","system_id":"levelo_inurba_marseille","lat":43.32366,"lon":5.38885,"is_reserved":false,"is_disabled":false,"rental_uris":{"android":"levelo://app?vid=6be534a9-96c6-4989-b3bb-e9dea76376c4","ios":"levelo://app?vid=6be534a9-96c6-4989-b3bb-e9dea76376c4"},"vehicle_type_id":"4","last_reported":1691075191,"current_range_meters":16000,"station_id":"ce4bhqp2rcd13ifvqhog","pricing_plan_id":"free"},{"bike_id":"50dbfc56-7542-4673-81aa-3828545d4b30","system_id":"levelo_inurba_marseille","lat":43.32368,"lon":5.38891,"is_reserved":false,"is_disabled":false,"rental_uris":{"android":"levelo://app?vid=50dbfc56-7542-4673-81aa-3828545d4b30","ios":"levelo://app?vid=50dbfc56-7542-4673-81aa-3828545d4b30"},"vehicle_type_id":"4","last_reported":1691075191,"current_range_meters":22000,"station_id":"ce4bhqp2rcd13ifvqhog","pricing_plan_id":"free"},{"bike_id":"ab3eb58b-9f0a-4694-a020-82a421799dda","system_id":"levelo_inurba_marseille","lat":43.305994,"lon":5.393687,"is_reserved":false,"is_disabled":false,"rental_uris":{"android":"levelo://app?vid=ab3eb58b-9f0a-4694-a020-82a421799dda","ios":"levelo://app?vid=ab3eb58b-9f0a-4694-a020-82a421799dda"},"vehicle_type_id":"4","last_reported":1691075191,"current_range_meters":5200,"station_id":"ce4bh0p2rcd13ifvqd80","pricing_plan_id":"free"},{"bike_id":"1981d990-fe7f-4326-8ec5-3434789ce47c","system_id":"levelo_inurba_marseille","lat":43.305994,"lon":5.393687,"is_reserved":false,"is_disabled":false,"rental_uris":{"android":"levelo://app?vid=1981d990-fe7f-4326-8ec5-3434789ce47c","ios":"levelo://app?vid=1981d990-fe7f-4326-8ec5-3434789ce47c"},"vehicle_type_id":"4","last_reported":1691075191,"current_range_meters":30400,"station_id":"ce4bh0p2rcd13ifvqd80","pricing_plan_id":"free"},{"bike_id":"0dfb54ad-20ab-4518-a90b-2f012712132f","system_id":"levelo_inurba_marseille","lat":43.303171,"lon":5.39213,"is_reserved":false,"is_disabled":false,"rental_uris":{"android":"levelo://app?vid=0dfb54ad-20ab-4518-a90b-2f012712132f","ios":"levelo://app?vid=0dfb54ad-20ab-4518-a90b-2f012712132f"},"vehicle_type_id":"4","last_reported":1691075191,"current_range_meters":0,"station_id":"ce4bgkh2rcd13ifvqbk0","pricing_plan_id":"free"},{"bike_id":"246a9945-6ac8-4078-82ce-2818dabacbf6","system_id":"levelo_inurba_marseille","lat":43.292311,"lon":5.360731,"is_reserved":false,"is_disabled":false,"rental_uris":{"android":"levelo://app?vid=246a9945-6ac8-4078-82ce-2818dabacbf6","ios":"levelo://app?vid=246a9945-6ac8-4078-82ce-2818dabacbf6"},"vehicle_type_id":"4","last_reported":1691075191,"current_range_meters":31200,"station_id":"ce4bhbh2rcd13ifvqeqg","pricing_plan_id":"free"},{"bike_id":"f0760f75-d0ba-4f18-9c09-04479c1519d7","system_id":"levelo_inurba_marseille","lat":43.292311,"lon":5.360731,"is_reserved":false,"is_disabled":false,"rental_uris":{"android":"levelo://app?vid=f0760f75-d0ba-4f18-9c09-04479c1519d7","ios":"levelo://app?vid=f0760f75-d0ba-4f18-9c09-04479c1519d7"},"vehicle_type_id":"4","last_reported":1691075191,"current_range_meters":31600,"station_id":"ce4bhbh2rcd13ifvqeqg","pricing_plan_id":"free"},{"bike_id":"c46cebf8-3dcb-494a-91ca-8a66cc9aa8ff","system_id":"levelo_inurba_marseille","lat":43.292311,"lon":5.360731,"is_reserved":false,"is_disabled":false,"rental_uris":{"android":"levelo://app?vid=c46cebf8-3dcb-494a-91ca-8a66cc9aa8ff","ios":"levelo://app?vid=c46cebf8-3dcb-494a-91ca-8a66cc9aa8ff"},"vehicle_type_id":"4","last_reported":1691075191,"current_range_meters":14800,"station_id":"ce4bhbh2rcd13ifvqeqg","pricing_plan_id":"free"},{"bike_id":"55649401-4fe9-4423-958b-267b96c5ebea","system_id":"levelo_inurba_marseille","lat":43.292311,"lon":5.360731,"is_reserved":false,"is_disabled":false,"rental_uris":{"android":"levelo://app?vid=55649401-4fe9-4423-958b-267b96c5ebea","ios":"levelo://app?vid=55649401-4fe9-4423-958b-267b96c5ebea"},"vehicle_type_id":"4","last_reported":1691075191,"current_range_meters":26800,"station_id":"ce4bhbh2rcd13ifvqeqg","pricing_plan_id":"free"},{"bike_id":"eb1ddf73-0be3-4020-9072-b76e2bd023ae","system_id":"levelo_inurba_marseille","lat":43.292311,"lon":5.360731,"is_reserved":false,"is_disabled":false,"rental_uris":{"android":"levelo://app?vid=eb1ddf73-0be3-4020-9072-b76e2bd023ae","ios":"levelo://app?vid=eb1ddf73-0be3-4020-9072-b76e2bd023ae"},"vehicle_type_id":"4","last_reported":1691075191,"current_range_meters":31600,"station_id":"ce4bhbh2rcd13ifvqeqg","pricing_plan_id":"free"},{"bike_id":"b58b5ae8-ab6d-4869-a563-9bd604ab284f","system_id":"levelo_inurba_marseille","lat":43.29221,"lon":5.36047,"is_reserved":false,"is_disabled":false,"rental_uris":{"android":"levelo://app?vid=b58b5ae8-ab6d-4869-a563-9bd604ab284f","ios":"levelo://app?vid=b58b5ae8-ab6d-4869-a563-9bd604ab284f"},"vehicle_type_id":"4","last_reported":1691075191,"current_range_meters":31200,"station_id":"ce4bhbh2rcd13ifvqeqg","pricing_plan_id":"free"},{"bike_id":"97c92ff2-b281-46aa-b6cf-ca1a4e641e08","system_id":"levelo_inurba_marseille","lat":43.300852,"lon":5.390859,"is_reserved":false,"is_disabled":false,"rental_uris":{"android":"levelo://app?vid=97c92ff2-b281-46aa-b6cf-ca1a4e641e08","ios":"levelo://app?vid=97c92ff2-b281-46aa-b6cf-ca1a4e641e08"},"vehicle_type_id":"4","last_reported":1691075191,"current_range_meters":2000,"station_id":"ce4bh192rcd13ifvqdb0","pricing_plan_id":"free"},{"bike_id":"2b692427-8252-41c2-a43b-3199ac090c09","system_id":"levelo_inurba_marseille","lat":43.298764,"lon":5.388973,"is_reserved":false,"is_disabled":false,"rental_uris":{"android":"levelo://app?vid=2b692427-8252-41c2-a43b-3199ac090c09","ios":"levelo://app?vid=2b692427-8252-41c2-a43b-3199ac090c09"},"vehicle_type_id":"4","last_reported":1691075191,"current_range_meters":0,"station_id":"ce4bh392rcd13ifvqdl0","pricing_plan_id":"free"},{"bike_id":"386b7ab9-0cc7-4148-a071-dff317eda34e","system_id":"levelo_inurba_marseille","lat":43.29255,"lon":5.3764,"is_reserved":false,"is_disabled":false,"rental_uris":{"android":"levelo://app?vid=386b7ab9-0cc7-4148-a071-dff317eda34e","ios":"levelo://app?vid=386b7ab9-0cc7-4148-a071-dff317eda34e"},"vehicle_type_id":"4","last_reported":1691075191,"current_range_meters":19200,"station_id":"ce4bgi12rcd13ifvqb80","pricing_plan_id":"free"},{"bike_id":"a53c48e8-0054-4783-8dcc-d0d1801fe439","system_id":"levelo_inurba_marseille","lat":43.292663,"lon":5.376389,"is_reserved":false,"is_disabled":false,"rental_uris":{"android":"levelo://app?vid=a53c48e8-0054-4783-8dcc-d0d1801fe439","ios":"levelo://app?vid=a53c48e8-0054-4783-8dcc-d0d1801fe439"},"vehicle_type_id":"4","last_reported":1691075191,"current_range_meters":2000,"station_id":"ce4bgi12rcd13ifvqb80","pricing_plan_id":"free"},{"bike_id":"720e6653-f184-48d5-954c-2400999c90a1","system_id":"levelo_inurba_marseille","lat":43.29199,"lon":5.35799,"is_reserved":false,"is_disabled":false,"rental_uris":{"android":"levelo://app?vid=720e6653-f184-48d5-954c-2400999c90a1","ios":"levelo://app?vid=720e6653-f184-48d5-954c-2400999c90a1"},"vehicle_type_id":"4","last_reported":1691075191,"current_range_meters":22400,"station_id":"ce4bhb12rcd13ifvqel0","pricing_plan_id":"free"},{"bike_id":"48ec2133-5f12-4cf4-bcf2-ffc5c3f68af4","system_id":"levelo_inurba_marseille","lat":43.29197,"lon":5.35793,"is_reserved":false,"is_disabled":false,"rental_uris":{"android":"levelo://app?vid=48ec2133-5f12-4cf4-bcf2-ffc5c3f68af4","ios":"levelo://app?vid=48ec2133-5f12-4cf4-bcf2-ffc5c3f68af4"},"vehicle_type_id":"4","last_reported":1691075191,"current_range_meters":6800,"station_id":"ce4bhb12rcd13ifvqel0","pricing_plan_id":"free"},{"bike_id":"a0bea851-2c36-4bbc-907f-071100d84dd8","system_id":"levelo_inurba_marseille","lat":43.29195,"lon":5.35798,"is_reserved":false,"is_disabled":false,"rental_uris":{"android":"levelo://app?vid=a0bea851-2c36-4bbc-907f-071100d84dd8","ios":"levelo://app?vid=a0bea851-2c36-4bbc-907f-071100d84dd8"},"vehicle_type_id":"4","last_reported":1691075191,"current_range_meters":18400,"station_id":"ce4bhb12rcd13ifvqel0","pricing_plan_id":"free"},{"bike_id":"380ba96c-7270-41d8-b16e-82334e124c57","system_id":"levelo_inurba_marseille","lat":43.29196,"lon":5.3579,"is_reserved":false,"is_disabled":false,"rental_uris":{"android":"levelo://app?vid=380ba96c-7270-41d8-b16e-82334e124c57","ios":"levelo://app?vid=380ba96c-7270-41d8-b16e-82334e124c57"},"vehicle_type_id":"4","last_reported":1691075191,"current_range_meters":12400,"station_id":"ce4bhb12rcd13ifvqel0","pricing_plan_id":"free"},{"bike_id":"e1b48de0-17ac-4c79-aec5-fb6d2d410baf","system_id":"levelo_inurba_marseille","lat":43.29195,"lon":5.35794,"is_reserved":false,"is_disabled":false,"rental_uris":{"android":"levelo://app?vid=e1b48de0-17ac-4c79-aec5-fb6d2d410baf","ios":"levelo://app?vid=e1b48de0-17ac-4c79-aec5-fb6d2d410baf"},"vehicle_type_id":"4","last_reported":1691075191,"current_range_meters":20400,"station_id":"ce4bhb12rcd13ifvqel0","pricing_plan_id":"free"},{"bike_id":"32855e8d-143e-427b-9ecb-f2cb59103373","system_id":"levelo_inurba_marseille","lat":43.29195,"lon":5.3579,"is_reserved":false,"is_disabled":false,"rental_uris":{"android":"levelo://app?vid=32855e8d-143e-427b-9ecb-f2cb59103373","ios":"levelo://app?vid=32855e8d-143e-427b-9ecb-f2cb59103373"},"vehicle_type_id":"4","last_reported":1691075191,"current_range_meters":16800,"station_id":"ce4bhb12rcd13ifvqel0","pricing_plan_id":"free"},{"bike_id":"16a7d4ce-b2dc-4769-90ad-07a607d2d0cd","system_id":"levelo_inurba_marseille","lat":43.29192,"lon":5.35795,"is_reserved":false,"is_disabled":false,"rental_uris":{"android":"levelo://app?vid=16a7d4ce-b2dc-4769-90ad-07a607d2d0cd","ios":"levelo://app?vid=16a7d4ce-b2dc-4769-90ad-07a607d2d0cd"},"vehicle_type_id":"4","last_reported":1691075191,"current_range_meters":4800,"station_id":"ce4bhb12rcd13ifvqel0","pricing_plan_id":"free"},{"bike_id":"b46e2f10-030c-40ec-87c9-9c21fe972f93","system_id":"levelo_inurba_marseille","lat":43.29191,"lon":5.35799,"is_reserved":false,"is_disabled":false,"rental_uris":{"android":"levelo://app?vid=b46e2f10-030c-40ec-87c9-9c21fe972f93","ios":"levelo://app?vid=b46e2f10-030c-40ec-87c9-9c21fe972f93"},"vehicle_type_id":"4","last_reported":1691075191,"current_range_meters":26800,"station_id":"ce4bhb12rcd13ifvqel0","pricing_plan_id":"free"},{"bike_id":"9e50712c-b938-499e-b4de-3e07a859ce93","system_id":"levelo_inurba_marseille","lat":43.31321,"lon":5.39694,"is_reserved":false,"is_disabled":false,"rental_uris":{"android":"levelo://app?vid=9e50712c-b938-499e-b4de-3e07a859ce93","ios":"levelo://app?vid=9e50712c-b938-499e-b4de-3e07a859ce93"},"vehicle_type_id":"4","last_reported":1691075191,"current_range_meters":28000,"station_id":"ce4bgvp2rcd13ifvqcu0","pricing_plan_id":"free"},{"bike_id":"88284fc5-443f-4f72-9a2d-1667dd797c47","system_id":"levelo_inurba_marseille","lat":43.31327,"lon":5.39695,"is_reserved":false,"is_disabled":false,"rental_uris":{"android":"levelo://app?vid=88284fc5-443f-4f72-9a2d-1667dd797c47","ios":"levelo://app?vid=88284fc5-443f-4f72-9a2d-1667dd797c47"},"vehicle_type_id":"4","last_reported":1691075191,"current_range_meters":24800,"station_id":"ce4bgvp2rcd13ifvqcu0","pricing_plan_id":"free"},{"bike_id":"a0ffe237-1604-4f21-866b-7943919f996e","system_id":"levelo_inurba_marseille","lat":43.29186,"lon":5.35801,"is_reserved":false,"is_disabled":false,"rental_uris":{"android":"levelo://app?vid=a0ffe237-1604-4f21-866b-7943919f996e","ios":"levelo://app?vid=a0ffe237-1604-4f21-866b-7943919f996e"},"vehicle_type_id":"4","last_reported":1691075191,"current_range_meters":800,"station_id":"ce4bhb12rcd13ifvqel0","pricing_plan_id":"free"},{"bike_id":"0946eea7-c93b-433f-923b-74bea9096554","system_id":"levelo_inurba_marseille","lat":43.302008,"lon":5.394694,"is_reserved":false,"is_disabled":false,"rental_uris":{"android":"levelo://app?vid=0946eea7-c93b-433f-923b-74bea9096554","ios":"levelo://app?vid=0946eea7-c93b-433f-923b-74bea9096554"},"vehicle_type_id":"4","last_reported":1691075191,"current_range_meters":10800,"station_id":"ce4bh0p2rcd13ifvqd70","pricing_plan_id":"free"},{"bike_id":"f9293bd0-d8ea-4839-bc18-693b0b234240","system_id":"levelo_inurba_marseille","lat":43.294153,"lon":5.386305,"is_reserved":false,"is_disabled":false,"rental_uris":{"android":"levelo://app?vid=f9293bd0-d8ea-4839-bc18-693b0b234240","ios":"levelo://app?vid=f9293bd0-d8ea-4839-bc18-693b0b234240"},"vehicle_type_id":"4","last_reported":1691075191,"current_range_meters":5200,"station_id":"ce4bh2h2rcd13ifvqdh0","pricing_plan_id":"free"},{"bike_id":"a33cbe6a-fc71-4a31-8c65-1ed25084cef0","system_id":"levelo_inurba_marseille","lat":43.289184,"lon":5.366408,"is_reserved":false,"is_disabled":false,"rental_uris":{"android":"levelo://app?vid=a33cbe6a-fc71-4a31-8c65-1ed25084cef0","ios":"levelo://app?vid=a33cbe6a-fc71-4a31-8c65-1ed25084cef0"},"vehicle_type_id":"4","last_reported":1691075191,"current_range_meters":22000,"station_id":"ce4bhap2rcd13ifvqek0","pricing_plan_id":"free"},{"bike_id":"b2a8f21c-9bcf-4608-a3f3-e08d275f30f8","system_id":"levelo_inurba_marseille","lat":43.289468,"lon":5.363719,"is_reserved":false,"is_disabled":false,"rental_uris":{"android":"levelo://app?vid=b2a8f21c-9bcf-4608-a3f3-e08d275f30f8","ios":"levelo://app?vid=b2a8f21c-9bcf-4608-a3f3-e08d275f30f8"},"vehicle_type_id":"4","last_reported":1691075191,"current_range_meters":24400,"station_id":"ce4bhc92rcd13ifvqetg","pricing_plan_id":"free"},{"bike_id":"0ed0fec9-1079-4a94-b15b-6742440109a2","system_id":"levelo_inurba_marseille","lat":43.289468,"lon":5.363719,"is_reserved":false,"is_disabled":false,"rental_uris":{"android":"levelo://app?vid=0ed0fec9-1079-4a94-b15b-6742440109a2","ios":"levelo://app?vid=0ed0fec9-1079-4a94-b15b-6742440109a2"},"vehicle_type_id":"4","last_reported":1691075191,"current_range_meters":10000,"station_id":"ce4bhc92rcd13ifvqetg","pricing_plan_id":"free"},{"bike_id":"b8ad450e-b7c3-4f99-97f2-9b1f59b160b7","system_id":"levelo_inurba_marseille","lat":43.292644,"lon":5.384257,"is_reserved":false,"is_disabled":false,"rental_uris":{"android":"levelo://app?vid=b8ad450e-b7c3-4f99-97f2-9b1f59b160b7","ios":"levelo://app?vid=b8ad450e-b7c3-4f99-97f2-9b1f59b160b7"},"vehicle_type_id":"4","last_reported":1691075191,"current_range_meters":0,"station_id":"ce4bh692rcd13ifvqea0","pricing_plan_id":"free"},{"bike_id":"20b46c53-0863-48ad-8c7e-a19e44d24447","system_id":"levelo_inurba_marseille","lat":43.292644,"lon":5.384257,"is_reserved":false,"is_disabled":false,"rental_uris":{"android":"levelo://app?vid=20b46c53-0863-48ad-8c7e-a19e44d24447","ios":"levelo://app?vid=20b46c53-0863-48ad-8c7e-a19e44d24447"},"vehicle_type_id":"4","last_reported":1691075191,"current_range_meters":12800,"station_id":"ce4bh692rcd13ifvqea0","pricing_plan_id":"free"},{"bike_id":"00b2dcdc-2882-40a1-9132-89c3ec15cf18","system_id":"levelo_inurba_marseille","lat":43.33047,"lon":5.38909,"is_reserved":false,"is_disabled":false,"rental_uris":{"android":"levelo://app?vid=00b2dcdc-2882-40a1-9132-89c3ec15cf18","ios":"levelo://app?vid=00b2dcdc-2882-40a1-9132-89c3ec15cf18"},"vehicle_type_id":"4","last_reported":1691075191,"current_range_meters":23600,"station_id":"ce4bhr92rcd13ifvqhrg","pricing_plan_id":"free"},{"bike_id":"2f2d42a2-8de0-405f-9429-d3eae654394c","system_id":"levelo_inurba_marseille","lat":43.33047,"lon":5.3891,"is_reserved":false,"is_disabled":false,"rental_uris":{"android":"levelo://app?vid=2f2d42a2-8de0-405f-9429-d3eae654394c","ios":"levelo://app?vid=2f2d42a2-8de0-405f-9429-d3eae654394c"},"vehicle_type_id":"4","last_reported":1691075191,"current_range_meters":26000,"station_id":"ce4bhr92rcd13ifvqhrg","pricing_plan_id":"free"},{"bike_id":"20cf3f6d-acf4-4653-bf24-baa04253f77a","system_id":"levelo_inurba_marseille","lat":43.33048,"lon":5.3891,"is_reserved":false,"is_disabled":false,"rental_uris":{"android":"levelo://app?vid=20cf3f6d-acf4-4653-bf24-baa04253f77a","ios":"levelo://app?vid=20cf3f6d-acf4-4653-bf24-baa04253f77a"},"vehicle_type_id":"4","last_reported":1691075191,"current_range_meters":23600,"station_id":"ce4bhr92rcd13ifvqhrg","pricing_plan_id":"free"},{"bike_id":"f67edc25-bcc7-41fb-8431-1add679b0933","system_id":"levelo_inurba_marseille","lat":43.33042,"lon":5.3892,"is_reserved":false,"is_disabled":false,"rental_uris":{"android":"levelo://app?vid=f67edc25-bcc7-41fb-8431-1add679b0933","ios":"levelo://app?vid=f67edc25-bcc7-41fb-8431-1add679b0933"},"vehicle_type_id":"4","last_reported":1691075191,"current_range_meters":24800,"station_id":"ce4bhr92rcd13ifvqhrg","pricing_plan_id":"free"},{"bike_id":"05eb7167-1649-4b38-8503-b0d2e3456f24","system_id":"levelo_inurba_marseille","lat":43.33046,"lon":5.38914,"is_reserved":false,"is_disabled":false,"rental_uris":{"android":"levelo://app?vid=05eb7167-1649-4b38-8503-b0d2e3456f24","ios":"levelo://app?vid=05eb7167-1649-4b38-8503-b0d2e3456f24"},"vehicle_type_id":"4","last_reported":1691075191,"current_range_meters":25200,"station_id":"ce4bhr92rcd13ifvqhrg","pricing_plan_id":"free"},{"bike_id":"a716ed66-8607-47f1-a4f4-b99eecc862cb","system_id":"levelo_inurba_marseille","lat":43.33041,"lon":5.38923,"is_reserved":false,"is_disabled":false,"rental_uris":{"android":"levelo://app?vid=a716ed66-8607-47f1-a4f4-b99eecc862cb","ios":"levelo://app?vid=a716ed66-8607-47f1-a4f4-b99eecc862cb"},"vehicle_type_id":"4","last_reported":1691075191,"current_range_meters":29600,"station_id":"ce4bhr92rcd13ifvqhrg","pricing_plan_id":"free"},{"bike_id":"8795e432-c7a3-4d95-9fa9-9f904bfbcb4a","system_id":"levelo_inurba_marseille","lat":43.33043,"lon":5.38921,"is_reserved":false,"is_disabled":false,"rental_uris":{"android":"levelo://app?vid=8795e432-c7a3-4d95-9fa9-9f904bfbcb4a","ios":"levelo://app?vid=8795e432-c7a3-4d95-9fa9-9f904bfbcb4a"},"vehicle_type_id":"4","last_reported":1691075191,"current_range_meters":18400,"station_id":"ce4bhr92rcd13ifvqhrg","pricing_plan_id":"free"},{"bike_id":"0b40da1c-c5a8-44b1-ae95-03a93c8bf4e2","system_id":"levelo_inurba_marseille","lat":43.33046,"lon":5.38922,"is_reserved":false,"is_disabled":false,"rental_uris":{"android":"levelo://app?vid=0b40da1c-c5a8-44b1-ae95-03a93c8bf4e2","ios":"levelo://app?vid=0b40da1c-c5a8-44b1-ae95-03a93c8bf4e2"},"vehicle_type_id":"4","last_reported":1691075191,"current_range_meters":18000,"station_id":"ce4bhr92rcd13ifvqhrg","pricing_plan_id":"free"},{"bike_id":"9425cf10-22e3-4438-99b3-4f80bfcf1573","system_id":"levelo_inurba_marseille","lat":43.30439,"lon":5.39809,"is_reserved":false,"is_disabled":false,"rental_uris":{"android":"levelo://app?vid=9425cf10-22e3-4438-99b3-4f80bfcf1573","ios":"levelo://app?vid=9425cf10-22e3-4438-99b3-4f80bfcf1573"},"vehicle_type_id":"4","last_reported":1691075191,"current_range_meters":17200,"station_id":"","pricing_plan_id":"free"},{"bike_id":"05bf2cc0-c80b-4d3b-9303-5cea93148e89","system_id":"levelo_inurba_marseille","lat":43.290995,"lon":5.381361,"is_reserved":false,"is_disabled":false,"rental_uris":{"android":"levelo://app?vid=05bf2cc0-c80b-4d3b-9303-5cea93148e89","ios":"levelo://app?vid=05bf2cc0-c80b-4d3b-9303-5cea93148e89"},"vehicle_type_id":"4","last_reported":1691075191,"current_range_meters":31600,"station_id":"ce4bh512rcd13ifvqe2g","pricing_plan_id":"free"},{"bike_id":"e9d8e617-48f1-48e3-90ff-98f05181ad4a","system_id":"levelo_inurba_marseille","lat":43.297815,"lon":5.393548,"is_reserved":false,"is_disabled":false,"rental_uris":{"android":"levelo://app?vid=e9d8e617-48f1-48e3-90ff-98f05181ad4a","ios":"levelo://app?vid=e9d8e617-48f1-48e3-90ff-98f05181ad4a"},"vehicle_type_id":"4","last_reported":1691075191,"current_range_meters":0,"station_id":"chh1huq6cuj3fo74tm60","pricing_plan_id":"free"},{"bike_id":"8097e235-0ba0-4e7a-a498-e9a9bbbc4a8c","system_id":"levelo_inurba_marseille","lat":43.297815,"lon":5.393548,"is_reserved":false,"is_disabled":false,"rental_uris":{"android":"levelo://app?vid=8097e235-0ba0-4e7a-a498-e9a9bbbc4a8c","ios":"levelo://app?vid=8097e235-0ba0-4e7a-a498-e9a9bbbc4a8c"},"vehicle_type_id":"4","last_reported":1691075191,"current_range_meters":5600,"station_id":"chh1huq6cuj3fo74tm60","pricing_plan_id":"free"},{"bike_id":"3d3509d7-4b59-4240-ae6d-419c55c37b48","system_id":"levelo_inurba_marseille","lat":43.30648,"lon":5.40091,"is_reserved":false,"is_disabled":false,"rental_uris":{"android":"levelo://app?vid=3d3509d7-4b59-4240-ae6d-419c55c37b48","ios":"levelo://app?vid=3d3509d7-4b59-4240-ae6d-419c55c37b48"},"vehicle_type_id":"4","last_reported":1691075191,"current_range_meters":7200,"station_id":"ce4bh112rcd13ifvqda0","pricing_plan_id":"free"},{"bike_id":"7d2638d4-35bf-4d79-bf15-a40e2e249b50","system_id":"levelo_inurba_marseille","lat":43.286591,"lon":5.363346,"is_reserved":false,"is_disabled":false,"rental_uris":{"android":"levelo://app?vid=7d2638d4-35bf-4d79-bf15-a40e2e249b50","ios":"levelo://app?vid=7d2638d4-35bf-4d79-bf15-a40e2e249b50"},"vehicle_type_id":"4","last_reported":1691075191,"current_range_meters":18400,"station_id":"ce4bhah2rcd13ifvqej0","pricing_plan_id":"free"},{"bike_id":"493f7c5b-2c63-4800-abe2-e55e02fa8f54","system_id":"levelo_inurba_marseille","lat":43.298681,"lon":5.397225,"is_reserved":false,"is_disabled":false,"rental_uris":{"android":"levelo://app?vid=493f7c5b-2c63-4800-abe2-e55e02fa8f54","ios":"levelo://app?vid=493f7c5b-2c63-4800-abe2-e55e02fa8f54"},"vehicle_type_id":"4","last_reported":1691075191,"current_range_meters":20400,"station_id":"ce4bh0h2rcd13ifvqd50","pricing_plan_id":"free"},{"bike_id":"75199276-b705-4ad7-b6a9-49aeaa84628a","system_id":"levelo_inurba_marseille","lat":43.286591,"lon":5.363346,"is_reserved":false,"is_disabled":false,"rental_uris":{"android":"levelo://app?vid=75199276-b705-4ad7-b6a9-49aeaa84628a","ios":"levelo://app?vid=75199276-b705-4ad7-b6a9-49aeaa84628a"},"vehicle_type_id":"4","last_reported":1691075191,"current_range_meters":31600,"station_id":"ce4bhah2rcd13ifvqej0","pricing_plan_id":"free"},{"bike_id":"90fa1a68-e297-4f07-8f04-914c385e17ca","system_id":"levelo_inurba_marseille","lat":43.298681,"lon":5.397225,"is_reserved":false,"is_disabled":false,"rental_uris":{"android":"levelo://app?vid=90fa1a68-e297-4f07-8f04-914c385e17ca","ios":"levelo://app?vid=90fa1a68-e297-4f07-8f04-914c385e17ca"},"vehicle_type_id":"4","last_reported":1691075191,"current_range_meters":26000,"station_id":"ce4bh0h2rcd13ifvqd50","pricing_plan_id":"free"},{"bike_id":"119b3176-4cb0-4617-857b-018ca4c36479","system_id":"levelo_inurba_marseille","lat":43.302759,"lon":5.400793,"is_reserved":false,"is_disabled":false,"rental_uris":{"android":"levelo://app?vid=119b3176-4cb0-4617-857b-018ca4c36479","ios":"levelo://app?vid=119b3176-4cb0-4617-857b-018ca4c36479"},"vehicle_type_id":"4","last_reported":1691075191,"current_range_meters":18800,"station_id":"ce4bgvh2rcd13ifvqcs0","pricing_plan_id":"free"},{"bike_id":"7b9e2d57-7c2f-4652-8ec0-ee4d147afe24","system_id":"levelo_inurba_marseille","lat":43.302548,"lon":5.400568,"is_reserved":false,"is_disabled":false,"rental_uris":{"android":"levelo://app?vid=7b9e2d57-7c2f-4652-8ec0-ee4d147afe24","ios":"levelo://app?vid=7b9e2d57-7c2f-4652-8ec0-ee4d147afe24"},"vehicle_type_id":"4","last_reported":1691075191,"current_range_meters":18400,"station_id":"","pricing_plan_id":"free"},{"bike_id":"28872fb2-63d1-4523-9e8b-342b2a5313a0","system_id":"levelo_inurba_marseille","lat":43.28614,"lon":5.3705,"is_reserved":false,"is_disabled":false,"rental_uris":{"android":"levelo://app?vid=28872fb2-63d1-4523-9e8b-342b2a5313a0","ios":"levelo://app?vid=28872fb2-63d1-4523-9e8b-342b2a5313a0"},"vehicle_type_id":"4","last_reported":1691075191,"current_range_meters":5200,"station_id":"","pricing_plan_id":"free"},{"bike_id":"cbc9bdee-096d-443b-b34b-7ae27d865255","system_id":"levelo_inurba_marseille","lat":43.302759,"lon":5.400793,"is_reserved":false,"is_disabled":false,"rental_uris":{"android":"levelo://app?vid=cbc9bdee-096d-443b-b34b-7ae27d865255","ios":"levelo://app?vid=cbc9bdee-096d-443b-b34b-7ae27d865255"},"vehicle_type_id":"4","last_reported":1691075191,"current_range_meters":17200,"station_id":"ce4bgvh2rcd13ifvqcs0","pricing_plan_id":"free"},{"bike_id":"20a00ba8-4d45-4bfc-b2ff-faff2e687462","system_id":"levelo_inurba_marseille","lat":43.286039,"lon":5.370679,"is_reserved":false,"is_disabled":false,"rental_uris":{"android":"levelo://app?vid=20a00ba8-4d45-4bfc-b2ff-faff2e687462","ios":"levelo://app?vid=20a00ba8-4d45-4bfc-b2ff-faff2e687462"},"vehicle_type_id":"4","last_reported":1691075191,"current_range_meters":14400,"station_id":"ce4bht12rcd13ifvqi60","pricing_plan_id":"free"},{"bike_id":"82ded041-7fcd-4315-b471-f0cada87006b","system_id":"levelo_inurba_marseille","lat":43.286039,"lon":5.370681,"is_reserved":false,"is_disabled":false,"rental_uris":{"android":"levelo://app?vid=82ded041-7fcd-4315-b471-f0cada87006b","ios":"levelo://app?vid=82ded041-7fcd-4315-b471-f0cada87006b"},"vehicle_type_id":"4","last_reported":1691075191,"current_range_meters":8400,"station_id":"ce4bht12rcd13ifvqi60","pricing_plan_id":"free"},{"bike_id":"1b32e623-849d-4f1a-b7dd-2e290e82fa17","system_id":"levelo_inurba_marseille","lat":43.299717,"lon":5.384845,"is_reserved":false,"is_disabled":false,"rental_uris":{"android":"levelo://app?vid=1b32e623-849d-4f1a-b7dd-2e290e82fa17","ios":"levelo://app?vid=1b32e623-849d-4f1a-b7dd-2e290e82fa17"},"vehicle_type_id":"4","last_reported":1691075191,"current_range_meters":7600,"station_id":"ce4bgj92rcd13ifvqbd0","pricing_plan_id":"free"},{"bike_id":"5ffed6d9-d61e-472f-a2a4-ee89f70ce9f3","system_id":"levelo_inurba_marseille","lat":43.291994,"lon":5.392907,"is_reserved":false,"is_disabled":false,"rental_uris":{"android":"levelo://app?vid=5ffed6d9-d61e-472f-a2a4-ee89f70ce9f3","ios":"levelo://app?vid=5ffed6d9-d61e-472f-a2a4-ee89f70ce9f3"},"vehicle_type_id":"4","last_reported":1691075191,"current_range_meters":14000,"station_id":"ce4bh192rcd13ifvqdd0","pricing_plan_id":"free"},{"bike_id":"42ad7289-86d9-47a8-a8e4-74eec5881678","system_id":"levelo_inurba_marseille","lat":43.291994,"lon":5.392907,"is_reserved":false,"is_disabled":false,"rental_uris":{"android":"levelo://app?vid=42ad7289-86d9-47a8-a8e4-74eec5881678","ios":"levelo://app?vid=42ad7289-86d9-47a8-a8e4-74eec5881678"},"vehicle_type_id":"4","last_reported":1691075191,"current_range_meters":28000,"station_id":"ce4bh192rcd13ifvqdd0","pricing_plan_id":"free"},{"bike_id":"99ef77c8-5f24-48f8-b499-d5f3fc911ee4","system_id":"levelo_inurba_marseille","lat":43.29243,"lon":5.39417,"is_reserved":false,"is_disabled":false,"rental_uris":{"android":"levelo://app?vid=99ef77c8-5f24-48f8-b499-d5f3fc911ee4","ios":"levelo://app?vid=99ef77c8-5f24-48f8-b499-d5f3fc911ee4"},"vehicle_type_id":"4","last_reported":1691075191,"current_range_meters":18800,"station_id":"","pricing_plan_id":"free"},{"bike_id":"9aebaf59-a07f-48f2-8c4f-04d9d121832c","system_id":"levelo_inurba_marseille","lat":43.284538,"lon":5.358657,"is_reserved":false,"is_disabled":false,"rental_uris":{"android":"levelo://app?vid=9aebaf59-a07f-48f2-8c4f-04d9d121832c","ios":"levelo://app?vid=9aebaf59-a07f-48f2-8c4f-04d9d121832c"},"vehicle_type_id":"4","last_reported":1691075191,"current_range_meters":31200,"station_id":"ce4bhah2rcd13ifvqei0","pricing_plan_id":"free"},{"bike_id":"5c250e0f-c2b6-4333-b438-7741060a7c64","system_id":"levelo_inurba_marseille","lat":43.28454,"lon":5.35886,"is_reserved":false,"is_disabled":false,"rental_uris":{"android":"levelo://app?vid=5c250e0f-c2b6-4333-b438-7741060a7c64","ios":"levelo://app?vid=5c250e0f-c2b6-4333-b438-7741060a7c64"},"vehicle_type_id":"4","last_reported":1691075191,"current_range_meters":800,"station_id":"ce4bhah2rcd13ifvqei0","pricing_plan_id":"free"},{"bike_id":"9d870b62-6cc5-4dc4-9bdb-d06a88a032c7","system_id":"levelo_inurba_marseille","lat":43.2862,"lon":5.35111,"is_reserved":false,"is_disabled":false,"rental_uris":{"android":"levelo://app?vid=9d870b62-6cc5-4dc4-9bdb-d06a88a032c7","ios":"levelo://app?vid=9d870b62-6cc5-4dc4-9bdb-d06a88a032c7"},"vehicle_type_id":"4","last_reported":1691075191,"current_range_meters":23200,"station_id":"ce4bhch2rcd13ifvqeug","pricing_plan_id":"free"},{"bike_id":"5b90b456-7b52-4d6f-ad1c-32451332db1e","system_id":"levelo_inurba_marseille","lat":43.28615,"lon":5.3511,"is_reserved":false,"is_disabled":false,"rental_uris":{"android":"levelo://app?vid=5b90b456-7b52-4d6f-ad1c-32451332db1e","ios":"levelo://app?vid=5b90b456-7b52-4d6f-ad1c-32451332db1e"},"vehicle_type_id":"4","last_reported":1691075191,"current_range_meters":0,"station_id":"ce4bhch2rcd13ifvqeug","pricing_plan_id":"free"},{"bike_id":"3722513c-1cd7-460a-802c-fb50562d2c78","system_id":"levelo_inurba_marseille","lat":43.28616,"lon":5.35105,"is_reserved":false,"is_disabled":false,"rental_uris":{"android":"levelo://app?vid=3722513c-1cd7-460a-802c-fb50562d2c78","ios":"levelo://app?vid=3722513c-1cd7-460a-802c-fb50562d2c78"},"vehicle_type_id":"4","last_reported":1691075191,"current_range_meters":27200,"station_id":"ce4bhch2rcd13ifvqeug","pricing_plan_id":"free"},{"bike_id":"3b4fcaa4-6e59-4121-bd9d-dd885baf25e6","system_id":"levelo_inurba_marseille","lat":43.28616,"lon":5.35105,"is_reserved":false,"is_disabled":false,"rental_uris":{"android":"levelo://app?vid=3b4fcaa4-6e59-4121-bd9d-dd885baf25e6","ios":"levelo://app?vid=3b4fcaa4-6e59-4121-bd9d-dd885baf25e6"},"vehicle_type_id":"4","last_reported":1691075191,"current_range_meters":20400,"station_id":"ce4bhch2rcd13ifvqeug","pricing_plan_id":"free"},{"bike_id":"d50f7090-635c-461a-831b-856917afc6e9","system_id":"levelo_inurba_marseille","lat":43.286147,"lon":5.351084,"is_reserved":false,"is_disabled":false,"rental_uris":{"android":"levelo://app?vid=d50f7090-635c-461a-831b-856917afc6e9","ios":"levelo://app?vid=d50f7090-635c-461a-831b-856917afc6e9"},"vehicle_type_id":"4","last_reported":1691075191,"current_range_meters":10800,"station_id":"ce4bhch2rcd13ifvqeug","pricing_plan_id":"free"},{"bike_id":"ea8fc814-f7b2-4af7-9813-2f5395e640e6","system_id":"levelo_inurba_marseille","lat":43.284787,"lon":5.384116,"is_reserved":false,"is_disabled":false,"rental_uris":{"android":"levelo://app?vid=ea8fc814-f7b2-4af7-9813-2f5395e640e6","ios":"levelo://app?vid=ea8fc814-f7b2-4af7-9813-2f5395e640e6"},"vehicle_type_id":"4","last_reported":1691075191,"current_range_meters":11600,"station_id":"ce4bh512rcd13ifvqe3g","pricing_plan_id":"free"},{"bike_id":"554f7bd5-9e9d-47c2-a76c-89842cbcbf48","system_id":"levelo_inurba_marseille","lat":43.28614,"lon":5.35105,"is_reserved":false,"is_disabled":false,"rental_uris":{"android":"levelo://app?vid=554f7bd5-9e9d-47c2-a76c-89842cbcbf48","ios":"levelo://app?vid=554f7bd5-9e9d-47c2-a76c-89842cbcbf48"},"vehicle_type_id":"4","last_reported":1691075191,"current_range_meters":18800,"station_id":"ce4bhch2rcd13ifvqeug","pricing_plan_id":"free"},{"bike_id":"b37f3402-6700-4a6b-a0a0-c5f80035fea4","system_id":"levelo_inurba_marseille","lat":43.28613,"lon":5.35107,"is_reserved":false,"is_disabled":false,"rental_uris":{"android":"levelo://app?vid=b37f3402-6700-4a6b-a0a0-c5f80035fea4","ios":"levelo://app?vid=b37f3402-6700-4a6b-a0a0-c5f80035fea4"},"vehicle_type_id":"4","last_reported":1691075191,"current_range_meters":14800,"station_id":"ce4bhch2rcd13ifvqeug","pricing_plan_id":"free"},{"bike_id":"7e5cf9dd-3e3c-4ef1-a1c0-f5275bfc9182","system_id":"levelo_inurba_marseille","lat":43.28614,"lon":5.35102,"is_reserved":false,"is_disabled":false,"rental_uris":{"android":"levelo://app?vid=7e5cf9dd-3e3c-4ef1-a1c0-f5275bfc9182","ios":"levelo://app?vid=7e5cf9dd-3e3c-4ef1-a1c0-f5275bfc9182"},"vehicle_type_id":"4","last_reported":1691075191,"current_range_meters":30400,"station_id":"ce4bhch2rcd13ifvqeug","pricing_plan_id":"free"},{"bike_id":"8f8d0790-d0ac-4435-b7cd-014f3876ca15","system_id":"levelo_inurba_marseille","lat":43.28614,"lon":5.35101,"is_reserved":false,"is_disabled":false,"rental_uris":{"android":"levelo://app?vid=8f8d0790-d0ac-4435-b7cd-014f3876ca15","ios":"levelo://app?vid=8f8d0790-d0ac-4435-b7cd-014f3876ca15"},"vehicle_type_id":"4","last_reported":1691075191,"current_range_meters":14800,"station_id":"ce4bhch2rcd13ifvqeug","pricing_plan_id":"free"},{"bike_id":"daf8fc20-05ac-41e7-b26f-cb1a71cfa2c8","system_id":"levelo_inurba_marseille","lat":43.28612,"lon":5.35107,"is_reserved":false,"is_disabled":false,"rental_uris":{"android":"levelo://app?vid=daf8fc20-05ac-41e7-b26f-cb1a71cfa2c8","ios":"levelo://app?vid=daf8fc20-05ac-41e7-b26f-cb1a71cfa2c8"},"vehicle_type_id":"4","last_reported":1691075191,"current_range_meters":31200,"station_id":"ce4bhch2rcd13ifvqeug","pricing_plan_id":"free"},{"bike_id":"311c87cb-d400-455c-918f-40208b5137a3","system_id":"levelo_inurba_marseille","lat":43.28609,"lon":5.35107,"is_reserved":false,"is_disabled":false,"rental_uris":{"android":"levelo://app?vid=311c87cb-d400-455c-918f-40208b5137a3","ios":"levelo://app?vid=311c87cb-d400-455c-918f-40208b5137a3"},"vehicle_type_id":"4","last_reported":1691075191,"current_range_meters":30400,"station_id":"ce4bhch2rcd13ifvqeug","pricing_plan_id":"free"},{"bike_id":"574228bc-232d-4d1d-ba12-e58b00e09fbf","system_id":"levelo_inurba_marseille","lat":43.283998,"lon":5.375062,"is_reserved":false,"is_disabled":false,"rental_uris":{"android":"levelo://app?vid=574228bc-232d-4d1d-ba12-e58b00e09fbf","ios":"levelo://app?vid=574228bc-232d-4d1d-ba12-e58b00e09fbf"},"vehicle_type_id":"4","last_reported":1691075191,"current_range_meters":0,"station_id":"ce4bh412rcd13ifvqds0","pricing_plan_id":"free"},{"bike_id":"d77e0fc3-749d-403d-b506-722e5b9b9baf","system_id":"levelo_inurba_marseille","lat":43.286595,"lon":5.386795,"is_reserved":false,"is_disabled":false,"rental_uris":{"android":"levelo://app?vid=d77e0fc3-749d-403d-b506-722e5b9b9baf","ios":"levelo://app?vid=d77e0fc3-749d-403d-b506-722e5b9b9baf"},"vehicle_type_id":"4","last_reported":1691075191,"current_range_meters":22400,"station_id":"ce4bh492rcd13ifvqdug","pricing_plan_id":"free"},{"bike_id":"3e563380-a985-451c-801d-2783d7714294","system_id":"levelo_inurba_marseille","lat":43.337168,"lon":5.391825,"is_reserved":false,"is_disabled":false,"rental_uris":{"android":"levelo://app?vid=3e563380-a985-451c-801d-2783d7714294","ios":"levelo://app?vid=3e563380-a985-451c-801d-2783d7714294"},"vehicle_type_id":"4","last_reported":1691075191,"current_range_meters":20800,"station_id":"ce4bhr92rcd13ifvqhsg","pricing_plan_id":"free"},{"bike_id":"803e0392-2ba9-4379-9d26-2917c606f524","system_id":"levelo_inurba_marseille","lat":43.33718,"lon":5.39185,"is_reserved":false,"is_disabled":false,"rental_uris":{"android":"levelo://app?vid=803e0392-2ba9-4379-9d26-2917c606f524","ios":"levelo://app?vid=803e0392-2ba9-4379-9d26-2917c606f524"},"vehicle_type_id":"4","last_reported":1691075191,"current_range_meters":13200,"station_id":"ce4bhr92rcd13ifvqhsg","pricing_plan_id":"free"},{"bike_id":"9d8dc018-8295-487e-aae9-79ce0f469cdf","system_id":"levelo_inurba_marseille","lat":43.33719,"lon":5.39185,"is_reserved":false,"is_disabled":false,"rental_uris":{"android":"levelo://app?vid=9d8dc018-8295-487e-aae9-79ce0f469cdf","ios":"levelo://app?vid=9d8dc018-8295-487e-aae9-79ce0f469cdf"},"vehicle_type_id":"4","last_reported":1691075191,"current_range_meters":30400,"station_id":"ce4bhr92rcd13ifvqhsg","pricing_plan_id":"free"},{"bike_id":"7cba6067-cca4-46b7-8e00-33300ede0d0d","system_id":"levelo_inurba_marseille","lat":43.323464,"lon":5.406297,"is_reserved":false,"is_disabled":false,"rental_uris":{"android":"levelo://app?vid=7cba6067-cca4-46b7-8e00-33300ede0d0d","ios":"levelo://app?vid=7cba6067-cca4-46b7-8e00-33300ede0d0d"},"vehicle_type_id":"4","last_reported":1691075191,"current_range_meters":31200,"station_id":"ce4bhq92rcd13ifvqhjg","pricing_plan_id":"free"},{"bike_id":"939edbe6-adcc-4f97-ad69-99748df4073d","system_id":"levelo_inurba_marseille","lat":43.337168,"lon":5.391825,"is_reserved":false,"is_disabled":false,"rental_uris":{"android":"levelo://app?vid=939edbe6-adcc-4f97-ad69-99748df4073d","ios":"levelo://app?vid=939edbe6-adcc-4f97-ad69-99748df4073d"},"vehicle_type_id":"4","last_reported":1691075191,"current_range_meters":30800,"station_id":"ce4bhr92rcd13ifvqhsg","pricing_plan_id":"free"},{"bike_id":"5f2f9cab-ca5c-488c-9cb8-13569ecc9b06","system_id":"levelo_inurba_marseille","lat":43.323464,"lon":5.406297,"is_reserved":false,"is_disabled":false,"rental_uris":{"android":"levelo://app?vid=5f2f9cab-ca5c-488c-9cb8-13569ecc9b06","ios":"levelo://app?vid=5f2f9cab-ca5c-488c-9cb8-13569ecc9b06"},"vehicle_type_id":"4","last_reported":1691075191,"current_range_meters":25200,"station_id":"ce4bhq92rcd13ifvqhjg","pricing_plan_id":"free"},{"bike_id":"65e7209e-43de-4472-85bf-edccad84c81f","system_id":"levelo_inurba_marseille","lat":43.33717,"lon":5.39195,"is_reserved":false,"is_disabled":false,"rental_uris":{"android":"levelo://app?vid=65e7209e-43de-4472-85bf-edccad84c81f","ios":"levelo://app?vid=65e7209e-43de-4472-85bf-edccad84c81f"},"vehicle_type_id":"4","last_reported":1691075191,"current_range_meters":30800,"station_id":"ce4bhr92rcd13ifvqhsg","pricing_plan_id":"free"},{"bike_id":"1f5722b0-5667-43f6-9dad-3a3b818c5a69","system_id":"levelo_inurba_marseille","lat":43.33722,"lon":5.39187,"is_reserved":false,"is_disabled":false,"rental_uris":{"android":"levelo://app?vid=1f5722b0-5667-43f6-9dad-3a3b818c5a69","ios":"levelo://app?vid=1f5722b0-5667-43f6-9dad-3a3b818c5a69"},"vehicle_type_id":"4","last_reported":1691075191,"current_range_meters":8000,"station_id":"ce4bhr92rcd13ifvqhsg","pricing_plan_id":"free"},{"bike_id":"c5b5292c-61ef-4abb-8b45-5548f98073cf","system_id":"levelo_inurba_marseille","lat":43.323464,"lon":5.406297,"is_reserved":false,"is_disabled":false,"rental_uris":{"android":"levelo://app?vid=c5b5292c-61ef-4abb-8b45-5548f98073cf","ios":"levelo://app?vid=c5b5292c-61ef-4abb-8b45-5548f98073cf"},"vehicle_type_id":"4","last_reported":1691075191,"current_range_meters":29200,"station_id":"ce4bhq92rcd13ifvqhjg","pricing_plan_id":"free"},{"bike_id":"eaf6fc0f-47a5-4e38-b435-865f762e69f2","system_id":"levelo_inurba_marseille","lat":43.323464,"lon":5.406297,"is_reserved":false,"is_disabled":false,"rental_uris":{"android":"levelo://app?vid=eaf6fc0f-47a5-4e38-b435-865f762e69f2","ios":"levelo://app?vid=eaf6fc0f-47a5-4e38-b435-865f762e69f2"},"vehicle_type_id":"4","last_reported":1691075191,"current_range_meters":31600,"station_id":"ce4bhq92rcd13ifvqhjg","pricing_plan_id":"free"},{"bike_id":"df82d2f9-f688-4670-ac84-3e543122cedb","system_id":"levelo_inurba_marseille","lat":43.33726,"lon":5.39186,"is_reserved":false,"is_disabled":false,"rental_uris":{"android":"levelo://app?vid=df82d2f9-f688-4670-ac84-3e543122cedb","ios":"levelo://app?vid=df82d2f9-f688-4670-ac84-3e543122cedb"},"vehicle_type_id":"4","last_reported":1691075191,"current_range_meters":19200,"station_id":"ce4bhr92rcd13ifvqhsg","pricing_plan_id":"free"},{"bike_id":"dbada9f9-e33c-4a7d-ab43-1cac4e571e70","system_id":"levelo_inurba_marseille","lat":43.284793,"lon":5.384119,"is_reserved":false,"is_disabled":false,"rental_uris":{"android":"levelo://app?vid=dbada9f9-e33c-4a7d-ab43-1cac4e571e70","ios":"levelo://app?vid=dbada9f9-e33c-4a7d-ab43-1cac4e571e70"},"vehicle_type_id":"4","last_reported":1691075191,"current_range_meters":30000,"station_id":"ce4bh512rcd13ifvqe3g","pricing_plan_id":"free"},{"bike_id":"369d9a53-ffb5-4dae-adbe-820dc4c5194d","system_id":"levelo_inurba_marseille","lat":43.283494,"lon":5.380945,"is_reserved":false,"is_disabled":false,"rental_uris":{"android":"levelo://app?vid=369d9a53-ffb5-4dae-adbe-820dc4c5194d","ios":"levelo://app?vid=369d9a53-ffb5-4dae-adbe-820dc4c5194d"},"vehicle_type_id":"4","last_reported":1691075191,"current_range_meters":0,"station_id":"ce4bh412rcd13ifvqdr0","pricing_plan_id":"free"},{"bike_id":"9e678b0b-7eb4-4411-9ac8-cd6431b2a43a","system_id":"levelo_inurba_marseille","lat":43.29794,"lon":5.40416,"is_reserved":false,"is_disabled":false,"rental_uris":{"android":"levelo://app?vid=9e678b0b-7eb4-4411-9ac8-cd6431b2a43a","ios":"levelo://app?vid=9e678b0b-7eb4-4411-9ac8-cd6431b2a43a"},"vehicle_type_id":"4","last_reported":1691075191,"current_range_meters":0,"station_id":"","pricing_plan_id":"free"},{"bike_id":"9a1c0bcf-f3da-45d5-9702-ff37b9d8fdb7","system_id":"levelo_inurba_marseille","lat":43.283498,"lon":5.380948,"is_reserved":false,"is_disabled":false,"rental_uris":{"android":"levelo://app?vid=9a1c0bcf-f3da-45d5-9702-ff37b9d8fdb7","ios":"levelo://app?vid=9a1c0bcf-f3da-45d5-9702-ff37b9d8fdb7"},"vehicle_type_id":"4","last_reported":1691075191,"current_range_meters":21600,"station_id":"ce4bh412rcd13ifvqdr0","pricing_plan_id":"free"},{"bike_id":"27e74547-2a16-470f-8cfe-cd857629c5c5","system_id":"levelo_inurba_marseille","lat":43.284219,"lon":5.3497,"is_reserved":false,"is_disabled":false,"rental_uris":{"android":"levelo://app?vid=27e74547-2a16-470f-8cfe-cd857629c5c5","ios":"levelo://app?vid=27e74547-2a16-470f-8cfe-cd857629c5c5"},"vehicle_type_id":"4","last_reported":1691075191,"current_range_meters":3600,"station_id":"ce4bhbh2rcd13ifvqepg","pricing_plan_id":"free"},{"bike_id":"d3273399-5b81-491f-a5da-5f65b3ae1487","system_id":"levelo_inurba_marseille","lat":43.28425,"lon":5.34985,"is_reserved":false,"is_disabled":false,"rental_uris":{"android":"levelo://app?vid=d3273399-5b81-491f-a5da-5f65b3ae1487","ios":"levelo://app?vid=d3273399-5b81-491f-a5da-5f65b3ae1487"},"vehicle_type_id":"4","last_reported":1691075191,"current_range_meters":31200,"station_id":"ce4bhbh2rcd13ifvqepg","pricing_plan_id":"free"},{"bike_id":"510c3144-762e-47f2-88c3-dce84061e236","system_id":"levelo_inurba_marseille","lat":43.283494,"lon":5.380945,"is_reserved":false,"is_disabled":false,"rental_uris":{"android":"levelo://app?vid=510c3144-762e-47f2-88c3-dce84061e236","ios":"levelo://app?vid=510c3144-762e-47f2-88c3-dce84061e236"},"vehicle_type_id":"4","last_reported":1691075191,"current_range_meters":19600,"station_id":"ce4bh412rcd13ifvqdr0","pricing_plan_id":"free"},{"bike_id":"4f2580c7-145a-47f8-ace4-245a7f884179","system_id":"levelo_inurba_marseille","lat":43.28424,"lon":5.34982,"is_reserved":false,"is_disabled":false,"rental_uris":{"android":"levelo://app?vid=4f2580c7-145a-47f8-ace4-245a7f884179","ios":"levelo://app?vid=4f2580c7-145a-47f8-ace4-245a7f884179"},"vehicle_type_id":"4","last_reported":1691075191,"current_range_meters":26000,"station_id":"ce4bhbh2rcd13ifvqepg","pricing_plan_id":"free"},{"bike_id":"b86d1153-4d67-42d9-8f23-96981a0fb153","system_id":"levelo_inurba_marseille","lat":43.28423,"lon":5.34981,"is_reserved":false,"is_disabled":false,"rental_uris":{"android":"levelo://app?vid=b86d1153-4d67-42d9-8f23-96981a0fb153","ios":"levelo://app?vid=b86d1153-4d67-42d9-8f23-96981a0fb153"},"vehicle_type_id":"4","last_reported":1691075191,"current_range_meters":10000,"station_id":"ce4bhbh2rcd13ifvqepg","pricing_plan_id":"free"},{"bike_id":"46ab8cb6-f03f-4411-a553-e25c20a255ad","system_id":"levelo_inurba_marseille","lat":43.28422,"lon":5.34982,"is_reserved":false,"is_disabled":false,"rental_uris":{"android":"levelo://app?vid=46ab8cb6-f03f-4411-a553-e25c20a255ad","ios":"levelo://app?vid=46ab8cb6-f03f-4411-a553-e25c20a255ad"},"vehicle_type_id":"4","last_reported":1691075191,"current_range_meters":31200,"station_id":"ce4bhbh2rcd13ifvqepg","pricing_plan_id":"free"},{"bike_id":"b66a70b4-a6c4-4baa-a842-505ba5a43202","system_id":"levelo_inurba_marseille","lat":43.2842,"lon":5.34987,"is_reserved":false,"is_disabled":false,"rental_uris":{"android":"levelo://app?vid=b66a70b4-a6c4-4baa-a842-505ba5a43202","ios":"levelo://app?vid=b66a70b4-a6c4-4baa-a842-505ba5a43202"},"vehicle_type_id":"4","last_reported":1691075191,"current_range_meters":19600,"station_id":"ce4bhbh2rcd13ifvqepg","pricing_plan_id":"free"},{"bike_id":"9cd912d1-a246-4baf-b426-696e19d86161","system_id":"levelo_inurba_marseille","lat":43.28423,"lon":5.34971,"is_reserved":false,"is_disabled":false,"rental_uris":{"android":"levelo://app?vid=9cd912d1-a246-4baf-b426-696e19d86161","ios":"levelo://app?vid=9cd912d1-a246-4baf-b426-696e19d86161"},"vehicle_type_id":"4","last_reported":1691075191,"current_range_meters":31200,"station_id":"ce4bhbh2rcd13ifvqepg","pricing_plan_id":"free"},{"bike_id":"5f09d22e-696d-479c-a258-50293c9e8215","system_id":"levelo_inurba_marseille","lat":43.28418,"lon":5.34986,"is_reserved":false,"is_disabled":false,"rental_uris":{"android":"levelo://app?vid=5f09d22e-696d-479c-a258-50293c9e8215","ios":"levelo://app?vid=5f09d22e-696d-479c-a258-50293c9e8215"},"vehicle_type_id":"4","last_reported":1691075191,"current_range_meters":17200,"station_id":"ce4bhbh2rcd13ifvqepg","pricing_plan_id":"free"},{"bike_id":"d6bed832-5771-418b-8f3b-45309c8c7faf","system_id":"levelo_inurba_marseille","lat":43.284217,"lon":5.349697,"is_reserved":false,"is_disabled":false,"rental_uris":{"android":"levelo://app?vid=d6bed832-5771-418b-8f3b-45309c8c7faf","ios":"levelo://app?vid=d6bed832-5771-418b-8f3b-45309c8c7faf"},"vehicle_type_id":"4","last_reported":1691075191,"current_range_meters":7200,"station_id":"ce4bhbh2rcd13ifvqepg","pricing_plan_id":"free"},{"bike_id":"42fe3ebf-c721-49c1-86f3-be7d8d033b6b","system_id":"levelo_inurba_marseille","lat":43.28417,"lon":5.34983,"is_reserved":false,"is_disabled":false,"rental_uris":{"android":"levelo://app?vid=42fe3ebf-c721-49c1-86f3-be7d8d033b6b","ios":"levelo://app?vid=42fe3ebf-c721-49c1-86f3-be7d8d033b6b"},"vehicle_type_id":"4","last_reported":1691075191,"current_range_meters":24000,"station_id":"ce4bhbh2rcd13ifvqepg","pricing_plan_id":"free"},{"bike_id":"a30a7b3c-8823-4fff-988a-1f9c12ef44c0","system_id":"levelo_inurba_marseille","lat":43.28412,"lon":5.34992,"is_reserved":false,"is_disabled":false,"rental_uris":{"android":"levelo://app?vid=a30a7b3c-8823-4fff-988a-1f9c12ef44c0","ios":"levelo://app?vid=a30a7b3c-8823-4fff-988a-1f9c12ef44c0"},"vehicle_type_id":"4","last_reported":1691075191,"current_range_meters":19200,"station_id":"ce4bhbh2rcd13ifvqepg","pricing_plan_id":"free"},{"bike_id":"f316daa9-8fef-463f-a05f-824f2a6e3282","system_id":"levelo_inurba_marseille","lat":43.28416,"lon":5.34976,"is_reserved":false,"is_disabled":false,"rental_uris":{"android":"levelo://app?vid=f316daa9-8fef-463f-a05f-824f2a6e3282","ios":"levelo://app?vid=f316daa9-8fef-463f-a05f-824f2a6e3282"},"vehicle_type_id":"4","last_reported":1691075191,"current_range_meters":26800,"station_id":"ce4bhbh2rcd13ifvqepg","pricing_plan_id":"free"},{"bike_id":"9be4169f-df5c-4c12-9fe3-4c7a763bd86a","system_id":"levelo_inurba_marseille","lat":43.28416,"lon":5.34973,"is_reserved":false,"is_disabled":false,"rental_uris":{"android":"levelo://app?vid=9be4169f-df5c-4c12-9fe3-4c7a763bd86a","ios":"levelo://app?vid=9be4169f-df5c-4c12-9fe3-4c7a763bd86a"},"vehicle_type_id":"4","last_reported":1691075191,"current_range_meters":7600,"station_id":"ce4bhbh2rcd13ifvqepg","pricing_plan_id":"free"},{"bike_id":"ed2753c6-8e2c-42ac-8b1d-99fdc9ebce59","system_id":"levelo_inurba_marseille","lat":43.28412,"lon":5.34976,"is_reserved":false,"is_disabled":false,"rental_uris":{"android":"levelo://app?vid=ed2753c6-8e2c-42ac-8b1d-99fdc9ebce59","ios":"levelo://app?vid=ed2753c6-8e2c-42ac-8b1d-99fdc9ebce59"},"vehicle_type_id":"4","last_reported":1691075191,"current_range_meters":27600,"station_id":"ce4bhbh2rcd13ifvqepg","pricing_plan_id":"free"},{"bike_id":"62371f7b-f681-426c-af38-774b09dd23e8","system_id":"levelo_inurba_marseille","lat":43.289363,"lon":5.396322,"is_reserved":false,"is_disabled":false,"rental_uris":{"android":"levelo://app?vid=62371f7b-f681-426c-af38-774b09dd23e8","ios":"levelo://app?vid=62371f7b-f681-426c-af38-774b09dd23e8"},"vehicle_type_id":"4","last_reported":1691075191,"current_range_meters":14000,"station_id":"ce4bh3h2rcd13ifvqdn0","pricing_plan_id":"free"},{"bike_id":"f7f5768e-b80f-4da0-8864-86696a8877fb","system_id":"levelo_inurba_marseille","lat":43.32456,"lon":5.40727,"is_reserved":false,"is_disabled":false,"rental_uris":{"android":"levelo://app?vid=f7f5768e-b80f-4da0-8864-86696a8877fb","ios":"levelo://app?vid=f7f5768e-b80f-4da0-8864-86696a8877fb"},"vehicle_type_id":"4","last_reported":1691075191,"current_range_meters":0,"station_id":"","pricing_plan_id":"free"},{"bike_id":"8d161efa-5135-4016-9b4c-d54bc050b216","system_id":"levelo_inurba_marseille","lat":43.292724,"lon":5.401131,"is_reserved":false,"is_disabled":false,"rental_uris":{"android":"levelo://app?vid=8d161efa-5135-4016-9b4c-d54bc050b216","ios":"levelo://app?vid=8d161efa-5135-4016-9b4c-d54bc050b216"},"vehicle_type_id":"4","last_reported":1691075191,"current_range_meters":20800,"station_id":"ce4bh312rcd13ifvqdk0","pricing_plan_id":"free"},{"bike_id":"396b68e2-9de5-4b66-914f-40785fccd0ed","system_id":"levelo_inurba_marseille","lat":43.283502,"lon":5.386471,"is_reserved":false,"is_disabled":false,"rental_uris":{"android":"levelo://app?vid=396b68e2-9de5-4b66-914f-40785fccd0ed","ios":"levelo://app?vid=396b68e2-9de5-4b66-914f-40785fccd0ed"},"vehicle_type_id":"4","last_reported":1691075191,"current_range_meters":8800,"station_id":"ce4bh492rcd13ifvqdvg","pricing_plan_id":"free"},{"bike_id":"90620291-2df4-47ec-8291-6ca7dcb345f0","system_id":"levelo_inurba_marseille","lat":43.282754,"lon":5.350519,"is_reserved":false,"is_disabled":false,"rental_uris":{"android":"levelo://app?vid=90620291-2df4-47ec-8291-6ca7dcb345f0","ios":"levelo://app?vid=90620291-2df4-47ec-8291-6ca7dcb345f0"},"vehicle_type_id":"4","last_reported":1691075191,"current_range_meters":31600,"station_id":"ce4bhbp2rcd13ifvqerg","pricing_plan_id":"free"},{"bike_id":"1c61d2ed-1285-41d2-bf47-43cdc868c2e3","system_id":"levelo_inurba_marseille","lat":43.282754,"lon":5.350519,"is_reserved":false,"is_disabled":false,"rental_uris":{"android":"levelo://app?vid=1c61d2ed-1285-41d2-bf47-43cdc868c2e3","ios":"levelo://app?vid=1c61d2ed-1285-41d2-bf47-43cdc868c2e3"},"vehicle_type_id":"4","last_reported":1691075191,"current_range_meters":29600,"station_id":"ce4bhbp2rcd13ifvqerg","pricing_plan_id":"free"},{"bike_id":"22f50663-114a-4456-952b-acb865a7886b","system_id":"levelo_inurba_marseille","lat":43.282754,"lon":5.350519,"is_reserved":false,"is_disabled":false,"rental_uris":{"android":"levelo://app?vid=22f50663-114a-4456-952b-acb865a7886b","ios":"levelo://app?vid=22f50663-114a-4456-952b-acb865a7886b"},"vehicle_type_id":"4","last_reported":1691075191,"current_range_meters":18800,"station_id":"ce4bhbp2rcd13ifvqerg","pricing_plan_id":"free"},{"bike_id":"6a44ace7-01b5-4807-8e28-f143e9238b1c","system_id":"levelo_inurba_marseille","lat":43.282744,"lon":5.350533,"is_reserved":false,"is_disabled":false,"rental_uris":{"android":"levelo://app?vid=6a44ace7-01b5-4807-8e28-f143e9238b1c","ios":"levelo://app?vid=6a44ace7-01b5-4807-8e28-f143e9238b1c"},"vehicle_type_id":"4","last_reported":1691075191,"current_range_meters":26800,"station_id":"ce4bhbp2rcd13ifvqerg","pricing_plan_id":"free"},{"bike_id":"3a73d9ee-dd7c-4247-9f6a-2df74649cb71","system_id":"levelo_inurba_marseille","lat":43.282744,"lon":5.350533,"is_reserved":false,"is_disabled":false,"rental_uris":{"android":"levelo://app?vid=3a73d9ee-dd7c-4247-9f6a-2df74649cb71","ios":"levelo://app?vid=3a73d9ee-dd7c-4247-9f6a-2df74649cb71"},"vehicle_type_id":"4","last_reported":1691075191,"current_range_meters":10400,"station_id":"ce4bhbp2rcd13ifvqerg","pricing_plan_id":"free"},{"bike_id":"2d4f0fb7-587a-4dcd-96ad-0fc50a569784","system_id":"levelo_inurba_marseille","lat":43.282744,"lon":5.350533,"is_reserved":false,"is_disabled":false,"rental_uris":{"android":"levelo://app?vid=2d4f0fb7-587a-4dcd-96ad-0fc50a569784","ios":"levelo://app?vid=2d4f0fb7-587a-4dcd-96ad-0fc50a569784"},"vehicle_type_id":"4","last_reported":1691075191,"current_range_meters":12400,"station_id":"ce4bhbp2rcd13ifvqerg","pricing_plan_id":"free"},{"bike_id":"03b60b46-7eee-44b4-ac73-053c93a71158","system_id":"levelo_inurba_marseille","lat":43.282754,"lon":5.350519,"is_reserved":false,"is_disabled":false,"rental_uris":{"android":"levelo://app?vid=03b60b46-7eee-44b4-ac73-053c93a71158","ios":"levelo://app?vid=03b60b46-7eee-44b4-ac73-053c93a71158"},"vehicle_type_id":"4","last_reported":1691075191,"current_range_meters":22000,"station_id":"ce4bhbp2rcd13ifvqerg","pricing_plan_id":"free"},{"bike_id":"74d12f38-94ef-491b-8e95-5d428f0a5085","system_id":"levelo_inurba_marseille","lat":43.28039,"lon":5.369297,"is_reserved":false,"is_disabled":false,"rental_uris":{"android":"levelo://app?vid=74d12f38-94ef-491b-8e95-5d428f0a5085","ios":"levelo://app?vid=74d12f38-94ef-491b-8e95-5d428f0a5085"},"vehicle_type_id":"4","last_reported":1691075191,"current_range_meters":24400,"station_id":"ce4bha12rcd13ifvqef0","pricing_plan_id":"free"},{"bike_id":"70891d1c-00c4-47f2-b466-c787a97b77a4","system_id":"levelo_inurba_marseille","lat":43.282744,"lon":5.350533,"is_reserved":false,"is_disabled":false,"rental_uris":{"android":"levelo://app?vid=70891d1c-00c4-47f2-b466-c787a97b77a4","ios":"levelo://app?vid=70891d1c-00c4-47f2-b466-c787a97b77a4"},"vehicle_type_id":"4","last_reported":1691075191,"current_range_meters":31600,"station_id":"ce4bhbp2rcd13ifvqerg","pricing_plan_id":"free"},{"bike_id":"77eab99e-6cc0-4a2d-b7fd-d12202f5281e","system_id":"levelo_inurba_marseille","lat":43.282744,"lon":5.350533,"is_reserved":false,"is_disabled":false,"rental_uris":{"android":"levelo://app?vid=77eab99e-6cc0-4a2d-b7fd-d12202f5281e","ios":"levelo://app?vid=77eab99e-6cc0-4a2d-b7fd-d12202f5281e"},"vehicle_type_id":"4","last_reported":1691075191,"current_range_meters":20800,"station_id":"ce4bhbp2rcd13ifvqerg","pricing_plan_id":"free"},{"bike_id":"f9fc301b-ca90-4394-bf83-6800e8ce9069","system_id":"levelo_inurba_marseille","lat":43.282754,"lon":5.350519,"is_reserved":false,"is_disabled":false,"rental_uris":{"android":"levelo://app?vid=f9fc301b-ca90-4394-bf83-6800e8ce9069","ios":"levelo://app?vid=f9fc301b-ca90-4394-bf83-6800e8ce9069"},"vehicle_type_id":"4","last_reported":1691075191,"current_range_meters":23200,"station_id":"ce4bhbp2rcd13ifvqerg","pricing_plan_id":"free"},{"bike_id":"6d2a1712-bfde-4e8c-9984-e0c1882ddd7b","system_id":"levelo_inurba_marseille","lat":43.282744,"lon":5.350533,"is_reserved":false,"is_disabled":false,"rental_uris":{"android":"levelo://app?vid=6d2a1712-bfde-4e8c-9984-e0c1882ddd7b","ios":"levelo://app?vid=6d2a1712-bfde-4e8c-9984-e0c1882ddd7b"},"vehicle_type_id":"4","last_reported":1691075191,"current_range_meters":28800,"station_id":"ce4bhbp2rcd13ifvqerg","pricing_plan_id":"free"},{"bike_id":"7f5d87f8-ed1c-4e47-ba30-a33da429fe0d","system_id":"levelo_inurba_marseille","lat":43.28358,"lon":5.38633,"is_reserved":false,"is_disabled":false,"rental_uris":{"android":"levelo://app?vid=7f5d87f8-ed1c-4e47-ba30-a33da429fe0d","ios":"levelo://app?vid=7f5d87f8-ed1c-4e47-ba30-a33da429fe0d"},"vehicle_type_id":"4","last_reported":1691075191,"current_range_meters":30000,"station_id":"ce4bh492rcd13ifvqdvg","pricing_plan_id":"free"},{"bike_id":"d00253a6-0604-4d61-a20c-51caa870ba35","system_id":"levelo_inurba_marseille","lat":43.28104,"lon":5.37833,"is_reserved":false,"is_disabled":false,"rental_uris":{"android":"levelo://app?vid=d00253a6-0604-4d61-a20c-51caa870ba35","ios":"levelo://app?vid=d00253a6-0604-4d61-a20c-51caa870ba35"},"vehicle_type_id":"4","last_reported":1691075191,"current_range_meters":9200,"station_id":"ce4bha12rcd13ifvqee0","pricing_plan_id":"free"},{"bike_id":"f4b0f5a8-c03c-4b41-943d-492929b86df7","system_id":"levelo_inurba_marseille","lat":43.32655,"lon":5.40993,"is_reserved":false,"is_disabled":false,"rental_uris":{"android":"levelo://app?vid=f4b0f5a8-c03c-4b41-943d-492929b86df7","ios":"levelo://app?vid=f4b0f5a8-c03c-4b41-943d-492929b86df7"},"vehicle_type_id":"4","last_reported":1691075191,"current_range_meters":30000,"station_id":"ce4bhpp2rcd13ifvqhgg","pricing_plan_id":"free"},{"bike_id":"4bea7dbd-1e1e-49f6-94c2-1b0edc11fda3","system_id":"levelo_inurba_marseille","lat":43.32657,"lon":5.40993,"is_reserved":false,"is_disabled":false,"rental_uris":{"android":"levelo://app?vid=4bea7dbd-1e1e-49f6-94c2-1b0edc11fda3","ios":"levelo://app?vid=4bea7dbd-1e1e-49f6-94c2-1b0edc11fda3"},"vehicle_type_id":"4","last_reported":1691075191,"current_range_meters":25600,"station_id":"ce4bhpp2rcd13ifvqhgg","pricing_plan_id":"free"},{"bike_id":"bea9524d-02ec-4526-b922-f8f292ac8394","system_id":"levelo_inurba_marseille","lat":43.326605,"lon":5.409903,"is_reserved":false,"is_disabled":false,"rental_uris":{"android":"levelo://app?vid=bea9524d-02ec-4526-b922-f8f292ac8394","ios":"levelo://app?vid=bea9524d-02ec-4526-b922-f8f292ac8394"},"vehicle_type_id":"4","last_reported":1691075191,"current_range_meters":22400,"station_id":"ce4bhpp2rcd13ifvqhgg","pricing_plan_id":"free"},{"bike_id":"483bb16b-3292-4482-9f52-c4ce9fb5e5aa","system_id":"levelo_inurba_marseille","lat":43.32653,"lon":5.40998,"is_reserved":false,"is_disabled":false,"rental_uris":{"android":"levelo://app?vid=483bb16b-3292-4482-9f52-c4ce9fb5e5aa","ios":"levelo://app?vid=483bb16b-3292-4482-9f52-c4ce9fb5e5aa"},"vehicle_type_id":"4","last_reported":1691075191,"current_range_meters":20000,"station_id":"ce4bhpp2rcd13ifvqhgg","pricing_plan_id":"free"},{"bike_id":"c4ff6eea-c693-4218-9bae-3820f7f4611f","system_id":"levelo_inurba_marseille","lat":43.32658,"lon":5.40996,"is_reserved":false,"is_disabled":false,"rental_uris":{"android":"levelo://app?vid=c4ff6eea-c693-4218-9bae-3820f7f4611f","ios":"levelo://app?vid=c4ff6eea-c693-4218-9bae-3820f7f4611f"},"vehicle_type_id":"4","last_reported":1691075191,"current_range_meters":19200,"station_id":"ce4bhpp2rcd13ifvqhgg","pricing_plan_id":"free"},{"bike_id":"53363a72-2126-4e73-ad3a-88d17de3bda2","system_id":"levelo_inurba_marseille","lat":43.326642,"lon":5.410008,"is_reserved":false,"is_disabled":false,"rental_uris":{"android":"levelo://app?vid=53363a72-2126-4e73-ad3a-88d17de3bda2","ios":"levelo://app?vid=53363a72-2126-4e73-ad3a-88d17de3bda2"},"vehicle_type_id":"4","last_reported":1691075191,"current_range_meters":27200,"station_id":"ce4bhpp2rcd13ifvqhgg","pricing_plan_id":"free"},{"bike_id":"c9a47dc1-ba0e-4c57-af46-76425dde6f7d","system_id":"levelo_inurba_marseille","lat":43.304188,"lon":5.412904,"is_reserved":false,"is_disabled":false,"rental_uris":{"android":"levelo://app?vid=c9a47dc1-ba0e-4c57-af46-76425dde6f7d","ios":"levelo://app?vid=c9a47dc1-ba0e-4c57-af46-76425dde6f7d"},"vehicle_type_id":"4","last_reported":1691075191,"current_range_meters":28400,"station_id":"ce4bhop2rcd13ifvqh8g","pricing_plan_id":"free"},{"bike_id":"9ac1c64a-1fdb-4aa7-81cd-2db8c1d8823b","system_id":"levelo_inurba_marseille","lat":43.279087,"lon":5.380114,"is_reserved":false,"is_disabled":false,"rental_uris":{"android":"levelo://app?vid=9ac1c64a-1fdb-4aa7-81cd-2db8c1d8823b","ios":"levelo://app?vid=9ac1c64a-1fdb-4aa7-81cd-2db8c1d8823b"},"vehicle_type_id":"4","last_reported":1691075191,"current_range_meters":15600,"station_id":"ce4bhf92rcd13ifvqf50","pricing_plan_id":"free"},{"bike_id":"10ad90e9-c2c1-48fe-9b72-627ec7857d21","system_id":"levelo_inurba_marseille","lat":43.287154,"lon":5.399979,"is_reserved":false,"is_disabled":false,"rental_uris":{"android":"levelo://app?vid=10ad90e9-c2c1-48fe-9b72-627ec7857d21","ios":"levelo://app?vid=10ad90e9-c2c1-48fe-9b72-627ec7857d21"},"vehicle_type_id":"4","last_reported":1691075191,"current_range_meters":1600,"station_id":"ce4bho92rcd13ifvqh3g","pricing_plan_id":"free"},{"bike_id":"dbfece38-e539-458b-aad8-c13f745a26bd","system_id":"levelo_inurba_marseille","lat":43.32057,"lon":5.41511,"is_reserved":false,"is_disabled":false,"rental_uris":{"android":"levelo://app?vid=dbfece38-e539-458b-aad8-c13f745a26bd","ios":"levelo://app?vid=dbfece38-e539-458b-aad8-c13f745a26bd"},"vehicle_type_id":"4","last_reported":1691075191,"current_range_meters":26400,"station_id":"ce4bhq92rcd13ifvqhkg","pricing_plan_id":"free"},{"bike_id":"da74851f-183f-4ed8-bc32-44e1d656b516","system_id":"levelo_inurba_marseille","lat":43.32095,"lon":5.41512,"is_reserved":false,"is_disabled":false,"rental_uris":{"android":"levelo://app?vid=da74851f-183f-4ed8-bc32-44e1d656b516","ios":"levelo://app?vid=da74851f-183f-4ed8-bc32-44e1d656b516"},"vehicle_type_id":"4","last_reported":1691075191,"current_range_meters":3200,"station_id":"","pricing_plan_id":"free"},{"bike_id":"e9fbe7f4-c376-4a74-9a01-c2dfa71d30c2","system_id":"levelo_inurba_marseille","lat":43.3209,"lon":5.41514,"is_reserved":false,"is_disabled":false,"rental_uris":{"android":"levelo://app?vid=e9fbe7f4-c376-4a74-9a01-c2dfa71d30c2","ios":"levelo://app?vid=e9fbe7f4-c376-4a74-9a01-c2dfa71d30c2"},"vehicle_type_id":"4","last_reported":1691075191,"current_range_meters":0,"station_id":"","pricing_plan_id":"free"},{"bike_id":"c327718a-8fe6-4791-a349-aba0f8f94e82","system_id":"levelo_inurba_marseille","lat":43.279742,"lon":5.38744,"is_reserved":false,"is_disabled":false,"rental_uris":{"android":"levelo://app?vid=c327718a-8fe6-4791-a349-aba0f8f94e82","ios":"levelo://app?vid=c327718a-8fe6-4791-a349-aba0f8f94e82"},"vehicle_type_id":"4","last_reported":1691075191,"current_range_meters":31600,"station_id":"ce4bhg12rcd13ifvqf80","pricing_plan_id":"free"},{"bike_id":"79b308e1-5159-4541-9246-5f285a493d37","system_id":"levelo_inurba_marseille","lat":43.32028,"lon":5.41574,"is_reserved":false,"is_disabled":false,"rental_uris":{"android":"levelo://app?vid=79b308e1-5159-4541-9246-5f285a493d37","ios":"levelo://app?vid=79b308e1-5159-4541-9246-5f285a493d37"},"vehicle_type_id":"4","last_reported":1691075191,"current_range_meters":21600,"station_id":"ce4bhq92rcd13ifvqhkg","pricing_plan_id":"free"},{"bike_id":"b21f904b-9f8c-49ff-8ff0-d6cdfefa6c9e","system_id":"levelo_inurba_marseille","lat":43.32014,"lon":5.41586,"is_reserved":false,"is_disabled":false,"rental_uris":{"android":"levelo://app?vid=b21f904b-9f8c-49ff-8ff0-d6cdfefa6c9e","ios":"levelo://app?vid=b21f904b-9f8c-49ff-8ff0-d6cdfefa6c9e"},"vehicle_type_id":"4","last_reported":1691075191,"current_range_meters":30000,"station_id":"ce4bhq92rcd13ifvqhkg","pricing_plan_id":"free"},{"bike_id":"6a534687-ab75-4e47-9eec-6f68e33f790c","system_id":"levelo_inurba_marseille","lat":43.325233,"lon":5.414318,"is_reserved":false,"is_disabled":false,"rental_uris":{"android":"levelo://app?vid=6a534687-ab75-4e47-9eec-6f68e33f790c","ios":"levelo://app?vid=6a534687-ab75-4e47-9eec-6f68e33f790c"},"vehicle_type_id":"4","last_reported":1691075191,"current_range_meters":20800,"station_id":"ce4bhq12rcd13ifvqhhg","pricing_plan_id":"free"},{"bike_id":"ece3f6e0-9b7f-4ad6-ab5b-8169c4677c6b","system_id":"levelo_inurba_marseille","lat":43.27618,"lon":5.361009,"is_reserved":false,"is_disabled":false,"rental_uris":{"android":"levelo://app?vid=ece3f6e0-9b7f-4ad6-ab5b-8169c4677c6b","ios":"levelo://app?vid=ece3f6e0-9b7f-4ad6-ab5b-8169c4677c6b"},"vehicle_type_id":"4","last_reported":1691075191,"current_range_meters":0,"station_id":"ce4bgj92rcd13ifvqbe0","pricing_plan_id":"free"},{"bike_id":"fa35f608-b01b-4eda-b7e9-f604e851f1dd","system_id":"levelo_inurba_marseille","lat":43.276209,"lon":5.361101,"is_reserved":false,"is_disabled":false,"rental_uris":{"android":"levelo://app?vid=fa35f608-b01b-4eda-b7e9-f604e851f1dd","ios":"levelo://app?vid=fa35f608-b01b-4eda-b7e9-f604e851f1dd"},"vehicle_type_id":"4","last_reported":1691075191,"current_range_meters":6400,"station_id":"ce4bgj92rcd13ifvqbe0","pricing_plan_id":"free"},{"bike_id":"dea0d756-b200-4b5f-83e1-2b00424f5cc4","system_id":"levelo_inurba_marseille","lat":43.2762,"lon":5.36108,"is_reserved":false,"is_disabled":false,"rental_uris":{"android":"levelo://app?vid=dea0d756-b200-4b5f-83e1-2b00424f5cc4","ios":"levelo://app?vid=dea0d756-b200-4b5f-83e1-2b00424f5cc4"},"vehicle_type_id":"4","last_reported":1691075191,"current_range_meters":22400,"station_id":"ce4bgj92rcd13ifvqbe0","pricing_plan_id":"free"},{"bike_id":"386ed8e3-b71e-4f68-86af-202c5b76503e","system_id":"levelo_inurba_marseille","lat":43.27618,"lon":5.361009,"is_reserved":false,"is_disabled":false,"rental_uris":{"android":"levelo://app?vid=386ed8e3-b71e-4f68-86af-202c5b76503e","ios":"levelo://app?vid=386ed8e3-b71e-4f68-86af-202c5b76503e"},"vehicle_type_id":"4","last_reported":1691075191,"current_range_meters":21600,"station_id":"ce4bgj92rcd13ifvqbe0","pricing_plan_id":"free"},{"bike_id":"7de8c27b-0f55-4186-81a3-814302d90eea","system_id":"levelo_inurba_marseille","lat":43.27617,"lon":5.36112,"is_reserved":false,"is_disabled":false,"rental_uris":{"android":"levelo://app?vid=7de8c27b-0f55-4186-81a3-814302d90eea","ios":"levelo://app?vid=7de8c27b-0f55-4186-81a3-814302d90eea"},"vehicle_type_id":"4","last_reported":1691075191,"current_range_meters":3200,"station_id":"ce4bgj92rcd13ifvqbe0","pricing_plan_id":"free"},{"bike_id":"9539ad4f-670a-4496-966d-178e4200a5d2","system_id":"levelo_inurba_marseille","lat":43.27618,"lon":5.361009,"is_reserved":false,"is_disabled":false,"rental_uris":{"android":"levelo://app?vid=9539ad4f-670a-4496-966d-178e4200a5d2","ios":"levelo://app?vid=9539ad4f-670a-4496-966d-178e4200a5d2"},"vehicle_type_id":"4","last_reported":1691075191,"current_range_meters":16800,"station_id":"ce4bgj92rcd13ifvqbe0","pricing_plan_id":"free"},{"bike_id":"5858c857-6627-48a1-8e01-483235a02321","system_id":"levelo_inurba_marseille","lat":43.28076,"lon":5.39644,"is_reserved":false,"is_disabled":false,"rental_uris":{"android":"levelo://app?vid=5858c857-6627-48a1-8e01-483235a02321","ios":"levelo://app?vid=5858c857-6627-48a1-8e01-483235a02321"},"vehicle_type_id":"4","last_reported":1691075191,"current_range_meters":0,"station_id":"ce4bho12rcd13ifvqh2g","pricing_plan_id":"free"},{"bike_id":"05c45c5c-487f-4c36-85cb-cf4607186775","system_id":"levelo_inurba_marseille","lat":43.28646,"lon":5.40615,"is_reserved":false,"is_disabled":false,"rental_uris":{"android":"levelo://app?vid=05c45c5c-487f-4c36-85cb-cf4607186775","ios":"levelo://app?vid=05c45c5c-487f-4c36-85cb-cf4607186775"},"vehicle_type_id":"4","last_reported":1691075191,"current_range_meters":22400,"station_id":"","pricing_plan_id":"free"},{"bike_id":"ef50fa17-e49b-4c5d-b5ba-0efb89fbd05b","system_id":"levelo_inurba_marseille","lat":43.278401,"lon":5.392152,"is_reserved":false,"is_disabled":false,"rental_uris":{"android":"levelo://app?vid=ef50fa17-e49b-4c5d-b5ba-0efb89fbd05b","ios":"levelo://app?vid=ef50fa17-e49b-4c5d-b5ba-0efb89fbd05b"},"vehicle_type_id":"4","last_reported":1691075191,"current_range_meters":12800,"station_id":"ce4bhjp2rcd13ifvqga0","pricing_plan_id":"free"},{"bike_id":"69dc5e35-3caa-4426-a208-ee50b9722555","system_id":"levelo_inurba_marseille","lat":43.278401,"lon":5.392152,"is_reserved":false,"is_disabled":false,"rental_uris":{"android":"levelo://app?vid=69dc5e35-3caa-4426-a208-ee50b9722555","ios":"levelo://app?vid=69dc5e35-3caa-4426-a208-ee50b9722555"},"vehicle_type_id":"4","last_reported":1691075191,"current_range_meters":23200,"station_id":"ce4bhjp2rcd13ifvqga0","pricing_plan_id":"free"},{"bike_id":"ce98cf73-028e-4163-b036-108015f10e08","system_id":"levelo_inurba_marseille","lat":43.278399,"lon":5.392139,"is_reserved":false,"is_disabled":false,"rental_uris":{"android":"levelo://app?vid=ce98cf73-028e-4163-b036-108015f10e08","ios":"levelo://app?vid=ce98cf73-028e-4163-b036-108015f10e08"},"vehicle_type_id":"4","last_reported":1691075191,"current_range_meters":5200,"station_id":"ce4bhjp2rcd13ifvqga0","pricing_plan_id":"free"},{"bike_id":"729e0421-a695-4529-8985-2230d4503b9b","system_id":"levelo_inurba_marseille","lat":43.278401,"lon":5.392152,"is_reserved":false,"is_disabled":false,"rental_uris":{"android":"levelo://app?vid=729e0421-a695-4529-8985-2230d4503b9b","ios":"levelo://app?vid=729e0421-a695-4529-8985-2230d4503b9b"},"vehicle_type_id":"4","last_reported":1691075191,"current_range_meters":31600,"station_id":"ce4bhjp2rcd13ifvqga0","pricing_plan_id":"free"},{"bike_id":"3aa1f8b3-85a6-4715-bb3d-3f615edb5ee0","system_id":"levelo_inurba_marseille","lat":43.278399,"lon":5.392139,"is_reserved":false,"is_disabled":false,"rental_uris":{"android":"levelo://app?vid=3aa1f8b3-85a6-4715-bb3d-3f615edb5ee0","ios":"levelo://app?vid=3aa1f8b3-85a6-4715-bb3d-3f615edb5ee0"},"vehicle_type_id":"4","last_reported":1691075191,"current_range_meters":21600,"station_id":"ce4bhjp2rcd13ifvqga0","pricing_plan_id":"free"},{"bike_id":"dce46d5c-500f-4a0d-ab6e-3ba41359bf22","system_id":"levelo_inurba_marseille","lat":43.273609,"lon":5.362708,"is_reserved":false,"is_disabled":false,"rental_uris":{"android":"levelo://app?vid=dce46d5c-500f-4a0d-ab6e-3ba41359bf22","ios":"levelo://app?vid=dce46d5c-500f-4a0d-ab6e-3ba41359bf22"},"vehicle_type_id":"4","last_reported":1691075191,"current_range_meters":32000,"station_id":"ce4bhbh2rcd13ifvqeo0","pricing_plan_id":"free"},{"bike_id":"76828673-f033-466c-a780-d7d7a79550b1","system_id":"levelo_inurba_marseille","lat":43.273613,"lon":5.362705,"is_reserved":false,"is_disabled":false,"rental_uris":{"android":"levelo://app?vid=76828673-f033-466c-a780-d7d7a79550b1","ios":"levelo://app?vid=76828673-f033-466c-a780-d7d7a79550b1"},"vehicle_type_id":"4","last_reported":1691075191,"current_range_meters":12000,"station_id":"ce4bhbh2rcd13ifvqeo0","pricing_plan_id":"free"},{"bike_id":"8ce55745-a911-4099-aeb3-84167ec80d15","system_id":"levelo_inurba_marseille","lat":43.275625,"lon":5.384392,"is_reserved":false,"is_disabled":false,"rental_uris":{"android":"levelo://app?vid=8ce55745-a911-4099-aeb3-84167ec80d15","ios":"levelo://app?vid=8ce55745-a911-4099-aeb3-84167ec80d15"},"vehicle_type_id":"4","last_reported":1691075191,"current_range_meters":16000,"station_id":"ce4bhh92rcd13ifvqfi0","pricing_plan_id":"free"},{"bike_id":"a179c8f7-40ef-467f-998a-71431dc5eee4","system_id":"levelo_inurba_marseille","lat":43.273609,"lon":5.362708,"is_reserved":false,"is_disabled":false,"rental_uris":{"android":"levelo://app?vid=a179c8f7-40ef-467f-998a-71431dc5eee4","ios":"levelo://app?vid=a179c8f7-40ef-467f-998a-71431dc5eee4"},"vehicle_type_id":"4","last_reported":1691075191,"current_range_meters":22000,"station_id":"ce4bhbh2rcd13ifvqeo0","pricing_plan_id":"free"},{"bike_id":"30f8e00f-3304-4297-9010-13f8994f79d9","system_id":"levelo_inurba_marseille","lat":43.33612,"lon":5.410321,"is_reserved":false,"is_disabled":false,"rental_uris":{"android":"levelo://app?vid=30f8e00f-3304-4297-9010-13f8994f79d9","ios":"levelo://app?vid=30f8e00f-3304-4297-9010-13f8994f79d9"},"vehicle_type_id":"4","last_reported":1691075191,"current_range_meters":28800,"station_id":"ce4bhqh2rcd13ifvqhmg","pricing_plan_id":"free"},{"bike_id":"38bd6da6-79ea-4b39-905d-75e78fed252b","system_id":"levelo_inurba_marseille","lat":43.273609,"lon":5.362708,"is_reserved":false,"is_disabled":false,"rental_uris":{"android":"levelo://app?vid=38bd6da6-79ea-4b39-905d-75e78fed252b","ios":"levelo://app?vid=38bd6da6-79ea-4b39-905d-75e78fed252b"},