{"last_updated":1774650053,"ttl":60,"version":"2.2","data":{"bikes":[{"bike_id":"e2fabea8-fec8-4403-91af-ad7f2d964bb9","system_id":"levelo_inurba_marseille","lat":43.29889,"lon":5.42082,"is_reserved":false,"is_disabled":false,"rental_uris":{"android":"levelo://app?vid=e2fabea8-fec8-4403-91af-ad7f2d964bb9","ios":"levelo://app?vid=e2fabea8-fec8-4403-91af-ad7f2d964bb9"},"vehicle_type_id":"4","last_reported":1774650053,"current_range_meters":2800,"station_id":"st_d6tc004otcvc738tfe70","pricing_plan_id":"cebpf4jnsgd1na2vs0mg"},{"bike_id":"4bf5ee1a-db28-4d49-a9e5-e023cbb5efa9","system_id":"levelo_inurba_marseille","lat":43.26509,"lon":5.37964,"is_reserved":false,"is_disabled":false,"rental_uris":{"android":"levelo://app?vid=4bf5ee1a-db28-4d49-a9e5-e023cbb5efa9","ios":"levelo://app?vid=4bf5ee1a-db28-4d49-a9e5-e023cbb5efa9"},"vehicle_type_id":"4","last_reported":1774650053,"current_range_meters":2800,"station_id":"","pricing_plan_id":"cebpf4jnsgd1na2vs0mg"},{"bike_id":"a206a1fc-ad71-47c7-8011-84675fafc178","system_id":"levelo_inurba_marseille","lat":43.31197,"lon":5.36871,"is_reserved":false,"is_disabled":false,"rental_uris":{"android":"levelo://app?vid=a206a1fc-ad71-47c7-8011-84675fafc178","ios":"levelo://app?vid=a206a1fc-ad71-47c7-8011-84675fafc178"},"vehicle_type_id":"4","last_reported":1774650053,"current_range_meters":2800,"station_id":"ce4bgl92rcd13ifvqbq0","pricing_plan_id":"cebpf4jnsgd1na2vs0mg"},{"bike_id":"3ab98d54-0020-4383-9198-d1ae40e931d7","system_id":"levelo_inurba_marseille","lat":43.26219,"lon":5.40455,"is_reserved":false,"is_disabled":false,"rental_uris":{"android":"levelo://app?vid=3ab98d54-0020-4383-9198-d1ae40e931d7","ios":"levelo://app?vid=3ab98d54-0020-4383-9198-d1ae40e931d7"},"vehicle_type_id":"4","last_reported":1774650053,"current_range_meters":2800,"station_id":"ce4bhmh2rcd13ifvqgmg","pricing_plan_id":"cebpf4jnsgd1na2vs0mg"},{"bike_id":"ee15650d-762e-4f94-b99d-67f85971e841","system_id":"levelo_inurba_marseille","lat":43.27489,"lon":5.416,"is_reserved":false,"is_disabled":true,"rental_uris":{"android":"levelo://app?vid=ee15650d-762e-4f94-b99d-67f85971e841","ios":"levelo://app?vid=ee15650d-762e-4f94-b99d-67f85971e841"},"vehicle_type_id":"4","last_reported":1774650053,"current_range_meters":2800,"station_id":"st_d6im8g6chgec73a5pndg","pricing_plan_id":"cebpf4jnsgd1na2vs0mg"},{"bike_id":"251bf3ec-26e1-4ea6-85dd-5d4b506166ab","system_id":"levelo_inurba_marseille","lat":43.26548,"lon":5.37287,"is_reserved":false,"is_disabled":false,"rental_uris":{"android":"levelo://app?vid=251bf3ec-26e1-4ea6-85dd-5d4b506166ab","ios":"levelo://app?vid=251bf3ec-26e1-4ea6-85dd-5d4b506166ab"},"vehicle_type_id":"4","last_reported":1774650053,"current_range_meters":2800,"station_id":"ce4bhg12rcd13ifvqf70","pricing_plan_id":"cebpf4jnsgd1na2vs0mg"},{"bike_id":"5d50e5a1-2776-45f5-b9ff-1dc20663f1a3","system_id":"levelo_inurba_marseille","lat":43.27181,"lon":5.40995,"is_reserved":false,"is_disabled":false,"rental_uris":{"android":"levelo://app?vid=5d50e5a1-2776-45f5-b9ff-1dc20663f1a3","ios":"levelo://app?vid=5d50e5a1-2776-45f5-b9ff-1dc20663f1a3"},"vehicle_type_id":"4","last_reported":1774650053,"current_range_meters":2800,"station_id":"ce4bhl12rcd13ifvqgf0","pricing_plan_id":"cebpf4jnsgd1na2vs0mg"},{"bike_id":"8b8fa4cd-0e4d-4f9d-bd0f-6bb50645af4d","system_id":"levelo_inurba_marseille","lat":43.30096,"lon":5.3908,"is_reserved":false,"is_disabled":false,"rental_uris":{"android":"levelo://app?vid=8b8fa4cd-0e4d-4f9d-bd0f-6bb50645af4d","ios":"levelo://app?vid=8b8fa4cd-0e4d-4f9d-bd0f-6bb50645af4d"},"vehicle_type_id":"4","last_reported":1774650053,"current_range_meters":2800,"station_id":"ce4bh192rcd13ifvqdb0","pricing_plan_id":"cebpf4jnsgd1na2vs0mg"},{"bike_id":"7986f560-786e-4a83-8435-bdf0329e1333","system_id":"levelo_inurba_marseille","lat":43.30472,"lon":5.37906,"is_reserved":false,"is_disabled":false,"rental_uris":{"android":"levelo://app?vid=7986f560-786e-4a83-8435-bdf0329e1333","ios":"levelo://app?vid=7986f560-786e-4a83-8435-bdf0329e1333"},"vehicle_type_id":"4","last_reported":1774650053,"current_range_meters":2800,"station_id":"ce4bgup2rcd13ifvqcn0","pricing_plan_id":"cebpf4jnsgd1na2vs0mg"},{"bike_id":"99fdde14-d00f-4b87-a06e-d19f16d9d69a","system_id":"levelo_inurba_marseille","lat":43.30214,"lon":5.38034,"is_reserved":false,"is_disabled":false,"rental_uris":{"android":"levelo://app?vid=99fdde14-d00f-4b87-a06e-d19f16d9d69a","ios":"levelo://app?vid=99fdde14-d00f-4b87-a06e-d19f16d9d69a"},"vehicle_type_id":"4","last_reported":1774650053,"current_range_meters":2800,"station_id":"","pricing_plan_id":"cebpf4jnsgd1na2vs0mg"},{"bike_id":"df36ed7f-b296-4de2-a8ed-cc428c3a1953","system_id":"levelo_inurba_marseille","lat":43.289368,"lon":5.396367,"is_reserved":false,"is_disabled":false,"rental_uris":{"android":"levelo://app?vid=df36ed7f-b296-4de2-a8ed-cc428c3a1953","ios":"levelo://app?vid=df36ed7f-b296-4de2-a8ed-cc428c3a1953"},"vehicle_type_id":"4","last_reported":1774650053,"current_range_meters":3200,"station_id":"ce4bh3h2rcd13ifvqdn0","pricing_plan_id":"cebpf4jnsgd1na2vs0mg"},{"bike_id":"0f56ada4-0139-4533-81b0-539cec19117a","system_id":"levelo_inurba_marseille","lat":43.3002,"lon":5.37686,"is_reserved":false,"is_disabled":false,"rental_uris":{"android":"levelo://app?vid=0f56ada4-0139-4533-81b0-539cec19117a","ios":"levelo://app?vid=0f56ada4-0139-4533-81b0-539cec19117a"},"vehicle_type_id":"4","last_reported":1774650053,"current_range_meters":3200,"station_id":"","pricing_plan_id":"cebpf4jnsgd1na2vs0mg"},{"bike_id":"d9f1e599-9996-4001-a299-ae38459379b5","system_id":"levelo_inurba_marseille","lat":43.31902,"lon":5.36807,"is_reserved":false,"is_disabled":false,"rental_uris":{"android":"levelo://app?vid=d9f1e599-9996-4001-a299-ae38459379b5","ios":"levelo://app?vid=d9f1e599-9996-4001-a299-ae38459379b5"},"vehicle_type_id":"4","last_reported":1774650053,"current_range_meters":3200,"station_id":"","pricing_plan_id":"cebpf4jnsgd1na2vs0mg"},{"bike_id":"21c4807f-b8cf-4a1d-bee8-7bc7a16a116a","system_id":"levelo_inurba_marseille","lat":43.24636,"lon":5.38924,"is_reserved":false,"is_disabled":false,"rental_uris":{"android":"levelo://app?vid=21c4807f-b8cf-4a1d-bee8-7bc7a16a116a","ios":"levelo://app?vid=21c4807f-b8cf-4a1d-bee8-7bc7a16a116a"},"vehicle_type_id":"4","last_reported":1774650053,"current_range_meters":3200,"station_id":"ce4bhg12rcd13ifvqf60","pricing_plan_id":"cebpf4jnsgd1na2vs0mg"},{"bike_id":"4397ae44-635b-43b0-a1ea-4e1a061d0889","system_id":"levelo_inurba_marseille","lat":43.24159,"lon":5.36402,"is_reserved":false,"is_disabled":false,"rental_uris":{"android":"levelo://app?vid=4397ae44-635b-43b0-a1ea-4e1a061d0889","ios":"levelo://app?vid=4397ae44-635b-43b0-a1ea-4e1a061d0889"},"vehicle_type_id":"4","last_reported":1774650053,"current_range_meters":3200,"station_id":"cpo36qri1sfpv3e86is0","pricing_plan_id":"cebpf4jnsgd1na2vs0mg"},{"bike_id":"43e1c4a9-10fe-4f87-ba76-132a3f20c545","system_id":"levelo_inurba_marseille","lat":43.25578,"lon":5.38247,"is_reserved":false,"is_disabled":false,"rental_uris":{"android":"levelo://app?vid=43e1c4a9-10fe-4f87-ba76-132a3f20c545","ios":"levelo://app?vid=43e1c4a9-10fe-4f87-ba76-132a3f20c545"},"vehicle_type_id":"4","last_reported":1774650053,"current_range_meters":3600,"station_id":"ce4bhih2rcd13ifvqfs0","pricing_plan_id":"cebpf4jnsgd1na2vs0mg"},{"bike_id":"beca5126-c985-47d5-859f-464bcda92937","system_id":"levelo_inurba_marseille","lat":43.23782,"lon":5.36632,"is_reserved":false,"is_disabled":false,"rental_uris":{"android":"levelo://app?vid=beca5126-c985-47d5-859f-464bcda92937","ios":"levelo://app?vid=beca5126-c985-47d5-859f-464bcda92937"},"vehicle_type_id":"4","last_reported":1774650053,"current_range_meters":3600,"station_id":"st_d3nk18o9ro0c73en2l3g","pricing_plan_id":"cebpf4jnsgd1na2vs0mg"},{"bike_id":"057e86f1-0eb5-4bdd-a301-8874b457906a","system_id":"levelo_inurba_marseille","lat":43.287,"lon":5.38662,"is_reserved":false,"is_disabled":false,"rental_uris":{"android":"levelo://app?vid=057e86f1-0eb5-4bdd-a301-8874b457906a","ios":"levelo://app?vid=057e86f1-0eb5-4bdd-a301-8874b457906a"},"vehicle_type_id":"4","last_reported":1774650053,"current_range_meters":3600,"station_id":"ce4bh492rcd13ifvqdug","pricing_plan_id":"cebpf4jnsgd1na2vs0mg"},{"bike_id":"7287bb3e-5f59-4528-92d4-15993944531f","system_id":"levelo_inurba_marseille","lat":43.31331,"lon":5.39677,"is_reserved":false,"is_disabled":false,"rental_uris":{"android":"levelo://app?vid=7287bb3e-5f59-4528-92d4-15993944531f","ios":"levelo://app?vid=7287bb3e-5f59-4528-92d4-15993944531f"},"vehicle_type_id":"4","last_reported":1774650053,"current_range_meters":3600,"station_id":"ce4bgvp2rcd13ifvqcu0","pricing_plan_id":"cebpf4jnsgd1na2vs0mg"},{"bike_id":"5757dbbf-3667-4f8f-8e79-fcc94757427f","system_id":"levelo_inurba_marseille","lat":43.25086,"lon":5.39507,"is_reserved":false,"is_disabled":false,"rental_uris":{"android":"levelo://app?vid=5757dbbf-3667-4f8f-8e79-fcc94757427f","ios":"levelo://app?vid=5757dbbf-3667-4f8f-8e79-fcc94757427f"},"vehicle_type_id":"4","last_reported":1774650053,"current_range_meters":3600,"station_id":"ce4bhm12rcd13ifvqgkg","pricing_plan_id":"cebpf4jnsgd1na2vs0mg"},{"bike_id":"f736f208-97df-4b5e-983a-870833672ee2","system_id":"levelo_inurba_marseille","lat":43.26225,"lon":5.40453,"is_reserved":false,"is_disabled":false,"rental_uris":{"android":"levelo://app?vid=f736f208-97df-4b5e-983a-870833672ee2","ios":"levelo://app?vid=f736f208-97df-4b5e-983a-870833672ee2"},"vehicle_type_id":"4","last_reported":1774650053,"current_range_meters":3600,"station_id":"ce4bhmh2rcd13ifvqgmg","pricing_plan_id":"cebpf4jnsgd1na2vs0mg"},{"bike_id":"47f0208f-ee52-4031-be3f-94d72fca0043","system_id":"levelo_inurba_marseille","lat":43.26495,"lon":5.39525,"is_reserved":false,"is_disabled":false,"rental_uris":{"android":"levelo://app?vid=47f0208f-ee52-4031-be3f-94d72fca0043","ios":"levelo://app?vid=47f0208f-ee52-4031-be3f-94d72fca0043"},"vehicle_type_id":"4","last_reported":1774650053,"current_range_meters":3600,"station_id":"ce4bhi12rcd13ifvqfq0","pricing_plan_id":"cebpf4jnsgd1na2vs0mg"},{"bike_id":"d4841df1-22c8-4402-a664-57cd227ce550","system_id":"levelo_inurba_marseille","lat":43.24831,"lon":5.37439,"is_reserved":false,"is_disabled":false,"rental_uris":{"android":"levelo://app?vid=d4841df1-22c8-4402-a664-57cd227ce550","ios":"levelo://app?vid=d4841df1-22c8-4402-a664-57cd227ce550"},"vehicle_type_id":"4","last_reported":1774650053,"current_range_meters":3600,"station_id":"ce4bhgh2rcd13ifvqfb0","pricing_plan_id":"cebpf4jnsgd1na2vs0mg"},{"bike_id":"6a14e0d7-e036-4a7a-988c-bd4c5dc1ab7f","system_id":"levelo_inurba_marseille","lat":43.33179,"lon":5.37685,"is_reserved":false,"is_disabled":false,"rental_uris":{"android":"levelo://app?vid=6a14e0d7-e036-4a7a-988c-bd4c5dc1ab7f","ios":"levelo://app?vid=6a14e0d7-e036-4a7a-988c-bd4c5dc1ab7f"},"vehicle_type_id":"4","last_reported":1774650053,"current_range_meters":3600,"station_id":"st_d46cu089ee8s73dldbu0","pricing_plan_id":"cebpf4jnsgd1na2vs0mg"},{"bike_id":"b19e5624-4374-4010-938d-5e0b4aa14c30","system_id":"levelo_inurba_marseille","lat":43.24175,"lon":5.39725,"is_reserved":false,"is_disabled":false,"rental_uris":{"android":"levelo://app?vid=b19e5624-4374-4010-938d-5e0b4aa14c30","ios":"levelo://app?vid=b19e5624-4374-4010-938d-5e0b4aa14c30"},"vehicle_type_id":"4","last_reported":1774650053,"current_range_meters":3600,"station_id":"ce4bhn12rcd13ifvqgpg","pricing_plan_id":"cebpf4jnsgd1na2vs0mg"},{"bike_id":"b4b19b25-9b5f-47b6-b435-6d102ce90ad0","system_id":"levelo_inurba_marseille","lat":43.30649,"lon":5.40084,"is_reserved":false,"is_disabled":false,"rental_uris":{"android":"levelo://app?vid=b4b19b25-9b5f-47b6-b435-6d102ce90ad0","ios":"levelo://app?vid=b4b19b25-9b5f-47b6-b435-6d102ce90ad0"},"vehicle_type_id":"4","last_reported":1774650053,"current_range_meters":4000,"station_id":"ce4bh112rcd13ifvqda0","pricing_plan_id":"cebpf4jnsgd1na2vs0mg"},{"bike_id":"74fb782a-19b0-4231-98b9-83ac4118f09e","system_id":"levelo_inurba_marseille","lat":43.28406,"lon":5.37506,"is_reserved":false,"is_disabled":false,"rental_uris":{"android":"levelo://app?vid=74fb782a-19b0-4231-98b9-83ac4118f09e","ios":"levelo://app?vid=74fb782a-19b0-4231-98b9-83ac4118f09e"},"vehicle_type_id":"4","last_reported":1774650053,"current_range_meters":4000,"station_id":"ce4bh412rcd13ifvqds0","pricing_plan_id":"cebpf4jnsgd1na2vs0mg"},{"bike_id":"d98423cf-94ce-4749-89f6-e8a1ee474779","system_id":"levelo_inurba_marseille","lat":43.28444,"lon":5.34966,"is_reserved":false,"is_disabled":false,"rental_uris":{"android":"levelo://app?vid=d98423cf-94ce-4749-89f6-e8a1ee474779","ios":"levelo://app?vid=d98423cf-94ce-4749-89f6-e8a1ee474779"},"vehicle_type_id":"4","last_reported":1774650053,"current_range_meters":4000,"station_id":"ce4bhbh2rcd13ifvqepg","pricing_plan_id":"cebpf4jnsgd1na2vs0mg"},{"bike_id":"85bdb241-1791-4f04-a822-f7254e070a54","system_id":"levelo_inurba_marseille","lat":43.25591,"lon":5.38197,"is_reserved":false,"is_disabled":false,"rental_uris":{"android":"levelo://app?vid=85bdb241-1791-4f04-a822-f7254e070a54","ios":"levelo://app?vid=85bdb241-1791-4f04-a822-f7254e070a54"},"vehicle_type_id":"4","last_reported":1774650053,"current_range_meters":4000,"station_id":"ce4bhih2rcd13ifvqfs0","pricing_plan_id":"cebpf4jnsgd1na2vs0mg"},{"bike_id":"608267f4-4761-45de-af62-b388500b9fc0","system_id":"levelo_inurba_marseille","lat":43.2607,"lon":5.39392,"is_reserved":false,"is_disabled":false,"rental_uris":{"android":"levelo://app?vid=608267f4-4761-45de-af62-b388500b9fc0","ios":"levelo://app?vid=608267f4-4761-45de-af62-b388500b9fc0"},"vehicle_type_id":"4","last_reported":1774650053,"current_range_meters":4000,"station_id":"ce4bhh92rcd13ifvqfj0","pricing_plan_id":"cebpf4jnsgd1na2vs0mg"},{"bike_id":"e4c8bd8f-6e4e-4e94-ae4f-b564cb85805c","system_id":"levelo_inurba_marseille","lat":43.29308,"lon":5.37161,"is_reserved":false,"is_disabled":false,"rental_uris":{"android":"levelo://app?vid=e4c8bd8f-6e4e-4e94-ae4f-b564cb85805c","ios":"levelo://app?vid=e4c8bd8f-6e4e-4e94-ae4f-b564cb85805c"},"vehicle_type_id":"4","last_reported":1774650053,"current_range_meters":4000,"station_id":"ce4bgh92rcd13ifvqb40","pricing_plan_id":"cebpf4jnsgd1na2vs0mg"},{"bike_id":"b5114d54-1a10-4d09-9c82-f6aa7d7d3f8c","system_id":"levelo_inurba_marseille","lat":43.22532,"lon":5.41667,"is_reserved":false,"is_disabled":false,"rental_uris":{"android":"levelo://app?vid=b5114d54-1a10-4d09-9c82-f6aa7d7d3f8c","ios":"levelo://app?vid=b5114d54-1a10-4d09-9c82-f6aa7d7d3f8c"},"vehicle_type_id":"4","last_reported":1774650053,"current_range_meters":4400,"station_id":"st_d2o4gvlbi1j2169b742g","pricing_plan_id":"cebpf4jnsgd1na2vs0mg"},{"bike_id":"bfd7cb66-3073-4920-8151-129c410ea860","system_id":"levelo_inurba_marseille","lat":43.33543,"lon":5.37467,"is_reserved":false,"is_disabled":false,"rental_uris":{"android":"levelo://app?vid=bfd7cb66-3073-4920-8151-129c410ea860","ios":"levelo://app?vid=bfd7cb66-3073-4920-8151-129c410ea860"},"vehicle_type_id":"4","last_reported":1774650053,"current_range_meters":4400,"station_id":"st_d46tts09ee8s73dlu43g","pricing_plan_id":"cebpf4jnsgd1na2vs0mg"},{"bike_id":"4ee1a293-1f19-4f02-9f51-7f59ea7bb2d4","system_id":"levelo_inurba_marseille","lat":43.29947,"lon":5.36565,"is_reserved":false,"is_disabled":false,"rental_uris":{"android":"levelo://app?vid=4ee1a293-1f19-4f02-9f51-7f59ea7bb2d4","ios":"levelo://app?vid=4ee1a293-1f19-4f02-9f51-7f59ea7bb2d4"},"vehicle_type_id":"4","last_reported":1774650053,"current_range_meters":4400,"station_id":"ce4bgm92rcd13ifvqbr0","pricing_plan_id":"cebpf4jnsgd1na2vs0mg"},{"bike_id":"6deaa204-71c8-44f6-9bed-245594e35670","system_id":"levelo_inurba_marseille","lat":43.29509,"lon":5.38522,"is_reserved":false,"is_disabled":false,"rental_uris":{"android":"levelo://app?vid=6deaa204-71c8-44f6-9bed-245594e35670","ios":"levelo://app?vid=6deaa204-71c8-44f6-9bed-245594e35670"},"vehicle_type_id":"4","last_reported":1774650053,"current_range_meters":4400,"station_id":"ce4bgih2rcd13ifvqba0","pricing_plan_id":"cebpf4jnsgd1na2vs0mg"},{"bike_id":"19488896-6834-47f6-be9b-c7e289cb4f1c","system_id":"levelo_inurba_marseille","lat":43.3353,"lon":5.37467,"is_reserved":false,"is_disabled":false,"rental_uris":{"android":"levelo://app?vid=19488896-6834-47f6-be9b-c7e289cb4f1c","ios":"levelo://app?vid=19488896-6834-47f6-be9b-c7e289cb4f1c"},"vehicle_type_id":"4","last_reported":1774650053,"current_range_meters":4400,"station_id":"st_d46tts09ee8s73dlu43g","pricing_plan_id":"cebpf4jnsgd1na2vs0mg"},{"bike_id":"21efa572-cbd8-43ca-9b73-85bd0edf6d7d","system_id":"levelo_inurba_marseille","lat":43.30885,"lon":5.39649,"is_reserved":false,"is_disabled":false,"rental_uris":{"android":"levelo://app?vid=21efa572-cbd8-43ca-9b73-85bd0edf6d7d","ios":"levelo://app?vid=21efa572-cbd8-43ca-9b73-85bd0edf6d7d"},"vehicle_type_id":"4","last_reported":1774650053,"current_range_meters":4400,"station_id":"ce4bh012rcd13ifvqcv0","pricing_plan_id":"cebpf4jnsgd1na2vs0mg"},{"bike_id":"add0eccb-9adc-4a7a-9c4e-4d512b8e5e9d","system_id":"levelo_inurba_marseille","lat":43.24802,"lon":5.37457,"is_reserved":false,"is_disabled":false,"rental_uris":{"android":"levelo://app?vid=add0eccb-9adc-4a7a-9c4e-4d512b8e5e9d","ios":"levelo://app?vid=add0eccb-9adc-4a7a-9c4e-4d512b8e5e9d"},"vehicle_type_id":"4","last_reported":1774650053,"current_range_meters":4400,"station_id":"ce4bhgh2rcd13ifvqfb0","pricing_plan_id":"cebpf4jnsgd1na2vs0mg"},{"bike_id":"0eaeaf8c-4a29-4a3e-9a66-78f8226f1186","system_id":"levelo_inurba_marseille","lat":43.29522,"lon":5.3904,"is_reserved":false,"is_disabled":false,"rental_uris":{"android":"levelo://app?vid=0eaeaf8c-4a29-4a3e-9a66-78f8226f1186","ios":"levelo://app?vid=0eaeaf8c-4a29-4a3e-9a66-78f8226f1186"},"vehicle_type_id":"4","last_reported":1774650053,"current_range_meters":4400,"station_id":"ce4bh3p2rcd13ifvqdp0","pricing_plan_id":"cebpf4jnsgd1na2vs0mg"},{"bike_id":"27c547a4-33e7-4ac4-b96a-1b0bee3eb424","system_id":"levelo_inurba_marseille","lat":43.26939,"lon":5.38916,"is_reserved":false,"is_disabled":false,"rental_uris":{"android":"levelo://app?vid=27c547a4-33e7-4ac4-b96a-1b0bee3eb424","ios":"levelo://app?vid=27c547a4-33e7-4ac4-b96a-1b0bee3eb424"},"vehicle_type_id":"4","last_reported":1774650053,"current_range_meters":4800,"station_id":"ce4bhhh2rcd13ifvqfl0","pricing_plan_id":"cebpf4jnsgd1na2vs0mg"},{"bike_id":"2457fc1b-679d-4a71-90e9-ad408ab6ed9d","system_id":"levelo_inurba_marseille","lat":43.33372,"lon":5.38017,"is_reserved":false,"is_disabled":false,"rental_uris":{"android":"levelo://app?vid=2457fc1b-679d-4a71-90e9-ad408ab6ed9d","ios":"levelo://app?vid=2457fc1b-679d-4a71-90e9-ad408ab6ed9d"},"vehicle_type_id":"4","last_reported":1774650053,"current_range_meters":4800,"station_id":"","pricing_plan_id":"cebpf4jnsgd1na2vs0mg"},{"bike_id":"2555a893-6a3e-4c23-8e6c-9c60bcd40259","system_id":"levelo_inurba_marseille","lat":43.29838,"lon":5.36278,"is_reserved":false,"is_disabled":false,"rental_uris":{"android":"levelo://app?vid=2555a893-6a3e-4c23-8e6c-9c60bcd40259","ios":"levelo://app?vid=2555a893-6a3e-4c23-8e6c-9c60bcd40259"},"vehicle_type_id":"4","last_reported":1774650053,"current_range_meters":4800,"station_id":"ce4bgpp2rcd13ifvqc3g","pricing_plan_id":"cebpf4jnsgd1na2vs0mg"},{"bike_id":"b6e8f2fa-fae4-4140-af91-d0651531ab91","system_id":"levelo_inurba_marseille","lat":43.22579,"lon":5.41616,"is_reserved":false,"is_disabled":false,"rental_uris":{"android":"levelo://app?vid=b6e8f2fa-fae4-4140-af91-d0651531ab91","ios":"levelo://app?vid=b6e8f2fa-fae4-4140-af91-d0651531ab91"},"vehicle_type_id":"4","last_reported":1774650053,"current_range_meters":4800,"station_id":"st_d2o4gvlbi1j2169b742g","pricing_plan_id":"cebpf4jnsgd1na2vs0mg"},{"bike_id":"ac130e88-9e2f-4bea-b0d7-97afed67ab83","system_id":"levelo_inurba_marseille","lat":43.3235,"lon":5.36755,"is_reserved":false,"is_disabled":false,"rental_uris":{"android":"levelo://app?vid=ac130e88-9e2f-4bea-b0d7-97afed67ab83","ios":"levelo://app?vid=ac130e88-9e2f-4bea-b0d7-97afed67ab83"},"vehicle_type_id":"4","last_reported":1774650053,"current_range_meters":4800,"station_id":"ce4bhsh2rcd13ifvqi2g","pricing_plan_id":"cebpf4jnsgd1na2vs0mg"},{"bike_id":"fd91cd41-8b64-471a-bca6-7cb62764940e","system_id":"levelo_inurba_marseille","lat":43.2973,"lon":5.39413,"is_reserved":false,"is_disabled":false,"rental_uris":{"android":"levelo://app?vid=fd91cd41-8b64-471a-bca6-7cb62764940e","ios":"levelo://app?vid=fd91cd41-8b64-471a-bca6-7cb62764940e"},"vehicle_type_id":"4","last_reported":1774650053,"current_range_meters":4800,"station_id":"","pricing_plan_id":"cebpf4jnsgd1na2vs0mg"},{"bike_id":"90f7d4f2-6fe5-4eb5-96f2-e94a95c790d9","system_id":"levelo_inurba_marseille","lat":43.31377,"lon":5.38489,"is_reserved":false,"is_disabled":false,"rental_uris":{"android":"levelo://app?vid=90f7d4f2-6fe5-4eb5-96f2-e94a95c790d9","ios":"levelo://app?vid=90f7d4f2-6fe5-4eb5-96f2-e94a95c790d9"},"vehicle_type_id":"4","last_reported":1774650053,"current_range_meters":4800,"station_id":"ce4bgt92rcd13ifvqcf0","pricing_plan_id":"cebpf4jnsgd1na2vs0mg"},{"bike_id":"b38373c4-334e-43c0-8346-e67621fa9685","system_id":"levelo_inurba_marseille","lat":43.21191,"lon":5.35079,"is_reserved":false,"is_disabled":false,"rental_uris":{"android":"levelo://app?vid=b38373c4-334e-43c0-8346-e67621fa9685","ios":"levelo://app?vid=b38373c4-334e-43c0-8346-e67621fa9685"},"vehicle_type_id":"4","last_reported":1774650053,"current_range_meters":4800,"station_id":"st_cvj6sg6p6f1abm77japg","pricing_plan_id":"cebpf4jnsgd1na2vs0mg"},{"bike_id":"7f289986-3252-4728-8094-6d68e86df4e4","system_id":"levelo_inurba_marseille","lat":43.30885,"lon":5.39658,"is_reserved":false,"is_disabled":false,"rental_uris":{"android":"levelo://app?vid=7f289986-3252-4728-8094-6d68e86df4e4","ios":"levelo://app?vid=7f289986-3252-4728-8094-6d68e86df4e4"},"vehicle_type_id":"4","last_reported":1774650053,"current_range_meters":4800,"station_id":"ce4bh012rcd13ifvqcv0","pricing_plan_id":"cebpf4jnsgd1na2vs0mg"},{"bike_id":"91bd31f2-be9b-436a-b78a-8cf5541031ec","system_id":"levelo_inurba_marseille","lat":43.33764,"lon":5.37482,"is_reserved":false,"is_disabled":false,"rental_uris":{"android":"levelo://app?vid=91bd31f2-be9b-436a-b78a-8cf5541031ec","ios":"levelo://app?vid=91bd31f2-be9b-436a-b78a-8cf5541031ec"},"vehicle_type_id":"4","last_reported":1774650053,"current_range_meters":5600,"station_id":"","pricing_plan_id":"cebpf4jnsgd1na2vs0mg"},{"bike_id":"02c9173a-1cf1-433f-9d8a-bb3a1bbf12b0","system_id":"levelo_inurba_marseille","lat":43.29529,"lon":5.3854,"is_reserved":false,"is_disabled":false,"rental_uris":{"android":"levelo://app?vid=02c9173a-1cf1-433f-9d8a-bb3a1bbf12b0","ios":"levelo://app?vid=02c9173a-1cf1-433f-9d8a-bb3a1bbf12b0"},"vehicle_type_id":"4","last_reported":1774650053,"current_range_meters":5600,"station_id":"ce4bgih2rcd13ifvqba0","pricing_plan_id":"cebpf4jnsgd1na2vs0mg"},{"bike_id":"23be74d2-ce83-46ca-84ff-255c94fa9235","system_id":"levelo_inurba_marseille","lat":43.29672,"lon":5.36675,"is_reserved":false,"is_disabled":false,"rental_uris":{"android":"levelo://app?vid=23be74d2-ce83-46ca-84ff-255c94fa9235","ios":"levelo://app?vid=23be74d2-ce83-46ca-84ff-255c94fa9235"},"vehicle_type_id":"4","last_reported":1774650053,"current_range_meters":5600,"station_id":"","pricing_plan_id":"cebpf4jnsgd1na2vs0mg"},{"bike_id":"a2dc3a3f-4e0d-496d-b246-5d2073e3cd10","system_id":"levelo_inurba_marseille","lat":43.23784,"lon":5.36625,"is_reserved":false,"is_disabled":false,"rental_uris":{"android":"levelo://app?vid=a2dc3a3f-4e0d-496d-b246-5d2073e3cd10","ios":"levelo://app?vid=a2dc3a3f-4e0d-496d-b246-5d2073e3cd10"},"vehicle_type_id":"4","last_reported":1774650053,"current_range_meters":5600,"station_id":"st_d3nk18o9ro0c73en2l3g","pricing_plan_id":"cebpf4jnsgd1na2vs0mg"},{"bike_id":"e9dc9846-a1fb-4f3a-a8d5-dbd68cc5808d","system_id":"levelo_inurba_marseille","lat":43.30816,"lon":5.39973,"is_reserved":false,"is_disabled":false,"rental_uris":{"android":"levelo://app?vid=e9dc9846-a1fb-4f3a-a8d5-dbd68cc5808d","ios":"levelo://app?vid=e9dc9846-a1fb-4f3a-a8d5-dbd68cc5808d"},"vehicle_type_id":"4","last_reported":1774650053,"current_range_meters":5600,"station_id":"","pricing_plan_id":"cebpf4jnsgd1na2vs0mg"},{"bike_id":"4402d669-42b4-42dc-9f19-b38fb47f9383","system_id":"levelo_inurba_marseille","lat":43.309531,"lon":5.390287,"is_reserved":false,"is_disabled":false,"rental_uris":{"android":"levelo://app?vid=4402d669-42b4-42dc-9f19-b38fb47f9383","ios":"levelo://app?vid=4402d669-42b4-42dc-9f19-b38fb47f9383"},"vehicle_type_id":"4","last_reported":1774650053,"current_range_meters":5600,"station_id":"","pricing_plan_id":"cebpf4jnsgd1na2vs0mg"},{"bike_id":"fa372a24-fd55-41a9-a5b8-f02db8793b0c","system_id":"levelo_inurba_marseille","lat":43.31166,"lon":5.38718,"is_reserved":false,"is_disabled":false,"rental_uris":{"android":"levelo://app?vid=fa372a24-fd55-41a9-a5b8-f02db8793b0c","ios":"levelo://app?vid=fa372a24-fd55-41a9-a5b8-f02db8793b0c"},"vehicle_type_id":"4","last_reported":1774650053,"current_range_meters":5600,"station_id":"ce4bgv12rcd13ifvqcp0","pricing_plan_id":"cebpf4jnsgd1na2vs0mg"},{"bike_id":"20ba71e0-3d55-4d07-b402-43fab81f2269","system_id":"levelo_inurba_marseille","lat":43.3081,"lon":5.36772,"is_reserved":false,"is_disabled":false,"rental_uris":{"android":"levelo://app?vid=20ba71e0-3d55-4d07-b402-43fab81f2269","ios":"levelo://app?vid=20ba71e0-3d55-4d07-b402-43fab81f2269"},"vehicle_type_id":"4","last_reported":1774650053,"current_range_meters":5600,"station_id":"ce4bgn92rcd13ifvqbvg","pricing_plan_id":"cebpf4jnsgd1na2vs0mg"},{"bike_id":"5be616c9-ebbb-4de5-a513-cba194a4c0f4","system_id":"levelo_inurba_marseille","lat":43.28443,"lon":5.39208,"is_reserved":false,"is_disabled":false,"rental_uris":{"android":"levelo://app?vid=5be616c9-ebbb-4de5-a513-cba194a4c0f4","ios":"levelo://app?vid=5be616c9-ebbb-4de5-a513-cba194a4c0f4"},"vehicle_type_id":"4","last_reported":1774650053,"current_range_meters":5600,"station_id":"ce4bhoh2rcd13ifvqh5g","pricing_plan_id":"cebpf4jnsgd1na2vs0mg"},{"bike_id":"ed9b8903-fd7a-4bcd-a2f1-b692211d5c75","system_id":"levelo_inurba_marseille","lat":43.29816,"lon":5.44068,"is_reserved":false,"is_disabled":false,"rental_uris":{"android":"levelo://app?vid=ed9b8903-fd7a-4bcd-a2f1-b692211d5c75","ios":"levelo://app?vid=ed9b8903-fd7a-4bcd-a2f1-b692211d5c75"},"vehicle_type_id":"4","last_reported":1774650053,"current_range_meters":5600,"station_id":"st_d3jp68qikq2c7381ktn0","pricing_plan_id":"cebpf4jnsgd1na2vs0mg"},{"bike_id":"a8d11488-67ea-4224-a78d-f94774516fb0","system_id":"levelo_inurba_marseille","lat":43.2871,"lon":5.40003,"is_reserved":false,"is_disabled":false,"rental_uris":{"android":"levelo://app?vid=a8d11488-67ea-4224-a78d-f94774516fb0","ios":"levelo://app?vid=a8d11488-67ea-4224-a78d-f94774516fb0"},"vehicle_type_id":"4","last_reported":1774650053,"current_range_meters":6000,"station_id":"ce4bho92rcd13ifvqh3g","pricing_plan_id":"cebpf4jnsgd1na2vs0mg"},{"bike_id":"c88ed962-9c15-4571-9e43-188f3850fd72","system_id":"levelo_inurba_marseille","lat":43.26684,"lon":5.38272,"is_reserved":false,"is_disabled":false,"rental_uris":{"android":"levelo://app?vid=c88ed962-9c15-4571-9e43-188f3850fd72","ios":"levelo://app?vid=c88ed962-9c15-4571-9e43-188f3850fd72"},"vehicle_type_id":"4","last_reported":1774650053,"current_range_meters":6000,"station_id":"ce4bhg92rcd13ifvqf90","pricing_plan_id":"cebpf4jnsgd1na2vs0mg"},{"bike_id":"2168fd10-874c-476f-97d1-11a52fc14733","system_id":"levelo_inurba_marseille","lat":43.27908,"lon":5.38005,"is_reserved":false,"is_disabled":false,"rental_uris":{"android":"levelo://app?vid=2168fd10-874c-476f-97d1-11a52fc14733","ios":"levelo://app?vid=2168fd10-874c-476f-97d1-11a52fc14733"},"vehicle_type_id":"4","last_reported":1774650053,"current_range_meters":6000,"station_id":"ce4bhf92rcd13ifvqf50","pricing_plan_id":"cebpf4jnsgd1na2vs0mg"},{"bike_id":"b143e773-3833-4583-936f-ed284e4464b0","system_id":"levelo_inurba_marseille","lat":43.28934,"lon":5.38405,"is_reserved":false,"is_disabled":false,"rental_uris":{"android":"levelo://app?vid=b143e773-3833-4583-936f-ed284e4464b0","ios":"levelo://app?vid=b143e773-3833-4583-936f-ed284e4464b0"},"vehicle_type_id":"4","last_reported":1774650053,"current_range_meters":6000,"station_id":"ce4bh612rcd13ifvqe6g","pricing_plan_id":"cebpf4jnsgd1na2vs0mg"},{"bike_id":"ae758492-79f2-476f-b0b6-5b6613e02dd5","system_id":"levelo_inurba_marseille","lat":43.21192,"lon":5.35072,"is_reserved":false,"is_disabled":false,"rental_uris":{"android":"levelo://app?vid=ae758492-79f2-476f-b0b6-5b6613e02dd5","ios":"levelo://app?vid=ae758492-79f2-476f-b0b6-5b6613e02dd5"},"vehicle_type_id":"4","last_reported":1774650053,"current_range_meters":6000,"station_id":"st_cvj6sg6p6f1abm77japg","pricing_plan_id":"cebpf4jnsgd1na2vs0mg"},{"bike_id":"41215aec-5f35-41c4-8875-01313ebb4475","system_id":"levelo_inurba_marseille","lat":43.28884,"lon":5.43769,"is_reserved":false,"is_disabled":false,"rental_uris":{"android":"levelo://app?vid=41215aec-5f35-41c4-8875-01313ebb4475","ios":"levelo://app?vid=41215aec-5f35-41c4-8875-01313ebb4475"},"vehicle_type_id":"4","last_reported":1774650053,"current_range_meters":6000,"station_id":"","pricing_plan_id":"cebpf4jnsgd1na2vs0mg"},{"bike_id":"33c4c740-db80-485d-9c0e-f3083e547def","system_id":"levelo_inurba_marseille","lat":43.22564,"lon":5.41629,"is_reserved":false,"is_disabled":false,"rental_uris":{"android":"levelo://app?vid=33c4c740-db80-485d-9c0e-f3083e547def","ios":"levelo://app?vid=33c4c740-db80-485d-9c0e-f3083e547def"},"vehicle_type_id":"4","last_reported":1774650053,"current_range_meters":6000,"station_id":"st_d2o4gvlbi1j2169b742g","pricing_plan_id":"cebpf4jnsgd1na2vs0mg"},{"bike_id":"7577d704-4358-4b6d-bf28-c0c3843fa2c6","system_id":"levelo_inurba_marseille","lat":43.24674,"lon":5.38142,"is_reserved":false,"is_disabled":false,"rental_uris":{"android":"levelo://app?vid=7577d704-4358-4b6d-bf28-c0c3843fa2c6","ios":"levelo://app?vid=7577d704-4358-4b6d-bf28-c0c3843fa2c6"},"vehicle_type_id":"4","last_reported":1774650053,"current_range_meters":6000,"station_id":"ce4bhih2rcd13ifvqfr0","pricing_plan_id":"cebpf4jnsgd1na2vs0mg"},{"bike_id":"80db360c-7472-4e5e-a72d-ff0ab9900c5d","system_id":"levelo_inurba_marseille","lat":43.29201,"lon":5.42611,"is_reserved":false,"is_disabled":false,"rental_uris":{"android":"levelo://app?vid=80db360c-7472-4e5e-a72d-ff0ab9900c5d","ios":"levelo://app?vid=80db360c-7472-4e5e-a72d-ff0ab9900c5d"},"vehicle_type_id":"4","last_reported":1774650053,"current_range_meters":6000,"station_id":"","pricing_plan_id":"cebpf4jnsgd1na2vs0mg"},{"bike_id":"d6d88029-64b8-4411-919c-483ad9a8dd34","system_id":"levelo_inurba_marseille","lat":43.21194,"lon":5.35073,"is_reserved":false,"is_disabled":false,"rental_uris":{"android":"levelo://app?vid=d6d88029-64b8-4411-919c-483ad9a8dd34","ios":"levelo://app?vid=d6d88029-64b8-4411-919c-483ad9a8dd34"},"vehicle_type_id":"4","last_reported":1774650053,"current_range_meters":6400,"station_id":"st_cvj6sg6p6f1abm77japg","pricing_plan_id":"cebpf4jnsgd1na2vs0mg"},{"bike_id":"ed1c38d6-1fc8-495a-8905-02d589ca57a4","system_id":"levelo_inurba_marseille","lat":43.28116,"lon":5.3783,"is_reserved":false,"is_disabled":false,"rental_uris":{"android":"levelo://app?vid=ed1c38d6-1fc8-495a-8905-02d589ca57a4","ios":"levelo://app?vid=ed1c38d6-1fc8-495a-8905-02d589ca57a4"},"vehicle_type_id":"4","last_reported":1774650053,"current_range_meters":6400,"station_id":"ce4bha12rcd13ifvqee0","pricing_plan_id":"cebpf4jnsgd1na2vs0mg"},{"bike_id":"ae41cbc6-d358-4357-b3d8-ebb2fb9aaa47","system_id":"levelo_inurba_marseille","lat":43.3064,"lon":5.40092,"is_reserved":false,"is_disabled":false,"rental_uris":{"android":"levelo://app?vid=ae41cbc6-d358-4357-b3d8-ebb2fb9aaa47","ios":"levelo://app?vid=ae41cbc6-d358-4357-b3d8-ebb2fb9aaa47"},"vehicle_type_id":"4","last_reported":1774650053,"current_range_meters":6400,"station_id":"ce4bh112rcd13ifvqda0","pricing_plan_id":"cebpf4jnsgd1na2vs0mg"},{"bike_id":"840fa7f8-f73c-4869-b10d-0c4cf0e4042b","system_id":"levelo_inurba_marseille","lat":43.29006,"lon":5.38133,"is_reserved":false,"is_disabled":false,"rental_uris":{"android":"levelo://app?vid=840fa7f8-f73c-4869-b10d-0c4cf0e4042b","ios":"levelo://app?vid=840fa7f8-f73c-4869-b10d-0c4cf0e4042b"},"vehicle_type_id":"4","last_reported":1774650053,"current_range_meters":6400,"station_id":"ce4bh4p2rcd13ifvqe1g","pricing_plan_id":"cebpf4jnsgd1na2vs0mg"},{"bike_id":"2be154c8-07c5-4efd-b699-88ca30c66e21","system_id":"levelo_inurba_marseille","lat":43.23791,"lon":5.3663,"is_reserved":false,"is_disabled":false,"rental_uris":{"android":"levelo://app?vid=2be154c8-07c5-4efd-b699-88ca30c66e21","ios":"levelo://app?vid=2be154c8-07c5-4efd-b699-88ca30c66e21"},"vehicle_type_id":"4","last_reported":1774650053,"current_range_meters":6400,"station_id":"st_d3nk18o9ro0c73en2l3g","pricing_plan_id":"cebpf4jnsgd1na2vs0mg"},{"bike_id":"458e1c48-7d3d-4d80-92bd-ab71f6e61068","system_id":"levelo_inurba_marseille","lat":43.26672,"lon":5.38262,"is_reserved":false,"is_disabled":false,"rental_uris":{"android":"levelo://app?vid=458e1c48-7d3d-4d80-92bd-ab71f6e61068","ios":"levelo://app?vid=458e1c48-7d3d-4d80-92bd-ab71f6e61068"},"vehicle_type_id":"4","last_reported":1774650053,"current_range_meters":6400,"station_id":"ce4bhg92rcd13ifvqf90","pricing_plan_id":"cebpf4jnsgd1na2vs0mg"},{"bike_id":"b73dc957-8408-4399-bdc8-83acbe1c9653","system_id":"levelo_inurba_marseille","lat":43.29197,"lon":5.35804,"is_reserved":false,"is_disabled":false,"rental_uris":{"android":"levelo://app?vid=b73dc957-8408-4399-bdc8-83acbe1c9653","ios":"levelo://app?vid=b73dc957-8408-4399-bdc8-83acbe1c9653"},"vehicle_type_id":"4","last_reported":1774650053,"current_range_meters":6400,"station_id":"ce4bhb12rcd13ifvqel0","pricing_plan_id":"cebpf4jnsgd1na2vs0mg"},{"bike_id":"4d2c428a-06db-49bc-a222-2cbc52db76c0","system_id":"levelo_inurba_marseille","lat":43.24181,"lon":5.39733,"is_reserved":false,"is_disabled":false,"rental_uris":{"android":"levelo://app?vid=4d2c428a-06db-49bc-a222-2cbc52db76c0","ios":"levelo://app?vid=4d2c428a-06db-49bc-a222-2cbc52db76c0"},"vehicle_type_id":"4","last_reported":1774650053,"current_range_meters":6800,"station_id":"ce4bhn12rcd13ifvqgpg","pricing_plan_id":"cebpf4jnsgd1na2vs0mg"},{"bike_id":"94715b80-3e33-415f-9eed-f07a3176da16","system_id":"levelo_inurba_marseille","lat":43.28639,"lon":5.35081,"is_reserved":false,"is_disabled":false,"rental_uris":{"android":"levelo://app?vid=94715b80-3e33-415f-9eed-f07a3176da16","ios":"levelo://app?vid=94715b80-3e33-415f-9eed-f07a3176da16"},"vehicle_type_id":"4","last_reported":1774650053,"current_range_meters":6800,"station_id":"ce4bhch2rcd13ifvqeug","pricing_plan_id":"cebpf4jnsgd1na2vs0mg"},{"bike_id":"8a927669-3c1a-4573-98bd-585f9b534d2d","system_id":"levelo_inurba_marseille","lat":43.24473,"lon":5.42555,"is_reserved":false,"is_disabled":false,"rental_uris":{"android":"levelo://app?vid=8a927669-3c1a-4573-98bd-585f9b534d2d","ios":"levelo://app?vid=8a927669-3c1a-4573-98bd-585f9b534d2d"},"vehicle_type_id":"4","last_reported":1774650053,"current_range_meters":6800,"station_id":"st_d4a3vfp97mjs738cd8kg","pricing_plan_id":"cebpf4jnsgd1na2vs0mg"},{"bike_id":"ace30790-d9f4-4362-b049-53b5308efc6b","system_id":"levelo_inurba_marseille","lat":43.31991,"lon":5.38198,"is_reserved":false,"is_disabled":false,"rental_uris":{"android":"levelo://app?vid=ace30790-d9f4-4362-b049-53b5308efc6b","ios":"levelo://app?vid=ace30790-d9f4-4362-b049-53b5308efc6b"},"vehicle_type_id":"4","last_reported":1774650053,"current_range_meters":6800,"station_id":"ce4bhr12rcd13ifvqhpg","pricing_plan_id":"cebpf4jnsgd1na2vs0mg"},{"bike_id":"e369da6f-cf9a-43c1-bdbc-66801ef116da","system_id":"levelo_inurba_marseille","lat":43.28627,"lon":5.35093,"is_reserved":false,"is_disabled":false,"rental_uris":{"android":"levelo://app?vid=e369da6f-cf9a-43c1-bdbc-66801ef116da","ios":"levelo://app?vid=e369da6f-cf9a-43c1-bdbc-66801ef116da"},"vehicle_type_id":"4","last_reported":1774650053,"current_range_meters":6800,"station_id":"ce4bhch2rcd13ifvqeug","pricing_plan_id":"cebpf4jnsgd1na2vs0mg"},{"bike_id":"27f65587-f91a-41b1-aacf-8da5e702b79e","system_id":"levelo_inurba_marseille","lat":43.2975,"lon":5.4277,"is_reserved":false,"is_disabled":false,"rental_uris":{"android":"levelo://app?vid=27f65587-f91a-41b1-aacf-8da5e702b79e","ios":"levelo://app?vid=27f65587-f91a-41b1-aacf-8da5e702b79e"},"vehicle_type_id":"4","last_reported":1774650053,"current_range_meters":6800,"station_id":"st_d3md5207bmas73dh9klg","pricing_plan_id":"cebpf4jnsgd1na2vs0mg"},{"bike_id":"8f4dc9a3-d66b-4a9c-993d-ff57f54adf36","system_id":"levelo_inurba_marseille","lat":43.28907,"lon":5.384,"is_reserved":false,"is_disabled":false,"rental_uris":{"android":"levelo://app?vid=8f4dc9a3-d66b-4a9c-993d-ff57f54adf36","ios":"levelo://app?vid=8f4dc9a3-d66b-4a9c-993d-ff57f54adf36"},"vehicle_type_id":"4","last_reported":1774650053,"current_range_meters":6800,"station_id":"ce4bh612rcd13ifvqe6g","pricing_plan_id":"cebpf4jnsgd1na2vs0mg"},{"bike_id":"c3cf8c9f-036c-4134-8677-65a51440e8e9","system_id":"levelo_inurba_marseille","lat":43.30004,"lon":5.38494,"is_reserved":false,"is_disabled":false,"rental_uris":{"android":"levelo://app?vid=c3cf8c9f-036c-4134-8677-65a51440e8e9","ios":"levelo://app?vid=c3cf8c9f-036c-4134-8677-65a51440e8e9"},"vehicle_type_id":"4","last_reported":1774650053,"current_range_meters":6800,"station_id":"ce4bgj92rcd13ifvqbd0","pricing_plan_id":"cebpf4jnsgd1na2vs0mg"},{"bike_id":"fe839865-1079-4781-8b66-8162bc898e10","system_id":"levelo_inurba_marseille","lat":43.28398,"lon":5.37528,"is_reserved":false,"is_disabled":false,"rental_uris":{"android":"levelo://app?vid=fe839865-1079-4781-8b66-8162bc898e10","ios":"levelo://app?vid=fe839865-1079-4781-8b66-8162bc898e10"},"vehicle_type_id":"4","last_reported":1774650053,"current_range_meters":6800,"station_id":"ce4bh412rcd13ifvqds0","pricing_plan_id":"cebpf4jnsgd1na2vs0mg"},{"bike_id":"eb4d8704-a7d6-4d2b-8d1f-2403bc74d206","system_id":"levelo_inurba_marseille","lat":43.29857,"lon":5.36267,"is_reserved":false,"is_disabled":false,"rental_uris":{"android":"levelo://app?vid=eb4d8704-a7d6-4d2b-8d1f-2403bc74d206","ios":"levelo://app?vid=eb4d8704-a7d6-4d2b-8d1f-2403bc74d206"},"vehicle_type_id":"4","last_reported":1774650053,"current_range_meters":6800,"station_id":"ce4bgpp2rcd13ifvqc3g","pricing_plan_id":"cebpf4jnsgd1na2vs0mg"},{"bike_id":"44f87e39-e26f-4728-8652-1862807ccc8f","system_id":"levelo_inurba_marseille","lat":43.23915,"lon":5.37423,"is_reserved":false,"is_disabled":false,"rental_uris":{"android":"levelo://app?vid=44f87e39-e26f-4728-8652-1862807ccc8f","ios":"levelo://app?vid=44f87e39-e26f-4728-8652-1862807ccc8f"},"vehicle_type_id":"4","last_reported":1774650053,"current_range_meters":6800,"station_id":"st_d6sm7csbq4hs73f8fpjg","pricing_plan_id":"cebpf4jnsgd1na2vs0mg"},{"bike_id":"7bbcbbe0-655d-4c8c-9765-e3486ceb19d8","system_id":"levelo_inurba_marseille","lat":43.29844,"lon":5.36272,"is_reserved":false,"is_disabled":false,"rental_uris":{"android":"levelo://app?vid=7bbcbbe0-655d-4c8c-9765-e3486ceb19d8","ios":"levelo://app?vid=7bbcbbe0-655d-4c8c-9765-e3486ceb19d8"},"vehicle_type_id":"4","last_reported":1774650053,"current_range_meters":6800,"station_id":"ce4bgpp2rcd13ifvqc3g","pricing_plan_id":"cebpf4jnsgd1na2vs0mg"},{"bike_id":"9bc0b937-b0d9-43c5-9555-6ff47bb13b73","system_id":"levelo_inurba_marseille","lat":43.33159,"lon":5.37689,"is_reserved":false,"is_disabled":false,"rental_uris":{"android":"levelo://app?vid=9bc0b937-b0d9-43c5-9555-6ff47bb13b73","ios":"levelo://app?vid=9bc0b937-b0d9-43c5-9555-6ff47bb13b73"},"vehicle_type_id":"4","last_reported":1774650053,"current_range_meters":6800,"station_id":"st_d46cu089ee8s73dldbu0","pricing_plan_id":"cebpf4jnsgd1na2vs0mg"},{"bike_id":"299c1db8-8b1c-4e76-8016-cf4f1472636c","system_id":"levelo_inurba_marseille","lat":43.30902,"lon":5.39972,"is_reserved":false,"is_disabled":false,"rental_uris":{"android":"levelo://app?vid=299c1db8-8b1c-4e76-8016-cf4f1472636c","ios":"levelo://app?vid=299c1db8-8b1c-4e76-8016-cf4f1472636c"},"vehicle_type_id":"4","last_reported":1774650053,"current_range_meters":6800,"station_id":"","pricing_plan_id":"cebpf4jnsgd1na2vs0mg"},{"bike_id":"29b8f791-7789-4e9b-8e39-c750aefccf04","system_id":"levelo_inurba_marseille","lat":43.23786,"lon":5.36648,"is_reserved":false,"is_disabled":false,"rental_uris":{"android":"levelo://app?vid=29b8f791-7789-4e9b-8e39-c750aefccf04","ios":"levelo://app?vid=29b8f791-7789-4e9b-8e39-c750aefccf04"},"vehicle_type_id":"4","last_reported":1774650053,"current_range_meters":6800,"station_id":"st_d3nk18o9ro0c73en2l3g","pricing_plan_id":"cebpf4jnsgd1na2vs0mg"},{"bike_id":"83bb9578-ccdf-4d89-8ebc-4d2a0840499e","system_id":"levelo_inurba_marseille","lat":43.28106,"lon":5.37833,"is_reserved":false,"is_disabled":false,"rental_uris":{"android":"levelo://app?vid=83bb9578-ccdf-4d89-8ebc-4d2a0840499e","ios":"levelo://app?vid=83bb9578-ccdf-4d89-8ebc-4d2a0840499e"},"vehicle_type_id":"4","last_reported":1774650053,"current_range_meters":6800,"station_id":"ce4bha12rcd13ifvqee0","pricing_plan_id":"cebpf4jnsgd1na2vs0mg"},{"bike_id":"53349f23-1850-48cf-8057-6c978f190eed","system_id":"levelo_inurba_marseille","lat":43.24652,"lon":5.3889,"is_reserved":false,"is_disabled":false,"rental_uris":{"android":"levelo://app?vid=53349f23-1850-48cf-8057-6c978f190eed","ios":"levelo://app?vid=53349f23-1850-48cf-8057-6c978f190eed"},"vehicle_type_id":"4","last_reported":1774650053,"current_range_meters":6800,"station_id":"ce4bhg12rcd13ifvqf60","pricing_plan_id":"cebpf4jnsgd1na2vs0mg"},{"bike_id":"0de071f4-3c2c-445f-8a90-8c859a51a07b","system_id":"levelo_inurba_marseille","lat":43.31143,"lon":5.38746,"is_reserved":false,"is_disabled":false,"rental_uris":{"android":"levelo://app?vid=0de071f4-3c2c-445f-8a90-8c859a51a07b","ios":"levelo://app?vid=0de071f4-3c2c-445f-8a90-8c859a51a07b"},"vehicle_type_id":"4","last_reported":1774650053,"current_range_meters":6800,"station_id":"ce4bgv12rcd13ifvqcp0","pricing_plan_id":"cebpf4jnsgd1na2vs0mg"},{"bike_id":"1d7503c3-20ca-4fb6-92d0-5b5a5f6d18ec","system_id":"levelo_inurba_marseille","lat":43.22928,"lon":5.35384,"is_reserved":false,"is_disabled":false,"rental_uris":{"android":"levelo://app?vid=1d7503c3-20ca-4fb6-92d0-5b5a5f6d18ec","ios":"levelo://app?vid=1d7503c3-20ca-4fb6-92d0-5b5a5f6d18ec"},"vehicle_type_id":"4","last_reported":1774650053,"current_range_meters":7200,"station_id":"cpo3532slgdg3j2ikp40","pricing_plan_id":"cebpf4jnsgd1na2vs0mg"},{"bike_id":"361bff30-6f65-4179-8930-4ff3d21333ec","system_id":"levelo_inurba_marseille","lat":43.2718,"lon":5.40987,"is_reserved":false,"is_disabled":false,"rental_uris":{"android":"levelo://app?vid=361bff30-6f65-4179-8930-4ff3d21333ec","ios":"levelo://app?vid=361bff30-6f65-4179-8930-4ff3d21333ec"},"vehicle_type_id":"4","last_reported":1774650053,"current_range_meters":7200,"station_id":"ce4bhl12rcd13ifvqgf0","pricing_plan_id":"cebpf4jnsgd1na2vs0mg"},{"bike_id":"a2f555f0-8477-4e2f-8ae4-66fef759dc8e","system_id":"levelo_inurba_marseille","lat":43.29545,"lon":5.38535,"is_reserved":false,"is_disabled":false,"rental_uris":{"android":"levelo://app?vid=a2f555f0-8477-4e2f-8ae4-66fef759dc8e","ios":"levelo://app?vid=a2f555f0-8477-4e2f-8ae4-66fef759dc8e"},"vehicle_type_id":"4","last_reported":1774650053,"current_range_meters":7200,"station_id":"ce4bgih2rcd13ifvqba0","pricing_plan_id":"cebpf4jnsgd1na2vs0mg"},{"bike_id":"687f743b-96ab-4b3e-8fbd-b7a59036f888","system_id":"levelo_inurba_marseille","lat":43.28705,"lon":5.46682,"is_reserved":false,"is_disabled":false,"rental_uris":{"android":"levelo://app?vid=687f743b-96ab-4b3e-8fbd-b7a59036f888","ios":"levelo://app?vid=687f743b-96ab-4b3e-8fbd-b7a59036f888"},"vehicle_type_id":"4","last_reported":1774650053,"current_range_meters":7200,"station_id":"st_d6tc3vkotcvc738tfjhg","pricing_plan_id":"cebpf4jnsgd1na2vs0mg"},{"bike_id":"b836b627-7d6b-4d6a-b7a4-321fcf60833a","system_id":"levelo_inurba_marseille","lat":43.28935,"lon":5.38169,"is_reserved":false,"is_disabled":true,"rental_uris":{"android":"levelo://app?vid=b836b627-7d6b-4d6a-b7a4-321fcf60833a","ios":"levelo://app?vid=b836b627-7d6b-4d6a-b7a4-321fcf60833a"},"vehicle_type_id":"4","last_reported":1774650053,"current_range_meters":7200,"station_id":"","pricing_plan_id":"cebpf4jnsgd1na2vs0mg"},{"bike_id":"17d9eb31-54d7-48c5-aef6-d55e3351ef0f","system_id":"levelo_inurba_marseille","lat":43.29858,"lon":5.36275,"is_reserved":false,"is_disabled":false,"rental_uris":{"android":"levelo://app?vid=17d9eb31-54d7-48c5-aef6-d55e3351ef0f","ios":"levelo://app?vid=17d9eb31-54d7-48c5-aef6-d55e3351ef0f"},"vehicle_type_id":"4","last_reported":1774650053,"current_range_meters":7200,"station_id":"ce4bgpp2rcd13ifvqc3g","pricing_plan_id":"cebpf4jnsgd1na2vs0mg"},{"bike_id":"989ce2b3-a034-4c7f-9f61-575993dafa1a","system_id":"levelo_inurba_marseille","lat":43.2931,"lon":5.37159,"is_reserved":false,"is_disabled":false,"rental_uris":{"android":"levelo://app?vid=989ce2b3-a034-4c7f-9f61-575993dafa1a","ios":"levelo://app?vid=989ce2b3-a034-4c7f-9f61-575993dafa1a"},"vehicle_type_id":"4","last_reported":1774650053,"current_range_meters":7200,"station_id":"ce4bgh92rcd13ifvqb40","pricing_plan_id":"cebpf4jnsgd1na2vs0mg"},{"bike_id":"18a91529-06e5-4b51-b178-940cb96e7217","system_id":"levelo_inurba_marseille","lat":43.23798,"lon":5.3663,"is_reserved":false,"is_disabled":false,"rental_uris":{"android":"levelo://app?vid=18a91529-06e5-4b51-b178-940cb96e7217","ios":"levelo://app?vid=18a91529-06e5-4b51-b178-940cb96e7217"},"vehicle_type_id":"4","last_reported":1774650053,"current_range_meters":7200,"station_id":"st_d3nk18o9ro0c73en2l3g","pricing_plan_id":"cebpf4jnsgd1na2vs0mg"},{"bike_id":"ee67d274-4fbd-4321-906c-22d4e8f3bac5","system_id":"levelo_inurba_marseille","lat":43.32479,"lon":5.36586,"is_reserved":false,"is_disabled":false,"rental_uris":{"android":"levelo://app?vid=ee67d274-4fbd-4321-906c-22d4e8f3bac5","ios":"levelo://app?vid=ee67d274-4fbd-4321-906c-22d4e8f3bac5"},"vehicle_type_id":"4","last_reported":1774650053,"current_range_meters":7200,"station_id":"ce4bhs12rcd13ifvqhvg","pricing_plan_id":"cebpf4jnsgd1na2vs0mg"},{"bike_id":"6eabe795-7b91-4368-ada9-bf2b6d212386","system_id":"levelo_inurba_marseille","lat":43.29934,"lon":5.36549,"is_reserved":false,"is_disabled":false,"rental_uris":{"android":"levelo://app?vid=6eabe795-7b91-4368-ada9-bf2b6d212386","ios":"levelo://app?vid=6eabe795-7b91-4368-ada9-bf2b6d212386"},"vehicle_type_id":"4","last_reported":1774650053,"current_range_meters":7200,"station_id":"ce4bgm92rcd13ifvqbr0","pricing_plan_id":"cebpf4jnsgd1na2vs0mg"},{"bike_id":"e4b97950-5826-475e-8558-d2e5bcc219f8","system_id":"levelo_inurba_marseille","lat":43.29804,"lon":5.36539,"is_reserved":false,"is_disabled":false,"rental_uris":{"android":"levelo://app?vid=e4b97950-5826-475e-8558-d2e5bcc219f8","ios":"levelo://app?vid=e4b97950-5826-475e-8558-d2e5bcc219f8"},"vehicle_type_id":"4","last_reported":1774650053,"current_range_meters":7200,"station_id":"","pricing_plan_id":"cebpf4jnsgd1na2vs0mg"},{"bike_id":"e09635f2-3658-4918-b539-7b49fe18b12f","system_id":"levelo_inurba_marseille","lat":43.28935,"lon":5.36639,"is_reserved":false,"is_disabled":false,"rental_uris":{"android":"levelo://app?vid=e09635f2-3658-4918-b539-7b49fe18b12f","ios":"levelo://app?vid=e09635f2-3658-4918-b539-7b49fe18b12f"},"vehicle_type_id":"4","last_reported":1774650053,"current_range_meters":7200,"station_id":"ce4bhap2rcd13ifvqek0","pricing_plan_id":"cebpf4jnsgd1na2vs0mg"},{"bike_id":"6faf2e98-a430-4842-96a4-4399ed83b405","system_id":"levelo_inurba_marseille","lat":43.26222,"lon":5.40462,"is_reserved":false,"is_disabled":false,"rental_uris":{"android":"levelo://app?vid=6faf2e98-a430-4842-96a4-4399ed83b405","ios":"levelo://app?vid=6faf2e98-a430-4842-96a4-4399ed83b405"},"vehicle_type_id":"4","last_reported":1774650053,"current_range_meters":7200,"station_id":"ce4bhmh2rcd13ifvqgmg","pricing_plan_id":"cebpf4jnsgd1na2vs0mg"},{"bike_id":"569e56f9-1dc0-47fd-bd6c-3589b664a35a","system_id":"levelo_inurba_marseille","lat":43.26935,"lon":5.38676,"is_reserved":false,"is_disabled":false,"rental_uris":{"android":"levelo://app?vid=569e56f9-1dc0-47fd-bd6c-3589b664a35a","ios":"levelo://app?vid=569e56f9-1dc0-47fd-bd6c-3589b664a35a"},"vehicle_type_id":"4","last_reported":1774650053,"current_range_meters":7200,"station_id":"ce4bhh92rcd13ifvqfh0","pricing_plan_id":"cebpf4jnsgd1na2vs0mg"},{"bike_id":"2d0fdc3d-338a-4727-826c-caea44a0cbfa","system_id":"levelo_inurba_marseille","lat":43.29818,"lon":5.44067,"is_reserved":false,"is_disabled":false,"rental_uris":{"android":"levelo://app?vid=2d0fdc3d-338a-4727-826c-caea44a0cbfa","ios":"levelo://app?vid=2d0fdc3d-338a-4727-826c-caea44a0cbfa"},"vehicle_type_id":"4","last_reported":1774650053,"current_range_meters":7200,"station_id":"st_d3jp68qikq2c7381ktn0","pricing_plan_id":"cebpf4jnsgd1na2vs0mg"},{"bike_id":"248e7202-bf14-41af-ab35-7275ee6c4d6f","system_id":"levelo_inurba_marseille","lat":43.23384,"lon":5.41224,"is_reserved":false,"is_disabled":false,"rental_uris":{"android":"levelo://app?vid=248e7202-bf14-41af-ab35-7275ee6c4d6f","ios":"levelo://app?vid=248e7202-bf14-41af-ab35-7275ee6c4d6f"},"vehicle_type_id":"4","last_reported":1774650053,"current_range_meters":7200,"station_id":"","pricing_plan_id":"cebpf4jnsgd1na2vs0mg"},{"bike_id":"2f21b0e4-0bb7-4099-869c-5271759321fb","system_id":"levelo_inurba_marseille","lat":43.29532,"lon":5.38536,"is_reserved":false,"is_disabled":false,"rental_uris":{"android":"levelo://app?vid=2f21b0e4-0bb7-4099-869c-5271759321fb","ios":"levelo://app?vid=2f21b0e4-0bb7-4099-869c-5271759321fb"},"vehicle_type_id":"4","last_reported":1774650053,"current_range_meters":7200,"station_id":"ce4bgih2rcd13ifvqba0","pricing_plan_id":"cebpf4jnsgd1na2vs0mg"},{"bike_id":"477edfe5-e2de-468e-aca3-8cdf1ac95b2c","system_id":"levelo_inurba_marseille","lat":43.29858,"lon":5.36282,"is_reserved":false,"is_disabled":false,"rental_uris":{"android":"levelo://app?vid=477edfe5-e2de-468e-aca3-8cdf1ac95b2c","ios":"levelo://app?vid=477edfe5-e2de-468e-aca3-8cdf1ac95b2c"},"vehicle_type_id":"4","last_reported":1774650053,"current_range_meters":7200,"station_id":"ce4bgpp2rcd13ifvqc3g","pricing_plan_id":"cebpf4jnsgd1na2vs0mg"},{"bike_id":"a858ea89-34aa-421e-b0a5-1ea8bb4dbce1","system_id":"levelo_inurba_marseille","lat":43.29257,"lon":5.36842,"is_reserved":false,"is_disabled":false,"rental_uris":{"android":"levelo://app?vid=a858ea89-34aa-421e-b0a5-1ea8bb4dbce1","ios":"levelo://app?vid=a858ea89-34aa-421e-b0a5-1ea8bb4dbce1"},"vehicle_type_id":"4","last_reported":1774650053,"current_range_meters":7200,"station_id":"ce4bhbp2rcd13ifvqesg","pricing_plan_id":"cebpf4jnsgd1na2vs0mg"},{"bike_id":"5c23e0f0-3718-460a-acbf-0792e1920dc6","system_id":"levelo_inurba_marseille","lat":43.28407,"lon":5.35081,"is_reserved":false,"is_disabled":false,"rental_uris":{"android":"levelo://app?vid=5c23e0f0-3718-460a-acbf-0792e1920dc6","ios":"levelo://app?vid=5c23e0f0-3718-460a-acbf-0792e1920dc6"},"vehicle_type_id":"4","last_reported":1774650053,"current_range_meters":7200,"station_id":"","pricing_plan_id":"cebpf4jnsgd1na2vs0mg"},{"bike_id":"6671c61a-045c-4d83-b5a9-69cb797098b8","system_id":"levelo_inurba_marseille","lat":43.34406,"lon":5.35975,"is_reserved":false,"is_disabled":false,"rental_uris":{"android":"levelo://app?vid=6671c61a-045c-4d83-b5a9-69cb797098b8","ios":"levelo://app?vid=6671c61a-045c-4d83-b5a9-69cb797098b8"},"vehicle_type_id":"4","last_reported":1774650053,"current_range_meters":7200,"station_id":"","pricing_plan_id":"cebpf4jnsgd1na2vs0mg"},{"bike_id":"aa6eb777-c9be-4964-beb1-ce00e8883a0c","system_id":"levelo_inurba_marseille","lat":43.30891,"lon":5.3965,"is_reserved":false,"is_disabled":true,"rental_uris":{"android":"levelo://app?vid=aa6eb777-c9be-4964-beb1-ce00e8883a0c","ios":"levelo://app?vid=aa6eb777-c9be-4964-beb1-ce00e8883a0c"},"vehicle_type_id":"4","last_reported":1774650053,"current_range_meters":8000,"station_id":"ce4bh012rcd13ifvqcv0","pricing_plan_id":"cebpf4jnsgd1na2vs0mg"},{"bike_id":"3137e3ea-7797-4cae-a237-2a996dd9ad4a","system_id":"levelo_inurba_marseille","lat":43.2847,"lon":5.48403,"is_reserved":false,"is_disabled":false,"rental_uris":{"android":"levelo://app?vid=3137e3ea-7797-4cae-a237-2a996dd9ad4a","ios":"levelo://app?vid=3137e3ea-7797-4cae-a237-2a996dd9ad4a"},"vehicle_type_id":"4","last_reported":1774650053,"current_range_meters":8000,"station_id":"","pricing_plan_id":"cebpf4jnsgd1na2vs0mg"},{"bike_id":"6a7fd2aa-a90b-461a-8118-a8f8d903c462","system_id":"levelo_inurba_marseille","lat":43.2849,"lon":5.48388,"is_reserved":false,"is_disabled":false,"rental_uris":{"android":"levelo://app?vid=6a7fd2aa-a90b-461a-8118-a8f8d903c462","ios":"levelo://app?vid=6a7fd2aa-a90b-461a-8118-a8f8d903c462"},"vehicle_type_id":"4","last_reported":1774650053,"current_range_meters":8000,"station_id":"","pricing_plan_id":"cebpf4jnsgd1na2vs0mg"},{"bike_id":"2873a201-01ad-44f0-a3f4-1c2939d32934","system_id":"levelo_inurba_marseille","lat":43.31544,"lon":5.38011,"is_reserved":false,"is_disabled":false,"rental_uris":{"android":"levelo://app?vid=2873a201-01ad-44f0-a3f4-1c2939d32934","ios":"levelo://app?vid=2873a201-01ad-44f0-a3f4-1c2939d32934"},"vehicle_type_id":"4","last_reported":1774650053,"current_range_meters":8000,"station_id":"ce4bhsp2rcd13ifvqi50","pricing_plan_id":"cebpf4jnsgd1na2vs0mg"},{"bike_id":"8ea3dde5-31c9-4bbb-8b64-61d835a9d054","system_id":"levelo_inurba_marseille","lat":43.286643,"lon":5.386699,"is_reserved":false,"is_disabled":false,"rental_uris":{"android":"levelo://app?vid=8ea3dde5-31c9-4bbb-8b64-61d835a9d054","ios":"levelo://app?vid=8ea3dde5-31c9-4bbb-8b64-61d835a9d054"},"vehicle_type_id":"4","last_reported":1774650053,"current_range_meters":8000,"station_id":"ce4bh492rcd13ifvqdug","pricing_plan_id":"cebpf4jnsgd1na2vs0mg"},{"bike_id":"b6aa15bf-370e-46c3-b523-008b4f5832ab","system_id":"levelo_inurba_marseille","lat":43.28447,"lon":5.3586,"is_reserved":false,"is_disabled":false,"rental_uris":{"android":"levelo://app?vid=b6aa15bf-370e-46c3-b523-008b4f5832ab","ios":"levelo://app?vid=b6aa15bf-370e-46c3-b523-008b4f5832ab"},"vehicle_type_id":"4","last_reported":1774650053,"current_range_meters":8000,"station_id":"ce4bhah2rcd13ifvqei0","pricing_plan_id":"cebpf4jnsgd1na2vs0mg"},{"bike_id":"626586ec-28e3-4304-9e76-1354fc5b82e3","system_id":"levelo_inurba_marseille","lat":43.29586,"lon":5.38108,"is_reserved":false,"is_disabled":false,"rental_uris":{"android":"levelo://app?vid=626586ec-28e3-4304-9e76-1354fc5b82e3","ios":"levelo://app?vid=626586ec-28e3-4304-9e76-1354fc5b82e3"},"vehicle_type_id":"4","last_reported":1774650053,"current_range_meters":8000,"station_id":"ce4bgl12rcd13ifvqbo0","pricing_plan_id":"cebpf4jnsgd1na2vs0mg"},{"bike_id":"6d1dd35d-1ce3-4297-9706-721b82716928","system_id":"levelo_inurba_marseille","lat":43.23778,"lon":5.36626,"is_reserved":false,"is_disabled":false,"rental_uris":{"android":"levelo://app?vid=6d1dd35d-1ce3-4297-9706-721b82716928","ios":"levelo://app?vid=6d1dd35d-1ce3-4297-9706-721b82716928"},"vehicle_type_id":"4","last_reported":1774650053,"current_range_meters":8000,"station_id":"st_d3nk18o9ro0c73en2l3g","pricing_plan_id":"cebpf4jnsgd1na2vs0mg"},{"bike_id":"544a8289-9b8e-4503-ab70-a48cd8243531","system_id":"levelo_inurba_marseille","lat":43.28997,"lon":5.38133,"is_reserved":false,"is_disabled":false,"rental_uris":{"android":"levelo://app?vid=544a8289-9b8e-4503-ab70-a48cd8243531","ios":"levelo://app?vid=544a8289-9b8e-4503-ab70-a48cd8243531"},"vehicle_type_id":"4","last_reported":1774650053,"current_range_meters":8000,"station_id":"ce4bh4p2rcd13ifvqe1g","pricing_plan_id":"cebpf4jnsgd1na2vs0mg"},{"bike_id":"422a2883-6925-49a2-bbe5-524094b240da","system_id":"levelo_inurba_marseille","lat":43.29686,"lon":5.3855,"is_reserved":false,"is_disabled":false,"rental_uris":{"android":"levelo://app?vid=422a2883-6925-49a2-bbe5-524094b240da","ios":"levelo://app?vid=422a2883-6925-49a2-bbe5-524094b240da"},"vehicle_type_id":"4","last_reported":1774650053,"current_range_meters":8000,"station_id":"","pricing_plan_id":"cebpf4jnsgd1na2vs0mg"},{"bike_id":"dbf1a75b-a120-4a15-b7eb-c03220aab5d4","system_id":"levelo_inurba_marseille","lat":43.29593,"lon":5.38109,"is_reserved":false,"is_disabled":true,"rental_uris":{"android":"levelo://app?vid=dbf1a75b-a120-4a15-b7eb-c03220aab5d4","ios":"levelo://app?vid=dbf1a75b-a120-4a15-b7eb-c03220aab5d4"},"vehicle_type_id":"4","last_reported":1774650053,"current_range_meters":8000,"station_id":"ce4bgl12rcd13ifvqbo0","pricing_plan_id":"cebpf4jnsgd1na2vs0mg"},{"bike_id":"17e3f408-b356-4224-950a-afe1dac08938","system_id":"levelo_inurba_marseille","lat":43.28281,"lon":5.35101,"is_reserved":false,"is_disabled":false,"rental_uris":{"android":"levelo://app?vid=17e3f408-b356-4224-950a-afe1dac08938","ios":"levelo://app?vid=17e3f408-b356-4224-950a-afe1dac08938"},"vehicle_type_id":"4","last_reported":1774650053,"current_range_meters":8000,"station_id":"ce4bhbp2rcd13ifvqerg","pricing_plan_id":"cebpf4jnsgd1na2vs0mg"},{"bike_id":"2079b28e-e67c-46f2-b341-0eb57b27bb0e","system_id":"levelo_inurba_marseille","lat":43.31228,"lon":5.36828,"is_reserved":false,"is_disabled":false,"rental_uris":{"android":"levelo://app?vid=2079b28e-e67c-46f2-b341-0eb57b27bb0e","ios":"levelo://app?vid=2079b28e-e67c-46f2-b341-0eb57b27bb0e"},"vehicle_type_id":"4","last_reported":1774650053,"current_range_meters":8000,"station_id":"ce4bgl92rcd13ifvqbq0","pricing_plan_id":"cebpf4jnsgd1na2vs0mg"},{"bike_id":"6abbab12-4981-44ae-b28c-805675ab377c","system_id":"levelo_inurba_marseille","lat":43.30895,"lon":5.39875,"is_reserved":false,"is_disabled":false,"rental_uris":{"android":"levelo://app?vid=6abbab12-4981-44ae-b28c-805675ab377c","ios":"levelo://app?vid=6abbab12-4981-44ae-b28c-805675ab377c"},"vehicle_type_id":"4","last_reported":1774650053,"current_range_meters":8000,"station_id":"","pricing_plan_id":"cebpf4jnsgd1na2vs0mg"},{"bike_id":"c87935e1-6944-4bca-b8a5-aff1e993d25a","system_id":"levelo_inurba_marseille","lat":43.28845,"lon":5.35822,"is_reserved":false,"is_disabled":false,"rental_uris":{"android":"levelo://app?vid=c87935e1-6944-4bca-b8a5-aff1e993d25a","ios":"levelo://app?vid=c87935e1-6944-4bca-b8a5-aff1e993d25a"},"vehicle_type_id":"4","last_reported":1774650053,"current_range_meters":8000,"station_id":"ce4bhb12rcd13ifvqem0","pricing_plan_id":"cebpf4jnsgd1na2vs0mg"},{"bike_id":"2cb0ae82-1cb6-4c7f-add6-a204988a4fab","system_id":"levelo_inurba_marseille","lat":43.27976,"lon":5.41681,"is_reserved":false,"is_disabled":false,"rental_uris":{"android":"levelo://app?vid=2cb0ae82-1cb6-4c7f-add6-a204988a4fab","ios":"levelo://app?vid=2cb0ae82-1cb6-4c7f-add6-a204988a4fab"},"vehicle_type_id":"4","last_reported":1774650053,"current_range_meters":8000,"station_id":"ce4bho12rcd13ifvqh1g","pricing_plan_id":"cebpf4jnsgd1na2vs0mg"},{"bike_id":"30e88e0e-470b-46c9-8ebc-1994865cdbf4","system_id":"levelo_inurba_marseille","lat":43.26233,"lon":5.40432,"is_reserved":false,"is_disabled":false,"rental_uris":{"android":"levelo://app?vid=30e88e0e-470b-46c9-8ebc-1994865cdbf4","ios":"levelo://app?vid=30e88e0e-470b-46c9-8ebc-1994865cdbf4"},"vehicle_type_id":"4","last_reported":1774650053,"current_range_meters":8000,"station_id":"ce4bhmh2rcd13ifvqgmg","pricing_plan_id":"cebpf4jnsgd1na2vs0mg"},{"bike_id":"aee03a36-4e2e-44a9-b2f9-573326b90a0a","system_id":"levelo_inurba_marseille","lat":43.29536,"lon":5.39013,"is_reserved":false,"is_disabled":false,"rental_uris":{"android":"levelo://app?vid=aee03a36-4e2e-44a9-b2f9-573326b90a0a","ios":"levelo://app?vid=aee03a36-4e2e-44a9-b2f9-573326b90a0a"},"vehicle_type_id":"4","last_reported":1774650053,"current_range_meters":8000,"station_id":"ce4bh3p2rcd13ifvqdp0","pricing_plan_id":"cebpf4jnsgd1na2vs0mg"},{"bike_id":"b12c43e7-0317-46fc-b125-bd9b38039a95","system_id":"levelo_inurba_marseille","lat":43.28615,"lon":5.37053,"is_reserved":false,"is_disabled":false,"rental_uris":{"android":"levelo://app?vid=b12c43e7-0317-46fc-b125-bd9b38039a95","ios":"levelo://app?vid=b12c43e7-0317-46fc-b125-bd9b38039a95"},"vehicle_type_id":"4","last_reported":1774650053,"current_range_meters":8000,"station_id":"ce4bht12rcd13ifvqi60","pricing_plan_id":"cebpf4jnsgd1na2vs0mg"},{"bike_id":"653c1697-ecc4-4927-882c-de4e9516a458","system_id":"levelo_inurba_marseille","lat":43.26059,"lon":5.3938,"is_reserved":false,"is_disabled":false,"rental_uris":{"android":"levelo://app?vid=653c1697-ecc4-4927-882c-de4e9516a458","ios":"levelo://app?vid=653c1697-ecc4-4927-882c-de4e9516a458"},"vehicle_type_id":"4","last_reported":1774650053,"current_range_meters":8000,"station_id":"ce4bhh92rcd13ifvqfj0","pricing_plan_id":"cebpf4jnsgd1na2vs0mg"},{"bike_id":"520303ea-3d98-4cf2-b3e4-219d6bfc14f1","system_id":"levelo_inurba_marseille","lat":43.24806,"lon":5.3745,"is_reserved":false,"is_disabled":false,"rental_uris":{"android":"levelo://app?vid=520303ea-3d98-4cf2-b3e4-219d6bfc14f1","ios":"levelo://app?vid=520303ea-3d98-4cf2-b3e4-219d6bfc14f1"},"vehicle_type_id":"4","last_reported":1774650053,"current_range_meters":8000,"station_id":"ce4bhgh2rcd13ifvqfb0","pricing_plan_id":"cebpf4jnsgd1na2vs0mg"},{"bike_id":"f06c9d92-ab59-4133-a097-5ad3d933db5d","system_id":"levelo_inurba_marseille","lat":43.31361,"lon":5.38497,"is_reserved":false,"is_disabled":false,"rental_uris":{"android":"levelo://app?vid=f06c9d92-ab59-4133-a097-5ad3d933db5d","ios":"levelo://app?vid=f06c9d92-ab59-4133-a097-5ad3d933db5d"},"vehicle_type_id":"4","last_reported":1774650053,"current_range_meters":8000,"station_id":"ce4bgt92rcd13ifvqcf0","pricing_plan_id":"cebpf4jnsgd1na2vs0mg"},{"bike_id":"b51d43d0-b538-4b30-b0d5-e5c1be881443","system_id":"levelo_inurba_marseille","lat":43.28707,"lon":5.46677,"is_reserved":false,"is_disabled":false,"rental_uris":{"android":"levelo://app?vid=b51d43d0-b538-4b30-b0d5-e5c1be881443","ios":"levelo://app?vid=b51d43d0-b538-4b30-b0d5-e5c1be881443"},"vehicle_type_id":"4","last_reported":1774650053,"current_range_meters":8000,"station_id":"st_d6tc3vkotcvc738tfjhg","pricing_plan_id":"cebpf4jnsgd1na2vs0mg"},{"bike_id":"f967aac8-bff7-4d61-9c8d-307b8d7b6ffd","system_id":"levelo_inurba_marseille","lat":43.25338,"lon":5.42178,"is_reserved":false,"is_disabled":false,"rental_uris":{"android":"levelo://app?vid=f967aac8-bff7-4d61-9c8d-307b8d7b6ffd","ios":"levelo://app?vid=f967aac8-bff7-4d61-9c8d-307b8d7b6ffd"},"vehicle_type_id":"4","last_reported":1774650053,"current_range_meters":8400,"station_id":"st_d2m65c5bi1j21697t3ng","pricing_plan_id":"cebpf4jnsgd1na2vs0mg"},{"bike_id":"13758e40-3343-4461-81bb-b6a3001d9426","system_id":"levelo_inurba_marseille","lat":43.32474,"lon":5.36562,"is_reserved":false,"is_disabled":false,"rental_uris":{"android":"levelo://app?vid=13758e40-3343-4461-81bb-b6a3001d9426","ios":"levelo://app?vid=13758e40-3343-4461-81bb-b6a3001d9426"},"vehicle_type_id":"4","last_reported":1774650053,"current_range_meters":8400,"station_id":"ce4bhs12rcd13ifvqhvg","pricing_plan_id":"cebpf4jnsgd1na2vs0mg"},{"bike_id":"8b44b9ba-553c-4a19-bbbe-b5eddb2ee588","system_id":"levelo_inurba_marseille","lat":43.30088,"lon":5.37665,"is_reserved":false,"is_disabled":false,"rental_uris":{"android":"levelo://app?vid=8b44b9ba-553c-4a19-bbbe-b5eddb2ee588","ios":"levelo://app?vid=8b44b9ba-553c-4a19-bbbe-b5eddb2ee588"},"vehicle_type_id":"4","last_reported":1774650053,"current_range_meters":8400,"station_id":"","pricing_plan_id":"cebpf4jnsgd1na2vs0mg"},{"bike_id":"017cc899-a510-41b6-b2c0-841cd8ab0838","system_id":"levelo_inurba_marseille","lat":43.31215,"lon":5.36914,"is_reserved":false,"is_disabled":false,"rental_uris":{"android":"levelo://app?vid=017cc899-a510-41b6-b2c0-841cd8ab0838","ios":"levelo://app?vid=017cc899-a510-41b6-b2c0-841cd8ab0838"},"vehicle_type_id":"4","last_reported":1774650053,"current_range_meters":8400,"station_id":"ce4bgl92rcd13ifvqbq0","pricing_plan_id":"cebpf4jnsgd1na2vs0mg"},{"bike_id":"5069403e-8b3a-4b6a-a7e0-18840af0af78","system_id":"levelo_inurba_marseille","lat":43.30238,"lon":5.40059,"is_reserved":false,"is_disabled":false,"rental_uris":{"android":"levelo://app?vid=5069403e-8b3a-4b6a-a7e0-18840af0af78","ios":"levelo://app?vid=5069403e-8b3a-4b6a-a7e0-18840af0af78"},"vehicle_type_id":"4","last_reported":1774650053,"current_range_meters":8400,"station_id":"ce4bgvh2rcd13ifvqcs0","pricing_plan_id":"cebpf4jnsgd1na2vs0mg"},{"bike_id":"7d38c45a-0011-4d05-9bbf-54b7323ff394","system_id":"levelo_inurba_marseille","lat":43.2638,"lon":5.41071,"is_reserved":false,"is_disabled":false,"rental_uris":{"android":"levelo://app?vid=7d38c45a-0011-4d05-9bbf-54b7323ff394","ios":"levelo://app?vid=7d38c45a-0011-4d05-9bbf-54b7323ff394"},"vehicle_type_id":"4","last_reported":1774650053,"current_range_meters":8400,"station_id":"st_d4e5ca6na9uc73bfl5fg","pricing_plan_id":"cebpf4jnsgd1na2vs0mg"},{"bike_id":"9910be75-2a19-4a77-bce6-04d40c71f069","system_id":"levelo_inurba_marseille","lat":43.29024,"lon":5.38635,"is_reserved":false,"is_disabled":false,"rental_uris":{"android":"levelo://app?vid=9910be75-2a19-4a77-bce6-04d40c71f069","ios":"levelo://app?vid=9910be75-2a19-4a77-bce6-04d40c71f069"},"vehicle_type_id":"4","last_reported":1774650053,"current_range_meters":8400,"station_id":"ce4bh4p2rcd13ifvqe0g","pricing_plan_id":"cebpf4jnsgd1na2vs0mg"},{"bike_id":"e4b8931c-03ca-41c7-bb73-d8e8fdaf8d69","system_id":"levelo_inurba_marseille","lat":43.25572,"lon":5.38245,"is_reserved":false,"is_disabled":false,"rental_uris":{"android":"levelo://app?vid=e4b8931c-03ca-41c7-bb73-d8e8fdaf8d69","ios":"levelo://app?vid=e4b8931c-03ca-41c7-bb73-d8e8fdaf8d69"},"vehicle_type_id":"4","last_reported":1774650053,"current_range_meters":8400,"station_id":"ce4bhih2rcd13ifvqfs0","pricing_plan_id":"cebpf4jnsgd1na2vs0mg"},{"bike_id":"20406196-dc3a-4306-a00e-eac4ce16fb74","system_id":"levelo_inurba_marseille","lat":43.29258,"lon":5.38437,"is_reserved":false,"is_disabled":false,"rental_uris":{"android":"levelo://app?vid=20406196-dc3a-4306-a00e-eac4ce16fb74","ios":"levelo://app?vid=20406196-dc3a-4306-a00e-eac4ce16fb74"},"vehicle_type_id":"4","last_reported":1774650053,"current_range_meters":8400,"station_id":"ce4bh692rcd13ifvqea0","pricing_plan_id":"cebpf4jnsgd1na2vs0mg"},{"bike_id":"dd21cd2f-ab57-4cd4-a438-b1fa2bdb0a92","system_id":"levelo_inurba_marseille","lat":43.31252,"lon":5.37007,"is_reserved":false,"is_disabled":false,"rental_uris":{"android":"levelo://app?vid=dd21cd2f-ab57-4cd4-a438-b1fa2bdb0a92","ios":"levelo://app?vid=dd21cd2f-ab57-4cd4-a438-b1fa2bdb0a92"},"vehicle_type_id":"4","last_reported":1774650053,"current_range_meters":8400,"station_id":"ce4bgl92rcd13ifvqbq0","pricing_plan_id":"cebpf4jnsgd1na2vs0mg"},{"bike_id":"58acc0d2-0554-4fcd-87a6-086f9414e8d7","system_id":"levelo_inurba_marseille","lat":43.27991,"lon":5.41661,"is_reserved":false,"is_disabled":false,"rental_uris":{"android":"levelo://app?vid=58acc0d2-0554-4fcd-87a6-086f9414e8d7","ios":"levelo://app?vid=58acc0d2-0554-4fcd-87a6-086f9414e8d7"},"vehicle_type_id":"4","last_reported":1774650053,"current_range_meters":8400,"station_id":"ce4bho12rcd13ifvqh1g","pricing_plan_id":"cebpf4jnsgd1na2vs0mg"},{"bike_id":"0eac7103-fa91-4cc3-9de1-b4f74d7ff4a0","system_id":"levelo_inurba_marseille","lat":43.23182,"lon":5.40005,"is_reserved":false,"is_disabled":false,"rental_uris":{"android":"levelo://app?vid=0eac7103-fa91-4cc3-9de1-b4f74d7ff4a0","ios":"levelo://app?vid=0eac7103-fa91-4cc3-9de1-b4f74d7ff4a0"},"vehicle_type_id":"4","last_reported":1774650053,"current_range_meters":8400,"station_id":"ce4bhn12rcd13ifvqgqg","pricing_plan_id":"cebpf4jnsgd1na2vs0mg"},{"bike_id":"7f5f4a35-fda4-4a33-b7ae-332aa08e4387","system_id":"levelo_inurba_marseille","lat":43.29759,"lon":5.42791,"is_reserved":false,"is_disabled":false,"rental_uris":{"android":"levelo://app?vid=7f5f4a35-fda4-4a33-b7ae-332aa08e4387","ios":"levelo://app?vid=7f5f4a35-fda4-4a33-b7ae-332aa08e4387"},"vehicle_type_id":"4","last_reported":1774650053,"current_range_meters":8400,"station_id":"st_d3md5207bmas73dh9klg","pricing_plan_id":"cebpf4jnsgd1na2vs0mg"},{"bike_id":"915ccf51-81c4-4a81-94b6-b9522edf5a8e","system_id":"levelo_inurba_marseille","lat":43.32644,"lon":5.40945,"is_reserved":false,"is_disabled":false,"rental_uris":{"android":"levelo://app?vid=915ccf51-81c4-4a81-94b6-b9522edf5a8e","ios":"levelo://app?vid=915ccf51-81c4-4a81-94b6-b9522edf5a8e"},"vehicle_type_id":"4","last_reported":1774650053,"current_range_meters":8400,"station_id":"ce4bhpp2rcd13ifvqhgg","pricing_plan_id":"cebpf4jnsgd1na2vs0mg"},{"bike_id":"04d04abc-8a1d-4aab-aaf5-99ff4aabc908","system_id":"levelo_inurba_marseille","lat":43.29531,"lon":5.38545,"is_reserved":false,"is_disabled":false,"rental_uris":{"android":"levelo://app?vid=04d04abc-8a1d-4aab-aaf5-99ff4aabc908","ios":"levelo://app?vid=04d04abc-8a1d-4aab-aaf5-99ff4aabc908"},"vehicle_type_id":"4","last_reported":1774650053,"current_range_meters":8400,"station_id":"ce4bgih2rcd13ifvqba0","pricing_plan_id":"cebpf4jnsgd1na2vs0mg"},{"bike_id":"9c448445-1c60-4520-a1cb-98a7a7992b90","system_id":"levelo_inurba_marseille","lat":43.28478,"lon":5.48395,"is_reserved":false,"is_disabled":false,"rental_uris":{"android":"levelo://app?vid=9c448445-1c60-4520-a1cb-98a7a7992b90","ios":"levelo://app?vid=9c448445-1c60-4520-a1cb-98a7a7992b90"},"vehicle_type_id":"4","last_reported":1774650053,"current_range_meters":8400,"station_id":"","pricing_plan_id":"cebpf4jnsgd1na2vs0mg"},{"bike_id":"42bd3632-c47b-4fdf-bc5e-da8a92633a73","system_id":"levelo_inurba_marseille","lat":43.29609,"lon":5.38099,"is_reserved":false,"is_disabled":false,"rental_uris":{"android":"levelo://app?vid=42bd3632-c47b-4fdf-bc5e-da8a92633a73","ios":"levelo://app?vid=42bd3632-c47b-4fdf-bc5e-da8a92633a73"},"vehicle_type_id":"4","last_reported":1774650053,"current_range_meters":8400,"station_id":"ce4bgl12rcd13ifvqbo0","pricing_plan_id":"cebpf4jnsgd1na2vs0mg"},{"bike_id":"fbd013e2-8567-4cc4-a7c6-24dd8fd5e924","system_id":"levelo_inurba_marseille","lat":43.28998,"lon":5.3563,"is_reserved":false,"is_disabled":false,"rental_uris":{"android":"levelo://app?vid=fbd013e2-8567-4cc4-a7c6-24dd8fd5e924","ios":"levelo://app?vid=fbd013e2-8567-4cc4-a7c6-24dd8fd5e924"},"vehicle_type_id":"4","last_reported":1774650053,"current_range_meters":8400,"station_id":"ce4bhb92rcd13ifvqen0","pricing_plan_id":"cebpf4jnsgd1na2vs0mg"},{"bike_id":"4c89b9ce-52ed-4fac-8617-1a28e06018e5","system_id":"levelo_inurba_marseille","lat":43.24804,"lon":5.37455,"is_reserved":false,"is_disabled":false,"rental_uris":{"android":"levelo://app?vid=4c89b9ce-52ed-4fac-8617-1a28e06018e5","ios":"levelo://app?vid=4c89b9ce-52ed-4fac-8617-1a28e06018e5"},"vehicle_type_id":"4","last_reported":1774650053,"current_range_meters":8400,"station_id":"ce4bhgh2rcd13ifvqfb0","pricing_plan_id":"cebpf4jnsgd1na2vs0mg"},{"bike_id":"47fddd71-5dce-4378-abf3-8581e66dacab","system_id":"levelo_inurba_marseille","lat":43.29516,"lon":5.3857,"is_reserved":false,"is_disabled":false,"rental_uris":{"android":"levelo://app?vid=47fddd71-5dce-4378-abf3-8581e66dacab","ios":"levelo://app?vid=47fddd71-5dce-4378-abf3-8581e66dacab"},"vehicle_type_id":"4","last_reported":1774650053,"current_range_meters":8400,"station_id":"ce4bgih2rcd13ifvqba0","pricing_plan_id":"cebpf4jnsgd1na2vs0mg"},{"bike_id":"ac1a9d6c-17a0-4e01-9607-d886e691e83d","system_id":"levelo_inurba_marseille","lat":43.24401,"lon":5.37076,"is_reserved":false,"is_disabled":false,"rental_uris":{"android":"levelo://app?vid=ac1a9d6c-17a0-4e01-9607-d886e691e83d","ios":"levelo://app?vid=ac1a9d6c-17a0-4e01-9607-d886e691e83d"},"vehicle_type_id":"4","last_reported":1774650053,"current_range_meters":8800,"station_id":"ce4bhhh2rcd13ifvqfk0","pricing_plan_id":"cebpf4jnsgd1na2vs0mg"},{"bike_id":"3629b600-0973-43f7-911e-b3eb2f49b025","system_id":"levelo_inurba_marseille","lat":43.33545,"lon":5.37466,"is_reserved":false,"is_disabled":false,"rental_uris":{"android":"levelo://app?vid=3629b600-0973-43f7-911e-b3eb2f49b025","ios":"levelo://app?vid=3629b600-0973-43f7-911e-b3eb2f49b025"},"vehicle_type_id":"4","last_reported":1774650053,"current_range_meters":8800,"station_id":"st_d46tts09ee8s73dlu43g","pricing_plan_id":"cebpf4jnsgd1na2vs0mg"},{"bike_id":"831dfd99-9dce-4547-9c02-0fdd013700e1","system_id":"levelo_inurba_marseille","lat":43.2903,"lon":5.38634,"is_reserved":false,"is_disabled":false,"rental_uris":{"android":"levelo://app?vid=831dfd99-9dce-4547-9c02-0fdd013700e1","ios":"levelo://app?vid=831dfd99-9dce-4547-9c02-0fdd013700e1"},"vehicle_type_id":"4","last_reported":1774650053,"current_range_meters":8800,"station_id":"ce4bh4p2rcd13ifvqe0g","pricing_plan_id":"cebpf4jnsgd1na2vs0mg"},{"bike_id":"c5412bb6-bec7-4456-bdb3-6b87df0ff39f","system_id":"levelo_inurba_marseille","lat":43.31173,"lon":5.36843,"is_reserved":false,"is_disabled":false,"rental_uris":{"android":"levelo://app?vid=c5412bb6-bec7-4456-bdb3-6b87df0ff39f","ios":"levelo://app?vid=c5412bb6-bec7-4456-bdb3-6b87df0ff39f"},"vehicle_type_id":"4","last_reported":1774650053,"current_range_meters":8800,"station_id":"ce4bgl92rcd13ifvqbq0","pricing_plan_id":"cebpf4jnsgd1na2vs0mg"},{"bike_id":"edac6523-df16-47dc-adeb-975cdf805ce1","system_id":"levelo_inurba_marseille","lat":43.26566,"lon":5.39104,"is_reserved":false,"is_disabled":false,"rental_uris":{"android":"levelo://app?vid=edac6523-df16-47dc-adeb-975cdf805ce1","ios":"levelo://app?vid=edac6523-df16-47dc-adeb-975cdf805ce1"},"vehicle_type_id":"4","last_reported":1774650053,"current_range_meters":8800,"station_id":"","pricing_plan_id":"cebpf4jnsgd1na2vs0mg"},{"bike_id":"b4f7f0b9-7d56-42ad-a631-1e0eab6073dc","system_id":"levelo_inurba_marseille","lat":43.30543,"lon":5.36539,"is_reserved":false,"is_disabled":false,"rental_uris":{"android":"levelo://app?vid=b4f7f0b9-7d56-42ad-a631-1e0eab6073dc","ios":"levelo://app?vid=b4f7f0b9-7d56-42ad-a631-1e0eab6073dc"},"vehicle_type_id":"4","last_reported":1774650053,"current_range_meters":8800,"station_id":"ce4bgs12rcd13ifvqcag","pricing_plan_id":"cebpf4jnsgd1na2vs0mg"},{"bike_id":"a36b32fe-3c3c-4e8e-bdc5-ac9d34714bd2","system_id":"levelo_inurba_marseille","lat":43.29886,"lon":5.42094,"is_reserved":false,"is_disabled":false,"rental_uris":{"android":"levelo://app?vid=a36b32fe-3c3c-4e8e-bdc5-ac9d34714bd2","ios":"levelo://app?vid=a36b32fe-3c3c-4e8e-bdc5-ac9d34714bd2"},"vehicle_type_id":"4","last_reported":1774650053,"current_range_meters":8800,"station_id":"st_d6tc004otcvc738tfe70","pricing_plan_id":"cebpf4jnsgd1na2vs0mg"},{"bike_id":"ccae95a5-965a-472f-8138-32ecadf6ef35","system_id":"levelo_inurba_marseille","lat":43.25346,"lon":5.42181,"is_reserved":false,"is_disabled":false,"rental_uris":{"android":"levelo://app?vid=ccae95a5-965a-472f-8138-32ecadf6ef35","ios":"levelo://app?vid=ccae95a5-965a-472f-8138-32ecadf6ef35"},"vehicle_type_id":"4","last_reported":1774650053,"current_range_meters":8800,"station_id":"st_d2m65c5bi1j21697t3ng","pricing_plan_id":"cebpf4jnsgd1na2vs0mg"},{"bike_id":"a91a1de4-5dfa-4c76-b9e6-a0ce7f6f26a8","system_id":"levelo_inurba_marseille","lat":43.28504,"lon":5.38539,"is_reserved":false,"is_disabled":false,"rental_uris":{"android":"levelo://app?vid=a91a1de4-5dfa-4c76-b9e6-a0ce7f6f26a8","ios":"levelo://app?vid=a91a1de4-5dfa-4c76-b9e6-a0ce7f6f26a8"},"vehicle_type_id":"4","last_reported":1774650053,"current_range_meters":8800,"station_id":"ce4bh8p2rcd13ifvqeb0","pricing_plan_id":"cebpf4jnsgd1na2vs0mg"},{"bike_id":"b74978cb-5b51-4041-8c1c-97c8f4ca71d2","system_id":"levelo_inurba_marseille","lat":43.3118,"lon":5.4063,"is_reserved":false,"is_disabled":false,"rental_uris":{"android":"levelo://app?vid=b74978cb-5b51-4041-8c1c-97c8f4ca71d2","ios":"levelo://app?vid=b74978cb-5b51-4041-8c1c-97c8f4ca71d2"},"vehicle_type_id":"4","last_reported":1774650053,"current_range_meters":8800,"station_id":"","pricing_plan_id":"cebpf4jnsgd1na2vs0mg"},{"bike_id":"28483bf5-dea0-476c-af06-fd95f4e48f8f","system_id":"levelo_inurba_marseille","lat":43.33494,"lon":5.36351,"is_reserved":false,"is_disabled":false,"rental_uris":{"android":"levelo://app?vid=28483bf5-dea0-476c-af06-fd95f4e48f8f","ios":"levelo://app?vid=28483bf5-dea0-476c-af06-fd95f4e48f8f"},"vehicle_type_id":"4","last_reported":1774650053,"current_range_meters":8800,"station_id":"","pricing_plan_id":"cebpf4jnsgd1na2vs0mg"},{"bike_id":"ab7fd825-ef8d-408d-822b-c49a4b49450f","system_id":"levelo_inurba_marseille","lat":43.29527,"lon":5.38542,"is_reserved":false,"is_disabled":false,"rental_uris":{"android":"levelo://app?vid=ab7fd825-ef8d-408d-822b-c49a4b49450f","ios":"levelo://app?vid=ab7fd825-ef8d-408d-822b-c49a4b49450f"},"vehicle_type_id":"4","last_reported":1774650053,"current_range_meters":8800,"station_id":"ce4bgih2rcd13ifvqba0","pricing_plan_id":"cebpf4jnsgd1na2vs0mg"},{"bike_id":"3cf37742-558c-4f25-9c21-256b80b90180","system_id":"levelo_inurba_marseille","lat":43.29206,"lon":5.36079,"is_reserved":false,"is_disabled":false,"rental_uris":{"android":"levelo://app?vid=3cf37742-558c-4f25-9c21-256b80b90180","ios":"levelo://app?vid=3cf37742-558c-4f25-9c21-256b80b90180"},"vehicle_type_id":"4","last_reported":1774650053,"current_range_meters":8800,"station_id":"ce4bhbh2rcd13ifvqeqg","pricing_plan_id":"cebpf4jnsgd1na2vs0mg"},{"bike_id":"6d106594-19d4-410a-8438-74af7bf89a11","system_id":"levelo_inurba_marseille","lat":43.28418,"lon":5.35005,"is_reserved":false,"is_disabled":false,"rental_uris":{"android":"levelo://app?vid=6d106594-19d4-410a-8438-74af7bf89a11","ios":"levelo://app?vid=6d106594-19d4-410a-8438-74af7bf89a11"},"vehicle_type_id":"4","last_reported":1774650053,"current_range_meters":8800,"station_id":"ce4bhbh2rcd13ifvqepg","pricing_plan_id":"cebpf4jnsgd1na2vs0mg"},{"bike_id":"2d5262be-582c-4d87-a7a2-b4c3f4ed4d38","system_id":"levelo_inurba_marseille","lat":43.22564,"lon":5.41624,"is_reserved":false,"is_disabled":false,"rental_uris":{"android":"levelo://app?vid=2d5262be-582c-4d87-a7a2-b4c3f4ed4d38","ios":"levelo://app?vid=2d5262be-582c-4d87-a7a2-b4c3f4ed4d38"},"vehicle_type_id":"4","last_reported":1774650053,"current_range_meters":8800,"station_id":"st_d2o4gvlbi1j2169b742g","pricing_plan_id":"cebpf4jnsgd1na2vs0mg"},{"bike_id":"3e59832a-cdaf-46e6-8146-e71fae44aa5a","system_id":"levelo_inurba_marseille","lat":43.30146,"lon":5.38778,"is_reserved":false,"is_disabled":false,"rental_uris":{"android":"levelo://app?vid=3e59832a-cdaf-46e6-8146-e71fae44aa5a","ios":"levelo://app?vid=3e59832a-cdaf-46e6-8146-e71fae44aa5a"},"vehicle_type_id":"4","last_reported":1774650053,"current_range_meters":8800,"station_id":"ce4bghh2rcd13ifvqb60","pricing_plan_id":"cebpf4jnsgd1na2vs0mg"},{"bike_id":"26f0b980-59ad-4789-b653-7a0dd9c1f7cc","system_id":"levelo_inurba_marseille","lat":43.29853,"lon":5.36275,"is_reserved":false,"is_disabled":false,"rental_uris":{"android":"levelo://app?vid=26f0b980-59ad-4789-b653-7a0dd9c1f7cc","ios":"levelo://app?vid=26f0b980-59ad-4789-b653-7a0dd9c1f7cc"},"vehicle_type_id":"4","last_reported":1774650053,"current_range_meters":8800,"station_id":"ce4bgpp2rcd13ifvqc3g","pricing_plan_id":"cebpf4jnsgd1na2vs0mg"},{"bike_id":"c7e7b9b4-b2ab-4940-be19-71a7454f475a","system_id":"levelo_inurba_marseille","lat":43.26037,"lon":5.37544,"is_reserved":false,"is_disabled":false,"rental_uris":{"android":"levelo://app?vid=c7e7b9b4-b2ab-4940-be19-71a7454f475a","ios":"levelo://app?vid=c7e7b9b4-b2ab-4940-be19-71a7454f475a"},"vehicle_type_id":"4","last_reported":1774650053,"current_range_meters":8800,"station_id":"ce4bhgh2rcd13ifvqfa0","pricing_plan_id":"cebpf4jnsgd1na2vs0mg"},{"bike_id":"f3d47af6-5b42-4057-b9f6-c501bdc25d75","system_id":"levelo_inurba_marseille","lat":43.23383,"lon":5.41232,"is_reserved":false,"is_disabled":false,"rental_uris":{"android":"levelo://app?vid=f3d47af6-5b42-4057-b9f6-c501bdc25d75","ios":"levelo://app?vid=f3d47af6-5b42-4057-b9f6-c501bdc25d75"},"vehicle_type_id":"4","last_reported":1774650053,"current_range_meters":8800,"station_id":"","pricing_plan_id":"cebpf4jnsgd1na2vs0mg"},{"bike_id":"d741be9d-9a1f-47cb-928e-31f564aacabb","system_id":"levelo_inurba_marseille","lat":43.30795,"lon":5.38151,"is_reserved":false,"is_disabled":false,"rental_uris":{"android":"levelo://app?vid=d741be9d-9a1f-47cb-928e-31f564aacabb","ios":"levelo://app?vid=d741be9d-9a1f-47cb-928e-31f564aacabb"},"vehicle_type_id":"4","last_reported":1774650053,"current_range_meters":8800,"station_id":"ce4bgt12rcd13ifvqce0","pricing_plan_id":"cebpf4jnsgd1na2vs0mg"},{"bike_id":"c7af05b3-4ddb-499c-ae8b-c6fd8683ba94","system_id":"levelo_inurba_marseille","lat":43.29516,"lon":5.38331,"is_reserved":false,"is_disabled":false,"rental_uris":{"android":"levelo://app?vid=c7af05b3-4ddb-499c-ae8b-c6fd8683ba94","ios":"levelo://app?vid=c7af05b3-4ddb-499c-ae8b-c6fd8683ba94"},"vehicle_type_id":"4","last_reported":1774650053,"current_range_meters":8800,"station_id":"","pricing_plan_id":"cebpf4jnsgd1na2vs0mg"},{"bike_id":"8a1669f9-b995-4c89-b0e8-2d5c58ac6bd7","system_id":"levelo_inurba_marseille","lat":43.26499,"lon":5.39536,"is_reserved":false,"is_disabled":false,"rental_uris":{"android":"levelo://app?vid=8a1669f9-b995-4c89-b0e8-2d5c58ac6bd7","ios":"levelo://app?vid=8a1669f9-b995-4c89-b0e8-2d5c58ac6bd7"},"vehicle_type_id":"4","last_reported":1774650053,"current_range_meters":8800,"station_id":"ce4bhi12rcd13ifvqfq0","pricing_plan_id":"cebpf4jnsgd1na2vs0mg"},{"bike_id":"77ee92e1-c2bc-4362-b69e-28dbe2b54f10","system_id":"levelo_inurba_marseille","lat":43.24068,"lon":5.37761,"is_reserved":false,"is_disabled":false,"rental_uris":{"android":"levelo://app?vid=77ee92e1-c2bc-4362-b69e-28dbe2b54f10","ios":"levelo://app?vid=77ee92e1-c2bc-4362-b69e-28dbe2b54f10"},"vehicle_type_id":"4","last_reported":1774650053,"current_range_meters":8800,"station_id":"ce4bhnp2rcd13ifvqgvg","pricing_plan_id":"cebpf4jnsgd1na2vs0mg"},{"bike_id":"a0e1fe6f-1b0c-4b69-b699-3f3295a2fce0","system_id":"levelo_inurba_marseille","lat":43.28404,"lon":5.34988,"is_reserved":false,"is_disabled":false,"rental_uris":{"android":"levelo://app?vid=a0e1fe6f-1b0c-4b69-b699-3f3295a2fce0","ios":"levelo://app?vid=a0e1fe6f-1b0c-4b69-b699-3f3295a2fce0"},"vehicle_type_id":"4","last_reported":1774650053,"current_range_meters":9200,"station_id":"ce4bhbh2rcd13ifvqepg","pricing_plan_id":"cebpf4jnsgd1na2vs0mg"},{"bike_id":"efd1ef5c-8346-4bd1-be93-977bc5769041","system_id":"levelo_inurba_marseille","lat":43.28925,"lon":5.36637,"is_reserved":false,"is_disabled":false,"rental_uris":{"android":"levelo://app?vid=efd1ef5c-8346-4bd1-be93-977bc5769041","ios":"levelo://app?vid=efd1ef5c-8346-4bd1-be93-977bc5769041"},"vehicle_type_id":"4","last_reported":1774650053,"current_range_meters":9200,"station_id":"ce4bhap2rcd13ifvqek0","pricing_plan_id":"cebpf4jnsgd1na2vs0mg"},{"bike_id":"2f019591-3087-43f0-affb-e2eede13213e","system_id":"levelo_inurba_marseille","lat":43.24211,"lon":5.36636,"is_reserved":false,"is_disabled":false,"rental_uris":{"android":"levelo://app?vid=2f019591-3087-43f0-affb-e2eede13213e","ios":"levelo://app?vid=2f019591-3087-43f0-affb-e2eede13213e"},"vehicle_type_id":"4","last_reported":1774650053,"current_range_meters":9200,"station_id":"","pricing_plan_id":"cebpf4jnsgd1na2vs0mg"},{"bike_id":"57538898-287c-47df-8281-4c237c4286e2","system_id":"levelo_inurba_marseille","lat":43.23149,"lon":5.43733,"is_reserved":false,"is_disabled":false,"rental_uris":{"android":"levelo://app?vid=57538898-287c-47df-8281-4c237c4286e2","ios":"levelo://app?vid=57538898-287c-47df-8281-4c237c4286e2"},"vehicle_type_id":"4","last_reported":1774650053,"current_range_meters":9200,"station_id":"ce4bhmp2rcd13ifvqgog","pricing_plan_id":"cebpf4jnsgd1na2vs0mg"},{"bike_id":"899c9f36-9b83-4ce9-bd7d-0f95dd541b6a","system_id":"levelo_inurba_marseille","lat":43.32344,"lon":5.36752,"is_reserved":false,"is_disabled":false,"rental_uris":{"android":"levelo://app?vid=899c9f36-9b83-4ce9-bd7d-0f95dd541b6a","ios":"levelo://app?vid=899c9f36-9b83-4ce9-bd7d-0f95dd541b6a"},"vehicle_type_id":"4","last_reported":1774650053,"current_range_meters":9200,"station_id":"ce4bhsh2rcd13ifvqi2g","pricing_plan_id":"cebpf4jnsgd1na2vs0mg"},{"bike_id":"c36bd0d3-a76a-4b18-844b-3d88afc7db56","system_id":"levelo_inurba_marseille","lat":43.29208,"lon":5.39302,"is_reserved":false,"is_disabled":false,"rental_uris":{"android":"levelo://app?vid=c36bd0d3-a76a-4b18-844b-3d88afc7db56","ios":"levelo://app?vid=c36bd0d3-a76a-4b18-844b-3d88afc7db56"},"vehicle_type_id":"4","last_reported":1774650053,"current_range_meters":9200,"station_id":"ce4bh192rcd13ifvqdd0","pricing_plan_id":"cebpf4jnsgd1na2vs0mg"},{"bike_id":"bab23f58-9de0-4ebb-addd-71892832244a","system_id":"levelo_inurba_marseille","lat":43.29261,"lon":5.38439,"is_reserved":false,"is_disabled":false,"rental_uris":{"android":"levelo://app?vid=bab23f58-9de0-4ebb-addd-71892832244a","ios":"levelo://app?vid=bab23f58-9de0-4ebb-addd-71892832244a"},"vehicle_type_id":"4","last_reported":1774650053,"current_range_meters":9200,"station_id":"ce4bh692rcd13ifvqea0","pricing_plan_id":"cebpf4jnsgd1na2vs0mg"},{"bike_id":"c420f719-a4cc-4702-b6da-68e6d0f37e6c","system_id":"levelo_inurba_marseille","lat":43.28529,"lon":5.44118,"is_reserved":false,"is_disabled":false,"rental_uris":{"android":"levelo://app?vid=c420f719-a4cc-4702-b6da-68e6d0f37e6c","ios":"levelo://app?vid=c420f719-a4cc-4702-b6da-68e6d0f37e6c"},"vehicle_type_id":"4","last_reported":1774650053,"current_range_meters":9200,"station_id":"st_d3j3df2ikq2c7380ej80","pricing_plan_id":"cebpf4jnsgd1na2vs0mg"},{"bike_id":"5afc8403-6d30-4cf0-9969-def159c6d031","system_id":"levelo_inurba_marseille","lat":43.24383,"lon":5.37068,"is_reserved":false,"is_disabled":false,"rental_uris":{"android":"levelo://app?vid=5afc8403-6d30-4cf0-9969-def159c6d031","ios":"levelo://app?vid=5afc8403-6d30-4cf0-9969-def159c6d031"},"vehicle_type_id":"4","last_reported":1774650053,"current_range_meters":9200,"station_id":"ce4bhhh2rcd13ifvqfk0","pricing_plan_id":"cebpf4jnsgd1na2vs0mg"},{"bike_id":"ac2e9358-091d-44de-957c-d4124f6108c8","system_id":"levelo_inurba_marseille","lat":43.2952,"lon":5.38563,"is_reserved":false,"is_disabled":false,"rental_uris":{"android":"levelo://app?vid=ac2e9358-091d-44de-957c-d4124f6108c8","ios":"levelo://app?vid=ac2e9358-091d-44de-957c-d4124f6108c8"},"vehicle_type_id":"4","last_reported":1774650053,"current_range_meters":9200,"station_id":"ce4bgih2rcd13ifvqba0","pricing_plan_id":"cebpf4jnsgd1na2vs0mg"},{"bike_id":"0c2c994c-f14a-4957-8502-3656740281f4","system_id":"levelo_inurba_marseille","lat":43.24634,"lon":5.38182,"is_reserved":false,"is_disabled":false,"rental_uris":{"android":"levelo://app?vid=0c2c994c-f14a-4957-8502-3656740281f4","ios":"levelo://app?vid=0c2c994c-f14a-4957-8502-3656740281f4"},"vehicle_type_id":"4","last_reported":1774650053,"current_range_meters":9200,"station_id":"ce4bhih2rcd13ifvqfr0","pricing_plan_id":"cebpf4jnsgd1na2vs0mg"},{"bike_id":"fa1cf32b-219e-482f-8f48-62ab358ef348","system_id":"levelo_inurba_marseille","lat":43.28412,"lon":5.35006,"is_reserved":false,"is_disabled":false,"rental_uris":{"android":"levelo://app?vid=fa1cf32b-219e-482f-8f48-62ab358ef348","ios":"levelo://app?vid=fa1cf32b-219e-482f-8f48-62ab358ef348"},"vehicle_type_id":"4","last_reported":1774650053,"current_range_meters":9200,"station_id":"ce4bhbh2rcd13ifvqepg","pricing_plan_id":"cebpf4jnsgd1na2vs0mg"},{"bike_id":"e8df83cf-6381-4e7e-9379-074a8e881801","system_id":"levelo_inurba_marseille","lat":43.31893,"lon":5.36803,"is_reserved":false,"is_disabled":false,"rental_uris":{"android":"levelo://app?vid=e8df83cf-6381-4e7e-9379-074a8e881801","ios":"levelo://app?vid=e8df83cf-6381-4e7e-9379-074a8e881801"},"vehicle_type_id":"4","last_reported":1774650053,"current_range_meters":9200,"station_id":"","pricing_plan_id":"cebpf4jnsgd1na2vs0mg"},{"bike_id":"d0d2e10c-c6b7-4e68-96d3-9619711217dd","system_id":"levelo_inurba_marseille","lat":43.24676,"lon":5.38141,"is_reserved":false,"is_disabled":false,"rental_uris":{"android":"levelo://app?vid=d0d2e10c-c6b7-4e68-96d3-9619711217dd","ios":"levelo://app?vid=d0d2e10c-c6b7-4e68-96d3-9619711217dd"},"vehicle_type_id":"4","last_reported":1774650053,"current_range_meters":9200,"station_id":"ce4bhih2rcd13ifvqfr0","pricing_plan_id":"cebpf4jnsgd1na2vs0mg"},{"bike_id":"5e6afa94-4346-4d26-8463-508819ab433c","system_id":"levelo_inurba_marseille","lat":43.29837,"lon":5.36265,"is_reserved":false,"is_disabled":false,"rental_uris":{"android":"levelo://app?vid=5e6afa94-4346-4d26-8463-508819ab433c","ios":"levelo://app?vid=5e6afa94-4346-4d26-8463-508819ab433c"},"vehicle_type_id":"4","last_reported":1774650053,"current_range_meters":9200,"station_id":"ce4bgpp2rcd13ifvqc3g","pricing_plan_id":"cebpf4jnsgd1na2vs0mg"},{"bike_id":"67c1c6e6-4211-4250-be02-a52880e1c23a","system_id":"levelo_inurba_marseille","lat":43.26511,"lon":5.40717,"is_reserved":false,"is_disabled":false,"rental_uris":{"android":"levelo://app?vid=67c1c6e6-4211-4250-be02-a52880e1c23a","ios":"levelo://app?vid=67c1c6e6-4211-4250-be02-a52880e1c23a"},"vehicle_type_id":"4","last_reported":1774650053,"current_range_meters":9200,"station_id":"","pricing_plan_id":"cebpf4jnsgd1na2vs0mg"},{"bike_id":"4f5cf7ef-ddb5-4d25-9c0b-bec33f5f4447","system_id":"levelo_inurba_marseille","lat":43.30953,"lon":5.3685,"is_reserved":false,"is_disabled":false,"rental_uris":{"android":"levelo://app?vid=4f5cf7ef-ddb5-4d25-9c0b-bec33f5f4447","ios":"levelo://app?vid=4f5cf7ef-ddb5-4d25-9c0b-bec33f5f4447"},"vehicle_type_id":"4","last_reported":1774650053,"current_range_meters":9200,"station_id":"","pricing_plan_id":"cebpf4jnsgd1na2vs0mg"},{"bike_id":"01c8f8c8-f2cf-4759-8a7a-5c0d7b034a8b","system_id":"levelo_inurba_marseille","lat":43.27748,"lon":5.4078,"is_reserved":false,"is_disabled":false,"rental_uris":{"android":"levelo://app?vid=01c8f8c8-f2cf-4759-8a7a-5c0d7b034a8b","ios":"levelo://app?vid=01c8f8c8-f2cf-4759-8a7a-5c0d7b034a8b"},"vehicle_type_id":"4","last_reported":1774650053,"current_range_meters":9200,"station_id":"","pricing_plan_id":"cebpf4jnsgd1na2vs0mg"},{"bike_id":"0253ccca-a398-4511-a01b-fb64fd08c0d1","system_id":"levelo_inurba_marseille","lat":43.3119,"lon":5.42378,"is_reserved":false,"is_disabled":false,"rental_uris":{"android":"levelo://app?vid=0253ccca-a398-4511-a01b-fb64fd08c0d1","ios":"levelo://app?vid=0253ccca-a398-4511-a01b-fb64fd08c0d1"},"vehicle_type_id":"4","last_reported":1774650053,"current_range_meters":9600,"station_id":"","pricing_plan_id":"cebpf4jnsgd1na2vs0mg"},{"bike_id":"375d50a7-7c39-4d51-9e08-e80fe2b44af7","system_id":"levelo_inurba_marseille","lat":43.29022,"lon":5.35926,"is_reserved":false,"is_disabled":false,"rental_uris":{"android":"levelo://app?vid=375d50a7-7c39-4d51-9e08-e80fe2b44af7","ios":"levelo://app?vid=375d50a7-7c39-4d51-9e08-e80fe2b44af7"},"vehicle_type_id":"4","last_reported":1774650053,"current_range_meters":9600,"station_id":"ce4bha92rcd13ifvqeg0","pricing_plan_id":"cebpf4jnsgd1na2vs0mg"},{"bike_id":"26110fcd-5405-49c3-aeaa-1c18ae660401","system_id":"levelo_inurba_marseille","lat":43.29275,"lon":5.36848,"is_reserved":false,"is_disabled":false,"rental_uris":{"android":"levelo://app?vid=26110fcd-5405-49c3-aeaa-1c18ae660401","ios":"levelo://app?vid=26110fcd-5405-49c3-aeaa-1c18ae660401"},"vehicle_type_id":"4","last_reported":1774650053,"current_range_meters":9600,"station_id":"ce4bhbp2rcd13ifvqesg","pricing_plan_id":"cebpf4jnsgd1na2vs0mg"},{"bike_id":"92cb4986-12bc-44d4-ad49-496427bf2b45","system_id":"levelo_inurba_marseille","lat":43.28531,"lon":5.44101,"is_reserved":false,"is_disabled":false,"rental_uris":{"android":"levelo://app?vid=92cb4986-12bc-44d4-ad49-496427bf2b45","ios":"levelo://app?vid=92cb4986-12bc-44d4-ad49-496427bf2b45"},"vehicle_type_id":"4","last_reported":1774650053,"current_range_meters":9600,"station_id":"st_d3j3df2ikq2c7380ej80","pricing_plan_id":"cebpf4jnsgd1na2vs0mg"},{"bike_id":"c7c83f45-da08-4a23-976f-f4113f7b7f88","system_id":"levelo_inurba_marseille","lat":43.29845,"lon":5.36269,"is_reserved":false,"is_disabled":false,"rental_uris":{"android":"levelo://app?vid=c7c83f45-da08-4a23-976f-f4113f7b7f88","ios":"levelo://app?vid=c7c83f45-da08-4a23-976f-f4113f7b7f88"},"vehicle_type_id":"4","last_reported":1774650053,"current_range_meters":9600,"station_id":"ce4bgpp2rcd13ifvqc3g","pricing_plan_id":"cebpf4jnsgd1na2vs0mg"},{"bike_id":"6627d87e-d8cc-4315-9870-c98a872f12b5","system_id":"levelo_inurba_marseille","lat":43.24659,"lon":5.3817,"is_reserved":false,"is_disabled":false,"rental_uris":{"android":"levelo://app?vid=6627d87e-d8cc-4315-9870-c98a872f12b5","ios":"levelo://app?vid=6627d87e-d8cc-4315-9870-c98a872f12b5"},"vehicle_type_id":"4","last_reported":1774650053,"current_range_meters":9600,"station_id":"ce4bhih2rcd13ifvqfr0","pricing_plan_id":"cebpf4jnsgd1na2vs0mg"},{"bike_id":"1fce7f1d-4e59-45d5-ad05-440b881821b7","system_id":"levelo_inurba_marseille","lat":43.23763,"lon":5.36646,"is_reserved":false,"is_disabled":false,"rental_uris":{"android":"levelo://app?vid=1fce7f1d-4e59-45d5-ad05-440b881821b7","ios":"levelo://app?vid=1fce7f1d-4e59-45d5-ad05-440b881821b7"},"vehicle_type_id":"4","last_reported":1774650053,"current_range_meters":9600,"station_id":"st_d3nk18o9ro0c73en2l3g","pricing_plan_id":"cebpf4jnsgd1na2vs0mg"},{"bike_id":"b62749c7-352b-4013-a140-b707f8d99550","system_id":"levelo_inurba_marseille","lat":43.31184,"lon":5.36871,"is_reserved":false,"is_disabled":false,"rental_uris":{"android":"levelo://app?vid=b62749c7-352b-4013-a140-b707f8d99550","ios":"levelo://app?vid=b62749c7-352b-4013-a140-b707f8d99550"},"vehicle_type_id":"4","last_reported":1774650053,"current_range_meters":9600,"station_id":"ce4bgl92rcd13ifvqbq0","pricing_plan_id":"cebpf4jnsgd1na2vs0mg"},{"bike_id":"729a6da4-6f27-4d44-8d7d-deea038f283e","system_id":"levelo_inurba_marseille","lat":43.33539,"lon":5.37451,"is_reserved":false,"is_disabled":false,"rental_uris":{"android":"levelo://app?vid=729a6da4-6f27-4d44-8d7d-deea038f283e","ios":"levelo://app?vid=729a6da4-6f27-4d44-8d7d-deea038f283e"},"vehicle_type_id":"4","last_reported":1774650053,"current_range_meters":9600,"station_id":"st_d46tts09ee8s73dlu43g","pricing_plan_id":"cebpf4jnsgd1na2vs0mg"},{"bike_id":"326414e6-66a2-45e9-9aea-2a50dfc22af0","system_id":"levelo_inurba_marseille","lat":43.2863,"lon":5.35107,"is_reserved":false,"is_disabled":false,"rental_uris":{"android":"levelo://app?vid=326414e6-66a2-45e9-9aea-2a50dfc22af0","ios":"levelo://app?vid=326414e6-66a2-45e9-9aea-2a50dfc22af0"},"vehicle_type_id":"4","last_reported":1774650053,"current_range_meters":9600,"station_id":"ce4bhch2rcd13ifvqeug","pricing_plan_id":"cebpf4jnsgd1na2vs0mg"},{"bike_id":"288dad8c-a346-4fdd-ae68-61ddb58d71ae","system_id":"levelo_inurba_marseille","lat":43.29174,"lon":5.42755,"is_reserved":false,"is_disabled":false,"rental_uris":{"android":"levelo://app?vid=288dad8c-a346-4fdd-ae68-61ddb58d71ae","ios":"levelo://app?vid=288dad8c-a346-4fdd-ae68-61ddb58d71ae"},"vehicle_type_id":"4","last_reported":1774650053,"current_range_meters":9600,"station_id":"","pricing_plan_id":"cebpf4jnsgd1na2vs0mg"},{"bike_id":"47de9e47-e309-481f-9211-f31d62fd180c","system_id":"levelo_inurba_marseille","lat":43.31347,"lon":5.3849,"is_reserved":false,"is_disabled":false,"rental_uris":{"android":"levelo://app?vid=47de9e47-e309-481f-9211-f31d62fd180c","ios":"levelo://app?vid=47de9e47-e309-481f-9211-f31d62fd180c"},"vehicle_type_id":"4","last_reported":1774650053,"current_range_meters":9600,"station_id":"ce4bgt92rcd13ifvqcf0","pricing_plan_id":"cebpf4jnsgd1na2vs0mg"},{"bike_id":"fe30153d-83ff-4cb3-bb12-6a6f2a0b5007","system_id":"levelo_inurba_marseille","lat":43.29308,"lon":5.37159,"is_reserved":false,"is_disabled":false,"rental_uris":{"android":"levelo://app?vid=fe30153d-83ff-4cb3-bb12-6a6f2a0b5007","ios":"levelo://app?vid=fe30153d-83ff-4cb3-bb12-6a6f2a0b5007"},"vehicle_type_id":"4","last_reported":1774650053,"current_range_meters":9600,"station_id":"ce4bgh92rcd13ifvqb40","pricing_plan_id":"cebpf4jnsgd1na2vs0mg"},{"bike_id":"073caac0-7818-4f5c-8d2f-2564c47cf9e2","system_id":"levelo_inurba_marseille","lat":43.26689,"lon":5.38265,"is_reserved":false,"is_disabled":false,"rental_uris":{"android":"levelo://app?vid=073caac0-7818-4f5c-8d2f-2564c47cf9e2","ios":"levelo://app?vid=073caac0-7818-4f5c-8d2f-2564c47cf9e2"},"vehicle_type_id":"4","last_reported":1774650053,"current_range_meters":9600,"station_id":"ce4bhg92rcd13ifvqf90","pricing_plan_id":"cebpf4jnsgd1na2vs0mg"},{"bike_id":"4beb37ab-4344-4f07-af80-981cfa09481d","system_id":"levelo_inurba_marseille","lat":43.28158,"lon":5.42648,"is_reserved":false,"is_disabled":false,"rental_uris":{"android":"levelo://app?vid=4beb37ab-4344-4f07-af80-981cfa09481d","ios":"levelo://app?vid=4beb37ab-4344-4f07-af80-981cfa09481d"},"vehicle_type_id":"4","last_reported":1774650053,"current_range_meters":9600,"station_id":"ce4bhnh2rcd13ifvqgug","pricing_plan_id":"cebpf4jnsgd1na2vs0mg"},{"bike_id":"ef3d2908-5f04-46b3-8950-985b7bd33bee","system_id":"levelo_inurba_marseille","lat":43.2861,"lon":5.35133,"is_reserved":false,"is_disabled":false,"rental_uris":{"android":"levelo://app?vid=ef3d2908-5f04-46b3-8950-985b7bd33bee","ios":"levelo://app?vid=ef3d2908-5f04-46b3-8950-985b7bd33bee"},"vehicle_type_id":"4","last_reported":1774650053,"current_range_meters":9600,"station_id":"ce4bhch2rcd13ifvqeug","pricing_plan_id":"cebpf4jnsgd1na2vs0mg"},{"bike_id":"a51719cd-bff5-4505-8df6-378e6bca2ece","system_id":"levelo_inurba_marseille","lat":43.31988,"lon":5.38152,"is_reserved":false,"is_disabled":false,"rental_uris":{"android":"levelo://app?vid=a51719cd-bff5-4505-8df6-378e6bca2ece","ios":"levelo://app?vid=a51719cd-bff5-4505-8df6-378e6bca2ece"},"vehicle_type_id":"4","last_reported":1774650053,"current_range_meters":9600,"station_id":"ce4bhr12rcd13ifvqhpg","pricing_plan_id":"cebpf4jnsgd1na2vs0mg"},{"bike_id":"c5ffcb6e-94c8-46bc-bcbe-82a7f99bb502","system_id":"levelo_inurba_marseille","lat":43.27831,"lon":5.39201,"is_reserved":false,"is_disabled":true,"rental_uris":{"android":"levelo://app?vid=c5ffcb6e-94c8-46bc-bcbe-82a7f99bb502","ios":"levelo://app?vid=c5ffcb6e-94c8-46bc-bcbe-82a7f99bb502"},"vehicle_type_id":"4","last_reported":1774650053,"current_range_meters":10000,"station_id":"ce4bhjp2rcd13ifvqga0","pricing_plan_id":"cebpf4jnsgd1na2vs0mg"},{"bike_id":"cef96090-56f8-4acf-b770-11aba896c332","system_id":"levelo_inurba_marseille","lat":43.30466,"lon":5.37903,"is_reserved":false,"is_disabled":false,"rental_uris":{"android":"levelo://app?vid=cef96090-56f8-4acf-b770-11aba896c332","ios":"levelo://app?vid=cef96090-56f8-4acf-b770-11aba896c332"},"vehicle_type_id":"4","last_reported":1774650053,"current_range_meters":10000,"station_id":"ce4bgup2rcd13ifvqcn0","pricing_plan_id":"cebpf4jnsgd1na2vs0mg"},{"bike_id":"1a5d2ccf-9887-4500-b79e-8f55a30abd37","system_id":"levelo_inurba_marseille","lat":43.29891,"lon":5.36263,"is_reserved":false,"is_disabled":false,"rental_uris":{"android":"levelo://app?vid=1a5d2ccf-9887-4500-b79e-8f55a30abd37","ios":"levelo://app?vid=1a5d2ccf-9887-4500-b79e-8f55a30abd37"},"vehicle_type_id":"4","last_reported":1774650053,"current_range_meters":10000,"station_id":"","pricing_plan_id":"cebpf4jnsgd1na2vs0mg"},{"bike_id":"306ea72f-0880-4ba6-ae84-41ad2b1e4b73","system_id":"levelo_inurba_marseille","lat":43.29626,"lon":5.37168,"is_reserved":false,"is_disabled":false,"rental_uris":{"android":"levelo://app?vid=306ea72f-0880-4ba6-ae84-41ad2b1e4b73","ios":"levelo://app?vid=306ea72f-0880-4ba6-ae84-41ad2b1e4b73"},"vehicle_type_id":"4","last_reported":1774650053,"current_range_meters":10000,"station_id":"ce4bgnh2rcd13ifvqc0g","pricing_plan_id":"cebpf4jnsgd1na2vs0mg"},{"bike_id":"08ec576b-f8b2-4dc3-9428-e6d6eb14420f","system_id":"levelo_inurba_marseille","lat":43.28949,"lon":5.36621,"is_reserved":false,"is_disabled":true,"rental_uris":{"android":"levelo://app?vid=08ec576b-f8b2-4dc3-9428-e6d6eb14420f","ios":"levelo://app?vid=08ec576b-f8b2-4dc3-9428-e6d6eb14420f"},"vehicle_type_id":"4","last_reported":1774650053,"current_range_meters":10000,"station_id":"ce4bhap2rcd13ifvqek0","pricing_plan_id":"cebpf4jnsgd1na2vs0mg"},{"bike_id":"fadd83d2-5a56-4dab-abd3-4fc024887366","system_id":"levelo_inurba_marseille","lat":43.2848,"lon":5.48398,"is_reserved":false,"is_disabled":false,"rental_uris":{"android":"levelo://app?vid=fadd83d2-5a56-4dab-abd3-4fc024887366","ios":"levelo://app?vid=fadd83d2-5a56-4dab-abd3-4fc024887366"},"vehicle_type_id":"4","last_reported":1774650053,"current_range_meters":10000,"station_id":"","pricing_plan_id":"cebpf4jnsgd1na2vs0mg"},{"bike_id":"883dc76f-ea39-4856-ad3f-83646c0ba349","system_id":"levelo_inurba_marseille","lat":43.3029,"lon":5.3778,"is_reserved":false,"is_disabled":false,"rental_uris":{"android":"levelo://app?vid=883dc76f-ea39-4856-ad3f-83646c0ba349","ios":"levelo://app?vid=883dc76f-ea39-4856-ad3f-83646c0ba349"},