{"last_updated":1685120742,"ttl":30,"version":"2.2","data":{"bikes":[{"bike_id":"23291796-9f5f-4606-9185-2d5f487e8b4c","system_id":"levelo_inurba_marseille","lat":43.312239,"lon":5.368562,"is_reserved":false,"is_disabled":false,"rental_uris":{"android":"levelo://app?vid=23291796-9f5f-4606-9185-2d5f487e8b4c","ios":"levelo://app?vid=23291796-9f5f-4606-9185-2d5f487e8b4c"},"vehicle_type_id":"4","last_reported":1685120743,"current_range_meters":4800,"station_id":"ce4bgl92rcd13ifvqbq0","pricing_plan_id":"free"},{"bike_id":"8cd5c6cc-ebe3-411d-8776-5a05a576ee00","system_id":"levelo_inurba_marseille","lat":43.314811,"lon":5.373103,"is_reserved":false,"is_disabled":false,"rental_uris":{"android":"levelo://app?vid=8cd5c6cc-ebe3-411d-8776-5a05a576ee00","ios":"levelo://app?vid=8cd5c6cc-ebe3-411d-8776-5a05a576ee00"},"vehicle_type_id":"4","last_reported":1685120743,"current_range_meters":0,"station_id":"ce4bgt12rcd13ifvqcd0","pricing_plan_id":"free"},{"bike_id":"29a27c2c-dc64-4a13-a453-31e10f6c3142","system_id":"levelo_inurba_marseille","lat":43.314811,"lon":5.373103,"is_reserved":false,"is_disabled":false,"rental_uris":{"android":"levelo://app?vid=29a27c2c-dc64-4a13-a453-31e10f6c3142","ios":"levelo://app?vid=29a27c2c-dc64-4a13-a453-31e10f6c3142"},"vehicle_type_id":"4","last_reported":1685120743,"current_range_meters":2800,"station_id":"ce4bgt12rcd13ifvqcd0","pricing_plan_id":"free"},{"bike_id":"6ab4b008-685b-4c78-92a9-ab98fbcd3286","system_id":"levelo_inurba_marseille","lat":43.30416,"lon":5.36781,"is_reserved":false,"is_disabled":false,"rental_uris":{"android":"levelo://app?vid=6ab4b008-685b-4c78-92a9-ab98fbcd3286","ios":"levelo://app?vid=6ab4b008-685b-4c78-92a9-ab98fbcd3286"},"vehicle_type_id":"4","last_reported":1685120743,"current_range_meters":0,"station_id":"","pricing_plan_id":"free"},{"bike_id":"9228354f-aee1-4f6d-bf9a-8f82b491c6d3","system_id":"levelo_inurba_marseille","lat":43.317075,"lon":5.377367,"is_reserved":false,"is_disabled":false,"rental_uris":{"android":"levelo://app?vid=9228354f-aee1-4f6d-bf9a-8f82b491c6d3","ios":"levelo://app?vid=9228354f-aee1-4f6d-bf9a-8f82b491c6d3"},"vehicle_type_id":"4","last_reported":1685120743,"current_range_meters":14400,"station_id":"ce4bgth2rcd13ifvqch0","pricing_plan_id":"free"},{"bike_id":"f47b8c93-abbd-42bc-9979-f8f6f8e17204","system_id":"levelo_inurba_marseille","lat":43.317075,"lon":5.377367,"is_reserved":false,"is_disabled":false,"rental_uris":{"android":"levelo://app?vid=f47b8c93-abbd-42bc-9979-f8f6f8e17204","ios":"levelo://app?vid=f47b8c93-abbd-42bc-9979-f8f6f8e17204"},"vehicle_type_id":"4","last_reported":1685120743,"current_range_meters":12000,"station_id":"ce4bgth2rcd13ifvqch0","pricing_plan_id":"free"},{"bike_id":"ac50db6e-cb95-4b98-bc2e-0242e9227128","system_id":"levelo_inurba_marseille","lat":43.317075,"lon":5.377367,"is_reserved":false,"is_disabled":false,"rental_uris":{"android":"levelo://app?vid=ac50db6e-cb95-4b98-bc2e-0242e9227128","ios":"levelo://app?vid=ac50db6e-cb95-4b98-bc2e-0242e9227128"},"vehicle_type_id":"4","last_reported":1685120743,"current_range_meters":27200,"station_id":"ce4bgth2rcd13ifvqch0","pricing_plan_id":"free"},{"bike_id":"53b73a03-1ea9-4616-877f-850722ecc6a5","system_id":"levelo_inurba_marseille","lat":43.30357,"lon":5.36509,"is_reserved":false,"is_disabled":false,"rental_uris":{"android":"levelo://app?vid=53b73a03-1ea9-4616-877f-850722ecc6a5","ios":"levelo://app?vid=53b73a03-1ea9-4616-877f-850722ecc6a5"},"vehicle_type_id":"4","last_reported":1685120743,"current_range_meters":15200,"station_id":"","pricing_plan_id":"free"},{"bike_id":"c0b0d062-8275-40cf-8874-7d9d55ab7e88","system_id":"levelo_inurba_marseille","lat":43.31713,"lon":5.37832,"is_reserved":false,"is_disabled":false,"rental_uris":{"android":"levelo://app?vid=c0b0d062-8275-40cf-8874-7d9d55ab7e88","ios":"levelo://app?vid=c0b0d062-8275-40cf-8874-7d9d55ab7e88"},"vehicle_type_id":"4","last_reported":1685120743,"current_range_meters":24000,"station_id":"","pricing_plan_id":"free"},{"bike_id":"93175e56-ccde-4877-b0c8-edb0894bc5bc","system_id":"levelo_inurba_marseille","lat":43.308012,"lon":5.381511,"is_reserved":false,"is_disabled":false,"rental_uris":{"android":"levelo://app?vid=93175e56-ccde-4877-b0c8-edb0894bc5bc","ios":"levelo://app?vid=93175e56-ccde-4877-b0c8-edb0894bc5bc"},"vehicle_type_id":"4","last_reported":1685120743,"current_range_meters":0,"station_id":"ce4bgt12rcd13ifvqce0","pricing_plan_id":"free"},{"bike_id":"d3003d8f-0ac0-4502-bc79-e0e4e6b9e9dc","system_id":"levelo_inurba_marseille","lat":43.30803,"lon":5.38158,"is_reserved":false,"is_disabled":false,"rental_uris":{"android":"levelo://app?vid=d3003d8f-0ac0-4502-bc79-e0e4e6b9e9dc","ios":"levelo://app?vid=d3003d8f-0ac0-4502-bc79-e0e4e6b9e9dc"},"vehicle_type_id":"4","last_reported":1685120743,"current_range_meters":20800,"station_id":"ce4bgt12rcd13ifvqce0","pricing_plan_id":"free"},{"bike_id":"ef865ebb-1db8-49a5-a611-d785e7136fe7","system_id":"levelo_inurba_marseille","lat":43.308012,"lon":5.381511,"is_reserved":false,"is_disabled":false,"rental_uris":{"android":"levelo://app?vid=ef865ebb-1db8-49a5-a611-d785e7136fe7","ios":"levelo://app?vid=ef865ebb-1db8-49a5-a611-d785e7136fe7"},"vehicle_type_id":"4","last_reported":1685120743,"current_range_meters":19600,"station_id":"ce4bgt12rcd13ifvqce0","pricing_plan_id":"free"},{"bike_id":"2a5d7238-8340-41bf-aded-e06eaf6efc29","system_id":"levelo_inurba_marseille","lat":43.308021,"lon":5.381609,"is_reserved":false,"is_disabled":false,"rental_uris":{"android":"levelo://app?vid=2a5d7238-8340-41bf-aded-e06eaf6efc29","ios":"levelo://app?vid=2a5d7238-8340-41bf-aded-e06eaf6efc29"},"vehicle_type_id":"4","last_reported":1685120743,"current_range_meters":2800,"station_id":"","pricing_plan_id":"free"},{"bike_id":"197ca5de-842d-4cd8-9d82-1028d65e47fb","system_id":"levelo_inurba_marseille","lat":43.30145,"lon":5.37414,"is_reserved":false,"is_disabled":false,"rental_uris":{"android":"levelo://app?vid=197ca5de-842d-4cd8-9d82-1028d65e47fb","ios":"levelo://app?vid=197ca5de-842d-4cd8-9d82-1028d65e47fb"},"vehicle_type_id":"4","last_reported":1685120743,"current_range_meters":5600,"station_id":"","pricing_plan_id":"free"},{"bike_id":"9b1f372f-47c0-490e-a875-eb3740a72d12","system_id":"levelo_inurba_marseille","lat":43.30141,"lon":5.37409,"is_reserved":false,"is_disabled":false,"rental_uris":{"android":"levelo://app?vid=9b1f372f-47c0-490e-a875-eb3740a72d12","ios":"levelo://app?vid=9b1f372f-47c0-490e-a875-eb3740a72d12"},"vehicle_type_id":"4","last_reported":1685120743,"current_range_meters":0,"station_id":"","pricing_plan_id":"free"},{"bike_id":"15085faf-94d1-454c-8de1-c9482918e24b","system_id":"levelo_inurba_marseille","lat":43.31992,"lon":5.38151,"is_reserved":false,"is_disabled":false,"rental_uris":{"android":"levelo://app?vid=15085faf-94d1-454c-8de1-c9482918e24b","ios":"levelo://app?vid=15085faf-94d1-454c-8de1-c9482918e24b"},"vehicle_type_id":"4","last_reported":1685120743,"current_range_meters":8000,"station_id":"ce4bhr12rcd13ifvqhpg","pricing_plan_id":"free"},{"bike_id":"e5571f58-adb6-49b7-8c86-2d757ae8e1a0","system_id":"levelo_inurba_marseille","lat":43.319935,"lon":5.381699,"is_reserved":false,"is_disabled":false,"rental_uris":{"android":"levelo://app?vid=e5571f58-adb6-49b7-8c86-2d757ae8e1a0","ios":"levelo://app?vid=e5571f58-adb6-49b7-8c86-2d757ae8e1a0"},"vehicle_type_id":"4","last_reported":1685120743,"current_range_meters":17600,"station_id":"ce4bhr12rcd13ifvqhpg","pricing_plan_id":"free"},{"bike_id":"0d6739ca-c2fe-4c7a-a843-4491068a992b","system_id":"levelo_inurba_marseille","lat":43.31369,"lon":5.38529,"is_reserved":false,"is_disabled":false,"rental_uris":{"android":"levelo://app?vid=0d6739ca-c2fe-4c7a-a843-4491068a992b","ios":"levelo://app?vid=0d6739ca-c2fe-4c7a-a843-4491068a992b"},"vehicle_type_id":"4","last_reported":1685120743,"current_range_meters":23600,"station_id":"","pricing_plan_id":"free"},{"bike_id":"5a180907-7d4a-4797-b079-cdbd47fb2811","system_id":"levelo_inurba_marseille","lat":43.311722,"lon":5.387247,"is_reserved":false,"is_disabled":false,"rental_uris":{"android":"levelo://app?vid=5a180907-7d4a-4797-b079-cdbd47fb2811","ios":"levelo://app?vid=5a180907-7d4a-4797-b079-cdbd47fb2811"},"vehicle_type_id":"4","last_reported":1685120743,"current_range_meters":18000,"station_id":"ce4bgv12rcd13ifvqcp0","pricing_plan_id":"free"},{"bike_id":"429b97c6-a371-4978-8ba9-f3c604051290","system_id":"levelo_inurba_marseille","lat":43.29724,"lon":5.36623,"is_reserved":false,"is_disabled":false,"rental_uris":{"android":"levelo://app?vid=429b97c6-a371-4978-8ba9-f3c604051290","ios":"levelo://app?vid=429b97c6-a371-4978-8ba9-f3c604051290"},"vehicle_type_id":"4","last_reported":1685120743,"current_range_meters":11600,"station_id":"","pricing_plan_id":"free"},{"bike_id":"bbf06f8d-4083-4a31-beff-723604c0f8b8","system_id":"levelo_inurba_marseille","lat":43.32828,"lon":5.36684,"is_reserved":false,"is_disabled":false,"rental_uris":{"android":"levelo://app?vid=bbf06f8d-4083-4a31-beff-723604c0f8b8","ios":"levelo://app?vid=bbf06f8d-4083-4a31-beff-723604c0f8b8"},"vehicle_type_id":"4","last_reported":1685120743,"current_range_meters":0,"station_id":"ce4bhs92rcd13ifvqi0g","pricing_plan_id":"free"},{"bike_id":"15bdd509-ac6b-486d-a3af-74b1c552f2cb","system_id":"levelo_inurba_marseille","lat":43.32832,"lon":5.36688,"is_reserved":false,"is_disabled":false,"rental_uris":{"android":"levelo://app?vid=15bdd509-ac6b-486d-a3af-74b1c552f2cb","ios":"levelo://app?vid=15bdd509-ac6b-486d-a3af-74b1c552f2cb"},"vehicle_type_id":"4","last_reported":1685120743,"current_range_meters":15200,"station_id":"ce4bhs92rcd13ifvqi0g","pricing_plan_id":"free"},{"bike_id":"b5387c8b-1aeb-4c0b-bf7e-29bd1cef36b6","system_id":"levelo_inurba_marseille","lat":43.29715,"lon":5.36616,"is_reserved":false,"is_disabled":false,"rental_uris":{"android":"levelo://app?vid=b5387c8b-1aeb-4c0b-bf7e-29bd1cef36b6","ios":"levelo://app?vid=b5387c8b-1aeb-4c0b-bf7e-29bd1cef36b6"},"vehicle_type_id":"4","last_reported":1685120743,"current_range_meters":19200,"station_id":"","pricing_plan_id":"free"},{"bike_id":"4bd720e4-aec2-484b-bf84-7b6cf8400a43","system_id":"levelo_inurba_marseille","lat":43.29712,"lon":5.36614,"is_reserved":false,"is_disabled":false,"rental_uris":{"android":"levelo://app?vid=4bd720e4-aec2-484b-bf84-7b6cf8400a43","ios":"levelo://app?vid=4bd720e4-aec2-484b-bf84-7b6cf8400a43"},"vehicle_type_id":"4","last_reported":1685120743,"current_range_meters":11200,"station_id":"","pricing_plan_id":"free"},{"bike_id":"fd2f7b4b-349a-4854-83fe-5b667e45995a","system_id":"levelo_inurba_marseille","lat":43.31514,"lon":5.38913,"is_reserved":false,"is_disabled":false,"rental_uris":{"android":"levelo://app?vid=fd2f7b4b-349a-4854-83fe-5b667e45995a","ios":"levelo://app?vid=fd2f7b4b-349a-4854-83fe-5b667e45995a"},"vehicle_type_id":"4","last_reported":1685120743,"current_range_meters":23600,"station_id":"","pricing_plan_id":"free"},{"bike_id":"26ffb7c1-dfff-434c-8734-8723ca682b71","system_id":"levelo_inurba_marseille","lat":43.29609,"lon":5.37022,"is_reserved":false,"is_disabled":false,"rental_uris":{"android":"levelo://app?vid=26ffb7c1-dfff-434c-8734-8723ca682b71","ios":"levelo://app?vid=26ffb7c1-dfff-434c-8734-8723ca682b71"},"vehicle_type_id":"4","last_reported":1685120743,"current_range_meters":18000,"station_id":"","pricing_plan_id":"free"},{"bike_id":"521a2ae4-946b-47bf-ba22-cf10bef5a9f9","system_id":"levelo_inurba_marseille","lat":43.2962,"lon":5.37143,"is_reserved":false,"is_disabled":false,"rental_uris":{"android":"levelo://app?vid=521a2ae4-946b-47bf-ba22-cf10bef5a9f9","ios":"levelo://app?vid=521a2ae4-946b-47bf-ba22-cf10bef5a9f9"},"vehicle_type_id":"4","last_reported":1685120743,"current_range_meters":13600,"station_id":"ce4bgk12rcd13ifvqbj0","pricing_plan_id":"free"},{"bike_id":"f3a23490-a92a-4eda-9113-6f47257f4236","system_id":"levelo_inurba_marseille","lat":43.29621,"lon":5.37156,"is_reserved":false,"is_disabled":false,"rental_uris":{"android":"levelo://app?vid=f3a23490-a92a-4eda-9113-6f47257f4236","ios":"levelo://app?vid=f3a23490-a92a-4eda-9113-6f47257f4236"},"vehicle_type_id":"4","last_reported":1685120743,"current_range_meters":8000,"station_id":"ce4bgk12rcd13ifvqbj0","pricing_plan_id":"free"},{"bike_id":"3abc6d65-a3bc-40e9-9fbb-faafeb0a3e17","system_id":"levelo_inurba_marseille","lat":43.29573,"lon":5.367355,"is_reserved":false,"is_disabled":false,"rental_uris":{"android":"levelo://app?vid=3abc6d65-a3bc-40e9-9fbb-faafeb0a3e17","ios":"levelo://app?vid=3abc6d65-a3bc-40e9-9fbb-faafeb0a3e17"},"vehicle_type_id":"4","last_reported":1685120743,"current_range_meters":6400,"station_id":"ce4bgph2rcd13ifvqc2g","pricing_plan_id":"free"},{"bike_id":"0d800e0c-222c-4680-bc76-36f3790d385d","system_id":"levelo_inurba_marseille","lat":43.295756,"lon":5.367516,"is_reserved":false,"is_disabled":false,"rental_uris":{"android":"levelo://app?vid=0d800e0c-222c-4680-bc76-36f3790d385d","ios":"levelo://app?vid=0d800e0c-222c-4680-bc76-36f3790d385d"},"vehicle_type_id":"4","last_reported":1685120743,"current_range_meters":1600,"station_id":"ce4bgph2rcd13ifvqc2g","pricing_plan_id":"free"},{"bike_id":"20e400d2-b810-43d6-add8-0479ef5c9386","system_id":"levelo_inurba_marseille","lat":43.296935,"lon":5.376544,"is_reserved":false,"is_disabled":false,"rental_uris":{"android":"levelo://app?vid=20e400d2-b810-43d6-add8-0479ef5c9386","ios":"levelo://app?vid=20e400d2-b810-43d6-add8-0479ef5c9386"},"vehicle_type_id":"4","last_reported":1685120743,"current_range_meters":0,"station_id":"ce4bgkh2rcd13ifvqbl0","pricing_plan_id":"free"},{"bike_id":"d198bd91-b0af-45db-9300-8d411b8472b8","system_id":"levelo_inurba_marseille","lat":43.296921,"lon":5.376579,"is_reserved":false,"is_disabled":false,"rental_uris":{"android":"levelo://app?vid=d198bd91-b0af-45db-9300-8d411b8472b8","ios":"levelo://app?vid=d198bd91-b0af-45db-9300-8d411b8472b8"},"vehicle_type_id":"4","last_reported":1685120743,"current_range_meters":1600,"station_id":"ce4bgkh2rcd13ifvqbl0","pricing_plan_id":"free"},{"bike_id":"d7f266a6-ce15-437e-86aa-7112b7a80e12","system_id":"levelo_inurba_marseille","lat":43.309589,"lon":5.390258,"is_reserved":false,"is_disabled":false,"rental_uris":{"android":"levelo://app?vid=d7f266a6-ce15-437e-86aa-7112b7a80e12","ios":"levelo://app?vid=d7f266a6-ce15-437e-86aa-7112b7a80e12"},"vehicle_type_id":"4","last_reported":1685120743,"current_range_meters":0,"station_id":"ce4bgup2rcd13ifvqco0","pricing_plan_id":"free"},{"bike_id":"553d4fb5-0108-44cc-81dd-b6199d991a6b","system_id":"levelo_inurba_marseille","lat":43.30947,"lon":5.39048,"is_reserved":false,"is_disabled":false,"rental_uris":{"android":"levelo://app?vid=553d4fb5-0108-44cc-81dd-b6199d991a6b","ios":"levelo://app?vid=553d4fb5-0108-44cc-81dd-b6199d991a6b"},"vehicle_type_id":"4","last_reported":1685120743,"current_range_meters":13600,"station_id":"ce4bgup2rcd13ifvqco0","pricing_plan_id":"free"},{"bike_id":"db75f371-f9f8-4c04-971e-13217902d6bf","system_id":"levelo_inurba_marseille","lat":43.317557,"lon":5.390173,"is_reserved":false,"is_disabled":false,"rental_uris":{"android":"levelo://app?vid=db75f371-f9f8-4c04-971e-13217902d6bf","ios":"levelo://app?vid=db75f371-f9f8-4c04-971e-13217902d6bf"},"vehicle_type_id":"4","last_reported":1685120743,"current_range_meters":8400,"station_id":"ce4bhqp2rcd13ifvqhng","pricing_plan_id":"free"},{"bike_id":"cf3fb89a-c959-4f23-8f03-a98d306de8af","system_id":"levelo_inurba_marseille","lat":43.317557,"lon":5.390173,"is_reserved":false,"is_disabled":false,"rental_uris":{"android":"levelo://app?vid=cf3fb89a-c959-4f23-8f03-a98d306de8af","ios":"levelo://app?vid=cf3fb89a-c959-4f23-8f03-a98d306de8af"},"vehicle_type_id":"4","last_reported":1685120743,"current_range_meters":6000,"station_id":"ce4bhqp2rcd13ifvqhng","pricing_plan_id":"free"},{"bike_id":"1b161887-1ee1-4d2f-8ca7-e8f9f02e1981","system_id":"levelo_inurba_marseille","lat":43.317557,"lon":5.390173,"is_reserved":false,"is_disabled":false,"rental_uris":{"android":"levelo://app?vid=1b161887-1ee1-4d2f-8ca7-e8f9f02e1981","ios":"levelo://app?vid=1b161887-1ee1-4d2f-8ca7-e8f9f02e1981"},"vehicle_type_id":"4","last_reported":1685120743,"current_range_meters":25600,"station_id":"ce4bhqp2rcd13ifvqhng","pricing_plan_id":"free"},{"bike_id":"962e0b28-afc4-4972-967f-801e16dcacab","system_id":"levelo_inurba_marseille","lat":43.298037,"lon":5.381066,"is_reserved":false,"is_disabled":false,"rental_uris":{"android":"levelo://app?vid=962e0b28-afc4-4972-967f-801e16dcacab","ios":"levelo://app?vid=962e0b28-afc4-4972-967f-801e16dcacab"},"vehicle_type_id":"4","last_reported":1685120743,"current_range_meters":6400,"station_id":"ce4bgip2rcd13ifvqbb0","pricing_plan_id":"free"},{"bike_id":"c1d02e94-2ddf-4eb9-abea-896527541f5b","system_id":"levelo_inurba_marseille","lat":43.298037,"lon":5.381066,"is_reserved":false,"is_disabled":false,"rental_uris":{"android":"levelo://app?vid=c1d02e94-2ddf-4eb9-abea-896527541f5b","ios":"levelo://app?vid=c1d02e94-2ddf-4eb9-abea-896527541f5b"},"vehicle_type_id":"4","last_reported":1685120743,"current_range_meters":10400,"station_id":"ce4bgip2rcd13ifvqbb0","pricing_plan_id":"free"},{"bike_id":"124386eb-e85b-4c2f-aa7b-7d74aab428c8","system_id":"levelo_inurba_marseille","lat":43.304274,"lon":5.388873,"is_reserved":false,"is_disabled":false,"rental_uris":{"android":"levelo://app?vid=124386eb-e85b-4c2f-aa7b-7d74aab428c8","ios":"levelo://app?vid=124386eb-e85b-4c2f-aa7b-7d74aab428c8"},"vehicle_type_id":"4","last_reported":1685120743,"current_range_meters":0,"station_id":"ce4bgk12rcd13ifvqbi0","pricing_plan_id":"free"},{"bike_id":"522f1eee-eeda-4aba-81fb-62b928ccd081","system_id":"levelo_inurba_marseille","lat":43.295279,"lon":5.375048,"is_reserved":false,"is_disabled":false,"rental_uris":{"android":"levelo://app?vid=522f1eee-eeda-4aba-81fb-62b928ccd081","ios":"levelo://app?vid=522f1eee-eeda-4aba-81fb-62b928ccd081"},"vehicle_type_id":"4","last_reported":1685120743,"current_range_meters":400,"station_id":"ce4bgkp2rcd13ifvqbmg","pricing_plan_id":"free"},{"bike_id":"eed2a5c3-b7a9-4e70-afb0-a14bce38c674","system_id":"levelo_inurba_marseille","lat":43.299717,"lon":5.384845,"is_reserved":false,"is_disabled":false,"rental_uris":{"android":"levelo://app?vid=eed2a5c3-b7a9-4e70-afb0-a14bce38c674","ios":"levelo://app?vid=eed2a5c3-b7a9-4e70-afb0-a14bce38c674"},"vehicle_type_id":"4","last_reported":1685120743,"current_range_meters":0,"station_id":"ce4bgj92rcd13ifvqbd0","pricing_plan_id":"free"},{"bike_id":"d64deef9-deae-4f2a-967c-6f7b817e3af1","system_id":"levelo_inurba_marseille","lat":43.295279,"lon":5.375048,"is_reserved":false,"is_disabled":false,"rental_uris":{"android":"levelo://app?vid=d64deef9-deae-4f2a-967c-6f7b817e3af1","ios":"levelo://app?vid=d64deef9-deae-4f2a-967c-6f7b817e3af1"},"vehicle_type_id":"4","last_reported":1685120743,"current_range_meters":0,"station_id":"ce4bgkp2rcd13ifvqbmg","pricing_plan_id":"free"},{"bike_id":"94b6a356-6f4d-4e40-9ccb-997891993e14","system_id":"levelo_inurba_marseille","lat":43.29602,"lon":5.381084,"is_reserved":false,"is_disabled":false,"rental_uris":{"android":"levelo://app?vid=94b6a356-6f4d-4e40-9ccb-997891993e14","ios":"levelo://app?vid=94b6a356-6f4d-4e40-9ccb-997891993e14"},"vehicle_type_id":"4","last_reported":1685120743,"current_range_meters":13600,"station_id":"ce4bgl12rcd13ifvqbo0","pricing_plan_id":"free"},{"bike_id":"80ec01f4-e4be-4a69-9fc5-d043d0e987e4","system_id":"levelo_inurba_marseille","lat":43.293249,"lon":5.371578,"is_reserved":false,"is_disabled":false,"rental_uris":{"android":"levelo://app?vid=80ec01f4-e4be-4a69-9fc5-d043d0e987e4","ios":"levelo://app?vid=80ec01f4-e4be-4a69-9fc5-d043d0e987e4"},"vehicle_type_id":"4","last_reported":1685120743,"current_range_meters":17600,"station_id":"ce4bgh92rcd13ifvqb40","pricing_plan_id":"free"},{"bike_id":"bb4a1d95-36ad-419d-892c-7a6550b7361e","system_id":"levelo_inurba_marseille","lat":43.292749,"lon":5.368402,"is_reserved":false,"is_disabled":false,"rental_uris":{"android":"levelo://app?vid=bb4a1d95-36ad-419d-892c-7a6550b7361e","ios":"levelo://app?vid=bb4a1d95-36ad-419d-892c-7a6550b7361e"},"vehicle_type_id":"4","last_reported":1685120743,"current_range_meters":6800,"station_id":"ce4bhbp2rcd13ifvqesg","pricing_plan_id":"free"},{"bike_id":"9de4571e-9912-461c-aad7-12552de8c650","system_id":"levelo_inurba_marseille","lat":43.292749,"lon":5.368398,"is_reserved":false,"is_disabled":false,"rental_uris":{"android":"levelo://app?vid=9de4571e-9912-461c-aad7-12552de8c650","ios":"levelo://app?vid=9de4571e-9912-461c-aad7-12552de8c650"},"vehicle_type_id":"4","last_reported":1685120743,"current_range_meters":1200,"station_id":"ce4bhbp2rcd13ifvqesg","pricing_plan_id":"free"},{"bike_id":"fca5753b-5a27-4456-980a-eb7407891038","system_id":"levelo_inurba_marseille","lat":43.293249,"lon":5.371578,"is_reserved":false,"is_disabled":false,"rental_uris":{"android":"levelo://app?vid=fca5753b-5a27-4456-980a-eb7407891038","ios":"levelo://app?vid=fca5753b-5a27-4456-980a-eb7407891038"},"vehicle_type_id":"4","last_reported":1685120743,"current_range_meters":30400,"station_id":"ce4bgh92rcd13ifvqb40","pricing_plan_id":"free"},{"bike_id":"0fb513c0-9ff9-4de7-bc7c-48477ab72ba8","system_id":"levelo_inurba_marseille","lat":43.293009,"lon":5.374584,"is_reserved":false,"is_disabled":false,"rental_uris":{"android":"levelo://app?vid=0fb513c0-9ff9-4de7-bc7c-48477ab72ba8","ios":"levelo://app?vid=0fb513c0-9ff9-4de7-bc7c-48477ab72ba8"},"vehicle_type_id":"4","last_reported":1685120743,"current_range_meters":0,"station_id":"ce4bgi12rcd13ifvqb70","pricing_plan_id":"free"},{"bike_id":"6c48d4f0-d1ba-4798-bedb-f979c32f354d","system_id":"levelo_inurba_marseille","lat":43.305994,"lon":5.393687,"is_reserved":false,"is_disabled":false,"rental_uris":{"android":"levelo://app?vid=6c48d4f0-d1ba-4798-bedb-f979c32f354d","ios":"levelo://app?vid=6c48d4f0-d1ba-4798-bedb-f979c32f354d"},"vehicle_type_id":"4","last_reported":1685120743,"current_range_meters":0,"station_id":"ce4bh0p2rcd13ifvqd80","pricing_plan_id":"free"},{"bike_id":"a97a4598-4ac2-4b26-9ad9-d788897a4fa6","system_id":"levelo_inurba_marseille","lat":43.29219,"lon":5.3605,"is_reserved":false,"is_disabled":false,"rental_uris":{"android":"levelo://app?vid=a97a4598-4ac2-4b26-9ad9-d788897a4fa6","ios":"levelo://app?vid=a97a4598-4ac2-4b26-9ad9-d788897a4fa6"},"vehicle_type_id":"4","last_reported":1685120743,"current_range_meters":8800,"station_id":"ce4bhbh2rcd13ifvqeqg","pricing_plan_id":"free"},{"bike_id":"a1ebe611-4991-4f00-be4e-670747694d10","system_id":"levelo_inurba_marseille","lat":43.31327,"lon":5.3969,"is_reserved":false,"is_disabled":false,"rental_uris":{"android":"levelo://app?vid=a1ebe611-4991-4f00-be4e-670747694d10","ios":"levelo://app?vid=a1ebe611-4991-4f00-be4e-670747694d10"},"vehicle_type_id":"4","last_reported":1685120743,"current_range_meters":0,"station_id":"ce4bgvp2rcd13ifvqcu0","pricing_plan_id":"free"},{"bike_id":"a34e2e60-8776-4033-859d-984648b1bbf4","system_id":"levelo_inurba_marseille","lat":43.31328,"lon":5.39697,"is_reserved":false,"is_disabled":false,"rental_uris":{"android":"levelo://app?vid=a34e2e60-8776-4033-859d-984648b1bbf4","ios":"levelo://app?vid=a34e2e60-8776-4033-859d-984648b1bbf4"},"vehicle_type_id":"4","last_reported":1685120743,"current_range_meters":16400,"station_id":"ce4bgvp2rcd13ifvqcu0","pricing_plan_id":"free"},{"bike_id":"d46cabf5-cf5a-4114-8cc4-2e840763815a","system_id":"levelo_inurba_marseille","lat":43.29529,"lon":5.385581,"is_reserved":false,"is_disabled":false,"rental_uris":{"android":"levelo://app?vid=d46cabf5-cf5a-4114-8cc4-2e840763815a","ios":"levelo://app?vid=d46cabf5-cf5a-4114-8cc4-2e840763815a"},"vehicle_type_id":"4","last_reported":1685120743,"current_range_meters":0,"station_id":"ce4bgih2rcd13ifvqba0","pricing_plan_id":"free"},{"bike_id":"c1ee1fd1-1a31-47b1-ab34-571b51645f22","system_id":"levelo_inurba_marseille","lat":43.29529,"lon":5.385581,"is_reserved":false,"is_disabled":false,"rental_uris":{"android":"levelo://app?vid=c1ee1fd1-1a31-47b1-ab34-571b51645f22","ios":"levelo://app?vid=c1ee1fd1-1a31-47b1-ab34-571b51645f22"},"vehicle_type_id":"4","last_reported":1685120743,"current_range_meters":5200,"station_id":"ce4bgih2rcd13ifvqba0","pricing_plan_id":"free"},{"bike_id":"324b0aad-14c2-4149-b836-b9dc826b8461","system_id":"levelo_inurba_marseille","lat":43.29529,"lon":5.385581,"is_reserved":false,"is_disabled":false,"rental_uris":{"android":"levelo://app?vid=324b0aad-14c2-4149-b836-b9dc826b8461","ios":"levelo://app?vid=324b0aad-14c2-4149-b836-b9dc826b8461"},"vehicle_type_id":"4","last_reported":1685120743,"current_range_meters":16400,"station_id":"ce4bgih2rcd13ifvqba0","pricing_plan_id":"free"},{"bike_id":"72f2b6bf-ef72-4220-bc43-0ff0f012ccc1","system_id":"levelo_inurba_marseille","lat":43.290631,"lon":5.359244,"is_reserved":false,"is_disabled":false,"rental_uris":{"android":"levelo://app?vid=72f2b6bf-ef72-4220-bc43-0ff0f012ccc1","ios":"levelo://app?vid=72f2b6bf-ef72-4220-bc43-0ff0f012ccc1"},"vehicle_type_id":"4","last_reported":1685120743,"current_range_meters":5600,"station_id":"ce4bha92rcd13ifvqeg0","pricing_plan_id":"free"},{"bike_id":"c033c05d-1e4a-407e-aacf-18130cd501cf","system_id":"levelo_inurba_marseille","lat":43.290624,"lon":5.359245,"is_reserved":false,"is_disabled":false,"rental_uris":{"android":"levelo://app?vid=c033c05d-1e4a-407e-aacf-18130cd501cf","ios":"levelo://app?vid=c033c05d-1e4a-407e-aacf-18130cd501cf"},"vehicle_type_id":"4","last_reported":1685120743,"current_range_meters":31200,"station_id":"ce4bha92rcd13ifvqeg0","pricing_plan_id":"free"},{"bike_id":"9bf113dd-dc1f-4011-a0ab-b4d3828f587d","system_id":"levelo_inurba_marseille","lat":43.290631,"lon":5.359244,"is_reserved":false,"is_disabled":false,"rental_uris":{"android":"levelo://app?vid=9bf113dd-dc1f-4011-a0ab-b4d3828f587d","ios":"levelo://app?vid=9bf113dd-dc1f-4011-a0ab-b4d3828f587d"},"vehicle_type_id":"4","last_reported":1685120743,"current_range_meters":30800,"station_id":"ce4bha92rcd13ifvqeg0","pricing_plan_id":"free"},{"bike_id":"ec6f36c2-8501-4cd2-8962-6985c5567185","system_id":"levelo_inurba_marseille","lat":43.290631,"lon":5.359244,"is_reserved":false,"is_disabled":false,"rental_uris":{"android":"levelo://app?vid=ec6f36c2-8501-4cd2-8962-6985c5567185","ios":"levelo://app?vid=ec6f36c2-8501-4cd2-8962-6985c5567185"},"vehicle_type_id":"4","last_reported":1685120743,"current_range_meters":30400,"station_id":"ce4bha92rcd13ifvqeg0","pricing_plan_id":"free"},{"bike_id":"a03f7848-6478-4b69-97fa-968071de092f","system_id":"levelo_inurba_marseille","lat":43.290624,"lon":5.359245,"is_reserved":false,"is_disabled":false,"rental_uris":{"android":"levelo://app?vid=a03f7848-6478-4b69-97fa-968071de092f","ios":"levelo://app?vid=a03f7848-6478-4b69-97fa-968071de092f"},"vehicle_type_id":"4","last_reported":1685120743,"current_range_meters":17600,"station_id":"ce4bha92rcd13ifvqeg0","pricing_plan_id":"free"},{"bike_id":"6eba2008-6ddf-4013-956b-745eb263786a","system_id":"levelo_inurba_marseille","lat":43.290624,"lon":5.359245,"is_reserved":false,"is_disabled":false,"rental_uris":{"android":"levelo://app?vid=6eba2008-6ddf-4013-956b-745eb263786a","ios":"levelo://app?vid=6eba2008-6ddf-4013-956b-745eb263786a"},"vehicle_type_id":"4","last_reported":1685120743,"current_range_meters":21600,"station_id":"ce4bha92rcd13ifvqeg0","pricing_plan_id":"free"},{"bike_id":"b12dd0fe-fb2e-4171-8ee6-b7e374e94ebb","system_id":"levelo_inurba_marseille","lat":43.290624,"lon":5.359245,"is_reserved":false,"is_disabled":false,"rental_uris":{"android":"levelo://app?vid=b12dd0fe-fb2e-4171-8ee6-b7e374e94ebb","ios":"levelo://app?vid=b12dd0fe-fb2e-4171-8ee6-b7e374e94ebb"},"vehicle_type_id":"4","last_reported":1685120743,"current_range_meters":26400,"station_id":"ce4bha92rcd13ifvqeg0","pricing_plan_id":"free"},{"bike_id":"5e3f83b7-3a0a-4eaf-998e-eb24cc519c8c","system_id":"levelo_inurba_marseille","lat":43.290624,"lon":5.359245,"is_reserved":false,"is_disabled":false,"rental_uris":{"android":"levelo://app?vid=5e3f83b7-3a0a-4eaf-998e-eb24cc519c8c","ios":"levelo://app?vid=5e3f83b7-3a0a-4eaf-998e-eb24cc519c8c"},"vehicle_type_id":"4","last_reported":1685120743,"current_range_meters":31200,"station_id":"ce4bha92rcd13ifvqeg0","pricing_plan_id":"free"},{"bike_id":"f0c36112-3377-4804-9245-afa71be64fff","system_id":"levelo_inurba_marseille","lat":43.290624,"lon":5.359245,"is_reserved":false,"is_disabled":false,"rental_uris":{"android":"levelo://app?vid=f0c36112-3377-4804-9245-afa71be64fff","ios":"levelo://app?vid=f0c36112-3377-4804-9245-afa71be64fff"},"vehicle_type_id":"4","last_reported":1685120743,"current_range_meters":31200,"station_id":"ce4bha92rcd13ifvqeg0","pricing_plan_id":"free"},{"bike_id":"afd5576f-4600-4c61-88c1-b42b2d90b1a6","system_id":"levelo_inurba_marseille","lat":43.290319,"lon":5.375732,"is_reserved":false,"is_disabled":false,"rental_uris":{"android":"levelo://app?vid=afd5576f-4600-4c61-88c1-b42b2d90b1a6","ios":"levelo://app?vid=afd5576f-4600-4c61-88c1-b42b2d90b1a6"},"vehicle_type_id":"4","last_reported":1685120743,"current_range_meters":23200,"station_id":"ce4bh692rcd13ifvqe90","pricing_plan_id":"free"},{"bike_id":"1b10adde-04e4-47b0-9c3b-744e65c5847c","system_id":"levelo_inurba_marseille","lat":43.289468,"lon":5.363719,"is_reserved":false,"is_disabled":false,"rental_uris":{"android":"levelo://app?vid=1b10adde-04e4-47b0-9c3b-744e65c5847c","ios":"levelo://app?vid=1b10adde-04e4-47b0-9c3b-744e65c5847c"},"vehicle_type_id":"4","last_reported":1685120743,"current_range_meters":0,"station_id":"ce4bhc92rcd13ifvqetg","pricing_plan_id":"free"},{"bike_id":"78d37d87-648b-4203-9fd1-fa6b111f2373","system_id":"levelo_inurba_marseille","lat":43.290319,"lon":5.375732,"is_reserved":false,"is_disabled":false,"rental_uris":{"android":"levelo://app?vid=78d37d87-648b-4203-9fd1-fa6b111f2373","ios":"levelo://app?vid=78d37d87-648b-4203-9fd1-fa6b111f2373"},"vehicle_type_id":"4","last_reported":1685120743,"current_range_meters":24800,"station_id":"ce4bh692rcd13ifvqe90","pricing_plan_id":"free"},{"bike_id":"b076d192-2e7b-4af1-963a-6b6bce74f39b","system_id":"levelo_inurba_marseille","lat":43.28941,"lon":5.36644,"is_reserved":false,"is_disabled":false,"rental_uris":{"android":"levelo://app?vid=b076d192-2e7b-4af1-963a-6b6bce74f39b","ios":"levelo://app?vid=b076d192-2e7b-4af1-963a-6b6bce74f39b"},"vehicle_type_id":"4","last_reported":1685120743,"current_range_meters":28800,"station_id":"ce4bhap2rcd13ifvqek0","pricing_plan_id":"free"},{"bike_id":"78d2af42-f270-4fab-b98f-1af0253b7c33","system_id":"levelo_inurba_marseille","lat":43.289184,"lon":5.366408,"is_reserved":false,"is_disabled":false,"rental_uris":{"android":"levelo://app?vid=78d2af42-f270-4fab-b98f-1af0253b7c33","ios":"levelo://app?vid=78d2af42-f270-4fab-b98f-1af0253b7c33"},"vehicle_type_id":"4","last_reported":1685120743,"current_range_meters":25200,"station_id":"ce4bhap2rcd13ifvqek0","pricing_plan_id":"free"},{"bike_id":"ef26608b-97ff-4f53-bebe-c7bf265dda90","system_id":"levelo_inurba_marseille","lat":43.289184,"lon":5.366408,"is_reserved":false,"is_disabled":false,"rental_uris":{"android":"levelo://app?vid=ef26608b-97ff-4f53-bebe-c7bf265dda90","ios":"levelo://app?vid=ef26608b-97ff-4f53-bebe-c7bf265dda90"},"vehicle_type_id":"4","last_reported":1685120743,"current_range_meters":2800,"station_id":"ce4bhap2rcd13ifvqek0","pricing_plan_id":"free"},{"bike_id":"529bea0f-c3ce-413f-9e74-757d51efb449","system_id":"levelo_inurba_marseille","lat":43.28931,"lon":5.36641,"is_reserved":false,"is_disabled":false,"rental_uris":{"android":"levelo://app?vid=529bea0f-c3ce-413f-9e74-757d51efb449","ios":"levelo://app?vid=529bea0f-c3ce-413f-9e74-757d51efb449"},"vehicle_type_id":"4","last_reported":1685120743,"current_range_meters":28400,"station_id":"ce4bhap2rcd13ifvqek0","pricing_plan_id":"free"},{"bike_id":"6b6aad88-b76d-4bd9-a41e-79301328fd3f","system_id":"levelo_inurba_marseille","lat":43.292642,"lon":5.384254,"is_reserved":false,"is_disabled":false,"rental_uris":{"android":"levelo://app?vid=6b6aad88-b76d-4bd9-a41e-79301328fd3f","ios":"levelo://app?vid=6b6aad88-b76d-4bd9-a41e-79301328fd3f"},"vehicle_type_id":"4","last_reported":1685120743,"current_range_meters":11200,"station_id":"ce4bh692rcd13ifvqea0","pricing_plan_id":"free"},{"bike_id":"6c3f141f-fc78-41d7-bb2c-b8fe5e797891","system_id":"levelo_inurba_marseille","lat":43.292642,"lon":5.384254,"is_reserved":false,"is_disabled":false,"rental_uris":{"android":"levelo://app?vid=6c3f141f-fc78-41d7-bb2c-b8fe5e797891","ios":"levelo://app?vid=6c3f141f-fc78-41d7-bb2c-b8fe5e797891"},"vehicle_type_id":"4","last_reported":1685120743,"current_range_meters":21200,"station_id":"ce4bh692rcd13ifvqea0","pricing_plan_id":"free"},{"bike_id":"8172b5ac-a3ef-4a5e-878e-299f6bc72a71","system_id":"levelo_inurba_marseille","lat":43.292644,"lon":5.384257,"is_reserved":false,"is_disabled":false,"rental_uris":{"android":"levelo://app?vid=8172b5ac-a3ef-4a5e-878e-299f6bc72a71","ios":"levelo://app?vid=8172b5ac-a3ef-4a5e-878e-299f6bc72a71"},"vehicle_type_id":"4","last_reported":1685120743,"current_range_meters":14000,"station_id":"ce4bh692rcd13ifvqea0","pricing_plan_id":"free"},{"bike_id":"55739341-ec08-4244-ab57-bd0af174a939","system_id":"levelo_inurba_marseille","lat":43.292642,"lon":5.384254,"is_reserved":false,"is_disabled":false,"rental_uris":{"android":"levelo://app?vid=55739341-ec08-4244-ab57-bd0af174a939","ios":"levelo://app?vid=55739341-ec08-4244-ab57-bd0af174a939"},"vehicle_type_id":"4","last_reported":1685120743,"current_range_meters":23200,"station_id":"ce4bh692rcd13ifvqea0","pricing_plan_id":"free"},{"bike_id":"d71909b3-7211-49d7-a1c5-0395682b297e","system_id":"levelo_inurba_marseille","lat":43.290103,"lon":5.356114,"is_reserved":false,"is_disabled":false,"rental_uris":{"android":"levelo://app?vid=d71909b3-7211-49d7-a1c5-0395682b297e","ios":"levelo://app?vid=d71909b3-7211-49d7-a1c5-0395682b297e"},"vehicle_type_id":"4","last_reported":1685120743,"current_range_meters":14000,"station_id":"ce4bhb92rcd13ifvqen0","pricing_plan_id":"free"},{"bike_id":"093fbd57-4dc9-48ca-bf63-6371a87e3be1","system_id":"levelo_inurba_marseille","lat":43.290995,"lon":5.381361,"is_reserved":false,"is_disabled":false,"rental_uris":{"android":"levelo://app?vid=093fbd57-4dc9-48ca-bf63-6371a87e3be1","ios":"levelo://app?vid=093fbd57-4dc9-48ca-bf63-6371a87e3be1"},"vehicle_type_id":"4","last_reported":1685120743,"current_range_meters":0,"station_id":"ce4bh512rcd13ifvqe2g","pricing_plan_id":"free"},{"bike_id":"04272fa3-31e7-4654-8b9f-5bba6a33eafa","system_id":"levelo_inurba_marseille","lat":43.290995,"lon":5.381361,"is_reserved":false,"is_disabled":false,"rental_uris":{"android":"levelo://app?vid=04272fa3-31e7-4654-8b9f-5bba6a33eafa","ios":"levelo://app?vid=04272fa3-31e7-4654-8b9f-5bba6a33eafa"},"vehicle_type_id":"4","last_reported":1685120743,"current_range_meters":22400,"station_id":"ce4bh512rcd13ifvqe2g","pricing_plan_id":"free"},{"bike_id":"21e5979d-1464-4cf4-b954-e32aeb86489d","system_id":"levelo_inurba_marseille","lat":43.290995,"lon":5.381361,"is_reserved":false,"is_disabled":false,"rental_uris":{"android":"levelo://app?vid=21e5979d-1464-4cf4-b954-e32aeb86489d","ios":"levelo://app?vid=21e5979d-1464-4cf4-b954-e32aeb86489d"},"vehicle_type_id":"4","last_reported":1685120743,"current_range_meters":3200,"station_id":"ce4bh512rcd13ifvqe2g","pricing_plan_id":"free"},{"bike_id":"0d24aa67-07a0-4297-8043-7512bd0e98fe","system_id":"levelo_inurba_marseille","lat":43.28987,"lon":5.37834,"is_reserved":false,"is_disabled":false,"rental_uris":{"android":"levelo://app?vid=0d24aa67-07a0-4297-8043-7512bd0e98fe","ios":"levelo://app?vid=0d24aa67-07a0-4297-8043-7512bd0e98fe"},"vehicle_type_id":"4","last_reported":1685120743,"current_range_meters":12400,"station_id":"ce4bh9p2rcd13ifvqed0","pricing_plan_id":"free"},{"bike_id":"9f8f12c0-a171-40e1-a3f7-03f0e6db4144","system_id":"levelo_inurba_marseille","lat":43.29792,"lon":5.39347,"is_reserved":false,"is_disabled":false,"rental_uris":{"android":"levelo://app?vid=9f8f12c0-a171-40e1-a3f7-03f0e6db4144","ios":"levelo://app?vid=9f8f12c0-a171-40e1-a3f7-03f0e6db4144"},"vehicle_type_id":"4","last_reported":1685120743,"current_range_meters":18400,"station_id":"chh1huq6cuj3fo74tm60","pricing_plan_id":"free"},{"bike_id":"aebb5327-7f3d-4a6d-be59-827076c27574","system_id":"levelo_inurba_marseille","lat":43.297814,"lon":5.393513,"is_reserved":false,"is_disabled":false,"rental_uris":{"android":"levelo://app?vid=aebb5327-7f3d-4a6d-be59-827076c27574","ios":"levelo://app?vid=aebb5327-7f3d-4a6d-be59-827076c27574"},"vehicle_type_id":"4","last_reported":1685120743,"current_range_meters":8800,"station_id":"chh1huq6cuj3fo74tm60","pricing_plan_id":"free"},{"bike_id":"1a5da44c-c71b-4b8b-b70f-b04a1b3c84b6","system_id":"levelo_inurba_marseille","lat":43.28862,"lon":5.35858,"is_reserved":false,"is_disabled":false,"rental_uris":{"android":"levelo://app?vid=1a5da44c-c71b-4b8b-b70f-b04a1b3c84b6","ios":"levelo://app?vid=1a5da44c-c71b-4b8b-b70f-b04a1b3c84b6"},"vehicle_type_id":"4","last_reported":1685120743,"current_range_meters":800,"station_id":"ce4bhb12rcd13ifvqem0","pricing_plan_id":"free"},{"bike_id":"3e778d6f-d5e0-42f5-a630-3738b44cb8c8","system_id":"levelo_inurba_marseille","lat":43.28856,"lon":5.358371,"is_reserved":false,"is_disabled":false,"rental_uris":{"android":"levelo://app?vid=3e778d6f-d5e0-42f5-a630-3738b44cb8c8","ios":"levelo://app?vid=3e778d6f-d5e0-42f5-a630-3738b44cb8c8"},"vehicle_type_id":"4","last_reported":1685120743,"current_range_meters":0,"station_id":"ce4bhb12rcd13ifvqem0","pricing_plan_id":"free"},{"bike_id":"e6963db5-5e37-4f14-93d3-cf284599739d","system_id":"levelo_inurba_marseille","lat":43.28856,"lon":5.358371,"is_reserved":false,"is_disabled":false,"rental_uris":{"android":"levelo://app?vid=e6963db5-5e37-4f14-93d3-cf284599739d","ios":"levelo://app?vid=e6963db5-5e37-4f14-93d3-cf284599739d"},"vehicle_type_id":"4","last_reported":1685120743,"current_range_meters":10000,"station_id":"ce4bhb12rcd13ifvqem0","pricing_plan_id":"free"},{"bike_id":"5f2fd431-6834-4ad5-b2ff-472291448586","system_id":"levelo_inurba_marseille","lat":43.28856,"lon":5.358371,"is_reserved":false,"is_disabled":false,"rental_uris":{"android":"levelo://app?vid=5f2fd431-6834-4ad5-b2ff-472291448586","ios":"levelo://app?vid=5f2fd431-6834-4ad5-b2ff-472291448586"},"vehicle_type_id":"4","last_reported":1685120743,"current_range_meters":14800,"station_id":"ce4bhb12rcd13ifvqem0","pricing_plan_id":"free"},{"bike_id":"24ec94ef-1fc1-41b4-8b33-0d6c86de6300","system_id":"levelo_inurba_marseille","lat":43.288,"lon":5.37344,"is_reserved":false,"is_disabled":false,"rental_uris":{"android":"levelo://app?vid=24ec94ef-1fc1-41b4-8b33-0d6c86de6300","ios":"levelo://app?vid=24ec94ef-1fc1-41b4-8b33-0d6c86de6300"},"vehicle_type_id":"4","last_reported":1685120743,"current_range_meters":16400,"station_id":"","pricing_plan_id":"free"},{"bike_id":"141c14ea-594b-43ee-894e-8c44af1dcd73","system_id":"levelo_inurba_marseille","lat":43.3375,"lon":5.37455,"is_reserved":false,"is_disabled":false,"rental_uris":{"android":"levelo://app?vid=141c14ea-594b-43ee-894e-8c44af1dcd73","ios":"levelo://app?vid=141c14ea-594b-43ee-894e-8c44af1dcd73"},"vehicle_type_id":"4","last_reported":1685120743,"current_range_meters":15200,"station_id":"","pricing_plan_id":"free"},{"bike_id":"02362672-78e1-4667-9a77-d71f91f94365","system_id":"levelo_inurba_marseille","lat":43.33752,"lon":5.37444,"is_reserved":false,"is_disabled":false,"rental_uris":{"android":"levelo://app?vid=02362672-78e1-4667-9a77-d71f91f94365","ios":"levelo://app?vid=02362672-78e1-4667-9a77-d71f91f94365"},"vehicle_type_id":"4","last_reported":1685120743,"current_range_meters":19600,"station_id":"","pricing_plan_id":"free"},{"bike_id":"556c6db1-2600-4c2b-9521-aae8453517c1","system_id":"levelo_inurba_marseille","lat":43.33759,"lon":5.37452,"is_reserved":false,"is_disabled":false,"rental_uris":{"android":"levelo://app?vid=556c6db1-2600-4c2b-9521-aae8453517c1","ios":"levelo://app?vid=556c6db1-2600-4c2b-9521-aae8453517c1"},"vehicle_type_id":"4","last_reported":1685120743,"current_range_meters":21200,"station_id":"","pricing_plan_id":"free"},{"bike_id":"1490fad1-fe90-4399-a2f2-79545cf03a2b","system_id":"levelo_inurba_marseille","lat":43.337578,"lon":5.374791,"is_reserved":false,"is_disabled":false,"rental_uris":{"android":"levelo://app?vid=1490fad1-fe90-4399-a2f2-79545cf03a2b","ios":"levelo://app?vid=1490fad1-fe90-4399-a2f2-79545cf03a2b"},"vehicle_type_id":"4","last_reported":1685120743,"current_range_meters":30800,"station_id":"","pricing_plan_id":"free"},{"bike_id":"0f915385-1fd5-4f54-896c-f56a11a31d3d","system_id":"levelo_inurba_marseille","lat":43.33764,"lon":5.37442,"is_reserved":false,"is_disabled":false,"rental_uris":{"android":"levelo://app?vid=0f915385-1fd5-4f54-896c-f56a11a31d3d","ios":"levelo://app?vid=0f915385-1fd5-4f54-896c-f56a11a31d3d"},"vehicle_type_id":"4","last_reported":1685120743,"current_range_meters":22400,"station_id":"","pricing_plan_id":"free"},{"bike_id":"2fd76e26-3ab5-4489-a141-029ef0a6366a","system_id":"levelo_inurba_marseille","lat":43.28897,"lon":5.35407,"is_reserved":false,"is_disabled":false,"rental_uris":{"android":"levelo://app?vid=2fd76e26-3ab5-4489-a141-029ef0a6366a","ios":"levelo://app?vid=2fd76e26-3ab5-4489-a141-029ef0a6366a"},"vehicle_type_id":"4","last_reported":1685120743,"current_range_meters":6400,"station_id":"","pricing_plan_id":"free"},{"bike_id":"5bd96745-9a19-4fe7-b597-4db9cabdc957","system_id":"levelo_inurba_marseille","lat":43.33774,"lon":5.37422,"is_reserved":false,"is_disabled":false,"rental_uris":{"android":"levelo://app?vid=5bd96745-9a19-4fe7-b597-4db9cabdc957","ios":"levelo://app?vid=5bd96745-9a19-4fe7-b597-4db9cabdc957"},"vehicle_type_id":"4","last_reported":1685120743,"current_range_meters":28800,"station_id":"","pricing_plan_id":"free"},{"bike_id":"eb8ac404-8a95-4fc7-819a-ea19315069af","system_id":"levelo_inurba_marseille","lat":43.3378,"lon":5.37425,"is_reserved":false,"is_disabled":false,"rental_uris":{"android":"levelo://app?vid=eb8ac404-8a95-4fc7-819a-ea19315069af","ios":"levelo://app?vid=eb8ac404-8a95-4fc7-819a-ea19315069af"},"vehicle_type_id":"4","last_reported":1685120743,"current_range_meters":27200,"station_id":"","pricing_plan_id":"free"},{"bike_id":"48269111-ef86-433a-a772-15cbef54685e","system_id":"levelo_inurba_marseille","lat":43.30642,"lon":5.401031,"is_reserved":false,"is_disabled":false,"rental_uris":{"android":"levelo://app?vid=48269111-ef86-433a-a772-15cbef54685e","ios":"levelo://app?vid=48269111-ef86-433a-a772-15cbef54685e"},"vehicle_type_id":"4","last_reported":1685120743,"current_range_meters":0,"station_id":"ce4bh112rcd13ifvqda0","pricing_plan_id":"free"},{"bike_id":"219fb941-5708-4747-97db-6b102401a3e9","system_id":"levelo_inurba_marseille","lat":43.298681,"lon":5.397225,"is_reserved":false,"is_disabled":false,"rental_uris":{"android":"levelo://app?vid=219fb941-5708-4747-97db-6b102401a3e9","ios":"levelo://app?vid=219fb941-5708-4747-97db-6b102401a3e9"},"vehicle_type_id":"4","last_reported":1685120743,"current_range_meters":0,"station_id":"ce4bh0h2rcd13ifvqd50","pricing_plan_id":"free"},{"bike_id":"db4283fb-b320-4f1b-afa2-933c0a7f6f99","system_id":"levelo_inurba_marseille","lat":43.286593,"lon":5.363346,"is_reserved":false,"is_disabled":false,"rental_uris":{"android":"levelo://app?vid=db4283fb-b320-4f1b-afa2-933c0a7f6f99","ios":"levelo://app?vid=db4283fb-b320-4f1b-afa2-933c0a7f6f99"},"vehicle_type_id":"4","last_reported":1685120743,"current_range_meters":26400,"station_id":"ce4bhah2rcd13ifvqej0","pricing_plan_id":"free"},{"bike_id":"64893adf-cc98-46d0-ae75-45a689f54095","system_id":"levelo_inurba_marseille","lat":43.295194,"lon":5.39397,"is_reserved":false,"is_disabled":false,"rental_uris":{"android":"levelo://app?vid=64893adf-cc98-46d0-ae75-45a689f54095","ios":"levelo://app?vid=64893adf-cc98-46d0-ae75-45a689f54095"},"vehicle_type_id":"4","last_reported":1685120743,"current_range_meters":3200,"station_id":"ce4bh292rcd13ifvqdf0","pricing_plan_id":"free"},{"bike_id":"9acfc62b-aca0-47da-9dab-bc8055a5f614","system_id":"levelo_inurba_marseille","lat":43.290345,"lon":5.38646,"is_reserved":false,"is_disabled":false,"rental_uris":{"android":"levelo://app?vid=9acfc62b-aca0-47da-9dab-bc8055a5f614","ios":"levelo://app?vid=9acfc62b-aca0-47da-9dab-bc8055a5f614"},"vehicle_type_id":"4","last_reported":1685120743,"current_range_meters":30800,"station_id":"ce4bh4p2rcd13ifvqe0g","pricing_plan_id":"free"},{"bike_id":"c90037cd-a76f-4d3e-8909-e4e10cbd2318","system_id":"levelo_inurba_marseille","lat":43.30242,"lon":5.40056,"is_reserved":false,"is_disabled":false,"rental_uris":{"android":"levelo://app?vid=c90037cd-a76f-4d3e-8909-e4e10cbd2318","ios":"levelo://app?vid=c90037cd-a76f-4d3e-8909-e4e10cbd2318"},"vehicle_type_id":"4","last_reported":1685120743,"current_range_meters":3600,"station_id":"","pricing_plan_id":"free"},{"bike_id":"1b6c9cae-4883-49af-b06b-0d0e9fc5e57f","system_id":"levelo_inurba_marseille","lat":43.286039,"lon":5.370679,"is_reserved":false,"is_disabled":false,"rental_uris":{"android":"levelo://app?vid=1b6c9cae-4883-49af-b06b-0d0e9fc5e57f","ios":"levelo://app?vid=1b6c9cae-4883-49af-b06b-0d0e9fc5e57f"},"vehicle_type_id":"4","last_reported":1685120743,"current_range_meters":16800,"station_id":"ce4bht12rcd13ifvqi60","pricing_plan_id":"free"},{"bike_id":"222ae689-abf1-425d-a5fd-1f522e010012","system_id":"levelo_inurba_marseille","lat":43.286039,"lon":5.370679,"is_reserved":false,"is_disabled":false,"rental_uris":{"android":"levelo://app?vid=222ae689-abf1-425d-a5fd-1f522e010012","ios":"levelo://app?vid=222ae689-abf1-425d-a5fd-1f522e010012"},"vehicle_type_id":"4","last_reported":1685120743,"current_range_meters":24400,"station_id":"ce4bht12rcd13ifvqi60","pricing_plan_id":"free"},{"bike_id":"943c3d1c-5b20-4612-96e9-53171b36fbf4","system_id":"levelo_inurba_marseille","lat":43.286039,"lon":5.370679,"is_reserved":false,"is_disabled":false,"rental_uris":{"android":"levelo://app?vid=943c3d1c-5b20-4612-96e9-53171b36fbf4","ios":"levelo://app?vid=943c3d1c-5b20-4612-96e9-53171b36fbf4"},"vehicle_type_id":"4","last_reported":1685120743,"current_range_meters":30800,"station_id":"ce4bht12rcd13ifvqi60","pricing_plan_id":"free"},{"bike_id":"a04dcd87-72ba-4593-a420-06567a44c885","system_id":"levelo_inurba_marseille","lat":43.2862,"lon":5.35109,"is_reserved":false,"is_disabled":false,"rental_uris":{"android":"levelo://app?vid=a04dcd87-72ba-4593-a420-06567a44c885","ios":"levelo://app?vid=a04dcd87-72ba-4593-a420-06567a44c885"},"vehicle_type_id":"4","last_reported":1685120743,"current_range_meters":31200,"station_id":"","pricing_plan_id":"free"},{"bike_id":"91540ab3-7919-422e-bc33-5a6d98e697cc","system_id":"levelo_inurba_marseille","lat":43.285856,"lon":5.350771,"is_reserved":false,"is_disabled":false,"rental_uris":{"android":"levelo://app?vid=91540ab3-7919-422e-bc33-5a6d98e697cc","ios":"levelo://app?vid=91540ab3-7919-422e-bc33-5a6d98e697cc"},"vehicle_type_id":"4","last_reported":1685120743,"current_range_meters":31200,"station_id":"ce4bhch2rcd13ifvqeug","pricing_plan_id":"free"},{"bike_id":"49dd9f92-f8a3-4d92-9c0f-2b3426bd267a","system_id":"levelo_inurba_marseille","lat":43.2862,"lon":5.35105,"is_reserved":false,"is_disabled":false,"rental_uris":{"android":"levelo://app?vid=49dd9f92-f8a3-4d92-9c0f-2b3426bd267a","ios":"levelo://app?vid=49dd9f92-f8a3-4d92-9c0f-2b3426bd267a"},"vehicle_type_id":"4","last_reported":1685120743,"current_range_meters":16800,"station_id":"","pricing_plan_id":"free"},{"bike_id":"c4809f32-f549-46a2-aef7-d5149773d7bc","system_id":"levelo_inurba_marseille","lat":43.285856,"lon":5.350771,"is_reserved":false,"is_disabled":false,"rental_uris":{"android":"levelo://app?vid=c4809f32-f549-46a2-aef7-d5149773d7bc","ios":"levelo://app?vid=c4809f32-f549-46a2-aef7-d5149773d7bc"},"vehicle_type_id":"4","last_reported":1685120743,"current_range_meters":31200,"station_id":"ce4bhch2rcd13ifvqeug","pricing_plan_id":"free"},{"bike_id":"7cc869a3-a3c3-44e7-ae73-0b10ccda392e","system_id":"levelo_inurba_marseille","lat":43.2862,"lon":5.35101,"is_reserved":false,"is_disabled":false,"rental_uris":{"android":"levelo://app?vid=7cc869a3-a3c3-44e7-ae73-0b10ccda392e","ios":"levelo://app?vid=7cc869a3-a3c3-44e7-ae73-0b10ccda392e"},"vehicle_type_id":"4","last_reported":1685120743,"current_range_meters":31600,"station_id":"","pricing_plan_id":"free"},{"bike_id":"dde81dba-b77d-4e14-be61-33b62c0ecb22","system_id":"levelo_inurba_marseille","lat":43.28619,"lon":5.35104,"is_reserved":false,"is_disabled":false,"rental_uris":{"android":"levelo://app?vid=dde81dba-b77d-4e14-be61-33b62c0ecb22","ios":"levelo://app?vid=dde81dba-b77d-4e14-be61-33b62c0ecb22"},"vehicle_type_id":"4","last_reported":1685120743,"current_range_meters":18800,"station_id":"","pricing_plan_id":"free"},{"bike_id":"2dd45bb0-ee1f-463f-9e48-66391d38cbb5","system_id":"levelo_inurba_marseille","lat":43.28617,"lon":5.35109,"is_reserved":false,"is_disabled":false,"rental_uris":{"android":"levelo://app?vid=2dd45bb0-ee1f-463f-9e48-66391d38cbb5","ios":"levelo://app?vid=2dd45bb0-ee1f-463f-9e48-66391d38cbb5"},"vehicle_type_id":"4","last_reported":1685120743,"current_range_meters":31200,"station_id":"","pricing_plan_id":"free"},{"bike_id":"c9a31cd1-a39c-4f3c-82fa-e0ac4a3c5268","system_id":"levelo_inurba_marseille","lat":43.28619,"lon":5.35102,"is_reserved":false,"is_disabled":false,"rental_uris":{"android":"levelo://app?vid=c9a31cd1-a39c-4f3c-82fa-e0ac4a3c5268","ios":"levelo://app?vid=c9a31cd1-a39c-4f3c-82fa-e0ac4a3c5268"},"vehicle_type_id":"4","last_reported":1685120743,"current_range_meters":15200,"station_id":"","pricing_plan_id":"free"},{"bike_id":"c4d26c57-7abb-4084-be07-03a29a84f7b7","system_id":"levelo_inurba_marseille","lat":43.28618,"lon":5.35102,"is_reserved":false,"is_disabled":false,"rental_uris":{"android":"levelo://app?vid=c4d26c57-7abb-4084-be07-03a29a84f7b7","ios":"levelo://app?vid=c4d26c57-7abb-4084-be07-03a29a84f7b7"},"vehicle_type_id":"4","last_reported":1685120743,"current_range_meters":31200,"station_id":"","pricing_plan_id":"free"},{"bike_id":"18a291a1-3aec-4fa1-a48d-1805f14dd9ab","system_id":"levelo_inurba_marseille","lat":43.28617,"lon":5.35104,"is_reserved":false,"is_disabled":false,"rental_uris":{"android":"levelo://app?vid=18a291a1-3aec-4fa1-a48d-1805f14dd9ab","ios":"levelo://app?vid=18a291a1-3aec-4fa1-a48d-1805f14dd9ab"},"vehicle_type_id":"4","last_reported":1685120743,"current_range_meters":12000,"station_id":"","pricing_plan_id":"free"},{"bike_id":"1b2581a6-040b-42c7-a612-d54fc7ad4347","system_id":"levelo_inurba_marseille","lat":43.28617,"lon":5.35104,"is_reserved":false,"is_disabled":false,"rental_uris":{"android":"levelo://app?vid=1b2581a6-040b-42c7-a612-d54fc7ad4347","ios":"levelo://app?vid=1b2581a6-040b-42c7-a612-d54fc7ad4347"},"vehicle_type_id":"4","last_reported":1685120743,"current_range_meters":31200,"station_id":"","pricing_plan_id":"free"},{"bike_id":"a9cbc5b8-60aa-4ac8-970c-30335748fffd","system_id":"levelo_inurba_marseille","lat":43.28615,"lon":5.3511,"is_reserved":false,"is_disabled":false,"rental_uris":{"android":"levelo://app?vid=a9cbc5b8-60aa-4ac8-970c-30335748fffd","ios":"levelo://app?vid=a9cbc5b8-60aa-4ac8-970c-30335748fffd"},"vehicle_type_id":"4","last_reported":1685120743,"current_range_meters":18800,"station_id":"","pricing_plan_id":"free"},{"bike_id":"f869904a-024a-40de-82df-96b2be6c425b","system_id":"levelo_inurba_marseille","lat":43.28616,"lon":5.35104,"is_reserved":false,"is_disabled":false,"rental_uris":{"android":"levelo://app?vid=f869904a-024a-40de-82df-96b2be6c425b","ios":"levelo://app?vid=f869904a-024a-40de-82df-96b2be6c425b"},"vehicle_type_id":"4","last_reported":1685120743,"current_range_meters":18800,"station_id":"","pricing_plan_id":"free"},{"bike_id":"8615e419-6141-4061-abad-4dcc3df9f42f","system_id":"levelo_inurba_marseille","lat":43.28616,"lon":5.35096,"is_reserved":false,"is_disabled":false,"rental_uris":{"android":"levelo://app?vid=8615e419-6141-4061-abad-4dcc3df9f42f","ios":"levelo://app?vid=8615e419-6141-4061-abad-4dcc3df9f42f"},"vehicle_type_id":"4","last_reported":1685120743,"current_range_meters":20000,"station_id":"","pricing_plan_id":"free"},{"bike_id":"7efd88ed-ad34-44f9-871f-4b929b363fec","system_id":"levelo_inurba_marseille","lat":43.295713,"lon":5.399639,"is_reserved":false,"is_disabled":false,"rental_uris":{"android":"levelo://app?vid=7efd88ed-ad34-44f9-871f-4b929b363fec","ios":"levelo://app?vid=7efd88ed-ad34-44f9-871f-4b929b363fec"},"vehicle_type_id":"4","last_reported":1685120743,"current_range_meters":30000,"station_id":"ce4bh312rcd13ifvqdj0","pricing_plan_id":"free"},{"bike_id":"ff123f9e-7d87-43c4-818f-e5d117af1969","system_id":"levelo_inurba_marseille","lat":43.295733,"lon":5.399759,"is_reserved":false,"is_disabled":false,"rental_uris":{"android":"levelo://app?vid=ff123f9e-7d87-43c4-818f-e5d117af1969","ios":"levelo://app?vid=ff123f9e-7d87-43c4-818f-e5d117af1969"},"vehicle_type_id":"4","last_reported":1685120743,"current_range_meters":30000,"station_id":"ce4bh312rcd13ifvqdj0","pricing_plan_id":"free"},{"bike_id":"c007ab15-2401-4cc0-84a5-123e9c07e364","system_id":"levelo_inurba_marseille","lat":43.295713,"lon":5.399639,"is_reserved":false,"is_disabled":false,"rental_uris":{"android":"levelo://app?vid=c007ab15-2401-4cc0-84a5-123e9c07e364","ios":"levelo://app?vid=c007ab15-2401-4cc0-84a5-123e9c07e364"},"vehicle_type_id":"4","last_reported":1685120743,"current_range_meters":16000,"station_id":"ce4bh312rcd13ifvqdj0","pricing_plan_id":"free"},{"bike_id":"cbf99e7d-82cd-4a1a-874c-34d599481b6b","system_id":"levelo_inurba_marseille","lat":43.286595,"lon":5.386795,"is_reserved":false,"is_disabled":false,"rental_uris":{"android":"levelo://app?vid=cbf99e7d-82cd-4a1a-874c-34d599481b6b","ios":"levelo://app?vid=cbf99e7d-82cd-4a1a-874c-34d599481b6b"},"vehicle_type_id":"4","last_reported":1685120743,"current_range_meters":1200,"station_id":"ce4bh492rcd13ifvqdug","pricing_plan_id":"free"},{"bike_id":"a6364635-7d37-478e-8cc5-900de8bab724","system_id":"levelo_inurba_marseille","lat":43.286595,"lon":5.386795,"is_reserved":false,"is_disabled":false,"rental_uris":{"android":"levelo://app?vid=a6364635-7d37-478e-8cc5-900de8bab724","ios":"levelo://app?vid=a6364635-7d37-478e-8cc5-900de8bab724"},"vehicle_type_id":"4","last_reported":1685120743,"current_range_meters":17200,"station_id":"ce4bh492rcd13ifvqdug","pricing_plan_id":"free"},{"bike_id":"8233b1fc-cd93-4fa3-8a96-9704b82265f5","system_id":"levelo_inurba_marseille","lat":43.32345,"lon":5.40612,"is_reserved":false,"is_disabled":false,"rental_uris":{"android":"levelo://app?vid=8233b1fc-cd93-4fa3-8a96-9704b82265f5","ios":"levelo://app?vid=8233b1fc-cd93-4fa3-8a96-9704b82265f5"},"vehicle_type_id":"4","last_reported":1685120743,"current_range_meters":10400,"station_id":"ce4bhq92rcd13ifvqhjg","pricing_plan_id":"free"},{"bike_id":"5371bbd7-c92f-4fd0-bddb-eca2c7cd5808","system_id":"levelo_inurba_marseille","lat":43.323464,"lon":5.406297,"is_reserved":false,"is_disabled":false,"rental_uris":{"android":"levelo://app?vid=5371bbd7-c92f-4fd0-bddb-eca2c7cd5808","ios":"levelo://app?vid=5371bbd7-c92f-4fd0-bddb-eca2c7cd5808"},"vehicle_type_id":"4","last_reported":1685120743,"current_range_meters":31200,"station_id":"ce4bhq92rcd13ifvqhjg","pricing_plan_id":"free"},{"bike_id":"d5fd31a8-b7a4-48f5-9751-f4ba7b16e78e","system_id":"levelo_inurba_marseille","lat":43.323464,"lon":5.406297,"is_reserved":false,"is_disabled":false,"rental_uris":{"android":"levelo://app?vid=d5fd31a8-b7a4-48f5-9751-f4ba7b16e78e","ios":"levelo://app?vid=d5fd31a8-b7a4-48f5-9751-f4ba7b16e78e"},"vehicle_type_id":"4","last_reported":1685120743,"current_range_meters":31200,"station_id":"ce4bhq92rcd13ifvqhjg","pricing_plan_id":"free"},{"bike_id":"8a020ae7-a135-40f5-a875-00dfaa32e0ce","system_id":"levelo_inurba_marseille","lat":43.323464,"lon":5.406297,"is_reserved":false,"is_disabled":false,"rental_uris":{"android":"levelo://app?vid=8a020ae7-a135-40f5-a875-00dfaa32e0ce","ios":"levelo://app?vid=8a020ae7-a135-40f5-a875-00dfaa32e0ce"},"vehicle_type_id":"4","last_reported":1685120743,"current_range_meters":24400,"station_id":"ce4bhq92rcd13ifvqhjg","pricing_plan_id":"free"},{"bike_id":"e28a274d-67f0-472b-8b39-da84563c923e","system_id":"levelo_inurba_marseille","lat":43.323464,"lon":5.406297,"is_reserved":false,"is_disabled":false,"rental_uris":{"android":"levelo://app?vid=e28a274d-67f0-472b-8b39-da84563c923e","ios":"levelo://app?vid=e28a274d-67f0-472b-8b39-da84563c923e"},"vehicle_type_id":"4","last_reported":1685120743,"current_range_meters":30400,"station_id":"ce4bhq92rcd13ifvqhjg","pricing_plan_id":"free"},{"bike_id":"3a7ccd86-66f0-47bb-8a37-a3c19fcd9694","system_id":"levelo_inurba_marseille","lat":43.28413,"lon":5.3498,"is_reserved":false,"is_disabled":false,"rental_uris":{"android":"levelo://app?vid=3a7ccd86-66f0-47bb-8a37-a3c19fcd9694","ios":"levelo://app?vid=3a7ccd86-66f0-47bb-8a37-a3c19fcd9694"},"vehicle_type_id":"4","last_reported":1685120743,"current_range_meters":3600,"station_id":"ce4bhbh2rcd13ifvqepg","pricing_plan_id":"free"},{"bike_id":"0f5f2363-820f-4acc-b805-006bef492e76","system_id":"levelo_inurba_marseille","lat":43.289363,"lon":5.396322,"is_reserved":false,"is_disabled":false,"rental_uris":{"android":"levelo://app?vid=0f5f2363-820f-4acc-b805-006bef492e76","ios":"levelo://app?vid=0f5f2363-820f-4acc-b805-006bef492e76"},"vehicle_type_id":"4","last_reported":1685120743,"current_range_meters":7600,"station_id":"ce4bh3h2rcd13ifvqdn0","pricing_plan_id":"free"},{"bike_id":"c4fe44fc-6bf8-46f2-86ea-c7e3d5779d21","system_id":"levelo_inurba_marseille","lat":43.28271,"lon":5.35077,"is_reserved":false,"is_disabled":false,"rental_uris":{"android":"levelo://app?vid=c4fe44fc-6bf8-46f2-86ea-c7e3d5779d21","ios":"levelo://app?vid=c4fe44fc-6bf8-46f2-86ea-c7e3d5779d21"},"vehicle_type_id":"4","last_reported":1685120743,"current_range_meters":21600,"station_id":"ce4bhbp2rcd13ifvqerg","pricing_plan_id":"free"},{"bike_id":"abdda640-50a9-439d-825c-b9ad28699c83","system_id":"levelo_inurba_marseille","lat":43.282754,"lon":5.350519,"is_reserved":false,"is_disabled":false,"rental_uris":{"android":"levelo://app?vid=abdda640-50a9-439d-825c-b9ad28699c83","ios":"levelo://app?vid=abdda640-50a9-439d-825c-b9ad28699c83"},"vehicle_type_id":"4","last_reported":1685120743,"current_range_meters":13200,"station_id":"ce4bhbp2rcd13ifvqerg","pricing_plan_id":"free"},{"bike_id":"943e0713-d5c1-48c1-a5ee-5e09e54d4780","system_id":"levelo_inurba_marseille","lat":43.280382,"lon":5.369291,"is_reserved":false,"is_disabled":false,"rental_uris":{"android":"levelo://app?vid=943e0713-d5c1-48c1-a5ee-5e09e54d4780","ios":"levelo://app?vid=943e0713-d5c1-48c1-a5ee-5e09e54d4780"},"vehicle_type_id":"4","last_reported":1685120743,"current_range_meters":24800,"station_id":"ce4bha12rcd13ifvqef0","pricing_plan_id":"free"},{"bike_id":"4d86ce40-e406-44d0-9e2e-59dcfae65e59","system_id":"levelo_inurba_marseille","lat":43.29041,"lon":5.39947,"is_reserved":false,"is_disabled":false,"rental_uris":{"android":"levelo://app?vid=4d86ce40-e406-44d0-9e2e-59dcfae65e59","ios":"levelo://app?vid=4d86ce40-e406-44d0-9e2e-59dcfae65e59"},"vehicle_type_id":"4","last_reported":1685120743,"current_range_meters":0,"station_id":"ce4bh392rcd13ifvqdm0","pricing_plan_id":"free"},{"bike_id":"11860358-8499-4bf2-aec0-8d6d23623831","system_id":"levelo_inurba_marseille","lat":43.28101,"lon":5.3785,"is_reserved":false,"is_disabled":false,"rental_uris":{"android":"levelo://app?vid=11860358-8499-4bf2-aec0-8d6d23623831","ios":"levelo://app?vid=11860358-8499-4bf2-aec0-8d6d23623831"},"vehicle_type_id":"4","last_reported":1685120743,"current_range_meters":17200,"station_id":"ce4bha12rcd13ifvqee0","pricing_plan_id":"free"},{"bike_id":"f433ae1d-3899-4370-a1aa-4618f43a6b7c","system_id":"levelo_inurba_marseille","lat":43.284462,"lon":5.392121,"is_reserved":false,"is_disabled":false,"rental_uris":{"android":"levelo://app?vid=f433ae1d-3899-4370-a1aa-4618f43a6b7c","ios":"levelo://app?vid=f433ae1d-3899-4370-a1aa-4618f43a6b7c"},"vehicle_type_id":"4","last_reported":1685120743,"current_range_meters":2000,"station_id":"ce4bhoh2rcd13ifvqh5g","pricing_plan_id":"free"},{"bike_id":"ad88fcd3-956f-42d9-a194-5f1edc012a31","system_id":"levelo_inurba_marseille","lat":43.284462,"lon":5.392121,"is_reserved":false,"is_disabled":false,"rental_uris":{"android":"levelo://app?vid=ad88fcd3-956f-42d9-a194-5f1edc012a31","ios":"levelo://app?vid=ad88fcd3-956f-42d9-a194-5f1edc012a31"},"vehicle_type_id":"4","last_reported":1685120743,"current_range_meters":19200,"station_id":"ce4bhoh2rcd13ifvqh5g","pricing_plan_id":"free"},{"bike_id":"0cc49499-4dcf-47a8-9c9d-4081092a3133","system_id":"levelo_inurba_marseille","lat":43.284462,"lon":5.392121,"is_reserved":false,"is_disabled":false,"rental_uris":{"android":"levelo://app?vid=0cc49499-4dcf-47a8-9c9d-4081092a3133","ios":"levelo://app?vid=0cc49499-4dcf-47a8-9c9d-4081092a3133"},"vehicle_type_id":"4","last_reported":1685120743,"current_range_meters":5200,"station_id":"ce4bhoh2rcd13ifvqh5g","pricing_plan_id":"free"},{"bike_id":"36af7135-10da-4244-8f33-503117b7342a","system_id":"levelo_inurba_marseille","lat":43.284462,"lon":5.392121,"is_reserved":false,"is_disabled":false,"rental_uris":{"android":"levelo://app?vid=36af7135-10da-4244-8f33-503117b7342a","ios":"levelo://app?vid=36af7135-10da-4244-8f33-503117b7342a"},"vehicle_type_id":"4","last_reported":1685120743,"current_range_meters":20800,"station_id":"ce4bhoh2rcd13ifvqh5g","pricing_plan_id":"free"},{"bike_id":"ac3963b2-be8c-498c-ae2f-09e027148ade","system_id":"levelo_inurba_marseille","lat":43.287061,"lon":5.399911,"is_reserved":false,"is_disabled":false,"rental_uris":{"android":"levelo://app?vid=ac3963b2-be8c-498c-ae2f-09e027148ade","ios":"levelo://app?vid=ac3963b2-be8c-498c-ae2f-09e027148ade"},"vehicle_type_id":"4","last_reported":1685120743,"current_range_meters":8000,"station_id":"","pricing_plan_id":"free"},{"bike_id":"1996d821-6791-46d7-8e1f-c0b854d06eb2","system_id":"levelo_inurba_marseille","lat":43.292571,"lon":5.409107,"is_reserved":false,"is_disabled":false,"rental_uris":{"android":"levelo://app?vid=1996d821-6791-46d7-8e1f-c0b854d06eb2","ios":"levelo://app?vid=1996d821-6791-46d7-8e1f-c0b854d06eb2"},"vehicle_type_id":"4","last_reported":1685120743,"current_range_meters":8400,"station_id":"ce4bh192rcd13ifvqdc0","pricing_plan_id":"free"},{"bike_id":"a7e98f3d-c46a-421b-a328-c63ac95a69d5","system_id":"levelo_inurba_marseille","lat":43.27625,"lon":5.36108,"is_reserved":false,"is_disabled":false,"rental_uris":{"android":"levelo://app?vid=a7e98f3d-c46a-421b-a328-c63ac95a69d5","ios":"levelo://app?vid=a7e98f3d-c46a-421b-a328-c63ac95a69d5"},"vehicle_type_id":"4","last_reported":1685120743,"current_range_meters":16800,"station_id":"ce4bgj92rcd13ifvqbe0","pricing_plan_id":"free"},{"bike_id":"3431fe54-3b84-4e03-86d8-c36c04f86fe0","system_id":"levelo_inurba_marseille","lat":43.292571,"lon":5.409107,"is_reserved":false,"is_disabled":false,"rental_uris":{"android":"levelo://app?vid=3431fe54-3b84-4e03-86d8-c36c04f86fe0","ios":"levelo://app?vid=3431fe54-3b84-4e03-86d8-c36c04f86fe0"},"vehicle_type_id":"4","last_reported":1685120743,"current_range_meters":4400,"station_id":"ce4bh192rcd13ifvqdc0","pricing_plan_id":"free"},{"bike_id":"d1f312c3-311c-4966-9273-71c5fb2c3c46","system_id":"levelo_inurba_marseille","lat":43.27623,"lon":5.36109,"is_reserved":false,"is_disabled":false,"rental_uris":{"android":"levelo://app?vid=d1f312c3-311c-4966-9273-71c5fb2c3c46","ios":"levelo://app?vid=d1f312c3-311c-4966-9273-71c5fb2c3c46"},"vehicle_type_id":"4","last_reported":1685120743,"current_range_meters":16800,"station_id":"ce4bgj92rcd13ifvqbe0","pricing_plan_id":"free"},{"bike_id":"05c05819-5f51-4868-88bf-77387236156d","system_id":"levelo_inurba_marseille","lat":43.2762,"lon":5.36109,"is_reserved":false,"is_disabled":false,"rental_uris":{"android":"levelo://app?vid=05c05819-5f51-4868-88bf-77387236156d","ios":"levelo://app?vid=05c05819-5f51-4868-88bf-77387236156d"},"vehicle_type_id":"4","last_reported":1685120743,"current_range_meters":10800,"station_id":"ce4bgj92rcd13ifvqbe0","pricing_plan_id":"free"},{"bike_id":"36f9f30b-9bab-43de-88bd-2162e7c23f25","system_id":"levelo_inurba_marseille","lat":43.27618,"lon":5.36114,"is_reserved":false,"is_disabled":false,"rental_uris":{"android":"levelo://app?vid=36f9f30b-9bab-43de-88bd-2162e7c23f25","ios":"levelo://app?vid=36f9f30b-9bab-43de-88bd-2162e7c23f25"},"vehicle_type_id":"4","last_reported":1685120743,"current_range_meters":2400,"station_id":"ce4bgj92rcd13ifvqbe0","pricing_plan_id":"free"},{"bike_id":"7dd2be40-d869-41db-93e9-a5ee8dc8df03","system_id":"levelo_inurba_marseille","lat":43.276179,"lon":5.361009,"is_reserved":false,"is_disabled":false,"rental_uris":{"android":"levelo://app?vid=7dd2be40-d869-41db-93e9-a5ee8dc8df03","ios":"levelo://app?vid=7dd2be40-d869-41db-93e9-a5ee8dc8df03"},"vehicle_type_id":"4","last_reported":1685120743,"current_range_meters":6400,"station_id":"ce4bgj92rcd13ifvqbe0","pricing_plan_id":"free"},{"bike_id":"4cf9740b-2e0c-4b0d-ba48-21964d517d06","system_id":"levelo_inurba_marseille","lat":43.276179,"lon":5.361009,"is_reserved":false,"is_disabled":false,"rental_uris":{"android":"levelo://app?vid=4cf9740b-2e0c-4b0d-ba48-21964d517d06","ios":"levelo://app?vid=4cf9740b-2e0c-4b0d-ba48-21964d517d06"},"vehicle_type_id":"4","last_reported":1685120743,"current_range_meters":18000,"station_id":"ce4bgj92rcd13ifvqbe0","pricing_plan_id":"free"},{"bike_id":"ad6b83e6-7f66-4445-aa95-aa3f95583fe8","system_id":"levelo_inurba_marseille","lat":43.27615,"lon":5.36109,"is_reserved":false,"is_disabled":false,"rental_uris":{"android":"levelo://app?vid=ad6b83e6-7f66-4445-aa95-aa3f95583fe8","ios":"levelo://app?vid=ad6b83e6-7f66-4445-aa95-aa3f95583fe8"},"vehicle_type_id":"4","last_reported":1685120743,"current_range_meters":0,"station_id":"ce4bgj92rcd13ifvqbe0","pricing_plan_id":"free"},{"bike_id":"713aae44-19a1-4eea-9336-8c6d11084a47","system_id":"levelo_inurba_marseille","lat":43.27613,"lon":5.36112,"is_reserved":false,"is_disabled":false,"rental_uris":{"android":"levelo://app?vid=713aae44-19a1-4eea-9336-8c6d11084a47","ios":"levelo://app?vid=713aae44-19a1-4eea-9336-8c6d11084a47"},"vehicle_type_id":"4","last_reported":1685120743,"current_range_meters":8000,"station_id":"ce4bgj92rcd13ifvqbe0","pricing_plan_id":"free"},{"bike_id":"346db81b-d1b8-4fb5-b7b5-b79ba3c32385","system_id":"levelo_inurba_marseille","lat":43.27612,"lon":5.36113,"is_reserved":false,"is_disabled":false,"rental_uris":{"android":"levelo://app?vid=346db81b-d1b8-4fb5-b7b5-b79ba3c32385","ios":"levelo://app?vid=346db81b-d1b8-4fb5-b7b5-b79ba3c32385"},"vehicle_type_id":"4","last_reported":1685120743,"current_range_meters":12000,"station_id":"ce4bgj92rcd13ifvqbe0","pricing_plan_id":"free"},{"bike_id":"bdeaa88a-c2f6-4dca-a07f-53ea426c20aa","system_id":"levelo_inurba_marseille","lat":43.28083,"lon":5.3966,"is_reserved":false,"is_disabled":false,"rental_uris":{"android":"levelo://app?vid=bdeaa88a-c2f6-4dca-a07f-53ea426c20aa","ios":"levelo://app?vid=bdeaa88a-c2f6-4dca-a07f-53ea426c20aa"},"vehicle_type_id":"4","last_reported":1685120743,"current_range_meters":9600,"station_id":"ce4bho12rcd13ifvqh2g","pricing_plan_id":"free"},{"bike_id":"0b193b3c-8023-4274-b218-288d34b7af09","system_id":"levelo_inurba_marseille","lat":43.280784,"lon":5.396622,"is_reserved":false,"is_disabled":false,"rental_uris":{"android":"levelo://app?vid=0b193b3c-8023-4274-b218-288d34b7af09","ios":"levelo://app?vid=0b193b3c-8023-4274-b218-288d34b7af09"},"vehicle_type_id":"4","last_reported":1685120743,"current_range_meters":5600,"station_id":"ce4bho12rcd13ifvqh2g","pricing_plan_id":"free"},{"bike_id":"877187a4-e07a-4446-b8af-dbdf38c28151","system_id":"levelo_inurba_marseille","lat":43.280784,"lon":5.396622,"is_reserved":false,"is_disabled":false,"rental_uris":{"android":"levelo://app?vid=877187a4-e07a-4446-b8af-dbdf38c28151","ios":"levelo://app?vid=877187a4-e07a-4446-b8af-dbdf38c28151"},"vehicle_type_id":"4","last_reported":1685120743,"current_range_meters":11600,"station_id":"ce4bho12rcd13ifvqh2g","pricing_plan_id":"free"},{"bike_id":"2ace3ddc-388b-4441-8690-bccdb1074677","system_id":"levelo_inurba_marseille","lat":43.303837,"lon":5.418724,"is_reserved":false,"is_disabled":false,"rental_uris":{"android":"levelo://app?vid=2ace3ddc-388b-4441-8690-bccdb1074677","ios":"levelo://app?vid=2ace3ddc-388b-4441-8690-bccdb1074677"},"vehicle_type_id":"4","last_reported":1685120743,"current_range_meters":13200,"station_id":"ce4bhop2rcd13ifvqh7g","pricing_plan_id":"free"},{"bike_id":"709c28be-1960-464b-86c9-6dbbe4b8be8b","system_id":"levelo_inurba_marseille","lat":43.273613,"lon":5.362705,"is_reserved":false,"is_disabled":false,"rental_uris":{"android":"levelo://app?vid=709c28be-1960-464b-86c9-6dbbe4b8be8b","ios":"levelo://app?vid=709c28be-1960-464b-86c9-6dbbe4b8be8b"},"vehicle_type_id":"4","last_reported":1685120743,"current_range_meters":400,"station_id":"ce4bhbh2rcd13ifvqeo0","pricing_plan_id":"free"},{"bike_id":"2199173c-8160-40d1-982d-e0eea1f57930","system_id":"levelo_inurba_marseille","lat":43.33612,"lon":5.410321,"is_reserved":false,"is_disabled":false,"rental_uris":{"android":"levelo://app?vid=2199173c-8160-40d1-982d-e0eea1f57930","ios":"levelo://app?vid=2199173c-8160-40d1-982d-e0eea1f57930"},"vehicle_type_id":"4","last_reported":1685120743,"current_range_meters":6000,"station_id":"ce4bhqh2rcd13ifvqhmg","pricing_plan_id":"free"},{"bike_id":"1b3a9706-1d75-49da-b04f-a8d2d21f8a41","system_id":"levelo_inurba_marseille","lat":43.310785,"lon":5.424305,"is_reserved":false,"is_disabled":false,"rental_uris":{"android":"levelo://app?vid=1b3a9706-1d75-49da-b04f-a8d2d21f8a41","ios":"levelo://app?vid=1b3a9706-1d75-49da-b04f-a8d2d21f8a41"},"vehicle_type_id":"4","last_reported":1685120743,"current_range_meters":8400,"station_id":"ce4bhp92rcd13ifvqhag","pricing_plan_id":"free"},{"bike_id":"d7d42bed-e346-458a-a35d-4eb61fc31ca1","system_id":"levelo_inurba_marseille","lat":43.273125,"lon":5.390731,"is_reserved":false,"is_disabled":false,"rental_uris":{"android":"levelo://app?vid=d7d42bed-e346-458a-a35d-4eb61fc31ca1","ios":"levelo://app?vid=d7d42bed-e346-458a-a35d-4eb61fc31ca1"},"vehicle_type_id":"4","last_reported":1685120743,"current_range_meters":0,"station_id":"ce4bhgp2rcd13ifvqfe0","pricing_plan_id":"free"},{"bike_id":"f224084e-a485-48fb-b3e3-dc7ed6d4cde6","system_id":"levelo_inurba_marseille","lat":43.273125,"lon":5.390731,"is_reserved":false,"is_disabled":false,"rental_uris":{"android":"levelo://app?vid=f224084e-a485-48fb-b3e3-dc7ed6d4cde6","ios":"levelo://app?vid=f224084e-a485-48fb-b3e3-dc7ed6d4cde6"},"vehicle_type_id":"4","last_reported":1685120743,"current_range_meters":1200,"station_id":"ce4bhgp2rcd13ifvqfe0","pricing_plan_id":"free"},{"bike_id":"6d713c6e-b9c6-4bb9-9970-dd3ec8ae03ba","system_id":"levelo_inurba_marseille","lat":43.295511,"lon":5.422926,"is_reserved":false,"is_disabled":false,"rental_uris":{"android":"levelo://app?vid=6d713c6e-b9c6-4bb9-9970-dd3ec8ae03ba","ios":"levelo://app?vid=6d713c6e-b9c6-4bb9-9970-dd3ec8ae03ba"},"vehicle_type_id":"4","last_reported":1685120743,"current_range_meters":6000,"station_id":"ce4bhph2rcd13ifvqhdg","pricing_plan_id":"free"},{"bike_id":"3b6ab990-5fa8-42e0-92cf-95505e0efa35","system_id":"levelo_inurba_marseille","lat":43.295523,"lon":5.422926,"is_reserved":false,"is_disabled":false,"rental_uris":{"android":"levelo://app?vid=3b6ab990-5fa8-42e0-92cf-95505e0efa35","ios":"levelo://app?vid=3b6ab990-5fa8-42e0-92cf-95505e0efa35"},"vehicle_type_id":"4","last_reported":1685120743,"current_range_meters":0,"station_id":"ce4bhph2rcd13ifvqhdg","pricing_plan_id":"free"},{"bike_id":"34f3b544-e1d7-4c6a-a157-2128b734ee03","system_id":"levelo_inurba_marseille","lat":43.295523,"lon":5.422926,"is_reserved":false,"is_disabled":false,"rental_uris":{"android":"levelo://app?vid=34f3b544-e1d7-4c6a-a157-2128b734ee03","ios":"levelo://app?vid=34f3b544-e1d7-4c6a-a157-2128b734ee03"},"vehicle_type_id":"4","last_reported":1685120743,"current_range_meters":12400,"station_id":"ce4bhph2rcd13ifvqhdg","pricing_plan_id":"free"},{"bike_id":"748d9ce6-27a4-4899-9d2f-55a830c3cb71","system_id":"levelo_inurba_marseille","lat":43.295511,"lon":5.422926,"is_reserved":false,"is_disabled":false,"rental_uris":{"android":"levelo://app?vid=748d9ce6-27a4-4899-9d2f-55a830c3cb71","ios":"levelo://app?vid=748d9ce6-27a4-4899-9d2f-55a830c3cb71"},"vehicle_type_id":"4","last_reported":1685120743,"current_range_meters":13200,"station_id":"ce4bhph2rcd13ifvqhdg","pricing_plan_id":"free"},{"bike_id":"57244a63-c8f5-429e-a4d8-504917512ba2","system_id":"levelo_inurba_marseille","lat":43.27996,"lon":5.416624,"is_reserved":false,"is_disabled":false,"rental_uris":{"android":"levelo://app?vid=57244a63-c8f5-429e-a4d8-504917512ba2","ios":"levelo://app?vid=57244a63-c8f5-429e-a4d8-504917512ba2"},"vehicle_type_id":"4","last_reported":1685120743,"current_range_meters":17600,"station_id":"ce4bho12rcd13ifvqh1g","pricing_plan_id":"free"},{"bike_id":"454c0d9d-03ee-4697-a607-7252d7697ada","system_id":"levelo_inurba_marseille","lat":43.278128,"lon":5.407195,"is_reserved":false,"is_disabled":false,"rental_uris":{"android":"levelo://app?vid=454c0d9d-03ee-4697-a607-7252d7697ada","ios":"levelo://app?vid=454c0d9d-03ee-4697-a607-7252d7697ada"},"vehicle_type_id":"4","last_reported":1685120743,"current_range_meters":27600,"station_id":"ce4bhnh2rcd13ifvqgtg","pricing_plan_id":"free"},{"bike_id":"4dd7c059-75c5-47a0-96fd-50d0be211988","system_id":"levelo_inurba_marseille","lat":43.278128,"lon":5.407195,"is_reserved":false,"is_disabled":false,"rental_uris":{"android":"levelo://app?vid=4dd7c059-75c5-47a0-96fd-50d0be211988","ios":"levelo://app?vid=4dd7c059-75c5-47a0-96fd-50d0be211988"},"vehicle_type_id":"4","last_reported":1685120743,"current_range_meters":28800,"station_id":"ce4bhnh2rcd13ifvqgtg","pricing_plan_id":"free"},{"bike_id":"422be53d-05cb-4a87-8bfd-0c961afc2049","system_id":"levelo_inurba_marseille","lat":43.269467,"lon":5.386439,"is_reserved":false,"is_disabled":false,"rental_uris":{"android":"levelo://app?vid=422be53d-05cb-4a87-8bfd-0c961afc2049","ios":"levelo://app?vid=422be53d-05cb-4a87-8bfd-0c961afc2049"},"vehicle_type_id":"4","last_reported":1685120743,"current_range_meters":400,"station_id":"ce4bhh92rcd13ifvqfh0","pricing_plan_id":"free"},{"bike_id":"0a735ee5-b7b7-4d7f-950f-4eee2ce45c7c","system_id":"levelo_inurba_marseille","lat":43.269319,"lon":5.389397,"is_reserved":false,"is_disabled":false,"rental_uris":{"android":"levelo://app?vid=0a735ee5-b7b7-4d7f-950f-4eee2ce45c7c","ios":"levelo://app?vid=0a735ee5-b7b7-4d7f-950f-4eee2ce45c7c"},"vehicle_type_id":"4","last_reported":1685120743,"current_range_meters":18800,"station_id":"ce4bhhh2rcd13ifvqfl0","pricing_plan_id":"free"},{"bike_id":"2e3a1d29-5f01-4bfc-af98-0679eb91475e","system_id":"levelo_inurba_marseille","lat":43.265714,"lon":5.372891,"is_reserved":false,"is_disabled":false,"rental_uris":{"android":"levelo://app?vid=2e3a1d29-5f01-4bfc-af98-0679eb91475e","ios":"levelo://app?vid=2e3a1d29-5f01-4bfc-af98-0679eb91475e"},"vehicle_type_id":"4","last_reported":1685120743,"current_range_meters":16800,"station_id":"ce4bhg12rcd13ifvqf70","pricing_plan_id":"free"},{"bike_id":"27784257-dcec-4f1c-8671-62141308a3fb","system_id":"levelo_inurba_marseille","lat":43.26556,"lon":5.37283,"is_reserved":false,"is_disabled":false,"rental_uris":{"android":"levelo://app?vid=27784257-dcec-4f1c-8671-62141308a3fb","ios":"levelo://app?vid=27784257-dcec-4f1c-8671-62141308a3fb"},"vehicle_type_id":"4","last_reported":1685120743,"current_range_meters":26800,"station_id":"ce4bhg12rcd13ifvqf70","pricing_plan_id":"free"},{"bike_id":"fb1277e5-518b-47fd-b6ca-7a1d2a97710a","system_id":"levelo_inurba_marseille","lat":43.27996,"lon":5.416624,"is_reserved":false,"is_disabled":false,"rental_uris":{"android":"levelo://app?vid=fb1277e5-518b-47fd-b6ca-7a1d2a97710a","ios":"levelo://app?vid=fb1277e5-518b-47fd-b6ca-7a1d2a97710a"},"vehicle_type_id":"4","last_reported":1685120743,"current_range_meters":7600,"station_id":"ce4bho12rcd13ifvqh1g","pricing_plan_id":"free"},{"bike_id":"1108c2a6-bb99-4b0a-ae68-8b6b480ba093","system_id":"levelo_inurba_marseille","lat":43.27996,"lon":5.416624,"is_reserved":false,"is_disabled":false,"rental_uris":{"android":"levelo://app?vid=1108c2a6-bb99-4b0a-ae68-8b6b480ba093","ios":"levelo://app?vid=1108c2a6-bb99-4b0a-ae68-8b6b480ba093"},"vehicle_type_id":"4","last_reported":1685120743,"current_range_meters":19200,"station_id":"ce4bho12rcd13ifvqh1g","pricing_plan_id":"free"},{"bike_id":"062da3f7-fe26-4077-a97d-32a7082947c6","system_id":"levelo_inurba_marseille","lat":43.27996,"lon":5.416624,"is_reserved":false,"is_disabled":false,"rental_uris":{"android":"levelo://app?vid=062da3f7-fe26-4077-a97d-32a7082947c6","ios":"levelo://app?vid=062da3f7-fe26-4077-a97d-32a7082947c6"},"vehicle_type_id":"4","last_reported":1685120743,"current_range_meters":23600,"station_id":"ce4bho12rcd13ifvqh1g","pricing_plan_id":"free"},{"bike_id":"bca27886-b8e1-4c5e-b2a1-05f2a1786c82","system_id":"levelo_inurba_marseille","lat":43.30804,"lon":5.43524,"is_reserved":false,"is_disabled":false,"rental_uris":{"android":"levelo://app?vid=bca27886-b8e1-4c5e-b2a1-05f2a1786c82","ios":"levelo://app?vid=bca27886-b8e1-4c5e-b2a1-05f2a1786c82"},"vehicle_type_id":"4","last_reported":1685120743,"current_range_meters":12000,"station_id":"","pricing_plan_id":"free"},{"bike_id":"3c3373bf-c64b-4132-b905-aef1c612ca33","system_id":"levelo_inurba_marseille","lat":43.30802,"lon":5.43524,"is_reserved":false,"is_disabled":false,"rental_uris":{"android":"levelo://app?vid=3c3373bf-c64b-4132-b905-aef1c612ca33","ios":"levelo://app?vid=3c3373bf-c64b-4132-b905-aef1c612ca33"},"vehicle_type_id":"4","last_reported":1685120743,"current_range_meters":17600,"station_id":"","pricing_plan_id":"free"},{"bike_id":"b35a7040-bbda-43db-9397-f046555e255b","system_id":"levelo_inurba_marseille","lat":43.30807,"lon":5.43527,"is_reserved":false,"is_disabled":false,"rental_uris":{"android":"levelo://app?vid=b35a7040-bbda-43db-9397-f046555e255b","ios":"levelo://app?vid=b35a7040-bbda-43db-9397-f046555e255b"},"vehicle_type_id":"4","last_reported":1685120743,"current_range_meters":23600,"station_id":"","pricing_plan_id":"free"},{"bike_id":"2e18f64f-160d-4cc2-ab99-cf430a92b7d9","system_id":"levelo_inurba_marseille","lat":43.30804,"lon":5.43528,"is_reserved":false,"is_disabled":false,"rental_uris":{"android":"levelo://app?vid=2e18f64f-160d-4cc2-ab99-cf430a92b7d9","ios":"levelo://app?vid=2e18f64f-160d-4cc2-ab99-cf430a92b7d9"},"vehicle_type_id":"4","last_reported":1685120743,"current_range_meters":0,"station_id":"","pricing_plan_id":"free"},{"bike_id":"eb1e7463-04a7-4eb1-b297-dd018c79d527","system_id":"levelo_inurba_marseille","lat":43.30799,"lon":5.43528,"is_reserved":false,"is_disabled":false,"rental_uris":{"android":"levelo://app?vid=eb1e7463-04a7-4eb1-b297-dd018c79d527","ios":"levelo://app?vid=eb1e7463-04a7-4eb1-b297-dd018c79d527"},"vehicle_type_id":"4","last_reported":1685120743,"current_range_meters":800,"station_id":"","pricing_plan_id":"free"},{"bike_id":"f27d346a-c8a5-4aa3-9c23-b0942ba9d4ef","system_id":"levelo_inurba_marseille","lat":43.261782,"lon":5.374515,"is_reserved":false,"is_disabled":false,"rental_uris":{"android":"levelo://app?vid=f27d346a-c8a5-4aa3-9c23-b0942ba9d4ef","ios":"levelo://app?vid=f27d346a-c8a5-4aa3-9c23-b0942ba9d4ef"},"vehicle_type_id":"4","last_reported":1685120743,"current_range_meters":29200,"station_id":"ce4bhgp2rcd13ifvqfc0","pricing_plan_id":"free"},{"bike_id":"235b9275-5b8a-4ba8-9f30-c394e9a2f26e","system_id":"levelo_inurba_marseille","lat":43.267959,"lon":5.402687,"is_reserved":false,"is_disabled":false,"rental_uris":{"android":"levelo://app?vid=235b9275-5b8a-4ba8-9f30-c394e9a2f26e","ios":"levelo://app?vid=235b9275-5b8a-4ba8-9f30-c394e9a2f26e"},"vehicle_type_id":"4","last_reported":1685120743,"current_range_meters":24800,"station_id":"ce501612rcd8frsf0b60","pricing_plan_id":"free"},{"bike_id":"75fbdd2e-c037-41b1-b8a1-cff9f74cea7f","system_id":"levelo_inurba_marseille","lat":43.261782,"lon":5.374515,"is_reserved":false,"is_disabled":false,"rental_uris":{"android":"levelo://app?vid=75fbdd2e-c037-41b1-b8a1-cff9f74cea7f","ios":"levelo://app?vid=75fbdd2e-c037-41b1-b8a1-cff9f74cea7f"},"vehicle_type_id":"4","last_reported":1685120743,"current_range_meters":18000,"station_id":"ce4bhgp2rcd13ifvqfc0","pricing_plan_id":"free"},{"bike_id":"9cde2426-7c31-40eb-bec5-581f33057fde","system_id":"levelo_inurba_marseille","lat":43.26194,"lon":5.37443,"is_reserved":false,"is_disabled":false,"rental_uris":{"android":"levelo://app?vid=9cde2426-7c31-40eb-bec5-581f33057fde","ios":"levelo://app?vid=9cde2426-7c31-40eb-bec5-581f33057fde"},"vehicle_type_id":"4","last_reported":1685120743,"current_range_meters":7200,"station_id":"ce4bhgp2rcd13ifvqfc0","pricing_plan_id":"free"},{"bike_id":"638cdfc6-349d-48ba-bafd-60beb9d88f06","system_id":"levelo_inurba_marseille","lat":43.261782,"lon":5.374515,"is_reserved":false,"is_disabled":false,"rental_uris":{"android":"levelo://app?vid=638cdfc6-349d-48ba-bafd-60beb9d88f06","ios":"levelo://app?vid=638cdfc6-349d-48ba-bafd-60beb9d88f06"},"vehicle_type_id":"4","last_reported":1685120743,"current_range_meters":5200,"station_id":"ce4bhgp2rcd13ifvqfc0","pricing_plan_id":"free"},{"bike_id":"51bb3c9c-c801-4574-b630-0eca146f32bb","system_id":"levelo_inurba_marseille","lat":43.261782,"lon":5.374515,"is_reserved":false,"is_disabled":false,"rental_uris":{"android":"levelo://app?vid=51bb3c9c-c801-4574-b630-0eca146f32bb","ios":"levelo://app?vid=51bb3c9c-c801-4574-b630-0eca146f32bb"},"vehicle_type_id":"4","last_reported":1685120743,"current_range_meters":23600,"station_id":"ce4bhgp2rcd13ifvqfc0","pricing_plan_id":"free"},{"bike_id":"9d1f193c-4eb0-4e27-b05c-c95bbdb92f0d","system_id":"levelo_inurba_marseille","lat":43.261782,"lon":5.374515,"is_reserved":false,"is_disabled":false,"rental_uris":{"android":"levelo://app?vid=9d1f193c-4eb0-4e27-b05c-c95bbdb92f0d","ios":"levelo://app?vid=9d1f193c-4eb0-4e27-b05c-c95bbdb92f0d"},"vehicle_type_id":"4","last_reported":1685120743,"current_range_meters":19600,"station_id":"ce4bhgp2rcd13ifvqfc0","pricing_plan_id":"free"},{"bike_id":"affe17f8-12d5-403e-852b-8feee1978be6","system_id":"levelo_inurba_marseille","lat":43.26188,"lon":5.37448,"is_reserved":false,"is_disabled":false,"rental_uris":{"android":"levelo://app?vid=affe17f8-12d5-403e-852b-8feee1978be6","ios":"levelo://app?vid=affe17f8-12d5-403e-852b-8feee1978be6"},"vehicle_type_id":"4","last_reported":1685120743,"current_range_meters":7600,"station_id":"ce4bhgp2rcd13ifvqfc0","pricing_plan_id":"free"},{"bike_id":"4cb45d65-ffc5-48ee-9a12-c56d838bd0e4","system_id":"levelo_inurba_marseille","lat":43.31714,"lon":5.43701,"is_reserved":false,"is_disabled":false,"rental_uris":{"android":"levelo://app?vid=4cb45d65-ffc5-48ee-9a12-c56d838bd0e4","ios":"levelo://app?vid=4cb45d65-ffc5-48ee-9a12-c56d838bd0e4"},"vehicle_type_id":"4","last_reported":1685120743,"current_range_meters":29600,"station_id":"ce4bhp92rcd13ifvqhcg","pricing_plan_id":"free"},{"bike_id":"677fe151-801a-4d73-9e92-e9bc07905498","system_id":"levelo_inurba_marseille","lat":43.31721,"lon":5.43702,"is_reserved":false,"is_disabled":false,"rental_uris":{"android":"levelo://app?vid=677fe151-801a-4d73-9e92-e9bc07905498","ios":"levelo://app?vid=677fe151-801a-4d73-9e92-e9bc07905498"},"vehicle_type_id":"4","last_reported":1685120743,"current_range_meters":30800,"station_id":"ce4bhp92rcd13ifvqhcg","pricing_plan_id":"free"},{"bike_id":"6caacd0e-46b0-41a9-8c62-afb29db7e6c7","system_id":"levelo_inurba_marseille","lat":43.317104,"lon":5.436818,"is_reserved":false,"is_disabled":false,"rental_uris":{"android":"levelo://app?vid=6caacd0e-46b0-41a9-8c62-afb29db7e6c7","ios":"levelo://app?vid=6caacd0e-46b0-41a9-8c62-afb29db7e6c7"},"vehicle_type_id":"4","last_reported":1685120743,"current_range_meters":31200,"station_id":"ce4bhp92rcd13ifvqhcg","pricing_plan_id":"free"},{"bike_id":"a40b814c-8d11-48f9-af9c-8f2d70505adb","system_id":"levelo_inurba_marseille","lat":43.31713,"lon":5.43707,"is_reserved":false,"is_disabled":false,"rental_uris":{"android":"levelo://app?vid=a40b814c-8d11-48f9-af9c-8f2d70505adb","ios":"levelo://app?vid=a40b814c-8d11-48f9-af9c-8f2d70505adb"},"vehicle_type_id":"4","last_reported":1685120743,"current_range_meters":26000,"station_id":"ce4bhp92rcd13ifvqhcg","pricing_plan_id":"free"},{"bike_id":"56990df5-4ab3-436c-b634-7556f0ee525a","system_id":"levelo_inurba_marseille","lat":43.31713,"lon":5.43707,"is_reserved":false,"is_disabled":false,"rental_uris":{"android":"levelo://app?vid=56990df5-4ab3-436c-b634-7556f0ee525a","ios":"levelo://app?vid=56990df5-4ab3-436c-b634-7556f0ee525a"},"vehicle_type_id":"4","last_reported":1685120743,"current_range_meters":16800,"station_id":"ce4bhp92rcd13ifvqhcg","pricing_plan_id":"free"},{"bike_id":"97f92444-dc7f-4ac8-885e-43ac50454dc0","system_id":"levelo_inurba_marseille","lat":43.317104,"lon":5.436818,"is_reserved":false,"is_disabled":false,"rental_uris":{"android":"levelo://app?vid=97f92444-dc7f-4ac8-885e-43ac50454dc0","ios":"levelo://app?vid=97f92444-dc7f-4ac8-885e-43ac50454dc0"},"vehicle_type_id":"4","last_reported":1685120743,"current_range_meters":0,"station_id":"ce4bhp92rcd13ifvqhcg","pricing_plan_id":"free"},{"bike_id":"53c7425a-6a43-4880-96b1-33790bb27434","system_id":"levelo_inurba_marseille","lat":43.31711,"lon":5.4371,"is_reserved":false,"is_disabled":false,"rental_uris":{"android":"levelo://app?vid=53c7425a-6a43-4880-96b1-33790bb27434","ios":"levelo://app?vid=53c7425a-6a43-4880-96b1-33790bb27434"},"vehicle_type_id":"4","last_reported":1685120743,"current_range_meters":31200,"station_id":"ce4bhp92rcd13ifvqhcg","pricing_plan_id":"free"},{"bike_id":"afb2fc54-e9ee-41f6-87d3-5a3dc67d4cd8","system_id":"levelo_inurba_marseille","lat":43.31712,"lon":5.4371,"is_reserved":false,"is_disabled":false,"rental_uris":{"android":"levelo://app?vid=afb2fc54-e9ee-41f6-87d3-5a3dc67d4cd8","ios":"levelo://app?vid=afb2fc54-e9ee-41f6-87d3-5a3dc67d4cd8"},"vehicle_type_id":"4","last_reported":1685120743,"current_range_meters":15200,"station_id":"ce4bhp92rcd13ifvqhcg","pricing_plan_id":"free"},{"bike_id":"99bf2ba1-3748-49a1-b152-b5a224dbfe13","system_id":"levelo_inurba_marseille","lat":43.271388,"lon":5.409269,"is_reserved":false,"is_disabled":false,"rental_uris":{"android":"levelo://app?vid=99bf2ba1-3748-49a1-b152-b5a224dbfe13","ios":"levelo://app?vid=99bf2ba1-3748-49a1-b152-b5a224dbfe13"},"vehicle_type_id":"4","last_reported":1685120743,"current_range_meters":14400,"station_id":"ce4bhl12rcd13ifvqgf0","pricing_plan_id":"free"},{"bike_id":"0e5c2fd3-dee2-44d0-b683-47bb4ceeb416","system_id":"levelo_inurba_marseille","lat":43.271368,"lon":5.40928,"is_reserved":false,"is_disabled":false,"rental_uris":{"android":"levelo://app?vid=0e5c2fd3-dee2-44d0-b683-47bb4ceeb416","ios":"levelo://app?vid=0e5c2fd3-dee2-44d0-b683-47bb4ceeb416"},"vehicle_type_id":"4","last_reported":1685120743,"current_range_meters":12800,"station_id":"ce4bhl12rcd13ifvqgf0","pricing_plan_id":"free"},{"bike_id":"bced14c3-0b87-4006-a619-6d37cd796208","system_id":"levelo_inurba_marseille","lat":43.267959,"lon":5.402685,"is_reserved":false,"is_disabled":false,"rental_uris":{"android":"levelo://app?vid=bced14c3-0b87-4006-a619-6d37cd796208","ios":"levelo://app?vid=bced14c3-0b87-4006-a619-6d37cd796208"},"vehicle_type_id":"4","last_reported":1685120743,"current_range_meters":6800,"station_id":"ce501612rcd8frsf0b60","pricing_plan_id":"free"},{"bike_id":"709bdd10-39b5-4a67-b95b-49dd131d1fe2","system_id":"levelo_inurba_marseille","lat":43.267959,"lon":5.402685,"is_reserved":false,"is_disabled":false,"rental_uris":{"android":"levelo://app?vid=709bdd10-39b5-4a67-b95b-49dd131d1fe2","ios":"levelo://app?vid=709bdd10-39b5-4a67-b95b-49dd131d1fe2"},"vehicle_type_id":"4","last_reported":1685120743,"current_range_meters":2800,"station_id":"ce501612rcd8frsf0b60","pricing_plan_id":"free"},{"bike_id":"9642b40a-4d38-485f-abfb-d96ee3ec82f2","system_id":"levelo_inurba_marseille","lat":43.267959,"lon":5.402685,"is_reserved":false,"is_disabled":false,"rental_uris":{"android":"levelo://app?vid=9642b40a-4d38-485f-abfb-d96ee3ec82f2","ios":"levelo://app?vid=9642b40a-4d38-485f-abfb-d96ee3ec82f2"},"vehicle_type_id":"4","last_reported":1685120743,"current_range_meters":23600,"station_id":"ce501612rcd8frsf0b60","pricing_plan_id":"free"},{"bike_id":"48fcb156-cb95-4008-8495-511b7bc0cc22","system_id":"levelo_inurba_marseille","lat":43.267959,"lon":5.402687,"is_reserved":false,"is_disabled":false,"rental_uris":{"android":"levelo://app?vid=48fcb156-cb95-4008-8495-511b7bc0cc22","ios":"levelo://app?vid=48fcb156-cb95-4008-8495-511b7bc0cc22"},"vehicle_type_id":"4","last_reported":1685120743,"current_range_meters":1600,"station_id":"ce501612rcd8frsf0b60","pricing_plan_id":"free"},{"bike_id":"4e1b86b6-b12c-441f-b5c1-ba0a90fca197","system_id":"levelo_inurba_marseille","lat":43.298768,"lon":5.43643,"is_reserved":false,"is_disabled":false,"rental_uris":{"android":"levelo://app?vid=4e1b86b6-b12c-441f-b5c1-ba0a90fca197","ios":"levelo://app?vid=4e1b86b6-b12c-441f-b5c1-ba0a90fca197"},"vehicle_type_id":"4","last_reported":1685120743,"current_range_meters":31600,"station_id":"ce4bhpp2rcd13ifvqhfg","pricing_plan_id":"free"},{"bike_id":"2bbf39e5-5485-4880-b9ce-9ba5fff1a707","system_id":"levelo_inurba_marseille","lat":43.29897,"lon":5.4365,"is_reserved":false,"is_disabled":false,"rental_uris":{"android":"levelo://app?vid=2bbf39e5-5485-4880-b9ce-9ba5fff1a707","ios":"levelo://app?vid=2bbf39e5-5485-4880-b9ce-9ba5fff1a707"},"vehicle_type_id":"4","last_reported":1685120743,"current_range_meters":17200,"station_id":"ce4bhpp2rcd13ifvqhfg","pricing_plan_id":"free"},{"bike_id":"1522e6fe-e66c-4a0c-a606-391cd3d5a93b","system_id":"levelo_inurba_marseille","lat":43.298768,"lon":5.43643,"is_reserved":false,"is_disabled":false,"rental_uris":{"android":"levelo://app?vid=1522e6fe-e66c-4a0c-a606-391cd3d5a93b","ios":"levelo://app?vid=1522e6fe-e66c-4a0c-a606-391cd3d5a93b"},"vehicle_type_id":"4","last_reported":1685120743,"current_range_meters":19200,"station_id":"ce4bhpp2rcd13ifvqhfg","pricing_plan_id":"free"},{"bike_id":"57572c88-3708-4036-891a-204b9f884608","system_id":"levelo_inurba_marseille","lat":43.29896,"lon":5.43662,"is_reserved":false,"is_disabled":false,"rental_uris":{"android":"levelo://app?vid=57572c88-3708-4036-891a-204b9f884608","ios":"levelo://app?vid=57572c88-3708-4036-891a-204b9f884608"},"vehicle_type_id":"4","last_reported":1685120743,"current_range_meters":13200,"station_id":"ce4bhpp2rcd13ifvqhfg","pricing_plan_id":"free"},{"bike_id":"625cf51e-ab1a-4754-ae5a-a72655adf3ff","system_id":"levelo_inurba_marseille","lat":43.299,"lon":5.43666,"is_reserved":false,"is_disabled":false,"rental_uris":{"android":"levelo://app?vid=625cf51e-ab1a-4754-ae5a-a72655adf3ff","ios":"levelo://app?vid=625cf51e-ab1a-4754-ae5a-a72655adf3ff"},"vehicle_type_id":"4","last_reported":1685120743,"current_range_meters":11200,"station_id":"","pricing_plan_id":"free"},{"bike_id":"608b499d-e068-453a-896b-74bff4555044","system_id":"levelo_inurba_marseille","lat":43.29899,"lon":5.43667,"is_reserved":false,"is_disabled":false,"rental_uris":{"android":"levelo://app?vid=608b499d-e068-453a-896b-74bff4555044","ios":"levelo://app?vid=608b499d-e068-453a-896b-74bff4555044"},"vehicle_type_id":"4","last_reported":1685120743,"current_range_meters":21600,"station_id":"","pricing_plan_id":"free"},{"bike_id":"a01b8269-cd6f-432a-9c44-37513ea96cd0","system_id":"levelo_inurba_marseille","lat":43.298768,"lon":5.43643,"is_reserved":false,"is_disabled":false,"rental_uris":{"android":"levelo://app?vid=a01b8269-cd6f-432a-9c44-37513ea96cd0","ios":"levelo://app?vid=a01b8269-cd6f-432a-9c44-37513ea96cd0"},"vehicle_type_id":"4","last_reported":1685120743,"current_range_meters":24800,"station_id":"ce4bhpp2rcd13ifvqhfg","pricing_plan_id":"free"},{"bike_id":"dde9f2f0-56ac-4fd7-8d1e-ed84b13d9718","system_id":"levelo_inurba_marseille","lat":43.29903,"lon":5.4367,"is_reserved":false,"is_disabled":false,"rental_uris":{"android":"levelo://app?vid=dde9f2f0-56ac-4fd7-8d1e-ed84b13d9718","ios":"levelo://app?vid=dde9f2f0-56ac-4fd7-8d1e-ed84b13d9718"},"vehicle_type_id":"4","last_reported":1685120743,"current_range_meters":30000,"station_id":"ce4bhpp2rcd13ifvqhfg","pricing_plan_id":"free"},{"bike_id":"c8de2773-0f39-49ca-aaaa-0510f3608265","system_id":"levelo_inurba_marseille","lat":43.29903,"lon":5.43671,"is_reserved":false,"is_disabled":false,"rental_uris":{"android":"levelo://app?vid=c8de2773-0f39-49ca-aaaa-0510f3608265","ios":"levelo://app?vid=c8de2773-0f39-49ca-aaaa-0510f3608265"},"vehicle_type_id":"4","last_reported":1685120743,"current_range_meters":25600,"station_id":"","pricing_plan_id":"free"},{"bike_id":"2bec87da-92f9-4fd1-a31d-4f8c41246cb1","system_id":"levelo_inurba_marseille","lat":43.29896,"lon":5.43671,"is_reserved":false,"is_disabled":false,"rental_uris":{"android":"levelo://app?vid=2bec87da-92f9-4fd1-a31d-4f8c41246cb1","ios":"levelo://app?vid=2bec87da-92f9-4fd1-a31d-4f8c41246cb1"},"vehicle_type_id":"4","last_reported":1685120743,"current_range_meters":7200,"station_id":"","pricing_plan_id":"free"},{"bike_id":"937f1200-4c45-4827-b961-72df379871ab","system_id":"levelo_inurba_marseille","lat":43.260225,"lon":5.375455,"is_reserved":false,"is_disabled":false,"rental_uris":{"android":"levelo://app?vid=937f1200-4c45-4827-b961-72df379871ab","ios":"levelo://app?vid=937f1200-4c45-4827-b961-72df379871ab"},"vehicle_type_id":"4","last_reported":1685120743,"current_range_meters":31600,"station_id":"ce4bhgh2rcd13ifvqfa0","pricing_plan_id":"free"},{"bike_id":"5b602f5a-2fa3-4505-9d91-e9d9006c9e8c","system_id":"levelo_inurba_marseille","lat":43.2603,"lon":5.37549,"is_reserved":false,"is_disabled":false,"rental_uris":{"android":"levelo://app?vid=5b602f5a-2fa3-4505-9d91-e9d9006c9e8c","ios":"levelo://app?vid=5b602f5a-2fa3-4505-9d91-e9d9006c9e8c"},"vehicle_type_id":"4","last_reported":1685120743,"current_range_meters":28800,"station_id":"ce4bhgh2rcd13ifvqfa0","pricing_plan_id":"free"},{"bike_id":"8b02447f-1103-47bb-8272-7ac862634f6a","system_id":"levelo_inurba_marseille","lat":43.260219,"lon":5.37546,"is_reserved":false,"is_disabled":false,"rental_uris":{"android":"levelo://app?vid=8b02447f-1103-47bb-8272-7ac862634f6a","ios":"levelo://app?vid=8b02447f-1103-47bb-8272-7ac862634f6a"},"vehicle_type_id":"4","last_reported":1685120743,"current_range_meters":26800,"station_id":"ce4bhgh2rcd13ifvqfa0","pricing_plan_id":"free"},{"bike_id":"1a9ae718-e3e4-4714-8186-4c31e50b6a52","system_id":"levelo_inurba_marseille","lat":43.26349,"lon":5.4015,"is_reserved":false,"is_disabled":false,"rental_uris":{"android":"levelo://app?vid=1a9ae718-e3e4-4714-8186-4c31e50b6a52","ios":"levelo://app?vid=1a9ae718-e3e4-4714-8186-4c31e50b6a52"},"vehicle_type_id":"4","last_reported":1685120743,"current_range_meters":25200,"station_id":"","pricing_plan_id":"free"},{"bike_id":"92da702b-28db-4ec3-a4ed-a45feeb4694c","system_id":"levelo_inurba_marseille","lat":43.260909,"lon":5.397591,"is_reserved":false,"is_disabled":false,"rental_uris":{"android":"levelo://app?vid=92da702b-28db-4ec3-a4ed-a45feeb4694c","ios":"levelo://app?vid=92da702b-28db-4ec3-a4ed-a45feeb4694c"},"vehicle_type_id":"4","last_reported":1685120743,"current_range_meters":21200,"station_id":"ce4bhi12rcd13ifvqfq0","pricing_plan_id":"free"},{"bike_id":"21a94e83-2bcf-4902-8a6a-85407ac0d3c9","system_id":"levelo_inurba_marseille","lat":43.254952,"lon":5.376471,"is_reserved":false,"is_disabled":false,"rental_uris":{"android":"levelo://app?vid=21a94e83-2bcf-4902-8a6a-85407ac0d3c9","ios":"levelo://app?vid=21a94e83-2bcf-4902-8a6a-85407ac0d3c9"},"vehicle_type_id":"4","last_reported":1685120743,"current_range_meters":7600,"station_id":"","pricing_plan_id":"free"},{"bike_id":"6950a90f-c2c5-40a5-b14a-1f67a236464f","system_id":"levelo_inurba_marseille","lat":43.27076,"lon":5.42283,"is_reserved":false,"is_disabled":false,"rental_uris":{"android":"levelo://app?vid=6950a90f-c2c5-40a5-b14a-1f67a236464f","ios":"levelo://app?vid=6950a90f-c2c5-40a5-b14a-1f67a236464f"},"vehicle_type_id":"4","last_reported":1685120743,"current_range_meters":0,"station_id":"ce4bhk92rcd13ifvqgb0","pricing_plan_id":"free"},{"bike_id":"e4d9ef10-8c4d-4aeb-a7b9-7864777e12d6","system_id":"levelo_inurba_marseille","lat":43.27077,"lon":5.42287,"is_reserved":false,"is_disabled":false,"rental_uris":{"android":"levelo://app?vid=e4d9ef10-8c4d-4aeb-a7b9-7864777e12d6","ios":"levelo://app?vid=e4d9ef10-8c4d-4aeb-a7b9-7864777e12d6"},"vehicle_type_id":"4","last_reported":1685120743,"current_range_meters":13200,"station_id":"ce4bhk92rcd13ifvqgb0","pricing_plan_id":"free"},{"bike_id":"3e16fddd-610d-4351-8eda-1970e2914927","system_id":"levelo_inurba_marseille","lat":43.27072,"lon":5.4228,"is_reserved":false,"is_disabled":false,"rental_uris":{"android":"levelo://app?vid=3e16fddd-610d-4351-8eda-1970e2914927","ios":"levelo://app?vid=3e16fddd-610d-4351-8eda-1970e2914927"},"vehicle_type_id":"4","last_reported":1685120743,"current_range_meters":13200,"station_id":"ce4bhk92rcd13ifvqgb0","pricing_plan_id":"free"},{"bike_id":"27a9609f-299e-400c-8869-adf0be59e38d","system_id":"levelo_inurba_marseille","lat":43.27073,"lon":5.42282,"is_reserved":false,"is_disabled":false,"rental_uris":{"android":"levelo://app?vid=27a9609f-299e-400c-8869-adf0be59e38d","ios":"levelo://app?vid=27a9609f-299e-400c-8869-adf0be59e38d"},"vehicle_type_id":"4","last_reported":1685120743,"current_range_meters":29600,"station_id":"ce4bhk92rcd13ifvqgb0","pricing_plan_id":"free"},{"bike_id":"fb391ea4-e81d-46d6-bf8b-15607b8eba32","system_id":"levelo_inurba_marseille","lat":43.2707,"lon":5.42279,"is_reserved":false,"is_disabled":false,"rental_uris":{"android":"levelo://app?vid=fb391ea4-e81d-46d6-bf8b-15607b8eba32","ios":"levelo://app?vid=fb391ea4-e81d-46d6-bf8b-15607b8eba32"},"vehicle_type_id":"4","last_reported":1685120743,"current_range_meters":24800,"station_id":"ce4bhk92rcd13ifvqgb0","pricing_plan_id":"free"},{"bike_id":"88cece1e-8105-431f-bc4c-c1343203a215","system_id":"levelo_inurba_marseille","lat":43.27071,"lon":5.42281,"is_reserved":false,"is_disabled":false,"rental_uris":{"android":"levelo://app?vid=88cece1e-8105-431f-bc4c-c1343203a215","ios":"levelo://app?vid=88cece1e-8105-431f-bc4c-c1343203a215"},"vehicle_type_id":"4","last_reported":1685120743,"current_range_meters":23600,"station_id":"ce4bhk92rcd13ifvqgb0","pricing_plan_id":"free"},{"bike_id":"b4c6d978-1e46-4a7e-959e-c6392f317ebe","system_id":"levelo_inurba_marseille","lat":43.270721,"lon":5.422764,"is_reserved":false,"is_disabled":false,"rental_uris":{"android":"levelo://app?vid=b4c6d978-1e46-4a7e-959e-c6392f317ebe","ios":"levelo://app?vid=b4c6d978-1e46-4a7e-959e-c6392f317ebe"},"vehicle_type_id":"4","last_reported":1685120743,"current_range_meters":24000,"station_id":"ce4bhk92rcd13ifvqgb0","pricing_plan_id":"free"},{"bike_id":"acb8b7f2-f4db-4f18-b4c0-0bd99652041a","system_id":"levelo_inurba_marseille","lat":43.270721,"lon":5.422764,"is_reserved":false,"is_disabled":false,"rental_uris":{"android":"levelo://app?vid=acb8b7f2-f4db-4f18-b4c0-0bd99652041a","ios":"levelo://app?vid=acb8b7f2-f4db-4f18-b4c0-0bd99652041a"},"vehicle_type_id":"4","last_reported":1685120743,"current_range_meters":32000,"station_id":"ce4bhk92rcd13ifvqgb0","pricing_plan_id":"free"},{"bike_id":"3583dbe0-433b-4cf5-8a78-02a3550f1dd8","system_id":"levelo_inurba_marseille","lat":43.27438,"lon":5.42947,"is_reserved":false,"is_disabled":false,"rental_uris":{"android":"levelo://app?vid=3583dbe0-433b-4cf5-8a78-02a3550f1dd8","ios":"levelo://app?vid=3583dbe0-433b-4cf5-8a78-02a3550f1dd8"},"vehicle_type_id":"4","last_reported":1685120743,"current_range_meters":2000,"station_id":"","pricing_plan_id":"free"},{"bike_id":"b9dd3ad4-be63-4754-91f6-e666541a8738","system_id":"levelo_inurba_marseille","lat":43.250009,"lon":5.389195,"is_reserved":false,"is_disabled":false,"rental_uris":{"android":"levelo://app?vid=b9dd3ad4-be63-4754-91f6-e666541a8738","ios":"levelo://app?vid=b9dd3ad4-be63-4754-91f6-e666541a8738"},"vehicle_type_id":"4","last_reported":1685120743,"current_range_meters":0,"station_id":"ce4bhgp2rcd13ifvqfd0","pricing_plan_id":"free"},