{"last_updated":1744697724,"ttl":60,"version":"2.2","data":{"bikes":[{"bike_id":"17637803-ed28-487c-b796-1f9bd7ef5a65","system_id":"levelo_inurba_marseille","lat":43.23059,"lon":5.35494,"is_reserved":false,"is_disabled":false,"rental_uris":{"android":"levelo://app?vid=17637803-ed28-487c-b796-1f9bd7ef5a65","ios":"levelo://app?vid=17637803-ed28-487c-b796-1f9bd7ef5a65"},"vehicle_type_id":"4","last_reported":1744697724,"current_range_meters":2800,"station_id":"cpo3342slgdg3j2ifvpg","pricing_plan_id":"cebpf4jnsgd1na2vs0mg"},{"bike_id":"01f418a6-9d3d-4b42-b963-d804fa33990b","system_id":"levelo_inurba_marseille","lat":43.284216,"lon":5.349902,"is_reserved":false,"is_disabled":false,"rental_uris":{"android":"levelo://app?vid=01f418a6-9d3d-4b42-b963-d804fa33990b","ios":"levelo://app?vid=01f418a6-9d3d-4b42-b963-d804fa33990b"},"vehicle_type_id":"4","last_reported":1744697724,"current_range_meters":2800,"station_id":"ce4bhbh2rcd13ifvqepg","pricing_plan_id":"cebpf4jnsgd1na2vs0mg"},{"bike_id":"d40b85d3-dd46-46b7-ab66-296b73f7687a","system_id":"levelo_inurba_marseille","lat":43.3048,"lon":5.37907,"is_reserved":false,"is_disabled":false,"rental_uris":{"android":"levelo://app?vid=d40b85d3-dd46-46b7-ab66-296b73f7687a","ios":"levelo://app?vid=d40b85d3-dd46-46b7-ab66-296b73f7687a"},"vehicle_type_id":"4","last_reported":1744697724,"current_range_meters":3200,"station_id":"ce4bgup2rcd13ifvqcn0","pricing_plan_id":"cebpf4jnsgd1na2vs0mg"},{"bike_id":"8790ea9d-ddb1-4ad9-8ef3-439366a1b5f3","system_id":"levelo_inurba_marseille","lat":43.24994,"lon":5.38942,"is_reserved":false,"is_disabled":false,"rental_uris":{"android":"levelo://app?vid=8790ea9d-ddb1-4ad9-8ef3-439366a1b5f3","ios":"levelo://app?vid=8790ea9d-ddb1-4ad9-8ef3-439366a1b5f3"},"vehicle_type_id":"4","last_reported":1744697724,"current_range_meters":3200,"station_id":"ce4bhgp2rcd13ifvqfd0","pricing_plan_id":"cebpf4jnsgd1na2vs0mg"},{"bike_id":"76450c2c-888f-4d08-a5c0-d825237615aa","system_id":"levelo_inurba_marseille","lat":43.27228,"lon":5.42308,"is_reserved":false,"is_disabled":false,"rental_uris":{"android":"levelo://app?vid=76450c2c-888f-4d08-a5c0-d825237615aa","ios":"levelo://app?vid=76450c2c-888f-4d08-a5c0-d825237615aa"},"vehicle_type_id":"4","last_reported":1744697724,"current_range_meters":3200,"station_id":"","pricing_plan_id":"cebpf4jnsgd1na2vs0mg"},{"bike_id":"2acf4c65-abd7-4a99-a435-635e0b9d0ff0","system_id":"levelo_inurba_marseille","lat":43.2707,"lon":5.40272,"is_reserved":false,"is_disabled":false,"rental_uris":{"android":"levelo://app?vid=2acf4c65-abd7-4a99-a435-635e0b9d0ff0","ios":"levelo://app?vid=2acf4c65-abd7-4a99-a435-635e0b9d0ff0"},"vehicle_type_id":"4","last_reported":1744697724,"current_range_meters":3200,"station_id":"ce4bhk92rcd13ifvqgc0","pricing_plan_id":"cebpf4jnsgd1na2vs0mg"},{"bike_id":"e942dd89-636f-483a-895e-3b8227f66204","system_id":"levelo_inurba_marseille","lat":43.29622,"lon":5.3717,"is_reserved":false,"is_disabled":false,"rental_uris":{"android":"levelo://app?vid=e942dd89-636f-483a-895e-3b8227f66204","ios":"levelo://app?vid=e942dd89-636f-483a-895e-3b8227f66204"},"vehicle_type_id":"4","last_reported":1744697724,"current_range_meters":3200,"station_id":"ce4bgnh2rcd13ifvqc0g","pricing_plan_id":"cebpf4jnsgd1na2vs0mg"},{"bike_id":"2f7c83e8-c28e-49f8-9393-775130069462","system_id":"levelo_inurba_marseille","lat":43.271972,"lon":5.392135,"is_reserved":false,"is_disabled":true,"rental_uris":{"android":"levelo://app?vid=2f7c83e8-c28e-49f8-9393-775130069462","ios":"levelo://app?vid=2f7c83e8-c28e-49f8-9393-775130069462"},"vehicle_type_id":"4","last_reported":1744697724,"current_range_meters":3600,"station_id":"ce4bhhp2rcd13ifvqfm0","pricing_plan_id":"cebpf4jnsgd1na2vs0mg"},{"bike_id":"1ff9e147-4716-4e17-a95d-d09117e7ca27","system_id":"levelo_inurba_marseille","lat":43.30366,"lon":5.42498,"is_reserved":false,"is_disabled":false,"rental_uris":{"android":"levelo://app?vid=1ff9e147-4716-4e17-a95d-d09117e7ca27","ios":"levelo://app?vid=1ff9e147-4716-4e17-a95d-d09117e7ca27"},"vehicle_type_id":"4","last_reported":1744697724,"current_range_meters":3600,"station_id":"ce4bhoh2rcd13ifvqh6g","pricing_plan_id":"cebpf4jnsgd1na2vs0mg"},{"bike_id":"9db8d2c0-1388-4b50-aaa9-ddd116caa92c","system_id":"levelo_inurba_marseille","lat":43.28155,"lon":5.42641,"is_reserved":false,"is_disabled":false,"rental_uris":{"android":"levelo://app?vid=9db8d2c0-1388-4b50-aaa9-ddd116caa92c","ios":"levelo://app?vid=9db8d2c0-1388-4b50-aaa9-ddd116caa92c"},"vehicle_type_id":"4","last_reported":1744697724,"current_range_meters":3600,"station_id":"ce4bhnh2rcd13ifvqgug","pricing_plan_id":"cebpf4jnsgd1na2vs0mg"},{"bike_id":"c3a6450f-4847-4a87-89e1-6a910adbc020","system_id":"levelo_inurba_marseille","lat":43.285705,"lon":5.395039,"is_reserved":false,"is_disabled":false,"rental_uris":{"android":"levelo://app?vid=c3a6450f-4847-4a87-89e1-6a910adbc020","ios":"levelo://app?vid=c3a6450f-4847-4a87-89e1-6a910adbc020"},"vehicle_type_id":"4","last_reported":1744697724,"current_range_meters":3600,"station_id":"ce4bgn92rcd13ifvqbvg","pricing_plan_id":"cebpf4jnsgd1na2vs0mg"},{"bike_id":"f90608a1-c7a7-40b9-a224-5a7adb0bb20f","system_id":"levelo_inurba_marseille","lat":43.2848,"lon":5.38447,"is_reserved":false,"is_disabled":false,"rental_uris":{"android":"levelo://app?vid=f90608a1-c7a7-40b9-a224-5a7adb0bb20f","ios":"levelo://app?vid=f90608a1-c7a7-40b9-a224-5a7adb0bb20f"},"vehicle_type_id":"4","last_reported":1744697724,"current_range_meters":4000,"station_id":"ce4bh512rcd13ifvqe3g","pricing_plan_id":"cebpf4jnsgd1na2vs0mg"},{"bike_id":"5c75444e-1511-4f27-88e9-b00df5215a0f","system_id":"levelo_inurba_marseille","lat":43.24155,"lon":5.39722,"is_reserved":false,"is_disabled":false,"rental_uris":{"android":"levelo://app?vid=5c75444e-1511-4f27-88e9-b00df5215a0f","ios":"levelo://app?vid=5c75444e-1511-4f27-88e9-b00df5215a0f"},"vehicle_type_id":"4","last_reported":1744697724,"current_range_meters":4000,"station_id":"ce4bhn12rcd13ifvqgpg","pricing_plan_id":"cebpf4jnsgd1na2vs0mg"},{"bike_id":"515271b0-9b96-43f1-9b62-f663213b7c02","system_id":"levelo_inurba_marseille","lat":43.29042,"lon":5.35685,"is_reserved":false,"is_disabled":false,"rental_uris":{"android":"levelo://app?vid=515271b0-9b96-43f1-9b62-f663213b7c02","ios":"levelo://app?vid=515271b0-9b96-43f1-9b62-f663213b7c02"},"vehicle_type_id":"4","last_reported":1744697724,"current_range_meters":4000,"station_id":"","pricing_plan_id":"cebpf4jnsgd1na2vs0mg"},{"bike_id":"011054fb-b71d-4a5c-92d3-d56ae333c3bc","system_id":"levelo_inurba_marseille","lat":43.27372,"lon":5.36256,"is_reserved":false,"is_disabled":false,"rental_uris":{"android":"levelo://app?vid=011054fb-b71d-4a5c-92d3-d56ae333c3bc","ios":"levelo://app?vid=011054fb-b71d-4a5c-92d3-d56ae333c3bc"},"vehicle_type_id":"4","last_reported":1744697724,"current_range_meters":4000,"station_id":"ce4bhbh2rcd13ifvqeo0","pricing_plan_id":"cebpf4jnsgd1na2vs0mg"},{"bike_id":"d078c344-3e90-4d1d-8f39-b3fb18506bad","system_id":"levelo_inurba_marseille","lat":43.25085,"lon":5.39525,"is_reserved":false,"is_disabled":false,"rental_uris":{"android":"levelo://app?vid=d078c344-3e90-4d1d-8f39-b3fb18506bad","ios":"levelo://app?vid=d078c344-3e90-4d1d-8f39-b3fb18506bad"},"vehicle_type_id":"4","last_reported":1744697724,"current_range_meters":4400,"station_id":"ce4bhm12rcd13ifvqgkg","pricing_plan_id":"cebpf4jnsgd1na2vs0mg"},{"bike_id":"1db06f83-e2df-4c88-abff-fe3fd63cf02f","system_id":"levelo_inurba_marseille","lat":43.24555,"lon":5.39536,"is_reserved":false,"is_disabled":false,"rental_uris":{"android":"levelo://app?vid=1db06f83-e2df-4c88-abff-fe3fd63cf02f","ios":"levelo://app?vid=1db06f83-e2df-4c88-abff-fe3fd63cf02f"},"vehicle_type_id":"4","last_reported":1744697724,"current_range_meters":4400,"station_id":"ce4bhlp2rcd13ifvqgjg","pricing_plan_id":"cebpf4jnsgd1na2vs0mg"},{"bike_id":"48981f29-3bcb-416e-b2f0-7091b2fa2597","system_id":"levelo_inurba_marseille","lat":43.2816,"lon":5.42669,"is_reserved":false,"is_disabled":false,"rental_uris":{"android":"levelo://app?vid=48981f29-3bcb-416e-b2f0-7091b2fa2597","ios":"levelo://app?vid=48981f29-3bcb-416e-b2f0-7091b2fa2597"},"vehicle_type_id":"4","last_reported":1744697724,"current_range_meters":4400,"station_id":"ce4bhnh2rcd13ifvqgug","pricing_plan_id":"cebpf4jnsgd1na2vs0mg"},{"bike_id":"7af32e08-c87f-4c71-bb72-f544c0cce00e","system_id":"levelo_inurba_marseille","lat":43.25937,"lon":5.40903,"is_reserved":false,"is_disabled":false,"rental_uris":{"android":"levelo://app?vid=7af32e08-c87f-4c71-bb72-f544c0cce00e","ios":"levelo://app?vid=7af32e08-c87f-4c71-bb72-f544c0cce00e"},"vehicle_type_id":"4","last_reported":1744697724,"current_range_meters":4800,"station_id":"ce4bhm92rcd13ifvqglg","pricing_plan_id":"cebpf4jnsgd1na2vs0mg"},{"bike_id":"cdefaf23-b564-4f66-ad44-d79e40a15561","system_id":"levelo_inurba_marseille","lat":43.30409,"lon":5.41317,"is_reserved":false,"is_disabled":true,"rental_uris":{"android":"levelo://app?vid=cdefaf23-b564-4f66-ad44-d79e40a15561","ios":"levelo://app?vid=cdefaf23-b564-4f66-ad44-d79e40a15561"},"vehicle_type_id":"4","last_reported":1744697724,"current_range_meters":4800,"station_id":"ce4bhop2rcd13ifvqh8g","pricing_plan_id":"cebpf4jnsgd1na2vs0mg"},{"bike_id":"92ed1cdd-60d9-4ae6-99f1-969c3885a02e","system_id":"levelo_inurba_marseille","lat":43.30148,"lon":5.38093,"is_reserved":false,"is_disabled":false,"rental_uris":{"android":"levelo://app?vid=92ed1cdd-60d9-4ae6-99f1-969c3885a02e","ios":"levelo://app?vid=92ed1cdd-60d9-4ae6-99f1-969c3885a02e"},"vehicle_type_id":"4","last_reported":1744697724,"current_range_meters":5600,"station_id":"ce4bgjp2rcd13ifvqbh0","pricing_plan_id":"cebpf4jnsgd1na2vs0mg"},{"bike_id":"5359819a-1cec-4605-a969-075d12c6bc4f","system_id":"levelo_inurba_marseille","lat":43.32054,"lon":5.41535,"is_reserved":false,"is_disabled":false,"rental_uris":{"android":"levelo://app?vid=5359819a-1cec-4605-a969-075d12c6bc4f","ios":"levelo://app?vid=5359819a-1cec-4605-a969-075d12c6bc4f"},"vehicle_type_id":"4","last_reported":1744697724,"current_range_meters":4800,"station_id":"ce4bhq92rcd13ifvqhkg","pricing_plan_id":"cebpf4jnsgd1na2vs0mg"},{"bike_id":"ef08dc3f-a410-4482-9bb7-f65963783a25","system_id":"levelo_inurba_marseille","lat":43.28481,"lon":5.38447,"is_reserved":false,"is_disabled":false,"rental_uris":{"android":"levelo://app?vid=ef08dc3f-a410-4482-9bb7-f65963783a25","ios":"levelo://app?vid=ef08dc3f-a410-4482-9bb7-f65963783a25"},"vehicle_type_id":"4","last_reported":1744697724,"current_range_meters":6000,"station_id":"ce4bh512rcd13ifvqe3g","pricing_plan_id":"cebpf4jnsgd1na2vs0mg"},{"bike_id":"bc1e941d-5514-4193-a637-cfb6de114bfa","system_id":"levelo_inurba_marseille","lat":43.25591,"lon":5.3823,"is_reserved":false,"is_disabled":false,"rental_uris":{"android":"levelo://app?vid=bc1e941d-5514-4193-a637-cfb6de114bfa","ios":"levelo://app?vid=bc1e941d-5514-4193-a637-cfb6de114bfa"},"vehicle_type_id":"4","last_reported":1744697724,"current_range_meters":6000,"station_id":"ce4bhih2rcd13ifvqfs0","pricing_plan_id":"cebpf4jnsgd1na2vs0mg"},{"bike_id":"8e257129-2fc1-4b7e-9af0-0037d9dd9fc9","system_id":"levelo_inurba_marseille","lat":43.28996,"lon":5.37602,"is_reserved":false,"is_disabled":false,"rental_uris":{"android":"levelo://app?vid=8e257129-2fc1-4b7e-9af0-0037d9dd9fc9","ios":"levelo://app?vid=8e257129-2fc1-4b7e-9af0-0037d9dd9fc9"},"vehicle_type_id":"4","last_reported":1744697724,"current_range_meters":6400,"station_id":"ce4bh692rcd13ifvqe90","pricing_plan_id":"cebpf4jnsgd1na2vs0mg"},{"bike_id":"ec5a0ee3-8bc6-4905-97ae-7a3d4b928940","system_id":"levelo_inurba_marseille","lat":43.301631,"lon":5.380891,"is_reserved":false,"is_disabled":false,"rental_uris":{"android":"levelo://app?vid=ec5a0ee3-8bc6-4905-97ae-7a3d4b928940","ios":"levelo://app?vid=ec5a0ee3-8bc6-4905-97ae-7a3d4b928940"},"vehicle_type_id":"4","last_reported":1744697724,"current_range_meters":6400,"station_id":"ce4bgjp2rcd13ifvqbh0","pricing_plan_id":"cebpf4jnsgd1na2vs0mg"},{"bike_id":"f29ef286-8e5e-44ed-a094-9b9eaaf0f661","system_id":"levelo_inurba_marseille","lat":43.27059,"lon":5.40258,"is_reserved":false,"is_disabled":false,"rental_uris":{"android":"levelo://app?vid=f29ef286-8e5e-44ed-a094-9b9eaaf0f661","ios":"levelo://app?vid=f29ef286-8e5e-44ed-a094-9b9eaaf0f661"},"vehicle_type_id":"4","last_reported":1744697724,"current_range_meters":6400,"station_id":"ce4bhk92rcd13ifvqgc0","pricing_plan_id":"cebpf4jnsgd1na2vs0mg"},{"bike_id":"830c4394-9899-4e4d-8de0-512c59fb39a3","system_id":"levelo_inurba_marseille","lat":43.29175,"lon":5.3716,"is_reserved":false,"is_disabled":false,"rental_uris":{"android":"levelo://app?vid=830c4394-9899-4e4d-8de0-512c59fb39a3","ios":"levelo://app?vid=830c4394-9899-4e4d-8de0-512c59fb39a3"},"vehicle_type_id":"4","last_reported":1744697724,"current_range_meters":6400,"station_id":"ce4bha92rcd13ifvqeh0","pricing_plan_id":"cebpf4jnsgd1na2vs0mg"},{"bike_id":"0a7cab43-9343-46f0-9a4d-34c8fb861430","system_id":"levelo_inurba_marseille","lat":43.29179,"lon":5.3998,"is_reserved":false,"is_disabled":false,"rental_uris":{"android":"levelo://app?vid=0a7cab43-9343-46f0-9a4d-34c8fb861430","ios":"levelo://app?vid=0a7cab43-9343-46f0-9a4d-34c8fb861430"},"vehicle_type_id":"4","last_reported":1744697724,"current_range_meters":6400,"station_id":"","pricing_plan_id":"cebpf4jnsgd1na2vs0mg"},{"bike_id":"b19c5299-cb1d-4bd6-bf45-649248c4e47f","system_id":"levelo_inurba_marseille","lat":43.26198,"lon":5.37927,"is_reserved":false,"is_disabled":false,"rental_uris":{"android":"levelo://app?vid=b19c5299-cb1d-4bd6-bf45-649248c4e47f","ios":"levelo://app?vid=b19c5299-cb1d-4bd6-bf45-649248c4e47f"},"vehicle_type_id":"4","last_reported":1744697724,"current_range_meters":6800,"station_id":"ce4bhjp2rcd13ifvqg90","pricing_plan_id":"cebpf4jnsgd1na2vs0mg"},{"bike_id":"101df704-d3a4-4744-b23d-f516d37358f2","system_id":"levelo_inurba_marseille","lat":43.24168,"lon":5.39734,"is_reserved":false,"is_disabled":false,"rental_uris":{"android":"levelo://app?vid=101df704-d3a4-4744-b23d-f516d37358f2","ios":"levelo://app?vid=101df704-d3a4-4744-b23d-f516d37358f2"},"vehicle_type_id":"4","last_reported":1744697724,"current_range_meters":6800,"station_id":"ce4bhn12rcd13ifvqgpg","pricing_plan_id":"cebpf4jnsgd1na2vs0mg"},{"bike_id":"509ab134-6120-4e27-96a8-d4c280f9dcae","system_id":"levelo_inurba_marseille","lat":43.28618,"lon":5.35145,"is_reserved":false,"is_disabled":false,"rental_uris":{"android":"levelo://app?vid=509ab134-6120-4e27-96a8-d4c280f9dcae","ios":"levelo://app?vid=509ab134-6120-4e27-96a8-d4c280f9dcae"},"vehicle_type_id":"4","last_reported":1744697724,"current_range_meters":6800,"station_id":"ce4bhch2rcd13ifvqeug","pricing_plan_id":"cebpf4jnsgd1na2vs0mg"},{"bike_id":"2fb4eac2-5a8a-45cf-995c-78231316505f","system_id":"levelo_inurba_marseille","lat":43.29225,"lon":5.36068,"is_reserved":false,"is_disabled":false,"rental_uris":{"android":"levelo://app?vid=2fb4eac2-5a8a-45cf-995c-78231316505f","ios":"levelo://app?vid=2fb4eac2-5a8a-45cf-995c-78231316505f"},"vehicle_type_id":"4","last_reported":1744697724,"current_range_meters":6800,"station_id":"ce4bhbh2rcd13ifvqeqg","pricing_plan_id":"cebpf4jnsgd1na2vs0mg"},{"bike_id":"f6151468-df2d-459f-ab57-449c0333cf42","system_id":"levelo_inurba_marseille","lat":43.24642,"lon":5.38184,"is_reserved":false,"is_disabled":false,"rental_uris":{"android":"levelo://app?vid=f6151468-df2d-459f-ab57-449c0333cf42","ios":"levelo://app?vid=f6151468-df2d-459f-ab57-449c0333cf42"},"vehicle_type_id":"4","last_reported":1744697724,"current_range_meters":6800,"station_id":"ce4bhih2rcd13ifvqfr0","pricing_plan_id":"cebpf4jnsgd1na2vs0mg"},{"bike_id":"8d24a072-21ed-41cd-b0aa-05b3f1373b74","system_id":"levelo_inurba_marseille","lat":43.31069,"lon":5.3835,"is_reserved":false,"is_disabled":false,"rental_uris":{"android":"levelo://app?vid=8d24a072-21ed-41cd-b0aa-05b3f1373b74","ios":"levelo://app?vid=8d24a072-21ed-41cd-b0aa-05b3f1373b74"},"vehicle_type_id":"4","last_reported":1744697724,"current_range_meters":7200,"station_id":"ce4bgv92rcd13ifvqcr0","pricing_plan_id":"cebpf4jnsgd1na2vs0mg"},{"bike_id":"ae6f0bb6-cbd3-4587-b755-30f89c49c587","system_id":"levelo_inurba_marseille","lat":43.30136,"lon":5.38079,"is_reserved":false,"is_disabled":false,"rental_uris":{"android":"levelo://app?vid=ae6f0bb6-cbd3-4587-b755-30f89c49c587","ios":"levelo://app?vid=ae6f0bb6-cbd3-4587-b755-30f89c49c587"},"vehicle_type_id":"4","last_reported":1744697724,"current_range_meters":7200,"station_id":"ce4bgjp2rcd13ifvqbh0","pricing_plan_id":"cebpf4jnsgd1na2vs0mg"},{"bike_id":"e1cfb2db-9308-45d0-913f-899415789267","system_id":"levelo_inurba_marseille","lat":43.25839,"lon":5.39438,"is_reserved":false,"is_disabled":false,"rental_uris":{"android":"levelo://app?vid=e1cfb2db-9308-45d0-913f-899415789267","ios":"levelo://app?vid=e1cfb2db-9308-45d0-913f-899415789267"},"vehicle_type_id":"4","last_reported":1744697724,"current_range_meters":7200,"station_id":"ce4bhip2rcd13ifvqft0","pricing_plan_id":"cebpf4jnsgd1na2vs0mg"},{"bike_id":"e8f703a1-eb3b-45ed-827d-ca43a8842bf7","system_id":"levelo_inurba_marseille","lat":43.29942,"lon":5.385,"is_reserved":false,"is_disabled":true,"rental_uris":{"android":"levelo://app?vid=e8f703a1-eb3b-45ed-827d-ca43a8842bf7","ios":"levelo://app?vid=e8f703a1-eb3b-45ed-827d-ca43a8842bf7"},"vehicle_type_id":"4","last_reported":1744697724,"current_range_meters":7200,"station_id":"ce4bgj92rcd13ifvqbd0","pricing_plan_id":"cebpf4jnsgd1na2vs0mg"},{"bike_id":"d373ed4c-aba0-4974-b8ad-53c5cbe85936","system_id":"levelo_inurba_marseille","lat":43.294409,"lon":5.397623,"is_reserved":false,"is_disabled":true,"rental_uris":{"android":"levelo://app?vid=d373ed4c-aba0-4974-b8ad-53c5cbe85936","ios":"levelo://app?vid=d373ed4c-aba0-4974-b8ad-53c5cbe85936"},"vehicle_type_id":"4","last_reported":1744697724,"current_range_meters":7200,"station_id":"ce4bh3h2rcd13ifvqdo0","pricing_plan_id":"cebpf4jnsgd1na2vs0mg"},{"bike_id":"52467ef2-bb23-4d5a-aebd-2782338dc161","system_id":"levelo_inurba_marseille","lat":43.21212,"lon":5.35117,"is_reserved":false,"is_disabled":false,"rental_uris":{"android":"levelo://app?vid=52467ef2-bb23-4d5a-aebd-2782338dc161","ios":"levelo://app?vid=52467ef2-bb23-4d5a-aebd-2782338dc161"},"vehicle_type_id":"4","last_reported":1744697724,"current_range_meters":7200,"station_id":"st_cvj6sg6p6f1abm77japg","pricing_plan_id":"cebpf4jnsgd1na2vs0mg"},{"bike_id":"19a89524-a9e5-411c-9a2d-95c0f553dcf9","system_id":"levelo_inurba_marseille","lat":43.31985,"lon":5.38126,"is_reserved":false,"is_disabled":false,"rental_uris":{"android":"levelo://app?vid=19a89524-a9e5-411c-9a2d-95c0f553dcf9","ios":"levelo://app?vid=19a89524-a9e5-411c-9a2d-95c0f553dcf9"},"vehicle_type_id":"4","last_reported":1744697724,"current_range_meters":7200,"station_id":"ce4bhr12rcd13ifvqhpg","pricing_plan_id":"cebpf4jnsgd1na2vs0mg"},{"bike_id":"d5c48726-c588-48dc-9d2b-d4e2b290be37","system_id":"levelo_inurba_marseille","lat":43.26193,"lon":5.3745,"is_reserved":false,"is_disabled":false,"rental_uris":{"android":"levelo://app?vid=d5c48726-c588-48dc-9d2b-d4e2b290be37","ios":"levelo://app?vid=d5c48726-c588-48dc-9d2b-d4e2b290be37"},"vehicle_type_id":"4","last_reported":1744697724,"current_range_meters":8000,"station_id":"ce4bhgp2rcd13ifvqfc0","pricing_plan_id":"cebpf4jnsgd1na2vs0mg"},{"bike_id":"aec81db4-fcfe-4664-a8ca-7074821111cd","system_id":"levelo_inurba_marseille","lat":43.246845,"lon":5.381865,"is_reserved":false,"is_disabled":false,"rental_uris":{"android":"levelo://app?vid=aec81db4-fcfe-4664-a8ca-7074821111cd","ios":"levelo://app?vid=aec81db4-fcfe-4664-a8ca-7074821111cd"},"vehicle_type_id":"4","last_reported":1744697724,"current_range_meters":8000,"station_id":"ce4bhih2rcd13ifvqfr0","pricing_plan_id":"cebpf4jnsgd1na2vs0mg"},{"bike_id":"3499b34a-9c74-447e-aa25-db1795585b70","system_id":"levelo_inurba_marseille","lat":43.26559,"lon":5.37283,"is_reserved":false,"is_disabled":false,"rental_uris":{"android":"levelo://app?vid=3499b34a-9c74-447e-aa25-db1795585b70","ios":"levelo://app?vid=3499b34a-9c74-447e-aa25-db1795585b70"},"vehicle_type_id":"4","last_reported":1744697724,"current_range_meters":8000,"station_id":"ce4bhg12rcd13ifvqf70","pricing_plan_id":"cebpf4jnsgd1na2vs0mg"},{"bike_id":"7ba3577b-f14a-47b3-8ecb-35158daf49ef","system_id":"levelo_inurba_marseille","lat":43.30029,"lon":5.39861,"is_reserved":false,"is_disabled":false,"rental_uris":{"android":"levelo://app?vid=7ba3577b-f14a-47b3-8ecb-35158daf49ef","ios":"levelo://app?vid=7ba3577b-f14a-47b3-8ecb-35158daf49ef"},"vehicle_type_id":"4","last_reported":1744697724,"current_range_meters":8000,"station_id":"","pricing_plan_id":"cebpf4jnsgd1na2vs0mg"},{"bike_id":"2840dd03-7e3c-473f-8550-a29070d3bba2","system_id":"levelo_inurba_marseille","lat":43.29504,"lon":5.38291,"is_reserved":false,"is_disabled":false,"rental_uris":{"android":"levelo://app?vid=2840dd03-7e3c-473f-8550-a29070d3bba2","ios":"levelo://app?vid=2840dd03-7e3c-473f-8550-a29070d3bba2"},"vehicle_type_id":"4","last_reported":1744697724,"current_range_meters":8000,"station_id":"","pricing_plan_id":"cebpf4jnsgd1na2vs0mg"},{"bike_id":"0885a5e3-43bb-4a39-b743-0a43e27c6f4a","system_id":"levelo_inurba_marseille","lat":43.32478,"lon":5.36566,"is_reserved":false,"is_disabled":false,"rental_uris":{"android":"levelo://app?vid=0885a5e3-43bb-4a39-b743-0a43e27c6f4a","ios":"levelo://app?vid=0885a5e3-43bb-4a39-b743-0a43e27c6f4a"},"vehicle_type_id":"4","last_reported":1744697724,"current_range_meters":8400,"station_id":"ce4bhs12rcd13ifvqhvg","pricing_plan_id":"cebpf4jnsgd1na2vs0mg"},{"bike_id":"b4a19ddd-ec2c-4178-96c7-9e5bf749190e","system_id":"levelo_inurba_marseille","lat":43.29905,"lon":5.43662,"is_reserved":false,"is_disabled":false,"rental_uris":{"android":"levelo://app?vid=b4a19ddd-ec2c-4178-96c7-9e5bf749190e","ios":"levelo://app?vid=b4a19ddd-ec2c-4178-96c7-9e5bf749190e"},"vehicle_type_id":"4","last_reported":1744697724,"current_range_meters":8400,"station_id":"ce4bhpp2rcd13ifvqhfg","pricing_plan_id":"cebpf4jnsgd1na2vs0mg"},{"bike_id":"8a58a04e-f069-487b-905a-c2f308a407cd","system_id":"levelo_inurba_marseille","lat":43.33024,"lon":5.3904,"is_reserved":false,"is_disabled":false,"rental_uris":{"android":"levelo://app?vid=8a58a04e-f069-487b-905a-c2f308a407cd","ios":"levelo://app?vid=8a58a04e-f069-487b-905a-c2f308a407cd"},"vehicle_type_id":"4","last_reported":1744697724,"current_range_meters":8400,"station_id":"ce4bhr92rcd13ifvqhrg","pricing_plan_id":"cebpf4jnsgd1na2vs0mg"},{"bike_id":"360ab065-cac5-430c-ad3a-9a195556f8f8","system_id":"levelo_inurba_marseille","lat":43.28365,"lon":5.38644,"is_reserved":false,"is_disabled":false,"rental_uris":{"android":"levelo://app?vid=360ab065-cac5-430c-ad3a-9a195556f8f8","ios":"levelo://app?vid=360ab065-cac5-430c-ad3a-9a195556f8f8"},"vehicle_type_id":"4","last_reported":1744697724,"current_range_meters":8400,"station_id":"ce4bh492rcd13ifvqdvg","pricing_plan_id":"cebpf4jnsgd1na2vs0mg"},{"bike_id":"b62d1434-c42b-4d2d-977d-d90a2291da9b","system_id":"levelo_inurba_marseille","lat":43.26908,"lon":5.40286,"is_reserved":false,"is_disabled":true,"rental_uris":{"android":"levelo://app?vid=b62d1434-c42b-4d2d-977d-d90a2291da9b","ios":"levelo://app?vid=b62d1434-c42b-4d2d-977d-d90a2291da9b"},"vehicle_type_id":"4","last_reported":1744697724,"current_range_meters":8400,"station_id":"cjm6bp8fraef2m0cb0m0","pricing_plan_id":"cebpf4jnsgd1na2vs0mg"},{"bike_id":"000cce46-0aba-4c03-8967-d18cf441ccd3","system_id":"levelo_inurba_marseille","lat":43.30301,"lon":5.40436,"is_reserved":false,"is_disabled":false,"rental_uris":{"android":"levelo://app?vid=000cce46-0aba-4c03-8967-d18cf441ccd3","ios":"levelo://app?vid=000cce46-0aba-4c03-8967-d18cf441ccd3"},"vehicle_type_id":"4","last_reported":1744697724,"current_range_meters":8400,"station_id":"ce4bh012rcd13ifvqd10","pricing_plan_id":"cebpf4jnsgd1na2vs0mg"},{"bike_id":"f07728ba-90b2-4310-83fb-7ddced706373","system_id":"levelo_inurba_marseille","lat":43.31479,"lon":5.37293,"is_reserved":false,"is_disabled":false,"rental_uris":{"android":"levelo://app?vid=f07728ba-90b2-4310-83fb-7ddced706373","ios":"levelo://app?vid=f07728ba-90b2-4310-83fb-7ddced706373"},"vehicle_type_id":"4","last_reported":1744697724,"current_range_meters":8400,"station_id":"ce4bgt12rcd13ifvqcd0","pricing_plan_id":"cebpf4jnsgd1na2vs0mg"},{"bike_id":"3ac53d32-d847-4539-b55f-618232ab119e","system_id":"levelo_inurba_marseille","lat":43.25932,"lon":5.40913,"is_reserved":false,"is_disabled":false,"rental_uris":{"android":"levelo://app?vid=3ac53d32-d847-4539-b55f-618232ab119e","ios":"levelo://app?vid=3ac53d32-d847-4539-b55f-618232ab119e"},"vehicle_type_id":"4","last_reported":1744697724,"current_range_meters":8400,"station_id":"ce4bhm92rcd13ifvqglg","pricing_plan_id":"cebpf4jnsgd1na2vs0mg"},{"bike_id":"fb13c941-1858-46a4-86ad-2a5e302996c3","system_id":"levelo_inurba_marseille","lat":43.258623,"lon":5.39908,"is_reserved":false,"is_disabled":true,"rental_uris":{"android":"levelo://app?vid=fb13c941-1858-46a4-86ad-2a5e302996c3","ios":"levelo://app?vid=fb13c941-1858-46a4-86ad-2a5e302996c3"},"vehicle_type_id":"4","last_reported":1744697724,"current_range_meters":8800,"station_id":"ce4bhl92rcd13ifvqghg","pricing_plan_id":"cebpf4jnsgd1na2vs0mg"},{"bike_id":"5b189cb6-d953-4fef-b0c2-01e2d10afc8f","system_id":"levelo_inurba_marseille","lat":43.30472,"lon":5.37918,"is_reserved":false,"is_disabled":false,"rental_uris":{"android":"levelo://app?vid=5b189cb6-d953-4fef-b0c2-01e2d10afc8f","ios":"levelo://app?vid=5b189cb6-d953-4fef-b0c2-01e2d10afc8f"},"vehicle_type_id":"4","last_reported":1744697724,"current_range_meters":8800,"station_id":"ce4bgup2rcd13ifvqcn0","pricing_plan_id":"cebpf4jnsgd1na2vs0mg"},{"bike_id":"2f93173f-d02c-4e29-ab59-1fff882697d7","system_id":"levelo_inurba_marseille","lat":43.240511,"lon":5.377794,"is_reserved":false,"is_disabled":false,"rental_uris":{"android":"levelo://app?vid=2f93173f-d02c-4e29-ab59-1fff882697d7","ios":"levelo://app?vid=2f93173f-d02c-4e29-ab59-1fff882697d7"},"vehicle_type_id":"4","last_reported":1744697724,"current_range_meters":8800,"station_id":"ce4bhnp2rcd13ifvqgvg","pricing_plan_id":"cebpf4jnsgd1na2vs0mg"},{"bike_id":"aa1108d9-ab58-4a43-b80b-88b265c84e91","system_id":"levelo_inurba_marseille","lat":43.3017,"lon":5.38099,"is_reserved":false,"is_disabled":false,"rental_uris":{"android":"levelo://app?vid=aa1108d9-ab58-4a43-b80b-88b265c84e91","ios":"levelo://app?vid=aa1108d9-ab58-4a43-b80b-88b265c84e91"},"vehicle_type_id":"4","last_reported":1744697724,"current_range_meters":8800,"station_id":"ce4bgjp2rcd13ifvqbh0","pricing_plan_id":"cebpf4jnsgd1na2vs0mg"},{"bike_id":"488121b1-1180-48c1-a1c8-cf4b858e61a1","system_id":"levelo_inurba_marseille","lat":43.28404,"lon":5.37524,"is_reserved":false,"is_disabled":false,"rental_uris":{"android":"levelo://app?vid=488121b1-1180-48c1-a1c8-cf4b858e61a1","ios":"levelo://app?vid=488121b1-1180-48c1-a1c8-cf4b858e61a1"},"vehicle_type_id":"4","last_reported":1744697724,"current_range_meters":9600,"station_id":"ce4bh412rcd13ifvqds0","pricing_plan_id":"cebpf4jnsgd1na2vs0mg"},{"bike_id":"ef734429-5e24-498b-98db-95ee16873a56","system_id":"levelo_inurba_marseille","lat":43.27073,"lon":5.42281,"is_reserved":false,"is_disabled":false,"rental_uris":{"android":"levelo://app?vid=ef734429-5e24-498b-98db-95ee16873a56","ios":"levelo://app?vid=ef734429-5e24-498b-98db-95ee16873a56"},"vehicle_type_id":"4","last_reported":1744697724,"current_range_meters":9600,"station_id":"ce4bhk92rcd13ifvqgb0","pricing_plan_id":"cebpf4jnsgd1na2vs0mg"},{"bike_id":"b7f2ab3e-7333-4a50-9375-1a8103e49920","system_id":"levelo_inurba_marseille","lat":43.25849,"lon":5.39436,"is_reserved":false,"is_disabled":false,"rental_uris":{"android":"levelo://app?vid=b7f2ab3e-7333-4a50-9375-1a8103e49920","ios":"levelo://app?vid=b7f2ab3e-7333-4a50-9375-1a8103e49920"},"vehicle_type_id":"4","last_reported":1744697724,"current_range_meters":9600,"station_id":"ce4bhip2rcd13ifvqft0","pricing_plan_id":"cebpf4jnsgd1na2vs0mg"},{"bike_id":"51097052-b831-4574-b962-fba0c31dcf1d","system_id":"levelo_inurba_marseille","lat":43.28939,"lon":5.39639,"is_reserved":false,"is_disabled":false,"rental_uris":{"android":"levelo://app?vid=51097052-b831-4574-b962-fba0c31dcf1d","ios":"levelo://app?vid=51097052-b831-4574-b962-fba0c31dcf1d"},"vehicle_type_id":"4","last_reported":1744697724,"current_range_meters":9600,"station_id":"ce4bh3h2rcd13ifvqdn0","pricing_plan_id":"cebpf4jnsgd1na2vs0mg"},{"bike_id":"d0735fad-f544-4cd2-b602-3ae6b053b951","system_id":"levelo_inurba_marseille","lat":43.25924,"lon":5.40905,"is_reserved":false,"is_disabled":false,"rental_uris":{"android":"levelo://app?vid=d0735fad-f544-4cd2-b602-3ae6b053b951","ios":"levelo://app?vid=d0735fad-f544-4cd2-b602-3ae6b053b951"},"vehicle_type_id":"4","last_reported":1744697724,"current_range_meters":9600,"station_id":"ce4bhm92rcd13ifvqglg","pricing_plan_id":"cebpf4jnsgd1na2vs0mg"},{"bike_id":"ff6c5bbc-009f-4fe9-b11b-60ef4508468b","system_id":"levelo_inurba_marseille","lat":43.28445,"lon":5.3919,"is_reserved":false,"is_disabled":true,"rental_uris":{"android":"levelo://app?vid=ff6c5bbc-009f-4fe9-b11b-60ef4508468b","ios":"levelo://app?vid=ff6c5bbc-009f-4fe9-b11b-60ef4508468b"},"vehicle_type_id":"4","last_reported":1744697724,"current_range_meters":9600,"station_id":"ce4bhoh2rcd13ifvqh5g","pricing_plan_id":"cebpf4jnsgd1na2vs0mg"},{"bike_id":"a12a4ca1-f810-4d74-a484-47aa7a760bde","system_id":"levelo_inurba_marseille","lat":43.27067,"lon":5.42277,"is_reserved":false,"is_disabled":false,"rental_uris":{"android":"levelo://app?vid=a12a4ca1-f810-4d74-a484-47aa7a760bde","ios":"levelo://app?vid=a12a4ca1-f810-4d74-a484-47aa7a760bde"},"vehicle_type_id":"4","last_reported":1744697724,"current_range_meters":9600,"station_id":"ce4bhk92rcd13ifvqgb0","pricing_plan_id":"cebpf4jnsgd1na2vs0mg"},{"bike_id":"843838ea-15ea-4750-a740-a6a4d52b3162","system_id":"levelo_inurba_marseille","lat":43.279851,"lon":5.416689,"is_reserved":false,"is_disabled":false,"rental_uris":{"android":"levelo://app?vid=843838ea-15ea-4750-a740-a6a4d52b3162","ios":"levelo://app?vid=843838ea-15ea-4750-a740-a6a4d52b3162"},"vehicle_type_id":"4","last_reported":1744697724,"current_range_meters":10000,"station_id":"ce4bho12rcd13ifvqh1g","pricing_plan_id":"cebpf4jnsgd1na2vs0mg"},{"bike_id":"0e8e0d85-2932-4765-902a-4c3b14a3eac4","system_id":"levelo_inurba_marseille","lat":43.25624,"lon":5.37674,"is_reserved":false,"is_disabled":false,"rental_uris":{"android":"levelo://app?vid=0e8e0d85-2932-4765-902a-4c3b14a3eac4","ios":"levelo://app?vid=0e8e0d85-2932-4765-902a-4c3b14a3eac4"},"vehicle_type_id":"4","last_reported":1744697724,"current_range_meters":10000,"station_id":"","pricing_plan_id":"cebpf4jnsgd1na2vs0mg"},{"bike_id":"d2cd86fd-90ef-4a72-a4eb-a819062a3218","system_id":"levelo_inurba_marseille","lat":43.28414,"lon":5.37522,"is_reserved":false,"is_disabled":false,"rental_uris":{"android":"levelo://app?vid=d2cd86fd-90ef-4a72-a4eb-a819062a3218","ios":"levelo://app?vid=d2cd86fd-90ef-4a72-a4eb-a819062a3218"},"vehicle_type_id":"4","last_reported":1744697724,"current_range_meters":10000,"station_id":"ce4bh412rcd13ifvqds0","pricing_plan_id":"cebpf4jnsgd1na2vs0mg"},{"bike_id":"f1987361-fb21-4b10-bddc-b68ea2c89caf","system_id":"levelo_inurba_marseille","lat":43.29025,"lon":5.38643,"is_reserved":false,"is_disabled":false,"rental_uris":{"android":"levelo://app?vid=f1987361-fb21-4b10-bddc-b68ea2c89caf","ios":"levelo://app?vid=f1987361-fb21-4b10-bddc-b68ea2c89caf"},"vehicle_type_id":"4","last_reported":1744697724,"current_range_meters":10800,"station_id":"ce4bh4p2rcd13ifvqe0g","pricing_plan_id":"cebpf4jnsgd1na2vs0mg"},{"bike_id":"27a55245-8dd2-4f1a-af63-95a9d7b71690","system_id":"levelo_inurba_marseille","lat":43.310787,"lon":5.378513,"is_reserved":false,"is_disabled":false,"rental_uris":{"android":"levelo://app?vid=27a55245-8dd2-4f1a-af63-95a9d7b71690","ios":"levelo://app?vid=27a55245-8dd2-4f1a-af63-95a9d7b71690"},"vehicle_type_id":"4","last_reported":1744697724,"current_range_meters":10800,"station_id":"","pricing_plan_id":"cebpf4jnsgd1na2vs0mg"},{"bike_id":"dd55a95c-84ae-4f2d-9924-3ca8c1853af4","system_id":"levelo_inurba_marseille","lat":43.26814,"lon":5.40269,"is_reserved":false,"is_disabled":false,"rental_uris":{"android":"levelo://app?vid=dd55a95c-84ae-4f2d-9924-3ca8c1853af4","ios":"levelo://app?vid=dd55a95c-84ae-4f2d-9924-3ca8c1853af4"},"vehicle_type_id":"4","last_reported":1744697724,"current_range_meters":11200,"station_id":"ce501612rcd8frsf0b60","pricing_plan_id":"cebpf4jnsgd1na2vs0mg"},{"bike_id":"fcdcb1fb-9f42-4863-8370-ea782c7eb6a2","system_id":"levelo_inurba_marseille","lat":43.30139,"lon":5.37436,"is_reserved":false,"is_disabled":false,"rental_uris":{"android":"levelo://app?vid=fcdcb1fb-9f42-4863-8370-ea782c7eb6a2","ios":"levelo://app?vid=fcdcb1fb-9f42-4863-8370-ea782c7eb6a2"},"vehicle_type_id":"4","last_reported":1744697724,"current_range_meters":11600,"station_id":"ce4bgs92rcd13ifvqcc0","pricing_plan_id":"cebpf4jnsgd1na2vs0mg"},{"bike_id":"72797d0d-852e-4b19-81e2-39c0e89532c5","system_id":"levelo_inurba_marseille","lat":43.27952,"lon":5.38733,"is_reserved":false,"is_disabled":false,"rental_uris":{"android":"levelo://app?vid=72797d0d-852e-4b19-81e2-39c0e89532c5","ios":"levelo://app?vid=72797d0d-852e-4b19-81e2-39c0e89532c5"},"vehicle_type_id":"4","last_reported":1744697724,"current_range_meters":11600,"station_id":"ce4bhg12rcd13ifvqf80","pricing_plan_id":"cebpf4jnsgd1na2vs0mg"},{"bike_id":"3f7a0290-593e-4845-993f-1d6ded91c193","system_id":"levelo_inurba_marseille","lat":43.3171,"lon":5.37788,"is_reserved":false,"is_disabled":false,"rental_uris":{"android":"levelo://app?vid=3f7a0290-593e-4845-993f-1d6ded91c193","ios":"levelo://app?vid=3f7a0290-593e-4845-993f-1d6ded91c193"},"vehicle_type_id":"4","last_reported":1744697724,"current_range_meters":11600,"station_id":"ce4bgth2rcd13ifvqch0","pricing_plan_id":"cebpf4jnsgd1na2vs0mg"},{"bike_id":"e65d2fcf-5b1f-41b3-a763-72d500e02a9e","system_id":"levelo_inurba_marseille","lat":43.23152,"lon":5.43712,"is_reserved":false,"is_disabled":false,"rental_uris":{"android":"levelo://app?vid=e65d2fcf-5b1f-41b3-a763-72d500e02a9e","ios":"levelo://app?vid=e65d2fcf-5b1f-41b3-a763-72d500e02a9e"},"vehicle_type_id":"4","last_reported":1744697724,"current_range_meters":11600,"station_id":"ce4bhmp2rcd13ifvqgog","pricing_plan_id":"cebpf4jnsgd1na2vs0mg"},{"bike_id":"93b02a0f-e2f5-49ef-90ae-4a058707e43d","system_id":"levelo_inurba_marseille","lat":43.29698,"lon":5.37301,"is_reserved":false,"is_disabled":true,"rental_uris":{"android":"levelo://app?vid=93b02a0f-e2f5-49ef-90ae-4a058707e43d","ios":"levelo://app?vid=93b02a0f-e2f5-49ef-90ae-4a058707e43d"},"vehicle_type_id":"4","last_reported":1744697724,"current_range_meters":11600,"station_id":"ce4bgk12rcd13ifvqbj0","pricing_plan_id":"cebpf4jnsgd1na2vs0mg"},{"bike_id":"812b935b-9d80-43d8-81cf-74ca3ab3a3c8","system_id":"levelo_inurba_marseille","lat":43.29032,"lon":5.39993,"is_reserved":false,"is_disabled":false,"rental_uris":{"android":"levelo://app?vid=812b935b-9d80-43d8-81cf-74ca3ab3a3c8","ios":"levelo://app?vid=812b935b-9d80-43d8-81cf-74ca3ab3a3c8"},"vehicle_type_id":"4","last_reported":1744697724,"current_range_meters":12000,"station_id":"ce4bh392rcd13ifvqdm0","pricing_plan_id":"cebpf4jnsgd1na2vs0mg"},{"bike_id":"9050bcb2-4fea-4bae-b3fe-93394c76bda1","system_id":"levelo_inurba_marseille","lat":43.316946,"lon":5.404805,"is_reserved":false,"is_disabled":false,"rental_uris":{"android":"levelo://app?vid=9050bcb2-4fea-4bae-b3fe-93394c76bda1","ios":"levelo://app?vid=9050bcb2-4fea-4bae-b3fe-93394c76bda1"},"vehicle_type_id":"4","last_reported":1744697724,"current_range_meters":12000,"station_id":"ce4bh012rcd13ifvqd00","pricing_plan_id":"cebpf4jnsgd1na2vs0mg"},{"bike_id":"9481a4d4-998c-4242-822b-0b8fa3017440","system_id":"levelo_inurba_marseille","lat":43.288562,"lon":5.393403,"is_reserved":false,"is_disabled":true,"rental_uris":{"android":"levelo://app?vid=9481a4d4-998c-4242-822b-0b8fa3017440","ios":"levelo://app?vid=9481a4d4-998c-4242-822b-0b8fa3017440"},"vehicle_type_id":"4","last_reported":1744697724,"current_range_meters":12000,"station_id":"ce4bh2p2rcd13ifvqdi0","pricing_plan_id":"cebpf4jnsgd1na2vs0mg"},{"bike_id":"56135a82-d19f-45ea-a72c-58b1131d0fcb","system_id":"levelo_inurba_marseille","lat":43.28082,"lon":5.39664,"is_reserved":false,"is_disabled":true,"rental_uris":{"android":"levelo://app?vid=56135a82-d19f-45ea-a72c-58b1131d0fcb","ios":"levelo://app?vid=56135a82-d19f-45ea-a72c-58b1131d0fcb"},"vehicle_type_id":"4","last_reported":1744697724,"current_range_meters":12000,"station_id":"ce4bho12rcd13ifvqh2g","pricing_plan_id":"cebpf4jnsgd1na2vs0mg"},{"bike_id":"84fb8e66-de8f-45d3-ad44-c1f398bad0b8","system_id":"levelo_inurba_marseille","lat":43.270226,"lon":5.386479,"is_reserved":false,"is_disabled":false,"rental_uris":{"android":"levelo://app?vid=84fb8e66-de8f-45d3-ad44-c1f398bad0b8","ios":"levelo://app?vid=84fb8e66-de8f-45d3-ad44-c1f398bad0b8"},"vehicle_type_id":"4","last_reported":1744697724,"current_range_meters":12000,"station_id":"ce4bhdp2rcd13ifvqf20","pricing_plan_id":"cebpf4jnsgd1na2vs0mg"},{"bike_id":"ebc00508-063d-4173-a5d7-86b9fc557991","system_id":"levelo_inurba_marseille","lat":43.29551,"lon":5.3997,"is_reserved":false,"is_disabled":false,"rental_uris":{"android":"levelo://app?vid=ebc00508-063d-4173-a5d7-86b9fc557991","ios":"levelo://app?vid=ebc00508-063d-4173-a5d7-86b9fc557991"},"vehicle_type_id":"4","last_reported":1744697724,"current_range_meters":12000,"station_id":"ce4bh312rcd13ifvqdj0","pricing_plan_id":"cebpf4jnsgd1na2vs0mg"},{"bike_id":"45152fd8-c07c-4d52-b7a7-6670add35e00","system_id":"levelo_inurba_marseille","lat":43.26113,"lon":5.421,"is_reserved":false,"is_disabled":false,"rental_uris":{"android":"levelo://app?vid=45152fd8-c07c-4d52-b7a7-6670add35e00","ios":"levelo://app?vid=45152fd8-c07c-4d52-b7a7-6670add35e00"},"vehicle_type_id":"4","last_reported":1744697724,"current_range_meters":12000,"station_id":"","pricing_plan_id":"cebpf4jnsgd1na2vs0mg"},{"bike_id":"209a0192-0fdc-4e02-9c79-b42f732cc1f7","system_id":"levelo_inurba_marseille","lat":43.23965,"lon":5.3664,"is_reserved":false,"is_disabled":false,"rental_uris":{"android":"levelo://app?vid=209a0192-0fdc-4e02-9c79-b42f732cc1f7","ios":"levelo://app?vid=209a0192-0fdc-4e02-9c79-b42f732cc1f7"},"vehicle_type_id":"4","last_reported":1744697724,"current_range_meters":12400,"station_id":"ce4bhi12rcd13ifvqfp0","pricing_plan_id":"cebpf4jnsgd1na2vs0mg"},{"bike_id":"d838b93b-589b-4c0d-8aa7-2fbbdacbb7c7","system_id":"levelo_inurba_marseille","lat":43.27978,"lon":5.38738,"is_reserved":false,"is_disabled":false,"rental_uris":{"android":"levelo://app?vid=d838b93b-589b-4c0d-8aa7-2fbbdacbb7c7","ios":"levelo://app?vid=d838b93b-589b-4c0d-8aa7-2fbbdacbb7c7"},"vehicle_type_id":"4","last_reported":1744697724,"current_range_meters":12400,"station_id":"ce4bhg12rcd13ifvqf80","pricing_plan_id":"cebpf4jnsgd1na2vs0mg"},{"bike_id":"02dc5853-d17c-47ac-a646-82ded7ba5800","system_id":"levelo_inurba_marseille","lat":43.30221,"lon":5.40042,"is_reserved":false,"is_disabled":true,"rental_uris":{"android":"levelo://app?vid=02dc5853-d17c-47ac-a646-82ded7ba5800","ios":"levelo://app?vid=02dc5853-d17c-47ac-a646-82ded7ba5800"},"vehicle_type_id":"4","last_reported":1744697724,"current_range_meters":12800,"station_id":"ce4bgvh2rcd13ifvqcs0","pricing_plan_id":"cebpf4jnsgd1na2vs0mg"},{"bike_id":"b225db6f-f59a-478a-a565-451dda7af67c","system_id":"levelo_inurba_marseille","lat":43.262232,"lon":5.404534,"is_reserved":false,"is_disabled":false,"rental_uris":{"android":"levelo://app?vid=b225db6f-f59a-478a-a565-451dda7af67c","ios":"levelo://app?vid=b225db6f-f59a-478a-a565-451dda7af67c"},"vehicle_type_id":"4","last_reported":1744697724,"current_range_meters":12800,"station_id":"ce4bhmh2rcd13ifvqgmg","pricing_plan_id":"cebpf4jnsgd1na2vs0mg"},{"bike_id":"37342bdf-d586-43ba-a25b-da22b3393da6","system_id":"levelo_inurba_marseille","lat":43.2913,"lon":5.37446,"is_reserved":false,"is_disabled":false,"rental_uris":{"android":"levelo://app?vid=37342bdf-d586-43ba-a25b-da22b3393da6","ios":"levelo://app?vid=37342bdf-d586-43ba-a25b-da22b3393da6"},"vehicle_type_id":"4","last_reported":1744697724,"current_range_meters":12800,"station_id":"","pricing_plan_id":"cebpf4jnsgd1na2vs0mg"},{"bike_id":"eaab218d-e2d1-41bf-9760-fefe68483a25","system_id":"levelo_inurba_marseille","lat":43.2418,"lon":5.398,"is_reserved":false,"is_disabled":false,"rental_uris":{"android":"levelo://app?vid=eaab218d-e2d1-41bf-9760-fefe68483a25","ios":"levelo://app?vid=eaab218d-e2d1-41bf-9760-fefe68483a25"},"vehicle_type_id":"4","last_reported":1744697724,"current_range_meters":12800,"station_id":"ce4bhn12rcd13ifvqgpg","pricing_plan_id":"cebpf4jnsgd1na2vs0mg"},{"bike_id":"86507adb-43c1-4a89-acc7-c74cd80a099f","system_id":"levelo_inurba_marseille","lat":43.23126,"lon":5.36671,"is_reserved":false,"is_disabled":false,"rental_uris":{"android":"levelo://app?vid=86507adb-43c1-4a89-acc7-c74cd80a099f","ios":"levelo://app?vid=86507adb-43c1-4a89-acc7-c74cd80a099f"},"vehicle_type_id":"4","last_reported":1744697724,"current_range_meters":13600,"station_id":"","pricing_plan_id":"cebpf4jnsgd1na2vs0mg"},{"bike_id":"c936bec5-eb22-4a9e-a1eb-f5368582a668","system_id":"levelo_inurba_marseille","lat":43.29529,"lon":5.37507,"is_reserved":false,"is_disabled":false,"rental_uris":{"android":"levelo://app?vid=c936bec5-eb22-4a9e-a1eb-f5368582a668","ios":"levelo://app?vid=c936bec5-eb22-4a9e-a1eb-f5368582a668"},"vehicle_type_id":"4","last_reported":1744697724,"current_range_meters":13600,"station_id":"ce4bgkp2rcd13ifvqbmg","pricing_plan_id":"cebpf4jnsgd1na2vs0mg"},{"bike_id":"925d9f60-adb9-4406-b446-d9ac73846ce0","system_id":"levelo_inurba_marseille","lat":43.31387,"lon":5.38505,"is_reserved":false,"is_disabled":false,"rental_uris":{"android":"levelo://app?vid=925d9f60-adb9-4406-b446-d9ac73846ce0","ios":"levelo://app?vid=925d9f60-adb9-4406-b446-d9ac73846ce0"},"vehicle_type_id":"4","last_reported":1744697724,"current_range_meters":14000,"station_id":"ce4bgt92rcd13ifvqcf0","pricing_plan_id":"cebpf4jnsgd1na2vs0mg"},{"bike_id":"330e32e6-fa77-4f68-8e04-78282425217b","system_id":"levelo_inurba_marseille","lat":43.24653,"lon":5.3885,"is_reserved":false,"is_disabled":false,"rental_uris":{"android":"levelo://app?vid=330e32e6-fa77-4f68-8e04-78282425217b","ios":"levelo://app?vid=330e32e6-fa77-4f68-8e04-78282425217b"},"vehicle_type_id":"4","last_reported":1744697724,"current_range_meters":14000,"station_id":"ce4bhg12rcd13ifvqf60","pricing_plan_id":"cebpf4jnsgd1na2vs0mg"},{"bike_id":"fedb9457-c408-43a0-8b5e-ccdff25947f5","system_id":"levelo_inurba_marseille","lat":43.26217,"lon":5.40467,"is_reserved":false,"is_disabled":true,"rental_uris":{"android":"levelo://app?vid=fedb9457-c408-43a0-8b5e-ccdff25947f5","ios":"levelo://app?vid=fedb9457-c408-43a0-8b5e-ccdff25947f5"},"vehicle_type_id":"4","last_reported":1744697724,"current_range_meters":14000,"station_id":"ce4bhlh2rcd13ifvqgig","pricing_plan_id":"cebpf4jnsgd1na2vs0mg"},{"bike_id":"382a1a40-cce5-4bcf-8677-ad51fb5a2457","system_id":"levelo_inurba_marseille","lat":43.28855,"lon":5.39332,"is_reserved":false,"is_disabled":true,"rental_uris":{"android":"levelo://app?vid=382a1a40-cce5-4bcf-8677-ad51fb5a2457","ios":"levelo://app?vid=382a1a40-cce5-4bcf-8677-ad51fb5a2457"},"vehicle_type_id":"4","last_reported":1744697724,"current_range_meters":14000,"station_id":"ce4bh2p2rcd13ifvqdi0","pricing_plan_id":"cebpf4jnsgd1na2vs0mg"},{"bike_id":"5c0cc5dd-7c03-4f8b-838c-65a8bfb31b5b","system_id":"levelo_inurba_marseille","lat":43.24669,"lon":5.38163,"is_reserved":false,"is_disabled":false,"rental_uris":{"android":"levelo://app?vid=5c0cc5dd-7c03-4f8b-838c-65a8bfb31b5b","ios":"levelo://app?vid=5c0cc5dd-7c03-4f8b-838c-65a8bfb31b5b"},"vehicle_type_id":"4","last_reported":1744697724,"current_range_meters":14400,"station_id":"ce4bhih2rcd13ifvqfr0","pricing_plan_id":"cebpf4jnsgd1na2vs0mg"},{"bike_id":"a6df17eb-3570-436e-862c-fc5ce65d2e7e","system_id":"levelo_inurba_marseille","lat":43.2862,"lon":5.35095,"is_reserved":false,"is_disabled":false,"rental_uris":{"android":"levelo://app?vid=a6df17eb-3570-436e-862c-fc5ce65d2e7e","ios":"levelo://app?vid=a6df17eb-3570-436e-862c-fc5ce65d2e7e"},"vehicle_type_id":"4","last_reported":1744697724,"current_range_meters":14800,"station_id":"ce4bhch2rcd13ifvqeug","pricing_plan_id":"cebpf4jnsgd1na2vs0mg"},{"bike_id":"150c92f3-516d-41fe-89f9-fa7bb41a1f80","system_id":"levelo_inurba_marseille","lat":43.30319,"lon":5.40447,"is_reserved":false,"is_disabled":false,"rental_uris":{"android":"levelo://app?vid=150c92f3-516d-41fe-89f9-fa7bb41a1f80","ios":"levelo://app?vid=150c92f3-516d-41fe-89f9-fa7bb41a1f80"},"vehicle_type_id":"4","last_reported":1744697724,"current_range_meters":14800,"station_id":"ce4bh012rcd13ifvqd10","pricing_plan_id":"cebpf4jnsgd1na2vs0mg"},{"bike_id":"3f52eb2a-913c-4823-9347-a3f551cc55a7","system_id":"levelo_inurba_marseille","lat":43.27496,"lon":5.42448,"is_reserved":false,"is_disabled":false,"rental_uris":{"android":"levelo://app?vid=3f52eb2a-913c-4823-9347-a3f551cc55a7","ios":"levelo://app?vid=3f52eb2a-913c-4823-9347-a3f551cc55a7"},"vehicle_type_id":"4","last_reported":1744697724,"current_range_meters":14800,"station_id":"ce4bhn92rcd13ifvqgrg","pricing_plan_id":"cebpf4jnsgd1na2vs0mg"},{"bike_id":"d2d37f01-fa46-4fbc-a721-7789f4003663","system_id":"levelo_inurba_marseille","lat":43.24975,"lon":5.3897,"is_reserved":false,"is_disabled":false,"rental_uris":{"android":"levelo://app?vid=d2d37f01-fa46-4fbc-a721-7789f4003663","ios":"levelo://app?vid=d2d37f01-fa46-4fbc-a721-7789f4003663"},"vehicle_type_id":"4","last_reported":1744697724,"current_range_meters":14800,"station_id":"","pricing_plan_id":"cebpf4jnsgd1na2vs0mg"},{"bike_id":"5a254601-f197-438d-9cbd-45fa12e676cd","system_id":"levelo_inurba_marseille","lat":43.29041,"lon":5.39954,"is_reserved":false,"is_disabled":false,"rental_uris":{"android":"levelo://app?vid=5a254601-f197-438d-9cbd-45fa12e676cd","ios":"levelo://app?vid=5a254601-f197-438d-9cbd-45fa12e676cd"},"vehicle_type_id":"4","last_reported":1744697724,"current_range_meters":14800,"station_id":"ce4bh392rcd13ifvqdm0","pricing_plan_id":"cebpf4jnsgd1na2vs0mg"},{"bike_id":"b9fc8cc3-945a-4db5-b7aa-66d235d9bf40","system_id":"levelo_inurba_marseille","lat":43.30897,"lon":5.37236,"is_reserved":false,"is_disabled":false,"rental_uris":{"android":"levelo://app?vid=b9fc8cc3-945a-4db5-b7aa-66d235d9bf40","ios":"levelo://app?vid=b9fc8cc3-945a-4db5-b7aa-66d235d9bf40"},"vehicle_type_id":"4","last_reported":1744697724,"current_range_meters":14800,"station_id":"ce4bguh2rcd13ifvqckg","pricing_plan_id":"cebpf4jnsgd1na2vs0mg"},{"bike_id":"3db59e7c-0abc-42f1-8a94-0d2a1894c490","system_id":"levelo_inurba_marseille","lat":43.29026,"lon":5.39987,"is_reserved":false,"is_disabled":false,"rental_uris":{"android":"levelo://app?vid=3db59e7c-0abc-42f1-8a94-0d2a1894c490","ios":"levelo://app?vid=3db59e7c-0abc-42f1-8a94-0d2a1894c490"},"vehicle_type_id":"4","last_reported":1744697724,"current_range_meters":14800,"station_id":"ce4bh392rcd13ifvqdm0","pricing_plan_id":"cebpf4jnsgd1na2vs0mg"},{"bike_id":"216c0a2c-fab0-4352-94a0-14b77c387959","system_id":"levelo_inurba_marseille","lat":43.24681,"lon":5.38152,"is_reserved":false,"is_disabled":false,"rental_uris":{"android":"levelo://app?vid=216c0a2c-fab0-4352-94a0-14b77c387959","ios":"levelo://app?vid=216c0a2c-fab0-4352-94a0-14b77c387959"},"vehicle_type_id":"4","last_reported":1744697724,"current_range_meters":15200,"station_id":"ce4bhih2rcd13ifvqfr0","pricing_plan_id":"cebpf4jnsgd1na2vs0mg"},{"bike_id":"8a1fc1b6-9ba8-4eaa-8806-e8628dd9fd73","system_id":"levelo_inurba_marseille","lat":43.27354,"lon":5.41287,"is_reserved":false,"is_disabled":false,"rental_uris":{"android":"levelo://app?vid=8a1fc1b6-9ba8-4eaa-8806-e8628dd9fd73","ios":"levelo://app?vid=8a1fc1b6-9ba8-4eaa-8806-e8628dd9fd73"},"vehicle_type_id":"4","last_reported":1744697724,"current_range_meters":15200,"station_id":"","pricing_plan_id":"cebpf4jnsgd1na2vs0mg"},{"bike_id":"47a85634-40b2-4bd1-8409-1d1cf2f06bdc","system_id":"levelo_inurba_marseille","lat":43.24069,"lon":5.37824,"is_reserved":false,"is_disabled":false,"rental_uris":{"android":"levelo://app?vid=47a85634-40b2-4bd1-8409-1d1cf2f06bdc","ios":"levelo://app?vid=47a85634-40b2-4bd1-8409-1d1cf2f06bdc"},"vehicle_type_id":"4","last_reported":1744697724,"current_range_meters":16000,"station_id":"","pricing_plan_id":"cebpf4jnsgd1na2vs0mg"},{"bike_id":"d1f397d9-e163-4a91-8b6b-a9eae5e1478e","system_id":"levelo_inurba_marseille","lat":43.285212,"lon":5.359711,"is_reserved":false,"is_disabled":false,"rental_uris":{"android":"levelo://app?vid=d1f397d9-e163-4a91-8b6b-a9eae5e1478e","ios":"levelo://app?vid=d1f397d9-e163-4a91-8b6b-a9eae5e1478e"},"vehicle_type_id":"4","last_reported":1744697724,"current_range_meters":16000,"station_id":"","pricing_plan_id":"cebpf4jnsgd1na2vs0mg"},{"bike_id":"c9fbfbd0-ac82-410e-8a58-1795989b1898","system_id":"levelo_inurba_marseille","lat":43.30506,"lon":5.37906,"is_reserved":false,"is_disabled":false,"rental_uris":{"android":"levelo://app?vid=c9fbfbd0-ac82-410e-8a58-1795989b1898","ios":"levelo://app?vid=c9fbfbd0-ac82-410e-8a58-1795989b1898"},"vehicle_type_id":"4","last_reported":1744697724,"current_range_meters":16000,"station_id":"ce4bgup2rcd13ifvqcn0","pricing_plan_id":"cebpf4jnsgd1na2vs0mg"},{"bike_id":"77037b3f-050a-4708-b85e-3feee4d6225d","system_id":"levelo_inurba_marseille","lat":43.304638,"lon":5.379085,"is_reserved":false,"is_disabled":false,"rental_uris":{"android":"levelo://app?vid=77037b3f-050a-4708-b85e-3feee4d6225d","ios":"levelo://app?vid=77037b3f-050a-4708-b85e-3feee4d6225d"},"vehicle_type_id":"4","last_reported":1744697724,"current_range_meters":16000,"station_id":"ce4bgj12rcd13ifvqbc0","pricing_plan_id":"cebpf4jnsgd1na2vs0mg"},{"bike_id":"690344b0-9f80-484a-9c0a-0cb50bc24e58","system_id":"levelo_inurba_marseille","lat":43.3146,"lon":5.37394,"is_reserved":false,"is_disabled":false,"rental_uris":{"android":"levelo://app?vid=690344b0-9f80-484a-9c0a-0cb50bc24e58","ios":"levelo://app?vid=690344b0-9f80-484a-9c0a-0cb50bc24e58"},"vehicle_type_id":"4","last_reported":1744697724,"current_range_meters":16000,"station_id":"","pricing_plan_id":"cebpf4jnsgd1na2vs0mg"},{"bike_id":"e298fb17-60fe-4ee1-bc94-645f9b8b1bb4","system_id":"levelo_inurba_marseille","lat":43.289976,"lon":5.376094,"is_reserved":false,"is_disabled":false,"rental_uris":{"android":"levelo://app?vid=e298fb17-60fe-4ee1-bc94-645f9b8b1bb4","ios":"levelo://app?vid=e298fb17-60fe-4ee1-bc94-645f9b8b1bb4"},"vehicle_type_id":"4","last_reported":1744697724,"current_range_meters":16000,"station_id":"ce4bh692rcd13ifvqe90","pricing_plan_id":"cebpf4jnsgd1na2vs0mg"},{"bike_id":"da99c73e-315c-466c-9085-8ad5e553ae2a","system_id":"levelo_inurba_marseille","lat":43.29524,"lon":5.37516,"is_reserved":false,"is_disabled":false,"rental_uris":{"android":"levelo://app?vid=da99c73e-315c-466c-9085-8ad5e553ae2a","ios":"levelo://app?vid=da99c73e-315c-466c-9085-8ad5e553ae2a"},"vehicle_type_id":"4","last_reported":1744697724,"current_range_meters":16000,"station_id":"ce4bgkp2rcd13ifvqbmg","pricing_plan_id":"cebpf4jnsgd1na2vs0mg"},{"bike_id":"c417c17e-b147-4f7d-a26a-1f902d139095","system_id":"levelo_inurba_marseille","lat":43.28153,"lon":5.42665,"is_reserved":false,"is_disabled":false,"rental_uris":{"android":"levelo://app?vid=c417c17e-b147-4f7d-a26a-1f902d139095","ios":"levelo://app?vid=c417c17e-b147-4f7d-a26a-1f902d139095"},"vehicle_type_id":"4","last_reported":1744697724,"current_range_meters":16400,"station_id":"ce4bhnh2rcd13ifvqgug","pricing_plan_id":"cebpf4jnsgd1na2vs0mg"},{"bike_id":"9f815d1f-0f68-4c8f-b1b5-8479483fda1c","system_id":"levelo_inurba_marseille","lat":43.28409,"lon":5.37489,"is_reserved":false,"is_disabled":false,"rental_uris":{"android":"levelo://app?vid=9f815d1f-0f68-4c8f-b1b5-8479483fda1c","ios":"levelo://app?vid=9f815d1f-0f68-4c8f-b1b5-8479483fda1c"},"vehicle_type_id":"4","last_reported":1744697724,"current_range_meters":16400,"station_id":"ce4bh412rcd13ifvqds0","pricing_plan_id":"cebpf4jnsgd1na2vs0mg"},{"bike_id":"7282ea70-0923-45fc-a703-28d7b3244700","system_id":"levelo_inurba_marseille","lat":43.298072,"lon":5.404053,"is_reserved":false,"is_disabled":false,"rental_uris":{"android":"levelo://app?vid=7282ea70-0923-45fc-a703-28d7b3244700","ios":"levelo://app?vid=7282ea70-0923-45fc-a703-28d7b3244700"},"vehicle_type_id":"4","last_reported":1744697724,"current_range_meters":16400,"station_id":"ce4bh112rcd13ifvqd90","pricing_plan_id":"cebpf4jnsgd1na2vs0mg"},{"bike_id":"875fe8f3-7d3f-435e-ab50-5233e95da210","system_id":"levelo_inurba_marseille","lat":43.30906,"lon":5.36852,"is_reserved":false,"is_disabled":false,"rental_uris":{"android":"levelo://app?vid=875fe8f3-7d3f-435e-ab50-5233e95da210","ios":"levelo://app?vid=875fe8f3-7d3f-435e-ab50-5233e95da210"},"vehicle_type_id":"4","last_reported":1744697724,"current_range_meters":16800,"station_id":"ce4bgn92rcd13ifvqbvg","pricing_plan_id":"cebpf4jnsgd1na2vs0mg"},{"bike_id":"1db5875e-9554-431a-834e-c108524c8f93","system_id":"levelo_inurba_marseille","lat":43.28001,"lon":5.40016,"is_reserved":false,"is_disabled":false,"rental_uris":{"android":"levelo://app?vid=1db5875e-9554-431a-834e-c108524c8f93","ios":"levelo://app?vid=1db5875e-9554-431a-834e-c108524c8f93"},"vehicle_type_id":"4","last_reported":1744697724,"current_range_meters":16800,"station_id":"ce4bho92rcd13ifvqh4g","pricing_plan_id":"cebpf4jnsgd1na2vs0mg"},{"bike_id":"90e84348-caf4-4a30-9182-519590f0e4db","system_id":"levelo_inurba_marseille","lat":43.28612,"lon":5.35104,"is_reserved":false,"is_disabled":false,"rental_uris":{"android":"levelo://app?vid=90e84348-caf4-4a30-9182-519590f0e4db","ios":"levelo://app?vid=90e84348-caf4-4a30-9182-519590f0e4db"},"vehicle_type_id":"4","last_reported":1744697724,"current_range_meters":16800,"station_id":"ce4bhch2rcd13ifvqeug","pricing_plan_id":"cebpf4jnsgd1na2vs0mg"},{"bike_id":"7eacb872-0584-4b06-8fad-feb612d3799a","system_id":"levelo_inurba_marseille","lat":43.29695,"lon":5.38134,"is_reserved":false,"is_disabled":false,"rental_uris":{"android":"levelo://app?vid=7eacb872-0584-4b06-8fad-feb612d3799a","ios":"levelo://app?vid=7eacb872-0584-4b06-8fad-feb612d3799a"},"vehicle_type_id":"4","last_reported":1744697724,"current_range_meters":16800,"station_id":"","pricing_plan_id":"cebpf4jnsgd1na2vs0mg"},{"bike_id":"32ef499e-ccb6-4e90-bac0-d4a1b914c43c","system_id":"levelo_inurba_marseille","lat":43.287277,"lon":5.360906,"is_reserved":false,"is_disabled":false,"rental_uris":{"android":"levelo://app?vid=32ef499e-ccb6-4e90-bac0-d4a1b914c43c","ios":"levelo://app?vid=32ef499e-ccb6-4e90-bac0-d4a1b914c43c"},"vehicle_type_id":"4","last_reported":1744697724,"current_range_meters":16800,"station_id":"cki0cbj6b192h4jlfktg","pricing_plan_id":"cebpf4jnsgd1na2vs0mg"},{"bike_id":"aed8da60-7de2-402c-93e2-80e4365e79d6","system_id":"levelo_inurba_marseille","lat":43.29805,"lon":5.38115,"is_reserved":false,"is_disabled":false,"rental_uris":{"android":"levelo://app?vid=aed8da60-7de2-402c-93e2-80e4365e79d6","ios":"levelo://app?vid=aed8da60-7de2-402c-93e2-80e4365e79d6"},"vehicle_type_id":"4","last_reported":1744697724,"current_range_meters":16800,"station_id":"ce4bgip2rcd13ifvqbb0","pricing_plan_id":"cebpf4jnsgd1na2vs0mg"},{"bike_id":"5447dc62-fd60-4585-9283-08e72056710b","system_id":"levelo_inurba_marseille","lat":43.24812,"lon":5.3745,"is_reserved":false,"is_disabled":false,"rental_uris":{"android":"levelo://app?vid=5447dc62-fd60-4585-9283-08e72056710b","ios":"levelo://app?vid=5447dc62-fd60-4585-9283-08e72056710b"},"vehicle_type_id":"4","last_reported":1744697724,"current_range_meters":16800,"station_id":"ce4bhgh2rcd13ifvqfb0","pricing_plan_id":"cebpf4jnsgd1na2vs0mg"},{"bike_id":"90ade505-5308-452c-ace7-cee618f45386","system_id":"levelo_inurba_marseille","lat":43.25279,"lon":5.39933,"is_reserved":false,"is_disabled":false,"rental_uris":{"android":"levelo://app?vid=90ade505-5308-452c-ace7-cee618f45386","ios":"levelo://app?vid=90ade505-5308-452c-ace7-cee618f45386"},"vehicle_type_id":"4","last_reported":1744697724,"current_range_meters":16800,"station_id":"","pricing_plan_id":"cebpf4jnsgd1na2vs0mg"},{"bike_id":"07b109b0-26ed-4e98-ad81-af4fe2288a31","system_id":"levelo_inurba_marseille","lat":43.30091,"lon":5.39115,"is_reserved":false,"is_disabled":false,"rental_uris":{"android":"levelo://app?vid=07b109b0-26ed-4e98-ad81-af4fe2288a31","ios":"levelo://app?vid=07b109b0-26ed-4e98-ad81-af4fe2288a31"},"vehicle_type_id":"4","last_reported":1744697724,"current_range_meters":16800,"station_id":"ce4bh192rcd13ifvqdb0","pricing_plan_id":"cebpf4jnsgd1na2vs0mg"},{"bike_id":"4aef0fa6-a0da-4fa2-9099-9fa1ba81c16a","system_id":"levelo_inurba_marseille","lat":43.28158,"lon":5.4044,"is_reserved":false,"is_disabled":false,"rental_uris":{"android":"levelo://app?vid=4aef0fa6-a0da-4fa2-9099-9fa1ba81c16a","ios":"levelo://app?vid=4aef0fa6-a0da-4fa2-9099-9fa1ba81c16a"},"vehicle_type_id":"4","last_reported":1744697724,"current_range_meters":17200,"station_id":"","pricing_plan_id":"cebpf4jnsgd1na2vs0mg"},{"bike_id":"c8d24df4-b09f-432c-8af3-427efe4ed90b","system_id":"levelo_inurba_marseille","lat":43.30438,"lon":5.36704,"is_reserved":false,"is_disabled":false,"rental_uris":{"android":"levelo://app?vid=c8d24df4-b09f-432c-8af3-427efe4ed90b","ios":"levelo://app?vid=c8d24df4-b09f-432c-8af3-427efe4ed90b"},"vehicle_type_id":"4","last_reported":1744697724,"current_range_meters":17200,"station_id":"","pricing_plan_id":"cebpf4jnsgd1na2vs0mg"},{"bike_id":"2caebf1c-7dd1-4d93-97aa-8cb87eccf6d4","system_id":"levelo_inurba_marseille","lat":43.31098,"lon":5.4245,"is_reserved":false,"is_disabled":false,"rental_uris":{"android":"levelo://app?vid=2caebf1c-7dd1-4d93-97aa-8cb87eccf6d4","ios":"levelo://app?vid=2caebf1c-7dd1-4d93-97aa-8cb87eccf6d4"},"vehicle_type_id":"4","last_reported":1744697724,"current_range_meters":17200,"station_id":"ce4bhp92rcd13ifvqhag","pricing_plan_id":"cebpf4jnsgd1na2vs0mg"},{"bike_id":"ab6989cb-9f0e-47c2-afae-95401707d6d4","system_id":"levelo_inurba_marseille","lat":43.29039,"lon":5.39968,"is_reserved":false,"is_disabled":false,"rental_uris":{"android":"levelo://app?vid=ab6989cb-9f0e-47c2-afae-95401707d6d4","ios":"levelo://app?vid=ab6989cb-9f0e-47c2-afae-95401707d6d4"},"vehicle_type_id":"4","last_reported":1744697724,"current_range_meters":17600,"station_id":"ce4bh392rcd13ifvqdm0","pricing_plan_id":"cebpf4jnsgd1na2vs0mg"},{"bike_id":"80dcdbb4-df1d-42b0-9b04-d3646089ba95","system_id":"levelo_inurba_marseille","lat":43.2793,"lon":5.39607,"is_reserved":false,"is_disabled":false,"rental_uris":{"android":"levelo://app?vid=80dcdbb4-df1d-42b0-9b04-d3646089ba95","ios":"levelo://app?vid=80dcdbb4-df1d-42b0-9b04-d3646089ba95"},"vehicle_type_id":"4","last_reported":1744697724,"current_range_meters":17600,"station_id":"ce4bhf92rcd13ifvqf40","pricing_plan_id":"cebpf4jnsgd1na2vs0mg"},{"bike_id":"ce0f1f79-6887-41b7-bb18-d1ecae25ef1d","system_id":"levelo_inurba_marseille","lat":43.27317,"lon":5.39085,"is_reserved":false,"is_disabled":false,"rental_uris":{"android":"levelo://app?vid=ce0f1f79-6887-41b7-bb18-d1ecae25ef1d","ios":"levelo://app?vid=ce0f1f79-6887-41b7-bb18-d1ecae25ef1d"},"vehicle_type_id":"4","last_reported":1744697724,"current_range_meters":17600,"station_id":"ce4bhgp2rcd13ifvqfe0","pricing_plan_id":"cebpf4jnsgd1na2vs0mg"},{"bike_id":"013a924c-1ee5-4674-a305-ba7bd5a1d58b","system_id":"levelo_inurba_marseille","lat":43.23081,"lon":5.35502,"is_reserved":false,"is_disabled":false,"rental_uris":{"android":"levelo://app?vid=013a924c-1ee5-4674-a305-ba7bd5a1d58b","ios":"levelo://app?vid=013a924c-1ee5-4674-a305-ba7bd5a1d58b"},"vehicle_type_id":"4","last_reported":1744697724,"current_range_meters":17600,"station_id":"cpo3342slgdg3j2ifvpg","pricing_plan_id":"cebpf4jnsgd1na2vs0mg"},{"bike_id":"751595e2-0aeb-4979-ba6e-f902dc9f8a1c","system_id":"levelo_inurba_marseille","lat":43.23167,"lon":5.43742,"is_reserved":false,"is_disabled":false,"rental_uris":{"android":"levelo://app?vid=751595e2-0aeb-4979-ba6e-f902dc9f8a1c","ios":"levelo://app?vid=751595e2-0aeb-4979-ba6e-f902dc9f8a1c"},"vehicle_type_id":"4","last_reported":1744697724,"current_range_meters":17600,"station_id":"ce4bhmp2rcd13ifvqgog","pricing_plan_id":"cebpf4jnsgd1na2vs0mg"},{"bike_id":"f7878edf-3ed4-4a3d-b98f-7ed55c542240","system_id":"levelo_inurba_marseille","lat":43.29288,"lon":5.40124,"is_reserved":false,"is_disabled":false,"rental_uris":{"android":"levelo://app?vid=f7878edf-3ed4-4a3d-b98f-7ed55c542240","ios":"levelo://app?vid=f7878edf-3ed4-4a3d-b98f-7ed55c542240"},"vehicle_type_id":"4","last_reported":1744697724,"current_range_meters":17600,"station_id":"ce4bh312rcd13ifvqdk0","pricing_plan_id":"cebpf4jnsgd1na2vs0mg"},{"bike_id":"7ddf65c7-80e5-4397-b8fe-53d87ed60d65","system_id":"levelo_inurba_marseille","lat":43.29847,"lon":5.36285,"is_reserved":false,"is_disabled":false,"rental_uris":{"android":"levelo://app?vid=7ddf65c7-80e5-4397-b8fe-53d87ed60d65","ios":"levelo://app?vid=7ddf65c7-80e5-4397-b8fe-53d87ed60d65"},"vehicle_type_id":"4","last_reported":1744697724,"current_range_meters":17600,"station_id":"ce4bgpp2rcd13ifvqc3g","pricing_plan_id":"cebpf4jnsgd1na2vs0mg"},{"bike_id":"504cf016-be85-40ae-bd6e-21fe1e837c30","system_id":"levelo_inurba_marseille","lat":43.324712,"lon":5.365636,"is_reserved":false,"is_disabled":false,"rental_uris":{"android":"levelo://app?vid=504cf016-be85-40ae-bd6e-21fe1e837c30","ios":"levelo://app?vid=504cf016-be85-40ae-bd6e-21fe1e837c30"},"vehicle_type_id":"4","last_reported":1744697724,"current_range_meters":18000,"station_id":"ce4bhs12rcd13ifvqhvg","pricing_plan_id":"cebpf4jnsgd1na2vs0mg"},{"bike_id":"5e2ae11d-9564-46eb-9b39-c44a0592de90","system_id":"levelo_inurba_marseille","lat":43.31368,"lon":5.36709,"is_reserved":false,"is_disabled":false,"rental_uris":{"android":"levelo://app?vid=5e2ae11d-9564-46eb-9b39-c44a0592de90","ios":"levelo://app?vid=5e2ae11d-9564-46eb-9b39-c44a0592de90"},"vehicle_type_id":"4","last_reported":1744697724,"current_range_meters":18000,"station_id":"","pricing_plan_id":"cebpf4jnsgd1na2vs0mg"},{"bike_id":"2119c16f-571f-4be5-b2f3-1e6a98fa85b8","system_id":"levelo_inurba_marseille","lat":43.30154,"lon":5.38078,"is_reserved":false,"is_disabled":false,"rental_uris":{"android":"levelo://app?vid=2119c16f-571f-4be5-b2f3-1e6a98fa85b8","ios":"levelo://app?vid=2119c16f-571f-4be5-b2f3-1e6a98fa85b8"},"vehicle_type_id":"4","last_reported":1744697724,"current_range_meters":18000,"station_id":"ce4bgjp2rcd13ifvqbh0","pricing_plan_id":"cebpf4jnsgd1na2vs0mg"},{"bike_id":"3863bcee-08b3-4b0a-9ee2-61a64262d924","system_id":"levelo_inurba_marseille","lat":43.29895,"lon":5.38134,"is_reserved":false,"is_disabled":false,"rental_uris":{"android":"levelo://app?vid=3863bcee-08b3-4b0a-9ee2-61a64262d924","ios":"levelo://app?vid=3863bcee-08b3-4b0a-9ee2-61a64262d924"},"vehicle_type_id":"4","last_reported":1744697724,"current_range_meters":18000,"station_id":"ce4bgj12rcd13ifvqbc0","pricing_plan_id":"cebpf4jnsgd1na2vs0mg"},{"bike_id":"3cf53dd6-8b21-4e6c-ba52-3a63109baf27","system_id":"levelo_inurba_marseille","lat":43.29461,"lon":5.38556,"is_reserved":false,"is_disabled":false,"rental_uris":{"android":"levelo://app?vid=3cf53dd6-8b21-4e6c-ba52-3a63109baf27","ios":"levelo://app?vid=3cf53dd6-8b21-4e6c-ba52-3a63109baf27"},"vehicle_type_id":"4","last_reported":1744697724,"current_range_meters":18000,"station_id":"","pricing_plan_id":"cebpf4jnsgd1na2vs0mg"},{"bike_id":"c97a8c32-1f93-407c-8e87-642551de8e17","system_id":"levelo_inurba_marseille","lat":43.292737,"lon":5.401155,"is_reserved":false,"is_disabled":false,"rental_uris":{"android":"levelo://app?vid=c97a8c32-1f93-407c-8e87-642551de8e17","ios":"levelo://app?vid=c97a8c32-1f93-407c-8e87-642551de8e17"},"vehicle_type_id":"4","last_reported":1744697724,"current_range_meters":18000,"station_id":"ce4bh312rcd13ifvqdk0","pricing_plan_id":"cebpf4jnsgd1na2vs0mg"},{"bike_id":"f23f9551-a55e-4dd8-8f18-06e789d6ec00","system_id":"levelo_inurba_marseille","lat":43.28401,"lon":5.34992,"is_reserved":false,"is_disabled":false,"rental_uris":{"android":"levelo://app?vid=f23f9551-a55e-4dd8-8f18-06e789d6ec00","ios":"levelo://app?vid=f23f9551-a55e-4dd8-8f18-06e789d6ec00"},"vehicle_type_id":"4","last_reported":1744697724,"current_range_meters":18000,"station_id":"ce4bhbh2rcd13ifvqepg","pricing_plan_id":"cebpf4jnsgd1na2vs0mg"},{"bike_id":"bfd7d593-9547-4a2e-b8f7-834a141e4476","system_id":"levelo_inurba_marseille","lat":43.24679,"lon":5.38155,"is_reserved":false,"is_disabled":false,"rental_uris":{"android":"levelo://app?vid=bfd7d593-9547-4a2e-b8f7-834a141e4476","ios":"levelo://app?vid=bfd7d593-9547-4a2e-b8f7-834a141e4476"},"vehicle_type_id":"4","last_reported":1744697724,"current_range_meters":18000,"station_id":"ce4bhih2rcd13ifvqfr0","pricing_plan_id":"cebpf4jnsgd1na2vs0mg"},{"bike_id":"05664e36-336b-404a-b8de-2ca42d4238f0","system_id":"levelo_inurba_marseille","lat":43.249987,"lon":5.381844,"is_reserved":false,"is_disabled":false,"rental_uris":{"android":"levelo://app?vid=05664e36-336b-404a-b8de-2ca42d4238f0","ios":"levelo://app?vid=05664e36-336b-404a-b8de-2ca42d4238f0"},"vehicle_type_id":"4","last_reported":1744697724,"current_range_meters":18000,"station_id":"","pricing_plan_id":"cebpf4jnsgd1na2vs0mg"},{"bike_id":"69d90cdb-0a1a-4ace-a032-3c9dc751ef2d","system_id":"levelo_inurba_marseille","lat":43.29679,"lon":5.37696,"is_reserved":false,"is_disabled":false,"rental_uris":{"android":"levelo://app?vid=69d90cdb-0a1a-4ace-a032-3c9dc751ef2d","ios":"levelo://app?vid=69d90cdb-0a1a-4ace-a032-3c9dc751ef2d"},"vehicle_type_id":"4","last_reported":1744697724,"current_range_meters":18800,"station_id":"ce4bgkh2rcd13ifvqbl0","pricing_plan_id":"cebpf4jnsgd1na2vs0mg"},{"bike_id":"f8a2aca9-a595-41b4-9746-786cf0fc2e07","system_id":"levelo_inurba_marseille","lat":43.295797,"lon":5.375161,"is_reserved":false,"is_disabled":true,"rental_uris":{"android":"levelo://app?vid=f8a2aca9-a595-41b4-9746-786cf0fc2e07","ios":"levelo://app?vid=f8a2aca9-a595-41b4-9746-786cf0fc2e07"},"vehicle_type_id":"4","last_reported":1744697724,"current_range_meters":18800,"station_id":"ce4bgh92rcd13ifvqb50","pricing_plan_id":"cebpf4jnsgd1na2vs0mg"},{"bike_id":"f35ed168-71df-43cb-93de-9241fdfe2ff2","system_id":"levelo_inurba_marseille","lat":43.31773,"lon":5.39031,"is_reserved":false,"is_disabled":true,"rental_uris":{"android":"levelo://app?vid=f35ed168-71df-43cb-93de-9241fdfe2ff2","ios":"levelo://app?vid=f35ed168-71df-43cb-93de-9241fdfe2ff2"},"vehicle_type_id":"4","last_reported":1744697724,"current_range_meters":18800,"station_id":"ce4bhqp2rcd13ifvqhng","pricing_plan_id":"cebpf4jnsgd1na2vs0mg"},{"bike_id":"f84aa84f-4e79-4b18-a3b5-be1ea5d0cd26","system_id":"levelo_inurba_marseille","lat":43.32336,"lon":5.40621,"is_reserved":false,"is_disabled":false,"rental_uris":{"android":"levelo://app?vid=f84aa84f-4e79-4b18-a3b5-be1ea5d0cd26","ios":"levelo://app?vid=f84aa84f-4e79-4b18-a3b5-be1ea5d0cd26"},"vehicle_type_id":"4","last_reported":1744697724,"current_range_meters":18800,"station_id":"ce4bhq92rcd13ifvqhjg","pricing_plan_id":"cebpf4jnsgd1na2vs0mg"},{"bike_id":"41f37d4c-b728-4d51-b60e-31c2f1aa3808","system_id":"levelo_inurba_marseille","lat":43.24782,"lon":5.37605,"is_reserved":false,"is_disabled":false,"rental_uris":{"android":"levelo://app?vid=41f37d4c-b728-4d51-b60e-31c2f1aa3808","ios":"levelo://app?vid=41f37d4c-b728-4d51-b60e-31c2f1aa3808"},"vehicle_type_id":"4","last_reported":1744697724,"current_range_meters":18800,"station_id":"","pricing_plan_id":"cebpf4jnsgd1na2vs0mg"},{"bike_id":"ac3f152e-f4ec-498b-974c-e9840c6d800d","system_id":"levelo_inurba_marseille","lat":43.3016,"lon":5.38091,"is_reserved":false,"is_disabled":false,"rental_uris":{"android":"levelo://app?vid=ac3f152e-f4ec-498b-974c-e9840c6d800d","ios":"levelo://app?vid=ac3f152e-f4ec-498b-974c-e9840c6d800d"},"vehicle_type_id":"4","last_reported":1744697724,"current_range_meters":18800,"station_id":"ce4bgjp2rcd13ifvqbh0","pricing_plan_id":"cebpf4jnsgd1na2vs0mg"},{"bike_id":"a70cce94-d8c9-46b2-8ad1-c3aefe981644","system_id":"levelo_inurba_marseille","lat":43.28935,"lon":5.39644,"is_reserved":false,"is_disabled":false,"rental_uris":{"android":"levelo://app?vid=a70cce94-d8c9-46b2-8ad1-c3aefe981644","ios":"levelo://app?vid=a70cce94-d8c9-46b2-8ad1-c3aefe981644"},"vehicle_type_id":"4","last_reported":1744697724,"current_range_meters":18800,"station_id":"ce4bh3h2rcd13ifvqdn0","pricing_plan_id":"cebpf4jnsgd1na2vs0mg"},{"bike_id":"5d58df85-a7c5-4c87-9736-3b1b20f3a4f9","system_id":"levelo_inurba_marseille","lat":43.289307,"lon":5.363976,"is_reserved":false,"is_disabled":false,"rental_uris":{"android":"levelo://app?vid=5d58df85-a7c5-4c87-9736-3b1b20f3a4f9","ios":"levelo://app?vid=5d58df85-a7c5-4c87-9736-3b1b20f3a4f9"},"vehicle_type_id":"4","last_reported":1744697724,"current_range_meters":18800,"station_id":"ce4bhc92rcd13ifvqetg","pricing_plan_id":"cebpf4jnsgd1na2vs0mg"},{"bike_id":"396f2784-9564-438d-bf9a-316480e41a3e","system_id":"levelo_inurba_marseille","lat":43.25113,"lon":5.40316,"is_reserved":false,"is_disabled":false,"rental_uris":{"android":"levelo://app?vid=396f2784-9564-438d-bf9a-316480e41a3e","ios":"levelo://app?vid=396f2784-9564-438d-bf9a-316480e41a3e"},"vehicle_type_id":"4","last_reported":1744697724,"current_range_meters":19200,"station_id":"ce4bhlh2rcd13ifvqgig","pricing_plan_id":"cebpf4jnsgd1na2vs0mg"},{"bike_id":"d2ff1eb5-8421-4af4-8b3e-ac1863520cda","system_id":"levelo_inurba_marseille","lat":43.27908,"lon":5.39596,"is_reserved":false,"is_disabled":false,"rental_uris":{"android":"levelo://app?vid=d2ff1eb5-8421-4af4-8b3e-ac1863520cda","ios":"levelo://app?vid=d2ff1eb5-8421-4af4-8b3e-ac1863520cda"},"vehicle_type_id":"4","last_reported":1744697724,"current_range_meters":19200,"station_id":"ce4bhf92rcd13ifvqf40","pricing_plan_id":"cebpf4jnsgd1na2vs0mg"},{"bike_id":"643a76e9-c11e-42fe-a949-6d1c53344853","system_id":"levelo_inurba_marseille","lat":43.29619,"lon":5.371637,"is_reserved":false,"is_disabled":false,"rental_uris":{"android":"levelo://app?vid=643a76e9-c11e-42fe-a949-6d1c53344853","ios":"levelo://app?vid=643a76e9-c11e-42fe-a949-6d1c53344853"},"vehicle_type_id":"4","last_reported":1744697724,"current_range_meters":19200,"station_id":"ce4bgnh2rcd13ifvqc0g","pricing_plan_id":"cebpf4jnsgd1na2vs0mg"},{"bike_id":"8422d098-67fd-4320-85a5-2bb0acedff57","system_id":"levelo_inurba_marseille","lat":43.33777,"lon":5.37429,"is_reserved":false,"is_disabled":false,"rental_uris":{"android":"levelo://app?vid=8422d098-67fd-4320-85a5-2bb0acedff57","ios":"levelo://app?vid=8422d098-67fd-4320-85a5-2bb0acedff57"},"vehicle_type_id":"4","last_reported":1744697724,"current_range_meters":19600,"station_id":"","pricing_plan_id":"cebpf4jnsgd1na2vs0mg"},{"bike_id":"fa4c2909-d365-4f55-8101-c90d1a93de8e","system_id":"levelo_inurba_marseille","lat":43.2294,"lon":5.35379,"is_reserved":false,"is_disabled":true,"rental_uris":{"android":"levelo://app?vid=fa4c2909-d365-4f55-8101-c90d1a93de8e","ios":"levelo://app?vid=fa4c2909-d365-4f55-8101-c90d1a93de8e"},"vehicle_type_id":"4","last_reported":1744697724,"current_range_meters":19600,"station_id":"cpo3532slgdg3j2ikp40","pricing_plan_id":"cebpf4jnsgd1na2vs0mg"},{"bike_id":"db06721d-1ee1-431c-a317-214c373163e8","system_id":"levelo_inurba_marseille","lat":43.31082,"lon":5.42436,"is_reserved":false,"is_disabled":false,"rental_uris":{"android":"levelo://app?vid=db06721d-1ee1-431c-a317-214c373163e8","ios":"levelo://app?vid=db06721d-1ee1-431c-a317-214c373163e8"},"vehicle_type_id":"4","last_reported":1744697724,"current_range_meters":19600,"station_id":"ce4bhp92rcd13ifvqhag","pricing_plan_id":"cebpf4jnsgd1na2vs0mg"},{"bike_id":"e61eb72d-2152-4e42-a8db-1ea20dfcb944","system_id":"levelo_inurba_marseille","lat":43.25101,"lon":5.39514,"is_reserved":false,"is_disabled":true,"rental_uris":{"android":"levelo://app?vid=e61eb72d-2152-4e42-a8db-1ea20dfcb944","ios":"levelo://app?vid=e61eb72d-2152-4e42-a8db-1ea20dfcb944"},"vehicle_type_id":"4","last_reported":1744697724,"current_range_meters":19600,"station_id":"ce4bhm12rcd13ifvqgkg","pricing_plan_id":"cebpf4jnsgd1na2vs0mg"},{"bike_id":"4d4d0d48-2b72-44fe-b3a8-f9dca5bf8536","system_id":"levelo_inurba_marseille","lat":43.265481,"lon":5.372928,"is_reserved":false,"is_disabled":false,"rental_uris":{"android":"levelo://app?vid=4d4d0d48-2b72-44fe-b3a8-f9dca5bf8536","ios":"levelo://app?vid=4d4d0d48-2b72-44fe-b3a8-f9dca5bf8536"},"vehicle_type_id":"4","last_reported":1744697724,"current_range_meters":20000,"station_id":"ce4bhg12rcd13ifvqf70","pricing_plan_id":"cebpf4jnsgd1na2vs0mg"},{"bike_id":"eb71cf62-e5b3-4c03-8aa4-05a284601e13","system_id":"levelo_inurba_marseille","lat":43.286872,"lon":5.399394,"is_reserved":false,"is_disabled":false,"rental_uris":{"android":"levelo://app?vid=eb71cf62-e5b3-4c03-8aa4-05a284601e13","ios":"levelo://app?vid=eb71cf62-e5b3-4c03-8aa4-05a284601e13"},"vehicle_type_id":"4","last_reported":1744697724,"current_range_meters":20000,"station_id":"ce4bhnp2rcd13ifvqh0g","pricing_plan_id":"cebpf4jnsgd1na2vs0mg"},{"bike_id":"e574b3d2-7d50-422d-a320-1dbd226a92e3","system_id":"levelo_inurba_marseille","lat":43.24654,"lon":5.38149,"is_reserved":false,"is_disabled":false,"rental_uris":{"android":"levelo://app?vid=e574b3d2-7d50-422d-a320-1dbd226a92e3","ios":"levelo://app?vid=e574b3d2-7d50-422d-a320-1dbd226a92e3"},"vehicle_type_id":"4","last_reported":1744697724,"current_range_meters":20000,"station_id":"ce4bhih2rcd13ifvqfr0","pricing_plan_id":"cebpf4jnsgd1na2vs0mg"},{"bike_id":"c091204c-5446-44c1-bba7-68296743c23e","system_id":"levelo_inurba_marseille","lat":43.270577,"lon":5.402713,"is_reserved":false,"is_disabled":false,"rental_uris":{"android":"levelo://app?vid=c091204c-5446-44c1-bba7-68296743c23e","ios":"levelo://app?vid=c091204c-5446-44c1-bba7-68296743c23e"},"vehicle_type_id":"4","last_reported":1744697724,"current_range_meters":20000,"station_id":"ce4bhk92rcd13ifvqgc0","pricing_plan_id":"cebpf4jnsgd1na2vs0mg"},{"bike_id":"168d6640-cb36-4536-8047-ff575871fa13","system_id":"levelo_inurba_marseille","lat":43.3248,"lon":5.36554,"is_reserved":false,"is_disabled":false,"rental_uris":{"android":"levelo://app?vid=168d6640-cb36-4536-8047-ff575871fa13","ios":"levelo://app?vid=168d6640-cb36-4536-8047-ff575871fa13"},"vehicle_type_id":"4","last_reported":1744697724,"current_range_meters":20000,"station_id":"ce4bhs12rcd13ifvqhvg","pricing_plan_id":"cebpf4jnsgd1na2vs0mg"},{"bike_id":"58865f51-d34a-49ac-8f37-d14aa3ef6ace","system_id":"levelo_inurba_marseille","lat":43.32418,"lon":5.39106,"is_reserved":false,"is_disabled":true,"rental_uris":{"android":"levelo://app?vid=58865f51-d34a-49ac-8f37-d14aa3ef6ace","ios":"levelo://app?vid=58865f51-d34a-49ac-8f37-d14aa3ef6ace"},"vehicle_type_id":"4","last_reported":1744697724,"current_range_meters":20000,"station_id":"","pricing_plan_id":"cebpf4jnsgd1na2vs0mg"},{"bike_id":"0421d9b5-376f-4f91-a054-fdadfd28dc51","system_id":"levelo_inurba_marseille","lat":43.29037,"lon":5.39979,"is_reserved":false,"is_disabled":false,"rental_uris":{"android":"levelo://app?vid=0421d9b5-376f-4f91-a054-fdadfd28dc51","ios":"levelo://app?vid=0421d9b5-376f-4f91-a054-fdadfd28dc51"},"vehicle_type_id":"4","last_reported":1744697724,"current_range_meters":20000,"station_id":"ce4bh392rcd13ifvqdm0","pricing_plan_id":"cebpf4jnsgd1na2vs0mg"},{"bike_id":"df48cf7d-f898-49eb-87ea-51f5181e82f8","system_id":"levelo_inurba_marseille","lat":43.292658,"lon":5.376276,"is_reserved":false,"is_disabled":false,"rental_uris":{"android":"levelo://app?vid=df48cf7d-f898-49eb-87ea-51f5181e82f8","ios":"levelo://app?vid=df48cf7d-f898-49eb-87ea-51f5181e82f8"},"vehicle_type_id":"4","last_reported":1744697724,"current_range_meters":20000,"station_id":"ce4bgi12rcd13ifvqb80","pricing_plan_id":"cebpf4jnsgd1na2vs0mg"},{"bike_id":"61e2dec8-2126-4a72-8370-3556050ebc47","system_id":"levelo_inurba_marseille","lat":43.30407,"lon":5.4129,"is_reserved":false,"is_disabled":false,"rental_uris":{"android":"levelo://app?vid=61e2dec8-2126-4a72-8370-3556050ebc47","ios":"levelo://app?vid=61e2dec8-2126-4a72-8370-3556050ebc47"},"vehicle_type_id":"4","last_reported":1744697724,"current_range_meters":20000,"station_id":"ce4bhop2rcd13ifvqh8g","pricing_plan_id":"cebpf4jnsgd1na2vs0mg"},{"bike_id":"f28ab945-c9df-4b0b-be4c-c2ea61470e17","system_id":"levelo_inurba_marseille","lat":43.324807,"lon":5.365684,"is_reserved":false,"is_disabled":false,"rental_uris":{"android":"levelo://app?vid=f28ab945-c9df-4b0b-be4c-c2ea61470e17","ios":"levelo://app?vid=f28ab945-c9df-4b0b-be4c-c2ea61470e17"},"vehicle_type_id":"4","last_reported":1744697724,"current_range_meters":20000,"station_id":"ce4bhs12rcd13ifvqhvg","pricing_plan_id":"cebpf4jnsgd1na2vs0mg"},{"bike_id":"a8ed8bfe-e018-4ae7-b755-72caf268e29f","system_id":"levelo_inurba_marseille","lat":43.301675,"lon":5.380981,"is_reserved":false,"is_disabled":true,"rental_uris":{"android":"levelo://app?vid=a8ed8bfe-e018-4ae7-b755-72caf268e29f","ios":"levelo://app?vid=a8ed8bfe-e018-4ae7-b755-72caf268e29f"},"vehicle_type_id":"4","last_reported":1744697724,"current_range_meters":20400,"station_id":"ce4bgjp2rcd13ifvqbh0","pricing_plan_id":"cebpf4jnsgd1na2vs0mg"},{"bike_id":"ddb301f3-d38d-4b6d-b7c3-5d460991e630","system_id":"levelo_inurba_marseille","lat":43.3047,"lon":5.37911,"is_reserved":false,"is_disabled":false,"rental_uris":{"android":"levelo://app?vid=ddb301f3-d38d-4b6d-b7c3-5d460991e630","ios":"levelo://app?vid=ddb301f3-d38d-4b6d-b7c3-5d460991e630"},"vehicle_type_id":"4","last_reported":1744697724,"current_range_meters":20400,"station_id":"ce4bgup2rcd13ifvqcn0","pricing_plan_id":"cebpf4jnsgd1na2vs0mg"},{"bike_id":"ee33e4a3-9ed1-445d-9974-26da2f858986","system_id":"levelo_inurba_marseille","lat":43.32421,"lon":5.39094,"is_reserved":false,"is_disabled":true,"rental_uris":{"android":"levelo://app?vid=ee33e4a3-9ed1-445d-9974-26da2f858986","ios":"levelo://app?vid=ee33e4a3-9ed1-445d-9974-26da2f858986"},"vehicle_type_id":"4","last_reported":1744697724,"current_range_meters":20400,"station_id":"","pricing_plan_id":"cebpf4jnsgd1na2vs0mg"},{"bike_id":"b93dbd0a-bed3-4cf6-bd36-0804a6e17b6a","system_id":"levelo_inurba_marseille","lat":43.27497,"lon":5.42451,"is_reserved":false,"is_disabled":false,"rental_uris":{"android":"levelo://app?vid=b93dbd0a-bed3-4cf6-bd36-0804a6e17b6a","ios":"levelo://app?vid=b93dbd0a-bed3-4cf6-bd36-0804a6e17b6a"},"vehicle_type_id":"4","last_reported":1744697724,"current_range_meters":20400,"station_id":"ce4bhn92rcd13ifvqgrg","pricing_plan_id":"cebpf4jnsgd1na2vs0mg"},{"bike_id":"1ff564b6-78bd-4020-a052-90cf7dbd94b4","system_id":"levelo_inurba_marseille","lat":43.26788,"lon":5.394128,"is_reserved":false,"is_disabled":false,"rental_uris":{"android":"levelo://app?vid=1ff564b6-78bd-4020-a052-90cf7dbd94b4","ios":"levelo://app?vid=1ff564b6-78bd-4020-a052-90cf7dbd94b4"},"vehicle_type_id":"4","last_reported":1744697724,"current_range_meters":20800,"station_id":"ce4bhh12rcd13ifvqfg0","pricing_plan_id":"cebpf4jnsgd1na2vs0mg"},{"bike_id":"c96f8076-74c1-4118-9f4e-192049c4ecb4","system_id":"levelo_inurba_marseille","lat":43.2583,"lon":5.39444,"is_reserved":false,"is_disabled":false,"rental_uris":{"android":"levelo://app?vid=c96f8076-74c1-4118-9f4e-192049c4ecb4","ios":"levelo://app?vid=c96f8076-74c1-4118-9f4e-192049c4ecb4"},"vehicle_type_id":"4","last_reported":1744697724,"current_range_meters":20800,"station_id":"ce4bhip2rcd13ifvqft0","pricing_plan_id":"cebpf4jnsgd1na2vs0mg"},{"bike_id":"d7fc5277-51d3-410d-8282-0199be07a6f3","system_id":"levelo_inurba_marseille","lat":43.262109,"lon":5.404662,"is_reserved":false,"is_disabled":false,"rental_uris":{"android":"levelo://app?vid=d7fc5277-51d3-410d-8282-0199be07a6f3","ios":"levelo://app?vid=d7fc5277-51d3-410d-8282-0199be07a6f3"},"vehicle_type_id":"4","last_reported":1744697724,"current_range_meters":20800,"station_id":"ce4bhmh2rcd13ifvqgmg","pricing_plan_id":"cebpf4jnsgd1na2vs0mg"},{"bike_id":"78595723-98dc-44b7-9b87-97529b0548f5","system_id":"levelo_inurba_marseille","lat":43.25002,"lon":5.38927,"is_reserved":false,"is_disabled":false,"rental_uris":{"android":"levelo://app?vid=78595723-98dc-44b7-9b87-97529b0548f5","ios":"levelo://app?vid=78595723-98dc-44b7-9b87-97529b0548f5"},"vehicle_type_id":"4","last_reported":1744697724,"current_range_meters":20800,"station_id":"ce4bhgp2rcd13ifvqfd0","pricing_plan_id":"cebpf4jnsgd1na2vs0mg"},{"bike_id":"fa8b5d88-c56b-4501-99c1-1b5a6dfd1f66","system_id":"levelo_inurba_marseille","lat":43.21193,"lon":5.35085,"is_reserved":false,"is_disabled":false,"rental_uris":{"android":"levelo://app?vid=fa8b5d88-c56b-4501-99c1-1b5a6dfd1f66","ios":"levelo://app?vid=fa8b5d88-c56b-4501-99c1-1b5a6dfd1f66"},"vehicle_type_id":"4","last_reported":1744697724,"current_range_meters":20800,"station_id":"st_cvj6sg6p6f1abm77japg","pricing_plan_id":"cebpf4jnsgd1na2vs0mg"},{"bike_id":"7df30823-509e-46f1-8612-8c707669a797","system_id":"levelo_inurba_marseille","lat":43.30334,"lon":5.40478,"is_reserved":false,"is_disabled":false,"rental_uris":{"android":"levelo://app?vid=7df30823-509e-46f1-8612-8c707669a797","ios":"levelo://app?vid=7df30823-509e-46f1-8612-8c707669a797"},"vehicle_type_id":"4","last_reported":1744697724,"current_range_meters":20800,"station_id":"ce4bh012rcd13ifvqd10","pricing_plan_id":"cebpf4jnsgd1na2vs0mg"},{"bike_id":"205a676e-388e-4b5d-b5d4-92bca6b76c07","system_id":"levelo_inurba_marseille","lat":43.31894,"lon":5.37319,"is_reserved":false,"is_disabled":true,"rental_uris":{"android":"levelo://app?vid=205a676e-388e-4b5d-b5d4-92bca6b76c07","ios":"levelo://app?vid=205a676e-388e-4b5d-b5d4-92bca6b76c07"},"vehicle_type_id":"4","last_reported":1744697724,"current_range_meters":20800,"station_id":"","pricing_plan_id":"cebpf4jnsgd1na2vs0mg"},{"bike_id":"b6698060-0f55-4ea2-a965-703f68491dd0","system_id":"levelo_inurba_marseille","lat":43.25047,"lon":5.38962,"is_reserved":false,"is_disabled":false,"rental_uris":{"android":"levelo://app?vid=b6698060-0f55-4ea2-a965-703f68491dd0","ios":"levelo://app?vid=b6698060-0f55-4ea2-a965-703f68491dd0"},"vehicle_type_id":"4","last_reported":1744697724,"current_range_meters":21600,"station_id":"ce4bhgp2rcd13ifvqfd0","pricing_plan_id":"cebpf4jnsgd1na2vs0mg"},{"bike_id":"19327936-c17d-4bc6-8a7e-46b08273753a","system_id":"levelo_inurba_marseille","lat":43.30532,"lon":5.38438,"is_reserved":false,"is_disabled":false,"rental_uris":{"android":"levelo://app?vid=19327936-c17d-4bc6-8a7e-46b08273753a","ios":"levelo://app?vid=19327936-c17d-4bc6-8a7e-46b08273753a"},"vehicle_type_id":"4","last_reported":1744697724,"current_range_meters":21600,"station_id":"ce4bgg92rcd13ifvqb30","pricing_plan_id":"cebpf4jnsgd1na2vs0mg"},{"bike_id":"7ad0bf0f-5294-442b-8825-791f1416a999","system_id":"levelo_inurba_marseille","lat":43.24161,"lon":5.39757,"is_reserved":false,"is_disabled":false,"rental_uris":{"android":"levelo://app?vid=7ad0bf0f-5294-442b-8825-791f1416a999","ios":"levelo://app?vid=7ad0bf0f-5294-442b-8825-791f1416a999"},"vehicle_type_id":"4","last_reported":1744697724,"current_range_meters":21600,"station_id":"ce4bhn12rcd13ifvqgpg","pricing_plan_id":"cebpf4jnsgd1na2vs0mg"},{"bike_id":"ed884e62-a0a3-4003-9f0d-76d33ff3858a","system_id":"levelo_inurba_marseille","lat":43.284081,"lon":5.375291,"is_reserved":false,"is_disabled":false,"rental_uris":{"android":"levelo://app?vid=ed884e62-a0a3-4003-9f0d-76d33ff3858a","ios":"levelo://app?vid=ed884e62-a0a3-4003-9f0d-76d33ff3858a"},"vehicle_type_id":"4","last_reported":1744697724,"current_range_meters":22000,"station_id":"ce4bh412rcd13ifvqds0","pricing_plan_id":"cebpf4jnsgd1na2vs0mg"},{"bike_id":"1175d9e6-e3ac-4aa2-a551-bea3d9efc2c5","system_id":"levelo_inurba_marseille","lat":43.27977,"lon":5.41631,"is_reserved":false,"is_disabled":false,"rental_uris":{"android":"levelo://app?vid=1175d9e6-e3ac-4aa2-a551-bea3d9efc2c5","ios":"levelo://app?vid=1175d9e6-e3ac-4aa2-a551-bea3d9efc2c5"},"vehicle_type_id":"4","last_reported":1744697724,"current_range_meters":22000,"station_id":"ce4bho12rcd13ifvqh1g","pricing_plan_id":"cebpf4jnsgd1na2vs0mg"},{"bike_id":"6bf5a380-400e-4cd6-bc1e-356afac9ee45","system_id":"levelo_inurba_marseille","lat":43.24171,"lon":5.36403,"is_reserved":false,"is_disabled":false,"rental_uris":{"android":"levelo://app?vid=6bf5a380-400e-4cd6-bc1e-356afac9ee45","ios":"levelo://app?vid=6bf5a380-400e-4cd6-bc1e-356afac9ee45"},"vehicle_type_id":"4","last_reported":1744697724,"current_range_meters":22000,"station_id":"cpo36qri1sfpv3e86is0","pricing_plan_id":"cebpf4jnsgd1na2vs0mg"},{"bike_id":"473966a4-8134-4f96-a952-1f7a3ce10896","system_id":"levelo_inurba_marseille","lat":43.28416,"lon":5.37523,"is_reserved":false,"is_disabled":false,"rental_uris":{"android":"levelo://app?vid=473966a4-8134-4f96-a952-1f7a3ce10896","ios":"levelo://app?vid=473966a4-8134-4f96-a952-1f7a3ce10896"},"vehicle_type_id":"4","last_reported":1744697724,"current_range_meters":22000,"station_id":"ce4bh412rcd13ifvqds0","pricing_plan_id":"cebpf4jnsgd1na2vs0mg"},{"bike_id":"4c0ede51-6b22-44f8-8575-b86906a20779","system_id":"levelo_inurba_marseille","lat":43.217479,"lon":5.346275,"is_reserved":false,"is_disabled":false,"rental_uris":{"android":"levelo://app?vid=4c0ede51-6b22-44f8-8575-b86906a20779","ios":"levelo://app?vid=4c0ede51-6b22-44f8-8575-b86906a20779"},"vehicle_type_id":"4","last_reported":1744697724,"current_range_meters":22400,"station_id":"st_cvj6r9ubvosntc0bgbag","pricing_plan_id":"cebpf4jnsgd1na2vs0mg"},{"bike_id":"ebf98fde-7d3f-405e-ad44-acb8f71cef2a","system_id":"levelo_inurba_marseille","lat":43.32104,"lon":5.36767,"is_reserved":false,"is_disabled":false,"rental_uris":{"android":"levelo://app?vid=ebf98fde-7d3f-405e-ad44-acb8f71cef2a","ios":"levelo://app?vid=ebf98fde-7d3f-405e-ad44-acb8f71cef2a"},"vehicle_type_id":"4","last_reported":1744697724,"current_range_meters":22400,"station_id":"ce4bhrh2rcd13ifvqhug","pricing_plan_id":"cebpf4jnsgd1na2vs0mg"},{"bike_id":"75aeda06-bbc2-4b16-85f7-54753a374ed6","system_id":"levelo_inurba_marseille","lat":43.23585,"lon":5.40364,"is_reserved":false,"is_disabled":false,"rental_uris":{"android":"levelo://app?vid=75aeda06-bbc2-4b16-85f7-54753a374ed6","ios":"levelo://app?vid=75aeda06-bbc2-4b16-85f7-54753a374ed6"},"vehicle_type_id":"4","last_reported":1744697724,"current_range_meters":22400,"station_id":"","pricing_plan_id":"cebpf4jnsgd1na2vs0mg"},{"bike_id":"4b35b685-5fed-4de4-838c-4970d7589d89","system_id":"levelo_inurba_marseille","lat":43.28706,"lon":5.40008,"is_reserved":false,"is_disabled":true,"rental_uris":{"android":"levelo://app?vid=4b35b685-5fed-4de4-838c-4970d7589d89","ios":"levelo://app?vid=4b35b685-5fed-4de4-838c-4970d7589d89"},"vehicle_type_id":"4","last_reported":1744697724,"current_range_meters":22400,"station_id":"ce4bho92rcd13ifvqh3g","pricing_plan_id":"cebpf4jnsgd1na2vs0mg"},{"bike_id":"68fa0d46-7071-4f65-8360-b33f91ad677c","system_id":"levelo_inurba_marseille","lat":43.29542,"lon":5.42274,"is_reserved":false,"is_disabled":false,"rental_uris":{"android":"levelo://app?vid=68fa0d46-7071-4f65-8360-b33f91ad677c","ios":"levelo://app?vid=68fa0d46-7071-4f65-8360-b33f91ad677c"},"vehicle_type_id":"4","last_reported":1744697724,"current_range_meters":22800,"station_id":"ce4bhph2rcd13ifvqhdg","pricing_plan_id":"cebpf4jnsgd1na2vs0mg"},{"bike_id":"174447d2-5dca-4955-b695-aa0dad7d99a5","system_id":"levelo_inurba_marseille","lat":43.284054,"lon":5.375268,"is_reserved":false,"is_disabled":false,"rental_uris":{"android":"levelo://app?vid=174447d2-5dca-4955-b695-aa0dad7d99a5","ios":"levelo://app?vid=174447d2-5dca-4955-b695-aa0dad7d99a5"},"vehicle_type_id":"4","last_reported":1744697724,"current_range_meters":22800,"station_id":"ce4bh412rcd13ifvqds0","pricing_plan_id":"cebpf4jnsgd1na2vs0mg"},{"bike_id":"fccf8e2d-0bf4-4846-9950-b9d9931be641","system_id":"levelo_inurba_marseille","lat":43.30477,"lon":5.37961,"is_reserved":false,"is_disabled":false,"rental_uris":{"android":"levelo://app?vid=fccf8e2d-0bf4-4846-9950-b9d9931be641","ios":"levelo://app?vid=fccf8e2d-0bf4-4846-9950-b9d9931be641"},"vehicle_type_id":"4","last_reported":1744697724,"current_range_meters":22800,"station_id":"ce4bgup2rcd13ifvqcn0","pricing_plan_id":"cebpf4jnsgd1na2vs0mg"},{"bike_id":"cc081437-40fb-493f-a74f-e6f72a75a51c","system_id":"levelo_inurba_marseille","lat":43.28008,"lon":5.41695,"is_reserved":false,"is_disabled":false,"rental_uris":{"android":"levelo://app?vid=cc081437-40fb-493f-a74f-e6f72a75a51c","ios":"levelo://app?vid=cc081437-40fb-493f-a74f-e6f72a75a51c"},"vehicle_type_id":"4","last_reported":1744697724,"current_range_meters":22800,"station_id":"ce4bho12rcd13ifvqh1g","pricing_plan_id":"cebpf4jnsgd1na2vs0mg"},{"bike_id":"6c103f9f-c959-46ad-a2e8-e44f9660c68e","system_id":"levelo_inurba_marseille","lat":43.21205,"lon":5.35076,"is_reserved":false,"is_disabled":false,"rental_uris":{"android":"levelo://app?vid=6c103f9f-c959-46ad-a2e8-e44f9660c68e","ios":"levelo://app?vid=6c103f9f-c959-46ad-a2e8-e44f9660c68e"},"vehicle_type_id":"4","last_reported":1744697724,"current_range_meters":22800,"station_id":"st_cvj6sg6p6f1abm77japg","pricing_plan_id":"cebpf4jnsgd1na2vs0mg"},{"bike_id":"174c2c9b-2f0a-47fb-998b-9f7260f2f135","system_id":"levelo_inurba_marseille","lat":43.30732,"lon":5.42451,"is_reserved":false,"is_disabled":false,"rental_uris":{"android":"levelo://app?vid=174c2c9b-2f0a-47fb-998b-9f7260f2f135","ios":"levelo://app?vid=174c2c9b-2f0a-47fb-998b-9f7260f2f135"},"vehicle_type_id":"4","last_reported":1744697724,"current_range_meters":22800,"station_id":"st_cvj6ca6bvosntc0bfgr0","pricing_plan_id":"cebpf4jnsgd1na2vs0mg"},{"bike_id":"a1e87895-4ba6-4e48-bb58-88c973a716b4","system_id":"levelo_inurba_marseille","lat":43.29625,"lon":5.37735,"is_reserved":false,"is_disabled":false,"rental_uris":{"android":"levelo://app?vid=a1e87895-4ba6-4e48-bb58-88c973a716b4","ios":"levelo://app?vid=a1e87895-4ba6-4e48-bb58-88c973a716b4"},"vehicle_type_id":"4","last_reported":1744697724,"current_range_meters":22800,"station_id":"ce4bgi92rcd13ifvqb90","pricing_plan_id":"cebpf4jnsgd1na2vs0mg"},{"bike_id":"2cd4206c-f4fd-4c9e-a3c3-ecdb90f37a18","system_id":"levelo_inurba_marseille","lat":43.30921,"lon":5.40157,"is_reserved":false,"is_disabled":true,"rental_uris":{"android":"levelo://app?vid=2cd4206c-f4fd-4c9e-a3c3-ecdb90f37a18","ios":"levelo://app?vid=2cd4206c-f4fd-4c9e-a3c3-ecdb90f37a18"},"vehicle_type_id":"4","last_reported":1744697724,"current_range_meters":22800,"station_id":"ce4bgvp2rcd13ifvqct0","pricing_plan_id":"cebpf4jnsgd1na2vs0mg"},{"bike_id":"3a99e86d-b0d8-453c-a01d-07c639df7246","system_id":"levelo_inurba_marseille","lat":43.28936,"lon":5.36425,"is_reserved":false,"is_disabled":false,"rental_uris":{"android":"levelo://app?vid=3a99e86d-b0d8-453c-a01d-07c639df7246","ios":"levelo://app?vid=3a99e86d-b0d8-453c-a01d-07c639df7246"},"vehicle_type_id":"4","last_reported":1744697724,"current_range_meters":22800,"station_id":"ce4bhc92rcd13ifvqetg","pricing_plan_id":"cebpf4jnsgd1na2vs0mg"},{"bike_id":"d6fee597-3293-47ae-914e-c48760e9f772","system_id":"levelo_inurba_marseille","lat":43.24065,"lon":5.37811,"is_reserved":false,"is_disabled":false,"rental_uris":{"android":"levelo://app?vid=d6fee597-3293-47ae-914e-c48760e9f772","ios":"levelo://app?vid=d6fee597-3293-47ae-914e-c48760e9f772"},"vehicle_type_id":"4","last_reported":1744697724,"current_range_meters":22800,"station_id":"ce4bhnp2rcd13ifvqgvg","pricing_plan_id":"cebpf4jnsgd1na2vs0mg"},{"bike_id":"a0af95fc-17ee-48c4-a528-672ae8d61f1c","system_id":"levelo_inurba_marseille","lat":43.29906,"lon":5.43674,"is_reserved":false,"is_disabled":false,"rental_uris":{"android":"levelo://app?vid=a0af95fc-17ee-48c4-a528-672ae8d61f1c","ios":"levelo://app?vid=a0af95fc-17ee-48c4-a528-672ae8d61f1c"},"vehicle_type_id":"4","last_reported":1744697724,"current_range_meters":23200,"station_id":"ce4bhpp2rcd13ifvqhfg","pricing_plan_id":"cebpf4jnsgd1na2vs0mg"},{"bike_id":"960caa4c-48e7-4e00-bca7-aeefd828a0a0","system_id":"levelo_inurba_marseille","lat":43.27994,"lon":5.40944,"is_reserved":false,"is_disabled":false,"rental_uris":{"android":"levelo://app?vid=960caa4c-48e7-4e00-bca7-aeefd828a0a0","ios":"levelo://app?vid=960caa4c-48e7-4e00-bca7-aeefd828a0a0"},"vehicle_type_id":"4","last_reported":1744697724,"current_range_meters":23200,"station_id":"","pricing_plan_id":"cebpf4jnsgd1na2vs0mg"},{"bike_id":"f566e6d9-3255-4803-be0e-0eff0283a42c","system_id":"levelo_inurba_marseille","lat":43.30898,"lon":5.36851,"is_reserved":false,"is_disabled":false,"rental_uris":{"android":"levelo://app?vid=f566e6d9-3255-4803-be0e-0eff0283a42c","ios":"levelo://app?vid=f566e6d9-3255-4803-be0e-0eff0283a42c"},"vehicle_type_id":"4","last_reported":1744697724,"current_range_meters":23200,"station_id":"ce4bgn92rcd13ifvqbvg","pricing_plan_id":"cebpf4jnsgd1na2vs0mg"},{"bike_id":"26ce8123-90f2-4708-9685-807231025092","system_id":"levelo_inurba_marseille","lat":43.2904,"lon":5.39951,"is_reserved":false,"is_disabled":false,"rental_uris":{"android":"levelo://app?vid=26ce8123-90f2-4708-9685-807231025092","ios":"levelo://app?vid=26ce8123-90f2-4708-9685-807231025092"},"vehicle_type_id":"4","last_reported":1744697724,"current_range_meters":23200,"station_id":"ce4bh392rcd13ifvqdm0","pricing_plan_id":"cebpf4jnsgd1na2vs0mg"},{"bike_id":"c7f73e13-ce32-4228-9caa-cab90da998f5","system_id":"levelo_inurba_marseille","lat":43.29525,"lon":5.39053,"is_reserved":false,"is_disabled":true,"rental_uris":{"android":"levelo://app?vid=c7f73e13-ce32-4228-9caa-cab90da998f5","ios":"levelo://app?vid=c7f73e13-ce32-4228-9caa-cab90da998f5"},"vehicle_type_id":"4","last_reported":1744697724,"current_range_meters":23200,"station_id":"ce4bh3p2rcd13ifvqdp0","pricing_plan_id":"cebpf4jnsgd1na2vs0mg"},{"bike_id":"b7bf3f04-046b-4e36-a002-af53047681ce","system_id":"levelo_inurba_marseille","lat":43.24688,"lon":5.38193,"is_reserved":false,"is_disabled":false,"rental_uris":{"android":"levelo://app?vid=b7bf3f04-046b-4e36-a002-af53047681ce","ios":"levelo://app?vid=b7bf3f04-046b-4e36-a002-af53047681ce"},"vehicle_type_id":"4","last_reported":1744697724,"current_range_meters":23200,"station_id":"ce4bhih2rcd13ifvqfr0","pricing_plan_id":"cebpf4jnsgd1na2vs0mg"},{"bike_id":"497ce4e7-3b4f-456f-84da-71b5a2735a1d","system_id":"levelo_inurba_marseille","lat":43.28917,"lon":5.38398,"is_reserved":false,"is_disabled":false,"rental_uris":{"android":"levelo://app?vid=497ce4e7-3b4f-456f-84da-71b5a2735a1d","ios":"levelo://app?vid=497ce4e7-3b4f-456f-84da-71b5a2735a1d"},"vehicle_type_id":"4","last_reported":1744697724,"current_range_meters":23200,"station_id":"ce4bh612rcd13ifvqe6g","pricing_plan_id":"cebpf4jnsgd1na2vs0mg"},{"bike_id":"fc1e3fea-1657-445b-a9b5-d45245bb0764","system_id":"levelo_inurba_marseille","lat":43.28075,"lon":5.39654,"is_reserved":false,"is_disabled":false,"rental_uris":{"android":"levelo://app?vid=fc1e3fea-1657-445b-a9b5-d45245bb0764","ios":"levelo://app?vid=fc1e3fea-1657-445b-a9b5-d45245bb0764"},"vehicle_type_id":"4","last_reported":1744697724,"current_range_meters":23200,"station_id":"ce4bho12rcd13ifvqh2g","pricing_plan_id":"cebpf4jnsgd1na2vs0mg"},{"bike_id":"ade48cc5-21dc-44e5-b54e-0d7b942df870","system_id":"levelo_inurba_marseille","lat":43.33602,"lon":5.41039,"is_reserved":false,"is_disabled":false,"rental_uris":{"android":"levelo://app?vid=ade48cc5-21dc-44e5-b54e-0d7b942df870","ios":"levelo://app?vid=ade48cc5-21dc-44e5-b54e-0d7b942df870"},"vehicle_type_id":"4","last_reported":1744697724,"current_range_meters":23200,"station_id":"ce4bhqh2rcd13ifvqhmg","pricing_plan_id":"cebpf4jnsgd1na2vs0mg"},{"bike_id":"3f102524-5c5a-4e1e-95f6-8b32c98638ad","system_id":"levelo_inurba_marseille","lat":43.30528,"lon":5.36712,"is_reserved":false,"is_disabled":false,"rental_uris":{"android":"levelo://app?vid=3f102524-5c5a-4e1e-95f6-8b32c98638ad","ios":"levelo://app?vid=3f102524-5c5a-4e1e-95f6-8b32c98638ad"},"vehicle_type_id":"4","last_reported":1744697724,"current_range_meters":23200,"station_id":"ce4bgrp2rcd13ifvqc9g","pricing_plan_id":"cebpf4jnsgd1na2vs0mg"},{"bike_id":"e52c709d-1dc1-4a27-a133-c1c6ee103e39","system_id":"levelo_inurba_marseille","lat":43.23185,"lon":5.39987,"is_reserved":false,"is_disabled":false,"rental_uris":{"android":"levelo://app?vid=e52c709d-1dc1-4a27-a133-c1c6ee103e39","ios":"levelo://app?vid=e52c709d-1dc1-4a27-a133-c1c6ee103e39"},"vehicle_type_id":"4","last_reported":1744697724,"current_range_meters":24000,"station_id":"ce4bhn12rcd13ifvqgqg","pricing_plan_id":"cebpf4jnsgd1na2vs0mg"},{"bike_id":"822b09a3-e3cc-4044-a403-8d18c1805451","system_id":"levelo_inurba_marseille","lat":43.24075,"lon":5.37761,"is_reserved":false,"is_disabled":false,"rental_uris":{"android":"levelo://app?vid=822b09a3-e3cc-4044-a403-8d18c1805451","ios":"levelo://app?vid=822b09a3-e3cc-4044-a403-8d18c1805451"},"vehicle_type_id":"4","last_reported":1744697724,"current_range_meters":24000,"station_id":"ce4bhnp2rcd13ifvqgvg","pricing_plan_id":"cebpf4jnsgd1na2vs0mg"},{"bike_id":"4b3a5a61-b464-4143-b338-a7353d9940d6","system_id":"levelo_inurba_marseille","lat":43.28499,"lon":5.38428,"is_reserved":false,"is_disabled":false,"rental_uris":{"android":"levelo://app?vid=4b3a5a61-b464-4143-b338-a7353d9940d6","ios":"levelo://app?vid=4b3a5a61-b464-4143-b338-a7353d9940d6"},"vehicle_type_id":"4","last_reported":1744697724,"current_range_meters":24000,"station_id":"ce4bh512rcd13ifvqe3g","pricing_plan_id":"cebpf4jnsgd1na2vs0mg"},{"bike_id":"a77099fe-7598-4778-827c-386ab99649cc","system_id":"levelo_inurba_marseille","lat":43.29,"lon":5.37169,"is_reserved":false,"is_disabled":false,"rental_uris":{"android":"levelo://app?vid=a77099fe-7598-4778-827c-386ab99649cc","ios":"levelo://app?vid=a77099fe-7598-4778-827c-386ab99649cc"},"vehicle_type_id":"4","last_reported":1744697724,"current_range_meters":24000,"station_id":"","pricing_plan_id":"cebpf4jnsgd1na2vs0mg"},{"bike_id":"8989247c-2798-44fb-b62a-2ea9811d754e","system_id":"levelo_inurba_marseille","lat":43.2791,"lon":5.39571,"is_reserved":false,"is_disabled":false,"rental_uris":{"android":"levelo://app?vid=8989247c-2798-44fb-b62a-2ea9811d754e","ios":"levelo://app?vid=8989247c-2798-44fb-b62a-2ea9811d754e"},"vehicle_type_id":"4","last_reported":1744697724,"current_range_meters":24000,"station_id":"ce4bhf92rcd13ifvqf40","pricing_plan_id":"cebpf4jnsgd1na2vs0mg"},{"bike_id":"8078de29-ac0a-4b89-bb67-6c4241b95dda","system_id":"levelo_inurba_marseille","lat":43.287,"lon":5.3741,"is_reserved":false,"is_disabled":false,"rental_uris":{"android":"levelo://app?vid=8078de29-ac0a-4b89-bb67-6c4241b95dda","ios":"levelo://app?vid=8078de29-ac0a-4b89-bb67-6c4241b95dda"},"vehicle_type_id":"4","last_reported":1744697724,"current_range_meters":24400,"station_id":"ce4bh3p2rcd13ifvqdq0","pricing_plan_id":"cebpf4jnsgd1na2vs0mg"},{"bike_id":"94f9189e-f945-48ad-a50c-37861e91b6c1","system_id":"levelo_inurba_marseille","lat":43.33594,"lon":5.4104,"is_reserved":false,"is_disabled":false,"rental_uris":{"android":"levelo://app?vid=94f9189e-f945-48ad-a50c-37861e91b6c1","ios":"levelo://app?vid=94f9189e-f945-48ad-a50c-37861e91b6c1"},"vehicle_type_id":"4","last_reported":1744697724,"current_range_meters":24400,"station_id":"ce4bhqh2rcd13ifvqhmg","pricing_plan_id":"cebpf4jnsgd1na2vs0mg"},{"bike_id":"f0279ac8-8387-45e2-a0f3-ace0004e8787","system_id":"levelo_inurba_marseille","lat":43.25082,"lon":5.39509,"is_reserved":false,"is_disabled":false,"rental_uris":{"android":"levelo://app?vid=f0279ac8-8387-45e2-a0f3-ace0004e8787","ios":"levelo://app?vid=f0279ac8-8387-45e2-a0f3-ace0004e8787"},"vehicle_type_id":"4","last_reported":1744697724,"current_range_meters":24400,"station_id":"ce4bhm12rcd13ifvqgkg","pricing_plan_id":"cebpf4jnsgd1na2vs0mg"},{"bike_id":"a1b10691-18d9-4e1a-9203-d554e882b21a","system_id":"levelo_inurba_marseille","lat":43.3296,"lon":5.38898,"is_reserved":false,"is_disabled":false,"rental_uris":{"android":"levelo://app?vid=a1b10691-18d9-4e1a-9203-d554e882b21a","ios":"levelo://app?vid=a1b10691-18d9-4e1a-9203-d554e882b21a"},"vehicle_type_id":"4","last_reported":1744697724,"current_range_meters":24400,"station_id":"","pricing_plan_id":"cebpf4jnsgd1na2vs0mg"},{"bike_id":"73274e85-f28c-43f2-9d76-d84733cf8eb8","system_id":"levelo_inurba_marseille","lat":43.29274,"lon":5.36848,"is_reserved":false,"is_disabled":false,"rental_uris":{"android":"levelo://app?vid=73274e85-f28c-43f2-9d76-d84733cf8eb8","ios":"levelo://app?vid=73274e85-f28c-43f2-9d76-d84733cf8eb8"},"vehicle_type_id":"4","last_reported":1744697724,"current_range_meters":24400,"station_id":"ce4bhbp2rcd13ifvqesg","pricing_plan_id":"cebpf4jnsgd1na2vs0mg"},