{"last_updated":1760710214,"ttl":60,"version":"2.2","data":{"bikes":[{"bike_id":"162b4567-bd5c-49ce-8cd7-46a755722238","system_id":"levelo_inurba_marseille","lat":43.27214,"lon":5.391785,"is_reserved":false,"is_disabled":false,"rental_uris":{"android":"levelo://app?vid=162b4567-bd5c-49ce-8cd7-46a755722238","ios":"levelo://app?vid=162b4567-bd5c-49ce-8cd7-46a755722238"},"vehicle_type_id":"4","last_reported":1760710215,"current_range_meters":2800,"station_id":"ce4bhhp2rcd13ifvqfm0","pricing_plan_id":"cebpf4jnsgd1na2vs0mg"},{"bike_id":"5a39b456-ef0e-47ae-9910-7349f5ad8c1d","system_id":"levelo_inurba_marseille","lat":43.28357,"lon":5.38622,"is_reserved":false,"is_disabled":false,"rental_uris":{"android":"levelo://app?vid=5a39b456-ef0e-47ae-9910-7349f5ad8c1d","ios":"levelo://app?vid=5a39b456-ef0e-47ae-9910-7349f5ad8c1d"},"vehicle_type_id":"4","last_reported":1760710215,"current_range_meters":2800,"station_id":"ce4bh492rcd13ifvqdvg","pricing_plan_id":"cebpf4jnsgd1na2vs0mg"},{"bike_id":"42e7913c-2f3d-4468-8592-1ee9848dccb2","system_id":"levelo_inurba_marseille","lat":43.29198,"lon":5.35808,"is_reserved":false,"is_disabled":false,"rental_uris":{"android":"levelo://app?vid=42e7913c-2f3d-4468-8592-1ee9848dccb2","ios":"levelo://app?vid=42e7913c-2f3d-4468-8592-1ee9848dccb2"},"vehicle_type_id":"4","last_reported":1760710215,"current_range_meters":2800,"station_id":"ce4bhb12rcd13ifvqel0","pricing_plan_id":"cebpf4jnsgd1na2vs0mg"},{"bike_id":"990f93bf-1de5-4194-9027-ec7604227bcb","system_id":"levelo_inurba_marseille","lat":43.24663,"lon":5.38169,"is_reserved":false,"is_disabled":false,"rental_uris":{"android":"levelo://app?vid=990f93bf-1de5-4194-9027-ec7604227bcb","ios":"levelo://app?vid=990f93bf-1de5-4194-9027-ec7604227bcb"},"vehicle_type_id":"4","last_reported":1760710215,"current_range_meters":2800,"station_id":"ce4bhih2rcd13ifvqfr0","pricing_plan_id":"cebpf4jnsgd1na2vs0mg"},{"bike_id":"2f8910bd-b97d-427f-aa5a-591e6f309cb1","system_id":"levelo_inurba_marseille","lat":43.26792,"lon":5.39409,"is_reserved":false,"is_disabled":false,"rental_uris":{"android":"levelo://app?vid=2f8910bd-b97d-427f-aa5a-591e6f309cb1","ios":"levelo://app?vid=2f8910bd-b97d-427f-aa5a-591e6f309cb1"},"vehicle_type_id":"4","last_reported":1760710215,"current_range_meters":3200,"station_id":"ce4bhh12rcd13ifvqfg0","pricing_plan_id":"cebpf4jnsgd1na2vs0mg"},{"bike_id":"efb23f08-b577-45d8-a0b9-231229cb393d","system_id":"levelo_inurba_marseille","lat":43.24398,"lon":5.37035,"is_reserved":false,"is_disabled":false,"rental_uris":{"android":"levelo://app?vid=efb23f08-b577-45d8-a0b9-231229cb393d","ios":"levelo://app?vid=efb23f08-b577-45d8-a0b9-231229cb393d"},"vehicle_type_id":"4","last_reported":1760710215,"current_range_meters":3200,"station_id":"ce4bhhh2rcd13ifvqfk0","pricing_plan_id":"cebpf4jnsgd1na2vs0mg"},{"bike_id":"56e8f168-0239-4dab-a231-9caf80fb776c","system_id":"levelo_inurba_marseille","lat":43.292676,"lon":5.376168,"is_reserved":false,"is_disabled":false,"rental_uris":{"android":"levelo://app?vid=56e8f168-0239-4dab-a231-9caf80fb776c","ios":"levelo://app?vid=56e8f168-0239-4dab-a231-9caf80fb776c"},"vehicle_type_id":"4","last_reported":1760710215,"current_range_meters":3200,"station_id":"","pricing_plan_id":"cebpf4jnsgd1na2vs0mg"},{"bike_id":"e0863f88-6065-41da-9ecd-468f1156f9d8","system_id":"levelo_inurba_marseille","lat":43.27359,"lon":5.41357,"is_reserved":false,"is_disabled":false,"rental_uris":{"android":"levelo://app?vid=e0863f88-6065-41da-9ecd-468f1156f9d8","ios":"levelo://app?vid=e0863f88-6065-41da-9ecd-468f1156f9d8"},"vehicle_type_id":"4","last_reported":1760710215,"current_range_meters":3200,"station_id":"","pricing_plan_id":"cebpf4jnsgd1na2vs0mg"},{"bike_id":"fc7795cf-b54a-41a0-bd1b-9680bf8307ab","system_id":"levelo_inurba_marseille","lat":43.28422,"lon":5.34976,"is_reserved":false,"is_disabled":false,"rental_uris":{"android":"levelo://app?vid=fc7795cf-b54a-41a0-bd1b-9680bf8307ab","ios":"levelo://app?vid=fc7795cf-b54a-41a0-bd1b-9680bf8307ab"},"vehicle_type_id":"4","last_reported":1760710215,"current_range_meters":3200,"station_id":"ce4bhbh2rcd13ifvqepg","pricing_plan_id":"cebpf4jnsgd1na2vs0mg"},{"bike_id":"66cff7ac-7cbd-4e0a-9bcc-f3e132e5b155","system_id":"levelo_inurba_marseille","lat":43.29695,"lon":5.3854,"is_reserved":false,"is_disabled":false,"rental_uris":{"android":"levelo://app?vid=66cff7ac-7cbd-4e0a-9bcc-f3e132e5b155","ios":"levelo://app?vid=66cff7ac-7cbd-4e0a-9bcc-f3e132e5b155"},"vehicle_type_id":"4","last_reported":1760710215,"current_range_meters":3200,"station_id":"","pricing_plan_id":"cebpf4jnsgd1na2vs0mg"},{"bike_id":"6f7f7367-5878-40a8-9d67-98116531f6a9","system_id":"levelo_inurba_marseille","lat":43.31283,"lon":5.40172,"is_reserved":false,"is_disabled":false,"rental_uris":{"android":"levelo://app?vid=6f7f7367-5878-40a8-9d67-98116531f6a9","ios":"levelo://app?vid=6f7f7367-5878-40a8-9d67-98116531f6a9"},"vehicle_type_id":"4","last_reported":1760710215,"current_range_meters":3200,"station_id":"ce4bh092rcd13ifvqd30","pricing_plan_id":"cebpf4jnsgd1na2vs0mg"},{"bike_id":"3864ba56-628b-4975-b3f0-2d475d2096ac","system_id":"levelo_inurba_marseille","lat":43.24167,"lon":5.36388,"is_reserved":false,"is_disabled":false,"rental_uris":{"android":"levelo://app?vid=3864ba56-628b-4975-b3f0-2d475d2096ac","ios":"levelo://app?vid=3864ba56-628b-4975-b3f0-2d475d2096ac"},"vehicle_type_id":"4","last_reported":1760710215,"current_range_meters":3200,"station_id":"cpo36qri1sfpv3e86is0","pricing_plan_id":"cebpf4jnsgd1na2vs0mg"},{"bike_id":"f0622547-115c-4aab-a330-c8c9f80dea9e","system_id":"levelo_inurba_marseille","lat":43.280759,"lon":5.352372,"is_reserved":false,"is_disabled":false,"rental_uris":{"android":"levelo://app?vid=f0622547-115c-4aab-a330-c8c9f80dea9e","ios":"levelo://app?vid=f0622547-115c-4aab-a330-c8c9f80dea9e"},"vehicle_type_id":"4","last_reported":1760710215,"current_range_meters":3200,"station_id":"","pricing_plan_id":"cebpf4jnsgd1na2vs0mg"},{"bike_id":"6ddb9bd5-af69-46c8-af02-8c1055553ef8","system_id":"levelo_inurba_marseille","lat":43.22534,"lon":5.34827,"is_reserved":false,"is_disabled":false,"rental_uris":{"android":"levelo://app?vid=6ddb9bd5-af69-46c8-af02-8c1055553ef8","ios":"levelo://app?vid=6ddb9bd5-af69-46c8-af02-8c1055553ef8"},"vehicle_type_id":"4","last_reported":1760710215,"current_range_meters":3600,"station_id":"","pricing_plan_id":"cebpf4jnsgd1na2vs0mg"},{"bike_id":"a48291a7-da0f-4a63-a478-e9bc39dd0799","system_id":"levelo_inurba_marseille","lat":43.22534,"lon":5.34833,"is_reserved":false,"is_disabled":false,"rental_uris":{"android":"levelo://app?vid=a48291a7-da0f-4a63-a478-e9bc39dd0799","ios":"levelo://app?vid=a48291a7-da0f-4a63-a478-e9bc39dd0799"},"vehicle_type_id":"4","last_reported":1760710215,"current_range_meters":3600,"station_id":"","pricing_plan_id":"cebpf4jnsgd1na2vs0mg"},{"bike_id":"bc29fd8c-256d-420e-b520-b028ed3e87c9","system_id":"levelo_inurba_marseille","lat":43.290009,"lon":5.356087,"is_reserved":false,"is_disabled":false,"rental_uris":{"android":"levelo://app?vid=bc29fd8c-256d-420e-b520-b028ed3e87c9","ios":"levelo://app?vid=bc29fd8c-256d-420e-b520-b028ed3e87c9"},"vehicle_type_id":"4","last_reported":1760710215,"current_range_meters":3600,"station_id":"ce4bhb92rcd13ifvqen0","pricing_plan_id":"cebpf4jnsgd1na2vs0mg"},{"bike_id":"088fc733-69d4-4b46-9105-0f7d8e3ed09e","system_id":"levelo_inurba_marseille","lat":43.25722,"lon":5.41116,"is_reserved":false,"is_disabled":false,"rental_uris":{"android":"levelo://app?vid=088fc733-69d4-4b46-9105-0f7d8e3ed09e","ios":"levelo://app?vid=088fc733-69d4-4b46-9105-0f7d8e3ed09e"},"vehicle_type_id":"4","last_reported":1760710215,"current_range_meters":3600,"station_id":"ce4bhkp2rcd13ifvqgd0","pricing_plan_id":"cebpf4jnsgd1na2vs0mg"},{"bike_id":"b0e3fac0-2cba-43db-8a27-05393f9977ec","system_id":"levelo_inurba_marseille","lat":43.297242,"lon":5.373265,"is_reserved":false,"is_disabled":false,"rental_uris":{"android":"levelo://app?vid=b0e3fac0-2cba-43db-8a27-05393f9977ec","ios":"levelo://app?vid=b0e3fac0-2cba-43db-8a27-05393f9977ec"},"vehicle_type_id":"4","last_reported":1760710215,"current_range_meters":3600,"station_id":"","pricing_plan_id":"cebpf4jnsgd1na2vs0mg"},{"bike_id":"eeeb4f55-5da8-48e3-99b1-b419d4165a0f","system_id":"levelo_inurba_marseille","lat":43.323181,"lon":5.389278,"is_reserved":false,"is_disabled":false,"rental_uris":{"android":"levelo://app?vid=eeeb4f55-5da8-48e3-99b1-b419d4165a0f","ios":"levelo://app?vid=eeeb4f55-5da8-48e3-99b1-b419d4165a0f"},"vehicle_type_id":"4","last_reported":1760710215,"current_range_meters":3600,"station_id":"ce4bhqp2rcd13ifvqhog","pricing_plan_id":"cebpf4jnsgd1na2vs0mg"},{"bike_id":"fc79c6e3-c003-4b11-8fe1-b2a88d361d42","system_id":"levelo_inurba_marseille","lat":43.2904,"lon":5.39962,"is_reserved":false,"is_disabled":false,"rental_uris":{"android":"levelo://app?vid=fc79c6e3-c003-4b11-8fe1-b2a88d361d42","ios":"levelo://app?vid=fc79c6e3-c003-4b11-8fe1-b2a88d361d42"},"vehicle_type_id":"4","last_reported":1760710215,"current_range_meters":4000,"station_id":"ce4bh392rcd13ifvqdm0","pricing_plan_id":"cebpf4jnsgd1na2vs0mg"},{"bike_id":"75e671d2-4d08-44c0-80b4-b9a63d2638d8","system_id":"levelo_inurba_marseille","lat":43.21749,"lon":5.34605,"is_reserved":false,"is_disabled":false,"rental_uris":{"android":"levelo://app?vid=75e671d2-4d08-44c0-80b4-b9a63d2638d8","ios":"levelo://app?vid=75e671d2-4d08-44c0-80b4-b9a63d2638d8"},"vehicle_type_id":"4","last_reported":1760710215,"current_range_meters":4000,"station_id":"st_cvj6r9ubvosntc0bgbag","pricing_plan_id":"cebpf4jnsgd1na2vs0mg"},{"bike_id":"48bad4a6-a0b6-413f-831b-6699a6654a83","system_id":"levelo_inurba_marseille","lat":43.30444,"lon":5.38904,"is_reserved":false,"is_disabled":false,"rental_uris":{"android":"levelo://app?vid=48bad4a6-a0b6-413f-831b-6699a6654a83","ios":"levelo://app?vid=48bad4a6-a0b6-413f-831b-6699a6654a83"},"vehicle_type_id":"4","last_reported":1760710215,"current_range_meters":4000,"station_id":"ce4bgk12rcd13ifvqbi0","pricing_plan_id":"cebpf4jnsgd1na2vs0mg"},{"bike_id":"c10806ec-6d45-481a-ae58-b2aac1e05e16","system_id":"levelo_inurba_marseille","lat":43.233621,"lon":5.405085,"is_reserved":false,"is_disabled":false,"rental_uris":{"android":"levelo://app?vid=c10806ec-6d45-481a-ae58-b2aac1e05e16","ios":"levelo://app?vid=c10806ec-6d45-481a-ae58-b2aac1e05e16"},"vehicle_type_id":"4","last_reported":1760710215,"current_range_meters":4000,"station_id":"","pricing_plan_id":"cebpf4jnsgd1na2vs0mg"},{"bike_id":"a594c581-1474-4275-a0cd-b118ce08d25f","system_id":"levelo_inurba_marseille","lat":43.287,"lon":5.37384,"is_reserved":false,"is_disabled":false,"rental_uris":{"android":"levelo://app?vid=a594c581-1474-4275-a0cd-b118ce08d25f","ios":"levelo://app?vid=a594c581-1474-4275-a0cd-b118ce08d25f"},"vehicle_type_id":"4","last_reported":1760710215,"current_range_meters":4000,"station_id":"ce4bh3p2rcd13ifvqdq0","pricing_plan_id":"cebpf4jnsgd1na2vs0mg"},{"bike_id":"ecd9150a-82d1-439a-8ac1-0ab83b979277","system_id":"levelo_inurba_marseille","lat":43.30792,"lon":5.43529,"is_reserved":false,"is_disabled":true,"rental_uris":{"android":"levelo://app?vid=ecd9150a-82d1-439a-8ac1-0ab83b979277","ios":"levelo://app?vid=ecd9150a-82d1-439a-8ac1-0ab83b979277"},"vehicle_type_id":"4","last_reported":1760710215,"current_range_meters":4400,"station_id":"ce4bhph2rcd13ifvqheg","pricing_plan_id":"cebpf4jnsgd1na2vs0mg"},{"bike_id":"61a11efa-364c-4d3f-8aee-9de8c5d5aa31","system_id":"levelo_inurba_marseille","lat":43.249451,"lon":5.404904,"is_reserved":false,"is_disabled":false,"rental_uris":{"android":"levelo://app?vid=61a11efa-364c-4d3f-8aee-9de8c5d5aa31","ios":"levelo://app?vid=61a11efa-364c-4d3f-8aee-9de8c5d5aa31"},"vehicle_type_id":"4","last_reported":1760710215,"current_range_meters":4400,"station_id":"st_d2ngiaodas8pm72gd1h0","pricing_plan_id":"cebpf4jnsgd1na2vs0mg"},{"bike_id":"b7740c6c-7a61-4ec2-87e3-ba969257d62a","system_id":"levelo_inurba_marseille","lat":43.292,"lon":5.39306,"is_reserved":false,"is_disabled":false,"rental_uris":{"android":"levelo://app?vid=b7740c6c-7a61-4ec2-87e3-ba969257d62a","ios":"levelo://app?vid=b7740c6c-7a61-4ec2-87e3-ba969257d62a"},"vehicle_type_id":"4","last_reported":1760710215,"current_range_meters":4400,"station_id":"ce4bh192rcd13ifvqdd0","pricing_plan_id":"cebpf4jnsgd1na2vs0mg"},{"bike_id":"6cd16192-c813-4136-876c-ae8ebf20d344","system_id":"levelo_inurba_marseille","lat":43.33767,"lon":5.37471,"is_reserved":false,"is_disabled":false,"rental_uris":{"android":"levelo://app?vid=6cd16192-c813-4136-876c-ae8ebf20d344","ios":"levelo://app?vid=6cd16192-c813-4136-876c-ae8ebf20d344"},"vehicle_type_id":"4","last_reported":1760710215,"current_range_meters":4800,"station_id":"","pricing_plan_id":"cebpf4jnsgd1na2vs0mg"},{"bike_id":"04b6fb67-cd4e-4215-a6ea-e1e7b5f48af9","system_id":"levelo_inurba_marseille","lat":43.30332,"lon":5.40435,"is_reserved":false,"is_disabled":false,"rental_uris":{"android":"levelo://app?vid=04b6fb67-cd4e-4215-a6ea-e1e7b5f48af9","ios":"levelo://app?vid=04b6fb67-cd4e-4215-a6ea-e1e7b5f48af9"},"vehicle_type_id":"4","last_reported":1760710215,"current_range_meters":4800,"station_id":"ce4bh012rcd13ifvqd10","pricing_plan_id":"cebpf4jnsgd1na2vs0mg"},{"bike_id":"29b5980b-54ca-4a56-8fe7-fd8804799cf3","system_id":"levelo_inurba_marseille","lat":43.28536,"lon":5.44097,"is_reserved":false,"is_disabled":false,"rental_uris":{"android":"levelo://app?vid=29b5980b-54ca-4a56-8fe7-fd8804799cf3","ios":"levelo://app?vid=29b5980b-54ca-4a56-8fe7-fd8804799cf3"},"vehicle_type_id":"4","last_reported":1760710215,"current_range_meters":4800,"station_id":"st_d3j3df2ikq2c7380ej80","pricing_plan_id":"cebpf4jnsgd1na2vs0mg"},{"bike_id":"e06d4502-1624-40ee-83ec-63acabe1f288","system_id":"levelo_inurba_marseille","lat":43.27818,"lon":5.40719,"is_reserved":false,"is_disabled":false,"rental_uris":{"android":"levelo://app?vid=e06d4502-1624-40ee-83ec-63acabe1f288","ios":"levelo://app?vid=e06d4502-1624-40ee-83ec-63acabe1f288"},"vehicle_type_id":"4","last_reported":1760710215,"current_range_meters":4800,"station_id":"ce4bhnh2rcd13ifvqgtg","pricing_plan_id":"cebpf4jnsgd1na2vs0mg"},{"bike_id":"51d92181-d60d-46e3-b488-da25a40d6521","system_id":"levelo_inurba_marseille","lat":43.26033,"lon":5.37545,"is_reserved":false,"is_disabled":false,"rental_uris":{"android":"levelo://app?vid=51d92181-d60d-46e3-b488-da25a40d6521","ios":"levelo://app?vid=51d92181-d60d-46e3-b488-da25a40d6521"},"vehicle_type_id":"4","last_reported":1760710215,"current_range_meters":4800,"station_id":"ce4bhgh2rcd13ifvqfa0","pricing_plan_id":"cebpf4jnsgd1na2vs0mg"},{"bike_id":"a794a8d7-b0f4-4816-9567-10e9d8cf2529","system_id":"levelo_inurba_marseille","lat":43.27347,"lon":5.39091,"is_reserved":false,"is_disabled":false,"rental_uris":{"android":"levelo://app?vid=a794a8d7-b0f4-4816-9567-10e9d8cf2529","ios":"levelo://app?vid=a794a8d7-b0f4-4816-9567-10e9d8cf2529"},"vehicle_type_id":"4","last_reported":1760710215,"current_range_meters":6000,"station_id":"","pricing_plan_id":"cebpf4jnsgd1na2vs0mg"},{"bike_id":"d68b41be-366f-40d7-a414-434cfe0517a5","system_id":"levelo_inurba_marseille","lat":43.317698,"lon":5.422183,"is_reserved":false,"is_disabled":false,"rental_uris":{"android":"levelo://app?vid=d68b41be-366f-40d7-a414-434cfe0517a5","ios":"levelo://app?vid=d68b41be-366f-40d7-a414-434cfe0517a5"},"vehicle_type_id":"4","last_reported":1760710215,"current_range_meters":6000,"station_id":"","pricing_plan_id":"cebpf4jnsgd1na2vs0mg"},{"bike_id":"05a3a5b0-b819-47bc-af72-1fbdbf47c161","system_id":"levelo_inurba_marseille","lat":43.29013,"lon":5.35612,"is_reserved":false,"is_disabled":false,"rental_uris":{"android":"levelo://app?vid=05a3a5b0-b819-47bc-af72-1fbdbf47c161","ios":"levelo://app?vid=05a3a5b0-b819-47bc-af72-1fbdbf47c161"},"vehicle_type_id":"4","last_reported":1760710215,"current_range_meters":6000,"station_id":"ce4bhb92rcd13ifvqen0","pricing_plan_id":"cebpf4jnsgd1na2vs0mg"},{"bike_id":"fbc43396-a1bb-43af-84f3-c5eec0d83e05","system_id":"levelo_inurba_marseille","lat":43.30144,"lon":5.39892,"is_reserved":false,"is_disabled":false,"rental_uris":{"android":"levelo://app?vid=fbc43396-a1bb-43af-84f3-c5eec0d83e05","ios":"levelo://app?vid=fbc43396-a1bb-43af-84f3-c5eec0d83e05"},"vehicle_type_id":"4","last_reported":1760710215,"current_range_meters":6400,"station_id":"ce4bh0h2rcd13ifvqd40","pricing_plan_id":"cebpf4jnsgd1na2vs0mg"},{"bike_id":"d8e9b8f7-08e2-4408-ba5a-bf3e71307936","system_id":"levelo_inurba_marseille","lat":43.21191,"lon":5.35074,"is_reserved":false,"is_disabled":false,"rental_uris":{"android":"levelo://app?vid=d8e9b8f7-08e2-4408-ba5a-bf3e71307936","ios":"levelo://app?vid=d8e9b8f7-08e2-4408-ba5a-bf3e71307936"},"vehicle_type_id":"4","last_reported":1760710215,"current_range_meters":6400,"station_id":"st_cvj6sg6p6f1abm77japg","pricing_plan_id":"cebpf4jnsgd1na2vs0mg"},{"bike_id":"477e7c5f-bc97-4b56-b889-9cb25109e6de","system_id":"levelo_inurba_marseille","lat":43.28073,"lon":5.39659,"is_reserved":false,"is_disabled":false,"rental_uris":{"android":"levelo://app?vid=477e7c5f-bc97-4b56-b889-9cb25109e6de","ios":"levelo://app?vid=477e7c5f-bc97-4b56-b889-9cb25109e6de"},"vehicle_type_id":"4","last_reported":1760710215,"current_range_meters":6400,"station_id":"ce4bho12rcd13ifvqh2g","pricing_plan_id":"cebpf4jnsgd1na2vs0mg"},{"bike_id":"af96e380-ef8b-412e-8dbe-07ad526806b5","system_id":"levelo_inurba_marseille","lat":43.33803,"lon":5.37408,"is_reserved":false,"is_disabled":false,"rental_uris":{"android":"levelo://app?vid=af96e380-ef8b-412e-8dbe-07ad526806b5","ios":"levelo://app?vid=af96e380-ef8b-412e-8dbe-07ad526806b5"},"vehicle_type_id":"4","last_reported":1760710215,"current_range_meters":6400,"station_id":"","pricing_plan_id":"cebpf4jnsgd1na2vs0mg"},{"bike_id":"45949c66-0238-49e9-bece-367e11334090","system_id":"levelo_inurba_marseille","lat":43.2901,"lon":5.356194,"is_reserved":false,"is_disabled":false,"rental_uris":{"android":"levelo://app?vid=45949c66-0238-49e9-bece-367e11334090","ios":"levelo://app?vid=45949c66-0238-49e9-bece-367e11334090"},"vehicle_type_id":"4","last_reported":1760710215,"current_range_meters":6400,"station_id":"ce4bhb92rcd13ifvqen0","pricing_plan_id":"cebpf4jnsgd1na2vs0mg"},{"bike_id":"7856590a-1572-412a-918e-77843d1b598a","system_id":"levelo_inurba_marseille","lat":43.280723,"lon":5.422083,"is_reserved":false,"is_disabled":false,"rental_uris":{"android":"levelo://app?vid=7856590a-1572-412a-918e-77843d1b598a","ios":"levelo://app?vid=7856590a-1572-412a-918e-77843d1b598a"},"vehicle_type_id":"4","last_reported":1760710215,"current_range_meters":6400,"station_id":"","pricing_plan_id":"cebpf4jnsgd1na2vs0mg"},{"bike_id":"7a63795d-d6ae-4db3-866d-c16b2af002f1","system_id":"levelo_inurba_marseille","lat":43.29966,"lon":5.37526,"is_reserved":false,"is_disabled":false,"rental_uris":{"android":"levelo://app?vid=7a63795d-d6ae-4db3-866d-c16b2af002f1","ios":"levelo://app?vid=7a63795d-d6ae-4db3-866d-c16b2af002f1"},"vehicle_type_id":"4","last_reported":1760710215,"current_range_meters":6400,"station_id":"","pricing_plan_id":"cebpf4jnsgd1na2vs0mg"},{"bike_id":"d4e98173-8455-46f9-9479-27c76f309818","system_id":"levelo_inurba_marseille","lat":43.282654,"lon":5.350603,"is_reserved":false,"is_disabled":false,"rental_uris":{"android":"levelo://app?vid=d4e98173-8455-46f9-9479-27c76f309818","ios":"levelo://app?vid=d4e98173-8455-46f9-9479-27c76f309818"},"vehicle_type_id":"4","last_reported":1760710215,"current_range_meters":6400,"station_id":"","pricing_plan_id":"cebpf4jnsgd1na2vs0mg"},{"bike_id":"580c6d98-e5f1-4ea7-a911-84243ea3dc6d","system_id":"levelo_inurba_marseille","lat":43.246704,"lon":5.381712,"is_reserved":false,"is_disabled":false,"rental_uris":{"android":"levelo://app?vid=580c6d98-e5f1-4ea7-a911-84243ea3dc6d","ios":"levelo://app?vid=580c6d98-e5f1-4ea7-a911-84243ea3dc6d"},"vehicle_type_id":"4","last_reported":1760710215,"current_range_meters":6400,"station_id":"ce4bhih2rcd13ifvqfr0","pricing_plan_id":"cebpf4jnsgd1na2vs0mg"},{"bike_id":"b8ba0f0c-8425-4ded-bfaf-a6fb8d6a1b2b","system_id":"levelo_inurba_marseille","lat":43.271688,"lon":5.409832,"is_reserved":false,"is_disabled":false,"rental_uris":{"android":"levelo://app?vid=b8ba0f0c-8425-4ded-bfaf-a6fb8d6a1b2b","ios":"levelo://app?vid=b8ba0f0c-8425-4ded-bfaf-a6fb8d6a1b2b"},"vehicle_type_id":"4","last_reported":1760710215,"current_range_meters":6400,"station_id":"ce4bhl12rcd13ifvqgf0","pricing_plan_id":"cebpf4jnsgd1na2vs0mg"},{"bike_id":"7e444206-20cf-47e2-a819-82c6ab3d59a7","system_id":"levelo_inurba_marseille","lat":43.337431,"lon":5.407156,"is_reserved":false,"is_disabled":false,"rental_uris":{"android":"levelo://app?vid=7e444206-20cf-47e2-a819-82c6ab3d59a7","ios":"levelo://app?vid=7e444206-20cf-47e2-a819-82c6ab3d59a7"},"vehicle_type_id":"4","last_reported":1760710215,"current_range_meters":6800,"station_id":"","pricing_plan_id":"cebpf4jnsgd1na2vs0mg"},{"bike_id":"25e3c87d-e41e-4886-83c1-fab5f2c48172","system_id":"levelo_inurba_marseille","lat":43.31993,"lon":5.38153,"is_reserved":false,"is_disabled":false,"rental_uris":{"android":"levelo://app?vid=25e3c87d-e41e-4886-83c1-fab5f2c48172","ios":"levelo://app?vid=25e3c87d-e41e-4886-83c1-fab5f2c48172"},"vehicle_type_id":"4","last_reported":1760710215,"current_range_meters":6800,"station_id":"ce4bhr12rcd13ifvqhpg","pricing_plan_id":"cebpf4jnsgd1na2vs0mg"},{"bike_id":"1dc3768d-0b4e-4859-817c-5a4ee299d7ad","system_id":"levelo_inurba_marseille","lat":43.297217,"lon":5.378848,"is_reserved":false,"is_disabled":false,"rental_uris":{"android":"levelo://app?vid=1dc3768d-0b4e-4859-817c-5a4ee299d7ad","ios":"levelo://app?vid=1dc3768d-0b4e-4859-817c-5a4ee299d7ad"},"vehicle_type_id":"4","last_reported":1760710215,"current_range_meters":6800,"station_id":"","pricing_plan_id":"cebpf4jnsgd1na2vs0mg"},{"bike_id":"ea8da3a3-0911-462b-8f20-12e840eb3cab","system_id":"levelo_inurba_marseille","lat":43.2862,"lon":5.35105,"is_reserved":false,"is_disabled":false,"rental_uris":{"android":"levelo://app?vid=ea8da3a3-0911-462b-8f20-12e840eb3cab","ios":"levelo://app?vid=ea8da3a3-0911-462b-8f20-12e840eb3cab"},"vehicle_type_id":"4","last_reported":1760710215,"current_range_meters":7200,"station_id":"ce4bhch2rcd13ifvqeug","pricing_plan_id":"cebpf4jnsgd1na2vs0mg"},{"bike_id":"68621620-8760-401d-b036-7f27f95adc07","system_id":"levelo_inurba_marseille","lat":43.28796,"lon":5.3886,"is_reserved":false,"is_disabled":false,"rental_uris":{"android":"levelo://app?vid=68621620-8760-401d-b036-7f27f95adc07","ios":"levelo://app?vid=68621620-8760-401d-b036-7f27f95adc07"},"vehicle_type_id":"4","last_reported":1760710215,"current_range_meters":7200,"station_id":"","pricing_plan_id":"cebpf4jnsgd1na2vs0mg"},{"bike_id":"afd3a141-6f64-4928-ba91-fca21b7af038","system_id":"levelo_inurba_marseille","lat":43.2964,"lon":5.36608,"is_reserved":false,"is_disabled":false,"rental_uris":{"android":"levelo://app?vid=afd3a141-6f64-4928-ba91-fca21b7af038","ios":"levelo://app?vid=afd3a141-6f64-4928-ba91-fca21b7af038"},"vehicle_type_id":"4","last_reported":1760710215,"current_range_meters":7200,"station_id":"","pricing_plan_id":"cebpf4jnsgd1na2vs0mg"},{"bike_id":"bc65f254-26b4-4000-8d42-bea768d6da1b","system_id":"levelo_inurba_marseille","lat":43.27169,"lon":5.40991,"is_reserved":false,"is_disabled":false,"rental_uris":{"android":"levelo://app?vid=bc65f254-26b4-4000-8d42-bea768d6da1b","ios":"levelo://app?vid=bc65f254-26b4-4000-8d42-bea768d6da1b"},"vehicle_type_id":"4","last_reported":1760710215,"current_range_meters":7200,"station_id":"ce4bhl12rcd13ifvqgf0","pricing_plan_id":"cebpf4jnsgd1na2vs0mg"},{"bike_id":"598847e9-eeeb-4261-bc06-3aadb21c367b","system_id":"levelo_inurba_marseille","lat":43.298,"lon":5.38087,"is_reserved":false,"is_disabled":false,"rental_uris":{"android":"levelo://app?vid=598847e9-eeeb-4261-bc06-3aadb21c367b","ios":"levelo://app?vid=598847e9-eeeb-4261-bc06-3aadb21c367b"},"vehicle_type_id":"4","last_reported":1760710215,"current_range_meters":7200,"station_id":"ce4bgip2rcd13ifvqbb0","pricing_plan_id":"cebpf4jnsgd1na2vs0mg"},{"bike_id":"326321cc-5ff0-419b-be6c-cfdc1e42633a","system_id":"levelo_inurba_marseille","lat":43.28453,"lon":5.35883,"is_reserved":false,"is_disabled":false,"rental_uris":{"android":"levelo://app?vid=326321cc-5ff0-419b-be6c-cfdc1e42633a","ios":"levelo://app?vid=326321cc-5ff0-419b-be6c-cfdc1e42633a"},"vehicle_type_id":"4","last_reported":1760710215,"current_range_meters":7200,"station_id":"ce4bhah2rcd13ifvqei0","pricing_plan_id":"cebpf4jnsgd1na2vs0mg"},{"bike_id":"662e034f-ec92-417c-a838-68762f3020bc","system_id":"levelo_inurba_marseille","lat":43.30471,"lon":5.3684,"is_reserved":false,"is_disabled":false,"rental_uris":{"android":"levelo://app?vid=662e034f-ec92-417c-a838-68762f3020bc","ios":"levelo://app?vid=662e034f-ec92-417c-a838-68762f3020bc"},"vehicle_type_id":"4","last_reported":1760710215,"current_range_meters":7200,"station_id":"","pricing_plan_id":"cebpf4jnsgd1na2vs0mg"},{"bike_id":"5d8b6d20-affb-4938-9995-3cc8b9fe0a12","system_id":"levelo_inurba_marseille","lat":43.28285,"lon":5.35077,"is_reserved":false,"is_disabled":false,"rental_uris":{"android":"levelo://app?vid=5d8b6d20-affb-4938-9995-3cc8b9fe0a12","ios":"levelo://app?vid=5d8b6d20-affb-4938-9995-3cc8b9fe0a12"},"vehicle_type_id":"4","last_reported":1760710215,"current_range_meters":7200,"station_id":"ce4bhbp2rcd13ifvqerg","pricing_plan_id":"cebpf4jnsgd1na2vs0mg"},{"bike_id":"fa09c795-f64b-4dac-9bde-71ce8486711f","system_id":"levelo_inurba_marseille","lat":43.26781,"lon":5.39421,"is_reserved":false,"is_disabled":false,"rental_uris":{"android":"levelo://app?vid=fa09c795-f64b-4dac-9bde-71ce8486711f","ios":"levelo://app?vid=fa09c795-f64b-4dac-9bde-71ce8486711f"},"vehicle_type_id":"4","last_reported":1760710215,"current_range_meters":8000,"station_id":"ce4bhh12rcd13ifvqfg0","pricing_plan_id":"cebpf4jnsgd1na2vs0mg"},{"bike_id":"0d0abba9-4a79-496f-9678-0dc23920f998","system_id":"levelo_inurba_marseille","lat":43.29278,"lon":5.40116,"is_reserved":false,"is_disabled":false,"rental_uris":{"android":"levelo://app?vid=0d0abba9-4a79-496f-9678-0dc23920f998","ios":"levelo://app?vid=0d0abba9-4a79-496f-9678-0dc23920f998"},"vehicle_type_id":"4","last_reported":1760710215,"current_range_meters":8000,"station_id":"ce4bh312rcd13ifvqdk0","pricing_plan_id":"cebpf4jnsgd1na2vs0mg"},{"bike_id":"9893867c-39cd-451e-aad8-27bf079e7abe","system_id":"levelo_inurba_marseille","lat":43.24809,"lon":5.37459,"is_reserved":false,"is_disabled":false,"rental_uris":{"android":"levelo://app?vid=9893867c-39cd-451e-aad8-27bf079e7abe","ios":"levelo://app?vid=9893867c-39cd-451e-aad8-27bf079e7abe"},"vehicle_type_id":"4","last_reported":1760710215,"current_range_meters":8000,"station_id":"ce4bhgh2rcd13ifvqfb0","pricing_plan_id":"cebpf4jnsgd1na2vs0mg"},{"bike_id":"47b6a661-48b8-461f-9827-f48295e67bbf","system_id":"levelo_inurba_marseille","lat":43.26309,"lon":5.39835,"is_reserved":false,"is_disabled":false,"rental_uris":{"android":"levelo://app?vid=47b6a661-48b8-461f-9827-f48295e67bbf","ios":"levelo://app?vid=47b6a661-48b8-461f-9827-f48295e67bbf"},"vehicle_type_id":"4","last_reported":1760710215,"current_range_meters":8000,"station_id":"","pricing_plan_id":"cebpf4jnsgd1na2vs0mg"},{"bike_id":"6bc10d2c-55d7-4aaf-92b6-ea8f15f8b9d3","system_id":"levelo_inurba_marseille","lat":43.28273,"lon":5.35053,"is_reserved":false,"is_disabled":false,"rental_uris":{"android":"levelo://app?vid=6bc10d2c-55d7-4aaf-92b6-ea8f15f8b9d3","ios":"levelo://app?vid=6bc10d2c-55d7-4aaf-92b6-ea8f15f8b9d3"},"vehicle_type_id":"4","last_reported":1760710215,"current_range_meters":8000,"station_id":"ce4bhbp2rcd13ifvqerg","pricing_plan_id":"cebpf4jnsgd1na2vs0mg"},{"bike_id":"5ef7f410-29cd-4571-9d26-07c7bddc2c17","system_id":"levelo_inurba_marseille","lat":43.2622,"lon":5.37452,"is_reserved":false,"is_disabled":false,"rental_uris":{"android":"levelo://app?vid=5ef7f410-29cd-4571-9d26-07c7bddc2c17","ios":"levelo://app?vid=5ef7f410-29cd-4571-9d26-07c7bddc2c17"},"vehicle_type_id":"4","last_reported":1760710215,"current_range_meters":8000,"station_id":"ce4bhgp2rcd13ifvqfc0","pricing_plan_id":"cebpf4jnsgd1na2vs0mg"},{"bike_id":"295240cd-a1bf-4896-9929-52eb1117377a","system_id":"levelo_inurba_marseille","lat":43.32655,"lon":5.41003,"is_reserved":false,"is_disabled":false,"rental_uris":{"android":"levelo://app?vid=295240cd-a1bf-4896-9929-52eb1117377a","ios":"levelo://app?vid=295240cd-a1bf-4896-9929-52eb1117377a"},"vehicle_type_id":"4","last_reported":1760710215,"current_range_meters":8000,"station_id":"ce4bhpp2rcd13ifvqhgg","pricing_plan_id":"cebpf4jnsgd1na2vs0mg"},{"bike_id":"c871ca87-9ea0-4c82-8f96-1d74fe568265","system_id":"levelo_inurba_marseille","lat":43.28574,"lon":5.414742,"is_reserved":false,"is_disabled":false,"rental_uris":{"android":"levelo://app?vid=c871ca87-9ea0-4c82-8f96-1d74fe568265","ios":"levelo://app?vid=c871ca87-9ea0-4c82-8f96-1d74fe568265"},"vehicle_type_id":"4","last_reported":1760710215,"current_range_meters":8000,"station_id":"","pricing_plan_id":"cebpf4jnsgd1na2vs0mg"},{"bike_id":"170e8700-fccc-4f7a-a1eb-32745e509533","system_id":"levelo_inurba_marseille","lat":43.2804,"lon":5.36943,"is_reserved":false,"is_disabled":false,"rental_uris":{"android":"levelo://app?vid=170e8700-fccc-4f7a-a1eb-32745e509533","ios":"levelo://app?vid=170e8700-fccc-4f7a-a1eb-32745e509533"},"vehicle_type_id":"4","last_reported":1760710215,"current_range_meters":8000,"station_id":"ce4bha12rcd13ifvqef0","pricing_plan_id":"cebpf4jnsgd1na2vs0mg"},{"bike_id":"014e245f-2876-40ca-8883-74c624ec5457","system_id":"levelo_inurba_marseille","lat":43.29,"lon":5.35611,"is_reserved":false,"is_disabled":false,"rental_uris":{"android":"levelo://app?vid=014e245f-2876-40ca-8883-74c624ec5457","ios":"levelo://app?vid=014e245f-2876-40ca-8883-74c624ec5457"},"vehicle_type_id":"4","last_reported":1760710215,"current_range_meters":8000,"station_id":"ce4bhb92rcd13ifvqen0","pricing_plan_id":"cebpf4jnsgd1na2vs0mg"},{"bike_id":"ef0f8f06-6133-4d5d-9bb6-c2914553d570","system_id":"levelo_inurba_marseille","lat":43.28467,"lon":5.35889,"is_reserved":false,"is_disabled":false,"rental_uris":{"android":"levelo://app?vid=ef0f8f06-6133-4d5d-9bb6-c2914553d570","ios":"levelo://app?vid=ef0f8f06-6133-4d5d-9bb6-c2914553d570"},"vehicle_type_id":"4","last_reported":1760710215,"current_range_meters":8000,"station_id":"ce4bhah2rcd13ifvqei0","pricing_plan_id":"cebpf4jnsgd1na2vs0mg"},{"bike_id":"5be0b6e6-11df-4388-a50d-68ecb8c40dc7","system_id":"levelo_inurba_marseille","lat":43.250014,"lon":5.389282,"is_reserved":false,"is_disabled":false,"rental_uris":{"android":"levelo://app?vid=5be0b6e6-11df-4388-a50d-68ecb8c40dc7","ios":"levelo://app?vid=5be0b6e6-11df-4388-a50d-68ecb8c40dc7"},"vehicle_type_id":"4","last_reported":1760710215,"current_range_meters":8400,"station_id":"ce4bhgp2rcd13ifvqfd0","pricing_plan_id":"cebpf4jnsgd1na2vs0mg"},{"bike_id":"2c8d8491-37a1-4a4e-a42d-e2cfd44f58d6","system_id":"levelo_inurba_marseille","lat":43.28538,"lon":5.44095,"is_reserved":false,"is_disabled":false,"rental_uris":{"android":"levelo://app?vid=2c8d8491-37a1-4a4e-a42d-e2cfd44f58d6","ios":"levelo://app?vid=2c8d8491-37a1-4a4e-a42d-e2cfd44f58d6"},"vehicle_type_id":"4","last_reported":1760710215,"current_range_meters":8400,"station_id":"st_d3j3df2ikq2c7380ej80","pricing_plan_id":"cebpf4jnsgd1na2vs0mg"},{"bike_id":"1163a622-2040-485b-8c45-da564238b1b0","system_id":"levelo_inurba_marseille","lat":43.308712,"lon":5.39638,"is_reserved":false,"is_disabled":false,"rental_uris":{"android":"levelo://app?vid=1163a622-2040-485b-8c45-da564238b1b0","ios":"levelo://app?vid=1163a622-2040-485b-8c45-da564238b1b0"},"vehicle_type_id":"4","last_reported":1760710215,"current_range_meters":8400,"station_id":"ce4bh012rcd13ifvqcv0","pricing_plan_id":"cebpf4jnsgd1na2vs0mg"},{"bike_id":"a4911cc1-6afe-40a3-ba0e-f16af3882d45","system_id":"levelo_inurba_marseille","lat":43.21742,"lon":5.34612,"is_reserved":false,"is_disabled":false,"rental_uris":{"android":"levelo://app?vid=a4911cc1-6afe-40a3-ba0e-f16af3882d45","ios":"levelo://app?vid=a4911cc1-6afe-40a3-ba0e-f16af3882d45"},"vehicle_type_id":"4","last_reported":1760710215,"current_range_meters":8400,"station_id":"st_cvj6r9ubvosntc0bgbag","pricing_plan_id":"cebpf4jnsgd1na2vs0mg"},{"bike_id":"cb12ac95-b112-40d8-8b7d-06759435ef6f","system_id":"levelo_inurba_marseille","lat":43.3002,"lon":5.37124,"is_reserved":false,"is_disabled":false,"rental_uris":{"android":"levelo://app?vid=cb12ac95-b112-40d8-8b7d-06759435ef6f","ios":"levelo://app?vid=cb12ac95-b112-40d8-8b7d-06759435ef6f"},"vehicle_type_id":"4","last_reported":1760710215,"current_range_meters":8400,"station_id":"","pricing_plan_id":"cebpf4jnsgd1na2vs0mg"},{"bike_id":"d9662236-cc21-4a7c-b8a4-f0ba5842e1a0","system_id":"levelo_inurba_marseille","lat":43.303579,"lon":5.418794,"is_reserved":false,"is_disabled":false,"rental_uris":{"android":"levelo://app?vid=d9662236-cc21-4a7c-b8a4-f0ba5842e1a0","ios":"levelo://app?vid=d9662236-cc21-4a7c-b8a4-f0ba5842e1a0"},"vehicle_type_id":"4","last_reported":1760710215,"current_range_meters":8400,"station_id":"ce4bhop2rcd13ifvqh7g","pricing_plan_id":"cebpf4jnsgd1na2vs0mg"},{"bike_id":"9ddccea7-f53a-4958-a1b4-cbf894f8fdd1","system_id":"levelo_inurba_marseille","lat":43.21754,"lon":5.34599,"is_reserved":false,"is_disabled":false,"rental_uris":{"android":"levelo://app?vid=9ddccea7-f53a-4958-a1b4-cbf894f8fdd1","ios":"levelo://app?vid=9ddccea7-f53a-4958-a1b4-cbf894f8fdd1"},"vehicle_type_id":"4","last_reported":1760710215,"current_range_meters":8800,"station_id":"st_cvj6r9ubvosntc0bgbag","pricing_plan_id":"cebpf4jnsgd1na2vs0mg"},{"bike_id":"de9e19bc-b9ca-4d47-80aa-ea19df98d7f3","system_id":"levelo_inurba_marseille","lat":43.3012,"lon":5.39884,"is_reserved":false,"is_disabled":false,"rental_uris":{"android":"levelo://app?vid=de9e19bc-b9ca-4d47-80aa-ea19df98d7f3","ios":"levelo://app?vid=de9e19bc-b9ca-4d47-80aa-ea19df98d7f3"},"vehicle_type_id":"4","last_reported":1760710215,"current_range_meters":8800,"station_id":"ce4bh0h2rcd13ifvqd40","pricing_plan_id":"cebpf4jnsgd1na2vs0mg"},{"bike_id":"074787e6-7e7e-481e-b277-5c430d2e5523","system_id":"levelo_inurba_marseille","lat":43.231788,"lon":5.399881,"is_reserved":false,"is_disabled":false,"rental_uris":{"android":"levelo://app?vid=074787e6-7e7e-481e-b277-5c430d2e5523","ios":"levelo://app?vid=074787e6-7e7e-481e-b277-5c430d2e5523"},"vehicle_type_id":"4","last_reported":1760710215,"current_range_meters":8800,"station_id":"","pricing_plan_id":"cebpf4jnsgd1na2vs0mg"},{"bike_id":"121f55c8-5a85-4142-a96c-bf52eb873442","system_id":"levelo_inurba_marseille","lat":43.30467,"lon":5.369099,"is_reserved":false,"is_disabled":false,"rental_uris":{"android":"levelo://app?vid=121f55c8-5a85-4142-a96c-bf52eb873442","ios":"levelo://app?vid=121f55c8-5a85-4142-a96c-bf52eb873442"},"vehicle_type_id":"4","last_reported":1760710215,"current_range_meters":8800,"station_id":"","pricing_plan_id":"cebpf4jnsgd1na2vs0mg"},{"bike_id":"0670def4-b15a-4c00-8829-0cd906a61bcb","system_id":"levelo_inurba_marseille","lat":43.33779,"lon":5.37456,"is_reserved":false,"is_disabled":false,"rental_uris":{"android":"levelo://app?vid=0670def4-b15a-4c00-8829-0cd906a61bcb","ios":"levelo://app?vid=0670def4-b15a-4c00-8829-0cd906a61bcb"},"vehicle_type_id":"4","last_reported":1760710215,"current_range_meters":8800,"station_id":"","pricing_plan_id":"cebpf4jnsgd1na2vs0mg"},{"bike_id":"b6ff32cc-417d-47af-925d-9f99393741e6","system_id":"levelo_inurba_marseille","lat":43.225347,"lon":5.348211,"is_reserved":false,"is_disabled":false,"rental_uris":{"android":"levelo://app?vid=b6ff32cc-417d-47af-925d-9f99393741e6","ios":"levelo://app?vid=b6ff32cc-417d-47af-925d-9f99393741e6"},"vehicle_type_id":"4","last_reported":1760710215,"current_range_meters":8800,"station_id":"st_cvj5dfep6f1abm77gieg","pricing_plan_id":"cebpf4jnsgd1na2vs0mg"},{"bike_id":"d222e4c1-8b75-4697-ba81-75a11105c67c","system_id":"levelo_inurba_marseille","lat":43.284862,"lon":5.384122,"is_reserved":false,"is_disabled":false,"rental_uris":{"android":"levelo://app?vid=d222e4c1-8b75-4697-ba81-75a11105c67c","ios":"levelo://app?vid=d222e4c1-8b75-4697-ba81-75a11105c67c"},"vehicle_type_id":"4","last_reported":1760710215,"current_range_meters":9200,"station_id":"ce4bh512rcd13ifvqe3g","pricing_plan_id":"cebpf4jnsgd1na2vs0mg"},{"bike_id":"d34ef2e7-4ba4-4fb2-b021-324fff1df295","system_id":"levelo_inurba_marseille","lat":43.30301,"lon":5.36898,"is_reserved":false,"is_disabled":false,"rental_uris":{"android":"levelo://app?vid=d34ef2e7-4ba4-4fb2-b021-324fff1df295","ios":"levelo://app?vid=d34ef2e7-4ba4-4fb2-b021-324fff1df295"},"vehicle_type_id":"4","last_reported":1760710215,"current_range_meters":9200,"station_id":"ce4bgqh2rcd13ifvqc5g","pricing_plan_id":"cebpf4jnsgd1na2vs0mg"},{"bike_id":"e257a5c9-b99e-4af1-ac4f-b017f1c8b418","system_id":"levelo_inurba_marseille","lat":43.33759,"lon":5.37438,"is_reserved":false,"is_disabled":false,"rental_uris":{"android":"levelo://app?vid=e257a5c9-b99e-4af1-ac4f-b017f1c8b418","ios":"levelo://app?vid=e257a5c9-b99e-4af1-ac4f-b017f1c8b418"},"vehicle_type_id":"4","last_reported":1760710215,"current_range_meters":9200,"station_id":"","pricing_plan_id":"cebpf4jnsgd1na2vs0mg"},{"bike_id":"245a030c-0c43-41f8-a4cc-088d55252b06","system_id":"levelo_inurba_marseille","lat":43.24479,"lon":5.36936,"is_reserved":false,"is_disabled":false,"rental_uris":{"android":"levelo://app?vid=245a030c-0c43-41f8-a4cc-088d55252b06","ios":"levelo://app?vid=245a030c-0c43-41f8-a4cc-088d55252b06"},"vehicle_type_id":"4","last_reported":1760710215,"current_range_meters":9200,"station_id":"","pricing_plan_id":"cebpf4jnsgd1na2vs0mg"},{"bike_id":"5a1b005e-9d1a-4c40-bd0d-f39737024e4f","system_id":"levelo_inurba_marseille","lat":43.28078,"lon":5.39662,"is_reserved":false,"is_disabled":false,"rental_uris":{"android":"levelo://app?vid=5a1b005e-9d1a-4c40-bd0d-f39737024e4f","ios":"levelo://app?vid=5a1b005e-9d1a-4c40-bd0d-f39737024e4f"},"vehicle_type_id":"4","last_reported":1760710215,"current_range_meters":9200,"station_id":"ce4bho12rcd13ifvqh2g","pricing_plan_id":"cebpf4jnsgd1na2vs0mg"},{"bike_id":"26416dae-68db-465d-ba83-72f605f27523","system_id":"levelo_inurba_marseille","lat":43.337444,"lon":5.374475,"is_reserved":false,"is_disabled":false,"rental_uris":{"android":"levelo://app?vid=26416dae-68db-465d-ba83-72f605f27523","ios":"levelo://app?vid=26416dae-68db-465d-ba83-72f605f27523"},"vehicle_type_id":"4","last_reported":1760710215,"current_range_meters":9200,"station_id":"","pricing_plan_id":"cebpf4jnsgd1na2vs0mg"},{"bike_id":"f815ab63-0146-445e-927a-01893b5e8d35","system_id":"levelo_inurba_marseille","lat":43.30882,"lon":5.39658,"is_reserved":false,"is_disabled":false,"rental_uris":{"android":"levelo://app?vid=f815ab63-0146-445e-927a-01893b5e8d35","ios":"levelo://app?vid=f815ab63-0146-445e-927a-01893b5e8d35"},"vehicle_type_id":"4","last_reported":1760710215,"current_range_meters":9200,"station_id":"ce4bh012rcd13ifvqcv0","pricing_plan_id":"cebpf4jnsgd1na2vs0mg"},{"bike_id":"ca5fdb94-00fb-4377-8a77-fb8fad1ec12f","system_id":"levelo_inurba_marseille","lat":43.29171,"lon":5.37166,"is_reserved":false,"is_disabled":false,"rental_uris":{"android":"levelo://app?vid=ca5fdb94-00fb-4377-8a77-fb8fad1ec12f","ios":"levelo://app?vid=ca5fdb94-00fb-4377-8a77-fb8fad1ec12f"},"vehicle_type_id":"4","last_reported":1760710215,"current_range_meters":9600,"station_id":"ce4bha92rcd13ifvqeh0","pricing_plan_id":"cebpf4jnsgd1na2vs0mg"},{"bike_id":"9392b340-d171-48a7-acd2-ca0348810f4c","system_id":"levelo_inurba_marseille","lat":43.265195,"lon":5.380149,"is_reserved":false,"is_disabled":false,"rental_uris":{"android":"levelo://app?vid=9392b340-d171-48a7-acd2-ca0348810f4c","ios":"levelo://app?vid=9392b340-d171-48a7-acd2-ca0348810f4c"},"vehicle_type_id":"4","last_reported":1760710215,"current_range_meters":9600,"station_id":"","pricing_plan_id":"cebpf4jnsgd1na2vs0mg"},{"bike_id":"e06ac189-07fc-4973-ba85-14771dd71e4e","system_id":"levelo_inurba_marseille","lat":43.24811,"lon":5.37458,"is_reserved":false,"is_disabled":false,"rental_uris":{"android":"levelo://app?vid=e06ac189-07fc-4973-ba85-14771dd71e4e","ios":"levelo://app?vid=e06ac189-07fc-4973-ba85-14771dd71e4e"},"vehicle_type_id":"4","last_reported":1760710215,"current_range_meters":10000,"station_id":"ce4bhgh2rcd13ifvqfb0","pricing_plan_id":"cebpf4jnsgd1na2vs0mg"},{"bike_id":"02768270-e44e-4f15-af95-80468bea7342","system_id":"levelo_inurba_marseille","lat":43.30324,"lon":5.40436,"is_reserved":false,"is_disabled":false,"rental_uris":{"android":"levelo://app?vid=02768270-e44e-4f15-af95-80468bea7342","ios":"levelo://app?vid=02768270-e44e-4f15-af95-80468bea7342"},"vehicle_type_id":"4","last_reported":1760710215,"current_range_meters":10000,"station_id":"ce4bh012rcd13ifvqd10","pricing_plan_id":"cebpf4jnsgd1na2vs0mg"},{"bike_id":"2a5498ee-d604-476f-a7c3-7260eebaa7f3","system_id":"levelo_inurba_marseille","lat":43.29571,"lon":5.37426,"is_reserved":false,"is_disabled":false,"rental_uris":{"android":"levelo://app?vid=2a5498ee-d604-476f-a7c3-7260eebaa7f3","ios":"levelo://app?vid=2a5498ee-d604-476f-a7c3-7260eebaa7f3"},"vehicle_type_id":"4","last_reported":1760710215,"current_range_meters":10000,"station_id":"","pricing_plan_id":"cebpf4jnsgd1na2vs0mg"},{"bike_id":"85ab0621-f6e6-42af-92e1-8aeaa211f09c","system_id":"levelo_inurba_marseille","lat":43.308927,"lon":5.396598,"is_reserved":false,"is_disabled":false,"rental_uris":{"android":"levelo://app?vid=85ab0621-f6e6-42af-92e1-8aeaa211f09c","ios":"levelo://app?vid=85ab0621-f6e6-42af-92e1-8aeaa211f09c"},"vehicle_type_id":"4","last_reported":1760710215,"current_range_meters":10000,"station_id":"ce4bh012rcd13ifvqcv0","pricing_plan_id":"cebpf4jnsgd1na2vs0mg"},{"bike_id":"8c3160e4-bb0d-4f59-a45a-23773d06ee57","system_id":"levelo_inurba_marseille","lat":43.2997,"lon":5.38491,"is_reserved":false,"is_disabled":false,"rental_uris":{"android":"levelo://app?vid=8c3160e4-bb0d-4f59-a45a-23773d06ee57","ios":"levelo://app?vid=8c3160e4-bb0d-4f59-a45a-23773d06ee57"},"vehicle_type_id":"4","last_reported":1760710215,"current_range_meters":10000,"station_id":"ce4bgj92rcd13ifvqbd0","pricing_plan_id":"cebpf4jnsgd1na2vs0mg"},{"bike_id":"33337add-7262-4041-83e3-0fac81a5b737","system_id":"levelo_inurba_marseille","lat":43.23148,"lon":5.43731,"is_reserved":false,"is_disabled":false,"rental_uris":{"android":"levelo://app?vid=33337add-7262-4041-83e3-0fac81a5b737","ios":"levelo://app?vid=33337add-7262-4041-83e3-0fac81a5b737"},"vehicle_type_id":"4","last_reported":1760710215,"current_range_meters":10800,"station_id":"ce4bhmp2rcd13ifvqgog","pricing_plan_id":"cebpf4jnsgd1na2vs0mg"},{"bike_id":"65727259-5c10-48aa-b82a-297d9886f701","system_id":"levelo_inurba_marseille","lat":43.295251,"lon":5.394019,"is_reserved":false,"is_disabled":false,"rental_uris":{"android":"levelo://app?vid=65727259-5c10-48aa-b82a-297d9886f701","ios":"levelo://app?vid=65727259-5c10-48aa-b82a-297d9886f701"},"vehicle_type_id":"4","last_reported":1760710215,"current_range_meters":10800,"station_id":"ce4bh292rcd13ifvqdf0","pricing_plan_id":"cebpf4jnsgd1na2vs0mg"},{"bike_id":"04154cf6-87e3-443b-8d7f-4fc92118757a","system_id":"levelo_inurba_marseille","lat":43.231948,"lon":5.355514,"is_reserved":false,"is_disabled":false,"rental_uris":{"android":"levelo://app?vid=04154cf6-87e3-443b-8d7f-4fc92118757a","ios":"levelo://app?vid=04154cf6-87e3-443b-8d7f-4fc92118757a"},"vehicle_type_id":"4","last_reported":1760710215,"current_range_meters":10800,"station_id":"ce4bhu92rcd13ifvqi70","pricing_plan_id":"cebpf4jnsgd1na2vs0mg"},{"bike_id":"0ed7cb8d-8008-425f-b4fb-3b024296c610","system_id":"levelo_inurba_marseille","lat":43.301413,"lon":5.387788,"is_reserved":false,"is_disabled":false,"rental_uris":{"android":"levelo://app?vid=0ed7cb8d-8008-425f-b4fb-3b024296c610","ios":"levelo://app?vid=0ed7cb8d-8008-425f-b4fb-3b024296c610"},"vehicle_type_id":"4","last_reported":1760710215,"current_range_meters":10800,"station_id":"ce4bghh2rcd13ifvqb60","pricing_plan_id":"cebpf4jnsgd1na2vs0mg"},{"bike_id":"24d82d64-1145-442f-a9f5-19238b0b39ef","system_id":"levelo_inurba_marseille","lat":43.272133,"lon":5.391866,"is_reserved":false,"is_disabled":false,"rental_uris":{"android":"levelo://app?vid=24d82d64-1145-442f-a9f5-19238b0b39ef","ios":"levelo://app?vid=24d82d64-1145-442f-a9f5-19238b0b39ef"},"vehicle_type_id":"4","last_reported":1760710215,"current_range_meters":10800,"station_id":"","pricing_plan_id":"cebpf4jnsgd1na2vs0mg"},{"bike_id":"85f1edec-0fa9-451c-82a3-65bc6d734e5b","system_id":"levelo_inurba_marseille","lat":43.27418,"lon":5.39374,"is_reserved":false,"is_disabled":false,"rental_uris":{"android":"levelo://app?vid=85f1edec-0fa9-451c-82a3-65bc6d734e5b","ios":"levelo://app?vid=85f1edec-0fa9-451c-82a3-65bc6d734e5b"},"vehicle_type_id":"4","last_reported":1760710215,"current_range_meters":10800,"station_id":"ce4bhdp2rcd13ifvqf20","pricing_plan_id":"cebpf4jnsgd1na2vs0mg"},{"bike_id":"416f580b-31c7-4ade-8604-dbd86eb8155f","system_id":"levelo_inurba_marseille","lat":43.28145,"lon":5.42114,"is_reserved":false,"is_disabled":false,"rental_uris":{"android":"levelo://app?vid=416f580b-31c7-4ade-8604-dbd86eb8155f","ios":"levelo://app?vid=416f580b-31c7-4ade-8604-dbd86eb8155f"},"vehicle_type_id":"4","last_reported":1760710215,"current_range_meters":10800,"station_id":"","pricing_plan_id":"cebpf4jnsgd1na2vs0mg"},{"bike_id":"a5f7921e-fb7a-495a-8958-29bf3c06d07b","system_id":"levelo_inurba_marseille","lat":43.30276,"lon":5.37717,"is_reserved":false,"is_disabled":false,"rental_uris":{"android":"levelo://app?vid=a5f7921e-fb7a-495a-8958-29bf3c06d07b","ios":"levelo://app?vid=a5f7921e-fb7a-495a-8958-29bf3c06d07b"},"vehicle_type_id":"4","last_reported":1760710215,"current_range_meters":10800,"station_id":"ce4bguh2rcd13ifvqcj0","pricing_plan_id":"cebpf4jnsgd1na2vs0mg"},{"bike_id":"edc2b540-f4d1-424e-9002-80823ed0b6b2","system_id":"levelo_inurba_marseille","lat":43.28391,"lon":5.37063,"is_reserved":false,"is_disabled":false,"rental_uris":{"android":"levelo://app?vid=edc2b540-f4d1-424e-9002-80823ed0b6b2","ios":"levelo://app?vid=edc2b540-f4d1-424e-9002-80823ed0b6b2"},"vehicle_type_id":"4","last_reported":1760710215,"current_range_meters":10800,"station_id":"","pricing_plan_id":"cebpf4jnsgd1na2vs0mg"},{"bike_id":"1c3664f0-daa7-4fd0-a6d8-42680b262940","system_id":"levelo_inurba_marseille","lat":43.30177,"lon":5.37075,"is_reserved":false,"is_disabled":false,"rental_uris":{"android":"levelo://app?vid=1c3664f0-daa7-4fd0-a6d8-42680b262940","ios":"levelo://app?vid=1c3664f0-daa7-4fd0-a6d8-42680b262940"},"vehicle_type_id":"4","last_reported":1760710215,"current_range_meters":10800,"station_id":"","pricing_plan_id":"cebpf4jnsgd1na2vs0mg"},{"bike_id":"d3aba4c3-bee3-4e56-afb1-6ca7d2b1e5fe","system_id":"levelo_inurba_marseille","lat":43.28455,"lon":5.35885,"is_reserved":false,"is_disabled":false,"rental_uris":{"android":"levelo://app?vid=d3aba4c3-bee3-4e56-afb1-6ca7d2b1e5fe","ios":"levelo://app?vid=d3aba4c3-bee3-4e56-afb1-6ca7d2b1e5fe"},"vehicle_type_id":"4","last_reported":1760710215,"current_range_meters":10800,"station_id":"ce4bhah2rcd13ifvqei0","pricing_plan_id":"cebpf4jnsgd1na2vs0mg"},{"bike_id":"e71b6049-0273-45e6-9b9f-03844307b2eb","system_id":"levelo_inurba_marseille","lat":43.21748,"lon":5.34615,"is_reserved":false,"is_disabled":false,"rental_uris":{"android":"levelo://app?vid=e71b6049-0273-45e6-9b9f-03844307b2eb","ios":"levelo://app?vid=e71b6049-0273-45e6-9b9f-03844307b2eb"},"vehicle_type_id":"4","last_reported":1760710215,"current_range_meters":11200,"station_id":"st_cvj6r9ubvosntc0bgbag","pricing_plan_id":"cebpf4jnsgd1na2vs0mg"},{"bike_id":"fc3322b7-caae-488d-8a24-8566be1df74c","system_id":"levelo_inurba_marseille","lat":43.2417,"lon":5.36389,"is_reserved":false,"is_disabled":false,"rental_uris":{"android":"levelo://app?vid=fc3322b7-caae-488d-8a24-8566be1df74c","ios":"levelo://app?vid=fc3322b7-caae-488d-8a24-8566be1df74c"},"vehicle_type_id":"4","last_reported":1760710215,"current_range_meters":11200,"station_id":"cpo36qri1sfpv3e86is0","pricing_plan_id":"cebpf4jnsgd1na2vs0mg"},{"bike_id":"e550f5da-de43-46ea-a16e-5ba4236de9d7","system_id":"levelo_inurba_marseille","lat":43.24651,"lon":5.3889,"is_reserved":false,"is_disabled":false,"rental_uris":{"android":"levelo://app?vid=e550f5da-de43-46ea-a16e-5ba4236de9d7","ios":"levelo://app?vid=e550f5da-de43-46ea-a16e-5ba4236de9d7"},"vehicle_type_id":"4","last_reported":1760710215,"current_range_meters":11200,"station_id":"ce4bhg12rcd13ifvqf60","pricing_plan_id":"cebpf4jnsgd1na2vs0mg"},{"bike_id":"34499578-aa76-4e2f-a7ff-dee0cb100571","system_id":"levelo_inurba_marseille","lat":43.25336,"lon":5.42169,"is_reserved":false,"is_disabled":false,"rental_uris":{"android":"levelo://app?vid=34499578-aa76-4e2f-a7ff-dee0cb100571","ios":"levelo://app?vid=34499578-aa76-4e2f-a7ff-dee0cb100571"},"vehicle_type_id":"4","last_reported":1760710215,"current_range_meters":11200,"station_id":"st_d2m65c5bi1j21697t3ng","pricing_plan_id":"cebpf4jnsgd1na2vs0mg"},{"bike_id":"e1729cf4-a3c7-44fc-9830-fd4c6171c205","system_id":"levelo_inurba_marseille","lat":43.30287,"lon":5.36906,"is_reserved":false,"is_disabled":false,"rental_uris":{"android":"levelo://app?vid=e1729cf4-a3c7-44fc-9830-fd4c6171c205","ios":"levelo://app?vid=e1729cf4-a3c7-44fc-9830-fd4c6171c205"},"vehicle_type_id":"4","last_reported":1760710215,"current_range_meters":11200,"station_id":"ce4bgqh2rcd13ifvqc5g","pricing_plan_id":"cebpf4jnsgd1na2vs0mg"},{"bike_id":"ab8dbe06-49f3-423b-99b1-2274be7ed343","system_id":"levelo_inurba_marseille","lat":43.30158,"lon":5.37265,"is_reserved":false,"is_disabled":false,"rental_uris":{"android":"levelo://app?vid=ab8dbe06-49f3-423b-99b1-2274be7ed343","ios":"levelo://app?vid=ab8dbe06-49f3-423b-99b1-2274be7ed343"},"vehicle_type_id":"4","last_reported":1760710215,"current_range_meters":11200,"station_id":"","pricing_plan_id":"cebpf4jnsgd1na2vs0mg"},{"bike_id":"d773d30e-aab0-4f9a-adf7-f408dd2af785","system_id":"levelo_inurba_marseille","lat":43.24294,"lon":5.37005,"is_reserved":false,"is_disabled":false,"rental_uris":{"android":"levelo://app?vid=d773d30e-aab0-4f9a-adf7-f408dd2af785","ios":"levelo://app?vid=d773d30e-aab0-4f9a-adf7-f408dd2af785"},"vehicle_type_id":"4","last_reported":1760710215,"current_range_meters":11600,"station_id":"ce4bhhh2rcd13ifvqfk0","pricing_plan_id":"cebpf4jnsgd1na2vs0mg"},{"bike_id":"faa1945e-dfb4-4a5f-ab1d-467135e9b222","system_id":"levelo_inurba_marseille","lat":43.29571,"lon":5.37511,"is_reserved":false,"is_disabled":false,"rental_uris":{"android":"levelo://app?vid=faa1945e-dfb4-4a5f-ab1d-467135e9b222","ios":"levelo://app?vid=faa1945e-dfb4-4a5f-ab1d-467135e9b222"},"vehicle_type_id":"4","last_reported":1760710215,"current_range_meters":11600,"station_id":"ce4bgh92rcd13ifvqb50","pricing_plan_id":"cebpf4jnsgd1na2vs0mg"},{"bike_id":"fdc784f8-d2fd-40ec-9e60-dab278ff786b","system_id":"levelo_inurba_marseille","lat":43.280961,"lon":5.36889,"is_reserved":false,"is_disabled":false,"rental_uris":{"android":"levelo://app?vid=fdc784f8-d2fd-40ec-9e60-dab278ff786b","ios":"levelo://app?vid=fdc784f8-d2fd-40ec-9e60-dab278ff786b"},"vehicle_type_id":"4","last_reported":1760710215,"current_range_meters":11600,"station_id":"ce4bha12rcd13ifvqef0","pricing_plan_id":"cebpf4jnsgd1na2vs0mg"},{"bike_id":"da61d492-ed3e-49c7-b57c-197e72dbabe0","system_id":"levelo_inurba_marseille","lat":43.29974,"lon":5.37174,"is_reserved":false,"is_disabled":false,"rental_uris":{"android":"levelo://app?vid=da61d492-ed3e-49c7-b57c-197e72dbabe0","ios":"levelo://app?vid=da61d492-ed3e-49c7-b57c-197e72dbabe0"},"vehicle_type_id":"4","last_reported":1760710215,"current_range_meters":11600,"station_id":"ce4bgr92rcd13ifvqc7g","pricing_plan_id":"cebpf4jnsgd1na2vs0mg"},{"bike_id":"5fe6e873-dba1-40dd-bc65-77de126f2710","system_id":"levelo_inurba_marseille","lat":43.332893,"lon":5.395256,"is_reserved":false,"is_disabled":false,"rental_uris":{"android":"levelo://app?vid=5fe6e873-dba1-40dd-bc65-77de126f2710","ios":"levelo://app?vid=5fe6e873-dba1-40dd-bc65-77de126f2710"},"vehicle_type_id":"4","last_reported":1760710215,"current_range_meters":11600,"station_id":"","pricing_plan_id":"cebpf4jnsgd1na2vs0mg"},{"bike_id":"16222907-9112-4676-9fb5-6981d41ce45c","system_id":"levelo_inurba_marseille","lat":43.26682,"lon":5.38265,"is_reserved":false,"is_disabled":false,"rental_uris":{"android":"levelo://app?vid=16222907-9112-4676-9fb5-6981d41ce45c","ios":"levelo://app?vid=16222907-9112-4676-9fb5-6981d41ce45c"},"vehicle_type_id":"4","last_reported":1760710215,"current_range_meters":12000,"station_id":"ce4bhg92rcd13ifvqf90","pricing_plan_id":"cebpf4jnsgd1na2vs0mg"},{"bike_id":"054a2089-08bf-4d2e-9574-bcfc2c4d2a97","system_id":"levelo_inurba_marseille","lat":43.22919,"lon":5.35402,"is_reserved":false,"is_disabled":false,"rental_uris":{"android":"levelo://app?vid=054a2089-08bf-4d2e-9574-bcfc2c4d2a97","ios":"levelo://app?vid=054a2089-08bf-4d2e-9574-bcfc2c4d2a97"},"vehicle_type_id":"4","last_reported":1760710215,"current_range_meters":12000,"station_id":"cpo3532slgdg3j2ikp40","pricing_plan_id":"cebpf4jnsgd1na2vs0mg"},{"bike_id":"71b92fa5-cf41-48eb-81c9-d18498037b27","system_id":"levelo_inurba_marseille","lat":43.295536,"lon":5.422977,"is_reserved":false,"is_disabled":false,"rental_uris":{"android":"levelo://app?vid=71b92fa5-cf41-48eb-81c9-d18498037b27","ios":"levelo://app?vid=71b92fa5-cf41-48eb-81c9-d18498037b27"},"vehicle_type_id":"4","last_reported":1760710215,"current_range_meters":12400,"station_id":"ce4bhph2rcd13ifvqhdg","pricing_plan_id":"cebpf4jnsgd1na2vs0mg"},{"bike_id":"2b73046b-3d7f-40cf-ba17-e5fbe0b58a2d","system_id":"levelo_inurba_marseille","lat":43.250591,"lon":5.389052,"is_reserved":false,"is_disabled":false,"rental_uris":{"android":"levelo://app?vid=2b73046b-3d7f-40cf-ba17-e5fbe0b58a2d","ios":"levelo://app?vid=2b73046b-3d7f-40cf-ba17-e5fbe0b58a2d"},"vehicle_type_id":"4","last_reported":1760710215,"current_range_meters":12400,"station_id":"ce4bhgp2rcd13ifvqfd0","pricing_plan_id":"cebpf4jnsgd1na2vs0mg"},{"bike_id":"8f063cea-96fb-414c-b9fd-61f42ec13af9","system_id":"levelo_inurba_marseille","lat":43.29698,"lon":5.37691,"is_reserved":false,"is_disabled":false,"rental_uris":{"android":"levelo://app?vid=8f063cea-96fb-414c-b9fd-61f42ec13af9","ios":"levelo://app?vid=8f063cea-96fb-414c-b9fd-61f42ec13af9"},"vehicle_type_id":"4","last_reported":1760710215,"current_range_meters":12400,"station_id":"ce4bgkh2rcd13ifvqbl0","pricing_plan_id":"cebpf4jnsgd1na2vs0mg"},{"bike_id":"567e3884-40a2-4a7f-82ca-f44a06cf658a","system_id":"levelo_inurba_marseille","lat":43.24676,"lon":5.38168,"is_reserved":false,"is_disabled":false,"rental_uris":{"android":"levelo://app?vid=567e3884-40a2-4a7f-82ca-f44a06cf658a","ios":"levelo://app?vid=567e3884-40a2-4a7f-82ca-f44a06cf658a"},"vehicle_type_id":"4","last_reported":1760710215,"current_range_meters":12400,"station_id":"ce4bhih2rcd13ifvqfr0","pricing_plan_id":"cebpf4jnsgd1na2vs0mg"},{"bike_id":"a817b630-bbed-48d3-97f4-9bd571b9ebab","system_id":"levelo_inurba_marseille","lat":43.30003,"lon":5.37353,"is_reserved":false,"is_disabled":false,"rental_uris":{"android":"levelo://app?vid=a817b630-bbed-48d3-97f4-9bd571b9ebab","ios":"levelo://app?vid=a817b630-bbed-48d3-97f4-9bd571b9ebab"},"vehicle_type_id":"4","last_reported":1760710215,"current_range_meters":12400,"station_id":"","pricing_plan_id":"cebpf4jnsgd1na2vs0mg"},{"bike_id":"6c614ed8-b62e-477a-9706-92acd20da3b9","system_id":"levelo_inurba_marseille","lat":43.30263,"lon":5.40055,"is_reserved":false,"is_disabled":false,"rental_uris":{"android":"levelo://app?vid=6c614ed8-b62e-477a-9706-92acd20da3b9","ios":"levelo://app?vid=6c614ed8-b62e-477a-9706-92acd20da3b9"},"vehicle_type_id":"4","last_reported":1760710215,"current_range_meters":12400,"station_id":"ce4bgvh2rcd13ifvqcs0","pricing_plan_id":"cebpf4jnsgd1na2vs0mg"},{"bike_id":"c3d2039a-6506-4b5a-a560-bed658d6f4d1","system_id":"levelo_inurba_marseille","lat":43.28922,"lon":5.36635,"is_reserved":false,"is_disabled":false,"rental_uris":{"android":"levelo://app?vid=c3d2039a-6506-4b5a-a560-bed658d6f4d1","ios":"levelo://app?vid=c3d2039a-6506-4b5a-a560-bed658d6f4d1"},"vehicle_type_id":"4","last_reported":1760710215,"current_range_meters":12800,"station_id":"ce4bhap2rcd13ifvqek0","pricing_plan_id":"cebpf4jnsgd1na2vs0mg"},{"bike_id":"c4ed00de-3711-4102-92e5-72a600ff79ec","system_id":"levelo_inurba_marseille","lat":43.323594,"lon":5.367546,"is_reserved":false,"is_disabled":false,"rental_uris":{"android":"levelo://app?vid=c4ed00de-3711-4102-92e5-72a600ff79ec","ios":"levelo://app?vid=c4ed00de-3711-4102-92e5-72a600ff79ec"},"vehicle_type_id":"4","last_reported":1760710215,"current_range_meters":12800,"station_id":"ce4bhsh2rcd13ifvqi2g","pricing_plan_id":"cebpf4jnsgd1na2vs0mg"},{"bike_id":"88231688-b0d4-4add-b9d3-ba4527ac8655","system_id":"levelo_inurba_marseille","lat":43.302727,"lon":5.377182,"is_reserved":false,"is_disabled":false,"rental_uris":{"android":"levelo://app?vid=88231688-b0d4-4add-b9d3-ba4527ac8655","ios":"levelo://app?vid=88231688-b0d4-4add-b9d3-ba4527ac8655"},"vehicle_type_id":"4","last_reported":1760710215,"current_range_meters":12800,"station_id":"ce4bguh2rcd13ifvqcj0","pricing_plan_id":"cebpf4jnsgd1na2vs0mg"},{"bike_id":"c8dadaf0-734d-427c-a1b5-6c7b9c161286","system_id":"levelo_inurba_marseille","lat":43.30134,"lon":5.37416,"is_reserved":false,"is_disabled":false,"rental_uris":{"android":"levelo://app?vid=c8dadaf0-734d-427c-a1b5-6c7b9c161286","ios":"levelo://app?vid=c8dadaf0-734d-427c-a1b5-6c7b9c161286"},"vehicle_type_id":"4","last_reported":1760710215,"current_range_meters":12800,"station_id":"ce4bgs92rcd13ifvqcc0","pricing_plan_id":"cebpf4jnsgd1na2vs0mg"},{"bike_id":"94f60e57-4ea5-4506-9b0b-d49e351bbd01","system_id":"levelo_inurba_marseille","lat":43.293779,"lon":5.383334,"is_reserved":false,"is_disabled":false,"rental_uris":{"android":"levelo://app?vid=94f60e57-4ea5-4506-9b0b-d49e351bbd01","ios":"levelo://app?vid=94f60e57-4ea5-4506-9b0b-d49e351bbd01"},"vehicle_type_id":"4","last_reported":1760710215,"current_range_meters":12800,"station_id":"","pricing_plan_id":"cebpf4jnsgd1na2vs0mg"},{"bike_id":"e6c4ee68-5a8a-4202-9866-2555e3d8abb3","system_id":"levelo_inurba_marseille","lat":43.30887,"lon":5.39652,"is_reserved":false,"is_disabled":false,"rental_uris":{"android":"levelo://app?vid=e6c4ee68-5a8a-4202-9866-2555e3d8abb3","ios":"levelo://app?vid=e6c4ee68-5a8a-4202-9866-2555e3d8abb3"},"vehicle_type_id":"4","last_reported":1760710215,"current_range_meters":12800,"station_id":"ce4bh012rcd13ifvqcv0","pricing_plan_id":"cebpf4jnsgd1na2vs0mg"},{"bike_id":"35a2ce99-3342-4fe0-a576-b4fec25ef17a","system_id":"levelo_inurba_marseille","lat":43.317076,"lon":5.377408,"is_reserved":false,"is_disabled":false,"rental_uris":{"android":"levelo://app?vid=35a2ce99-3342-4fe0-a576-b4fec25ef17a","ios":"levelo://app?vid=35a2ce99-3342-4fe0-a576-b4fec25ef17a"},"vehicle_type_id":"4","last_reported":1760710215,"current_range_meters":12800,"station_id":"ce4bgth2rcd13ifvqch0","pricing_plan_id":"cebpf4jnsgd1na2vs0mg"},{"bike_id":"ea883585-d0e4-4bcb-922c-57b2a3efdeac","system_id":"levelo_inurba_marseille","lat":43.30651,"lon":5.36724,"is_reserved":false,"is_disabled":false,"rental_uris":{"android":"levelo://app?vid=ea883585-d0e4-4bcb-922c-57b2a3efdeac","ios":"levelo://app?vid=ea883585-d0e4-4bcb-922c-57b2a3efdeac"},"vehicle_type_id":"4","last_reported":1760710215,"current_range_meters":12800,"station_id":"","pricing_plan_id":"cebpf4jnsgd1na2vs0mg"},{"bike_id":"0f9c20ae-f80b-4bc4-a84d-e94070c41d3b","system_id":"levelo_inurba_marseille","lat":43.22564,"lon":5.41624,"is_reserved":false,"is_disabled":false,"rental_uris":{"android":"levelo://app?vid=0f9c20ae-f80b-4bc4-a84d-e94070c41d3b","ios":"levelo://app?vid=0f9c20ae-f80b-4bc4-a84d-e94070c41d3b"},"vehicle_type_id":"4","last_reported":1760710215,"current_range_meters":12800,"station_id":"st_d2o4gvlbi1j2169b742g","pricing_plan_id":"cebpf4jnsgd1na2vs0mg"},{"bike_id":"e7a0de45-e44b-47bf-aa95-71faaf613e41","system_id":"levelo_inurba_marseille","lat":43.29996,"lon":5.37189,"is_reserved":false,"is_disabled":false,"rental_uris":{"android":"levelo://app?vid=e7a0de45-e44b-47bf-aa95-71faaf613e41","ios":"levelo://app?vid=e7a0de45-e44b-47bf-aa95-71faaf613e41"},"vehicle_type_id":"4","last_reported":1760710215,"current_range_meters":12800,"station_id":"ce4bgr92rcd13ifvqc7g","pricing_plan_id":"cebpf4jnsgd1na2vs0mg"},{"bike_id":"dbf248bd-0259-4f5b-b82c-7a8ca2e00bc3","system_id":"levelo_inurba_marseille","lat":43.2293,"lon":5.35375,"is_reserved":false,"is_disabled":false,"rental_uris":{"android":"levelo://app?vid=dbf248bd-0259-4f5b-b82c-7a8ca2e00bc3","ios":"levelo://app?vid=dbf248bd-0259-4f5b-b82c-7a8ca2e00bc3"},"vehicle_type_id":"4","last_reported":1760710215,"current_range_meters":12800,"station_id":"cpo3532slgdg3j2ikp40","pricing_plan_id":"cebpf4jnsgd1na2vs0mg"},{"bike_id":"efeed3e0-0d89-49c8-88ee-54fc372b67ef","system_id":"levelo_inurba_marseille","lat":43.27481,"lon":5.42439,"is_reserved":false,"is_disabled":true,"rental_uris":{"android":"levelo://app?vid=efeed3e0-0d89-49c8-88ee-54fc372b67ef","ios":"levelo://app?vid=efeed3e0-0d89-49c8-88ee-54fc372b67ef"},"vehicle_type_id":"4","last_reported":1760710215,"current_range_meters":13600,"station_id":"ce4bhn92rcd13ifvqgrg","pricing_plan_id":"cebpf4jnsgd1na2vs0mg"},{"bike_id":"49344a63-75dd-4621-9503-c21514ed8b70","system_id":"levelo_inurba_marseille","lat":43.29806,"lon":5.38106,"is_reserved":false,"is_disabled":false,"rental_uris":{"android":"levelo://app?vid=49344a63-75dd-4621-9503-c21514ed8b70","ios":"levelo://app?vid=49344a63-75dd-4621-9503-c21514ed8b70"},"vehicle_type_id":"4","last_reported":1760710215,"current_range_meters":13600,"station_id":"ce4bgip2rcd13ifvqbb0","pricing_plan_id":"cebpf4jnsgd1na2vs0mg"},{"bike_id":"10f22a46-3755-4bf5-b1a0-29bd20f497f7","system_id":"levelo_inurba_marseille","lat":43.26269,"lon":5.39676,"is_reserved":false,"is_disabled":false,"rental_uris":{"android":"levelo://app?vid=10f22a46-3755-4bf5-b1a0-29bd20f497f7","ios":"levelo://app?vid=10f22a46-3755-4bf5-b1a0-29bd20f497f7"},"vehicle_type_id":"4","last_reported":1760710215,"current_range_meters":13600,"station_id":"","pricing_plan_id":"cebpf4jnsgd1na2vs0mg"},{"bike_id":"424f4935-98df-4229-88c5-d8f836201cec","system_id":"levelo_inurba_marseille","lat":43.231926,"lon":5.355491,"is_reserved":false,"is_disabled":false,"rental_uris":{"android":"levelo://app?vid=424f4935-98df-4229-88c5-d8f836201cec","ios":"levelo://app?vid=424f4935-98df-4229-88c5-d8f836201cec"},"vehicle_type_id":"4","last_reported":1760710215,"current_range_meters":13600,"station_id":"","pricing_plan_id":"cebpf4jnsgd1na2vs0mg"},{"bike_id":"1b989219-38ad-4199-843d-6568af7068b1","system_id":"levelo_inurba_marseille","lat":43.3154,"lon":5.38033,"is_reserved":false,"is_disabled":false,"rental_uris":{"android":"levelo://app?vid=1b989219-38ad-4199-843d-6568af7068b1","ios":"levelo://app?vid=1b989219-38ad-4199-843d-6568af7068b1"},"vehicle_type_id":"4","last_reported":1760710215,"current_range_meters":13600,"station_id":"ce4bhsp2rcd13ifvqi50","pricing_plan_id":"cebpf4jnsgd1na2vs0mg"},{"bike_id":"2f427ffa-023f-4f18-948d-448a449d3df0","system_id":"levelo_inurba_marseille","lat":43.24165,"lon":5.36407,"is_reserved":false,"is_disabled":false,"rental_uris":{"android":"levelo://app?vid=2f427ffa-023f-4f18-948d-448a449d3df0","ios":"levelo://app?vid=2f427ffa-023f-4f18-948d-448a449d3df0"},"vehicle_type_id":"4","last_reported":1760710215,"current_range_meters":13600,"station_id":"cpo36qri1sfpv3e86is0","pricing_plan_id":"cebpf4jnsgd1na2vs0mg"},{"bike_id":"4e70b9f6-fa6d-4f3f-8acd-3c6ac0303295","system_id":"levelo_inurba_marseille","lat":43.24953,"lon":5.40494,"is_reserved":false,"is_disabled":false,"rental_uris":{"android":"levelo://app?vid=4e70b9f6-fa6d-4f3f-8acd-3c6ac0303295","ios":"levelo://app?vid=4e70b9f6-fa6d-4f3f-8acd-3c6ac0303295"},"vehicle_type_id":"4","last_reported":1760710215,"current_range_meters":13600,"station_id":"st_d2ngiaodas8pm72gd1h0","pricing_plan_id":"cebpf4jnsgd1na2vs0mg"},{"bike_id":"59ee4d43-eb61-4aed-a406-b083fa9d27d8","system_id":"levelo_inurba_marseille","lat":43.31088,"lon":5.38365,"is_reserved":false,"is_disabled":true,"rental_uris":{"android":"levelo://app?vid=59ee4d43-eb61-4aed-a406-b083fa9d27d8","ios":"levelo://app?vid=59ee4d43-eb61-4aed-a406-b083fa9d27d8"},"vehicle_type_id":"4","last_reported":1760710215,"current_range_meters":13600,"station_id":"ce4bgv92rcd13ifvqcr0","pricing_plan_id":"cebpf4jnsgd1na2vs0mg"},{"bike_id":"a618d75f-c056-4d7b-8ccd-3fcd16a7d304","system_id":"levelo_inurba_marseille","lat":43.34146,"lon":5.409077,"is_reserved":false,"is_disabled":false,"rental_uris":{"android":"levelo://app?vid=a618d75f-c056-4d7b-8ccd-3fcd16a7d304","ios":"levelo://app?vid=a618d75f-c056-4d7b-8ccd-3fcd16a7d304"},"vehicle_type_id":"4","last_reported":1760710215,"current_range_meters":13600,"station_id":"cki0cbj6b192h4jlfktg","pricing_plan_id":"cebpf4jnsgd1na2vs0mg"},{"bike_id":"c4c8e762-8a26-4257-9d60-d747eb2d8508","system_id":"levelo_inurba_marseille","lat":43.33195,"lon":5.355847,"is_reserved":false,"is_disabled":false,"rental_uris":{"android":"levelo://app?vid=c4c8e762-8a26-4257-9d60-d747eb2d8508","ios":"levelo://app?vid=c4c8e762-8a26-4257-9d60-d747eb2d8508"},"vehicle_type_id":"4","last_reported":1760710215,"current_range_meters":13600,"station_id":"","pricing_plan_id":"cebpf4jnsgd1na2vs0mg"},{"bike_id":"ba2479bd-5a5a-46c2-83c3-00588f4cf74a","system_id":"levelo_inurba_marseille","lat":43.29763,"lon":5.3649,"is_reserved":false,"is_disabled":false,"rental_uris":{"android":"levelo://app?vid=ba2479bd-5a5a-46c2-83c3-00588f4cf74a","ios":"levelo://app?vid=ba2479bd-5a5a-46c2-83c3-00588f4cf74a"},"vehicle_type_id":"4","last_reported":1760710215,"current_range_meters":14000,"station_id":"","pricing_plan_id":"cebpf4jnsgd1na2vs0mg"},{"bike_id":"c5e45447-2956-450f-bd7e-88aaf308c04d","system_id":"levelo_inurba_marseille","lat":43.28991,"lon":5.36537,"is_reserved":false,"is_disabled":false,"rental_uris":{"android":"levelo://app?vid=c5e45447-2956-450f-bd7e-88aaf308c04d","ios":"levelo://app?vid=c5e45447-2956-450f-bd7e-88aaf308c04d"},"vehicle_type_id":"4","last_reported":1760710215,"current_range_meters":14000,"station_id":"","pricing_plan_id":"cebpf4jnsgd1na2vs0mg"},{"bike_id":"dd982b8f-200b-4757-b1d5-39f387d85acc","system_id":"levelo_inurba_marseille","lat":43.28939,"lon":5.36402,"is_reserved":false,"is_disabled":false,"rental_uris":{"android":"levelo://app?vid=dd982b8f-200b-4757-b1d5-39f387d85acc","ios":"levelo://app?vid=dd982b8f-200b-4757-b1d5-39f387d85acc"},"vehicle_type_id":"4","last_reported":1760710215,"current_range_meters":14000,"station_id":"ce4bhc92rcd13ifvqetg","pricing_plan_id":"cebpf4jnsgd1na2vs0mg"},{"bike_id":"53e45f66-6c88-47d1-a739-fad578ecef73","system_id":"levelo_inurba_marseille","lat":43.2381,"lon":5.36602,"is_reserved":false,"is_disabled":false,"rental_uris":{"android":"levelo://app?vid=53e45f66-6c88-47d1-a739-fad578ecef73","ios":"levelo://app?vid=53e45f66-6c88-47d1-a739-fad578ecef73"},"vehicle_type_id":"4","last_reported":1760710215,"current_range_meters":14000,"station_id":"st_d3nk18o9ro0c73en2l3g","pricing_plan_id":"cebpf4jnsgd1na2vs0mg"},{"bike_id":"c25a8a37-6395-4161-a858-99a577cc3e64","system_id":"levelo_inurba_marseille","lat":43.248,"lon":5.37444,"is_reserved":false,"is_disabled":false,"rental_uris":{"android":"levelo://app?vid=c25a8a37-6395-4161-a858-99a577cc3e64","ios":"levelo://app?vid=c25a8a37-6395-4161-a858-99a577cc3e64"},"vehicle_type_id":"4","last_reported":1760710215,"current_range_meters":14400,"station_id":"ce4bhgh2rcd13ifvqfb0","pricing_plan_id":"cebpf4jnsgd1na2vs0mg"},{"bike_id":"d8c15876-8b54-4f69-b130-9f8e165b5bf1","system_id":"levelo_inurba_marseille","lat":43.266987,"lon":5.412088,"is_reserved":false,"is_disabled":false,"rental_uris":{"android":"levelo://app?vid=d8c15876-8b54-4f69-b130-9f8e165b5bf1","ios":"levelo://app?vid=d8c15876-8b54-4f69-b130-9f8e165b5bf1"},"vehicle_type_id":"4","last_reported":1760710215,"current_range_meters":14400,"station_id":"","pricing_plan_id":"cebpf4jnsgd1na2vs0mg"},{"bike_id":"51c19982-4c6b-4464-99c9-f8ea4d54131f","system_id":"levelo_inurba_marseille","lat":43.25334,"lon":5.42173,"is_reserved":false,"is_disabled":false,"rental_uris":{"android":"levelo://app?vid=51c19982-4c6b-4464-99c9-f8ea4d54131f","ios":"levelo://app?vid=51c19982-4c6b-4464-99c9-f8ea4d54131f"},"vehicle_type_id":"4","last_reported":1760710215,"current_range_meters":14400,"station_id":"st_d2m65c5bi1j21697t3ng","pricing_plan_id":"cebpf4jnsgd1na2vs0mg"},{"bike_id":"96ecb73b-ffdb-42a9-8c9f-1ee30a2d601e","system_id":"levelo_inurba_marseille","lat":43.286796,"lon":5.37393,"is_reserved":false,"is_disabled":false,"rental_uris":{"android":"levelo://app?vid=96ecb73b-ffdb-42a9-8c9f-1ee30a2d601e","ios":"levelo://app?vid=96ecb73b-ffdb-42a9-8c9f-1ee30a2d601e"},"vehicle_type_id":"4","last_reported":1760710215,"current_range_meters":14400,"station_id":"ce4bh3p2rcd13ifvqdq0","pricing_plan_id":"cebpf4jnsgd1na2vs0mg"},{"bike_id":"eb481aa1-b3ee-42ee-88a9-2ae7ca41e5cc","system_id":"levelo_inurba_marseille","lat":43.2481,"lon":5.37454,"is_reserved":false,"is_disabled":false,"rental_uris":{"android":"levelo://app?vid=eb481aa1-b3ee-42ee-88a9-2ae7ca41e5cc","ios":"levelo://app?vid=eb481aa1-b3ee-42ee-88a9-2ae7ca41e5cc"},"vehicle_type_id":"4","last_reported":1760710215,"current_range_meters":14400,"station_id":"ce4bhgh2rcd13ifvqfb0","pricing_plan_id":"cebpf4jnsgd1na2vs0mg"},{"bike_id":"ae35a2da-3f17-464a-a391-e172df1dd6ca","system_id":"levelo_inurba_marseille","lat":43.24629,"lon":5.43146,"is_reserved":false,"is_disabled":false,"rental_uris":{"android":"levelo://app?vid=ae35a2da-3f17-464a-a391-e172df1dd6ca","ios":"levelo://app?vid=ae35a2da-3f17-464a-a391-e172df1dd6ca"},"vehicle_type_id":"4","last_reported":1760710215,"current_range_meters":14800,"station_id":"st_d2m6c4gdas8pm72e190g","pricing_plan_id":"cebpf4jnsgd1na2vs0mg"},{"bike_id":"99b392f9-d6a6-43f5-9848-ce3a7d272425","system_id":"levelo_inurba_marseille","lat":43.31751,"lon":5.38923,"is_reserved":false,"is_disabled":false,"rental_uris":{"android":"levelo://app?vid=99b392f9-d6a6-43f5-9848-ce3a7d272425","ios":"levelo://app?vid=99b392f9-d6a6-43f5-9848-ce3a7d272425"},"vehicle_type_id":"4","last_reported":1760710215,"current_range_meters":14800,"station_id":"","pricing_plan_id":"cebpf4jnsgd1na2vs0mg"},{"bike_id":"e598ed48-b93b-40f6-92de-0909285c54fa","system_id":"levelo_inurba_marseille","lat":43.284053,"lon":5.381392,"is_reserved":false,"is_disabled":false,"rental_uris":{"android":"levelo://app?vid=e598ed48-b93b-40f6-92de-0909285c54fa","ios":"levelo://app?vid=e598ed48-b93b-40f6-92de-0909285c54fa"},"vehicle_type_id":"4","last_reported":1760710215,"current_range_meters":14800,"station_id":"ce4bh412rcd13ifvqdr0","pricing_plan_id":"cebpf4jnsgd1na2vs0mg"},{"bike_id":"0b641c6c-0673-485f-ba94-18c38e4d5046","system_id":"levelo_inurba_marseille","lat":43.28037,"lon":5.36947,"is_reserved":false,"is_disabled":false,"rental_uris":{"android":"levelo://app?vid=0b641c6c-0673-485f-ba94-18c38e4d5046","ios":"levelo://app?vid=0b641c6c-0673-485f-ba94-18c38e4d5046"},"vehicle_type_id":"4","last_reported":1760710215,"current_range_meters":14800,"station_id":"ce4bha12rcd13ifvqef0","pricing_plan_id":"cebpf4jnsgd1na2vs0mg"},{"bike_id":"66b55421-bab8-4fb5-9831-e1c8be084506","system_id":"levelo_inurba_marseille","lat":43.28948,"lon":5.36409,"is_reserved":false,"is_disabled":false,"rental_uris":{"android":"levelo://app?vid=66b55421-bab8-4fb5-9831-e1c8be084506","ios":"levelo://app?vid=66b55421-bab8-4fb5-9831-e1c8be084506"},"vehicle_type_id":"4","last_reported":1760710215,"current_range_meters":14800,"station_id":"ce4bhc92rcd13ifvqetg","pricing_plan_id":"cebpf4jnsgd1na2vs0mg"},{"bike_id":"f7e6ab99-08f9-4087-b26d-95546807223b","system_id":"levelo_inurba_marseille","lat":43.30546,"lon":5.36533,"is_reserved":false,"is_disabled":false,"rental_uris":{"android":"levelo://app?vid=f7e6ab99-08f9-4087-b26d-95546807223b","ios":"levelo://app?vid=f7e6ab99-08f9-4087-b26d-95546807223b"},"vehicle_type_id":"4","last_reported":1760710215,"current_range_meters":14800,"station_id":"ce4bgs12rcd13ifvqcag","pricing_plan_id":"cebpf4jnsgd1na2vs0mg"},{"bike_id":"3719af8e-a63b-4819-98f6-8dc7999a623a","system_id":"levelo_inurba_marseille","lat":43.29259,"lon":5.383929,"is_reserved":false,"is_disabled":false,"rental_uris":{"android":"levelo://app?vid=3719af8e-a63b-4819-98f6-8dc7999a623a","ios":"levelo://app?vid=3719af8e-a63b-4819-98f6-8dc7999a623a"},"vehicle_type_id":"4","last_reported":1760710215,"current_range_meters":14800,"station_id":"ce4bgup2rcd13ifvqcn0","pricing_plan_id":"cebpf4jnsgd1na2vs0mg"},{"bike_id":"d5e76858-8867-4150-9cc9-360680c4f6b8","system_id":"levelo_inurba_marseille","lat":43.24343,"lon":5.36989,"is_reserved":false,"is_disabled":false,"rental_uris":{"android":"levelo://app?vid=d5e76858-8867-4150-9cc9-360680c4f6b8","ios":"levelo://app?vid=d5e76858-8867-4150-9cc9-360680c4f6b8"},"vehicle_type_id":"4","last_reported":1760710215,"current_range_meters":14800,"station_id":"ce4bhhh2rcd13ifvqfk0","pricing_plan_id":"cebpf4jnsgd1na2vs0mg"},{"bike_id":"724aa9df-eb18-44e7-bab3-f0decbde11ee","system_id":"levelo_inurba_marseille","lat":43.32046,"lon":5.41563,"is_reserved":false,"is_disabled":false,"rental_uris":{"android":"levelo://app?vid=724aa9df-eb18-44e7-bab3-f0decbde11ee","ios":"levelo://app?vid=724aa9df-eb18-44e7-bab3-f0decbde11ee"},"vehicle_type_id":"4","last_reported":1760710215,"current_range_meters":14800,"station_id":"ce4bhq92rcd13ifvqhkg","pricing_plan_id":"cebpf4jnsgd1na2vs0mg"},{"bike_id":"dc9f4d48-796c-490b-b388-9fbc95de917c","system_id":"levelo_inurba_marseille","lat":43.25466,"lon":5.37418,"is_reserved":false,"is_disabled":false,"rental_uris":{"android":"levelo://app?vid=dc9f4d48-796c-490b-b388-9fbc95de917c","ios":"levelo://app?vid=dc9f4d48-796c-490b-b388-9fbc95de917c"},"vehicle_type_id":"4","last_reported":1760710215,"current_range_meters":14800,"station_id":"","pricing_plan_id":"cebpf4jnsgd1na2vs0mg"},{"bike_id":"89c41095-1749-4d06-b8a0-ed875d72823e","system_id":"levelo_inurba_marseille","lat":43.321087,"lon":5.367711,"is_reserved":false,"is_disabled":false,"rental_uris":{"android":"levelo://app?vid=89c41095-1749-4d06-b8a0-ed875d72823e","ios":"levelo://app?vid=89c41095-1749-4d06-b8a0-ed875d72823e"},"vehicle_type_id":"4","last_reported":1760710215,"current_range_meters":15200,"station_id":"ce4bhrh2rcd13ifvqhug","pricing_plan_id":"cebpf4jnsgd1na2vs0mg"},{"bike_id":"8fad55f9-6405-4e4b-9763-f44a81ed5833","system_id":"levelo_inurba_marseille","lat":43.262882,"lon":5.404813,"is_reserved":false,"is_disabled":false,"rental_uris":{"android":"levelo://app?vid=8fad55f9-6405-4e4b-9763-f44a81ed5833","ios":"levelo://app?vid=8fad55f9-6405-4e4b-9763-f44a81ed5833"},"vehicle_type_id":"4","last_reported":1760710215,"current_range_meters":15200,"station_id":"ce4bh3h2rcd13ifvqdn0","pricing_plan_id":"cebpf4jnsgd1na2vs0mg"},{"bike_id":"1ea58d06-2bc8-43e6-9700-ceffc676d32c","system_id":"levelo_inurba_marseille","lat":43.217213,"lon":5.346152,"is_reserved":false,"is_disabled":true,"rental_uris":{"android":"levelo://app?vid=1ea58d06-2bc8-43e6-9700-ceffc676d32c","ios":"levelo://app?vid=1ea58d06-2bc8-43e6-9700-ceffc676d32c"},"vehicle_type_id":"4","last_reported":1760710215,"current_range_meters":15200,"station_id":"cpo36qri1sfpv3e86is0","pricing_plan_id":"cebpf4jnsgd1na2vs0mg"},{"bike_id":"8580c8f5-6c5a-40c8-8a23-d6dcce66a79a","system_id":"levelo_inurba_marseille","lat":43.31365,"lon":5.38492,"is_reserved":false,"is_disabled":false,"rental_uris":{"android":"levelo://app?vid=8580c8f5-6c5a-40c8-8a23-d6dcce66a79a","ios":"levelo://app?vid=8580c8f5-6c5a-40c8-8a23-d6dcce66a79a"},"vehicle_type_id":"4","last_reported":1760710215,"current_range_meters":15200,"station_id":"ce4bgt92rcd13ifvqcf0","pricing_plan_id":"cebpf4jnsgd1na2vs0mg"},{"bike_id":"e694ceff-a8f6-49f3-8ded-1ff8bca8325b","system_id":"levelo_inurba_marseille","lat":43.288582,"lon":5.358625,"is_reserved":false,"is_disabled":true,"rental_uris":{"android":"levelo://app?vid=e694ceff-a8f6-49f3-8ded-1ff8bca8325b","ios":"levelo://app?vid=e694ceff-a8f6-49f3-8ded-1ff8bca8325b"},"vehicle_type_id":"4","last_reported":1760710215,"current_range_meters":15200,"station_id":"ce4bhb12rcd13ifvqem0","pricing_plan_id":"cebpf4jnsgd1na2vs0mg"},{"bike_id":"db081331-1fa4-4671-8993-13e91e6dca77","system_id":"levelo_inurba_marseille","lat":43.28277,"lon":5.35067,"is_reserved":false,"is_disabled":false,"rental_uris":{"android":"levelo://app?vid=db081331-1fa4-4671-8993-13e91e6dca77","ios":"levelo://app?vid=db081331-1fa4-4671-8993-13e91e6dca77"},"vehicle_type_id":"4","last_reported":1760710215,"current_range_meters":15200,"station_id":"ce4bhbp2rcd13ifvqerg","pricing_plan_id":"cebpf4jnsgd1na2vs0mg"},{"bike_id":"be1c4bc2-ea26-4165-ae2c-40ac4665f215","system_id":"levelo_inurba_marseille","lat":43.295025,"lon":5.433223,"is_reserved":false,"is_disabled":true,"rental_uris":{"android":"levelo://app?vid=be1c4bc2-ea26-4165-ae2c-40ac4665f215","ios":"levelo://app?vid=be1c4bc2-ea26-4165-ae2c-40ac4665f215"},"vehicle_type_id":"4","last_reported":1760710215,"current_range_meters":15200,"station_id":"st_d3j5ugp08ojc73fj9d10","pricing_plan_id":"cebpf4jnsgd1na2vs0mg"},{"bike_id":"95775bc3-7ce3-40cd-a9d3-11e13edd5307","system_id":"levelo_inurba_marseille","lat":43.301534,"lon":5.381162,"is_reserved":false,"is_disabled":false,"rental_uris":{"android":"levelo://app?vid=95775bc3-7ce3-40cd-a9d3-11e13edd5307","ios":"levelo://app?vid=95775bc3-7ce3-40cd-a9d3-11e13edd5307"},"vehicle_type_id":"4","last_reported":1760710215,"current_range_meters":15200,"station_id":"ce4bgjp2rcd13ifvqbh0","pricing_plan_id":"cebpf4jnsgd1na2vs0mg"},{"bike_id":"6eb2acec-d68e-4c9a-ad73-90879ab30bc2","system_id":"levelo_inurba_marseille","lat":43.31499,"lon":5.37396,"is_reserved":false,"is_disabled":false,"rental_uris":{"android":"levelo://app?vid=6eb2acec-d68e-4c9a-ad73-90879ab30bc2","ios":"levelo://app?vid=6eb2acec-d68e-4c9a-ad73-90879ab30bc2"},"vehicle_type_id":"4","last_reported":1760710215,"current_range_meters":16000,"station_id":"","pricing_plan_id":"cebpf4jnsgd1na2vs0mg"},{"bike_id":"75b02a51-1325-435e-9661-29bb451a696a","system_id":"levelo_inurba_marseille","lat":43.31448,"lon":5.38488,"is_reserved":false,"is_disabled":false,"rental_uris":{"android":"levelo://app?vid=75b02a51-1325-435e-9661-29bb451a696a","ios":"levelo://app?vid=75b02a51-1325-435e-9661-29bb451a696a"},"vehicle_type_id":"4","last_reported":1760710215,"current_range_meters":16000,"station_id":"","pricing_plan_id":"cebpf4jnsgd1na2vs0mg"},{"bike_id":"4c435c82-0bc4-4369-80cf-ae9046a83658","system_id":"levelo_inurba_marseille","lat":43.2416,"lon":5.364,"is_reserved":false,"is_disabled":false,"rental_uris":{"android":"levelo://app?vid=4c435c82-0bc4-4369-80cf-ae9046a83658","ios":"levelo://app?vid=4c435c82-0bc4-4369-80cf-ae9046a83658"},"vehicle_type_id":"4","last_reported":1760710215,"current_range_meters":16000,"station_id":"cpo36qri1sfpv3e86is0","pricing_plan_id":"cebpf4jnsgd1na2vs0mg"},{"bike_id":"f57717fa-a2d2-49ec-b20f-b89d90fab4c7","system_id":"levelo_inurba_marseille","lat":43.270921,"lon":5.383336,"is_reserved":false,"is_disabled":false,"rental_uris":{"android":"levelo://app?vid=f57717fa-a2d2-49ec-b20f-b89d90fab4c7","ios":"levelo://app?vid=f57717fa-a2d2-49ec-b20f-b89d90fab4c7"},"vehicle_type_id":"4","last_reported":1760710215,"current_range_meters":16000,"station_id":"ce4bhap2rcd13ifvqek0","pricing_plan_id":"cebpf4jnsgd1na2vs0mg"},{"bike_id":"e1e50f39-1e47-440a-b770-25db60877ad4","system_id":"levelo_inurba_marseille","lat":43.31499,"lon":5.37312,"is_reserved":false,"is_disabled":false,"rental_uris":{"android":"levelo://app?vid=e1e50f39-1e47-440a-b770-25db60877ad4","ios":"levelo://app?vid=e1e50f39-1e47-440a-b770-25db60877ad4"},"vehicle_type_id":"4","last_reported":1760710215,"current_range_meters":16400,"station_id":"ce4bgt12rcd13ifvqcd0","pricing_plan_id":"cebpf4jnsgd1na2vs0mg"},{"bike_id":"b97b8dd3-ec5f-4c29-94c8-345abca3a938","system_id":"levelo_inurba_marseille","lat":43.2378,"lon":5.36632,"is_reserved":false,"is_disabled":false,"rental_uris":{"android":"levelo://app?vid=b97b8dd3-ec5f-4c29-94c8-345abca3a938","ios":"levelo://app?vid=b97b8dd3-ec5f-4c29-94c8-345abca3a938"},"vehicle_type_id":"4","last_reported":1760710215,"current_range_meters":16400,"station_id":"st_d3nk18o9ro0c73en2l3g","pricing_plan_id":"cebpf4jnsgd1na2vs0mg"},{"bike_id":"924ac669-be8b-47aa-9a8e-6f22baf815eb","system_id":"levelo_inurba_marseille","lat":43.3377,"lon":5.3748,"is_reserved":false,"is_disabled":false,"rental_uris":{"android":"levelo://app?vid=924ac669-be8b-47aa-9a8e-6f22baf815eb","ios":"levelo://app?vid=924ac669-be8b-47aa-9a8e-6f22baf815eb"},"vehicle_type_id":"4","last_reported":1760710215,"current_range_meters":16400,"station_id":"","pricing_plan_id":"cebpf4jnsgd1na2vs0mg"},{"bike_id":"8ca96da9-2831-43eb-8fda-b402292cd52d","system_id":"levelo_inurba_marseille","lat":43.30225,"lon":5.39491,"is_reserved":false,"is_disabled":false,"rental_uris":{"android":"levelo://app?vid=8ca96da9-2831-43eb-8fda-b402292cd52d","ios":"levelo://app?vid=8ca96da9-2831-43eb-8fda-b402292cd52d"},"vehicle_type_id":"4","last_reported":1760710215,"current_range_meters":16400,"station_id":"ce4bh0p2rcd13ifvqd70","pricing_plan_id":"cebpf4jnsgd1na2vs0mg"},{"bike_id":"8aa3ec83-557d-4118-b42f-7e9ff74932f2","system_id":"levelo_inurba_marseille","lat":43.24172,"lon":5.363934,"is_reserved":false,"is_disabled":false,"rental_uris":{"android":"levelo://app?vid=8aa3ec83-557d-4118-b42f-7e9ff74932f2","ios":"levelo://app?vid=8aa3ec83-557d-4118-b42f-7e9ff74932f2"},"vehicle_type_id":"4","last_reported":1760710215,"current_range_meters":16400,"station_id":"cpo36qri1sfpv3e86is0","pricing_plan_id":"cebpf4jnsgd1na2vs0mg"},{"bike_id":"0858b0c8-9381-4c7c-ba45-f36ed2187a5f","system_id":"levelo_inurba_marseille","lat":43.30068,"lon":5.37826,"is_reserved":false,"is_disabled":false,"rental_uris":{"android":"levelo://app?vid=0858b0c8-9381-4c7c-ba45-f36ed2187a5f","ios":"levelo://app?vid=0858b0c8-9381-4c7c-ba45-f36ed2187a5f"},"vehicle_type_id":"4","last_reported":1760710215,"current_range_meters":16800,"station_id":"","pricing_plan_id":"cebpf4jnsgd1na2vs0mg"},{"bike_id":"f1eddc33-f18f-4200-827b-8fbc58caf93f","system_id":"levelo_inurba_marseille","lat":43.24385,"lon":5.37058,"is_reserved":false,"is_disabled":false,"rental_uris":{"android":"levelo://app?vid=f1eddc33-f18f-4200-827b-8fbc58caf93f","ios":"levelo://app?vid=f1eddc33-f18f-4200-827b-8fbc58caf93f"},"vehicle_type_id":"4","last_reported":1760710215,"current_range_meters":16800,"station_id":"ce4bhhh2rcd13ifvqfk0","pricing_plan_id":"cebpf4jnsgd1na2vs0mg"},{"bike_id":"8e44e3dd-7676-4546-ad2d-9cf2b67d453c","system_id":"levelo_inurba_marseille","lat":43.299787,"lon":5.371835,"is_reserved":false,"is_disabled":false,"rental_uris":{"android":"levelo://app?vid=8e44e3dd-7676-4546-ad2d-9cf2b67d453c","ios":"levelo://app?vid=8e44e3dd-7676-4546-ad2d-9cf2b67d453c"},"vehicle_type_id":"4","last_reported":1760710215,"current_range_meters":16800,"station_id":"ce4bgr92rcd13ifvqc7g","pricing_plan_id":"cebpf4jnsgd1na2vs0mg"},{"bike_id":"1f81938d-d7ae-4e72-b511-ad3140bff0f2","system_id":"levelo_inurba_marseille","lat":43.29196,"lon":5.35807,"is_reserved":false,"is_disabled":false,"rental_uris":{"android":"levelo://app?vid=1f81938d-d7ae-4e72-b511-ad3140bff0f2","ios":"levelo://app?vid=1f81938d-d7ae-4e72-b511-ad3140bff0f2"},"vehicle_type_id":"4","last_reported":1760710215,"current_range_meters":16800,"station_id":"ce4bhb12rcd13ifvqel0","pricing_plan_id":"cebpf4jnsgd1na2vs0mg"},{"bike_id":"5afedf2c-9f26-4bb9-8210-0ff4d77a4b7f","system_id":"levelo_inurba_marseille","lat":43.28427,"lon":5.34987,"is_reserved":false,"is_disabled":false,"rental_uris":{"android":"levelo://app?vid=5afedf2c-9f26-4bb9-8210-0ff4d77a4b7f","ios":"levelo://app?vid=5afedf2c-9f26-4bb9-8210-0ff4d77a4b7f"},"vehicle_type_id":"4","last_reported":1760710215,"current_range_meters":16800,"station_id":"ce4bhbh2rcd13ifvqepg","pricing_plan_id":"cebpf4jnsgd1na2vs0mg"},{"bike_id":"25ac284f-89da-4dc0-992e-755329000866","system_id":"levelo_inurba_marseille","lat":43.24175,"lon":5.3639,"is_reserved":false,"is_disabled":false,"rental_uris":{"android":"levelo://app?vid=25ac284f-89da-4dc0-992e-755329000866","ios":"levelo://app?vid=25ac284f-89da-4dc0-992e-755329000866"},"vehicle_type_id":"4","last_reported":1760710215,"current_range_meters":16800,"station_id":"cpo36qri1sfpv3e86is0","pricing_plan_id":"cebpf4jnsgd1na2vs0mg"},{"bike_id":"2ed95d71-aacf-4177-b5d8-350174677b58","system_id":"levelo_inurba_marseille","lat":43.28458,"lon":5.35884,"is_reserved":false,"is_disabled":false,"rental_uris":{"android":"levelo://app?vid=2ed95d71-aacf-4177-b5d8-350174677b58","ios":"levelo://app?vid=2ed95d71-aacf-4177-b5d8-350174677b58"},"vehicle_type_id":"4","last_reported":1760710215,"current_range_meters":16800,"station_id":"ce4bhah2rcd13ifvqei0","pricing_plan_id":"cebpf4jnsgd1na2vs0mg"},{"bike_id":"5aa379e8-2294-4046-9e87-fa533bda604c","system_id":"levelo_inurba_marseille","lat":43.29974,"lon":5.37161,"is_reserved":false,"is_disabled":true,"rental_uris":{"android":"levelo://app?vid=5aa379e8-2294-4046-9e87-fa533bda604c","ios":"levelo://app?vid=5aa379e8-2294-4046-9e87-fa533bda604c"},"vehicle_type_id":"4","last_reported":1760710215,"current_range_meters":16800,"station_id":"ce4bgr92rcd13ifvqc7g","pricing_plan_id":"cebpf4jnsgd1na2vs0mg"},{"bike_id":"8c30526d-4d62-49e0-92a1-2ed039e24496","system_id":"levelo_inurba_marseille","lat":43.28706,"lon":5.38418,"is_reserved":false,"is_disabled":false,"rental_uris":{"android":"levelo://app?vid=8c30526d-4d62-49e0-92a1-2ed039e24496","ios":"levelo://app?vid=8c30526d-4d62-49e0-92a1-2ed039e24496"},"vehicle_type_id":"4","last_reported":1760710215,"current_range_meters":16800,"station_id":"","pricing_plan_id":"cebpf4jnsgd1na2vs0mg"},{"bike_id":"c1adbd5e-6d75-4466-ae48-a9ce4bf7bd3c","system_id":"levelo_inurba_marseille","lat":43.26209,"lon":5.374433,"is_reserved":false,"is_disabled":false,"rental_uris":{"android":"levelo://app?vid=c1adbd5e-6d75-4466-ae48-a9ce4bf7bd3c","ios":"levelo://app?vid=c1adbd5e-6d75-4466-ae48-a9ce4bf7bd3c"},"vehicle_type_id":"4","last_reported":1760710215,"current_range_meters":16800,"station_id":"ce4bhgp2rcd13ifvqfc0","pricing_plan_id":"cebpf4jnsgd1na2vs0mg"},{"bike_id":"19b48d97-31f5-419e-a3ec-6f3c529e3c71","system_id":"levelo_inurba_marseille","lat":43.32121,"lon":5.36787,"is_reserved":false,"is_disabled":false,"rental_uris":{"android":"levelo://app?vid=19b48d97-31f5-419e-a3ec-6f3c529e3c71","ios":"levelo://app?vid=19b48d97-31f5-419e-a3ec-6f3c529e3c71"},"vehicle_type_id":"4","last_reported":1760710215,"current_range_meters":16800,"station_id":"ce4bhrh2rcd13ifvqhug","pricing_plan_id":"cebpf4jnsgd1na2vs0mg"},{"bike_id":"7ff0d57e-c2ad-4d60-9cdd-924a41c2a125","system_id":"levelo_inurba_marseille","lat":43.24393,"lon":5.3704,"is_reserved":false,"is_disabled":false,"rental_uris":{"android":"levelo://app?vid=7ff0d57e-c2ad-4d60-9cdd-924a41c2a125","ios":"levelo://app?vid=7ff0d57e-c2ad-4d60-9cdd-924a41c2a125"},"vehicle_type_id":"4","last_reported":1760710215,"current_range_meters":16800,"station_id":"ce4bhhh2rcd13ifvqfk0","pricing_plan_id":"cebpf4jnsgd1na2vs0mg"},{"bike_id":"edcb744a-1021-4493-86cd-94aad7a8dbc8","system_id":"levelo_inurba_marseille","lat":43.30452,"lon":5.36961,"is_reserved":false,"is_disabled":false,"rental_uris":{"android":"levelo://app?vid=edcb744a-1021-4493-86cd-94aad7a8dbc8","ios":"levelo://app?vid=edcb744a-1021-4493-86cd-94aad7a8dbc8"},"vehicle_type_id":"4","last_reported":1760710215,"current_range_meters":16800,"station_id":"","pricing_plan_id":"cebpf4jnsgd1na2vs0mg"},{"bike_id":"d1c86ec0-7fb4-470a-8080-d7e50dd42cab","system_id":"levelo_inurba_marseille","lat":43.29363,"lon":5.37826,"is_reserved":false,"is_disabled":false,"rental_uris":{"android":"levelo://app?vid=d1c86ec0-7fb4-470a-8080-d7e50dd42cab","ios":"levelo://app?vid=d1c86ec0-7fb4-470a-8080-d7e50dd42cab"},"vehicle_type_id":"4","last_reported":1760710215,"current_range_meters":16800,"station_id":"ce4bgjh2rcd13ifvqbf0","pricing_plan_id":"cebpf4jnsgd1na2vs0mg"},{"bike_id":"a254deaf-de67-428a-a7d0-82b0c8fbf3ab","system_id":"levelo_inurba_marseille","lat":43.29851,"lon":5.36287,"is_reserved":false,"is_disabled":false,"rental_uris":{"android":"levelo://app?vid=a254deaf-de67-428a-a7d0-82b0c8fbf3ab","ios":"levelo://app?vid=a254deaf-de67-428a-a7d0-82b0c8fbf3ab"},"vehicle_type_id":"4","last_reported":1760710215,"current_range_meters":17200,"station_id":"ce4bgpp2rcd13ifvqc3g","pricing_plan_id":"cebpf4jnsgd1na2vs0mg"},{"bike_id":"df4dbaf0-5d0e-4514-ab6c-8a900e5cfde5","system_id":"levelo_inurba_marseille","lat":43.26786,"lon":5.39418,"is_reserved":false,"is_disabled":false,"rental_uris":{"android":"levelo://app?vid=df4dbaf0-5d0e-4514-ab6c-8a900e5cfde5","ios":"levelo://app?vid=df4dbaf0-5d0e-4514-ab6c-8a900e5cfde5"},"vehicle_type_id":"4","last_reported":1760710215,"current_range_meters":17200,"station_id":"ce4bhh12rcd13ifvqfg0","pricing_plan_id":"cebpf4jnsgd1na2vs0mg"},{"bike_id":"7bc76abd-5248-4bdd-bd33-f8117ff51040","system_id":"levelo_inurba_marseille","lat":43.299832,"lon":5.371825,"is_reserved":false,"is_disabled":false,"rental_uris":{"android":"levelo://app?vid=7bc76abd-5248-4bdd-bd33-f8117ff51040","ios":"levelo://app?vid=7bc76abd-5248-4bdd-bd33-f8117ff51040"},"vehicle_type_id":"4","last_reported":1760710215,"current_range_meters":17200,"station_id":"ce4bgr92rcd13ifvqc7g","pricing_plan_id":"cebpf4jnsgd1na2vs0mg"},{"bike_id":"17d225ef-f7f3-4490-9737-395a7bbd1e73","system_id":"levelo_inurba_marseille","lat":43.2439,"lon":5.37061,"is_reserved":false,"is_disabled":false,"rental_uris":{"android":"levelo://app?vid=17d225ef-f7f3-4490-9737-395a7bbd1e73","ios":"levelo://app?vid=17d225ef-f7f3-4490-9737-395a7bbd1e73"},"vehicle_type_id":"4","last_reported":1760710215,"current_range_meters":17200,"station_id":"ce4bhhh2rcd13ifvqfk0","pricing_plan_id":"cebpf4jnsgd1na2vs0mg"},{"bike_id":"2a258544-7590-48f1-939f-4fa79e7b6924","system_id":"levelo_inurba_marseille","lat":43.29988,"lon":5.37189,"is_reserved":false,"is_disabled":false,"rental_uris":{"android":"levelo://app?vid=2a258544-7590-48f1-939f-4fa79e7b6924","ios":"levelo://app?vid=2a258544-7590-48f1-939f-4fa79e7b6924"},"vehicle_type_id":"4","last_reported":1760710215,"current_range_meters":17200,"station_id":"ce4bgr92rcd13ifvqc7g","pricing_plan_id":"cebpf4jnsgd1na2vs0mg"},{"bike_id":"6fd442d5-3c15-41ad-9897-ea3b2d24c36e","system_id":"levelo_inurba_marseille","lat":43.28692,"lon":5.40014,"is_reserved":false,"is_disabled":false,"rental_uris":{"android":"levelo://app?vid=6fd442d5-3c15-41ad-9897-ea3b2d24c36e","ios":"levelo://app?vid=6fd442d5-3c15-41ad-9897-ea3b2d24c36e"},"vehicle_type_id":"4","last_reported":1760710215,"current_range_meters":17200,"station_id":"ce4bho92rcd13ifvqh3g","pricing_plan_id":"cebpf4jnsgd1na2vs0mg"},{"bike_id":"38e9bc50-eb8b-417a-91d9-58a816766350","system_id":"levelo_inurba_marseille","lat":43.28619,"lon":5.35099,"is_reserved":false,"is_disabled":false,"rental_uris":{"android":"levelo://app?vid=38e9bc50-eb8b-417a-91d9-58a816766350","ios":"levelo://app?vid=38e9bc50-eb8b-417a-91d9-58a816766350"},"vehicle_type_id":"4","last_reported":1760710215,"current_range_meters":17200,"station_id":"ce4bhch2rcd13ifvqeug","pricing_plan_id":"cebpf4jnsgd1na2vs0mg"},{"bike_id":"b3f02386-ff16-4d2a-8471-7d112043a4ca","system_id":"levelo_inurba_marseille","lat":43.28612,"lon":5.35106,"is_reserved":false,"is_disabled":false,"rental_uris":{"android":"levelo://app?vid=b3f02386-ff16-4d2a-8471-7d112043a4ca","ios":"levelo://app?vid=b3f02386-ff16-4d2a-8471-7d112043a4ca"},"vehicle_type_id":"4","last_reported":1760710215,"current_range_meters":17200,"station_id":"ce4bhch2rcd13ifvqeug","pricing_plan_id":"cebpf4jnsgd1na2vs0mg"},{"bike_id":"84ae53af-6f0d-4a22-87db-9fcc3bd18b60","system_id":"levelo_inurba_marseille","lat":43.305518,"lon":5.365639,"is_reserved":false,"is_disabled":false,"rental_uris":{"android":"levelo://app?vid=84ae53af-6f0d-4a22-87db-9fcc3bd18b60","ios":"levelo://app?vid=84ae53af-6f0d-4a22-87db-9fcc3bd18b60"},"vehicle_type_id":"4","last_reported":1760710215,"current_range_meters":17200,"station_id":"ce4bgs12rcd13ifvqcag","pricing_plan_id":"cebpf4jnsgd1na2vs0mg"},{"bike_id":"74e3e01c-66c4-481d-b08c-6c10af99936d","system_id":"levelo_inurba_marseille","lat":43.34091,"lon":5.40433,"is_reserved":false,"is_disabled":false,"rental_uris":{"android":"levelo://app?vid=74e3e01c-66c4-481d-b08c-6c10af99936d","ios":"levelo://app?vid=74e3e01c-66c4-481d-b08c-6c10af99936d"},"vehicle_type_id":"4","last_reported":1760710215,"current_range_meters":17200,"station_id":"","pricing_plan_id":"cebpf4jnsgd1na2vs0mg"},{"bike_id":"9ef03c59-aac1-4bee-97b5-022e4210f9e9","system_id":"levelo_inurba_marseille","lat":43.28669,"lon":5.36349,"is_reserved":false,"is_disabled":false,"rental_uris":{"android":"levelo://app?vid=9ef03c59-aac1-4bee-97b5-022e4210f9e9","ios":"levelo://app?vid=9ef03c59-aac1-4bee-97b5-022e4210f9e9"},"vehicle_type_id":"4","last_reported":1760710215,"current_range_meters":17200,"station_id":"ce4bhah2rcd13ifvqej0","pricing_plan_id":"cebpf4jnsgd1na2vs0mg"},{"bike_id":"45e5b7ed-cacb-40d0-a2ee-d75061f9f2c6","system_id":"levelo_inurba_marseille","lat":43.2315,"lon":5.43705,"is_reserved":false,"is_disabled":false,"rental_uris":{"android":"levelo://app?vid=45e5b7ed-cacb-40d0-a2ee-d75061f9f2c6","ios":"levelo://app?vid=45e5b7ed-cacb-40d0-a2ee-d75061f9f2c6"},"vehicle_type_id":"4","last_reported":1760710215,"current_range_meters":17200,"station_id":"ce4bhmp2rcd13ifvqgog","pricing_plan_id":"cebpf4jnsgd1na2vs0mg"},{"bike_id":"8baf5efc-042f-46ec-962c-9d10b96ad999","system_id":"levelo_inurba_marseille","lat":43.30176,"lon":5.37084,"is_reserved":false,"is_disabled":false,"rental_uris":{"android":"levelo://app?vid=8baf5efc-042f-46ec-962c-9d10b96ad999","ios":"levelo://app?vid=8baf5efc-042f-46ec-962c-9d10b96ad999"},"vehicle_type_id":"4","last_reported":1760710215,"current_range_meters":17200,"station_id":"","pricing_plan_id":"cebpf4jnsgd1na2vs0mg"},{"bike_id":"0a414463-fe1a-4833-8a11-178a3c2c879a","system_id":"levelo_inurba_marseille","lat":43.29852,"lon":5.37897,"is_reserved":false,"is_disabled":false,"rental_uris":{"android":"levelo://app?vid=0a414463-fe1a-4833-8a11-178a3c2c879a","ios":"levelo://app?vid=0a414463-fe1a-4833-8a11-178a3c2c879a"},"vehicle_type_id":"4","last_reported":1760710215,"current_range_meters":17600,"station_id":"","pricing_plan_id":"cebpf4jnsgd1na2vs0mg"},{"bike_id":"5819f850-913f-468f-8a61-4d754f238965","system_id":"levelo_inurba_marseille","lat":43.29998,"lon":5.37194,"is_reserved":false,"is_disabled":false,"rental_uris":{"android":"levelo://app?vid=5819f850-913f-468f-8a61-4d754f238965","ios":"levelo://app?vid=5819f850-913f-468f-8a61-4d754f238965"},"vehicle_type_id":"4","last_reported":1760710215,"current_range_meters":17600,"station_id":"","pricing_plan_id":"cebpf4jnsgd1na2vs0mg"},{"bike_id":"550f97e6-2472-4124-8ce9-ad13ef74b066","system_id":"levelo_inurba_marseille","lat":43.32,"lon":5.38142,"is_reserved":false,"is_disabled":false,"rental_uris":{"android":"levelo://app?vid=550f97e6-2472-4124-8ce9-ad13ef74b066","ios":"levelo://app?vid=550f97e6-2472-4124-8ce9-ad13ef74b066"},"vehicle_type_id":"4","last_reported":1760710215,"current_range_meters":17600,"station_id":"ce4bhr12rcd13ifvqhpg","pricing_plan_id":"cebpf4jnsgd1na2vs0mg"},{"bike_id":"56dfaa97-c535-4254-a108-db506f14fcd1","system_id":"levelo_inurba_marseille","lat":43.26227,"lon":5.40451,"is_reserved":false,"is_disabled":false,"rental_uris":{"android":"levelo://app?vid=56dfaa97-c535-4254-a108-db506f14fcd1","ios":"levelo://app?vid=56dfaa97-c535-4254-a108-db506f14fcd1"},"vehicle_type_id":"4","last_reported":1760710215,"current_range_meters":17600,"station_id":"ce4bhmh2rcd13ifvqgmg","pricing_plan_id":"cebpf4jnsgd1na2vs0mg"},{"bike_id":"6f274092-c836-4709-8bf1-a7cdbeb6f733","system_id":"levelo_inurba_marseille","lat":43.33771,"lon":5.37474,"is_reserved":false,"is_disabled":false,"rental_uris":{"android":"levelo://app?vid=6f274092-c836-4709-8bf1-a7cdbeb6f733","ios":"levelo://app?vid=6f274092-c836-4709-8bf1-a7cdbeb6f733"},"vehicle_type_id":"4","last_reported":1760710215,"current_range_meters":17600,"station_id":"","pricing_plan_id":"cebpf4jnsgd1na2vs0mg"},{"bike_id":"9b4645d4-55f5-4ac8-9357-fbee8c4d72c4","system_id":"levelo_inurba_marseille","lat":43.2694,"lon":5.40253,"is_reserved":false,"is_disabled":false,"rental_uris":{"android":"levelo://app?vid=9b4645d4-55f5-4ac8-9357-fbee8c4d72c4","ios":"levelo://app?vid=9b4645d4-55f5-4ac8-9357-fbee8c4d72c4"},"vehicle_type_id":"4","last_reported":1760710215,"current_range_meters":18000,"station_id":"cjm6bp8fraef2m0cb0m0","pricing_plan_id":"cebpf4jnsgd1na2vs0mg"},{"bike_id":"4f75a053-1043-463e-bf74-8826a146ed6a","system_id":"levelo_inurba_marseille","lat":43.28666,"lon":5.36349,"is_reserved":false,"is_disabled":false,"rental_uris":{"android":"levelo://app?vid=4f75a053-1043-463e-bf74-8826a146ed6a","ios":"levelo://app?vid=4f75a053-1043-463e-bf74-8826a146ed6a"},"vehicle_type_id":"4","last_reported":1760710215,"current_range_meters":18000,"station_id":"ce4bhah2rcd13ifvqej0","pricing_plan_id":"cebpf4jnsgd1na2vs0mg"},{"bike_id":"11824a93-b071-418e-9edf-23b12613a7e8","system_id":"levelo_inurba_marseille","lat":43.23155,"lon":5.43693,"is_reserved":false,"is_disabled":false,"rental_uris":{"android":"levelo://app?vid=11824a93-b071-418e-9edf-23b12613a7e8","ios":"levelo://app?vid=11824a93-b071-418e-9edf-23b12613a7e8"},"vehicle_type_id":"4","last_reported":1760710215,"current_range_meters":18000,"station_id":"ce4bhmp2rcd13ifvqgog","pricing_plan_id":"cebpf4jnsgd1na2vs0mg"},{"bike_id":"862ce872-f902-47f5-bbb1-1ac3f6d12a86","system_id":"levelo_inurba_marseille","lat":43.266859,"lon":5.382703,"is_reserved":false,"is_disabled":false,"rental_uris":{"android":"levelo://app?vid=862ce872-f902-47f5-bbb1-1ac3f6d12a86","ios":"levelo://app?vid=862ce872-f902-47f5-bbb1-1ac3f6d12a86"},"vehicle_type_id":"4","last_reported":1760710215,"current_range_meters":18000,"station_id":"ce4bhg92rcd13ifvqf90","pricing_plan_id":"cebpf4jnsgd1na2vs0mg"},{"bike_id":"ae6eb0f2-4874-4ceb-8d8c-7385a8266f58","system_id":"levelo_inurba_marseille","lat":43.29488,"lon":5.3792,"is_reserved":false,"is_disabled":false,"rental_uris":{"android":"levelo://app?vid=ae6eb0f2-4874-4ceb-8d8c-7385a8266f58","ios":"levelo://app?vid=ae6eb0f2-4874-4ceb-8d8c-7385a8266f58"},"vehicle_type_id":"4","last_reported":1760710215,"current_range_meters":18000,"station_id":"","pricing_plan_id":"cebpf4jnsgd1na2vs0mg"},{"bike_id":"c4b2e449-8bd6-488c-8e41-98b33aca94d1","system_id":"levelo_inurba_marseille","lat":43.30544,"lon":5.36542,"is_reserved":false,"is_disabled":false,"rental_uris":{"android":"levelo://app?vid=c4b2e449-8bd6-488c-8e41-98b33aca94d1","ios":"levelo://app?vid=c4b2e449-8bd6-488c-8e41-98b33aca94d1"},"vehicle_type_id":"4","last_reported":1760710215,"current_range_meters":18800,"station_id":"ce4bgs12rcd13ifvqcag","pricing_plan_id":"cebpf4jnsgd1na2vs0mg"},{"bike_id":"d39ee6be-c401-4bf3-95cb-a3752783f762","system_id":"levelo_inurba_marseille","lat":43.25934,"lon":5.40918,"is_reserved":false,"is_disabled":false,"rental_uris":{"android":"levelo://app?vid=d39ee6be-c401-4bf3-95cb-a3752783f762","ios":"levelo://app?vid=d39ee6be-c401-4bf3-95cb-a3752783f762"},"vehicle_type_id":"4","last_reported":1760710215,"current_range_meters":18800,"station_id":"ce4bhm92rcd13ifvqglg","pricing_plan_id":"cebpf4jnsgd1na2vs0mg"},{"bike_id":"046f49d1-8c6c-48c9-983b-35c63a37cb70","system_id":"levelo_inurba_marseille","lat":43.28609,"lon":5.35124,"is_reserved":false,"is_disabled":false,"rental_uris":{"android":"levelo://app?vid=046f49d1-8c6c-48c9-983b-35c63a37cb70","ios":"levelo://app?vid=046f49d1-8c6c-48c9-983b-35c63a37cb70"},"vehicle_type_id":"4","last_reported":1760710215,"current_range_meters":18800,"station_id":"ce4bhch2rcd13ifvqeug","pricing_plan_id":"cebpf4jnsgd1na2vs0mg"},{"bike_id":"f09d3d8c-97d1-4ffa-8a77-57c967dae547","system_id":"levelo_inurba_marseille","lat":43.29534,"lon":5.38543,"is_reserved":false,"is_disabled":false,"rental_uris":{"android":"levelo://app?vid=f09d3d8c-97d1-4ffa-8a77-57c967dae547","ios":"levelo://app?vid=f09d3d8c-97d1-4ffa-8a77-57c967dae547"},"vehicle_type_id":"4","last_reported":1760710215,"current_range_meters":18800,"station_id":"ce4bgih2rcd13ifvqba0","pricing_plan_id":"cebpf4jnsgd1na2vs0mg"},