{"last_updated":1760703644,"ttl":60,"version":"2.2","data":{"bikes":[{"bike_id":"b4052f7a-27b6-479b-bdb3-900e233c35a7","system_id":"levelo_inurba_marseille","lat":43.295718,"lon":5.364098,"is_reserved":false,"is_disabled":false,"rental_uris":{"android":"levelo://app?vid=b4052f7a-27b6-479b-bdb3-900e233c35a7","ios":"levelo://app?vid=b4052f7a-27b6-479b-bdb3-900e233c35a7"},"vehicle_type_id":"4","last_reported":1760703644,"current_range_meters":2800,"station_id":"","pricing_plan_id":"cebpf4jnsgd1na2vs0mg"},{"bike_id":"21bc7ee8-24b5-4612-a5c7-9f9603ca533c","system_id":"levelo_inurba_marseille","lat":43.30099,"lon":5.39044,"is_reserved":false,"is_disabled":false,"rental_uris":{"android":"levelo://app?vid=21bc7ee8-24b5-4612-a5c7-9f9603ca533c","ios":"levelo://app?vid=21bc7ee8-24b5-4612-a5c7-9f9603ca533c"},"vehicle_type_id":"4","last_reported":1760703644,"current_range_meters":2800,"station_id":"ce4bh192rcd13ifvqdb0","pricing_plan_id":"cebpf4jnsgd1na2vs0mg"},{"bike_id":"3cb5b848-2b77-445f-9436-55a5a252e776","system_id":"levelo_inurba_marseille","lat":43.30042,"lon":5.37718,"is_reserved":false,"is_disabled":false,"rental_uris":{"android":"levelo://app?vid=3cb5b848-2b77-445f-9436-55a5a252e776","ios":"levelo://app?vid=3cb5b848-2b77-445f-9436-55a5a252e776"},"vehicle_type_id":"4","last_reported":1760703644,"current_range_meters":2800,"station_id":"","pricing_plan_id":"cebpf4jnsgd1na2vs0mg"},{"bike_id":"edf1826d-4c94-41f7-b41b-9e4934e632f6","system_id":"levelo_inurba_marseille","lat":43.252108,"lon":5.379144,"is_reserved":false,"is_disabled":false,"rental_uris":{"android":"levelo://app?vid=edf1826d-4c94-41f7-b41b-9e4934e632f6","ios":"levelo://app?vid=edf1826d-4c94-41f7-b41b-9e4934e632f6"},"vehicle_type_id":"4","last_reported":1760703644,"current_range_meters":3200,"station_id":"","pricing_plan_id":"cebpf4jnsgd1na2vs0mg"},{"bike_id":"51cb32a0-c5c8-4828-a5bc-a4fb51d6bc7e","system_id":"levelo_inurba_marseille","lat":43.26208,"lon":5.37933,"is_reserved":false,"is_disabled":false,"rental_uris":{"android":"levelo://app?vid=51cb32a0-c5c8-4828-a5bc-a4fb51d6bc7e","ios":"levelo://app?vid=51cb32a0-c5c8-4828-a5bc-a4fb51d6bc7e"},"vehicle_type_id":"4","last_reported":1760703644,"current_range_meters":3200,"station_id":"ce4bhjp2rcd13ifvqg90","pricing_plan_id":"cebpf4jnsgd1na2vs0mg"},{"bike_id":"e37a9c6c-6bd1-4b0e-b0ba-a1ae6665cd62","system_id":"levelo_inurba_marseille","lat":43.271973,"lon":5.391412,"is_reserved":false,"is_disabled":false,"rental_uris":{"android":"levelo://app?vid=e37a9c6c-6bd1-4b0e-b0ba-a1ae6665cd62","ios":"levelo://app?vid=e37a9c6c-6bd1-4b0e-b0ba-a1ae6665cd62"},"vehicle_type_id":"4","last_reported":1760703644,"current_range_meters":3200,"station_id":"ce4bhhp2rcd13ifvqfm0","pricing_plan_id":"cebpf4jnsgd1na2vs0mg"},{"bike_id":"c514a116-f050-4d03-aeb1-c0abee1a4367","system_id":"levelo_inurba_marseille","lat":43.26199,"lon":5.37919,"is_reserved":false,"is_disabled":false,"rental_uris":{"android":"levelo://app?vid=c514a116-f050-4d03-aeb1-c0abee1a4367","ios":"levelo://app?vid=c514a116-f050-4d03-aeb1-c0abee1a4367"},"vehicle_type_id":"4","last_reported":1760703644,"current_range_meters":3200,"station_id":"ce4bhjp2rcd13ifvqg90","pricing_plan_id":"cebpf4jnsgd1na2vs0mg"},{"bike_id":"56e8f168-0239-4dab-a231-9caf80fb776c","system_id":"levelo_inurba_marseille","lat":43.292676,"lon":5.376168,"is_reserved":false,"is_disabled":false,"rental_uris":{"android":"levelo://app?vid=56e8f168-0239-4dab-a231-9caf80fb776c","ios":"levelo://app?vid=56e8f168-0239-4dab-a231-9caf80fb776c"},"vehicle_type_id":"4","last_reported":1760703644,"current_range_meters":3600,"station_id":"","pricing_plan_id":"cebpf4jnsgd1na2vs0mg"},{"bike_id":"e0863f88-6065-41da-9ecd-468f1156f9d8","system_id":"levelo_inurba_marseille","lat":43.27349,"lon":5.41391,"is_reserved":false,"is_disabled":false,"rental_uris":{"android":"levelo://app?vid=e0863f88-6065-41da-9ecd-468f1156f9d8","ios":"levelo://app?vid=e0863f88-6065-41da-9ecd-468f1156f9d8"},"vehicle_type_id":"4","last_reported":1760703644,"current_range_meters":3600,"station_id":"","pricing_plan_id":"cebpf4jnsgd1na2vs0mg"},{"bike_id":"66cff7ac-7cbd-4e0a-9bcc-f3e132e5b155","system_id":"levelo_inurba_marseille","lat":43.29695,"lon":5.38538,"is_reserved":false,"is_disabled":false,"rental_uris":{"android":"levelo://app?vid=66cff7ac-7cbd-4e0a-9bcc-f3e132e5b155","ios":"levelo://app?vid=66cff7ac-7cbd-4e0a-9bcc-f3e132e5b155"},"vehicle_type_id":"4","last_reported":1760703644,"current_range_meters":3600,"station_id":"","pricing_plan_id":"cebpf4jnsgd1na2vs0mg"},{"bike_id":"df032c9b-e8b7-44fe-ae94-f1e8a5e36ff8","system_id":"levelo_inurba_marseille","lat":43.2619,"lon":5.37931,"is_reserved":false,"is_disabled":false,"rental_uris":{"android":"levelo://app?vid=df032c9b-e8b7-44fe-ae94-f1e8a5e36ff8","ios":"levelo://app?vid=df032c9b-e8b7-44fe-ae94-f1e8a5e36ff8"},"vehicle_type_id":"4","last_reported":1760703644,"current_range_meters":3600,"station_id":"ce4bhjp2rcd13ifvqg90","pricing_plan_id":"cebpf4jnsgd1na2vs0mg"},{"bike_id":"f0622547-115c-4aab-a330-c8c9f80dea9e","system_id":"levelo_inurba_marseille","lat":43.280781,"lon":5.352331,"is_reserved":false,"is_disabled":false,"rental_uris":{"android":"levelo://app?vid=f0622547-115c-4aab-a330-c8c9f80dea9e","ios":"levelo://app?vid=f0622547-115c-4aab-a330-c8c9f80dea9e"},"vehicle_type_id":"4","last_reported":1760703644,"current_range_meters":3600,"station_id":"","pricing_plan_id":"cebpf4jnsgd1na2vs0mg"},{"bike_id":"d92ccac3-9488-410c-9ab0-bd0aafb7d6e8","system_id":"levelo_inurba_marseille","lat":43.318832,"lon":5.407418,"is_reserved":false,"is_disabled":false,"rental_uris":{"android":"levelo://app?vid=d92ccac3-9488-410c-9ab0-bd0aafb7d6e8","ios":"levelo://app?vid=d92ccac3-9488-410c-9ab0-bd0aafb7d6e8"},"vehicle_type_id":"4","last_reported":1760703644,"current_range_meters":4000,"station_id":"ce4bhq12rcd13ifvqhig","pricing_plan_id":"cebpf4jnsgd1na2vs0mg"},{"bike_id":"b0e3fac0-2cba-43db-8a27-05393f9977ec","system_id":"levelo_inurba_marseille","lat":43.297242,"lon":5.373265,"is_reserved":false,"is_disabled":false,"rental_uris":{"android":"levelo://app?vid=b0e3fac0-2cba-43db-8a27-05393f9977ec","ios":"levelo://app?vid=b0e3fac0-2cba-43db-8a27-05393f9977ec"},"vehicle_type_id":"4","last_reported":1760703644,"current_range_meters":4000,"station_id":"","pricing_plan_id":"cebpf4jnsgd1na2vs0mg"},{"bike_id":"1163a622-2040-485b-8c45-da564238b1b0","system_id":"levelo_inurba_marseille","lat":43.307373,"lon":5.395666,"is_reserved":false,"is_disabled":false,"rental_uris":{"android":"levelo://app?vid=1163a622-2040-485b-8c45-da564238b1b0","ios":"levelo://app?vid=1163a622-2040-485b-8c45-da564238b1b0"},"vehicle_type_id":"4","last_reported":1760703644,"current_range_meters":4000,"station_id":"ce4bh012rcd13ifvqcv0","pricing_plan_id":"cebpf4jnsgd1na2vs0mg"},{"bike_id":"c10806ec-6d45-481a-ae58-b2aac1e05e16","system_id":"levelo_inurba_marseille","lat":43.233689,"lon":5.404947,"is_reserved":false,"is_disabled":false,"rental_uris":{"android":"levelo://app?vid=c10806ec-6d45-481a-ae58-b2aac1e05e16","ios":"levelo://app?vid=c10806ec-6d45-481a-ae58-b2aac1e05e16"},"vehicle_type_id":"4","last_reported":1760703644,"current_range_meters":4000,"station_id":"","pricing_plan_id":"cebpf4jnsgd1na2vs0mg"},{"bike_id":"afd3a141-6f64-4928-ba91-fca21b7af038","system_id":"levelo_inurba_marseille","lat":43.29582,"lon":5.36422,"is_reserved":false,"is_disabled":false,"rental_uris":{"android":"levelo://app?vid=afd3a141-6f64-4928-ba91-fca21b7af038","ios":"levelo://app?vid=afd3a141-6f64-4928-ba91-fca21b7af038"},"vehicle_type_id":"4","last_reported":1760703644,"current_range_meters":4400,"station_id":"","pricing_plan_id":"cebpf4jnsgd1na2vs0mg"},{"bike_id":"c369603a-5a12-4018-82a7-7b87181ebcab","system_id":"levelo_inurba_marseille","lat":43.243875,"lon":5.370601,"is_reserved":false,"is_disabled":false,"rental_uris":{"android":"levelo://app?vid=c369603a-5a12-4018-82a7-7b87181ebcab","ios":"levelo://app?vid=c369603a-5a12-4018-82a7-7b87181ebcab"},"vehicle_type_id":"4","last_reported":1760703644,"current_range_meters":4400,"station_id":"","pricing_plan_id":"cebpf4jnsgd1na2vs0mg"},{"bike_id":"75e671d2-4d08-44c0-80b4-b9a63d2638d8","system_id":"levelo_inurba_marseille","lat":43.21752,"lon":5.34599,"is_reserved":false,"is_disabled":false,"rental_uris":{"android":"levelo://app?vid=75e671d2-4d08-44c0-80b4-b9a63d2638d8","ios":"levelo://app?vid=75e671d2-4d08-44c0-80b4-b9a63d2638d8"},"vehicle_type_id":"4","last_reported":1760703644,"current_range_meters":4400,"station_id":"st_cvj6r9ubvosntc0bgbag","pricing_plan_id":"cebpf4jnsgd1na2vs0mg"},{"bike_id":"2a49e1ef-9708-4370-befb-0363b064ae91","system_id":"levelo_inurba_marseille","lat":43.32471,"lon":5.36561,"is_reserved":false,"is_disabled":false,"rental_uris":{"android":"levelo://app?vid=2a49e1ef-9708-4370-befb-0363b064ae91","ios":"levelo://app?vid=2a49e1ef-9708-4370-befb-0363b064ae91"},"vehicle_type_id":"4","last_reported":1760703644,"current_range_meters":4800,"station_id":"ce4bhs12rcd13ifvqhvg","pricing_plan_id":"cebpf4jnsgd1na2vs0mg"},{"bike_id":"16da8b64-b43e-4e82-8e0e-27ff48766e57","system_id":"levelo_inurba_marseille","lat":43.27497,"lon":5.42445,"is_reserved":false,"is_disabled":false,"rental_uris":{"android":"levelo://app?vid=16da8b64-b43e-4e82-8e0e-27ff48766e57","ios":"levelo://app?vid=16da8b64-b43e-4e82-8e0e-27ff48766e57"},"vehicle_type_id":"4","last_reported":1760703644,"current_range_meters":4800,"station_id":"ce4bhn92rcd13ifvqgrg","pricing_plan_id":"cebpf4jnsgd1na2vs0mg"},{"bike_id":"ecd9150a-82d1-439a-8ac1-0ab83b979277","system_id":"levelo_inurba_marseille","lat":43.30797,"lon":5.43501,"is_reserved":false,"is_disabled":true,"rental_uris":{"android":"levelo://app?vid=ecd9150a-82d1-439a-8ac1-0ab83b979277","ios":"levelo://app?vid=ecd9150a-82d1-439a-8ac1-0ab83b979277"},"vehicle_type_id":"4","last_reported":1760703644,"current_range_meters":4800,"station_id":"ce4bhph2rcd13ifvqheg","pricing_plan_id":"cebpf4jnsgd1na2vs0mg"},{"bike_id":"6d02532e-4cb4-4048-bfac-6338972aaf99","system_id":"levelo_inurba_marseille","lat":43.343354,"lon":5.349967,"is_reserved":false,"is_disabled":false,"rental_uris":{"android":"levelo://app?vid=6d02532e-4cb4-4048-bfac-6338972aaf99","ios":"levelo://app?vid=6d02532e-4cb4-4048-bfac-6338972aaf99"},"vehicle_type_id":"4","last_reported":1760703644,"current_range_meters":5600,"station_id":"","pricing_plan_id":"cebpf4jnsgd1na2vs0mg"},{"bike_id":"5d85323e-0683-4d7a-ba6a-82f3145b78cf","system_id":"levelo_inurba_marseille","lat":43.30305,"lon":5.36902,"is_reserved":false,"is_disabled":false,"rental_uris":{"android":"levelo://app?vid=5d85323e-0683-4d7a-ba6a-82f3145b78cf","ios":"levelo://app?vid=5d85323e-0683-4d7a-ba6a-82f3145b78cf"},"vehicle_type_id":"4","last_reported":1760703644,"current_range_meters":5600,"station_id":"ce4bgqh2rcd13ifvqc5g","pricing_plan_id":"cebpf4jnsgd1na2vs0mg"},{"bike_id":"c36740b6-07fe-4b1d-b97b-d5b701193fb0","system_id":"levelo_inurba_marseille","lat":43.28924,"lon":5.38395,"is_reserved":false,"is_disabled":false,"rental_uris":{"android":"levelo://app?vid=c36740b6-07fe-4b1d-b97b-d5b701193fb0","ios":"levelo://app?vid=c36740b6-07fe-4b1d-b97b-d5b701193fb0"},"vehicle_type_id":"4","last_reported":1760703644,"current_range_meters":5600,"station_id":"ce4bh612rcd13ifvqe6g","pricing_plan_id":"cebpf4jnsgd1na2vs0mg"},{"bike_id":"f2803738-f971-40a1-a9b3-e1f00d433d88","system_id":"levelo_inurba_marseille","lat":43.336065,"lon":5.410375,"is_reserved":false,"is_disabled":false,"rental_uris":{"android":"levelo://app?vid=f2803738-f971-40a1-a9b3-e1f00d433d88","ios":"levelo://app?vid=f2803738-f971-40a1-a9b3-e1f00d433d88"},"vehicle_type_id":"4","last_reported":1760703644,"current_range_meters":5600,"station_id":"ce4bhqh2rcd13ifvqhmg","pricing_plan_id":"cebpf4jnsgd1na2vs0mg"},{"bike_id":"a794a8d7-b0f4-4816-9567-10e9d8cf2529","system_id":"levelo_inurba_marseille","lat":43.27347,"lon":5.39091,"is_reserved":false,"is_disabled":false,"rental_uris":{"android":"levelo://app?vid=a794a8d7-b0f4-4816-9567-10e9d8cf2529","ios":"levelo://app?vid=a794a8d7-b0f4-4816-9567-10e9d8cf2529"},"vehicle_type_id":"4","last_reported":1760703644,"current_range_meters":6000,"station_id":"","pricing_plan_id":"cebpf4jnsgd1na2vs0mg"},{"bike_id":"fededad1-5dc4-400f-aedc-7e7a9abe8b2b","system_id":"levelo_inurba_marseille","lat":43.30467,"lon":5.379,"is_reserved":false,"is_disabled":false,"rental_uris":{"android":"levelo://app?vid=fededad1-5dc4-400f-aedc-7e7a9abe8b2b","ios":"levelo://app?vid=fededad1-5dc4-400f-aedc-7e7a9abe8b2b"},"vehicle_type_id":"4","last_reported":1760703644,"current_range_meters":6000,"station_id":"ce4bgup2rcd13ifvqcn0","pricing_plan_id":"cebpf4jnsgd1na2vs0mg"},{"bike_id":"61330094-8123-4912-a8ac-025c8eac06e5","system_id":"levelo_inurba_marseille","lat":43.26567,"lon":5.39007,"is_reserved":false,"is_disabled":false,"rental_uris":{"android":"levelo://app?vid=61330094-8123-4912-a8ac-025c8eac06e5","ios":"levelo://app?vid=61330094-8123-4912-a8ac-025c8eac06e5"},"vehicle_type_id":"4","last_reported":1760703644,"current_range_meters":6000,"station_id":"ce4bhe12rcd13ifvqf30","pricing_plan_id":"cebpf4jnsgd1na2vs0mg"},{"bike_id":"4d70dc5d-59e3-447e-806f-f5982615252f","system_id":"levelo_inurba_marseille","lat":43.30219,"lon":5.39461,"is_reserved":false,"is_disabled":false,"rental_uris":{"android":"levelo://app?vid=4d70dc5d-59e3-447e-806f-f5982615252f","ios":"levelo://app?vid=4d70dc5d-59e3-447e-806f-f5982615252f"},"vehicle_type_id":"4","last_reported":1760703644,"current_range_meters":6000,"station_id":"ce4bh0p2rcd13ifvqd70","pricing_plan_id":"cebpf4jnsgd1na2vs0mg"},{"bike_id":"d09d085d-3b0b-46a2-b9b4-3804b6b66c63","system_id":"levelo_inurba_marseille","lat":43.317572,"lon":5.39018,"is_reserved":false,"is_disabled":false,"rental_uris":{"android":"levelo://app?vid=d09d085d-3b0b-46a2-b9b4-3804b6b66c63","ios":"levelo://app?vid=d09d085d-3b0b-46a2-b9b4-3804b6b66c63"},"vehicle_type_id":"4","last_reported":1760703644,"current_range_meters":6000,"station_id":"ce4bhqp2rcd13ifvqhng","pricing_plan_id":"cebpf4jnsgd1na2vs0mg"},{"bike_id":"de9e19bc-b9ca-4d47-80aa-ea19df98d7f3","system_id":"levelo_inurba_marseille","lat":43.30125,"lon":5.39857,"is_reserved":false,"is_disabled":false,"rental_uris":{"android":"levelo://app?vid=de9e19bc-b9ca-4d47-80aa-ea19df98d7f3","ios":"levelo://app?vid=de9e19bc-b9ca-4d47-80aa-ea19df98d7f3"},"vehicle_type_id":"4","last_reported":1760703644,"current_range_meters":6000,"station_id":"ce4bh0h2rcd13ifvqd40","pricing_plan_id":"cebpf4jnsgd1na2vs0mg"},{"bike_id":"26687b80-a95a-4b9e-92ba-141845af93e9","system_id":"levelo_inurba_marseille","lat":43.23192,"lon":5.3554,"is_reserved":false,"is_disabled":false,"rental_uris":{"android":"levelo://app?vid=26687b80-a95a-4b9e-92ba-141845af93e9","ios":"levelo://app?vid=26687b80-a95a-4b9e-92ba-141845af93e9"},"vehicle_type_id":"4","last_reported":1760703644,"current_range_meters":6000,"station_id":"ce4bhu92rcd13ifvqi70","pricing_plan_id":"cebpf4jnsgd1na2vs0mg"},{"bike_id":"b3410386-4ee8-47e6-8d2a-b02720b0c0c9","system_id":"levelo_inurba_marseille","lat":43.284802,"lon":5.379012,"is_reserved":false,"is_disabled":false,"rental_uris":{"android":"levelo://app?vid=b3410386-4ee8-47e6-8d2a-b02720b0c0c9","ios":"levelo://app?vid=b3410386-4ee8-47e6-8d2a-b02720b0c0c9"},"vehicle_type_id":"4","last_reported":1760703644,"current_range_meters":6000,"station_id":"","pricing_plan_id":"cebpf4jnsgd1na2vs0mg"},{"bike_id":"eb091316-8f4f-460f-ae89-5cb4862a9128","system_id":"levelo_inurba_marseille","lat":43.311623,"lon":5.387244,"is_reserved":false,"is_disabled":false,"rental_uris":{"android":"levelo://app?vid=eb091316-8f4f-460f-ae89-5cb4862a9128","ios":"levelo://app?vid=eb091316-8f4f-460f-ae89-5cb4862a9128"},"vehicle_type_id":"4","last_reported":1760703644,"current_range_meters":6400,"station_id":"ce4bgv12rcd13ifvqcp0","pricing_plan_id":"cebpf4jnsgd1na2vs0mg"},{"bike_id":"c8dadaf0-734d-427c-a1b5-6c7b9c161286","system_id":"levelo_inurba_marseille","lat":43.30131,"lon":5.37431,"is_reserved":false,"is_disabled":false,"rental_uris":{"android":"levelo://app?vid=c8dadaf0-734d-427c-a1b5-6c7b9c161286","ios":"levelo://app?vid=c8dadaf0-734d-427c-a1b5-6c7b9c161286"},"vehicle_type_id":"4","last_reported":1760703644,"current_range_meters":6400,"station_id":"ce4bgs92rcd13ifvqcc0","pricing_plan_id":"cebpf4jnsgd1na2vs0mg"},{"bike_id":"93493692-5209-4d9b-bc6c-07a358efb784","system_id":"levelo_inurba_marseille","lat":43.28264,"lon":5.3507,"is_reserved":false,"is_disabled":false,"rental_uris":{"android":"levelo://app?vid=93493692-5209-4d9b-bc6c-07a358efb784","ios":"levelo://app?vid=93493692-5209-4d9b-bc6c-07a358efb784"},"vehicle_type_id":"4","last_reported":1760703644,"current_range_meters":6400,"station_id":"ce4bhbp2rcd13ifvqerg","pricing_plan_id":"cebpf4jnsgd1na2vs0mg"},{"bike_id":"65c6f49f-6301-4c9d-8ef8-cef98d2e78ad","system_id":"levelo_inurba_marseille","lat":43.274975,"lon":5.424502,"is_reserved":false,"is_disabled":false,"rental_uris":{"android":"levelo://app?vid=65c6f49f-6301-4c9d-8ef8-cef98d2e78ad","ios":"levelo://app?vid=65c6f49f-6301-4c9d-8ef8-cef98d2e78ad"},"vehicle_type_id":"4","last_reported":1760703644,"current_range_meters":6400,"station_id":"ce4bhn92rcd13ifvqgrg","pricing_plan_id":"cebpf4jnsgd1na2vs0mg"},{"bike_id":"d68b41be-366f-40d7-a414-434cfe0517a5","system_id":"levelo_inurba_marseille","lat":43.31769,"lon":5.42216,"is_reserved":false,"is_disabled":false,"rental_uris":{"android":"levelo://app?vid=d68b41be-366f-40d7-a414-434cfe0517a5","ios":"levelo://app?vid=d68b41be-366f-40d7-a414-434cfe0517a5"},"vehicle_type_id":"4","last_reported":1760703644,"current_range_meters":6400,"station_id":"","pricing_plan_id":"cebpf4jnsgd1na2vs0mg"},{"bike_id":"3d58f4f6-e248-42a5-83d8-b3907d4259fd","system_id":"levelo_inurba_marseille","lat":43.26557,"lon":5.3728,"is_reserved":false,"is_disabled":false,"rental_uris":{"android":"levelo://app?vid=3d58f4f6-e248-42a5-83d8-b3907d4259fd","ios":"levelo://app?vid=3d58f4f6-e248-42a5-83d8-b3907d4259fd"},"vehicle_type_id":"4","last_reported":1760703644,"current_range_meters":6400,"station_id":"ce4bhg12rcd13ifvqf70","pricing_plan_id":"cebpf4jnsgd1na2vs0mg"},{"bike_id":"d288d349-0f61-41f2-be44-6dc988c78308","system_id":"levelo_inurba_marseille","lat":43.30297,"lon":5.39229,"is_reserved":false,"is_disabled":false,"rental_uris":{"android":"levelo://app?vid=d288d349-0f61-41f2-be44-6dc988c78308","ios":"levelo://app?vid=d288d349-0f61-41f2-be44-6dc988c78308"},"vehicle_type_id":"4","last_reported":1760703644,"current_range_meters":6400,"station_id":"ce4bgkh2rcd13ifvqbk0","pricing_plan_id":"cebpf4jnsgd1na2vs0mg"},{"bike_id":"1ed051dc-08c1-44ea-b6dd-ac4fd2d0b314","system_id":"levelo_inurba_marseille","lat":43.29928,"lon":5.37459,"is_reserved":false,"is_disabled":false,"rental_uris":{"android":"levelo://app?vid=1ed051dc-08c1-44ea-b6dd-ac4fd2d0b314","ios":"levelo://app?vid=1ed051dc-08c1-44ea-b6dd-ac4fd2d0b314"},"vehicle_type_id":"4","last_reported":1760703644,"current_range_meters":6400,"station_id":"ce4bgjh2rcd13ifvqbg0","pricing_plan_id":"cebpf4jnsgd1na2vs0mg"},{"bike_id":"b20b5f0e-6f28-4147-b283-e55eec601197","system_id":"levelo_inurba_marseille","lat":43.29374,"lon":5.37855,"is_reserved":false,"is_disabled":false,"rental_uris":{"android":"levelo://app?vid=b20b5f0e-6f28-4147-b283-e55eec601197","ios":"levelo://app?vid=b20b5f0e-6f28-4147-b283-e55eec601197"},"vehicle_type_id":"4","last_reported":1760703644,"current_range_meters":6400,"station_id":"ce4bgjh2rcd13ifvqbf0","pricing_plan_id":"cebpf4jnsgd1na2vs0mg"},{"bike_id":"08a6c464-0d5e-43a8-a20a-d249a624fcad","system_id":"levelo_inurba_marseille","lat":43.29913,"lon":5.37468,"is_reserved":false,"is_disabled":false,"rental_uris":{"android":"levelo://app?vid=08a6c464-0d5e-43a8-a20a-d249a624fcad","ios":"levelo://app?vid=08a6c464-0d5e-43a8-a20a-d249a624fcad"},"vehicle_type_id":"4","last_reported":1760703644,"current_range_meters":6400,"station_id":"ce4bgjh2rcd13ifvqbg0","pricing_plan_id":"cebpf4jnsgd1na2vs0mg"},{"bike_id":"22924f23-4e42-4ed0-9082-21f2dac47f4c","system_id":"levelo_inurba_marseille","lat":43.237766,"lon":5.366279,"is_reserved":false,"is_disabled":false,"rental_uris":{"android":"levelo://app?vid=22924f23-4e42-4ed0-9082-21f2dac47f4c","ios":"levelo://app?vid=22924f23-4e42-4ed0-9082-21f2dac47f4c"},"vehicle_type_id":"4","last_reported":1760703644,"current_range_meters":6400,"station_id":"st_d3nk18o9ro0c73en2l3g","pricing_plan_id":"cebpf4jnsgd1na2vs0mg"},{"bike_id":"d8e9b8f7-08e2-4408-ba5a-bf3e71307936","system_id":"levelo_inurba_marseille","lat":43.21191,"lon":5.35074,"is_reserved":false,"is_disabled":false,"rental_uris":{"android":"levelo://app?vid=d8e9b8f7-08e2-4408-ba5a-bf3e71307936","ios":"levelo://app?vid=d8e9b8f7-08e2-4408-ba5a-bf3e71307936"},"vehicle_type_id":"4","last_reported":1760703644,"current_range_meters":6800,"station_id":"st_cvj6sg6p6f1abm77japg","pricing_plan_id":"cebpf4jnsgd1na2vs0mg"},{"bike_id":"efc7c3f6-af78-454d-88ad-a2864aafa849","system_id":"levelo_inurba_marseille","lat":43.27052,"lon":5.4026,"is_reserved":false,"is_disabled":false,"rental_uris":{"android":"levelo://app?vid=efc7c3f6-af78-454d-88ad-a2864aafa849","ios":"levelo://app?vid=efc7c3f6-af78-454d-88ad-a2864aafa849"},"vehicle_type_id":"4","last_reported":1760703644,"current_range_meters":6800,"station_id":"ce4bhk92rcd13ifvqgc0","pricing_plan_id":"cebpf4jnsgd1na2vs0mg"},{"bike_id":"9219760c-9e46-4459-87ea-e552a1e8de9a","system_id":"levelo_inurba_marseille","lat":43.29276,"lon":5.36849,"is_reserved":false,"is_disabled":false,"rental_uris":{"android":"levelo://app?vid=9219760c-9e46-4459-87ea-e552a1e8de9a","ios":"levelo://app?vid=9219760c-9e46-4459-87ea-e552a1e8de9a"},"vehicle_type_id":"4","last_reported":1760703644,"current_range_meters":6800,"station_id":"ce4bhbp2rcd13ifvqesg","pricing_plan_id":"cebpf4jnsgd1na2vs0mg"},{"bike_id":"7856590a-1572-412a-918e-77843d1b598a","system_id":"levelo_inurba_marseille","lat":43.28084,"lon":5.42165,"is_reserved":false,"is_disabled":false,"rental_uris":{"android":"levelo://app?vid=7856590a-1572-412a-918e-77843d1b598a","ios":"levelo://app?vid=7856590a-1572-412a-918e-77843d1b598a"},"vehicle_type_id":"4","last_reported":1760703644,"current_range_meters":6800,"station_id":"","pricing_plan_id":"cebpf4jnsgd1na2vs0mg"},{"bike_id":"7a63795d-d6ae-4db3-866d-c16b2af002f1","system_id":"levelo_inurba_marseille","lat":43.29974,"lon":5.3753,"is_reserved":false,"is_disabled":false,"rental_uris":{"android":"levelo://app?vid=7a63795d-d6ae-4db3-866d-c16b2af002f1","ios":"levelo://app?vid=7a63795d-d6ae-4db3-866d-c16b2af002f1"},"vehicle_type_id":"4","last_reported":1760703644,"current_range_meters":6800,"station_id":"","pricing_plan_id":"cebpf4jnsgd1na2vs0mg"},{"bike_id":"29ac481a-32eb-4fff-a35c-2495a9f006c1","system_id":"levelo_inurba_marseille","lat":43.28613,"lon":5.351,"is_reserved":false,"is_disabled":false,"rental_uris":{"android":"levelo://app?vid=29ac481a-32eb-4fff-a35c-2495a9f006c1","ios":"levelo://app?vid=29ac481a-32eb-4fff-a35c-2495a9f006c1"},"vehicle_type_id":"4","last_reported":1760703644,"current_range_meters":6800,"station_id":"ce4bhch2rcd13ifvqeug","pricing_plan_id":"cebpf4jnsgd1na2vs0mg"},{"bike_id":"7e444206-20cf-47e2-a819-82c6ab3d59a7","system_id":"levelo_inurba_marseille","lat":43.332083,"lon":5.398623,"is_reserved":false,"is_disabled":false,"rental_uris":{"android":"levelo://app?vid=7e444206-20cf-47e2-a819-82c6ab3d59a7","ios":"levelo://app?vid=7e444206-20cf-47e2-a819-82c6ab3d59a7"},"vehicle_type_id":"4","last_reported":1760703644,"current_range_meters":6800,"station_id":"","pricing_plan_id":"cebpf4jnsgd1na2vs0mg"},{"bike_id":"662e034f-ec92-417c-a838-68762f3020bc","system_id":"levelo_inurba_marseille","lat":43.30656,"lon":5.36736,"is_reserved":false,"is_disabled":false,"rental_uris":{"android":"levelo://app?vid=662e034f-ec92-417c-a838-68762f3020bc","ios":"levelo://app?vid=662e034f-ec92-417c-a838-68762f3020bc"},"vehicle_type_id":"4","last_reported":1760703644,"current_range_meters":6800,"station_id":"","pricing_plan_id":"cebpf4jnsgd1na2vs0mg"},{"bike_id":"9eae30da-c094-469b-a6c5-d90920aefd1a","system_id":"levelo_inurba_marseille","lat":43.28837,"lon":5.35862,"is_reserved":false,"is_disabled":false,"rental_uris":{"android":"levelo://app?vid=9eae30da-c094-469b-a6c5-d90920aefd1a","ios":"levelo://app?vid=9eae30da-c094-469b-a6c5-d90920aefd1a"},"vehicle_type_id":"4","last_reported":1760703644,"current_range_meters":6800,"station_id":"ce4bhb12rcd13ifvqem0","pricing_plan_id":"cebpf4jnsgd1na2vs0mg"},{"bike_id":"1dc3768d-0b4e-4859-817c-5a4ee299d7ad","system_id":"levelo_inurba_marseille","lat":43.297082,"lon":5.378973,"is_reserved":false,"is_disabled":false,"rental_uris":{"android":"levelo://app?vid=1dc3768d-0b4e-4859-817c-5a4ee299d7ad","ios":"levelo://app?vid=1dc3768d-0b4e-4859-817c-5a4ee299d7ad"},"vehicle_type_id":"4","last_reported":1760703644,"current_range_meters":6800,"station_id":"","pricing_plan_id":"cebpf4jnsgd1na2vs0mg"},{"bike_id":"d48683cf-8ad5-40be-a547-026fd935a239","system_id":"levelo_inurba_marseille","lat":43.2175,"lon":5.34607,"is_reserved":false,"is_disabled":false,"rental_uris":{"android":"levelo://app?vid=d48683cf-8ad5-40be-a547-026fd935a239","ios":"levelo://app?vid=d48683cf-8ad5-40be-a547-026fd935a239"},"vehicle_type_id":"4","last_reported":1760703644,"current_range_meters":7200,"station_id":"st_cvj6r9ubvosntc0bgbag","pricing_plan_id":"cebpf4jnsgd1na2vs0mg"},{"bike_id":"39310a13-acc8-4fa2-bf86-5a30d760c5c5","system_id":"levelo_inurba_marseille","lat":43.26681,"lon":5.38266,"is_reserved":false,"is_disabled":false,"rental_uris":{"android":"levelo://app?vid=39310a13-acc8-4fa2-bf86-5a30d760c5c5","ios":"levelo://app?vid=39310a13-acc8-4fa2-bf86-5a30d760c5c5"},"vehicle_type_id":"4","last_reported":1760703644,"current_range_meters":7200,"station_id":"ce4bhg92rcd13ifvqf90","pricing_plan_id":"cebpf4jnsgd1na2vs0mg"},{"bike_id":"b983902f-f574-460a-9229-53c275da120d","system_id":"levelo_inurba_marseille","lat":43.2827,"lon":5.35064,"is_reserved":false,"is_disabled":false,"rental_uris":{"android":"levelo://app?vid=b983902f-f574-460a-9229-53c275da120d","ios":"levelo://app?vid=b983902f-f574-460a-9229-53c275da120d"},"vehicle_type_id":"4","last_reported":1760703644,"current_range_meters":7200,"station_id":"ce4bhbp2rcd13ifvqerg","pricing_plan_id":"cebpf4jnsgd1na2vs0mg"},{"bike_id":"25e3c87d-e41e-4886-83c1-fab5f2c48172","system_id":"levelo_inurba_marseille","lat":43.31978,"lon":5.38163,"is_reserved":false,"is_disabled":false,"rental_uris":{"android":"levelo://app?vid=25e3c87d-e41e-4886-83c1-fab5f2c48172","ios":"levelo://app?vid=25e3c87d-e41e-4886-83c1-fab5f2c48172"},"vehicle_type_id":"4","last_reported":1760703644,"current_range_meters":7200,"station_id":"ce4bhr12rcd13ifvqhpg","pricing_plan_id":"cebpf4jnsgd1na2vs0mg"},{"bike_id":"24f9a65b-9ad6-410b-a96c-3e91d7c611b3","system_id":"levelo_inurba_marseille","lat":43.29704,"lon":5.36614,"is_reserved":false,"is_disabled":false,"rental_uris":{"android":"levelo://app?vid=24f9a65b-9ad6-410b-a96c-3e91d7c611b3","ios":"levelo://app?vid=24f9a65b-9ad6-410b-a96c-3e91d7c611b3"},"vehicle_type_id":"4","last_reported":1760703644,"current_range_meters":7200,"station_id":"ce4bgn12rcd13ifvqbt0","pricing_plan_id":"cebpf4jnsgd1na2vs0mg"},{"bike_id":"a8638883-10e4-44db-b2b6-4b3d792bb4e7","system_id":"levelo_inurba_marseille","lat":43.28355,"lon":5.38098,"is_reserved":false,"is_disabled":false,"rental_uris":{"android":"levelo://app?vid=a8638883-10e4-44db-b2b6-4b3d792bb4e7","ios":"levelo://app?vid=a8638883-10e4-44db-b2b6-4b3d792bb4e7"},"vehicle_type_id":"4","last_reported":1760703644,"current_range_meters":7200,"station_id":"ce4bh412rcd13ifvqdr0","pricing_plan_id":"cebpf4jnsgd1na2vs0mg"},{"bike_id":"af96e380-ef8b-412e-8dbe-07ad526806b5","system_id":"levelo_inurba_marseille","lat":43.337444,"lon":5.374475,"is_reserved":false,"is_disabled":false,"rental_uris":{"android":"levelo://app?vid=af96e380-ef8b-412e-8dbe-07ad526806b5","ios":"levelo://app?vid=af96e380-ef8b-412e-8dbe-07ad526806b5"},"vehicle_type_id":"4","last_reported":1760703644,"current_range_meters":8000,"station_id":"","pricing_plan_id":"cebpf4jnsgd1na2vs0mg"},{"bike_id":"6cc943e4-a46f-4134-b890-1f375ce40fa4","system_id":"levelo_inurba_marseille","lat":43.24168,"lon":5.364,"is_reserved":false,"is_disabled":false,"rental_uris":{"android":"levelo://app?vid=6cc943e4-a46f-4134-b890-1f375ce40fa4","ios":"levelo://app?vid=6cc943e4-a46f-4134-b890-1f375ce40fa4"},"vehicle_type_id":"4","last_reported":1760703644,"current_range_meters":8000,"station_id":"cpo36qri1sfpv3e86is0","pricing_plan_id":"cebpf4jnsgd1na2vs0mg"},{"bike_id":"28af0ddc-5ab4-446c-b820-f5d229303864","system_id":"levelo_inurba_marseille","lat":43.26787,"lon":5.39422,"is_reserved":false,"is_disabled":false,"rental_uris":{"android":"levelo://app?vid=28af0ddc-5ab4-446c-b820-f5d229303864","ios":"levelo://app?vid=28af0ddc-5ab4-446c-b820-f5d229303864"},"vehicle_type_id":"4","last_reported":1760703644,"current_range_meters":8000,"station_id":"ce4bhh12rcd13ifvqfg0","pricing_plan_id":"cebpf4jnsgd1na2vs0mg"},{"bike_id":"ece720a4-f83e-4a1d-8dd5-7a50bdaa6076","system_id":"levelo_inurba_marseille","lat":43.231834,"lon":5.400067,"is_reserved":false,"is_disabled":false,"rental_uris":{"android":"levelo://app?vid=ece720a4-f83e-4a1d-8dd5-7a50bdaa6076","ios":"levelo://app?vid=ece720a4-f83e-4a1d-8dd5-7a50bdaa6076"},"vehicle_type_id":"4","last_reported":1760703644,"current_range_meters":8000,"station_id":"ce4bhn12rcd13ifvqgqg","pricing_plan_id":"cebpf4jnsgd1na2vs0mg"},{"bike_id":"e2247172-65d0-4604-8bd4-3e6f4aeb0715","system_id":"levelo_inurba_marseille","lat":43.29489,"lon":5.43313,"is_reserved":false,"is_disabled":false,"rental_uris":{"android":"levelo://app?vid=e2247172-65d0-4604-8bd4-3e6f4aeb0715","ios":"levelo://app?vid=e2247172-65d0-4604-8bd4-3e6f4aeb0715"},"vehicle_type_id":"4","last_reported":1760703644,"current_range_meters":8000,"station_id":"st_d3j5ugp08ojc73fj9d10","pricing_plan_id":"cebpf4jnsgd1na2vs0mg"},{"bike_id":"1e39bd64-46a0-43c3-8087-d9bb5e37a5f0","system_id":"levelo_inurba_marseille","lat":43.23064,"lon":5.35494,"is_reserved":false,"is_disabled":false,"rental_uris":{"android":"levelo://app?vid=1e39bd64-46a0-43c3-8087-d9bb5e37a5f0","ios":"levelo://app?vid=1e39bd64-46a0-43c3-8087-d9bb5e37a5f0"},"vehicle_type_id":"4","last_reported":1760703644,"current_range_meters":8400,"station_id":"cpo3342slgdg3j2ifvpg","pricing_plan_id":"cebpf4jnsgd1na2vs0mg"},{"bike_id":"1b60b3d8-0444-4e87-8dd5-24f973703503","system_id":"levelo_inurba_marseille","lat":43.25087,"lon":5.39525,"is_reserved":false,"is_disabled":false,"rental_uris":{"android":"levelo://app?vid=1b60b3d8-0444-4e87-8dd5-24f973703503","ios":"levelo://app?vid=1b60b3d8-0444-4e87-8dd5-24f973703503"},"vehicle_type_id":"4","last_reported":1760703644,"current_range_meters":8400,"station_id":"ce4bhm12rcd13ifvqgkg","pricing_plan_id":"cebpf4jnsgd1na2vs0mg"},{"bike_id":"47b6a661-48b8-461f-9827-f48295e67bbf","system_id":"levelo_inurba_marseille","lat":43.26308,"lon":5.398,"is_reserved":false,"is_disabled":false,"rental_uris":{"android":"levelo://app?vid=47b6a661-48b8-461f-9827-f48295e67bbf","ios":"levelo://app?vid=47b6a661-48b8-461f-9827-f48295e67bbf"},"vehicle_type_id":"4","last_reported":1760703644,"current_range_meters":8400,"station_id":"","pricing_plan_id":"cebpf4jnsgd1na2vs0mg"},{"bike_id":"89ac1ba5-ded0-4126-82b3-c72899810a1c","system_id":"levelo_inurba_marseille","lat":43.2966,"lon":5.37654,"is_reserved":false,"is_disabled":false,"rental_uris":{"android":"levelo://app?vid=89ac1ba5-ded0-4126-82b3-c72899810a1c","ios":"levelo://app?vid=89ac1ba5-ded0-4126-82b3-c72899810a1c"},"vehicle_type_id":"4","last_reported":1760703644,"current_range_meters":8400,"station_id":"","pricing_plan_id":"cebpf4jnsgd1na2vs0mg"},{"bike_id":"dc7c42fc-daab-4fee-ad89-30c5c8ba8a3e","system_id":"levelo_inurba_marseille","lat":43.23156,"lon":5.43768,"is_reserved":false,"is_disabled":false,"rental_uris":{"android":"levelo://app?vid=dc7c42fc-daab-4fee-ad89-30c5c8ba8a3e","ios":"levelo://app?vid=dc7c42fc-daab-4fee-ad89-30c5c8ba8a3e"},"vehicle_type_id":"4","last_reported":1760703644,"current_range_meters":8400,"station_id":"ce4bhmp2rcd13ifvqgog","pricing_plan_id":"cebpf4jnsgd1na2vs0mg"},{"bike_id":"c871ca87-9ea0-4c82-8f96-1d74fe568265","system_id":"levelo_inurba_marseille","lat":43.285712,"lon":5.414756,"is_reserved":false,"is_disabled":false,"rental_uris":{"android":"levelo://app?vid=c871ca87-9ea0-4c82-8f96-1d74fe568265","ios":"levelo://app?vid=c871ca87-9ea0-4c82-8f96-1d74fe568265"},"vehicle_type_id":"4","last_reported":1760703644,"current_range_meters":8400,"station_id":"","pricing_plan_id":"cebpf4jnsgd1na2vs0mg"},{"bike_id":"bfa26025-a98b-4980-9597-5cecc42743db","system_id":"levelo_inurba_marseille","lat":43.286504,"lon":5.363421,"is_reserved":false,"is_disabled":false,"rental_uris":{"android":"levelo://app?vid=bfa26025-a98b-4980-9597-5cecc42743db","ios":"levelo://app?vid=bfa26025-a98b-4980-9597-5cecc42743db"},"vehicle_type_id":"4","last_reported":1760703644,"current_range_meters":8400,"station_id":"ce4bhah2rcd13ifvqej0","pricing_plan_id":"cebpf4jnsgd1na2vs0mg"},{"bike_id":"46a1230c-8019-4afa-8cde-0aa21c91ab75","system_id":"levelo_inurba_marseille","lat":43.27066,"lon":5.42295,"is_reserved":false,"is_disabled":false,"rental_uris":{"android":"levelo://app?vid=46a1230c-8019-4afa-8cde-0aa21c91ab75","ios":"levelo://app?vid=46a1230c-8019-4afa-8cde-0aa21c91ab75"},"vehicle_type_id":"4","last_reported":1760703644,"current_range_meters":8400,"station_id":"ce4bhk92rcd13ifvqgb0","pricing_plan_id":"cebpf4jnsgd1na2vs0mg"},{"bike_id":"faca92bb-e6d5-4a2e-abbe-49db0e93fb9e","system_id":"levelo_inurba_marseille","lat":43.30258,"lon":5.40074,"is_reserved":false,"is_disabled":false,"rental_uris":{"android":"levelo://app?vid=faca92bb-e6d5-4a2e-abbe-49db0e93fb9e","ios":"levelo://app?vid=faca92bb-e6d5-4a2e-abbe-49db0e93fb9e"},"vehicle_type_id":"4","last_reported":1760703644,"current_range_meters":8800,"station_id":"ce4bgvh2rcd13ifvqcs0","pricing_plan_id":"cebpf4jnsgd1na2vs0mg"},{"bike_id":"121f55c8-5a85-4142-a96c-bf52eb873442","system_id":"levelo_inurba_marseille","lat":43.304696,"lon":5.369136,"is_reserved":false,"is_disabled":false,"rental_uris":{"android":"levelo://app?vid=121f55c8-5a85-4142-a96c-bf52eb873442","ios":"levelo://app?vid=121f55c8-5a85-4142-a96c-bf52eb873442"},"vehicle_type_id":"4","last_reported":1760703644,"current_range_meters":8800,"station_id":"","pricing_plan_id":"cebpf4jnsgd1na2vs0mg"},{"bike_id":"0670def4-b15a-4c00-8829-0cd906a61bcb","system_id":"levelo_inurba_marseille","lat":43.33791,"lon":5.37426,"is_reserved":false,"is_disabled":false,"rental_uris":{"android":"levelo://app?vid=0670def4-b15a-4c00-8829-0cd906a61bcb","ios":"levelo://app?vid=0670def4-b15a-4c00-8829-0cd906a61bcb"},"vehicle_type_id":"4","last_reported":1760703644,"current_range_meters":8800,"station_id":"","pricing_plan_id":"cebpf4jnsgd1na2vs0mg"},{"bike_id":"a4911cc1-6afe-40a3-ba0e-f16af3882d45","system_id":"levelo_inurba_marseille","lat":43.21743,"lon":5.34619,"is_reserved":false,"is_disabled":false,"rental_uris":{"android":"levelo://app?vid=a4911cc1-6afe-40a3-ba0e-f16af3882d45","ios":"levelo://app?vid=a4911cc1-6afe-40a3-ba0e-f16af3882d45"},"vehicle_type_id":"4","last_reported":1760703644,"current_range_meters":8800,"station_id":"","pricing_plan_id":"cebpf4jnsgd1na2vs0mg"},{"bike_id":"41585c30-6fed-42a6-a6c5-1b099ccfe2a5","system_id":"levelo_inurba_marseille","lat":43.23053,"lon":5.35485,"is_reserved":false,"is_disabled":false,"rental_uris":{"android":"levelo://app?vid=41585c30-6fed-42a6-a6c5-1b099ccfe2a5","ios":"levelo://app?vid=41585c30-6fed-42a6-a6c5-1b099ccfe2a5"},"vehicle_type_id":"4","last_reported":1760703644,"current_range_meters":8800,"station_id":"cpo3342slgdg3j2ifvpg","pricing_plan_id":"cebpf4jnsgd1na2vs0mg"},{"bike_id":"cb12ac95-b112-40d8-8b7d-06759435ef6f","system_id":"levelo_inurba_marseille","lat":43.29936,"lon":5.37483,"is_reserved":false,"is_disabled":false,"rental_uris":{"android":"levelo://app?vid=cb12ac95-b112-40d8-8b7d-06759435ef6f","ios":"levelo://app?vid=cb12ac95-b112-40d8-8b7d-06759435ef6f"},"vehicle_type_id":"4","last_reported":1760703644,"current_range_meters":8800,"station_id":"ce4bgjh2rcd13ifvqbg0","pricing_plan_id":"cebpf4jnsgd1na2vs0mg"},{"bike_id":"b857c921-038f-4cbf-951f-055e73ecda15","system_id":"levelo_inurba_marseille","lat":43.303224,"lon":5.404361,"is_reserved":false,"is_disabled":false,"rental_uris":{"android":"levelo://app?vid=b857c921-038f-4cbf-951f-055e73ecda15","ios":"levelo://app?vid=b857c921-038f-4cbf-951f-055e73ecda15"},"vehicle_type_id":"4","last_reported":1760703644,"current_range_meters":8800,"station_id":"ce4bh012rcd13ifvqd10","pricing_plan_id":"cebpf4jnsgd1na2vs0mg"},{"bike_id":"3224fb62-f99b-4323-b19e-fa1b81600838","system_id":"levelo_inurba_marseille","lat":43.24386,"lon":5.37064,"is_reserved":false,"is_disabled":false,"rental_uris":{"android":"levelo://app?vid=3224fb62-f99b-4323-b19e-fa1b81600838","ios":"levelo://app?vid=3224fb62-f99b-4323-b19e-fa1b81600838"},"vehicle_type_id":"4","last_reported":1760703644,"current_range_meters":8800,"station_id":"ce4bhhh2rcd13ifvqfk0","pricing_plan_id":"cebpf4jnsgd1na2vs0mg"},{"bike_id":"dc0ff5be-37dc-4f17-94f7-617e1dea91d0","system_id":"levelo_inurba_marseille","lat":43.28406,"lon":5.37512,"is_reserved":false,"is_disabled":false,"rental_uris":{"android":"levelo://app?vid=dc0ff5be-37dc-4f17-94f7-617e1dea91d0","ios":"levelo://app?vid=dc0ff5be-37dc-4f17-94f7-617e1dea91d0"},"vehicle_type_id":"4","last_reported":1760703644,"current_range_meters":9200,"station_id":"ce4bh412rcd13ifvqds0","pricing_plan_id":"cebpf4jnsgd1na2vs0mg"},{"bike_id":"6096b53b-5bbd-4277-b64b-327e8ce15f73","system_id":"levelo_inurba_marseille","lat":43.30256,"lon":5.40082,"is_reserved":false,"is_disabled":false,"rental_uris":{"android":"levelo://app?vid=6096b53b-5bbd-4277-b64b-327e8ce15f73","ios":"levelo://app?vid=6096b53b-5bbd-4277-b64b-327e8ce15f73"},"vehicle_type_id":"4","last_reported":1760703644,"current_range_meters":9200,"station_id":"ce4bgvh2rcd13ifvqcs0","pricing_plan_id":"cebpf4jnsgd1na2vs0mg"},{"bike_id":"6657c5f8-c5b3-4ebf-bc71-6b64f7a84991","system_id":"levelo_inurba_marseille","lat":43.26946,"lon":5.4024,"is_reserved":false,"is_disabled":false,"rental_uris":{"android":"levelo://app?vid=6657c5f8-c5b3-4ebf-bc71-6b64f7a84991","ios":"levelo://app?vid=6657c5f8-c5b3-4ebf-bc71-6b64f7a84991"},"vehicle_type_id":"4","last_reported":1760703644,"current_range_meters":9200,"station_id":"cjm6bp8fraef2m0cb0m0","pricing_plan_id":"cebpf4jnsgd1na2vs0mg"},{"bike_id":"ec30f1a9-9dab-48b3-9944-77ecbd55f045","system_id":"levelo_inurba_marseille","lat":43.290324,"lon":5.359023,"is_reserved":false,"is_disabled":false,"rental_uris":{"android":"levelo://app?vid=ec30f1a9-9dab-48b3-9944-77ecbd55f045","ios":"levelo://app?vid=ec30f1a9-9dab-48b3-9944-77ecbd55f045"},"vehicle_type_id":"4","last_reported":1760703644,"current_range_meters":9200,"station_id":"ce4bha92rcd13ifvqeg0","pricing_plan_id":"cebpf4jnsgd1na2vs0mg"},{"bike_id":"1dd00463-9880-497b-a661-4c4a5d0944bd","system_id":"levelo_inurba_marseille","lat":43.289772,"lon":5.378346,"is_reserved":false,"is_disabled":false,"rental_uris":{"android":"levelo://app?vid=1dd00463-9880-497b-a661-4c4a5d0944bd","ios":"levelo://app?vid=1dd00463-9880-497b-a661-4c4a5d0944bd"},"vehicle_type_id":"4","last_reported":1760703644,"current_range_meters":9200,"station_id":"ce4bh9p2rcd13ifvqed0","pricing_plan_id":"cebpf4jnsgd1na2vs0mg"},{"bike_id":"079aa9c4-2079-4917-879c-826979d04de7","system_id":"levelo_inurba_marseille","lat":43.336023,"lon":5.41034,"is_reserved":false,"is_disabled":false,"rental_uris":{"android":"levelo://app?vid=079aa9c4-2079-4917-879c-826979d04de7","ios":"levelo://app?vid=079aa9c4-2079-4917-879c-826979d04de7"},"vehicle_type_id":"4","last_reported":1760703644,"current_range_meters":9200,"station_id":"ce4bhqh2rcd13ifvqhmg","pricing_plan_id":"cebpf4jnsgd1na2vs0mg"},{"bike_id":"d222e4c1-8b75-4697-ba81-75a11105c67c","system_id":"levelo_inurba_marseille","lat":43.284862,"lon":5.384122,"is_reserved":false,"is_disabled":false,"rental_uris":{"android":"levelo://app?vid=d222e4c1-8b75-4697-ba81-75a11105c67c","ios":"levelo://app?vid=d222e4c1-8b75-4697-ba81-75a11105c67c"},"vehicle_type_id":"4","last_reported":1760703644,"current_range_meters":9600,"station_id":"ce4bh512rcd13ifvqe3g","pricing_plan_id":"cebpf4jnsgd1na2vs0mg"},{"bike_id":"e257a5c9-b99e-4af1-ac4f-b017f1c8b418","system_id":"levelo_inurba_marseille","lat":43.33759,"lon":5.37438,"is_reserved":false,"is_disabled":false,"rental_uris":{"android":"levelo://app?vid=e257a5c9-b99e-4af1-ac4f-b017f1c8b418","ios":"levelo://app?vid=e257a5c9-b99e-4af1-ac4f-b017f1c8b418"},"vehicle_type_id":"4","last_reported":1760703644,"current_range_meters":9600,"station_id":"","pricing_plan_id":"cebpf4jnsgd1na2vs0mg"},{"bike_id":"245a030c-0c43-41f8-a4cc-088d55252b06","system_id":"levelo_inurba_marseille","lat":43.244753,"lon":5.369285,"is_reserved":false,"is_disabled":false,"rental_uris":{"android":"levelo://app?vid=245a030c-0c43-41f8-a4cc-088d55252b06","ios":"levelo://app?vid=245a030c-0c43-41f8-a4cc-088d55252b06"},"vehicle_type_id":"4","last_reported":1760703644,"current_range_meters":9600,"station_id":"","pricing_plan_id":"cebpf4jnsgd1na2vs0mg"},{"bike_id":"3a07c406-61d5-445b-9305-871d95af1ab2","system_id":"levelo_inurba_marseille","lat":43.26223,"lon":5.40445,"is_reserved":false,"is_disabled":false,"rental_uris":{"android":"levelo://app?vid=3a07c406-61d5-445b-9305-871d95af1ab2","ios":"levelo://app?vid=3a07c406-61d5-445b-9305-871d95af1ab2"},"vehicle_type_id":"4","last_reported":1760703644,"current_range_meters":9600,"station_id":"ce4bhmh2rcd13ifvqgmg","pricing_plan_id":"cebpf4jnsgd1na2vs0mg"},{"bike_id":"23bba21c-7074-4ec4-866c-a3c83da58b62","system_id":"levelo_inurba_marseille","lat":43.31992,"lon":5.3816,"is_reserved":false,"is_disabled":false,"rental_uris":{"android":"levelo://app?vid=23bba21c-7074-4ec4-866c-a3c83da58b62","ios":"levelo://app?vid=23bba21c-7074-4ec4-866c-a3c83da58b62"},"vehicle_type_id":"4","last_reported":1760703644,"current_range_meters":9600,"station_id":"ce4bhr12rcd13ifvqhpg","pricing_plan_id":"cebpf4jnsgd1na2vs0mg"},{"bike_id":"51aad731-a698-4957-a9b0-912e5e7e7dae","system_id":"levelo_inurba_marseille","lat":43.29372,"lon":5.37873,"is_reserved":false,"is_disabled":false,"rental_uris":{"android":"levelo://app?vid=51aad731-a698-4957-a9b0-912e5e7e7dae","ios":"levelo://app?vid=51aad731-a698-4957-a9b0-912e5e7e7dae"},"vehicle_type_id":"4","last_reported":1760703644,"current_range_meters":9600,"station_id":"ce4bgjh2rcd13ifvqbf0","pricing_plan_id":"cebpf4jnsgd1na2vs0mg"},{"bike_id":"33337add-7262-4041-83e3-0fac81a5b737","system_id":"levelo_inurba_marseille","lat":43.23149,"lon":5.43719,"is_reserved":false,"is_disabled":false,"rental_uris":{"android":"levelo://app?vid=33337add-7262-4041-83e3-0fac81a5b737","ios":"levelo://app?vid=33337add-7262-4041-83e3-0fac81a5b737"},"vehicle_type_id":"4","last_reported":1760703644,"current_range_meters":10000,"station_id":"ce4bhmp2rcd13ifvqgog","pricing_plan_id":"cebpf4jnsgd1na2vs0mg"},{"bike_id":"2a5498ee-d604-476f-a7c3-7260eebaa7f3","system_id":"levelo_inurba_marseille","lat":43.29571,"lon":5.37426,"is_reserved":false,"is_disabled":false,"rental_uris":{"android":"levelo://app?vid=2a5498ee-d604-476f-a7c3-7260eebaa7f3","ios":"levelo://app?vid=2a5498ee-d604-476f-a7c3-7260eebaa7f3"},"vehicle_type_id":"4","last_reported":1760703644,"current_range_meters":10000,"station_id":"","pricing_plan_id":"cebpf4jnsgd1na2vs0mg"},{"bike_id":"da61d492-ed3e-49c7-b57c-197e72dbabe0","system_id":"levelo_inurba_marseille","lat":43.29919,"lon":5.37475,"is_reserved":false,"is_disabled":false,"rental_uris":{"android":"levelo://app?vid=da61d492-ed3e-49c7-b57c-197e72dbabe0","ios":"levelo://app?vid=da61d492-ed3e-49c7-b57c-197e72dbabe0"},"vehicle_type_id":"4","last_reported":1760703644,"current_range_meters":10000,"station_id":"ce4bgjh2rcd13ifvqbg0","pricing_plan_id":"cebpf4jnsgd1na2vs0mg"},{"bike_id":"9392b340-d171-48a7-acd2-ca0348810f4c","system_id":"levelo_inurba_marseille","lat":43.265184,"lon":5.380139,"is_reserved":false,"is_disabled":false,"rental_uris":{"android":"levelo://app?vid=9392b340-d171-48a7-acd2-ca0348810f4c","ios":"levelo://app?vid=9392b340-d171-48a7-acd2-ca0348810f4c"},"vehicle_type_id":"4","last_reported":1760703644,"current_range_meters":10000,"station_id":"","pricing_plan_id":"cebpf4jnsgd1na2vs0mg"},{"bike_id":"80564ba1-bb0b-4059-ad2e-15b829de27ae","system_id":"levelo_inurba_marseille","lat":43.30929,"lon":5.40144,"is_reserved":false,"is_disabled":false,"rental_uris":{"android":"levelo://app?vid=80564ba1-bb0b-4059-ad2e-15b829de27ae","ios":"levelo://app?vid=80564ba1-bb0b-4059-ad2e-15b829de27ae"},"vehicle_type_id":"4","last_reported":1760703644,"current_range_meters":10000,"station_id":"ce4bgvp2rcd13ifvqct0","pricing_plan_id":"cebpf4jnsgd1na2vs0mg"},{"bike_id":"d6b15573-cd77-48d0-b51e-1a1c100c9dc6","system_id":"levelo_inurba_marseille","lat":43.28716,"lon":5.37938,"is_reserved":false,"is_disabled":false,"rental_uris":{"android":"levelo://app?vid=d6b15573-cd77-48d0-b51e-1a1c100c9dc6","ios":"levelo://app?vid=d6b15573-cd77-48d0-b51e-1a1c100c9dc6"},"vehicle_type_id":"4","last_reported":1760703644,"current_range_meters":10000,"station_id":"ce4bh9p2rcd13ifvqec0","pricing_plan_id":"cebpf4jnsgd1na2vs0mg"},{"bike_id":"85ab0621-f6e6-42af-92e1-8aeaa211f09c","system_id":"levelo_inurba_marseille","lat":43.308927,"lon":5.396598,"is_reserved":false,"is_disabled":false,"rental_uris":{"android":"levelo://app?vid=85ab0621-f6e6-42af-92e1-8aeaa211f09c","ios":"levelo://app?vid=85ab0621-f6e6-42af-92e1-8aeaa211f09c"},"vehicle_type_id":"4","last_reported":1760703644,"current_range_meters":10800,"station_id":"ce4bh012rcd13ifvqcv0","pricing_plan_id":"cebpf4jnsgd1na2vs0mg"},{"bike_id":"24d82d64-1145-442f-a9f5-19238b0b39ef","system_id":"levelo_inurba_marseille","lat":43.272133,"lon":5.391866,"is_reserved":false,"is_disabled":false,"rental_uris":{"android":"levelo://app?vid=24d82d64-1145-442f-a9f5-19238b0b39ef","ios":"levelo://app?vid=24d82d64-1145-442f-a9f5-19238b0b39ef"},"vehicle_type_id":"4","last_reported":1760703644,"current_range_meters":10800,"station_id":"","pricing_plan_id":"cebpf4jnsgd1na2vs0mg"},{"bike_id":"dab383d9-5a29-4adb-8071-d316ec5c38c6","system_id":"levelo_inurba_marseille","lat":43.31689,"lon":5.40466,"is_reserved":false,"is_disabled":false,"rental_uris":{"android":"levelo://app?vid=dab383d9-5a29-4adb-8071-d316ec5c38c6","ios":"levelo://app?vid=dab383d9-5a29-4adb-8071-d316ec5c38c6"},"vehicle_type_id":"4","last_reported":1760703644,"current_range_meters":10800,"station_id":"ce4bh012rcd13ifvqd00","pricing_plan_id":"cebpf4jnsgd1na2vs0mg"},{"bike_id":"e0ad904e-27e8-4aca-9e8d-1aed45caa754","system_id":"levelo_inurba_marseille","lat":43.28727,"lon":5.36103,"is_reserved":false,"is_disabled":false,"rental_uris":{"android":"levelo://app?vid=e0ad904e-27e8-4aca-9e8d-1aed45caa754","ios":"levelo://app?vid=e0ad904e-27e8-4aca-9e8d-1aed45caa754"},"vehicle_type_id":"4","last_reported":1760703644,"current_range_meters":10800,"station_id":"cki0cbj6b192h4jlfktg","pricing_plan_id":"cebpf4jnsgd1na2vs0mg"},{"bike_id":"08affebf-084d-432e-a6e8-eb79e690e134","system_id":"levelo_inurba_marseille","lat":43.297,"lon":5.36598,"is_reserved":false,"is_disabled":false,"rental_uris":{"android":"levelo://app?vid=08affebf-084d-432e-a6e8-eb79e690e134","ios":"levelo://app?vid=08affebf-084d-432e-a6e8-eb79e690e134"},"vehicle_type_id":"4","last_reported":1760703644,"current_range_meters":10800,"station_id":"ce4bgn12rcd13ifvqbt0","pricing_plan_id":"cebpf4jnsgd1na2vs0mg"},{"bike_id":"edc2b540-f4d1-424e-9002-80823ed0b6b2","system_id":"levelo_inurba_marseille","lat":43.28389,"lon":5.37065,"is_reserved":false,"is_disabled":false,"rental_uris":{"android":"levelo://app?vid=edc2b540-f4d1-424e-9002-80823ed0b6b2","ios":"levelo://app?vid=edc2b540-f4d1-424e-9002-80823ed0b6b2"},"vehicle_type_id":"4","last_reported":1760703644,"current_range_meters":10800,"station_id":"","pricing_plan_id":"cebpf4jnsgd1na2vs0mg"},{"bike_id":"7d165e7a-a8d2-464e-ae59-a0dc9111aac9","system_id":"levelo_inurba_marseille","lat":43.2893,"lon":5.38401,"is_reserved":false,"is_disabled":false,"rental_uris":{"android":"levelo://app?vid=7d165e7a-a8d2-464e-ae59-a0dc9111aac9","ios":"levelo://app?vid=7d165e7a-a8d2-464e-ae59-a0dc9111aac9"},"vehicle_type_id":"4","last_reported":1760703644,"current_range_meters":11200,"station_id":"ce4bh612rcd13ifvqe6g","pricing_plan_id":"cebpf4jnsgd1na2vs0mg"},{"bike_id":"4f064c49-ee17-482a-b557-1ea999a6dc7b","system_id":"levelo_inurba_marseille","lat":43.31529,"lon":5.38028,"is_reserved":false,"is_disabled":false,"rental_uris":{"android":"levelo://app?vid=4f064c49-ee17-482a-b557-1ea999a6dc7b","ios":"levelo://app?vid=4f064c49-ee17-482a-b557-1ea999a6dc7b"},"vehicle_type_id":"4","last_reported":1760703644,"current_range_meters":11200,"station_id":"ce4bhsp2rcd13ifvqi50","pricing_plan_id":"cebpf4jnsgd1na2vs0mg"},{"bike_id":"3b50069e-91ef-42df-b795-33884340c6f0","system_id":"levelo_inurba_marseille","lat":43.279877,"lon":5.416671,"is_reserved":false,"is_disabled":false,"rental_uris":{"android":"levelo://app?vid=3b50069e-91ef-42df-b795-33884340c6f0","ios":"levelo://app?vid=3b50069e-91ef-42df-b795-33884340c6f0"},"vehicle_type_id":"4","last_reported":1760703644,"current_range_meters":11200,"station_id":"ce4bho12rcd13ifvqh1g","pricing_plan_id":"cebpf4jnsgd1na2vs0mg"},{"bike_id":"2b52f9e4-f536-42de-a8cd-86b7b54a6021","system_id":"levelo_inurba_marseille","lat":43.24167,"lon":5.36399,"is_reserved":false,"is_disabled":false,"rental_uris":{"android":"levelo://app?vid=2b52f9e4-f536-42de-a8cd-86b7b54a6021","ios":"levelo://app?vid=2b52f9e4-f536-42de-a8cd-86b7b54a6021"},"vehicle_type_id":"4","last_reported":1760703644,"current_range_meters":11200,"station_id":"cpo36qri1sfpv3e86is0","pricing_plan_id":"cebpf4jnsgd1na2vs0mg"},{"bike_id":"416f580b-31c7-4ade-8604-dbd86eb8155f","system_id":"levelo_inurba_marseille","lat":43.281677,"lon":5.421252,"is_reserved":false,"is_disabled":false,"rental_uris":{"android":"levelo://app?vid=416f580b-31c7-4ade-8604-dbd86eb8155f","ios":"levelo://app?vid=416f580b-31c7-4ade-8604-dbd86eb8155f"},"vehicle_type_id":"4","last_reported":1760703644,"current_range_meters":11200,"station_id":"","pricing_plan_id":"cebpf4jnsgd1na2vs0mg"},{"bike_id":"3b7bb43b-50a0-4f81-a52d-c2e816969e44","system_id":"levelo_inurba_marseille","lat":43.29706,"lon":5.366,"is_reserved":false,"is_disabled":false,"rental_uris":{"android":"levelo://app?vid=3b7bb43b-50a0-4f81-a52d-c2e816969e44","ios":"levelo://app?vid=3b7bb43b-50a0-4f81-a52d-c2e816969e44"},"vehicle_type_id":"4","last_reported":1760703644,"current_range_meters":11200,"station_id":"ce4bgn12rcd13ifvqbt0","pricing_plan_id":"cebpf4jnsgd1na2vs0mg"},{"bike_id":"1c3664f0-daa7-4fd0-a6d8-42680b262940","system_id":"levelo_inurba_marseille","lat":43.29942,"lon":5.37499,"is_reserved":false,"is_disabled":false,"rental_uris":{"android":"levelo://app?vid=1c3664f0-daa7-4fd0-a6d8-42680b262940","ios":"levelo://app?vid=1c3664f0-daa7-4fd0-a6d8-42680b262940"},"vehicle_type_id":"4","last_reported":1760703644,"current_range_meters":11200,"station_id":"ce4bgjh2rcd13ifvqbg0","pricing_plan_id":"cebpf4jnsgd1na2vs0mg"},{"bike_id":"9ee487ff-d518-40c2-88ba-f2dfa78d8632","system_id":"levelo_inurba_marseille","lat":43.28987,"lon":5.37845,"is_reserved":false,"is_disabled":false,"rental_uris":{"android":"levelo://app?vid=9ee487ff-d518-40c2-88ba-f2dfa78d8632","ios":"levelo://app?vid=9ee487ff-d518-40c2-88ba-f2dfa78d8632"},"vehicle_type_id":"4","last_reported":1760703644,"current_range_meters":11200,"station_id":"ce4bh9p2rcd13ifvqed0","pricing_plan_id":"cebpf4jnsgd1na2vs0mg"},{"bike_id":"ab8dbe06-49f3-423b-99b1-2274be7ed343","system_id":"levelo_inurba_marseille","lat":43.29931,"lon":5.37546,"is_reserved":false,"is_disabled":false,"rental_uris":{"android":"levelo://app?vid=ab8dbe06-49f3-423b-99b1-2274be7ed343","ios":"levelo://app?vid=ab8dbe06-49f3-423b-99b1-2274be7ed343"},"vehicle_type_id":"4","last_reported":1760703644,"current_range_meters":11200,"station_id":"","pricing_plan_id":"cebpf4jnsgd1na2vs0mg"},{"bike_id":"e71b6049-0273-45e6-9b9f-03844307b2eb","system_id":"levelo_inurba_marseille","lat":43.2174,"lon":5.34583,"is_reserved":false,"is_disabled":false,"rental_uris":{"android":"levelo://app?vid=e71b6049-0273-45e6-9b9f-03844307b2eb","ios":"levelo://app?vid=e71b6049-0273-45e6-9b9f-03844307b2eb"},"vehicle_type_id":"4","last_reported":1760703644,"current_range_meters":11600,"station_id":"","pricing_plan_id":"cebpf4jnsgd1na2vs0mg"},{"bike_id":"185c1a3f-c5d2-48b2-9711-88d27fe1553b","system_id":"levelo_inurba_marseille","lat":43.286901,"lon":5.399933,"is_reserved":false,"is_disabled":false,"rental_uris":{"android":"levelo://app?vid=185c1a3f-c5d2-48b2-9711-88d27fe1553b","ios":"levelo://app?vid=185c1a3f-c5d2-48b2-9711-88d27fe1553b"},"vehicle_type_id":"4","last_reported":1760703644,"current_range_meters":11600,"station_id":"ce4bho92rcd13ifvqh3g","pricing_plan_id":"cebpf4jnsgd1na2vs0mg"},{"bike_id":"d773d30e-aab0-4f9a-adf7-f408dd2af785","system_id":"levelo_inurba_marseille","lat":43.24294,"lon":5.37005,"is_reserved":false,"is_disabled":false,"rental_uris":{"android":"levelo://app?vid=d773d30e-aab0-4f9a-adf7-f408dd2af785","ios":"levelo://app?vid=d773d30e-aab0-4f9a-adf7-f408dd2af785"},"vehicle_type_id":"4","last_reported":1760703644,"current_range_meters":12000,"station_id":"ce4bhhh2rcd13ifvqfk0","pricing_plan_id":"cebpf4jnsgd1na2vs0mg"},{"bike_id":"cd466fdf-e08d-48b3-a360-ca8468ba225b","system_id":"levelo_inurba_marseille","lat":43.30147,"lon":5.39875,"is_reserved":false,"is_disabled":false,"rental_uris":{"android":"levelo://app?vid=cd466fdf-e08d-48b3-a360-ca8468ba225b","ios":"levelo://app?vid=cd466fdf-e08d-48b3-a360-ca8468ba225b"},"vehicle_type_id":"4","last_reported":1760703644,"current_range_meters":12000,"station_id":"ce4bh0h2rcd13ifvqd40","pricing_plan_id":"cebpf4jnsgd1na2vs0mg"},{"bike_id":"16222907-9112-4676-9fb5-6981d41ce45c","system_id":"levelo_inurba_marseille","lat":43.26676,"lon":5.38252,"is_reserved":false,"is_disabled":false,"rental_uris":{"android":"levelo://app?vid=16222907-9112-4676-9fb5-6981d41ce45c","ios":"levelo://app?vid=16222907-9112-4676-9fb5-6981d41ce45c"},"vehicle_type_id":"4","last_reported":1760703644,"current_range_meters":12000,"station_id":"ce4bhg92rcd13ifvqf90","pricing_plan_id":"cebpf4jnsgd1na2vs0mg"},{"bike_id":"9fa809f4-01da-4e3c-a73b-92335b631c04","system_id":"levelo_inurba_marseille","lat":43.285315,"lon":5.405593,"is_reserved":false,"is_disabled":false,"rental_uris":{"android":"levelo://app?vid=9fa809f4-01da-4e3c-a73b-92335b631c04","ios":"levelo://app?vid=9fa809f4-01da-4e3c-a73b-92335b631c04"},"vehicle_type_id":"4","last_reported":1760703644,"current_range_meters":12000,"station_id":"","pricing_plan_id":"cebpf4jnsgd1na2vs0mg"},{"bike_id":"66743aff-aac4-4121-b166-4a30c1f5c6fe","system_id":"levelo_inurba_marseille","lat":43.2657,"lon":5.38993,"is_reserved":false,"is_disabled":false,"rental_uris":{"android":"levelo://app?vid=66743aff-aac4-4121-b166-4a30c1f5c6fe","ios":"levelo://app?vid=66743aff-aac4-4121-b166-4a30c1f5c6fe"},"vehicle_type_id":"4","last_reported":1760703644,"current_range_meters":12000,"station_id":"ce4bhe12rcd13ifvqf30","pricing_plan_id":"cebpf4jnsgd1na2vs0mg"},{"bike_id":"5a784595-7429-4c57-9730-15e46db82d37","system_id":"levelo_inurba_marseille","lat":43.28468,"lon":5.35862,"is_reserved":false,"is_disabled":false,"rental_uris":{"android":"levelo://app?vid=5a784595-7429-4c57-9730-15e46db82d37","ios":"levelo://app?vid=5a784595-7429-4c57-9730-15e46db82d37"},"vehicle_type_id":"4","last_reported":1760703644,"current_range_meters":12000,"station_id":"ce4bhah2rcd13ifvqei0","pricing_plan_id":"cebpf4jnsgd1na2vs0mg"},{"bike_id":"fdc784f8-d2fd-40ec-9e60-dab278ff786b","system_id":"levelo_inurba_marseille","lat":43.280961,"lon":5.36889,"is_reserved":false,"is_disabled":false,"rental_uris":{"android":"levelo://app?vid=fdc784f8-d2fd-40ec-9e60-dab278ff786b","ios":"levelo://app?vid=fdc784f8-d2fd-40ec-9e60-dab278ff786b"},"vehicle_type_id":"4","last_reported":1760703644,"current_range_meters":12000,"station_id":"ce4bha12rcd13ifvqef0","pricing_plan_id":"cebpf4jnsgd1na2vs0mg"},{"bike_id":"5fe6e873-dba1-40dd-bc65-77de126f2710","system_id":"levelo_inurba_marseille","lat":43.332893,"lon":5.395256,"is_reserved":false,"is_disabled":false,"rental_uris":{"android":"levelo://app?vid=5fe6e873-dba1-40dd-bc65-77de126f2710","ios":"levelo://app?vid=5fe6e873-dba1-40dd-bc65-77de126f2710"},"vehicle_type_id":"4","last_reported":1760703644,"current_range_meters":12000,"station_id":"","pricing_plan_id":"cebpf4jnsgd1na2vs0mg"},{"bike_id":"39de4b62-4f98-490e-a2e0-e6f333187438","system_id":"levelo_inurba_marseille","lat":43.30427,"lon":5.3888,"is_reserved":false,"is_disabled":false,"rental_uris":{"android":"levelo://app?vid=39de4b62-4f98-490e-a2e0-e6f333187438","ios":"levelo://app?vid=39de4b62-4f98-490e-a2e0-e6f333187438"},"vehicle_type_id":"4","last_reported":1760703644,"current_range_meters":12000,"station_id":"ce4bgk12rcd13ifvqbi0","pricing_plan_id":"cebpf4jnsgd1na2vs0mg"},{"bike_id":"91779c76-337f-4bce-a75c-6dc1d71ccc44","system_id":"levelo_inurba_marseille","lat":43.29572,"lon":5.37517,"is_reserved":false,"is_disabled":false,"rental_uris":{"android":"levelo://app?vid=91779c76-337f-4bce-a75c-6dc1d71ccc44","ios":"levelo://app?vid=91779c76-337f-4bce-a75c-6dc1d71ccc44"},"vehicle_type_id":"4","last_reported":1760703644,"current_range_meters":12400,"station_id":"ce4bgh92rcd13ifvqb50","pricing_plan_id":"cebpf4jnsgd1na2vs0mg"},{"bike_id":"5e93c91f-b7cf-4a17-b483-2fba25a2cac0","system_id":"levelo_inurba_marseille","lat":43.24383,"lon":5.3705,"is_reserved":false,"is_disabled":false,"rental_uris":{"android":"levelo://app?vid=5e93c91f-b7cf-4a17-b483-2fba25a2cac0","ios":"levelo://app?vid=5e93c91f-b7cf-4a17-b483-2fba25a2cac0"},"vehicle_type_id":"4","last_reported":1760703644,"current_range_meters":12400,"station_id":"ce4bhhh2rcd13ifvqfk0","pricing_plan_id":"cebpf4jnsgd1na2vs0mg"},{"bike_id":"3610e64a-90c6-4c20-899c-22b725eb578d","system_id":"levelo_inurba_marseille","lat":43.31168,"lon":5.38722,"is_reserved":false,"is_disabled":false,"rental_uris":{"android":"levelo://app?vid=3610e64a-90c6-4c20-899c-22b725eb578d","ios":"levelo://app?vid=3610e64a-90c6-4c20-899c-22b725eb578d"},"vehicle_type_id":"4","last_reported":1760703644,"current_range_meters":12400,"station_id":"ce4bgv12rcd13ifvqcp0","pricing_plan_id":"cebpf4jnsgd1na2vs0mg"},{"bike_id":"b5d7b62c-b6ed-49d4-af08-ef79724913c5","system_id":"levelo_inurba_marseille","lat":43.25934,"lon":5.40911,"is_reserved":false,"is_disabled":false,"rental_uris":{"android":"levelo://app?vid=b5d7b62c-b6ed-49d4-af08-ef79724913c5","ios":"levelo://app?vid=b5d7b62c-b6ed-49d4-af08-ef79724913c5"},"vehicle_type_id":"4","last_reported":1760703644,"current_range_meters":12400,"station_id":"ce4bhm92rcd13ifvqglg","pricing_plan_id":"cebpf4jnsgd1na2vs0mg"},{"bike_id":"22dc6b48-f58d-4941-92ef-544176fd12a2","system_id":"levelo_inurba_marseille","lat":43.28528,"lon":5.441,"is_reserved":false,"is_disabled":false,"rental_uris":{"android":"levelo://app?vid=22dc6b48-f58d-4941-92ef-544176fd12a2","ios":"levelo://app?vid=22dc6b48-f58d-4941-92ef-544176fd12a2"},"vehicle_type_id":"4","last_reported":1760703644,"current_range_meters":12400,"station_id":"st_d3j3df2ikq2c7380ej80","pricing_plan_id":"cebpf4jnsgd1na2vs0mg"},{"bike_id":"7ff0d57e-c2ad-4d60-9cdd-924a41c2a125","system_id":"levelo_inurba_marseille","lat":43.244,"lon":5.37075,"is_reserved":false,"is_disabled":false,"rental_uris":{"android":"levelo://app?vid=7ff0d57e-c2ad-4d60-9cdd-924a41c2a125","ios":"levelo://app?vid=7ff0d57e-c2ad-4d60-9cdd-924a41c2a125"},"vehicle_type_id":"4","last_reported":1760703644,"current_range_meters":12400,"station_id":"ce4bhhh2rcd13ifvqfk0","pricing_plan_id":"cebpf4jnsgd1na2vs0mg"},{"bike_id":"675dec58-f027-42a9-8823-25f62cc4ae61","system_id":"levelo_inurba_marseille","lat":43.32048,"lon":5.41544,"is_reserved":false,"is_disabled":false,"rental_uris":{"android":"levelo://app?vid=675dec58-f027-42a9-8823-25f62cc4ae61","ios":"levelo://app?vid=675dec58-f027-42a9-8823-25f62cc4ae61"},"vehicle_type_id":"4","last_reported":1760703644,"current_range_meters":12400,"station_id":"ce4bhq92rcd13ifvqhkg","pricing_plan_id":"cebpf4jnsgd1na2vs0mg"},{"bike_id":"b80cc4c8-c170-404e-ab27-0dd7e15ff695","system_id":"levelo_inurba_marseille","lat":43.2962,"lon":5.37153,"is_reserved":false,"is_disabled":false,"rental_uris":{"android":"levelo://app?vid=b80cc4c8-c170-404e-ab27-0dd7e15ff695","ios":"levelo://app?vid=b80cc4c8-c170-404e-ab27-0dd7e15ff695"},"vehicle_type_id":"4","last_reported":1760703644,"current_range_meters":12400,"station_id":"ce4bgnh2rcd13ifvqc0g","pricing_plan_id":"cebpf4jnsgd1na2vs0mg"},{"bike_id":"71b92fa5-cf41-48eb-81c9-d18498037b27","system_id":"levelo_inurba_marseille","lat":43.295536,"lon":5.422977,"is_reserved":false,"is_disabled":false,"rental_uris":{"android":"levelo://app?vid=71b92fa5-cf41-48eb-81c9-d18498037b27","ios":"levelo://app?vid=71b92fa5-cf41-48eb-81c9-d18498037b27"},"vehicle_type_id":"4","last_reported":1760703644,"current_range_meters":12800,"station_id":"ce4bhph2rcd13ifvqhdg","pricing_plan_id":"cebpf4jnsgd1na2vs0mg"},{"bike_id":"c25a8a37-6395-4161-a858-99a577cc3e64","system_id":"levelo_inurba_marseille","lat":43.24805,"lon":5.374596,"is_reserved":false,"is_disabled":false,"rental_uris":{"android":"levelo://app?vid=c25a8a37-6395-4161-a858-99a577cc3e64","ios":"levelo://app?vid=c25a8a37-6395-4161-a858-99a577cc3e64"},"vehicle_type_id":"4","last_reported":1760703644,"current_range_meters":12800,"station_id":"ce4bhgh2rcd13ifvqfb0","pricing_plan_id":"cebpf4jnsgd1na2vs0mg"},{"bike_id":"51bfa75c-5b5a-40c0-9998-0be1f3f4c27d","system_id":"levelo_inurba_marseille","lat":43.23192,"lon":5.35553,"is_reserved":false,"is_disabled":false,"rental_uris":{"android":"levelo://app?vid=51bfa75c-5b5a-40c0-9998-0be1f3f4c27d","ios":"levelo://app?vid=51bfa75c-5b5a-40c0-9998-0be1f3f4c27d"},"vehicle_type_id":"4","last_reported":1760703644,"current_range_meters":12800,"station_id":"ce4bhu92rcd13ifvqi70","pricing_plan_id":"cebpf4jnsgd1na2vs0mg"},{"bike_id":"65b8384d-b81c-4c32-a69e-6fee7f0239d0","system_id":"levelo_inurba_marseille","lat":43.30732,"lon":5.42438,"is_reserved":false,"is_disabled":false,"rental_uris":{"android":"levelo://app?vid=65b8384d-b81c-4c32-a69e-6fee7f0239d0","ios":"levelo://app?vid=65b8384d-b81c-4c32-a69e-6fee7f0239d0"},"vehicle_type_id":"4","last_reported":1760703644,"current_range_meters":12800,"station_id":"st_cvj6ca6bvosntc0bfgr0","pricing_plan_id":"cebpf4jnsgd1na2vs0mg"},{"bike_id":"d7b84771-1a2a-475d-a1c3-f0517aa45c29","system_id":"levelo_inurba_marseille","lat":43.30273,"lon":5.37709,"is_reserved":false,"is_disabled":false,"rental_uris":{"android":"levelo://app?vid=d7b84771-1a2a-475d-a1c3-f0517aa45c29","ios":"levelo://app?vid=d7b84771-1a2a-475d-a1c3-f0517aa45c29"},"vehicle_type_id":"4","last_reported":1760703644,"current_range_meters":12800,"station_id":"ce4bguh2rcd13ifvqcj0","pricing_plan_id":"cebpf4jnsgd1na2vs0mg"},{"bike_id":"c4ed00de-3711-4102-92e5-72a600ff79ec","system_id":"levelo_inurba_marseille","lat":43.323601,"lon":5.367516,"is_reserved":false,"is_disabled":false,"rental_uris":{"android":"levelo://app?vid=c4ed00de-3711-4102-92e5-72a600ff79ec","ios":"levelo://app?vid=c4ed00de-3711-4102-92e5-72a600ff79ec"},"vehicle_type_id":"4","last_reported":1760703644,"current_range_meters":13600,"station_id":"ce4bhsh2rcd13ifvqi2g","pricing_plan_id":"cebpf4jnsgd1na2vs0mg"},{"bike_id":"88231688-b0d4-4add-b9d3-ba4527ac8655","system_id":"levelo_inurba_marseille","lat":43.30277,"lon":5.37726,"is_reserved":false,"is_disabled":false,"rental_uris":{"android":"levelo://app?vid=88231688-b0d4-4add-b9d3-ba4527ac8655","ios":"levelo://app?vid=88231688-b0d4-4add-b9d3-ba4527ac8655"},"vehicle_type_id":"4","last_reported":1760703644,"current_range_meters":13600,"station_id":"ce4bguh2rcd13ifvqcj0","pricing_plan_id":"cebpf4jnsgd1na2vs0mg"},{"bike_id":"94f60e57-4ea5-4506-9b0b-d49e351bbd01","system_id":"levelo_inurba_marseille","lat":43.29377,"lon":5.3832,"is_reserved":false,"is_disabled":false,"rental_uris":{"android":"levelo://app?vid=94f60e57-4ea5-4506-9b0b-d49e351bbd01","ios":"levelo://app?vid=94f60e57-4ea5-4506-9b0b-d49e351bbd01"},"vehicle_type_id":"4","last_reported":1760703644,"current_range_meters":13600,"station_id":"","pricing_plan_id":"cebpf4jnsgd1na2vs0mg"},{"bike_id":"ea883585-d0e4-4bcb-922c-57b2a3efdeac","system_id":"levelo_inurba_marseille","lat":43.30597,"lon":5.36664,"is_reserved":false,"is_disabled":false,"rental_uris":{"android":"levelo://app?vid=ea883585-d0e4-4bcb-922c-57b2a3efdeac","ios":"levelo://app?vid=ea883585-d0e4-4bcb-922c-57b2a3efdeac"},"vehicle_type_id":"4","last_reported":1760703644,"current_range_meters":13600,"station_id":"","pricing_plan_id":"cebpf4jnsgd1na2vs0mg"},{"bike_id":"7f69d274-1551-4453-81d7-d6f3c0e84c52","system_id":"levelo_inurba_marseille","lat":43.29926,"lon":5.37489,"is_reserved":false,"is_disabled":false,"rental_uris":{"android":"levelo://app?vid=7f69d274-1551-4453-81d7-d6f3c0e84c52","ios":"levelo://app?vid=7f69d274-1551-4453-81d7-d6f3c0e84c52"},"vehicle_type_id":"4","last_reported":1760703644,"current_range_meters":13600,"station_id":"ce4bgjh2rcd13ifvqbg0","pricing_plan_id":"cebpf4jnsgd1na2vs0mg"},{"bike_id":"c831ba79-d702-495f-9270-513c83e37981","system_id":"levelo_inurba_marseille","lat":43.255847,"lon":5.382412,"is_reserved":false,"is_disabled":false,"rental_uris":{"android":"levelo://app?vid=c831ba79-d702-495f-9270-513c83e37981","ios":"levelo://app?vid=c831ba79-d702-495f-9270-513c83e37981"},"vehicle_type_id":"4","last_reported":1760703644,"current_range_meters":13600,"station_id":"ce4bhih2rcd13ifvqfs0","pricing_plan_id":"cebpf4jnsgd1na2vs0mg"},{"bike_id":"3f90eab4-9a51-4aef-9948-b93c9accf44d","system_id":"levelo_inurba_marseille","lat":43.22565,"lon":5.41627,"is_reserved":false,"is_disabled":false,"rental_uris":{"android":"levelo://app?vid=3f90eab4-9a51-4aef-9948-b93c9accf44d","ios":"levelo://app?vid=3f90eab4-9a51-4aef-9948-b93c9accf44d"},"vehicle_type_id":"4","last_reported":1760703644,"current_range_meters":13600,"station_id":"st_d2o4gvlbi1j2169b742g","pricing_plan_id":"cebpf4jnsgd1na2vs0mg"},{"bike_id":"a817b630-bbed-48d3-97f4-9bd571b9ebab","system_id":"levelo_inurba_marseille","lat":43.30004,"lon":5.37347,"is_reserved":false,"is_disabled":false,"rental_uris":{"android":"levelo://app?vid=a817b630-bbed-48d3-97f4-9bd571b9ebab","ios":"levelo://app?vid=a817b630-bbed-48d3-97f4-9bd571b9ebab"},"vehicle_type_id":"4","last_reported":1760703644,"current_range_meters":13600,"station_id":"","pricing_plan_id":"cebpf4jnsgd1na2vs0mg"},{"bike_id":"2ed11edf-5de6-49b5-b292-1a5ce8c69893","system_id":"levelo_inurba_marseille","lat":43.21749,"lon":5.34607,"is_reserved":false,"is_disabled":false,"rental_uris":{"android":"levelo://app?vid=2ed11edf-5de6-49b5-b292-1a5ce8c69893","ios":"levelo://app?vid=2ed11edf-5de6-49b5-b292-1a5ce8c69893"},"vehicle_type_id":"4","last_reported":1760703644,"current_range_meters":13600,"station_id":"st_cvj6r9ubvosntc0bgbag","pricing_plan_id":"cebpf4jnsgd1na2vs0mg"},{"bike_id":"e7a0de45-e44b-47bf-aa95-71faaf613e41","system_id":"levelo_inurba_marseille","lat":43.29945,"lon":5.37464,"is_reserved":false,"is_disabled":false,"rental_uris":{"android":"levelo://app?vid=e7a0de45-e44b-47bf-aa95-71faaf613e41","ios":"levelo://app?vid=e7a0de45-e44b-47bf-aa95-71faaf613e41"},"vehicle_type_id":"4","last_reported":1760703644,"current_range_meters":13600,"station_id":"ce4bgjh2rcd13ifvqbg0","pricing_plan_id":"cebpf4jnsgd1na2vs0mg"},{"bike_id":"958bf9fd-6f24-4157-b531-cb8fbb6a2636","system_id":"levelo_inurba_marseille","lat":43.336,"lon":5.41028,"is_reserved":false,"is_disabled":false,"rental_uris":{"android":"levelo://app?vid=958bf9fd-6f24-4157-b531-cb8fbb6a2636","ios":"levelo://app?vid=958bf9fd-6f24-4157-b531-cb8fbb6a2636"},"vehicle_type_id":"4","last_reported":1760703644,"current_range_meters":13600,"station_id":"ce4bhqh2rcd13ifvqhmg","pricing_plan_id":"cebpf4jnsgd1na2vs0mg"},{"bike_id":"d924506a-65ca-46f4-b801-dbf00f66ef80","system_id":"levelo_inurba_marseille","lat":43.299222,"lon":5.374792,"is_reserved":false,"is_disabled":false,"rental_uris":{"android":"levelo://app?vid=d924506a-65ca-46f4-b801-dbf00f66ef80","ios":"levelo://app?vid=d924506a-65ca-46f4-b801-dbf00f66ef80"},"vehicle_type_id":"4","last_reported":1760703644,"current_range_meters":14000,"station_id":"ce4bgjh2rcd13ifvqbg0","pricing_plan_id":"cebpf4jnsgd1na2vs0mg"},{"bike_id":"626881a0-0569-42f2-89c2-6b3f7dac8850","system_id":"levelo_inurba_marseille","lat":43.29915,"lon":5.37468,"is_reserved":false,"is_disabled":false,"rental_uris":{"android":"levelo://app?vid=626881a0-0569-42f2-89c2-6b3f7dac8850","ios":"levelo://app?vid=626881a0-0569-42f2-89c2-6b3f7dac8850"},"vehicle_type_id":"4","last_reported":1760703644,"current_range_meters":14000,"station_id":"ce4bgjh2rcd13ifvqbg0","pricing_plan_id":"cebpf4jnsgd1na2vs0mg"},{"bike_id":"e47bb254-474d-4f1d-8b3a-15c2c572c76a","system_id":"levelo_inurba_marseille","lat":43.30136,"lon":5.37398,"is_reserved":false,"is_disabled":false,"rental_uris":{"android":"levelo://app?vid=e47bb254-474d-4f1d-8b3a-15c2c572c76a","ios":"levelo://app?vid=e47bb254-474d-4f1d-8b3a-15c2c572c76a"},"vehicle_type_id":"4","last_reported":1760703644,"current_range_meters":14000,"station_id":"ce4bgs92rcd13ifvqcc0","pricing_plan_id":"cebpf4jnsgd1na2vs0mg"},{"bike_id":"2a258544-7590-48f1-939f-4fa79e7b6924","system_id":"levelo_inurba_marseille","lat":43.29909,"lon":5.3749,"is_reserved":false,"is_disabled":false,"rental_uris":{"android":"levelo://app?vid=2a258544-7590-48f1-939f-4fa79e7b6924","ios":"levelo://app?vid=2a258544-7590-48f1-939f-4fa79e7b6924"},"vehicle_type_id":"4","last_reported":1760703644,"current_range_meters":14000,"station_id":"ce4bgjh2rcd13ifvqbg0","pricing_plan_id":"cebpf4jnsgd1na2vs0mg"},{"bike_id":"424f4935-98df-4229-88c5-d8f836201cec","system_id":"levelo_inurba_marseille","lat":43.231926,"lon":5.355491,"is_reserved":false,"is_disabled":true,"rental_uris":{"android":"levelo://app?vid=424f4935-98df-4229-88c5-d8f836201cec","ios":"levelo://app?vid=424f4935-98df-4229-88c5-d8f836201cec"},"vehicle_type_id":"4","last_reported":1760703644,"current_range_meters":14000,"station_id":"","pricing_plan_id":"cebpf4jnsgd1na2vs0mg"},{"bike_id":"2f427ffa-023f-4f18-948d-448a449d3df0","system_id":"levelo_inurba_marseille","lat":43.241691,"lon":5.364047,"is_reserved":false,"is_disabled":false,"rental_uris":{"android":"levelo://app?vid=2f427ffa-023f-4f18-948d-448a449d3df0","ios":"levelo://app?vid=2f427ffa-023f-4f18-948d-448a449d3df0"},"vehicle_type_id":"4","last_reported":1760703644,"current_range_meters":14000,"station_id":"cpo36qri1sfpv3e86is0","pricing_plan_id":"cebpf4jnsgd1na2vs0mg"},{"bike_id":"f4a9608d-2565-4c3c-abf1-93c4a164e349","system_id":"levelo_inurba_marseille","lat":43.34096,"lon":5.4085,"is_reserved":false,"is_disabled":false,"rental_uris":{"android":"levelo://app?vid=f4a9608d-2565-4c3c-abf1-93c4a164e349","ios":"levelo://app?vid=f4a9608d-2565-4c3c-abf1-93c4a164e349"},"vehicle_type_id":"4","last_reported":1760703644,"current_range_meters":14000,"station_id":"ce4bhqh2rcd13ifvqhlg","pricing_plan_id":"cebpf4jnsgd1na2vs0mg"},{"bike_id":"59ee4d43-eb61-4aed-a406-b083fa9d27d8","system_id":"levelo_inurba_marseille","lat":43.3107,"lon":5.38354,"is_reserved":false,"is_disabled":true,"rental_uris":{"android":"levelo://app?vid=59ee4d43-eb61-4aed-a406-b083fa9d27d8","ios":"levelo://app?vid=59ee4d43-eb61-4aed-a406-b083fa9d27d8"},"vehicle_type_id":"4","last_reported":1760703644,"current_range_meters":14000,"station_id":"ce4bgv92rcd13ifvqcr0","pricing_plan_id":"cebpf4jnsgd1na2vs0mg"},{"bike_id":"6f7278a2-1aaf-4605-b5ca-6a110846209f","system_id":"levelo_inurba_marseille","lat":43.29259,"lon":5.40912,"is_reserved":false,"is_disabled":false,"rental_uris":{"android":"levelo://app?vid=6f7278a2-1aaf-4605-b5ca-6a110846209f","ios":"levelo://app?vid=6f7278a2-1aaf-4605-b5ca-6a110846209f"},"vehicle_type_id":"4","last_reported":1760703644,"current_range_meters":14000,"station_id":"ce4bh192rcd13ifvqdc0","pricing_plan_id":"cebpf4jnsgd1na2vs0mg"},{"bike_id":"dbf248bd-0259-4f5b-b82c-7a8ca2e00bc3","system_id":"levelo_inurba_marseille","lat":43.2293,"lon":5.35375,"is_reserved":false,"is_disabled":false,"rental_uris":{"android":"levelo://app?vid=dbf248bd-0259-4f5b-b82c-7a8ca2e00bc3","ios":"levelo://app?vid=dbf248bd-0259-4f5b-b82c-7a8ca2e00bc3"},"vehicle_type_id":"4","last_reported":1760703644,"current_range_meters":14000,"station_id":"cpo3532slgdg3j2ikp40","pricing_plan_id":"cebpf4jnsgd1na2vs0mg"},{"bike_id":"bff17fbb-5fb2-46be-9af1-e9a5bbcc06c4","system_id":"levelo_inurba_marseille","lat":43.32657,"lon":5.40995,"is_reserved":false,"is_disabled":false,"rental_uris":{"android":"levelo://app?vid=bff17fbb-5fb2-46be-9af1-e9a5bbcc06c4","ios":"levelo://app?vid=bff17fbb-5fb2-46be-9af1-e9a5bbcc06c4"},"vehicle_type_id":"4","last_reported":1760703644,"current_range_meters":14000,"station_id":"ce4bhpp2rcd13ifvqhgg","pricing_plan_id":"cebpf4jnsgd1na2vs0mg"},{"bike_id":"a618d75f-c056-4d7b-8ccd-3fcd16a7d304","system_id":"levelo_inurba_marseille","lat":43.34146,"lon":5.409077,"is_reserved":false,"is_disabled":false,"rental_uris":{"android":"levelo://app?vid=a618d75f-c056-4d7b-8ccd-3fcd16a7d304","ios":"levelo://app?vid=a618d75f-c056-4d7b-8ccd-3fcd16a7d304"},"vehicle_type_id":"4","last_reported":1760703644,"current_range_meters":14000,"station_id":"cki0cbj6b192h4jlfktg","pricing_plan_id":"cebpf4jnsgd1na2vs0mg"},{"bike_id":"c4c8e762-8a26-4257-9d60-d747eb2d8508","system_id":"levelo_inurba_marseille","lat":43.331912,"lon":5.355877,"is_reserved":false,"is_disabled":false,"rental_uris":{"android":"levelo://app?vid=c4c8e762-8a26-4257-9d60-d747eb2d8508","ios":"levelo://app?vid=c4c8e762-8a26-4257-9d60-d747eb2d8508"},"vehicle_type_id":"4","last_reported":1760703644,"current_range_meters":14000,"station_id":"","pricing_plan_id":"cebpf4jnsgd1na2vs0mg"},{"bike_id":"efeed3e0-0d89-49c8-88ee-54fc372b67ef","system_id":"levelo_inurba_marseille","lat":43.274899,"lon":5.424529,"is_reserved":false,"is_disabled":true,"rental_uris":{"android":"levelo://app?vid=efeed3e0-0d89-49c8-88ee-54fc372b67ef","ios":"levelo://app?vid=efeed3e0-0d89-49c8-88ee-54fc372b67ef"},"vehicle_type_id":"4","last_reported":1760703644,"current_range_meters":14400,"station_id":"ce4bhn92rcd13ifvqgrg","pricing_plan_id":"cebpf4jnsgd1na2vs0mg"},{"bike_id":"ba2479bd-5a5a-46c2-83c3-00588f4cf74a","system_id":"levelo_inurba_marseille","lat":43.29762,"lon":5.36467,"is_reserved":false,"is_disabled":false,"rental_uris":{"android":"levelo://app?vid=ba2479bd-5a5a-46c2-83c3-00588f4cf74a","ios":"levelo://app?vid=ba2479bd-5a5a-46c2-83c3-00588f4cf74a"},"vehicle_type_id":"4","last_reported":1760703644,"current_range_meters":14400,"station_id":"","pricing_plan_id":"cebpf4jnsgd1na2vs0mg"},{"bike_id":"c5e45447-2956-450f-bd7e-88aaf308c04d","system_id":"levelo_inurba_marseille","lat":43.290012,"lon":5.365312,"is_reserved":false,"is_disabled":false,"rental_uris":{"android":"levelo://app?vid=c5e45447-2956-450f-bd7e-88aaf308c04d","ios":"levelo://app?vid=c5e45447-2956-450f-bd7e-88aaf308c04d"},"vehicle_type_id":"4","last_reported":1760703644,"current_range_meters":14400,"station_id":"","pricing_plan_id":"cebpf4jnsgd1na2vs0mg"},{"bike_id":"9c94a78f-af6c-473d-bbcc-62997f5eaf06","system_id":"levelo_inurba_marseille","lat":43.30433,"lon":5.38882,"is_reserved":false,"is_disabled":false,"rental_uris":{"android":"levelo://app?vid=9c94a78f-af6c-473d-bbcc-62997f5eaf06","ios":"levelo://app?vid=9c94a78f-af6c-473d-bbcc-62997f5eaf06"},"vehicle_type_id":"4","last_reported":1760703644,"current_range_meters":14400,"station_id":"ce4bgk12rcd13ifvqbi0","pricing_plan_id":"cebpf4jnsgd1na2vs0mg"},{"bike_id":"531c468c-79c6-4d45-84e2-e0150e4d1c3f","system_id":"levelo_inurba_marseille","lat":43.27204,"lon":5.39175,"is_reserved":false,"is_disabled":false,"rental_uris":{"android":"levelo://app?vid=531c468c-79c6-4d45-84e2-e0150e4d1c3f","ios":"levelo://app?vid=531c468c-79c6-4d45-84e2-e0150e4d1c3f"},"vehicle_type_id":"4","last_reported":1760703644,"current_range_meters":14400,"station_id":"ce4bhhp2rcd13ifvqfm0","pricing_plan_id":"cebpf4jnsgd1na2vs0mg"},{"bike_id":"ba1570ca-bb90-4c70-be6a-656d047d81bb","system_id":"levelo_inurba_marseille","lat":43.29583,"lon":5.37508,"is_reserved":false,"is_disabled":false,"rental_uris":{"android":"levelo://app?vid=ba1570ca-bb90-4c70-be6a-656d047d81bb","ios":"levelo://app?vid=ba1570ca-bb90-4c70-be6a-656d047d81bb"},"vehicle_type_id":"4","last_reported":1760703644,"current_range_meters":14400,"station_id":"ce4bgh92rcd13ifvqb50","pricing_plan_id":"cebpf4jnsgd1na2vs0mg"},{"bike_id":"53e45f66-6c88-47d1-a739-fad578ecef73","system_id":"levelo_inurba_marseille","lat":43.23783,"lon":5.36623,"is_reserved":false,"is_disabled":false,"rental_uris":{"android":"levelo://app?vid=53e45f66-6c88-47d1-a739-fad578ecef73","ios":"levelo://app?vid=53e45f66-6c88-47d1-a739-fad578ecef73"},"vehicle_type_id":"4","last_reported":1760703644,"current_range_meters":14400,"station_id":"st_d3nk18o9ro0c73en2l3g","pricing_plan_id":"cebpf4jnsgd1na2vs0mg"},{"bike_id":"25c7782c-5df2-4811-a959-756c38dba1de","system_id":"levelo_inurba_marseille","lat":43.34712,"lon":5.35887,"is_reserved":false,"is_disabled":false,"rental_uris":{"android":"levelo://app?vid=25c7782c-5df2-4811-a959-756c38dba1de","ios":"levelo://app?vid=25c7782c-5df2-4811-a959-756c38dba1de"},"vehicle_type_id":"4","last_reported":1760703644,"current_range_meters":14400,"station_id":"","pricing_plan_id":"cebpf4jnsgd1na2vs0mg"},{"bike_id":"fb9df3c9-e7a5-45a8-b839-ebbfe90448f6","system_id":"levelo_inurba_marseille","lat":43.29619,"lon":5.37163,"is_reserved":false,"is_disabled":false,"rental_uris":{"android":"levelo://app?vid=fb9df3c9-e7a5-45a8-b839-ebbfe90448f6","ios":"levelo://app?vid=fb9df3c9-e7a5-45a8-b839-ebbfe90448f6"},"vehicle_type_id":"4","last_reported":1760703644,"current_range_meters":14800,"station_id":"ce4bgnh2rcd13ifvqc0g","pricing_plan_id":"cebpf4jnsgd1na2vs0mg"},{"bike_id":"dd296268-bd82-44e9-a959-3f356d990175","system_id":"levelo_inurba_marseille","lat":43.31382,"lon":5.38519,"is_reserved":false,"is_disabled":false,"rental_uris":{"android":"levelo://app?vid=dd296268-bd82-44e9-a959-3f356d990175","ios":"levelo://app?vid=dd296268-bd82-44e9-a959-3f356d990175"},"vehicle_type_id":"4","last_reported":1760703644,"current_range_meters":14800,"station_id":"ce4bgt92rcd13ifvqcf0","pricing_plan_id":"cebpf4jnsgd1na2vs0mg"},{"bike_id":"db8cd3ee-d988-40de-b173-0901d6375499","system_id":"levelo_inurba_marseille","lat":43.28259,"lon":5.3507,"is_reserved":false,"is_disabled":false,"rental_uris":{"android":"levelo://app?vid=db8cd3ee-d988-40de-b173-0901d6375499","ios":"levelo://app?vid=db8cd3ee-d988-40de-b173-0901d6375499"},"vehicle_type_id":"4","last_reported":1760703644,"current_range_meters":14800,"station_id":"ce4bhbp2rcd13ifvqerg","pricing_plan_id":"cebpf4jnsgd1na2vs0mg"},{"bike_id":"a8d6a419-6073-4bd0-be77-e3479a3f8b68","system_id":"levelo_inurba_marseille","lat":43.29022,"lon":5.38648,"is_reserved":false,"is_disabled":false,"rental_uris":{"android":"levelo://app?vid=a8d6a419-6073-4bd0-be77-e3479a3f8b68","ios":"levelo://app?vid=a8d6a419-6073-4bd0-be77-e3479a3f8b68"},"vehicle_type_id":"4","last_reported":1760703644,"current_range_meters":14800,"station_id":"ce4bh4p2rcd13ifvqe0g","pricing_plan_id":"cebpf4jnsgd1na2vs0mg"},{"bike_id":"c227eecb-0f1f-4f66-a080-faba2e701909","system_id":"levelo_inurba_marseille","lat":43.29911,"lon":5.3747,"is_reserved":false,"is_disabled":false,"rental_uris":{"android":"levelo://app?vid=c227eecb-0f1f-4f66-a080-faba2e701909","ios":"levelo://app?vid=c227eecb-0f1f-4f66-a080-faba2e701909"},"vehicle_type_id":"4","last_reported":1760703644,"current_range_meters":14800,"station_id":"ce4bgjh2rcd13ifvqbg0","pricing_plan_id":"cebpf4jnsgd1na2vs0mg"},{"bike_id":"f74d278e-5ac2-4923-a8ea-e0709ac7b857","system_id":"levelo_inurba_marseille","lat":43.26678,"lon":5.38266,"is_reserved":false,"is_disabled":false,"rental_uris":{"android":"levelo://app?vid=f74d278e-5ac2-4923-a8ea-e0709ac7b857","ios":"levelo://app?vid=f74d278e-5ac2-4923-a8ea-e0709ac7b857"},"vehicle_type_id":"4","last_reported":1760703644,"current_range_meters":14800,"station_id":"ce4bhg92rcd13ifvqf90","pricing_plan_id":"cebpf4jnsgd1na2vs0mg"},{"bike_id":"054a2089-08bf-4d2e-9574-bcfc2c4d2a97","system_id":"levelo_inurba_marseille","lat":43.22928,"lon":5.35375,"is_reserved":false,"is_disabled":false,"rental_uris":{"android":"levelo://app?vid=054a2089-08bf-4d2e-9574-bcfc2c4d2a97","ios":"levelo://app?vid=054a2089-08bf-4d2e-9574-bcfc2c4d2a97"},"vehicle_type_id":"4","last_reported":1760703644,"current_range_meters":14800,"station_id":"cpo3532slgdg3j2ikp40","pricing_plan_id":"cebpf4jnsgd1na2vs0mg"},{"bike_id":"edd0bdd1-3ef7-4156-9d46-5c5f66b8e02f","system_id":"levelo_inurba_marseille","lat":43.262236,"lon":5.404533,"is_reserved":false,"is_disabled":false,"rental_uris":{"android":"levelo://app?vid=edd0bdd1-3ef7-4156-9d46-5c5f66b8e02f","ios":"levelo://app?vid=edd0bdd1-3ef7-4156-9d46-5c5f66b8e02f"},"vehicle_type_id":"4","last_reported":1760703644,"current_range_meters":14800,"station_id":"ce4bhmh2rcd13ifvqgmg","pricing_plan_id":"cebpf4jnsgd1na2vs0mg"},{"bike_id":"13bb805f-5279-46e3-b8d2-b4a0980feacf","system_id":"levelo_inurba_marseille","lat":43.272819,"lon":5.390377,"is_reserved":false,"is_disabled":false,"rental_uris":{"android":"levelo://app?vid=13bb805f-5279-46e3-b8d2-b4a0980feacf","ios":"levelo://app?vid=13bb805f-5279-46e3-b8d2-b4a0980feacf"},"vehicle_type_id":"4","last_reported":1760703644,"current_range_meters":14800,"station_id":"ce4bhgp2rcd13ifvqfe0","pricing_plan_id":"cebpf4jnsgd1na2vs0mg"},{"bike_id":"ae35a2da-3f17-464a-a391-e172df1dd6ca","system_id":"levelo_inurba_marseille","lat":43.24639,"lon":5.43106,"is_reserved":false,"is_disabled":false,"rental_uris":{"android":"levelo://app?vid=ae35a2da-3f17-464a-a391-e172df1dd6ca","ios":"levelo://app?vid=ae35a2da-3f17-464a-a391-e172df1dd6ca"},"vehicle_type_id":"4","last_reported":1760703644,"current_range_meters":15200,"station_id":"st_d2m6c4gdas8pm72e190g","pricing_plan_id":"cebpf4jnsgd1na2vs0mg"},{"bike_id":"1ea58d06-2bc8-43e6-9700-ceffc676d32c","system_id":"levelo_inurba_marseille","lat":43.217213,"lon":5.346152,"is_reserved":false,"is_disabled":true,"rental_uris":{"android":"levelo://app?vid=1ea58d06-2bc8-43e6-9700-ceffc676d32c","ios":"levelo://app?vid=1ea58d06-2bc8-43e6-9700-ceffc676d32c"},"vehicle_type_id":"4","last_reported":1760703644,"current_range_meters":15200,"station_id":"cpo36qri1sfpv3e86is0","pricing_plan_id":"cebpf4jnsgd1na2vs0mg"},{"bike_id":"3b5b043d-f4f2-4fe8-92b1-7f5fdfba7f2a","system_id":"levelo_inurba_marseille","lat":43.25085,"lon":5.39523,"is_reserved":false,"is_disabled":false,"rental_uris":{"android":"levelo://app?vid=3b5b043d-f4f2-4fe8-92b1-7f5fdfba7f2a","ios":"levelo://app?vid=3b5b043d-f4f2-4fe8-92b1-7f5fdfba7f2a"},"vehicle_type_id":"4","last_reported":1760703644,"current_range_meters":15200,"station_id":"ce4bhm12rcd13ifvqgkg","pricing_plan_id":"cebpf4jnsgd1na2vs0mg"},{"bike_id":"29d49e5c-eba3-43af-91af-d88e394c789d","system_id":"levelo_inurba_marseille","lat":43.26684,"lon":5.3827,"is_reserved":false,"is_disabled":false,"rental_uris":{"android":"levelo://app?vid=29d49e5c-eba3-43af-91af-d88e394c789d","ios":"levelo://app?vid=29d49e5c-eba3-43af-91af-d88e394c789d"},"vehicle_type_id":"4","last_reported":1760703644,"current_range_meters":15200,"station_id":"ce4bhg92rcd13ifvqf90","pricing_plan_id":"cebpf4jnsgd1na2vs0mg"},{"bike_id":"a811b750-ca8d-4723-9e3e-ffcfec93cb82","system_id":"levelo_inurba_marseille","lat":43.23064,"lon":5.35488,"is_reserved":false,"is_disabled":false,"rental_uris":{"android":"levelo://app?vid=a811b750-ca8d-4723-9e3e-ffcfec93cb82","ios":"levelo://app?vid=a811b750-ca8d-4723-9e3e-ffcfec93cb82"},"vehicle_type_id":"4","last_reported":1760703644,"current_range_meters":16000,"station_id":"cpo3342slgdg3j2ifvpg","pricing_plan_id":"cebpf4jnsgd1na2vs0mg"},{"bike_id":"89c41095-1749-4d06-b8a0-ed875d72823e","system_id":"levelo_inurba_marseille","lat":43.321079,"lon":5.367699,"is_reserved":false,"is_disabled":false,"rental_uris":{"android":"levelo://app?vid=89c41095-1749-4d06-b8a0-ed875d72823e","ios":"levelo://app?vid=89c41095-1749-4d06-b8a0-ed875d72823e"},"vehicle_type_id":"4","last_reported":1760703644,"current_range_meters":16000,"station_id":"ce4bhrh2rcd13ifvqhug","pricing_plan_id":"cebpf4jnsgd1na2vs0mg"},{"bike_id":"cdce2d4b-6072-4b31-b137-cc7260d047d2","system_id":"levelo_inurba_marseille","lat":43.27423,"lon":5.39412,"is_reserved":false,"is_disabled":false,"rental_uris":{"android":"levelo://app?vid=cdce2d4b-6072-4b31-b137-cc7260d047d2","ios":"levelo://app?vid=cdce2d4b-6072-4b31-b137-cc7260d047d2"},"vehicle_type_id":"4","last_reported":1760703644,"current_range_meters":16000,"station_id":"ce4bhdp2rcd13ifvqf20","pricing_plan_id":"cebpf4jnsgd1na2vs0mg"},{"bike_id":"305e2177-95c0-473d-80b9-0362114ec39f","system_id":"levelo_inurba_marseille","lat":43.30141,"lon":5.38057,"is_reserved":false,"is_disabled":false,"rental_uris":{"android":"levelo://app?vid=305e2177-95c0-473d-80b9-0362114ec39f","ios":"levelo://app?vid=305e2177-95c0-473d-80b9-0362114ec39f"},"vehicle_type_id":"4","last_reported":1760703644,"current_range_meters":16000,"station_id":"ce4bgjp2rcd13ifvqbh0","pricing_plan_id":"cebpf4jnsgd1na2vs0mg"},{"bike_id":"3464183e-da0d-481a-834d-1df3581fe8bc","system_id":"levelo_inurba_marseille","lat":43.304378,"lon":5.38885,"is_reserved":false,"is_disabled":false,"rental_uris":{"android":"levelo://app?vid=3464183e-da0d-481a-834d-1df3581fe8bc","ios":"levelo://app?vid=3464183e-da0d-481a-834d-1df3581fe8bc"},"vehicle_type_id":"4","last_reported":1760703644,"current_range_meters":16000,"station_id":"ce4bgk12rcd13ifvqbi0","pricing_plan_id":"cebpf4jnsgd1na2vs0mg"},{"bike_id":"ff4e5fe7-3092-48d1-ba9c-9b893809cfbf","system_id":"levelo_inurba_marseille","lat":43.25497,"lon":5.37648,"is_reserved":false,"is_disabled":false,"rental_uris":{"android":"levelo://app?vid=ff4e5fe7-3092-48d1-ba9c-9b893809cfbf","ios":"levelo://app?vid=ff4e5fe7-3092-48d1-ba9c-9b893809cfbf"},"vehicle_type_id":"4","last_reported":1760703644,"current_range_meters":16000,"station_id":"ce4bhh12rcd13ifvqff0","pricing_plan_id":"cebpf4jnsgd1na2vs0mg"},{"bike_id":"dc9f4d48-796c-490b-b388-9fbc95de917c","system_id":"levelo_inurba_marseille","lat":43.25519,"lon":5.37504,"is_reserved":false,"is_disabled":false,"rental_uris":{"android":"levelo://app?vid=dc9f4d48-796c-490b-b388-9fbc95de917c","ios":"levelo://app?vid=dc9f4d48-796c-490b-b388-9fbc95de917c"},"vehicle_type_id":"4","last_reported":1760703644,"current_range_meters":16000,"station_id":"","pricing_plan_id":"cebpf4jnsgd1na2vs0mg"},{"bike_id":"f26aa09e-4982-4d7e-adbf-ff6c649b6479","system_id":"levelo_inurba_marseille","lat":43.280069,"lon":5.416601,"is_reserved":false,"is_disabled":false,"rental_uris":{"android":"levelo://app?vid=f26aa09e-4982-4d7e-adbf-ff6c649b6479","ios":"levelo://app?vid=f26aa09e-4982-4d7e-adbf-ff6c649b6479"},"vehicle_type_id":"4","last_reported":1760703644,"current_range_meters":16400,"station_id":"ce4bho12rcd13ifvqh1g","pricing_plan_id":"cebpf4jnsgd1na2vs0mg"},{"bike_id":"d8c15876-8b54-4f69-b130-9f8e165b5bf1","system_id":"levelo_inurba_marseille","lat":43.267,"lon":5.41207,"is_reserved":false,"is_disabled":false,"rental_uris":{"android":"levelo://app?vid=d8c15876-8b54-4f69-b130-9f8e165b5bf1","ios":"levelo://app?vid=d8c15876-8b54-4f69-b130-9f8e165b5bf1"},"vehicle_type_id":"4","last_reported":1760703644,"current_range_meters":16400,"station_id":"","pricing_plan_id":"cebpf4jnsgd1na2vs0mg"},{"bike_id":"99b392f9-d6a6-43f5-9848-ce3a7d272425","system_id":"levelo_inurba_marseille","lat":43.31763,"lon":5.38924,"is_reserved":false,"is_disabled":false,"rental_uris":{"android":"levelo://app?vid=99b392f9-d6a6-43f5-9848-ce3a7d272425","ios":"levelo://app?vid=99b392f9-d6a6-43f5-9848-ce3a7d272425"},"vehicle_type_id":"4","last_reported":1760703644,"current_range_meters":16400,"station_id":"","pricing_plan_id":"cebpf4jnsgd1na2vs0mg"},{"bike_id":"6eb2acec-d68e-4c9a-ad73-90879ab30bc2","system_id":"levelo_inurba_marseille","lat":43.31517,"lon":5.37437,"is_reserved":false,"is_disabled":false,"rental_uris":{"android":"levelo://app?vid=6eb2acec-d68e-4c9a-ad73-90879ab30bc2","ios":"levelo://app?vid=6eb2acec-d68e-4c9a-ad73-90879ab30bc2"},"vehicle_type_id":"4","last_reported":1760703644,"current_range_meters":16400,"station_id":"","pricing_plan_id":"cebpf4jnsgd1na2vs0mg"},{"bike_id":"a1911eca-3159-4123-9e98-45370996b76c","system_id":"levelo_inurba_marseille","lat":43.32105,"lon":5.36761,"is_reserved":false,"is_disabled":false,"rental_uris":{"android":"levelo://app?vid=a1911eca-3159-4123-9e98-45370996b76c","ios":"levelo://app?vid=a1911eca-3159-4123-9e98-45370996b76c"},"vehicle_type_id":"4","last_reported":1760703644,"current_range_meters":16400,"station_id":"ce4bhrh2rcd13ifvqhug","pricing_plan_id":"cebpf4jnsgd1na2vs0mg"},{"bike_id":"75b02a51-1325-435e-9661-29bb451a696a","system_id":"levelo_inurba_marseille","lat":43.31448,"lon":5.38488,"is_reserved":false,"is_disabled":false,"rental_uris":{"android":"levelo://app?vid=75b02a51-1325-435e-9661-29bb451a696a","ios":"levelo://app?vid=75b02a51-1325-435e-9661-29bb451a696a"},"vehicle_type_id":"4","last_reported":1760703644,"current_range_meters":16400,"station_id":"","pricing_plan_id":"cebpf4jnsgd1na2vs0mg"},{"bike_id":"4c435c82-0bc4-4369-80cf-ae9046a83658","system_id":"levelo_inurba_marseille","lat":43.24167,"lon":5.36381,"is_reserved":false,"is_disabled":false,"rental_uris":{"android":"levelo://app?vid=4c435c82-0bc4-4369-80cf-ae9046a83658","ios":"levelo://app?vid=4c435c82-0bc4-4369-80cf-ae9046a83658"},"vehicle_type_id":"4","last_reported":1760703644,"current_range_meters":16400,"station_id":"cpo36qri1sfpv3e86is0","pricing_plan_id":"cebpf4jnsgd1na2vs0mg"},{"bike_id":"1a8859ce-bc64-4969-aadc-84fe7d6df618","system_id":"levelo_inurba_marseille","lat":43.279775,"lon":5.387441,"is_reserved":false,"is_disabled":false,"rental_uris":{"android":"levelo://app?vid=1a8859ce-bc64-4969-aadc-84fe7d6df618","ios":"levelo://app?vid=1a8859ce-bc64-4969-aadc-84fe7d6df618"},"vehicle_type_id":"4","last_reported":1760703644,"current_range_meters":16400,"station_id":"ce4bhg12rcd13ifvqf80","pricing_plan_id":"cebpf4jnsgd1na2vs0mg"},{"bike_id":"e094bd6d-7d64-457d-bea2-6bf9d639cc6d","system_id":"levelo_inurba_marseille","lat":43.30425,"lon":5.41292,"is_reserved":false,"is_disabled":false,"rental_uris":{"android":"levelo://app?vid=e094bd6d-7d64-457d-bea2-6bf9d639cc6d","ios":"levelo://app?vid=e094bd6d-7d64-457d-bea2-6bf9d639cc6d"},"vehicle_type_id":"4","last_reported":1760703644,"current_range_meters":16800,"station_id":"ce4bhop2rcd13ifvqh8g","pricing_plan_id":"cebpf4jnsgd1na2vs0mg"},{"bike_id":"25ac284f-89da-4dc0-992e-755329000866","system_id":"levelo_inurba_marseille","lat":43.241589,"lon":5.364015,"is_reserved":false,"is_disabled":false,"rental_uris":{"android":"levelo://app?vid=25ac284f-89da-4dc0-992e-755329000866","ios":"levelo://app?vid=25ac284f-89da-4dc0-992e-755329000866"},"vehicle_type_id":"4","last_reported":1760703644,"current_range_meters":16800,"station_id":"cpo36qri1sfpv3e86is0","pricing_plan_id":"cebpf4jnsgd1na2vs0mg"},{"bike_id":"8aa3ec83-557d-4118-b42f-7e9ff74932f2","system_id":"levelo_inurba_marseille","lat":43.241722,"lon":5.363912,"is_reserved":false,"is_disabled":false,"rental_uris":{"android":"levelo://app?vid=8aa3ec83-557d-4118-b42f-7e9ff74932f2","ios":"levelo://app?vid=8aa3ec83-557d-4118-b42f-7e9ff74932f2"},"vehicle_type_id":"4","last_reported":1760703644,"current_range_meters":16800,"station_id":"cpo36qri1sfpv3e86is0","pricing_plan_id":"cebpf4jnsgd1na2vs0mg"},{"bike_id":"9dcab8fe-ca49-447e-bc55-aa6b63923ad8","system_id":"levelo_inurba_marseille","lat":43.30604,"lon":5.3723,"is_reserved":false,"is_disabled":false,"rental_uris":{"android":"levelo://app?vid=9dcab8fe-ca49-447e-bc55-aa6b63923ad8","ios":"levelo://app?vid=9dcab8fe-ca49-447e-bc55-aa6b63923ad8"},"vehicle_type_id":"4","last_reported":1760703644,"current_range_meters":16800,"station_id":"ce4bgqh2rcd13ifvqc4g","pricing_plan_id":"cebpf4jnsgd1na2vs0mg"},{"bike_id":"edcb744a-1021-4493-86cd-94aad7a8dbc8","system_id":"levelo_inurba_marseille","lat":43.30761,"lon":5.3678,"is_reserved":false,"is_disabled":false,"rental_uris":{"android":"levelo://app?vid=edcb744a-1021-4493-86cd-94aad7a8dbc8","ios":"levelo://app?vid=edcb744a-1021-4493-86cd-94aad7a8dbc8"},"vehicle_type_id":"4","last_reported":1760703644,"current_range_meters":16800,"station_id":"","pricing_plan_id":"cebpf4jnsgd1na2vs0mg"},{"bike_id":"8596714f-b68b-4d6f-a0f8-0627aad8be05","system_id":"levelo_inurba_marseille","lat":43.23177,"lon":5.39979,"is_reserved":false,"is_disabled":false,"rental_uris":{"android":"levelo://app?vid=8596714f-b68b-4d6f-a0f8-0627aad8be05","ios":"levelo://app?vid=8596714f-b68b-4d6f-a0f8-0627aad8be05"},"vehicle_type_id":"4","last_reported":1760703644,"current_range_meters":16800,"station_id":"ce4bhn12rcd13ifvqgqg","pricing_plan_id":"cebpf4jnsgd1na2vs0mg"},{"bike_id":"75e5b278-1212-4dfa-9b62-944caa9a2af8","system_id":"levelo_inurba_marseille","lat":43.31324,"lon":5.39702,"is_reserved":false,"is_disabled":false,"rental_uris":{"android":"levelo://app?vid=75e5b278-1212-4dfa-9b62-944caa9a2af8","ios":"levelo://app?vid=75e5b278-1212-4dfa-9b62-944caa9a2af8"},"vehicle_type_id":"4","last_reported":1760703644,"current_range_meters":16800,"station_id":"ce4bgvp2rcd13ifvqcu0","pricing_plan_id":"cebpf4jnsgd1na2vs0mg"},{"bike_id":"fc39774e-f0fc-407c-a0c7-21a952222d01","system_id":"levelo_inurba_marseille","lat":43.24949,"lon":5.40499,"is_reserved":false,"is_disabled":false,"rental_uris":{"android":"levelo://app?vid=fc39774e-f0fc-407c-a0c7-21a952222d01","ios":"levelo://app?vid=fc39774e-f0fc-407c-a0c7-21a952222d01"},"vehicle_type_id":"4","last_reported":1760703644,"current_range_meters":16800,"station_id":"st_d2ngiaodas8pm72gd1h0","pricing_plan_id":"cebpf4jnsgd1na2vs0mg"},{"bike_id":"0858b0c8-9381-4c7c-ba45-f36ed2187a5f","system_id":"levelo_inurba_marseille","lat":43.30053,"lon":5.37815,"is_reserved":false,"is_disabled":false,"rental_uris":{"android":"levelo://app?vid=0858b0c8-9381-4c7c-ba45-f36ed2187a5f","ios":"levelo://app?vid=0858b0c8-9381-4c7c-ba45-f36ed2187a5f"},"vehicle_type_id":"4","last_reported":1760703644,"current_range_meters":17200,"station_id":"","pricing_plan_id":"cebpf4jnsgd1na2vs0mg"},{"bike_id":"0945adfc-6c89-4b1f-82df-c9db97ae29a0","system_id":"levelo_inurba_marseille","lat":43.305,"lon":5.3791,"is_reserved":false,"is_disabled":false,"rental_uris":{"android":"levelo://app?vid=0945adfc-6c89-4b1f-82df-c9db97ae29a0","ios":"levelo://app?vid=0945adfc-6c89-4b1f-82df-c9db97ae29a0"},"vehicle_type_id":"4","last_reported":1760703644,"current_range_meters":17200,"station_id":"ce4bgup2rcd13ifvqcn0","pricing_plan_id":"cebpf4jnsgd1na2vs0mg"},{"bike_id":"924ac669-be8b-47aa-9a8e-6f22baf815eb","system_id":"levelo_inurba_marseille","lat":43.30309,"lon":5.36652,"is_reserved":false,"is_disabled":false,"rental_uris":{"android":"levelo://app?vid=924ac669-be8b-47aa-9a8e-6f22baf815eb","ios":"levelo://app?vid=924ac669-be8b-47aa-9a8e-6f22baf815eb"},"vehicle_type_id":"4","last_reported":1760703644,"current_range_meters":17200,"station_id":"","pricing_plan_id":"cebpf4jnsgd1na2vs0mg"},{"bike_id":"8c30526d-4d62-49e0-92a1-2ed039e24496","system_id":"levelo_inurba_marseille","lat":43.28706,"lon":5.38418,"is_reserved":false,"is_disabled":false,"rental_uris":{"android":"levelo://app?vid=8c30526d-4d62-49e0-92a1-2ed039e24496","ios":"levelo://app?vid=8c30526d-4d62-49e0-92a1-2ed039e24496"},"vehicle_type_id":"4","last_reported":1760703644,"current_range_meters":17200,"station_id":"","pricing_plan_id":"cebpf4jnsgd1na2vs0mg"},{"bike_id":"38e9bc50-eb8b-417a-91d9-58a816766350","system_id":"levelo_inurba_marseille","lat":43.28614,"lon":5.35107,"is_reserved":false,"is_disabled":false,"rental_uris":{"android":"levelo://app?vid=38e9bc50-eb8b-417a-91d9-58a816766350","ios":"levelo://app?vid=38e9bc50-eb8b-417a-91d9-58a816766350"},"vehicle_type_id":"4","last_reported":1760703644,"current_range_meters":17200,"station_id":"ce4bhch2rcd13ifvqeug","pricing_plan_id":"cebpf4jnsgd1na2vs0mg"},{"bike_id":"c1adbd5e-6d75-4466-ae48-a9ce4bf7bd3c","system_id":"levelo_inurba_marseille","lat":43.26208,"lon":5.37442,"is_reserved":false,"is_disabled":false,"rental_uris":{"android":"levelo://app?vid=c1adbd5e-6d75-4466-ae48-a9ce4bf7bd3c","ios":"levelo://app?vid=c1adbd5e-6d75-4466-ae48-a9ce4bf7bd3c"},"vehicle_type_id":"4","last_reported":1760703644,"current_range_meters":17200,"station_id":"ce4bhgp2rcd13ifvqfc0","pricing_plan_id":"cebpf4jnsgd1na2vs0mg"},{"bike_id":"19b48d97-31f5-419e-a3ec-6f3c529e3c71","system_id":"levelo_inurba_marseille","lat":43.32115,"lon":5.36774,"is_reserved":false,"is_disabled":false,"rental_uris":{"android":"levelo://app?vid=19b48d97-31f5-419e-a3ec-6f3c529e3c71","ios":"levelo://app?vid=19b48d97-31f5-419e-a3ec-6f3c529e3c71"},"vehicle_type_id":"4","last_reported":1760703644,"current_range_meters":17200,"station_id":"ce4bhrh2rcd13ifvqhug","pricing_plan_id":"cebpf4jnsgd1na2vs0mg"},{"bike_id":"41022375-96f0-4b86-95a3-1972fb4cc384","system_id":"levelo_inurba_marseille","lat":43.30328,"lon":5.40442,"is_reserved":false,"is_disabled":false,"rental_uris":{"android":"levelo://app?vid=41022375-96f0-4b86-95a3-1972fb4cc384","ios":"levelo://app?vid=41022375-96f0-4b86-95a3-1972fb4cc384"},"vehicle_type_id":"4","last_reported":1760703644,"current_range_meters":17600,"station_id":"ce4bh012rcd13ifvqd10","pricing_plan_id":"cebpf4jnsgd1na2vs0mg"},{"bike_id":"19f843bf-8a65-4e73-b59e-95c6d421f79e","system_id":"levelo_inurba_marseille","lat":43.29003,"lon":5.35608,"is_reserved":false,"is_disabled":false,"rental_uris":{"android":"levelo://app?vid=19f843bf-8a65-4e73-b59e-95c6d421f79e","ios":"levelo://app?vid=19f843bf-8a65-4e73-b59e-95c6d421f79e"},"vehicle_type_id":"4","last_reported":1760703644,"current_range_meters":17600,"station_id":"ce4bhb92rcd13ifvqen0","pricing_plan_id":"cebpf4jnsgd1na2vs0mg"},{"bike_id":"b3f02386-ff16-4d2a-8471-7d112043a4ca","system_id":"levelo_inurba_marseille","lat":43.28612,"lon":5.35106,"is_reserved":false,"is_disabled":false,"rental_uris":{"android":"levelo://app?vid=b3f02386-ff16-4d2a-8471-7d112043a4ca","ios":"levelo://app?vid=b3f02386-ff16-4d2a-8471-7d112043a4ca"},"vehicle_type_id":"4","last_reported":1760703644,"current_range_meters":17600,"station_id":"ce4bhch2rcd13ifvqeug","pricing_plan_id":"cebpf4jnsgd1na2vs0mg"},{"bike_id":"74e3e01c-66c4-481d-b08c-6c10af99936d","system_id":"levelo_inurba_marseille","lat":43.341,"lon":5.40442,"is_reserved":false,"is_disabled":false,"rental_uris":{"android":"levelo://app?vid=74e3e01c-66c4-481d-b08c-6c10af99936d","ios":"levelo://app?vid=74e3e01c-66c4-481d-b08c-6c10af99936d"},"vehicle_type_id":"4","last_reported":1760703644,"current_range_meters":17600,"station_id":"","pricing_plan_id":"cebpf4jnsgd1na2vs0mg"},{"bike_id":"9c59c751-5282-4092-972d-ea67f9b7862b","system_id":"levelo_inurba_marseille","lat":43.29292,"lon":5.37468,"is_reserved":false,"is_disabled":false,"rental_uris":{"android":"levelo://app?vid=9c59c751-5282-4092-972d-ea67f9b7862b","ios":"levelo://app?vid=9c59c751-5282-4092-972d-ea67f9b7862b"},"vehicle_type_id":"4","last_reported":1760703644,"current_range_meters":17600,"station_id":"ce4bgi12rcd13ifvqb70","pricing_plan_id":"cebpf4jnsgd1na2vs0mg"},{"bike_id":"45e5b7ed-cacb-40d0-a2ee-d75061f9f2c6","system_id":"levelo_inurba_marseille","lat":43.23155,"lon":5.43683,"is_reserved":false,"is_disabled":false,"rental_uris":{"android":"levelo://app?vid=45e5b7ed-cacb-40d0-a2ee-d75061f9f2c6","ios":"levelo://app?vid=45e5b7ed-cacb-40d0-a2ee-d75061f9f2c6"},"vehicle_type_id":"4","last_reported":1760703644,"current_range_meters":17600,"station_id":"ce4bhmp2rcd13ifvqgog","pricing_plan_id":"cebpf4jnsgd1na2vs0mg"},{"bike_id":"0a414463-fe1a-4833-8a11-178a3c2c879a","system_id":"levelo_inurba_marseille","lat":43.29852,"lon":5.37897,"is_reserved":false,"is_disabled":false,"rental_uris":{"android":"levelo://app?vid=0a414463-fe1a-4833-8a11-178a3c2c879a","ios":"levelo://app?vid=0a414463-fe1a-4833-8a11-178a3c2c879a"},"vehicle_type_id":"4","last_reported":1760703644,"current_range_meters":18000,"station_id":"","pricing_plan_id":"cebpf4jnsgd1na2vs0mg"},