{"last_updated":1757772400,"ttl":60,"version":"2.2","data":{"bikes":[{"bike_id":"b75ef974-8447-45ab-929e-e8e713374475","system_id":"levelo_inurba_marseille","lat":43.30372,"lon":5.42466,"is_reserved":false,"is_disabled":false,"rental_uris":{"android":"levelo://app?vid=b75ef974-8447-45ab-929e-e8e713374475","ios":"levelo://app?vid=b75ef974-8447-45ab-929e-e8e713374475"},"vehicle_type_id":"4","last_reported":1757772400,"current_range_meters":2800,"station_id":"ce4bhoh2rcd13ifvqh6g","pricing_plan_id":"cebpf4jnsgd1na2vs0mg"},{"bike_id":"dbf55cc5-6d24-4a29-ad92-0a29bafde905","system_id":"levelo_inurba_marseille","lat":43.3092,"lon":5.40135,"is_reserved":false,"is_disabled":false,"rental_uris":{"android":"levelo://app?vid=dbf55cc5-6d24-4a29-ad92-0a29bafde905","ios":"levelo://app?vid=dbf55cc5-6d24-4a29-ad92-0a29bafde905"},"vehicle_type_id":"4","last_reported":1757772400,"current_range_meters":2800,"station_id":"ce4bgvp2rcd13ifvqct0","pricing_plan_id":"cebpf4jnsgd1na2vs0mg"},{"bike_id":"5a211279-3c76-4c19-95dc-5deecad85b0f","system_id":"levelo_inurba_marseille","lat":43.25117,"lon":5.4031,"is_reserved":false,"is_disabled":false,"rental_uris":{"android":"levelo://app?vid=5a211279-3c76-4c19-95dc-5deecad85b0f","ios":"levelo://app?vid=5a211279-3c76-4c19-95dc-5deecad85b0f"},"vehicle_type_id":"4","last_reported":1757772400,"current_range_meters":3200,"station_id":"ce4bhlh2rcd13ifvqgig","pricing_plan_id":"cebpf4jnsgd1na2vs0mg"},{"bike_id":"9ef26e0c-6f01-4b10-90fe-cec11146e852","system_id":"levelo_inurba_marseille","lat":43.310468,"lon":5.372804,"is_reserved":false,"is_disabled":false,"rental_uris":{"android":"levelo://app?vid=9ef26e0c-6f01-4b10-90fe-cec11146e852","ios":"levelo://app?vid=9ef26e0c-6f01-4b10-90fe-cec11146e852"},"vehicle_type_id":"4","last_reported":1757772400,"current_range_meters":3200,"station_id":"","pricing_plan_id":"cebpf4jnsgd1na2vs0mg"},{"bike_id":"79b01579-5b5c-4979-bd3f-994e72d50548","system_id":"levelo_inurba_marseille","lat":43.313535,"lon":5.367263,"is_reserved":false,"is_disabled":false,"rental_uris":{"android":"levelo://app?vid=79b01579-5b5c-4979-bd3f-994e72d50548","ios":"levelo://app?vid=79b01579-5b5c-4979-bd3f-994e72d50548"},"vehicle_type_id":"4","last_reported":1757772400,"current_range_meters":3200,"station_id":"ce4bgr92rcd13ifvqc6g","pricing_plan_id":"cebpf4jnsgd1na2vs0mg"},{"bike_id":"37f838a9-21b1-443a-897e-fb0d51235f3b","system_id":"levelo_inurba_marseille","lat":43.27085,"lon":5.42245,"is_reserved":false,"is_disabled":false,"rental_uris":{"android":"levelo://app?vid=37f838a9-21b1-443a-897e-fb0d51235f3b","ios":"levelo://app?vid=37f838a9-21b1-443a-897e-fb0d51235f3b"},"vehicle_type_id":"4","last_reported":1757772400,"current_range_meters":3200,"station_id":"ce4bhk92rcd13ifvqgb0","pricing_plan_id":"cebpf4jnsgd1na2vs0mg"},{"bike_id":"f43c1629-6f9b-4a83-bf2d-ff723f60e597","system_id":"levelo_inurba_marseille","lat":43.284,"lon":5.37494,"is_reserved":false,"is_disabled":false,"rental_uris":{"android":"levelo://app?vid=f43c1629-6f9b-4a83-bf2d-ff723f60e597","ios":"levelo://app?vid=f43c1629-6f9b-4a83-bf2d-ff723f60e597"},"vehicle_type_id":"4","last_reported":1757772400,"current_range_meters":3200,"station_id":"ce4bh412rcd13ifvqds0","pricing_plan_id":"cebpf4jnsgd1na2vs0mg"},{"bike_id":"738a1141-4bff-4bed-ab58-9f74036b33ab","system_id":"levelo_inurba_marseille","lat":43.29279,"lon":5.38759,"is_reserved":false,"is_disabled":false,"rental_uris":{"android":"levelo://app?vid=738a1141-4bff-4bed-ab58-9f74036b33ab","ios":"levelo://app?vid=738a1141-4bff-4bed-ab58-9f74036b33ab"},"vehicle_type_id":"4","last_reported":1757772400,"current_range_meters":3600,"station_id":"","pricing_plan_id":"cebpf4jnsgd1na2vs0mg"},{"bike_id":"54868907-63ea-40a5-8f3a-4ac6edb4c05c","system_id":"levelo_inurba_marseille","lat":43.291972,"lon":5.377767,"is_reserved":false,"is_disabled":false,"rental_uris":{"android":"levelo://app?vid=54868907-63ea-40a5-8f3a-4ac6edb4c05c","ios":"levelo://app?vid=54868907-63ea-40a5-8f3a-4ac6edb4c05c"},"vehicle_type_id":"4","last_reported":1757772400,"current_range_meters":3600,"station_id":"","pricing_plan_id":"cebpf4jnsgd1na2vs0mg"},{"bike_id":"f54274c6-0ecd-4812-8a10-f08e5e6a9621","system_id":"levelo_inurba_marseille","lat":43.28853,"lon":5.42491,"is_reserved":false,"is_disabled":false,"rental_uris":{"android":"levelo://app?vid=f54274c6-0ecd-4812-8a10-f08e5e6a9621","ios":"levelo://app?vid=f54274c6-0ecd-4812-8a10-f08e5e6a9621"},"vehicle_type_id":"4","last_reported":1757772400,"current_range_meters":4000,"station_id":"","pricing_plan_id":"cebpf4jnsgd1na2vs0mg"},{"bike_id":"8e823669-a05c-4f14-a05f-6373bb94f16b","system_id":"levelo_inurba_marseille","lat":43.307288,"lon":5.372792,"is_reserved":false,"is_disabled":false,"rental_uris":{"android":"levelo://app?vid=8e823669-a05c-4f14-a05f-6373bb94f16b","ios":"levelo://app?vid=8e823669-a05c-4f14-a05f-6373bb94f16b"},"vehicle_type_id":"4","last_reported":1757772400,"current_range_meters":4800,"station_id":"","pricing_plan_id":"cebpf4jnsgd1na2vs0mg"},{"bike_id":"166fbbfb-649b-4dd1-8c6f-764ecb2fb663","system_id":"levelo_inurba_marseille","lat":43.29879,"lon":5.38905,"is_reserved":false,"is_disabled":false,"rental_uris":{"android":"levelo://app?vid=166fbbfb-649b-4dd1-8c6f-764ecb2fb663","ios":"levelo://app?vid=166fbbfb-649b-4dd1-8c6f-764ecb2fb663"},"vehicle_type_id":"4","last_reported":1757772400,"current_range_meters":4800,"station_id":"ce4bh392rcd13ifvqdl0","pricing_plan_id":"cebpf4jnsgd1na2vs0mg"},{"bike_id":"fe8d88d6-81c3-42a8-85bb-3d0aa4841db3","system_id":"levelo_inurba_marseille","lat":43.337444,"lon":5.374475,"is_reserved":false,"is_disabled":false,"rental_uris":{"android":"levelo://app?vid=fe8d88d6-81c3-42a8-85bb-3d0aa4841db3","ios":"levelo://app?vid=fe8d88d6-81c3-42a8-85bb-3d0aa4841db3"},"vehicle_type_id":"4","last_reported":1757772400,"current_range_meters":4800,"station_id":"","pricing_plan_id":"cebpf4jnsgd1na2vs0mg"},{"bike_id":"d1de2b7d-3583-4df3-8bfa-43eda5116068","system_id":"levelo_inurba_marseille","lat":43.3374,"lon":5.37468,"is_reserved":false,"is_disabled":false,"rental_uris":{"android":"levelo://app?vid=d1de2b7d-3583-4df3-8bfa-43eda5116068","ios":"levelo://app?vid=d1de2b7d-3583-4df3-8bfa-43eda5116068"},"vehicle_type_id":"4","last_reported":1757772400,"current_range_meters":4800,"station_id":"","pricing_plan_id":"cebpf4jnsgd1na2vs0mg"},{"bike_id":"d1208639-5703-4ac3-a303-6e72a5788218","system_id":"levelo_inurba_marseille","lat":43.33753,"lon":5.37475,"is_reserved":false,"is_disabled":false,"rental_uris":{"android":"levelo://app?vid=d1208639-5703-4ac3-a303-6e72a5788218","ios":"levelo://app?vid=d1208639-5703-4ac3-a303-6e72a5788218"},"vehicle_type_id":"4","last_reported":1757772400,"current_range_meters":4800,"station_id":"","pricing_plan_id":"cebpf4jnsgd1na2vs0mg"},{"bike_id":"999df056-799c-417e-807e-52608d0b797e","system_id":"levelo_inurba_marseille","lat":43.297101,"lon":5.377007,"is_reserved":false,"is_disabled":false,"rental_uris":{"android":"levelo://app?vid=999df056-799c-417e-807e-52608d0b797e","ios":"levelo://app?vid=999df056-799c-417e-807e-52608d0b797e"},"vehicle_type_id":"4","last_reported":1757772400,"current_range_meters":5600,"station_id":"","pricing_plan_id":"cebpf4jnsgd1na2vs0mg"},{"bike_id":"c93d2be7-8659-4d09-b17b-21389e59ed06","system_id":"levelo_inurba_marseille","lat":43.24997,"lon":5.3893,"is_reserved":false,"is_disabled":false,"rental_uris":{"android":"levelo://app?vid=c93d2be7-8659-4d09-b17b-21389e59ed06","ios":"levelo://app?vid=c93d2be7-8659-4d09-b17b-21389e59ed06"},"vehicle_type_id":"4","last_reported":1757772400,"current_range_meters":5600,"station_id":"ce4bhgp2rcd13ifvqfd0","pricing_plan_id":"cebpf4jnsgd1na2vs0mg"},{"bike_id":"50b01254-e33e-42dc-9853-d3ab7a1f8639","system_id":"levelo_inurba_marseille","lat":43.28709,"lon":5.37915,"is_reserved":false,"is_disabled":false,"rental_uris":{"android":"levelo://app?vid=50b01254-e33e-42dc-9853-d3ab7a1f8639","ios":"levelo://app?vid=50b01254-e33e-42dc-9853-d3ab7a1f8639"},"vehicle_type_id":"4","last_reported":1757772400,"current_range_meters":5600,"station_id":"ce4bh9p2rcd13ifvqec0","pricing_plan_id":"cebpf4jnsgd1na2vs0mg"},{"bike_id":"3970e572-099d-45ee-bf41-4fc242e0f0e4","system_id":"levelo_inurba_marseille","lat":43.30419,"lon":5.41274,"is_reserved":false,"is_disabled":false,"rental_uris":{"android":"levelo://app?vid=3970e572-099d-45ee-bf41-4fc242e0f0e4","ios":"levelo://app?vid=3970e572-099d-45ee-bf41-4fc242e0f0e4"},"vehicle_type_id":"4","last_reported":1757772400,"current_range_meters":6400,"station_id":"ce4bhop2rcd13ifvqh8g","pricing_plan_id":"cebpf4jnsgd1na2vs0mg"},{"bike_id":"3aa3f1c4-af78-49a0-86a6-fac0f9a26052","system_id":"levelo_inurba_marseille","lat":43.28679,"lon":5.38651,"is_reserved":false,"is_disabled":false,"rental_uris":{"android":"levelo://app?vid=3aa3f1c4-af78-49a0-86a6-fac0f9a26052","ios":"levelo://app?vid=3aa3f1c4-af78-49a0-86a6-fac0f9a26052"},"vehicle_type_id":"4","last_reported":1757772400,"current_range_meters":6400,"station_id":"ce4bh492rcd13ifvqdug","pricing_plan_id":"cebpf4jnsgd1na2vs0mg"},{"bike_id":"76804725-d5fe-43f4-98b3-d808659e4857","system_id":"levelo_inurba_marseille","lat":43.2961,"lon":5.37723,"is_reserved":false,"is_disabled":false,"rental_uris":{"android":"levelo://app?vid=76804725-d5fe-43f4-98b3-d808659e4857","ios":"levelo://app?vid=76804725-d5fe-43f4-98b3-d808659e4857"},"vehicle_type_id":"4","last_reported":1757772400,"current_range_meters":6800,"station_id":"ce4bgi92rcd13ifvqb90","pricing_plan_id":"cebpf4jnsgd1na2vs0mg"},{"bike_id":"0b18d951-85fa-4337-9984-65aab9550ed4","system_id":"levelo_inurba_marseille","lat":43.29927,"lon":5.36519,"is_reserved":false,"is_disabled":false,"rental_uris":{"android":"levelo://app?vid=0b18d951-85fa-4337-9984-65aab9550ed4","ios":"levelo://app?vid=0b18d951-85fa-4337-9984-65aab9550ed4"},"vehicle_type_id":"4","last_reported":1757772400,"current_range_meters":6800,"station_id":"ce4bgm92rcd13ifvqbr0","pricing_plan_id":"cebpf4jnsgd1na2vs0mg"},{"bike_id":"f5cdef48-3af9-43b8-9dbd-7631f2156458","system_id":"levelo_inurba_marseille","lat":43.29006,"lon":5.35612,"is_reserved":false,"is_disabled":false,"rental_uris":{"android":"levelo://app?vid=f5cdef48-3af9-43b8-9dbd-7631f2156458","ios":"levelo://app?vid=f5cdef48-3af9-43b8-9dbd-7631f2156458"},"vehicle_type_id":"4","last_reported":1757772400,"current_range_meters":6800,"station_id":"ce4bhb92rcd13ifvqen0","pricing_plan_id":"cebpf4jnsgd1na2vs0mg"},{"bike_id":"3d7e1db9-6425-4f9d-9f38-a7eebdb77d25","system_id":"levelo_inurba_marseille","lat":43.25496,"lon":5.37646,"is_reserved":false,"is_disabled":false,"rental_uris":{"android":"levelo://app?vid=3d7e1db9-6425-4f9d-9f38-a7eebdb77d25","ios":"levelo://app?vid=3d7e1db9-6425-4f9d-9f38-a7eebdb77d25"},"vehicle_type_id":"4","last_reported":1757772400,"current_range_meters":6800,"station_id":"ce4bhh12rcd13ifvqff0","pricing_plan_id":"cebpf4jnsgd1na2vs0mg"},{"bike_id":"9666c355-bd61-488d-b14a-b46b70605f10","system_id":"levelo_inurba_marseille","lat":43.30086,"lon":5.39071,"is_reserved":false,"is_disabled":false,"rental_uris":{"android":"levelo://app?vid=9666c355-bd61-488d-b14a-b46b70605f10","ios":"levelo://app?vid=9666c355-bd61-488d-b14a-b46b70605f10"},"vehicle_type_id":"4","last_reported":1757772400,"current_range_meters":6800,"station_id":"ce4bh192rcd13ifvqdb0","pricing_plan_id":"cebpf4jnsgd1na2vs0mg"},{"bike_id":"3770ab9c-2470-4cb8-a0de-8d0027fafc7e","system_id":"levelo_inurba_marseille","lat":43.28931,"lon":5.36634,"is_reserved":false,"is_disabled":false,"rental_uris":{"android":"levelo://app?vid=3770ab9c-2470-4cb8-a0de-8d0027fafc7e","ios":"levelo://app?vid=3770ab9c-2470-4cb8-a0de-8d0027fafc7e"},"vehicle_type_id":"4","last_reported":1757772400,"current_range_meters":6800,"station_id":"ce4bhap2rcd13ifvqek0","pricing_plan_id":"cebpf4jnsgd1na2vs0mg"},{"bike_id":"eac8336f-fe57-4368-b89f-ade63f2fc3fa","system_id":"levelo_inurba_marseille","lat":43.3015,"lon":5.38066,"is_reserved":false,"is_disabled":false,"rental_uris":{"android":"levelo://app?vid=eac8336f-fe57-4368-b89f-ade63f2fc3fa","ios":"levelo://app?vid=eac8336f-fe57-4368-b89f-ade63f2fc3fa"},"vehicle_type_id":"4","last_reported":1757772400,"current_range_meters":6800,"station_id":"ce4bgjp2rcd13ifvqbh0","pricing_plan_id":"cebpf4jnsgd1na2vs0mg"},{"bike_id":"ff7f6c48-08d1-40d4-8e96-17e8cd00449c","system_id":"levelo_inurba_marseille","lat":43.31883,"lon":5.4073,"is_reserved":false,"is_disabled":false,"rental_uris":{"android":"levelo://app?vid=ff7f6c48-08d1-40d4-8e96-17e8cd00449c","ios":"levelo://app?vid=ff7f6c48-08d1-40d4-8e96-17e8cd00449c"},"vehicle_type_id":"4","last_reported":1757772400,"current_range_meters":7200,"station_id":"ce4bhq12rcd13ifvqhig","pricing_plan_id":"cebpf4jnsgd1na2vs0mg"},{"bike_id":"ac568d9b-aa32-4551-90e7-9697d0dfd168","system_id":"levelo_inurba_marseille","lat":43.323606,"lon":5.367516,"is_reserved":false,"is_disabled":false,"rental_uris":{"android":"levelo://app?vid=ac568d9b-aa32-4551-90e7-9697d0dfd168","ios":"levelo://app?vid=ac568d9b-aa32-4551-90e7-9697d0dfd168"},"vehicle_type_id":"4","last_reported":1757772400,"current_range_meters":7200,"station_id":"ce4bhsh2rcd13ifvqi2g","pricing_plan_id":"cebpf4jnsgd1na2vs0mg"},{"bike_id":"799195ec-b884-46fa-8e8e-94f3a290a369","system_id":"levelo_inurba_marseille","lat":43.30893,"lon":5.39641,"is_reserved":false,"is_disabled":false,"rental_uris":{"android":"levelo://app?vid=799195ec-b884-46fa-8e8e-94f3a290a369","ios":"levelo://app?vid=799195ec-b884-46fa-8e8e-94f3a290a369"},"vehicle_type_id":"4","last_reported":1757772400,"current_range_meters":7200,"station_id":"ce4bh012rcd13ifvqcv0","pricing_plan_id":"cebpf4jnsgd1na2vs0mg"},{"bike_id":"9ab5a925-93d3-480a-b2fc-b1f07eec20c0","system_id":"levelo_inurba_marseille","lat":43.231514,"lon":5.437131,"is_reserved":false,"is_disabled":false,"rental_uris":{"android":"levelo://app?vid=9ab5a925-93d3-480a-b2fc-b1f07eec20c0","ios":"levelo://app?vid=9ab5a925-93d3-480a-b2fc-b1f07eec20c0"},"vehicle_type_id":"4","last_reported":1757772400,"current_range_meters":6800,"station_id":"ce4bhmp2rcd13ifvqgog","pricing_plan_id":"cebpf4jnsgd1na2vs0mg"},{"bike_id":"af936fc5-9129-4ff8-b9ba-743f3624d738","system_id":"levelo_inurba_marseille","lat":43.26566,"lon":5.37293,"is_reserved":false,"is_disabled":false,"rental_uris":{"android":"levelo://app?vid=af936fc5-9129-4ff8-b9ba-743f3624d738","ios":"levelo://app?vid=af936fc5-9129-4ff8-b9ba-743f3624d738"},"vehicle_type_id":"4","last_reported":1757772400,"current_range_meters":7200,"station_id":"ce4bhg12rcd13ifvqf70","pricing_plan_id":"cebpf4jnsgd1na2vs0mg"},{"bike_id":"9e7c4cc9-9b54-44b9-af7b-fe5e5336e63b","system_id":"levelo_inurba_marseille","lat":43.329793,"lon":5.368273,"is_reserved":false,"is_disabled":false,"rental_uris":{"android":"levelo://app?vid=9e7c4cc9-9b54-44b9-af7b-fe5e5336e63b","ios":"levelo://app?vid=9e7c4cc9-9b54-44b9-af7b-fe5e5336e63b"},"vehicle_type_id":"4","last_reported":1757772400,"current_range_meters":8000,"station_id":"ce4bhr12rcd13ifvqhqg","pricing_plan_id":"cebpf4jnsgd1na2vs0mg"},{"bike_id":"feac4389-0369-4490-b333-e8de02c0ef54","system_id":"levelo_inurba_marseille","lat":43.26686,"lon":5.38278,"is_reserved":false,"is_disabled":true,"rental_uris":{"android":"levelo://app?vid=feac4389-0369-4490-b333-e8de02c0ef54","ios":"levelo://app?vid=feac4389-0369-4490-b333-e8de02c0ef54"},"vehicle_type_id":"4","last_reported":1757772400,"current_range_meters":8000,"station_id":"ce4bhg92rcd13ifvqf90","pricing_plan_id":"cebpf4jnsgd1na2vs0mg"},{"bike_id":"4c375d89-2563-4529-b762-c010c9ce99a8","system_id":"levelo_inurba_marseille","lat":43.243873,"lon":5.370624,"is_reserved":false,"is_disabled":false,"rental_uris":{"android":"levelo://app?vid=4c375d89-2563-4529-b762-c010c9ce99a8","ios":"levelo://app?vid=4c375d89-2563-4529-b762-c010c9ce99a8"},"vehicle_type_id":"4","last_reported":1757772400,"current_range_meters":8000,"station_id":"ce4bhhh2rcd13ifvqfk0","pricing_plan_id":"cebpf4jnsgd1na2vs0mg"},{"bike_id":"7fa34ec0-a293-418f-bfd5-6e8a3d326e13","system_id":"levelo_inurba_marseille","lat":43.31024,"lon":5.37528,"is_reserved":false,"is_disabled":false,"rental_uris":{"android":"levelo://app?vid=7fa34ec0-a293-418f-bfd5-6e8a3d326e13","ios":"levelo://app?vid=7fa34ec0-a293-418f-bfd5-6e8a3d326e13"},"vehicle_type_id":"4","last_reported":1757772400,"current_range_meters":8000,"station_id":"","pricing_plan_id":"cebpf4jnsgd1na2vs0mg"},{"bike_id":"e313b345-ef08-4d16-85af-9ecb95c2b843","system_id":"levelo_inurba_marseille","lat":43.3061,"lon":5.37104,"is_reserved":false,"is_disabled":false,"rental_uris":{"android":"levelo://app?vid=e313b345-ef08-4d16-85af-9ecb95c2b843","ios":"levelo://app?vid=e313b345-ef08-4d16-85af-9ecb95c2b843"},"vehicle_type_id":"4","last_reported":1757772400,"current_range_meters":8400,"station_id":"","pricing_plan_id":"cebpf4jnsgd1na2vs0mg"},{"bike_id":"68422fda-945c-402d-b886-a4fecef0c346","system_id":"levelo_inurba_marseille","lat":43.29173,"lon":5.37143,"is_reserved":false,"is_disabled":true,"rental_uris":{"android":"levelo://app?vid=68422fda-945c-402d-b886-a4fecef0c346","ios":"levelo://app?vid=68422fda-945c-402d-b886-a4fecef0c346"},"vehicle_type_id":"4","last_reported":1757772400,"current_range_meters":8400,"station_id":"ce4bha92rcd13ifvqeh0","pricing_plan_id":"cebpf4jnsgd1na2vs0mg"},{"bike_id":"b62a3a7f-1bf6-4ea2-ab9e-977586b47b39","system_id":"levelo_inurba_marseille","lat":43.27073,"lon":5.42277,"is_reserved":false,"is_disabled":false,"rental_uris":{"android":"levelo://app?vid=b62a3a7f-1bf6-4ea2-ab9e-977586b47b39","ios":"levelo://app?vid=b62a3a7f-1bf6-4ea2-ab9e-977586b47b39"},"vehicle_type_id":"4","last_reported":1757772400,"current_range_meters":8800,"station_id":"ce4bhk92rcd13ifvqgb0","pricing_plan_id":"cebpf4jnsgd1na2vs0mg"},{"bike_id":"0e0c8dec-1a42-46dd-bb35-7088192ded70","system_id":"levelo_inurba_marseille","lat":43.297208,"lon":5.37152,"is_reserved":false,"is_disabled":false,"rental_uris":{"android":"levelo://app?vid=0e0c8dec-1a42-46dd-bb35-7088192ded70","ios":"levelo://app?vid=0e0c8dec-1a42-46dd-bb35-7088192ded70"},"vehicle_type_id":"4","last_reported":1757772400,"current_range_meters":8800,"station_id":"","pricing_plan_id":"cebpf4jnsgd1na2vs0mg"},{"bike_id":"059b6b47-050d-433b-be33-398fe12effb9","system_id":"levelo_inurba_marseille","lat":43.23147,"lon":5.43718,"is_reserved":false,"is_disabled":false,"rental_uris":{"android":"levelo://app?vid=059b6b47-050d-433b-be33-398fe12effb9","ios":"levelo://app?vid=059b6b47-050d-433b-be33-398fe12effb9"},"vehicle_type_id":"4","last_reported":1757772400,"current_range_meters":8800,"station_id":"ce4bhmp2rcd13ifvqgog","pricing_plan_id":"cebpf4jnsgd1na2vs0mg"},{"bike_id":"3bd595b7-af3b-43b1-8697-1bcb2a61af6f","system_id":"levelo_inurba_marseille","lat":43.27999,"lon":5.39995,"is_reserved":false,"is_disabled":true,"rental_uris":{"android":"levelo://app?vid=3bd595b7-af3b-43b1-8697-1bcb2a61af6f","ios":"levelo://app?vid=3bd595b7-af3b-43b1-8697-1bcb2a61af6f"},"vehicle_type_id":"4","last_reported":1757772400,"current_range_meters":8800,"station_id":"ce4bho92rcd13ifvqh4g","pricing_plan_id":"cebpf4jnsgd1na2vs0mg"},{"bike_id":"972b4c5f-3a00-4bb2-9116-b81f2cecc9f2","system_id":"levelo_inurba_marseille","lat":43.33764,"lon":5.37483,"is_reserved":false,"is_disabled":false,"rental_uris":{"android":"levelo://app?vid=972b4c5f-3a00-4bb2-9116-b81f2cecc9f2","ios":"levelo://app?vid=972b4c5f-3a00-4bb2-9116-b81f2cecc9f2"},"vehicle_type_id":"4","last_reported":1757772400,"current_range_meters":8800,"station_id":"","pricing_plan_id":"cebpf4jnsgd1na2vs0mg"},{"bike_id":"b9e10722-027c-4edd-b0bf-14f9e4ef74f3","system_id":"levelo_inurba_marseille","lat":43.31485,"lon":5.37298,"is_reserved":false,"is_disabled":false,"rental_uris":{"android":"levelo://app?vid=b9e10722-027c-4edd-b0bf-14f9e4ef74f3","ios":"levelo://app?vid=b9e10722-027c-4edd-b0bf-14f9e4ef74f3"},"vehicle_type_id":"4","last_reported":1757772400,"current_range_meters":8800,"station_id":"ce4bgt12rcd13ifvqcd0","pricing_plan_id":"cebpf4jnsgd1na2vs0mg"},{"bike_id":"5ff8b177-8abf-4aa2-8096-50f3e93cca9b","system_id":"levelo_inurba_marseille","lat":43.3055,"lon":5.36545,"is_reserved":false,"is_disabled":false,"rental_uris":{"android":"levelo://app?vid=5ff8b177-8abf-4aa2-8096-50f3e93cca9b","ios":"levelo://app?vid=5ff8b177-8abf-4aa2-8096-50f3e93cca9b"},"vehicle_type_id":"4","last_reported":1757772400,"current_range_meters":9200,"station_id":"ce4bgs12rcd13ifvqcag","pricing_plan_id":"cebpf4jnsgd1na2vs0mg"},{"bike_id":"9f42d920-70ef-40f5-8a56-79f71c89e389","system_id":"levelo_inurba_marseille","lat":43.30414,"lon":5.41276,"is_reserved":false,"is_disabled":false,"rental_uris":{"android":"levelo://app?vid=9f42d920-70ef-40f5-8a56-79f71c89e389","ios":"levelo://app?vid=9f42d920-70ef-40f5-8a56-79f71c89e389"},"vehicle_type_id":"4","last_reported":1757772400,"current_range_meters":9600,"station_id":"ce4bhop2rcd13ifvqh8g","pricing_plan_id":"cebpf4jnsgd1na2vs0mg"},{"bike_id":"ca3ba902-6508-4d36-afba-d374691aee07","system_id":"levelo_inurba_marseille","lat":43.29567,"lon":5.37503,"is_reserved":false,"is_disabled":false,"rental_uris":{"android":"levelo://app?vid=ca3ba902-6508-4d36-afba-d374691aee07","ios":"levelo://app?vid=ca3ba902-6508-4d36-afba-d374691aee07"},"vehicle_type_id":"4","last_reported":1757772400,"current_range_meters":9600,"station_id":"ce4bgh92rcd13ifvqb50","pricing_plan_id":"cebpf4jnsgd1na2vs0mg"},{"bike_id":"a3977072-5f91-4a68-b0d6-dc3cb909a337","system_id":"levelo_inurba_marseille","lat":43.33768,"lon":5.37465,"is_reserved":false,"is_disabled":false,"rental_uris":{"android":"levelo://app?vid=a3977072-5f91-4a68-b0d6-dc3cb909a337","ios":"levelo://app?vid=a3977072-5f91-4a68-b0d6-dc3cb909a337"},"vehicle_type_id":"4","last_reported":1757772400,"current_range_meters":10000,"station_id":"","pricing_plan_id":"cebpf4jnsgd1na2vs0mg"},{"bike_id":"be07ffe5-57f9-4949-a93d-285025a94daf","system_id":"levelo_inurba_marseille","lat":43.30726,"lon":5.42439,"is_reserved":false,"is_disabled":false,"rental_uris":{"android":"levelo://app?vid=be07ffe5-57f9-4949-a93d-285025a94daf","ios":"levelo://app?vid=be07ffe5-57f9-4949-a93d-285025a94daf"},"vehicle_type_id":"4","last_reported":1757772400,"current_range_meters":10000,"station_id":"st_cvj6ca6bvosntc0bfgr0","pricing_plan_id":"cebpf4jnsgd1na2vs0mg"},{"bike_id":"775af279-8ac9-4585-9121-809be9b13265","system_id":"levelo_inurba_marseille","lat":43.337775,"lon":5.374412,"is_reserved":false,"is_disabled":false,"rental_uris":{"android":"levelo://app?vid=775af279-8ac9-4585-9121-809be9b13265","ios":"levelo://app?vid=775af279-8ac9-4585-9121-809be9b13265"},"vehicle_type_id":"4","last_reported":1757772400,"current_range_meters":10000,"station_id":"","pricing_plan_id":"cebpf4jnsgd1na2vs0mg"},{"bike_id":"a99c05c3-0456-42ee-bf14-3ce383188b97","system_id":"levelo_inurba_marseille","lat":43.3009,"lon":5.39078,"is_reserved":false,"is_disabled":false,"rental_uris":{"android":"levelo://app?vid=a99c05c3-0456-42ee-bf14-3ce383188b97","ios":"levelo://app?vid=a99c05c3-0456-42ee-bf14-3ce383188b97"},"vehicle_type_id":"4","last_reported":1757772400,"current_range_meters":10000,"station_id":"ce4bh192rcd13ifvqdb0","pricing_plan_id":"cebpf4jnsgd1na2vs0mg"},{"bike_id":"323da3b6-fdcf-4573-b9f1-e27f586fd727","system_id":"levelo_inurba_marseille","lat":43.28357,"lon":5.38619,"is_reserved":false,"is_disabled":false,"rental_uris":{"android":"levelo://app?vid=323da3b6-fdcf-4573-b9f1-e27f586fd727","ios":"levelo://app?vid=323da3b6-fdcf-4573-b9f1-e27f586fd727"},"vehicle_type_id":"4","last_reported":1757772400,"current_range_meters":9600,"station_id":"ce4bh492rcd13ifvqdvg","pricing_plan_id":"cebpf4jnsgd1na2vs0mg"},{"bike_id":"b7fe55b2-716d-4940-a822-162752aa3050","system_id":"levelo_inurba_marseille","lat":43.31987,"lon":5.38146,"is_reserved":false,"is_disabled":false,"rental_uris":{"android":"levelo://app?vid=b7fe55b2-716d-4940-a822-162752aa3050","ios":"levelo://app?vid=b7fe55b2-716d-4940-a822-162752aa3050"},"vehicle_type_id":"4","last_reported":1757772400,"current_range_meters":10800,"station_id":"ce4bhr12rcd13ifvqhpg","pricing_plan_id":"cebpf4jnsgd1na2vs0mg"},{"bike_id":"eaa220fb-5349-44c0-849a-e1e199bab0e0","system_id":"levelo_inurba_marseille","lat":43.312032,"lon":5.367326,"is_reserved":false,"is_disabled":false,"rental_uris":{"android":"levelo://app?vid=eaa220fb-5349-44c0-849a-e1e199bab0e0","ios":"levelo://app?vid=eaa220fb-5349-44c0-849a-e1e199bab0e0"},"vehicle_type_id":"4","last_reported":1757772400,"current_range_meters":10800,"station_id":"","pricing_plan_id":"cebpf4jnsgd1na2vs0mg"},{"bike_id":"6a0d6c93-e641-4f2e-badf-3cf3fdf9781a","system_id":"levelo_inurba_marseille","lat":43.28614,"lon":5.351,"is_reserved":false,"is_disabled":false,"rental_uris":{"android":"levelo://app?vid=6a0d6c93-e641-4f2e-badf-3cf3fdf9781a","ios":"levelo://app?vid=6a0d6c93-e641-4f2e-badf-3cf3fdf9781a"},"vehicle_type_id":"4","last_reported":1757772400,"current_range_meters":10800,"station_id":"ce4bhch2rcd13ifvqeug","pricing_plan_id":"cebpf4jnsgd1na2vs0mg"},{"bike_id":"58c9066b-4034-40c4-8981-68e78f4be479","system_id":"levelo_inurba_marseille","lat":43.29773,"lon":5.37099,"is_reserved":false,"is_disabled":false,"rental_uris":{"android":"levelo://app?vid=58c9066b-4034-40c4-8981-68e78f4be479","ios":"levelo://app?vid=58c9066b-4034-40c4-8981-68e78f4be479"},"vehicle_type_id":"4","last_reported":1757772400,"current_range_meters":10800,"station_id":"ce4bgop2rcd13ifvqc1g","pricing_plan_id":"cebpf4jnsgd1na2vs0mg"},{"bike_id":"f24cd637-2a13-4120-b81f-882de2ef79b6","system_id":"levelo_inurba_marseille","lat":43.309327,"lon":5.401405,"is_reserved":false,"is_disabled":false,"rental_uris":{"android":"levelo://app?vid=f24cd637-2a13-4120-b81f-882de2ef79b6","ios":"levelo://app?vid=f24cd637-2a13-4120-b81f-882de2ef79b6"},"vehicle_type_id":"4","last_reported":1757772400,"current_range_meters":10800,"station_id":"ce4bgvp2rcd13ifvqct0","pricing_plan_id":"cebpf4jnsgd1na2vs0mg"},{"bike_id":"4266b374-d4bf-4fd2-bb94-51b2d7d40946","system_id":"levelo_inurba_marseille","lat":43.22562,"lon":5.41622,"is_reserved":false,"is_disabled":false,"rental_uris":{"android":"levelo://app?vid=4266b374-d4bf-4fd2-bb94-51b2d7d40946","ios":"levelo://app?vid=4266b374-d4bf-4fd2-bb94-51b2d7d40946"},"vehicle_type_id":"4","last_reported":1757772400,"current_range_meters":10800,"station_id":"st_d2o4gvlbi1j2169b742g","pricing_plan_id":"cebpf4jnsgd1na2vs0mg"},{"bike_id":"1f5337e1-0da6-4170-9317-908b45981a29","system_id":"levelo_inurba_marseille","lat":43.231053,"lon":5.404843,"is_reserved":false,"is_disabled":false,"rental_uris":{"android":"levelo://app?vid=1f5337e1-0da6-4170-9317-908b45981a29","ios":"levelo://app?vid=1f5337e1-0da6-4170-9317-908b45981a29"},"vehicle_type_id":"4","last_reported":1757772400,"current_range_meters":10800,"station_id":"","pricing_plan_id":"cebpf4jnsgd1na2vs0mg"},{"bike_id":"0d695741-9e88-4a4a-bf93-4cb5c8bfbc2b","system_id":"levelo_inurba_marseille","lat":43.28153,"lon":5.42632,"is_reserved":false,"is_disabled":false,"rental_uris":{"android":"levelo://app?vid=0d695741-9e88-4a4a-bf93-4cb5c8bfbc2b","ios":"levelo://app?vid=0d695741-9e88-4a4a-bf93-4cb5c8bfbc2b"},"vehicle_type_id":"4","last_reported":1757772400,"current_range_meters":10800,"station_id":"ce4bhnh2rcd13ifvqgug","pricing_plan_id":"cebpf4jnsgd1na2vs0mg"},{"bike_id":"89724e0f-d6a6-4e81-9dc8-40ed9db09b04","system_id":"levelo_inurba_marseille","lat":43.28614,"lon":5.37062,"is_reserved":false,"is_disabled":false,"rental_uris":{"android":"levelo://app?vid=89724e0f-d6a6-4e81-9dc8-40ed9db09b04","ios":"levelo://app?vid=89724e0f-d6a6-4e81-9dc8-40ed9db09b04"},"vehicle_type_id":"4","last_reported":1757772400,"current_range_meters":10800,"station_id":"ce4bht12rcd13ifvqi60","pricing_plan_id":"cebpf4jnsgd1na2vs0mg"},{"bike_id":"a24c4696-920b-4645-847f-87e0b46915a6","system_id":"levelo_inurba_marseille","lat":43.32443,"lon":5.42494,"is_reserved":false,"is_disabled":false,"rental_uris":{"android":"levelo://app?vid=a24c4696-920b-4645-847f-87e0b46915a6","ios":"levelo://app?vid=a24c4696-920b-4645-847f-87e0b46915a6"},"vehicle_type_id":"4","last_reported":1757772400,"current_range_meters":11200,"station_id":"","pricing_plan_id":"cebpf4jnsgd1na2vs0mg"},{"bike_id":"b6e71227-cf24-477c-a6b4-dcaf891c7903","system_id":"levelo_inurba_marseille","lat":43.25583,"lon":5.3823,"is_reserved":false,"is_disabled":false,"rental_uris":{"android":"levelo://app?vid=b6e71227-cf24-477c-a6b4-dcaf891c7903","ios":"levelo://app?vid=b6e71227-cf24-477c-a6b4-dcaf891c7903"},"vehicle_type_id":"4","last_reported":1757772400,"current_range_meters":11200,"station_id":"ce4bhih2rcd13ifvqfs0","pricing_plan_id":"cebpf4jnsgd1na2vs0mg"},{"bike_id":"7f696ba1-833f-412e-8b5d-d4d815a574fc","system_id":"levelo_inurba_marseille","lat":43.29842,"lon":5.37142,"is_reserved":false,"is_disabled":false,"rental_uris":{"android":"levelo://app?vid=7f696ba1-833f-412e-8b5d-d4d815a574fc","ios":"levelo://app?vid=7f696ba1-833f-412e-8b5d-d4d815a574fc"},"vehicle_type_id":"4","last_reported":1757772400,"current_range_meters":11200,"station_id":"","pricing_plan_id":"cebpf4jnsgd1na2vs0mg"},{"bike_id":"f2fee8b4-3ccd-4bda-accf-e092186b6fad","system_id":"levelo_inurba_marseille","lat":43.34158,"lon":5.4087,"is_reserved":false,"is_disabled":false,"rental_uris":{"android":"levelo://app?vid=f2fee8b4-3ccd-4bda-accf-e092186b6fad","ios":"levelo://app?vid=f2fee8b4-3ccd-4bda-accf-e092186b6fad"},"vehicle_type_id":"4","last_reported":1757772400,"current_range_meters":11200,"station_id":"ce4bhqh2rcd13ifvqhlg","pricing_plan_id":"cebpf4jnsgd1na2vs0mg"},{"bike_id":"6515536f-56de-4109-b7a1-24c742aed225","system_id":"levelo_inurba_marseille","lat":43.32014,"lon":5.37227,"is_reserved":false,"is_disabled":false,"rental_uris":{"android":"levelo://app?vid=6515536f-56de-4109-b7a1-24c742aed225","ios":"levelo://app?vid=6515536f-56de-4109-b7a1-24c742aed225"},"vehicle_type_id":"4","last_reported":1757772400,"current_range_meters":11600,"station_id":"","pricing_plan_id":"cebpf4jnsgd1na2vs0mg"},{"bike_id":"a8200689-d7b2-4d2e-b5a2-52cc95231e31","system_id":"levelo_inurba_marseille","lat":43.24145,"lon":5.36418,"is_reserved":false,"is_disabled":false,"rental_uris":{"android":"levelo://app?vid=a8200689-d7b2-4d2e-b5a2-52cc95231e31","ios":"levelo://app?vid=a8200689-d7b2-4d2e-b5a2-52cc95231e31"},"vehicle_type_id":"4","last_reported":1757772400,"current_range_meters":11600,"station_id":"cpo36qri1sfpv3e86is0","pricing_plan_id":"cebpf4jnsgd1na2vs0mg"},{"bike_id":"468b29b7-c0e4-4fb5-98d3-7139e8424f60","system_id":"levelo_inurba_marseille","lat":43.321376,"lon":5.36769,"is_reserved":false,"is_disabled":false,"rental_uris":{"android":"levelo://app?vid=468b29b7-c0e4-4fb5-98d3-7139e8424f60","ios":"levelo://app?vid=468b29b7-c0e4-4fb5-98d3-7139e8424f60"},"vehicle_type_id":"4","last_reported":1757772400,"current_range_meters":11600,"station_id":"ce4bhrh2rcd13ifvqhug","pricing_plan_id":"cebpf4jnsgd1na2vs0mg"},{"bike_id":"7521d203-a334-42a8-829b-94fa7048c624","system_id":"levelo_inurba_marseille","lat":43.24548,"lon":5.39519,"is_reserved":false,"is_disabled":false,"rental_uris":{"android":"levelo://app?vid=7521d203-a334-42a8-829b-94fa7048c624","ios":"levelo://app?vid=7521d203-a334-42a8-829b-94fa7048c624"},"vehicle_type_id":"4","last_reported":1757772400,"current_range_meters":11600,"station_id":"ce4bhlp2rcd13ifvqgjg","pricing_plan_id":"cebpf4jnsgd1na2vs0mg"},{"bike_id":"9fdce098-492a-40f9-ae29-95caf53fef79","system_id":"levelo_inurba_marseille","lat":43.326974,"lon":5.391629,"is_reserved":false,"is_disabled":false,"rental_uris":{"android":"levelo://app?vid=9fdce098-492a-40f9-ae29-95caf53fef79","ios":"levelo://app?vid=9fdce098-492a-40f9-ae29-95caf53fef79"},"vehicle_type_id":"4","last_reported":1757772400,"current_range_meters":11600,"station_id":"","pricing_plan_id":"cebpf4jnsgd1na2vs0mg"},{"bike_id":"afa5b270-1b82-4b90-8fe4-7ae439ce006b","system_id":"levelo_inurba_marseille","lat":43.279848,"lon":5.416515,"is_reserved":false,"is_disabled":false,"rental_uris":{"android":"levelo://app?vid=afa5b270-1b82-4b90-8fe4-7ae439ce006b","ios":"levelo://app?vid=afa5b270-1b82-4b90-8fe4-7ae439ce006b"},"vehicle_type_id":"4","last_reported":1757772400,"current_range_meters":11600,"station_id":"ce4bho12rcd13ifvqh1g","pricing_plan_id":"cebpf4jnsgd1na2vs0mg"},{"bike_id":"7068895e-81c5-46c1-85a7-fdbb8280530f","system_id":"levelo_inurba_marseille","lat":43.23956,"lon":5.36638,"is_reserved":false,"is_disabled":false,"rental_uris":{"android":"levelo://app?vid=7068895e-81c5-46c1-85a7-fdbb8280530f","ios":"levelo://app?vid=7068895e-81c5-46c1-85a7-fdbb8280530f"},"vehicle_type_id":"4","last_reported":1757772400,"current_range_meters":11600,"station_id":"ce4bhi12rcd13ifvqfp0","pricing_plan_id":"cebpf4jnsgd1na2vs0mg"},{"bike_id":"0c78ed8a-2af8-4f2c-895d-0de884f1c9f2","system_id":"levelo_inurba_marseille","lat":43.29895,"lon":5.43654,"is_reserved":false,"is_disabled":false,"rental_uris":{"android":"levelo://app?vid=0c78ed8a-2af8-4f2c-895d-0de884f1c9f2","ios":"levelo://app?vid=0c78ed8a-2af8-4f2c-895d-0de884f1c9f2"},"vehicle_type_id":"4","last_reported":1757772400,"current_range_meters":12000,"station_id":"ce4bhpp2rcd13ifvqhfg","pricing_plan_id":"cebpf4jnsgd1na2vs0mg"},{"bike_id":"1256962c-6bb4-4918-a9e3-909c0a48e3cc","system_id":"levelo_inurba_marseille","lat":43.24808,"lon":5.37453,"is_reserved":false,"is_disabled":false,"rental_uris":{"android":"levelo://app?vid=1256962c-6bb4-4918-a9e3-909c0a48e3cc","ios":"levelo://app?vid=1256962c-6bb4-4918-a9e3-909c0a48e3cc"},"vehicle_type_id":"4","last_reported":1757772400,"current_range_meters":11600,"station_id":"ce4bhgh2rcd13ifvqfb0","pricing_plan_id":"cebpf4jnsgd1na2vs0mg"},{"bike_id":"d987f56d-76e3-4f7b-9b84-5022d38036d0","system_id":"levelo_inurba_marseille","lat":43.25339,"lon":5.42165,"is_reserved":false,"is_disabled":false,"rental_uris":{"android":"levelo://app?vid=d987f56d-76e3-4f7b-9b84-5022d38036d0","ios":"levelo://app?vid=d987f56d-76e3-4f7b-9b84-5022d38036d0"},"vehicle_type_id":"4","last_reported":1757772400,"current_range_meters":12000,"station_id":"st_d2m65c5bi1j21697t3ng","pricing_plan_id":"cebpf4jnsgd1na2vs0mg"},{"bike_id":"140f33b8-1102-4f7e-b0ef-d83c5cd8bb96","system_id":"levelo_inurba_marseille","lat":43.23188,"lon":5.3555,"is_reserved":false,"is_disabled":false,"rental_uris":{"android":"levelo://app?vid=140f33b8-1102-4f7e-b0ef-d83c5cd8bb96","ios":"levelo://app?vid=140f33b8-1102-4f7e-b0ef-d83c5cd8bb96"},"vehicle_type_id":"4","last_reported":1757772400,"current_range_meters":12000,"station_id":"ce4bhu92rcd13ifvqi70","pricing_plan_id":"cebpf4jnsgd1na2vs0mg"},{"bike_id":"8a4d2a94-6dcc-48a7-bce6-1f6f98746be6","system_id":"levelo_inurba_marseille","lat":43.27511,"lon":5.42444,"is_reserved":false,"is_disabled":false,"rental_uris":{"android":"levelo://app?vid=8a4d2a94-6dcc-48a7-bce6-1f6f98746be6","ios":"levelo://app?vid=8a4d2a94-6dcc-48a7-bce6-1f6f98746be6"},"vehicle_type_id":"4","last_reported":1757772400,"current_range_meters":12000,"station_id":"ce4bhn92rcd13ifvqgrg","pricing_plan_id":"cebpf4jnsgd1na2vs0mg"},{"bike_id":"96b542b3-6e80-4e9a-8afe-966b85f175dd","system_id":"levelo_inurba_marseille","lat":43.273153,"lon":5.390638,"is_reserved":false,"is_disabled":false,"rental_uris":{"android":"levelo://app?vid=96b542b3-6e80-4e9a-8afe-966b85f175dd","ios":"levelo://app?vid=96b542b3-6e80-4e9a-8afe-966b85f175dd"},"vehicle_type_id":"4","last_reported":1757772400,"current_range_meters":12000,"station_id":"ce4bhgp2rcd13ifvqfe0","pricing_plan_id":"cebpf4jnsgd1na2vs0mg"},{"bike_id":"b600390d-47c6-4155-b5b5-0592be1f08a7","system_id":"levelo_inurba_marseille","lat":43.28939,"lon":5.36637,"is_reserved":false,"is_disabled":false,"rental_uris":{"android":"levelo://app?vid=b600390d-47c6-4155-b5b5-0592be1f08a7","ios":"levelo://app?vid=b600390d-47c6-4155-b5b5-0592be1f08a7"},"vehicle_type_id":"4","last_reported":1757772400,"current_range_meters":12000,"station_id":"ce4bhap2rcd13ifvqek0","pricing_plan_id":"cebpf4jnsgd1na2vs0mg"},{"bike_id":"10dfb71d-b4fe-4c66-9e42-a774a54e4626","system_id":"levelo_inurba_marseille","lat":43.25114,"lon":5.40317,"is_reserved":false,"is_disabled":false,"rental_uris":{"android":"levelo://app?vid=10dfb71d-b4fe-4c66-9e42-a774a54e4626","ios":"levelo://app?vid=10dfb71d-b4fe-4c66-9e42-a774a54e4626"},"vehicle_type_id":"4","last_reported":1757772400,"current_range_meters":12000,"station_id":"ce4bhlh2rcd13ifvqgig","pricing_plan_id":"cebpf4jnsgd1na2vs0mg"},{"bike_id":"5d2d49c3-df0a-4e43-a031-b4854d84eee8","system_id":"levelo_inurba_marseille","lat":43.23963,"lon":5.36641,"is_reserved":false,"is_disabled":false,"rental_uris":{"android":"levelo://app?vid=5d2d49c3-df0a-4e43-a031-b4854d84eee8","ios":"levelo://app?vid=5d2d49c3-df0a-4e43-a031-b4854d84eee8"},"vehicle_type_id":"4","last_reported":1757772400,"current_range_meters":12400,"station_id":"ce4bhi12rcd13ifvqfp0","pricing_plan_id":"cebpf4jnsgd1na2vs0mg"},{"bike_id":"3bef69fe-5b53-4b5c-bb48-170285c21d79","system_id":"levelo_inurba_marseille","lat":43.25825,"lon":5.39397,"is_reserved":false,"is_disabled":false,"rental_uris":{"android":"levelo://app?vid=3bef69fe-5b53-4b5c-bb48-170285c21d79","ios":"levelo://app?vid=3bef69fe-5b53-4b5c-bb48-170285c21d79"},"vehicle_type_id":"4","last_reported":1757772400,"current_range_meters":12400,"station_id":"ce4bhip2rcd13ifvqft0","pricing_plan_id":"cebpf4jnsgd1na2vs0mg"},{"bike_id":"b88bf174-649a-4cf7-acde-fe1c66f5f727","system_id":"levelo_inurba_marseille","lat":43.29532,"lon":5.38538,"is_reserved":false,"is_disabled":false,"rental_uris":{"android":"levelo://app?vid=b88bf174-649a-4cf7-acde-fe1c66f5f727","ios":"levelo://app?vid=b88bf174-649a-4cf7-acde-fe1c66f5f727"},"vehicle_type_id":"4","last_reported":1757772400,"current_range_meters":12400,"station_id":"ce4bgih2rcd13ifvqba0","pricing_plan_id":"cebpf4jnsgd1na2vs0mg"},{"bike_id":"e43fdc27-4283-4e61-97ff-9c2689a8903a","system_id":"levelo_inurba_marseille","lat":43.246598,"lon":5.381612,"is_reserved":false,"is_disabled":false,"rental_uris":{"android":"levelo://app?vid=e43fdc27-4283-4e61-97ff-9c2689a8903a","ios":"levelo://app?vid=e43fdc27-4283-4e61-97ff-9c2689a8903a"},"vehicle_type_id":"4","last_reported":1757772400,"current_range_meters":12400,"station_id":"ce4bhih2rcd13ifvqfr0","pricing_plan_id":"cebpf4jnsgd1na2vs0mg"},{"bike_id":"1d0bc798-f8f3-4eed-a7b9-708453e996d6","system_id":"levelo_inurba_marseille","lat":43.2799,"lon":5.40002,"is_reserved":false,"is_disabled":false,"rental_uris":{"android":"levelo://app?vid=1d0bc798-f8f3-4eed-a7b9-708453e996d6","ios":"levelo://app?vid=1d0bc798-f8f3-4eed-a7b9-708453e996d6"},"vehicle_type_id":"4","last_reported":1757772400,"current_range_meters":12400,"station_id":"ce4bho92rcd13ifvqh4g","pricing_plan_id":"cebpf4jnsgd1na2vs0mg"},{"bike_id":"d5c98035-fc72-4062-a3ec-13203f68e8ed","system_id":"levelo_inurba_marseille","lat":43.28878,"lon":5.42499,"is_reserved":false,"is_disabled":false,"rental_uris":{"android":"levelo://app?vid=d5c98035-fc72-4062-a3ec-13203f68e8ed","ios":"levelo://app?vid=d5c98035-fc72-4062-a3ec-13203f68e8ed"},"vehicle_type_id":"4","last_reported":1757772400,"current_range_meters":12800,"station_id":"","pricing_plan_id":"cebpf4jnsgd1na2vs0mg"},{"bike_id":"dcae514d-9200-43c1-9267-dee91427cf46","system_id":"levelo_inurba_marseille","lat":43.25096,"lon":5.39509,"is_reserved":false,"is_disabled":false,"rental_uris":{"android":"levelo://app?vid=dcae514d-9200-43c1-9267-dee91427cf46","ios":"levelo://app?vid=dcae514d-9200-43c1-9267-dee91427cf46"},"vehicle_type_id":"4","last_reported":1757772400,"current_range_meters":12400,"station_id":"ce4bhm12rcd13ifvqgkg","pricing_plan_id":"cebpf4jnsgd1na2vs0mg"},{"bike_id":"4512c2c7-f6ea-48a6-8a48-abb3bc17e447","system_id":"levelo_inurba_marseille","lat":43.25577,"lon":5.3821,"is_reserved":false,"is_disabled":false,"rental_uris":{"android":"levelo://app?vid=4512c2c7-f6ea-48a6-8a48-abb3bc17e447","ios":"levelo://app?vid=4512c2c7-f6ea-48a6-8a48-abb3bc17e447"},"vehicle_type_id":"4","last_reported":1757772400,"current_range_meters":12400,"station_id":"ce4bhih2rcd13ifvqfs0","pricing_plan_id":"cebpf4jnsgd1na2vs0mg"},{"bike_id":"a7981d6b-8c32-4cf5-83af-647d9cecac3c","system_id":"levelo_inurba_marseille","lat":43.28691,"lon":5.38661,"is_reserved":false,"is_disabled":false,"rental_uris":{"android":"levelo://app?vid=a7981d6b-8c32-4cf5-83af-647d9cecac3c","ios":"levelo://app?vid=a7981d6b-8c32-4cf5-83af-647d9cecac3c"},"vehicle_type_id":"4","last_reported":1757772400,"current_range_meters":12800,"station_id":"ce4bh492rcd13ifvqdug","pricing_plan_id":"cebpf4jnsgd1na2vs0mg"},{"bike_id":"5d7563c6-af3d-43b8-9e6c-a106cba52f31","system_id":"levelo_inurba_marseille","lat":43.25501,"lon":5.37647,"is_reserved":false,"is_disabled":false,"rental_uris":{"android":"levelo://app?vid=5d7563c6-af3d-43b8-9e6c-a106cba52f31","ios":"levelo://app?vid=5d7563c6-af3d-43b8-9e6c-a106cba52f31"},"vehicle_type_id":"4","last_reported":1757772400,"current_range_meters":12800,"station_id":"ce4bhh12rcd13ifvqff0","pricing_plan_id":"cebpf4jnsgd1na2vs0mg"},{"bike_id":"84be000e-b186-4e60-8aaa-b7a0f42a7175","system_id":"levelo_inurba_marseille","lat":43.337616,"lon":5.374353,"is_reserved":false,"is_disabled":false,"rental_uris":{"android":"levelo://app?vid=84be000e-b186-4e60-8aaa-b7a0f42a7175","ios":"levelo://app?vid=84be000e-b186-4e60-8aaa-b7a0f42a7175"},"vehicle_type_id":"4","last_reported":1757772400,"current_range_meters":12800,"station_id":"","pricing_plan_id":"cebpf4jnsgd1na2vs0mg"},{"bike_id":"7dc00165-e583-4bd0-bbf8-f77743c96ba8","system_id":"levelo_inurba_marseille","lat":43.32379,"lon":5.36781,"is_reserved":false,"is_disabled":false,"rental_uris":{"android":"levelo://app?vid=7dc00165-e583-4bd0-bbf8-f77743c96ba8","ios":"levelo://app?vid=7dc00165-e583-4bd0-bbf8-f77743c96ba8"},"vehicle_type_id":"4","last_reported":1757772400,"current_range_meters":12800,"station_id":"ce4bhsh2rcd13ifvqi2g","pricing_plan_id":"cebpf4jnsgd1na2vs0mg"},{"bike_id":"6227a315-3436-4b35-be59-ce30ee280b83","system_id":"levelo_inurba_marseille","lat":43.29221,"lon":5.36026,"is_reserved":false,"is_disabled":false,"rental_uris":{"android":"levelo://app?vid=6227a315-3436-4b35-be59-ce30ee280b83","ios":"levelo://app?vid=6227a315-3436-4b35-be59-ce30ee280b83"},"vehicle_type_id":"4","last_reported":1757772400,"current_range_meters":12800,"station_id":"ce4bhbh2rcd13ifvqeqg","pricing_plan_id":"cebpf4jnsgd1na2vs0mg"},{"bike_id":"02dbb44c-70e3-4a7a-b86e-6159cc35ba47","system_id":"levelo_inurba_marseille","lat":43.29587,"lon":5.38689,"is_reserved":false,"is_disabled":false,"rental_uris":{"android":"levelo://app?vid=02dbb44c-70e3-4a7a-b86e-6159cc35ba47","ios":"levelo://app?vid=02dbb44c-70e3-4a7a-b86e-6159cc35ba47"},"vehicle_type_id":"4","last_reported":1757772400,"current_range_meters":13600,"station_id":"ce4bgih2rcd13ifvqba0","pricing_plan_id":"cebpf4jnsgd1na2vs0mg"},{"bike_id":"75fa7a42-3036-4a33-bf66-d0236430290e","system_id":"levelo_inurba_marseille","lat":43.29565,"lon":5.39965,"is_reserved":false,"is_disabled":false,"rental_uris":{"android":"levelo://app?vid=75fa7a42-3036-4a33-bf66-d0236430290e","ios":"levelo://app?vid=75fa7a42-3036-4a33-bf66-d0236430290e"},"vehicle_type_id":"4","last_reported":1757772400,"current_range_meters":14000,"station_id":"ce4bh312rcd13ifvqdj0","pricing_plan_id":"cebpf4jnsgd1na2vs0mg"},{"bike_id":"beb6189c-c21e-4836-b631-6b5c31a632d8","system_id":"levelo_inurba_marseille","lat":43.22566,"lon":5.4163,"is_reserved":false,"is_disabled":false,"rental_uris":{"android":"levelo://app?vid=beb6189c-c21e-4836-b631-6b5c31a632d8","ios":"levelo://app?vid=beb6189c-c21e-4836-b631-6b5c31a632d8"},"vehicle_type_id":"4","last_reported":1757772400,"current_range_meters":14000,"station_id":"st_d2o4gvlbi1j2169b742g","pricing_plan_id":"cebpf4jnsgd1na2vs0mg"},{"bike_id":"55d59e02-f5a5-4e1a-9360-556e842fa2a4","system_id":"levelo_inurba_marseille","lat":43.33764,"lon":5.37496,"is_reserved":false,"is_disabled":false,"rental_uris":{"android":"levelo://app?vid=55d59e02-f5a5-4e1a-9360-556e842fa2a4","ios":"levelo://app?vid=55d59e02-f5a5-4e1a-9360-556e842fa2a4"},"vehicle_type_id":"4","last_reported":1757772400,"current_range_meters":14000,"station_id":"","pricing_plan_id":"cebpf4jnsgd1na2vs0mg"},{"bike_id":"d5fe8587-d577-4927-9f03-bf5f1fa338f3","system_id":"levelo_inurba_marseille","lat":43.32653,"lon":5.37507,"is_reserved":false,"is_disabled":false,"rental_uris":{"android":"levelo://app?vid=d5fe8587-d577-4927-9f03-bf5f1fa338f3","ios":"levelo://app?vid=d5fe8587-d577-4927-9f03-bf5f1fa338f3"},"vehicle_type_id":"4","last_reported":1757772400,"current_range_meters":14000,"station_id":"","pricing_plan_id":"cebpf4jnsgd1na2vs0mg"},{"bike_id":"5bfdd8a0-fbde-4bed-b699-9117db956e54","system_id":"levelo_inurba_marseille","lat":43.29375,"lon":5.37857,"is_reserved":false,"is_disabled":false,"rental_uris":{"android":"levelo://app?vid=5bfdd8a0-fbde-4bed-b699-9117db956e54","ios":"levelo://app?vid=5bfdd8a0-fbde-4bed-b699-9117db956e54"},"vehicle_type_id":"4","last_reported":1757772400,"current_range_meters":14000,"station_id":"ce4bgjh2rcd13ifvqbf0","pricing_plan_id":"cebpf4jnsgd1na2vs0mg"},{"bike_id":"50c8e462-18f1-48a5-8702-0b3c2b93d1fd","system_id":"levelo_inurba_marseille","lat":43.31496,"lon":5.37306,"is_reserved":false,"is_disabled":false,"rental_uris":{"android":"levelo://app?vid=50c8e462-18f1-48a5-8702-0b3c2b93d1fd","ios":"levelo://app?vid=50c8e462-18f1-48a5-8702-0b3c2b93d1fd"},"vehicle_type_id":"4","last_reported":1757772400,"current_range_meters":14400,"station_id":"ce4bgt12rcd13ifvqcd0","pricing_plan_id":"cebpf4jnsgd1na2vs0mg"},{"bike_id":"4f0e6bb1-745b-4b96-899f-7bfbe4b7abe4","system_id":"levelo_inurba_marseille","lat":43.29368,"lon":5.37863,"is_reserved":false,"is_disabled":false,"rental_uris":{"android":"levelo://app?vid=4f0e6bb1-745b-4b96-899f-7bfbe4b7abe4","ios":"levelo://app?vid=4f0e6bb1-745b-4b96-899f-7bfbe4b7abe4"},"vehicle_type_id":"4","last_reported":1757772400,"current_range_meters":14400,"station_id":"ce4bgjh2rcd13ifvqbf0","pricing_plan_id":"cebpf4jnsgd1na2vs0mg"},{"bike_id":"788af850-8a57-4082-b21f-dc8518addd32","system_id":"levelo_inurba_marseille","lat":43.25579,"lon":5.38228,"is_reserved":false,"is_disabled":false,"rental_uris":{"android":"levelo://app?vid=788af850-8a57-4082-b21f-dc8518addd32","ios":"levelo://app?vid=788af850-8a57-4082-b21f-dc8518addd32"},"vehicle_type_id":"4","last_reported":1757772400,"current_range_meters":14400,"station_id":"ce4bhih2rcd13ifvqfs0","pricing_plan_id":"cebpf4jnsgd1na2vs0mg"},{"bike_id":"f8ffd399-b74b-428b-b8c5-652d37f4b22c","system_id":"levelo_inurba_marseille","lat":43.249718,"lon":5.404982,"is_reserved":false,"is_disabled":false,"rental_uris":{"android":"levelo://app?vid=f8ffd399-b74b-428b-b8c5-652d37f4b22c","ios":"levelo://app?vid=f8ffd399-b74b-428b-b8c5-652d37f4b22c"},"vehicle_type_id":"4","last_reported":1757772400,"current_range_meters":14400,"station_id":"st_d2ngiaodas8pm72gd1h0","pricing_plan_id":"cebpf4jnsgd1na2vs0mg"},{"bike_id":"d9c66413-fc0c-4d58-b9df-c55859e73212","system_id":"levelo_inurba_marseille","lat":43.28459,"lon":5.35878,"is_reserved":false,"is_disabled":true,"rental_uris":{"android":"levelo://app?vid=d9c66413-fc0c-4d58-b9df-c55859e73212","ios":"levelo://app?vid=d9c66413-fc0c-4d58-b9df-c55859e73212"},"vehicle_type_id":"4","last_reported":1757772400,"current_range_meters":14400,"station_id":"ce4bhah2rcd13ifvqei0","pricing_plan_id":"cebpf4jnsgd1na2vs0mg"},{"bike_id":"7c2f17a4-f002-4fec-aa5e-8812f5d2b5e5","system_id":"levelo_inurba_marseille","lat":43.26568,"lon":5.38996,"is_reserved":false,"is_disabled":false,"rental_uris":{"android":"levelo://app?vid=7c2f17a4-f002-4fec-aa5e-8812f5d2b5e5","ios":"levelo://app?vid=7c2f17a4-f002-4fec-aa5e-8812f5d2b5e5"},"vehicle_type_id":"4","last_reported":1757772400,"current_range_meters":14400,"station_id":"ce4bhe12rcd13ifvqf30","pricing_plan_id":"cebpf4jnsgd1na2vs0mg"},{"bike_id":"d9c11a94-d122-4240-b95b-24fdee8810ac","system_id":"levelo_inurba_marseille","lat":43.28283,"lon":5.39895,"is_reserved":false,"is_disabled":false,"rental_uris":{"android":"levelo://app?vid=d9c11a94-d122-4240-b95b-24fdee8810ac","ios":"levelo://app?vid=d9c11a94-d122-4240-b95b-24fdee8810ac"},"vehicle_type_id":"4","last_reported":1757772400,"current_range_meters":14400,"station_id":"","pricing_plan_id":"cebpf4jnsgd1na2vs0mg"},{"bike_id":"72df06fe-2cad-451f-84cd-1eeb37154def","system_id":"levelo_inurba_marseille","lat":43.29034,"lon":5.39959,"is_reserved":false,"is_disabled":false,"rental_uris":{"android":"levelo://app?vid=72df06fe-2cad-451f-84cd-1eeb37154def","ios":"levelo://app?vid=72df06fe-2cad-451f-84cd-1eeb37154def"},"vehicle_type_id":"4","last_reported":1757772400,"current_range_meters":14400,"station_id":"ce4bh392rcd13ifvqdm0","pricing_plan_id":"cebpf4jnsgd1na2vs0mg"},{"bike_id":"730e08ba-8035-4750-a1e8-6e1ad0e7b15b","system_id":"levelo_inurba_marseille","lat":43.25001,"lon":5.38924,"is_reserved":false,"is_disabled":false,"rental_uris":{"android":"levelo://app?vid=730e08ba-8035-4750-a1e8-6e1ad0e7b15b","ios":"levelo://app?vid=730e08ba-8035-4750-a1e8-6e1ad0e7b15b"},"vehicle_type_id":"4","last_reported":1757772400,"current_range_meters":14800,"station_id":"ce4bhgp2rcd13ifvqfd0","pricing_plan_id":"cebpf4jnsgd1na2vs0mg"},{"bike_id":"ece8953e-9602-4cff-88e8-c287ca8720f9","system_id":"levelo_inurba_marseille","lat":43.29243,"lon":5.40033,"is_reserved":false,"is_disabled":false,"rental_uris":{"android":"levelo://app?vid=ece8953e-9602-4cff-88e8-c287ca8720f9","ios":"levelo://app?vid=ece8953e-9602-4cff-88e8-c287ca8720f9"},"vehicle_type_id":"4","last_reported":1757772400,"current_range_meters":14800,"station_id":"","pricing_plan_id":"cebpf4jnsgd1na2vs0mg"},{"bike_id":"5fb6bbc0-2cd0-41a4-8a90-feb9a5d129dd","system_id":"levelo_inurba_marseille","lat":43.2815,"lon":5.42633,"is_reserved":false,"is_disabled":false,"rental_uris":{"android":"levelo://app?vid=5fb6bbc0-2cd0-41a4-8a90-feb9a5d129dd","ios":"levelo://app?vid=5fb6bbc0-2cd0-41a4-8a90-feb9a5d129dd"},"vehicle_type_id":"4","last_reported":1757772400,"current_range_meters":14800,"station_id":"ce4bhnh2rcd13ifvqgug","pricing_plan_id":"cebpf4jnsgd1na2vs0mg"},{"bike_id":"b81ac566-30ab-45f4-a917-e0cb422aff7d","system_id":"levelo_inurba_marseille","lat":43.25134,"lon":5.40321,"is_reserved":false,"is_disabled":false,"rental_uris":{"android":"levelo://app?vid=b81ac566-30ab-45f4-a917-e0cb422aff7d","ios":"levelo://app?vid=b81ac566-30ab-45f4-a917-e0cb422aff7d"},"vehicle_type_id":"4","last_reported":1757772400,"current_range_meters":14800,"station_id":"ce4bhlh2rcd13ifvqgig","pricing_plan_id":"cebpf4jnsgd1na2vs0mg"},{"bike_id":"081eb476-ae75-4e11-af09-16d68b7dc762","system_id":"levelo_inurba_marseille","lat":43.27944,"lon":5.4104,"is_reserved":false,"is_disabled":false,"rental_uris":{"android":"levelo://app?vid=081eb476-ae75-4e11-af09-16d68b7dc762","ios":"levelo://app?vid=081eb476-ae75-4e11-af09-16d68b7dc762"},"vehicle_type_id":"4","last_reported":1757772400,"current_range_meters":14800,"station_id":"ce4bhnp2rcd13ifvqh0g","pricing_plan_id":"cebpf4jnsgd1na2vs0mg"},{"bike_id":"d4a6b840-8620-4b18-b273-ef261daa37e3","system_id":"levelo_inurba_marseille","lat":43.25116,"lon":5.40319,"is_reserved":false,"is_disabled":false,"rental_uris":{"android":"levelo://app?vid=d4a6b840-8620-4b18-b273-ef261daa37e3","ios":"levelo://app?vid=d4a6b840-8620-4b18-b273-ef261daa37e3"},"vehicle_type_id":"4","last_reported":1757772400,"current_range_meters":14800,"station_id":"ce4bhlh2rcd13ifvqgig","pricing_plan_id":"cebpf4jnsgd1na2vs0mg"},{"bike_id":"f07d1a34-6972-4c1d-8ed8-100dd0fc1e78","system_id":"levelo_inurba_marseille","lat":43.32985,"lon":5.39052,"is_reserved":false,"is_disabled":false,"rental_uris":{"android":"levelo://app?vid=f07d1a34-6972-4c1d-8ed8-100dd0fc1e78","ios":"levelo://app?vid=f07d1a34-6972-4c1d-8ed8-100dd0fc1e78"},"vehicle_type_id":"4","last_reported":1757772400,"current_range_meters":14800,"station_id":"ce4bhr92rcd13ifvqhrg","pricing_plan_id":"cebpf4jnsgd1na2vs0mg"},{"bike_id":"fd218640-494e-431d-8b04-8f6db88f5240","system_id":"levelo_inurba_marseille","lat":43.29003,"lon":5.35609,"is_reserved":false,"is_disabled":false,"rental_uris":{"android":"levelo://app?vid=fd218640-494e-431d-8b04-8f6db88f5240","ios":"levelo://app?vid=fd218640-494e-431d-8b04-8f6db88f5240"},"vehicle_type_id":"4","last_reported":1757772400,"current_range_meters":14800,"station_id":"ce4bhb92rcd13ifvqen0","pricing_plan_id":"cebpf4jnsgd1na2vs0mg"},{"bike_id":"f1b98bb3-9c9c-4877-84fc-feffc1d4258e","system_id":"levelo_inurba_marseille","lat":43.24648,"lon":5.3889,"is_reserved":false,"is_disabled":false,"rental_uris":{"android":"levelo://app?vid=f1b98bb3-9c9c-4877-84fc-feffc1d4258e","ios":"levelo://app?vid=f1b98bb3-9c9c-4877-84fc-feffc1d4258e"},"vehicle_type_id":"4","last_reported":1757772400,"current_range_meters":14800,"station_id":"ce4bhg12rcd13ifvqf60","pricing_plan_id":"cebpf4jnsgd1na2vs0mg"},{"bike_id":"cd104b68-7370-4e88-ba9c-1edeee0f6c77","system_id":"levelo_inurba_marseille","lat":43.25208,"lon":5.42491,"is_reserved":false,"is_disabled":false,"rental_uris":{"android":"levelo://app?vid=cd104b68-7370-4e88-ba9c-1edeee0f6c77","ios":"levelo://app?vid=cd104b68-7370-4e88-ba9c-1edeee0f6c77"},"vehicle_type_id":"4","last_reported":1757772400,"current_range_meters":15200,"station_id":"","pricing_plan_id":"cebpf4jnsgd1na2vs0mg"},{"bike_id":"24319f5b-576f-4243-a0a7-aa13f2372eef","system_id":"levelo_inurba_marseille","lat":43.29221,"lon":5.36068,"is_reserved":false,"is_disabled":false,"rental_uris":{"android":"levelo://app?vid=24319f5b-576f-4243-a0a7-aa13f2372eef","ios":"levelo://app?vid=24319f5b-576f-4243-a0a7-aa13f2372eef"},"vehicle_type_id":"4","last_reported":1757772400,"current_range_meters":15200,"station_id":"ce4bhbh2rcd13ifvqeqg","pricing_plan_id":"cebpf4jnsgd1na2vs0mg"},{"bike_id":"e7a329bd-ed66-4ac7-aaba-63f2810ddd86","system_id":"levelo_inurba_marseille","lat":43.31946,"lon":5.3722,"is_reserved":false,"is_disabled":false,"rental_uris":{"android":"levelo://app?vid=e7a329bd-ed66-4ac7-aaba-63f2810ddd86","ios":"levelo://app?vid=e7a329bd-ed66-4ac7-aaba-63f2810ddd86"},"vehicle_type_id":"4","last_reported":1757772400,"current_range_meters":15200,"station_id":"","pricing_plan_id":"cebpf4jnsgd1na2vs0mg"},{"bike_id":"68f99694-d3c1-4e62-965f-864c9e441dfd","system_id":"levelo_inurba_marseille","lat":43.32042,"lon":5.41543,"is_reserved":false,"is_disabled":false,"rental_uris":{"android":"levelo://app?vid=68f99694-d3c1-4e62-965f-864c9e441dfd","ios":"levelo://app?vid=68f99694-d3c1-4e62-965f-864c9e441dfd"},"vehicle_type_id":"4","last_reported":1757772400,"current_range_meters":15200,"station_id":"ce4bhq92rcd13ifvqhkg","pricing_plan_id":"cebpf4jnsgd1na2vs0mg"},{"bike_id":"c5cba6d7-e282-4417-a818-5fc0802dcb08","system_id":"levelo_inurba_marseille","lat":43.33761,"lon":5.3745,"is_reserved":false,"is_disabled":false,"rental_uris":{"android":"levelo://app?vid=c5cba6d7-e282-4417-a818-5fc0802dcb08","ios":"levelo://app?vid=c5cba6d7-e282-4417-a818-5fc0802dcb08"},"vehicle_type_id":"4","last_reported":1757772400,"current_range_meters":15200,"station_id":"","pricing_plan_id":"cebpf4jnsgd1na2vs0mg"},{"bike_id":"31195751-bbc1-4ea5-8068-c21d8881b649","system_id":"levelo_inurba_marseille","lat":43.24078,"lon":5.37745,"is_reserved":false,"is_disabled":false,"rental_uris":{"android":"levelo://app?vid=31195751-bbc1-4ea5-8068-c21d8881b649","ios":"levelo://app?vid=31195751-bbc1-4ea5-8068-c21d8881b649"},"vehicle_type_id":"4","last_reported":1757772400,"current_range_meters":16000,"station_id":"ce4bhnp2rcd13ifvqgvg","pricing_plan_id":"cebpf4jnsgd1na2vs0mg"},{"bike_id":"de8e191c-2b64-48e9-9fbd-c91b068b6a74","system_id":"levelo_inurba_marseille","lat":43.24555,"lon":5.3951,"is_reserved":false,"is_disabled":false,"rental_uris":{"android":"levelo://app?vid=de8e191c-2b64-48e9-9fbd-c91b068b6a74","ios":"levelo://app?vid=de8e191c-2b64-48e9-9fbd-c91b068b6a74"},"vehicle_type_id":"4","last_reported":1757772400,"current_range_meters":16000,"station_id":"ce4bhlp2rcd13ifvqgjg","pricing_plan_id":"cebpf4jnsgd1na2vs0mg"},{"bike_id":"43f0f0ac-cb2b-4012-86c2-52600dd6c61d","system_id":"levelo_inurba_marseille","lat":43.315,"lon":5.3731,"is_reserved":false,"is_disabled":false,"rental_uris":{"android":"levelo://app?vid=43f0f0ac-cb2b-4012-86c2-52600dd6c61d","ios":"levelo://app?vid=43f0f0ac-cb2b-4012-86c2-52600dd6c61d"},"vehicle_type_id":"4","last_reported":1757772400,"current_range_meters":16000,"station_id":"ce4bgt12rcd13ifvqcd0","pricing_plan_id":"cebpf4jnsgd1na2vs0mg"},{"bike_id":"1eaf7d24-f23e-4e79-b6f5-17176bccc028","system_id":"levelo_inurba_marseille","lat":43.279642,"lon":5.387209,"is_reserved":false,"is_disabled":true,"rental_uris":{"android":"levelo://app?vid=1eaf7d24-f23e-4e79-b6f5-17176bccc028","ios":"levelo://app?vid=1eaf7d24-f23e-4e79-b6f5-17176bccc028"},"vehicle_type_id":"4","last_reported":1757772400,"current_range_meters":16000,"station_id":"ce4bhg12rcd13ifvqf80","pricing_plan_id":"cebpf4jnsgd1na2vs0mg"},{"bike_id":"ee42c31a-b74b-4b2d-917a-cd50dc10c6ce","system_id":"levelo_inurba_marseille","lat":43.33062,"lon":5.38979,"is_reserved":false,"is_disabled":false,"rental_uris":{"android":"levelo://app?vid=ee42c31a-b74b-4b2d-917a-cd50dc10c6ce","ios":"levelo://app?vid=ee42c31a-b74b-4b2d-917a-cd50dc10c6ce"},"vehicle_type_id":"4","last_reported":1757772400,"current_range_meters":16000,"station_id":"","pricing_plan_id":"cebpf4jnsgd1na2vs0mg"},{"bike_id":"40207740-3997-48f7-a3a9-b19ccf0a0c3b","system_id":"levelo_inurba_marseille","lat":43.30412,"lon":5.41283,"is_reserved":false,"is_disabled":false,"rental_uris":{"android":"levelo://app?vid=40207740-3997-48f7-a3a9-b19ccf0a0c3b","ios":"levelo://app?vid=40207740-3997-48f7-a3a9-b19ccf0a0c3b"},"vehicle_type_id":"4","last_reported":1757772400,"current_range_meters":16000,"station_id":"ce4bhop2rcd13ifvqh8g","pricing_plan_id":"cebpf4jnsgd1na2vs0mg"},{"bike_id":"c682ef70-00bc-4415-9b10-9a35bd5ddcc1","system_id":"levelo_inurba_marseille","lat":43.274978,"lon":5.424498,"is_reserved":false,"is_disabled":false,"rental_uris":{"android":"levelo://app?vid=c682ef70-00bc-4415-9b10-9a35bd5ddcc1","ios":"levelo://app?vid=c682ef70-00bc-4415-9b10-9a35bd5ddcc1"},"vehicle_type_id":"4","last_reported":1757772400,"current_range_meters":16400,"station_id":"ce4bhn92rcd13ifvqgrg","pricing_plan_id":"cebpf4jnsgd1na2vs0mg"},{"bike_id":"2fddb1b6-0cf3-47a6-bbfe-00ad5f79b554","system_id":"levelo_inurba_marseille","lat":43.27615,"lon":5.36106,"is_reserved":false,"is_disabled":false,"rental_uris":{"android":"levelo://app?vid=2fddb1b6-0cf3-47a6-bbfe-00ad5f79b554","ios":"levelo://app?vid=2fddb1b6-0cf3-47a6-bbfe-00ad5f79b554"},"vehicle_type_id":"4","last_reported":1757772400,"current_range_meters":16400,"station_id":"ce4bgj92rcd13ifvqbe0","pricing_plan_id":"cebpf4jnsgd1na2vs0mg"},{"bike_id":"6bfcaa39-5545-4ec8-90a0-37989f5da355","system_id":"levelo_inurba_marseille","lat":43.2925,"lon":5.40905,"is_reserved":false,"is_disabled":false,"rental_uris":{"android":"levelo://app?vid=6bfcaa39-5545-4ec8-90a0-37989f5da355","ios":"levelo://app?vid=6bfcaa39-5545-4ec8-90a0-37989f5da355"},"vehicle_type_id":"4","last_reported":1757772400,"current_range_meters":16400,"station_id":"ce4bh192rcd13ifvqdc0","pricing_plan_id":"cebpf4jnsgd1na2vs0mg"},{"bike_id":"986f11d8-1003-4830-932e-a59ca28f5df3","system_id":"levelo_inurba_marseille","lat":43.22932,"lon":5.35382,"is_reserved":false,"is_disabled":false,"rental_uris":{"android":"levelo://app?vid=986f11d8-1003-4830-932e-a59ca28f5df3","ios":"levelo://app?vid=986f11d8-1003-4830-932e-a59ca28f5df3"},"vehicle_type_id":"4","last_reported":1757772400,"current_range_meters":16400,"station_id":"cpo3532slgdg3j2ikp40","pricing_plan_id":"cebpf4jnsgd1na2vs0mg"},{"bike_id":"12b9c958-ee1d-4a7e-b063-6648532a7910","system_id":"levelo_inurba_marseille","lat":43.30421,"lon":5.41302,"is_reserved":false,"is_disabled":false,"rental_uris":{"android":"levelo://app?vid=12b9c958-ee1d-4a7e-b063-6648532a7910","ios":"levelo://app?vid=12b9c958-ee1d-4a7e-b063-6648532a7910"},"vehicle_type_id":"4","last_reported":1757772400,"current_range_meters":16400,"station_id":"ce4bhop2rcd13ifvqh8g","pricing_plan_id":"cebpf4jnsgd1na2vs0mg"},{"bike_id":"4b892fc6-153b-438b-a07e-a34aaac8b5b6","system_id":"levelo_inurba_marseille","lat":43.25497,"lon":5.37647,"is_reserved":false,"is_disabled":false,"rental_uris":{"android":"levelo://app?vid=4b892fc6-153b-438b-a07e-a34aaac8b5b6","ios":"levelo://app?vid=4b892fc6-153b-438b-a07e-a34aaac8b5b6"},"vehicle_type_id":"4","last_reported":1757772400,"current_range_meters":16400,"station_id":"ce4bhh12rcd13ifvqff0","pricing_plan_id":"cebpf4jnsgd1na2vs0mg"},{"bike_id":"9613ee4d-bd84-40ec-a183-9abb4af6a1b6","system_id":"levelo_inurba_marseille","lat":43.3235,"lon":5.36744,"is_reserved":false,"is_disabled":false,"rental_uris":{"android":"levelo://app?vid=9613ee4d-bd84-40ec-a183-9abb4af6a1b6","ios":"levelo://app?vid=9613ee4d-bd84-40ec-a183-9abb4af6a1b6"},"vehicle_type_id":"4","last_reported":1757772400,"current_range_meters":16400,"station_id":"ce4bhsh2rcd13ifvqi2g","pricing_plan_id":"cebpf4jnsgd1na2vs0mg"},{"bike_id":"93cd437f-71c4-447e-96ea-a807c6b766e5","system_id":"levelo_inurba_marseille","lat":43.29902,"lon":5.3747,"is_reserved":false,"is_disabled":false,"rental_uris":{"android":"levelo://app?vid=93cd437f-71c4-447e-96ea-a807c6b766e5","ios":"levelo://app?vid=93cd437f-71c4-447e-96ea-a807c6b766e5"},"vehicle_type_id":"4","last_reported":1757772400,"current_range_meters":16800,"station_id":"ce4bgjh2rcd13ifvqbg0","pricing_plan_id":"cebpf4jnsgd1na2vs0mg"},{"bike_id":"0418ed23-d4c6-49db-b310-d4f985bd3bc3","system_id":"levelo_inurba_marseille","lat":43.32123,"lon":5.36765,"is_reserved":false,"is_disabled":false,"rental_uris":{"android":"levelo://app?vid=0418ed23-d4c6-49db-b310-d4f985bd3bc3","ios":"levelo://app?vid=0418ed23-d4c6-49db-b310-d4f985bd3bc3"},"vehicle_type_id":"4","last_reported":1757772400,"current_range_meters":16800,"station_id":"ce4bhrh2rcd13ifvqhug","pricing_plan_id":"cebpf4jnsgd1na2vs0mg"},{"bike_id":"96845387-e78d-468c-97cb-59e880e03d06","system_id":"levelo_inurba_marseille","lat":43.31268,"lon":5.40161,"is_reserved":false,"is_disabled":false,"rental_uris":{"android":"levelo://app?vid=96845387-e78d-468c-97cb-59e880e03d06","ios":"levelo://app?vid=96845387-e78d-468c-97cb-59e880e03d06"},"vehicle_type_id":"4","last_reported":1757772400,"current_range_meters":16800,"station_id":"ce4bh092rcd13ifvqd30","pricing_plan_id":"cebpf4jnsgd1na2vs0mg"},{"bike_id":"099dc754-cf09-4145-b6fa-59b333ab25e3","system_id":"levelo_inurba_marseille","lat":43.24637,"lon":5.43132,"is_reserved":false,"is_disabled":false,"rental_uris":{"android":"levelo://app?vid=099dc754-cf09-4145-b6fa-59b333ab25e3","ios":"levelo://app?vid=099dc754-cf09-4145-b6fa-59b333ab25e3"},"vehicle_type_id":"4","last_reported":1757772400,"current_range_meters":17200,"station_id":"st_d2m6c4gdas8pm72e190g","pricing_plan_id":"cebpf4jnsgd1na2vs0mg"},{"bike_id":"4d6e6605-7f16-44fa-a19a-c138ee7cb360","system_id":"levelo_inurba_marseille","lat":43.33751,"lon":5.37442,"is_reserved":false,"is_disabled":false,"rental_uris":{"android":"levelo://app?vid=4d6e6605-7f16-44fa-a19a-c138ee7cb360","ios":"levelo://app?vid=4d6e6605-7f16-44fa-a19a-c138ee7cb360"},"vehicle_type_id":"4","last_reported":1757772400,"current_range_meters":16800,"station_id":"","pricing_plan_id":"cebpf4jnsgd1na2vs0mg"},{"bike_id":"efd8e704-2363-4b53-abb2-0198cae2d05e","system_id":"levelo_inurba_marseille","lat":43.29267,"lon":5.38431,"is_reserved":false,"is_disabled":false,"rental_uris":{"android":"levelo://app?vid=efd8e704-2363-4b53-abb2-0198cae2d05e","ios":"levelo://app?vid=efd8e704-2363-4b53-abb2-0198cae2d05e"},"vehicle_type_id":"4","last_reported":1757772400,"current_range_meters":16800,"station_id":"ce4bh692rcd13ifvqea0","pricing_plan_id":"cebpf4jnsgd1na2vs0mg"},{"bike_id":"3edab8b5-08ab-4bd7-a8e3-46e14fec2b69","system_id":"levelo_inurba_marseille","lat":43.22546,"lon":5.4158,"is_reserved":false,"is_disabled":false,"rental_uris":{"android":"levelo://app?vid=3edab8b5-08ab-4bd7-a8e3-46e14fec2b69","ios":"levelo://app?vid=3edab8b5-08ab-4bd7-a8e3-46e14fec2b69"},"vehicle_type_id":"4","last_reported":1757772400,"current_range_meters":16800,"station_id":"st_d2o4gvlbi1j2169b742g","pricing_plan_id":"cebpf4jnsgd1na2vs0mg"},{"bike_id":"3bc338fd-b3c5-4caa-b6e6-3c70a52689ba","system_id":"levelo_inurba_marseille","lat":43.3159,"lon":5.38896,"is_reserved":false,"is_disabled":false,"rental_uris":{"android":"levelo://app?vid=3bc338fd-b3c5-4caa-b6e6-3c70a52689ba","ios":"levelo://app?vid=3bc338fd-b3c5-4caa-b6e6-3c70a52689ba"},"vehicle_type_id":"4","last_reported":1757772400,"current_range_meters":16800,"station_id":"","pricing_plan_id":"cebpf4jnsgd1na2vs0mg"},{"bike_id":"ffab450d-4c81-4d44-8256-678a72cf8297","system_id":"levelo_inurba_marseille","lat":43.31734,"lon":5.40475,"is_reserved":false,"is_disabled":false,"rental_uris":{"android":"levelo://app?vid=ffab450d-4c81-4d44-8256-678a72cf8297","ios":"levelo://app?vid=ffab450d-4c81-4d44-8256-678a72cf8297"},"vehicle_type_id":"4","last_reported":1757772400,"current_range_meters":17200,"station_id":"","pricing_plan_id":"cebpf4jnsgd1na2vs0mg"},{"bike_id":"78d8646b-13df-4b6e-af58-e98aa9694030","system_id":"levelo_inurba_marseille","lat":43.30165,"lon":5.38079,"is_reserved":false,"is_disabled":false,"rental_uris":{"android":"levelo://app?vid=78d8646b-13df-4b6e-af58-e98aa9694030","ios":"levelo://app?vid=78d8646b-13df-4b6e-af58-e98aa9694030"},"vehicle_type_id":"4","last_reported":1757772400,"current_range_meters":17200,"station_id":"ce4bgjp2rcd13ifvqbh0","pricing_plan_id":"cebpf4jnsgd1na2vs0mg"},{"bike_id":"695bc73c-02f9-4c78-a8d4-70d9461761ac","system_id":"levelo_inurba_marseille","lat":43.28167,"lon":5.42625,"is_reserved":false,"is_disabled":false,"rental_uris":{"android":"levelo://app?vid=695bc73c-02f9-4c78-a8d4-70d9461761ac","ios":"levelo://app?vid=695bc73c-02f9-4c78-a8d4-70d9461761ac"},"vehicle_type_id":"4","last_reported":1757772400,"current_range_meters":17200,"station_id":"ce4bhnh2rcd13ifvqgug","pricing_plan_id":"cebpf4jnsgd1na2vs0mg"},{"bike_id":"08dd149f-234d-4257-9742-8ea8a2f2658d","system_id":"levelo_inurba_marseille","lat":43.28399,"lon":5.37521,"is_reserved":false,"is_disabled":true,"rental_uris":{"android":"levelo://app?vid=08dd149f-234d-4257-9742-8ea8a2f2658d","ios":"levelo://app?vid=08dd149f-234d-4257-9742-8ea8a2f2658d"},"vehicle_type_id":"4","last_reported":1757772400,"current_range_meters":17200,"station_id":"ce4bh412rcd13ifvqds0","pricing_plan_id":"cebpf4jnsgd1na2vs0mg"},{"bike_id":"1ff90896-564c-49da-835a-dde6cae849e8","system_id":"levelo_inurba_marseille","lat":43.29527,"lon":5.3854,"is_reserved":false,"is_disabled":false,"rental_uris":{"android":"levelo://app?vid=1ff90896-564c-49da-835a-dde6cae849e8","ios":"levelo://app?vid=1ff90896-564c-49da-835a-dde6cae849e8"},"vehicle_type_id":"4","last_reported":1757772400,"current_range_meters":17200,"station_id":"ce4bgih2rcd13ifvqba0","pricing_plan_id":"cebpf4jnsgd1na2vs0mg"},{"bike_id":"c75bfa20-483b-42f7-8a25-5f10e08a57b0","system_id":"levelo_inurba_marseille","lat":43.32116,"lon":5.36801,"is_reserved":false,"is_disabled":false,"rental_uris":{"android":"levelo://app?vid=c75bfa20-483b-42f7-8a25-5f10e08a57b0","ios":"levelo://app?vid=c75bfa20-483b-42f7-8a25-5f10e08a57b0"},"vehicle_type_id":"4","last_reported":1757772400,"current_range_meters":17200,"station_id":"ce4bhrh2rcd13ifvqhug","pricing_plan_id":"cebpf4jnsgd1na2vs0mg"},{"bike_id":"5c5320b4-41ee-4bdc-b4d4-228344d69242","system_id":"levelo_inurba_marseille","lat":43.30902,"lon":5.36861,"is_reserved":false,"is_disabled":false,"rental_uris":{"android":"levelo://app?vid=5c5320b4-41ee-4bdc-b4d4-228344d69242","ios":"levelo://app?vid=5c5320b4-41ee-4bdc-b4d4-228344d69242"},"vehicle_type_id":"4","last_reported":1757772400,"current_range_meters":17600,"station_id":"ce4bgn92rcd13ifvqbvg","pricing_plan_id":"cebpf4jnsgd1na2vs0mg"},{"bike_id":"1fa9cf8a-cbc2-4f66-a5af-49139eedcffa","system_id":"levelo_inurba_marseille","lat":43.31693,"lon":5.40481,"is_reserved":false,"is_disabled":false,"rental_uris":{"android":"levelo://app?vid=1fa9cf8a-cbc2-4f66-a5af-49139eedcffa","ios":"levelo://app?vid=1fa9cf8a-cbc2-4f66-a5af-49139eedcffa"},"vehicle_type_id":"4","last_reported":1757772400,"current_range_meters":17600,"station_id":"ce4bh012rcd13ifvqd00","pricing_plan_id":"cebpf4jnsgd1na2vs0mg"},{"bike_id":"fd023a40-d69c-4361-9109-4126162693f0","system_id":"levelo_inurba_marseille","lat":43.27774,"lon":5.37826,"is_reserved":false,"is_disabled":false,"rental_uris":{"android":"levelo://app?vid=fd023a40-d69c-4361-9109-4126162693f0","ios":"levelo://app?vid=fd023a40-d69c-4361-9109-4126162693f0"},"vehicle_type_id":"4","last_reported":1757772400,"current_range_meters":17600,"station_id":"","pricing_plan_id":"cebpf4jnsgd1na2vs0mg"},{"bike_id":"5476d906-b0c2-4d37-81e0-6fc56d7abe48","system_id":"levelo_inurba_marseille","lat":43.31701,"lon":5.37651,"is_reserved":false,"is_disabled":false,"rental_uris":{"android":"levelo://app?vid=5476d906-b0c2-4d37-81e0-6fc56d7abe48","ios":"levelo://app?vid=5476d906-b0c2-4d37-81e0-6fc56d7abe48"},"vehicle_type_id":"4","last_reported":1757772400,"current_range_meters":17600,"station_id":"","pricing_plan_id":"cebpf4jnsgd1na2vs0mg"},{"bike_id":"b07aa0c5-a394-4147-825d-d46f5f93430a","system_id":"levelo_inurba_marseille","lat":43.26583,"lon":5.37287,"is_reserved":false,"is_disabled":false,"rental_uris":{"android":"levelo://app?vid=b07aa0c5-a394-4147-825d-d46f5f93430a","ios":"levelo://app?vid=b07aa0c5-a394-4147-825d-d46f5f93430a"},"vehicle_type_id":"4","last_reported":1757772400,"current_range_meters":17600,"station_id":"ce4bhg12rcd13ifvqf70","pricing_plan_id":"cebpf4jnsgd1na2vs0mg"},{"bike_id":"22c0f67f-f634-46f5-963d-39b391d0da9d","system_id":"levelo_inurba_marseille","lat":43.281564,"lon":5.426368,"is_reserved":false,"is_disabled":false,"rental_uris":{"android":"levelo://app?vid=22c0f67f-f634-46f5-963d-39b391d0da9d","ios":"levelo://app?vid=22c0f67f-f634-46f5-963d-39b391d0da9d"},"vehicle_type_id":"4","last_reported":1757772400,"current_range_meters":17600,"station_id":"ce4bhnh2rcd13ifvqgug","pricing_plan_id":"cebpf4jnsgd1na2vs0mg"},{"bike_id":"4ac818a3-6e55-4aba-a2de-c1f08c621e6c","system_id":"levelo_inurba_marseille","lat":43.284063,"lon":5.375097,"is_reserved":false,"is_disabled":false,"rental_uris":{"android":"levelo://app?vid=4ac818a3-6e55-4aba-a2de-c1f08c621e6c","ios":"levelo://app?vid=4ac818a3-6e55-4aba-a2de-c1f08c621e6c"},"vehicle_type_id":"4","last_reported":1757772400,"current_range_meters":17600,"station_id":"ce4bh412rcd13ifvqds0","pricing_plan_id":"cebpf4jnsgd1na2vs0mg"},{"bike_id":"a6ce2e6b-5ca9-483b-9b84-41c9b83b41a6","system_id":"levelo_inurba_marseille","lat":43.28408,"lon":5.34969,"is_reserved":false,"is_disabled":false,"rental_uris":{"android":"levelo://app?vid=a6ce2e6b-5ca9-483b-9b84-41c9b83b41a6","ios":"levelo://app?vid=a6ce2e6b-5ca9-483b-9b84-41c9b83b41a6"},"vehicle_type_id":"4","last_reported":1757772400,"current_range_meters":17600,"station_id":"ce4bhbh2rcd13ifvqepg","pricing_plan_id":"cebpf4jnsgd1na2vs0mg"},{"bike_id":"f7790c6c-98d0-4508-b065-9301f04dccf9","system_id":"levelo_inurba_marseille","lat":43.29614,"lon":5.37717,"is_reserved":false,"is_disabled":false,"rental_uris":{"android":"levelo://app?vid=f7790c6c-98d0-4508-b065-9301f04dccf9","ios":"levelo://app?vid=f7790c6c-98d0-4508-b065-9301f04dccf9"},"vehicle_type_id":"4","last_reported":1757772400,"current_range_meters":17600,"station_id":"ce4bgi92rcd13ifvqb90","pricing_plan_id":"cebpf4jnsgd1na2vs0mg"},{"bike_id":"8531afdb-32d4-4c53-8b7d-1730982d0eec","system_id":"levelo_inurba_marseille","lat":43.21768,"lon":5.34586,"is_reserved":false,"is_disabled":false,"rental_uris":{"android":"levelo://app?vid=8531afdb-32d4-4c53-8b7d-1730982d0eec","ios":"levelo://app?vid=8531afdb-32d4-4c53-8b7d-1730982d0eec"},"vehicle_type_id":"4","last_reported":1757772400,"current_range_meters":18000,"station_id":"","pricing_plan_id":"cebpf4jnsgd1na2vs0mg"},{"bike_id":"085d1fc3-832e-4bb8-9dab-596c869e48fd","system_id":"levelo_inurba_marseille","lat":43.282139,"lon":5.390447,"is_reserved":false,"is_disabled":true,"rental_uris":{"android":"levelo://app?vid=085d1fc3-832e-4bb8-9dab-596c869e48fd","ios":"levelo://app?vid=085d1fc3-832e-4bb8-9dab-596c869e48fd"},"vehicle_type_id":"4","last_reported":1757772400,"current_range_meters":18000,"station_id":"ce4bhn92rcd13ifvqgsg","pricing_plan_id":"cebpf4jnsgd1na2vs0mg"},{"bike_id":"f2e7f7ee-6392-439a-b3b4-7d4d6b07b6ce","system_id":"levelo_inurba_marseille","lat":43.30511,"lon":5.36537,"is_reserved":false,"is_disabled":false,"rental_uris":{"android":"levelo://app?vid=f2e7f7ee-6392-439a-b3b4-7d4d6b07b6ce","ios":"levelo://app?vid=f2e7f7ee-6392-439a-b3b4-7d4d6b07b6ce"},"vehicle_type_id":"4","last_reported":1757772400,"current_range_meters":18000,"station_id":"","pricing_plan_id":"cebpf4jnsgd1na2vs0mg"},{"bike_id":"2500752c-16d5-4447-b628-690ad7fdd253","system_id":"levelo_inurba_marseille","lat":43.21755,"lon":5.34612,"is_reserved":false,"is_disabled":false,"rental_uris":{"android":"levelo://app?vid=2500752c-16d5-4447-b628-690ad7fdd253","ios":"levelo://app?vid=2500752c-16d5-4447-b628-690ad7fdd253"},"vehicle_type_id":"4","last_reported":1757772400,"current_range_meters":18000,"station_id":"","pricing_plan_id":"cebpf4jnsgd1na2vs0mg"},{"bike_id":"a214e50e-5287-4c9c-8ef0-07c2e66199d9","system_id":"levelo_inurba_marseille","lat":43.29259,"lon":5.37612,"is_reserved":false,"is_disabled":false,"rental_uris":{"android":"levelo://app?vid=a214e50e-5287-4c9c-8ef0-07c2e66199d9","ios":"levelo://app?vid=a214e50e-5287-4c9c-8ef0-07c2e66199d9"},"vehicle_type_id":"4","last_reported":1757772400,"current_range_meters":18000,"station_id":"ce4bgi12rcd13ifvqb80","pricing_plan_id":"cebpf4jnsgd1na2vs0mg"},{"bike_id":"5547fec2-cef0-487a-96e1-15921dfcf7e6","system_id":"levelo_inurba_marseille","lat":43.29272,"lon":5.37633,"is_reserved":false,"is_disabled":false,"rental_uris":{"android":"levelo://app?vid=5547fec2-cef0-487a-96e1-15921dfcf7e6","ios":"levelo://app?vid=5547fec2-cef0-487a-96e1-15921dfcf7e6"},"vehicle_type_id":"4","last_reported":1757772400,"current_range_meters":18000,"station_id":"ce4bgi12rcd13ifvqb80","pricing_plan_id":"cebpf4jnsgd1na2vs0mg"},{"bike_id":"344751dd-0a55-4d10-992b-5c8fe2ec449c","system_id":"levelo_inurba_marseille","lat":43.28873,"lon":5.42519,"is_reserved":false,"is_disabled":false,"rental_uris":{"android":"levelo://app?vid=344751dd-0a55-4d10-992b-5c8fe2ec449c","ios":"levelo://app?vid=344751dd-0a55-4d10-992b-5c8fe2ec449c"},"vehicle_type_id":"4","last_reported":1757772400,"current_range_meters":18000,"station_id":"","pricing_plan_id":"cebpf4jnsgd1na2vs0mg"},{"bike_id":"6100b57c-4aac-4341-bcb2-ef6bac97ed0b","system_id":"levelo_inurba_marseille","lat":43.30353,"lon":5.4188,"is_reserved":false,"is_disabled":false,"rental_uris":{"android":"levelo://app?vid=6100b57c-4aac-4341-bcb2-ef6bac97ed0b","ios":"levelo://app?vid=6100b57c-4aac-4341-bcb2-ef6bac97ed0b"},"vehicle_type_id":"4","last_reported":1757772400,"current_range_meters":18000,"station_id":"ce4bhop2rcd13ifvqh7g","pricing_plan_id":"cebpf4jnsgd1na2vs0mg"},{"bike_id":"ff744283-21ef-4c65-9de5-27f50be3b9b0","system_id":"levelo_inurba_marseille","lat":43.29061,"lon":5.3999,"is_reserved":false,"is_disabled":false,"rental_uris":{"android":"levelo://app?vid=ff744283-21ef-4c65-9de5-27f50be3b9b0","ios":"levelo://app?vid=ff744283-21ef-4c65-9de5-27f50be3b9b0"},"vehicle_type_id":"4","last_reported":1757772400,"current_range_meters":18000,"station_id":"ce4bh392rcd13ifvqdm0","pricing_plan_id":"cebpf4jnsgd1na2vs0mg"},{"bike_id":"b652663a-db9d-4f50-95d2-104de8497303","system_id":"levelo_inurba_marseille","lat":43.30465,"lon":5.379,"is_reserved":false,"is_disabled":false,"rental_uris":{"android":"levelo://app?vid=b652663a-db9d-4f50-95d2-104de8497303","ios":"levelo://app?vid=b652663a-db9d-4f50-95d2-104de8497303"},"vehicle_type_id":"4","last_reported":1757772400,"current_range_meters":18000,"station_id":"ce4bgup2rcd13ifvqcn0","pricing_plan_id":"cebpf4jnsgd1na2vs0mg"},{"bike_id":"6e679e1c-942a-4954-b8aa-d8ce350884a4","system_id":"levelo_inurba_marseille","lat":43.293739,"lon":5.378558,"is_reserved":false,"is_disabled":false,"rental_uris":{"android":"levelo://app?vid=6e679e1c-942a-4954-b8aa-d8ce350884a4","ios":"levelo://app?vid=6e679e1c-942a-4954-b8aa-d8ce350884a4"},"vehicle_type_id":"4","last_reported":1757772400,"current_range_meters":17600,"station_id":"ce4bgjh2rcd13ifvqbf0","pricing_plan_id":"cebpf4jnsgd1na2vs0mg"},{"bike_id":"8ec8f6b9-b863-4d65-932f-c06c7245a3d8","system_id":"levelo_inurba_marseille","lat":43.30804,"lon":5.38152,"is_reserved":false,"is_disabled":false,"rental_uris":{"android":"levelo://app?vid=8ec8f6b9-b863-4d65-932f-c06c7245a3d8","ios":"levelo://app?vid=8ec8f6b9-b863-4d65-932f-c06c7245a3d8"},"vehicle_type_id":"4","last_reported":1757772400,"current_range_meters":18800,"station_id":"ce4bgt12rcd13ifvqce0","pricing_plan_id":"cebpf4jnsgd1na2vs0mg"},{"bike_id":"6cf0f01f-3289-46c0-8427-6077c919d0e0","system_id":"levelo_inurba_marseille","lat":43.24998,"lon":5.38931,"is_reserved":false,"is_disabled":false,"rental_uris":{"android":"levelo://app?vid=6cf0f01f-3289-46c0-8427-6077c919d0e0","ios":"levelo://app?vid=6cf0f01f-3289-46c0-8427-6077c919d0e0"},"vehicle_type_id":"4","last_reported":1757772400,"current_range_meters":18800,"station_id":"ce4bhgp2rcd13ifvqfd0","pricing_plan_id":"cebpf4jnsgd1na2vs0mg"},{"bike_id":"5d66df86-a3b7-4823-89ca-7b28b24b8f9a","system_id":"levelo_inurba_marseille","lat":43.24078,"lon":5.37737,"is_reserved":false,"is_disabled":false,"rental_uris":{"android":"levelo://app?vid=5d66df86-a3b7-4823-89ca-7b28b24b8f9a","ios":"levelo://app?vid=5d66df86-a3b7-4823-89ca-7b28b24b8f9a"},"vehicle_type_id":"4","last_reported":1757772400,"current_range_meters":18800,"station_id":"ce4bhnp2rcd13ifvqgvg","pricing_plan_id":"cebpf4jnsgd1na2vs0mg"},{"bike_id":"d9c4202c-de13-4428-8c40-40d90faf1618","system_id":"levelo_inurba_marseille","lat":43.31356,"lon":5.3707,"is_reserved":false,"is_disabled":false,"rental_uris":{"android":"levelo://app?vid=d9c4202c-de13-4428-8c40-40d90faf1618","ios":"levelo://app?vid=d9c4202c-de13-4428-8c40-40d90faf1618"},"vehicle_type_id":"4","last_reported":1757772400,"current_range_meters":18800,"station_id":"","pricing_plan_id":"cebpf4jnsgd1na2vs0mg"},{"bike_id":"eea98565-7a78-4885-a280-b177ab9f9c0b","system_id":"levelo_inurba_marseille","lat":43.29844,"lon":5.36266,"is_reserved":false,"is_disabled":false,"rental_uris":{"android":"levelo://app?vid=eea98565-7a78-4885-a280-b177ab9f9c0b","ios":"levelo://app?vid=eea98565-7a78-4885-a280-b177ab9f9c0b"},"vehicle_type_id":"4","last_reported":1757772400,"current_range_meters":18800,"station_id":"ce4bgpp2rcd13ifvqc3g","pricing_plan_id":"cebpf4jnsgd1na2vs0mg"},{"bike_id":"1114d71e-6118-4a46-8131-1b61fd01a84f","system_id":"levelo_inurba_marseille","lat":43.28462,"lon":5.35879,"is_reserved":false,"is_disabled":false,"rental_uris":{"android":"levelo://app?vid=1114d71e-6118-4a46-8131-1b61fd01a84f","ios":"levelo://app?vid=1114d71e-6118-4a46-8131-1b61fd01a84f"},"vehicle_type_id":"4","last_reported":1757772400,"current_range_meters":18800,"station_id":"ce4bhah2rcd13ifvqei0","pricing_plan_id":"cebpf4jnsgd1na2vs0mg"},{"bike_id":"ef94e107-b5fd-44f7-a023-fb0854a2be56","system_id":"levelo_inurba_marseille","lat":43.28637,"lon":5.35097,"is_reserved":false,"is_disabled":false,"rental_uris":{"android":"levelo://app?vid=ef94e107-b5fd-44f7-a023-fb0854a2be56","ios":"levelo://app?vid=ef94e107-b5fd-44f7-a023-fb0854a2be56"},"vehicle_type_id":"4","last_reported":1757772400,"current_range_meters":18800,"station_id":"ce4bhch2rcd13ifvqeug","pricing_plan_id":"cebpf4jnsgd1na2vs0mg"},{"bike_id":"38fb07ef-d51a-4a81-a159-85cbf3466ec5","system_id":"levelo_inurba_marseille","lat":43.29632,"lon":5.37705,"is_reserved":false,"is_disabled":false,"rental_uris":{"android":"levelo://app?vid=38fb07ef-d51a-4a81-a159-85cbf3466ec5","ios":"levelo://app?vid=38fb07ef-d51a-4a81-a159-85cbf3466ec5"},"vehicle_type_id":"4","last_reported":1757772400,"current_range_meters":18800,"station_id":"ce4bgi92rcd13ifvqb90","pricing_plan_id":"cebpf4jnsgd1na2vs0mg"},{"bike_id":"1a97f302-bc2c-4210-9fa6-42ac9734d884","system_id":"levelo_inurba_marseille","lat":43.30425,"lon":5.41289,"is_reserved":false,"is_disabled":false,"rental_uris":{"android":"levelo://app?vid=1a97f302-bc2c-4210-9fa6-42ac9734d884","ios":"levelo://app?vid=1a97f302-bc2c-4210-9fa6-42ac9734d884"},"vehicle_type_id":"4","last_reported":1757772400,"current_range_meters":18800,"station_id":"ce4bhop2rcd13ifvqh8g","pricing_plan_id":"cebpf4jnsgd1na2vs0mg"},{"bike_id":"14e2496b-54f5-4a71-8a7b-f668d23f2674","system_id":"levelo_inurba_marseille","lat":43.25731,"lon":5.41106,"is_reserved":false,"is_disabled":false,"rental_uris":{"android":"levelo://app?vid=14e2496b-54f5-4a71-8a7b-f668d23f2674","ios":"levelo://app?vid=14e2496b-54f5-4a71-8a7b-f668d23f2674"},"vehicle_type_id":"4","last_reported":1757772400,"current_range_meters":18800,"station_id":"ce4bhkp2rcd13ifvqgd0","pricing_plan_id":"cebpf4jnsgd1na2vs0mg"},{"bike_id":"8ab60a89-bd14-40d7-b359-020ea126cfef","system_id":"levelo_inurba_marseille","lat":43.323663,"lon":5.367553,"is_reserved":false,"is_disabled":false,"rental_uris":{"android":"levelo://app?vid=8ab60a89-bd14-40d7-b359-020ea126cfef","ios":"levelo://app?vid=8ab60a89-bd14-40d7-b359-020ea126cfef"},"vehicle_type_id":"4","last_reported":1757772400,"current_range_meters":18800,"station_id":"ce4bhsh2rcd13ifvqi2g","pricing_plan_id":"cebpf4jnsgd1na2vs0mg"},{"bike_id":"b7950107-7716-43ae-aeb7-17e09bd865c2","system_id":"levelo_inurba_marseille","lat":43.30465,"lon":5.37903,"is_reserved":false,"is_disabled":false,"rental_uris":{"android":"levelo://app?vid=b7950107-7716-43ae-aeb7-17e09bd865c2","ios":"levelo://app?vid=b7950107-7716-43ae-aeb7-17e09bd865c2"},"vehicle_type_id":"4","last_reported":1757772400,"current_range_meters":18800,"station_id":"ce4bgup2rcd13ifvqcn0","pricing_plan_id":"cebpf4jnsgd1na2vs0mg"},{"bike_id":"d9e0c818-cda2-40f3-9d69-4d79eefe1a97","system_id":"levelo_inurba_marseille","lat":43.24959,"lon":5.40462,"is_reserved":false,"is_disabled":false,"rental_uris":{"android":"levelo://app?vid=d9e0c818-cda2-40f3-9d69-4d79eefe1a97","ios":"levelo://app?vid=d9e0c818-cda2-40f3-9d69-4d79eefe1a97"},"vehicle_type_id":"4","last_reported":1757772400,"current_range_meters":18800,"station_id":"st_d2ngiaodas8pm72gd1h0","pricing_plan_id":"cebpf4jnsgd1na2vs0mg"},{"bike_id":"05dc1ef2-09b0-4288-8785-b0d04bc0e7af","system_id":"levelo_inurba_marseille","lat":43.295311,"lon":5.385555,"is_reserved":false,"is_disabled":false,"rental_uris":{"android":"levelo://app?vid=05dc1ef2-09b0-4288-8785-b0d04bc0e7af","ios":"levelo://app?vid=05dc1ef2-09b0-4288-8785-b0d04bc0e7af"},"vehicle_type_id":"4","last_reported":1757772400,"current_range_meters":19200,"station_id":"ce4bgih2rcd13ifvqba0","pricing_plan_id":"cebpf4jnsgd1na2vs0mg"},{"bike_id":"1a4b03c8-c846-43eb-8943-ea26b2df1874","system_id":"levelo_inurba_marseille","lat":43.298544,"lon":5.362968,"is_reserved":false,"is_disabled":false,"rental_uris":{"android":"levelo://app?vid=1a4b03c8-c846-43eb-8943-ea26b2df1874","ios":"levelo://app?vid=1a4b03c8-c846-43eb-8943-ea26b2df1874"},"vehicle_type_id":"4","last_reported":1757772400,"current_range_meters":19200,"station_id":"ce4bgpp2rcd13ifvqc3g","pricing_plan_id":"cebpf4jnsgd1na2vs0mg"},{"bike_id":"20d08a36-fa04-454f-b381-5c66030c764a","system_id":"levelo_inurba_marseille","lat":43.31483,"lon":5.37259,"is_reserved":false,"is_disabled":false,"rental_uris":{"android":"levelo://app?vid=20d08a36-fa04-454f-b381-5c66030c764a","ios":"levelo://app?vid=20d08a36-fa04-454f-b381-5c66030c764a"},"vehicle_type_id":"4","last_reported":1757772400,"current_range_meters":19200,"station_id":"ce4bgt12rcd13ifvqcd0","pricing_plan_id":"cebpf4jnsgd1na2vs0mg"},{"bike_id":"9ba9472a-c932-4a13-a904-7ac5b3421f20","system_id":"levelo_inurba_marseille","lat":43.24805,"lon":5.37454,"is_reserved":false,"is_disabled":false,"rental_uris":{"android":"levelo://app?vid=9ba9472a-c932-4a13-a904-7ac5b3421f20","ios":"levelo://app?vid=9ba9472a-c932-4a13-a904-7ac5b3421f20"},"vehicle_type_id":"4","last_reported":1757772400,"current_range_meters":19200,"station_id":"ce4bhgh2rcd13ifvqfb0","pricing_plan_id":"cebpf4jnsgd1na2vs0mg"},{"bike_id":"bf994f65-bdf8-41db-b1a5-f9ff73c89193","system_id":"levelo_inurba_marseille","lat":43.30136,"lon":5.37414,"is_reserved":false,"is_disabled":false,"rental_uris":{"android":"levelo://app?vid=bf994f65-bdf8-41db-b1a5-f9ff73c89193","ios":"levelo://app?vid=bf994f65-bdf8-41db-b1a5-f9ff73c89193"},"vehicle_type_id":"4","last_reported":1757772400,"current_range_meters":19200,"station_id":"ce4bgs92rcd13ifvqcc0","pricing_plan_id":"cebpf4jnsgd1na2vs0mg"},{"bike_id":"e06d2e94-3ae2-4b4b-9d7e-05d3f806365a","system_id":"levelo_inurba_marseille","lat":43.25831,"lon":5.39428,"is_reserved":false,"is_disabled":false,"rental_uris":{"android":"levelo://app?vid=e06d2e94-3ae2-4b4b-9d7e-05d3f806365a","ios":"levelo://app?vid=e06d2e94-3ae2-4b4b-9d7e-05d3f806365a"},"vehicle_type_id":"4","last_reported":1757772400,"current_range_meters":19200,"station_id":"ce4bhip2rcd13ifvqft0","pricing_plan_id":"cebpf4jnsgd1na2vs0mg"},{"bike_id":"f557a8ed-57b4-4f25-9255-f50a65a5063c","system_id":"levelo_inurba_marseille","lat":43.26562,"lon":5.38984,"is_reserved":false,"is_disabled":false,"rental_uris":{"android":"levelo://app?vid=f557a8ed-57b4-4f25-9255-f50a65a5063c","ios":"levelo://app?vid=f557a8ed-57b4-4f25-9255-f50a65a5063c"},"vehicle_type_id":"4","last_reported":1757772400,"current_range_meters":19200,"station_id":"ce4bhe12rcd13ifvqf30","pricing_plan_id":"cebpf4jnsgd1na2vs0mg"},{"bike_id":"a5c9522b-5261-4155-a4e2-94e2dce45723","system_id":"levelo_inurba_marseille","lat":43.24954,"lon":5.40505,"is_reserved":false,"is_disabled":false,"rental_uris":{"android":"levelo://app?vid=a5c9522b-5261-4155-a4e2-94e2dce45723","ios":"levelo://app?vid=a5c9522b-5261-4155-a4e2-94e2dce45723"},"vehicle_type_id":"4","last_reported":1757772400,"current_range_meters":19200,"station_id":"st_d2ngiaodas8pm72gd1h0","pricing_plan_id":"cebpf4jnsgd1na2vs0mg"},{"bike_id":"8aa1cfff-64a5-418b-b747-a1e758b6994c","system_id":"levelo_inurba_marseille","lat":43.31325,"lon":5.39688,"is_reserved":false,"is_disabled":false,"rental_uris":{"android":"levelo://app?vid=8aa1cfff-64a5-418b-b747-a1e758b6994c","ios":"levelo://app?vid=8aa1cfff-64a5-418b-b747-a1e758b6994c"},"vehicle_type_id":"4","last_reported":1757772400,"current_range_meters":19200,"station_id":"ce4bgvp2rcd13ifvqcu0","pricing_plan_id":"cebpf4jnsgd1na2vs0mg"},{"bike_id":"c690ee4a-d064-4b49-8e16-eb947604f48c","system_id":"levelo_inurba_marseille","lat":43.29877,"lon":5.389144,"is_reserved":false,"is_disabled":false,"rental_uris":{"android":"levelo://app?vid=c690ee4a-d064-4b49-8e16-eb947604f48c","ios":"levelo://app?vid=c690ee4a-d064-4b49-8e16-eb947604f48c"},"vehicle_type_id":"4","last_reported":1757772400,"current_range_meters":19600,"station_id":"ce4bh392rcd13ifvqdl0","pricing_plan_id":"cebpf4jnsgd1na2vs0mg"},{"bike_id":"d1835cb7-e899-4398-9f30-62c2e5129cec","system_id":"levelo_inurba_marseille","lat":43.3377,"lon":5.37439,"is_reserved":false,"is_disabled":false,"rental_uris":{"android":"levelo://app?vid=d1835cb7-e899-4398-9f30-62c2e5129cec","ios":"levelo://app?vid=d1835cb7-e899-4398-9f30-62c2e5129cec"},"vehicle_type_id":"4","last_reported":1757772400,"current_range_meters":19600,"station_id":"","pricing_plan_id":"cebpf4jnsgd1na2vs0mg"},{"bike_id":"f134aec0-29c8-4726-aed1-20e572f9e4ae","system_id":"levelo_inurba_marseille","lat":43.30548,"lon":5.36555,"is_reserved":false,"is_disabled":false,"rental_uris":{"android":"levelo://app?vid=f134aec0-29c8-4726-aed1-20e572f9e4ae","ios":"levelo://app?vid=f134aec0-29c8-4726-aed1-20e572f9e4ae"},"vehicle_type_id":"4","last_reported":1757772400,"current_range_meters":19600,"station_id":"ce4bgs12rcd13ifvqcag","pricing_plan_id":"cebpf4jnsgd1na2vs0mg"},{"bike_id":"d0b51c92-8919-40a8-81c9-9ab53ac118e3","system_id":"levelo_inurba_marseille","lat":43.330421,"lon":5.3904,"is_reserved":false,"is_disabled":false,"rental_uris":{"android":"levelo://app?vid=d0b51c92-8919-40a8-81c9-9ab53ac118e3","ios":"levelo://app?vid=d0b51c92-8919-40a8-81c9-9ab53ac118e3"},"vehicle_type_id":"4","last_reported":1757772400,"current_range_meters":19600,"station_id":"ce4bhr92rcd13ifvqhrg","pricing_plan_id":"cebpf4jnsgd1na2vs0mg"},{"bike_id":"d34a3bf3-4cee-407b-99db-75eae5880959","system_id":"levelo_inurba_marseille","lat":43.24997,"lon":5.389226,"is_reserved":false,"is_disabled":false,"rental_uris":{"android":"levelo://app?vid=d34a3bf3-4cee-407b-99db-75eae5880959","ios":"levelo://app?vid=d34a3bf3-4cee-407b-99db-75eae5880959"},"vehicle_type_id":"4","last_reported":1757772400,"current_range_meters":20000,"station_id":"ce4bhgp2rcd13ifvqfd0","pricing_plan_id":"cebpf4jnsgd1na2vs0mg"},{"bike_id":"7dd08d74-12fd-4d88-ad3b-d200553dbabe","system_id":"levelo_inurba_marseille","lat":43.29027,"lon":5.39993,"is_reserved":false,"is_disabled":false,"rental_uris":{"android":"levelo://app?vid=7dd08d74-12fd-4d88-ad3b-d200553dbabe","ios":"levelo://app?vid=7dd08d74-12fd-4d88-ad3b-d200553dbabe"},"vehicle_type_id":"4","last_reported":1757772400,"current_range_meters":20000,"station_id":"ce4bh392rcd13ifvqdm0","pricing_plan_id":"cebpf4jnsgd1na2vs0mg"},{"bike_id":"a6c08253-e23d-4e0b-84d9-2b80bf7f867c","system_id":"levelo_inurba_marseille","lat":43.25106,"lon":5.40325,"is_reserved":false,"is_disabled":false,"rental_uris":{"android":"levelo://app?vid=a6c08253-e23d-4e0b-84d9-2b80bf7f867c","ios":"levelo://app?vid=a6c08253-e23d-4e0b-84d9-2b80bf7f867c"},"vehicle_type_id":"4","last_reported":1757772400,"current_range_meters":20000,"station_id":"ce4bhlh2rcd13ifvqgig","pricing_plan_id":"cebpf4jnsgd1na2vs0mg"},{"bike_id":"c79f98a5-b132-4d8b-b050-5e48074dc6fe","system_id":"levelo_inurba_marseille","lat":43.3172,"lon":5.4047,"is_reserved":false,"is_disabled":false,"rental_uris":{"android":"levelo://app?vid=c79f98a5-b132-4d8b-b050-5e48074dc6fe","ios":"levelo://app?vid=c79f98a5-b132-4d8b-b050-5e48074dc6fe"},"vehicle_type_id":"4","last_reported":1757772400,"current_range_meters":20000,"station_id":"ce4bh012rcd13ifvqd00","pricing_plan_id":"cebpf4jnsgd1na2vs0mg"},{"bike_id":"654df5a8-46fd-4bb1-a78c-219e858dd01e","system_id":"levelo_inurba_marseille","lat":43.28868,"lon":5.3664,"is_reserved":false,"is_disabled":false,"rental_uris":{"android":"levelo://app?vid=654df5a8-46fd-4bb1-a78c-219e858dd01e","ios":"levelo://app?vid=654df5a8-46fd-4bb1-a78c-219e858dd01e"},"vehicle_type_id":"4","last_reported":1757772400,"current_range_meters":20000,"station_id":"","pricing_plan_id":"cebpf4jnsgd1na2vs0mg"},{"bike_id":"9c2c5c1e-f058-4c31-8a06-e7d11a5bd27b","system_id":"levelo_inurba_marseille","lat":43.25,"lon":5.38928,"is_reserved":false,"is_disabled":false,"rental_uris":{"android":"levelo://app?vid=9c2c5c1e-f058-4c31-8a06-e7d11a5bd27b","ios":"levelo://app?vid=9c2c5c1e-f058-4c31-8a06-e7d11a5bd27b"},"vehicle_type_id":"4","last_reported":1757772400,"current_range_meters":20000,"station_id":"ce4bhgp2rcd13ifvqfd0","pricing_plan_id":"cebpf4jnsgd1na2vs0mg"},{"bike_id":"9795ca5d-7fdf-4622-b4f3-edb65aa46a3a","system_id":"levelo_inurba_marseille","lat":43.27433,"lon":5.39423,"is_reserved":false,"is_disabled":false,"rental_uris":{"android":"levelo://app?vid=9795ca5d-7fdf-4622-b4f3-edb65aa46a3a","ios":"levelo://app?vid=9795ca5d-7fdf-4622-b4f3-edb65aa46a3a"},"vehicle_type_id":"4","last_reported":1757772400,"current_range_meters":20000,"station_id":"ce4bhdp2rcd13ifvqf20","pricing_plan_id":"cebpf4jnsgd1na2vs0mg"},{"bike_id":"b4895a27-ea74-4d68-bbac-73144f7fe307","system_id":"levelo_inurba_marseille","lat":43.31336,"lon":5.39674,"is_reserved":false,"is_disabled":false,"rental_uris":{"android":"levelo://app?vid=b4895a27-ea74-4d68-bbac-73144f7fe307","ios":"levelo://app?vid=b4895a27-ea74-4d68-bbac-73144f7fe307"},"vehicle_type_id":"4","last_reported":1757772400,"current_range_meters":19600,"station_id":"ce4bgvp2rcd13ifvqcu0","pricing_plan_id":"cebpf4jnsgd1na2vs0mg"},{"bike_id":"4abcfd1f-d5ba-40bf-8216-a47803a52e59","system_id":"levelo_inurba_marseille","lat":43.24637,"lon":5.43126,"is_reserved":false,"is_disabled":false,"rental_uris":{"android":"levelo://app?vid=4abcfd1f-d5ba-40bf-8216-a47803a52e59","ios":"levelo://app?vid=4abcfd1f-d5ba-40bf-8216-a47803a52e59"},"vehicle_type_id":"4","last_reported":1757772400,"current_range_meters":20000,"station_id":"st_d2m6c4gdas8pm72e190g","pricing_plan_id":"cebpf4jnsgd1na2vs0mg"},{"bike_id":"86d0b0d4-13f3-47f6-8fad-de33ab621ea3","system_id":"levelo_inurba_marseille","lat":43.28683,"lon":5.38649,"is_reserved":false,"is_disabled":false,"rental_uris":{"android":"levelo://app?vid=86d0b0d4-13f3-47f6-8fad-de33ab621ea3","ios":"levelo://app?vid=86d0b0d4-13f3-47f6-8fad-de33ab621ea3"},"vehicle_type_id":"4","last_reported":1757772400,"current_range_meters":20400,"station_id":"ce4bh492rcd13ifvqdug","pricing_plan_id":"cebpf4jnsgd1na2vs0mg"},{"bike_id":"87feee65-5af9-462c-9dc6-075704759e3b","system_id":"levelo_inurba_marseille","lat":43.30791,"lon":5.38166,"is_reserved":false,"is_disabled":false,"rental_uris":{"android":"levelo://app?vid=87feee65-5af9-462c-9dc6-075704759e3b","ios":"levelo://app?vid=87feee65-5af9-462c-9dc6-075704759e3b"},"vehicle_type_id":"4","last_reported":1757772400,"current_range_meters":20400,"station_id":"ce4bgt12rcd13ifvqce0","pricing_plan_id":"cebpf4jnsgd1na2vs0mg"},{"bike_id":"acaaa403-fb76-46cd-8570-a7684f63186a","system_id":"levelo_inurba_marseille","lat":43.28673,"lon":5.38657,"is_reserved":false,"is_disabled":false,"rental_uris":{"android":"levelo://app?vid=acaaa403-fb76-46cd-8570-a7684f63186a","ios":"levelo://app?vid=acaaa403-fb76-46cd-8570-a7684f63186a"},"vehicle_type_id":"4","last_reported":1757772400,"current_range_meters":20400,"station_id":"ce4bh492rcd13ifvqdug","pricing_plan_id":"cebpf4jnsgd1na2vs0mg"},{"bike_id":"22f29fde-4cf5-4a9b-994a-0e2fd1967670","system_id":"levelo_inurba_marseille","lat":43.24181,"lon":5.36389,"is_reserved":false,"is_disabled":false,"rental_uris":{"android":"levelo://app?vid=22f29fde-4cf5-4a9b-994a-0e2fd1967670","ios":"levelo://app?vid=22f29fde-4cf5-4a9b-994a-0e2fd1967670"},"vehicle_type_id":"4","last_reported":1757772400,"current_range_meters":20400,"station_id":"cpo36qri1sfpv3e86is0","pricing_plan_id":"cebpf4jnsgd1na2vs0mg"},{"bike_id":"e73470b2-f46f-4f87-989f-53f8372e4317","system_id":"levelo_inurba_marseille","lat":43.33031,"lon":5.39035,"is_reserved":false,"is_disabled":false,"rental_uris":{"android":"levelo://app?vid=e73470b2-f46f-4f87-989f-53f8372e4317","ios":"levelo://app?vid=e73470b2-f46f-4f87-989f-53f8372e4317"},"vehicle_type_id":"4","last_reported":1757772400,"current_range_meters":20400,"station_id":"ce4bhr92rcd13ifvqhrg","pricing_plan_id":"cebpf4jnsgd1na2vs0mg"},{"bike_id":"84a5505b-1c70-4fbd-8713-1aeafa411c7d","system_id":"levelo_inurba_marseille","lat":43.23196,"lon":5.35545,"is_reserved":false,"is_disabled":false,"rental_uris":{"android":"levelo://app?vid=84a5505b-1c70-4fbd-8713-1aeafa411c7d","ios":"levelo://app?vid=84a5505b-1c70-4fbd-8713-1aeafa411c7d"},"vehicle_type_id":"4","last_reported":1757772400,"current_range_meters":20400,"station_id":"ce4bhu92rcd13ifvqi70","pricing_plan_id":"cebpf4jnsgd1na2vs0mg"},{"bike_id":"e54a1e7f-72fe-4f72-999a-0b938621ab02","system_id":"levelo_inurba_marseille","lat":43.23137,"lon":5.43659,"is_reserved":false,"is_disabled":false,"rental_uris":{"android":"levelo://app?vid=e54a1e7f-72fe-4f72-999a-0b938621ab02","ios":"levelo://app?vid=e54a1e7f-72fe-4f72-999a-0b938621ab02"},"vehicle_type_id":"4","last_reported":1757772400,"current_range_meters":20400,"station_id":"ce4bhmp2rcd13ifvqgog","pricing_plan_id":"cebpf4jnsgd1na2vs0mg"},{"bike_id":"c357de58-3814-43e5-802b-e119ef09a5b5","system_id":"levelo_inurba_marseille","lat":43.27669,"lon":5.38871,"is_reserved":false,"is_disabled":false,"rental_uris":{"android":"levelo://app?vid=c357de58-3814-43e5-802b-e119ef09a5b5","ios":"levelo://app?vid=c357de58-3814-43e5-802b-e119ef09a5b5"},"vehicle_type_id":"4","last_reported":1757772400,"current_range_meters":20800,"station_id":"ce4bhi12rcd13ifvqfo0","pricing_plan_id":"cebpf4jnsgd1na2vs0mg"},{"bike_id":"5da82b54-1e5e-4aa5-9b76-070ecac62521","system_id":"levelo_inurba_marseille","lat":43.29263,"lon":5.40909,"is_reserved":false,"is_disabled":false,"rental_uris":{"android":"levelo://app?vid=5da82b54-1e5e-4aa5-9b76-070ecac62521","ios":"levelo://app?vid=5da82b54-1e5e-4aa5-9b76-070ecac62521"},"vehicle_type_id":"4","last_reported":1757772400,"current_range_meters":20800,"station_id":"ce4bh192rcd13ifvqdc0","pricing_plan_id":"cebpf4jnsgd1na2vs0mg"},{"bike_id":"fdc0a7a6-4540-4bba-8487-cae6b24ae163","system_id":"levelo_inurba_marseille","lat":43.28709,"lon":5.39983,"is_reserved":false,"is_disabled":false,"rental_uris":{"android":"levelo://app?vid=fdc0a7a6-4540-4bba-8487-cae6b24ae163","ios":"levelo://app?vid=fdc0a7a6-4540-4bba-8487-cae6b24ae163"},"vehicle_type_id":"4","last_reported":1757772400,"current_range_meters":20800,"station_id":"ce4bho92rcd13ifvqh3g","pricing_plan_id":"cebpf4jnsgd1na2vs0mg"},{"bike_id":"c3eb1bfd-4bc1-4c9f-95a4-59d62abe1f6e","system_id":"levelo_inurba_marseille","lat":43.29846,"lon":5.36275,"is_reserved":false,"is_disabled":false,"rental_uris":{"android":"levelo://app?vid=c3eb1bfd-4bc1-4c9f-95a4-59d62abe1f6e","ios":"levelo://app?vid=c3eb1bfd-4bc1-4c9f-95a4-59d62abe1f6e"},"vehicle_type_id":"4","last_reported":1757772400,"current_range_meters":21600,"station_id":"ce4bgpp2rcd13ifvqc3g","pricing_plan_id":"cebpf4jnsgd1na2vs0mg"},{"bike_id":"ff781d72-0933-4e94-b6be-931983874e6c","system_id":"levelo_inurba_marseille","lat":43.33035,"lon":5.39057,"is_reserved":false,"is_disabled":false,"rental_uris":{"android":"levelo://app?vid=ff781d72-0933-4e94-b6be-931983874e6c","ios":"levelo://app?vid=ff781d72-0933-4e94-b6be-931983874e6c"},"vehicle_type_id":"4","last_reported":1757772400,"current_range_meters":21600,"station_id":"ce4bhr92rcd13ifvqhrg","pricing_plan_id":"cebpf4jnsgd1na2vs0mg"},{"bike_id":"775345b4-61de-4470-adf9-51b709834f06","system_id":"levelo_inurba_marseille","lat":43.29971,"lon":5.38488,"is_reserved":false,"is_disabled":false,"rental_uris":{"android":"levelo://app?vid=775345b4-61de-4470-adf9-51b709834f06","ios":"levelo://app?vid=775345b4-61de-4470-adf9-51b709834f06"},"vehicle_type_id":"4","last_reported":1757772400,"current_range_meters":21600,"station_id":"ce4bgj92rcd13ifvqbd0","pricing_plan_id":"cebpf4jnsgd1na2vs0mg"},{"bike_id":"d218c5c8-561a-4a42-b2aa-19b6c9da74fb","system_id":"levelo_inurba_marseille","lat":43.317347,"lon":5.404342,"is_reserved":false,"is_disabled":false,"rental_uris":{"android":"levelo://app?vid=d218c5c8-561a-4a42-b2aa-19b6c9da74fb","ios":"levelo://app?vid=d218c5c8-561a-4a42-b2aa-19b6c9da74fb"},"vehicle_type_id":"4","last_reported":1757772400,"current_range_meters":21600,"station_id":"ce4bh012rcd13ifvqd00","pricing_plan_id":"cebpf4jnsgd1na2vs0mg"},{"bike_id":"bd0dc0b3-ab3b-4eb1-8904-ded4c5b1d4d0","system_id":"levelo_inurba_marseille","lat":43.25127,"lon":5.40344,"is_reserved":false,"is_disabled":false,"rental_uris":{"android":"levelo://app?vid=bd0dc0b3-ab3b-4eb1-8904-ded4c5b1d4d0","ios":"levelo://app?vid=bd0dc0b3-ab3b-4eb1-8904-ded4c5b1d4d0"},"vehicle_type_id":"4","last_reported":1757772400,"current_range_meters":21600,"station_id":"ce4bhlh2rcd13ifvqgig","pricing_plan_id":"cebpf4jnsgd1na2vs0mg"},{"bike_id":"f8e83140-19ad-43f6-a9f3-67580f2dd8d3","system_id":"levelo_inurba_marseille","lat":43.27309,"lon":5.39076,"is_reserved":false,"is_disabled":false,"rental_uris":{"android":"levelo://app?vid=f8e83140-19ad-43f6-a9f3-67580f2dd8d3","ios":"levelo://app?vid=f8e83140-19ad-43f6-a9f3-67580f2dd8d3"},"vehicle_type_id":"4","last_reported":1757772400,"current_range_meters":21600,"station_id":"ce4bhgp2rcd13ifvqfe0","pricing_plan_id":"cebpf4jnsgd1na2vs0mg"},{"bike_id":"f12b97f3-f07b-4d4e-afb5-5ac872387856","system_id":"levelo_inurba_marseille","lat":43.27495,"lon":5.42445,"is_reserved":false,"is_disabled":false,"rental_uris":{"android":"levelo://app?vid=f12b97f3-f07b-4d4e-afb5-5ac872387856","ios":"levelo://app?vid=f12b97f3-f07b-4d4e-afb5-5ac872387856"},"vehicle_type_id":"4","last_reported":1757772400,"current_range_meters":21600,"station_id":"ce4bhn92rcd13ifvqgrg","pricing_plan_id":"cebpf4jnsgd1na2vs0mg"},