{"last_updated":1692903885,"ttl":30,"version":"2.2","data":{"bikes":[{"bike_id":"616a7037-277e-4b72-907b-49428e1d53db","system_id":"levelo_inurba_marseille","lat":43.313391,"lon":5.36706,"is_reserved":false,"is_disabled":false,"rental_uris":{"android":"levelo://app?vid=616a7037-277e-4b72-907b-49428e1d53db","ios":"levelo://app?vid=616a7037-277e-4b72-907b-49428e1d53db"},"vehicle_type_id":"4","last_reported":1692903886,"current_range_meters":10800,"station_id":"ce4bgr92rcd13ifvqc6g","pricing_plan_id":"free"},{"bike_id":"3e3ba6a0-9404-4239-a30c-63a641195e69","system_id":"levelo_inurba_marseille","lat":43.312239,"lon":5.368562,"is_reserved":false,"is_disabled":false,"rental_uris":{"android":"levelo://app?vid=3e3ba6a0-9404-4239-a30c-63a641195e69","ios":"levelo://app?vid=3e3ba6a0-9404-4239-a30c-63a641195e69"},"vehicle_type_id":"4","last_reported":1692903886,"current_range_meters":18400,"station_id":"ce4bgl92rcd13ifvqbq0","pricing_plan_id":"free"},{"bike_id":"619c1255-c645-4f87-96c1-b0bbb2e2286c","system_id":"levelo_inurba_marseille","lat":43.312246,"lon":5.368457,"is_reserved":false,"is_disabled":false,"rental_uris":{"android":"levelo://app?vid=619c1255-c645-4f87-96c1-b0bbb2e2286c","ios":"levelo://app?vid=619c1255-c645-4f87-96c1-b0bbb2e2286c"},"vehicle_type_id":"4","last_reported":1692903886,"current_range_meters":5600,"station_id":"ce4bgl92rcd13ifvqbq0","pricing_plan_id":"free"},{"bike_id":"65674239-bfb7-4928-84de-b7277febf7c2","system_id":"levelo_inurba_marseille","lat":43.312239,"lon":5.368562,"is_reserved":false,"is_disabled":false,"rental_uris":{"android":"levelo://app?vid=65674239-bfb7-4928-84de-b7277febf7c2","ios":"levelo://app?vid=65674239-bfb7-4928-84de-b7277febf7c2"},"vehicle_type_id":"4","last_reported":1692903886,"current_range_meters":29200,"station_id":"ce4bgl92rcd13ifvqbq0","pricing_plan_id":"free"},{"bike_id":"f22ca441-4e4e-4660-b824-b2f46943e54d","system_id":"levelo_inurba_marseille","lat":43.312239,"lon":5.368562,"is_reserved":false,"is_disabled":false,"rental_uris":{"android":"levelo://app?vid=f22ca441-4e4e-4660-b824-b2f46943e54d","ios":"levelo://app?vid=f22ca441-4e4e-4660-b824-b2f46943e54d"},"vehicle_type_id":"4","last_reported":1692903886,"current_range_meters":31600,"station_id":"ce4bgl92rcd13ifvqbq0","pricing_plan_id":"free"},{"bike_id":"d2be997d-44d2-40a5-bb20-02aeaaf65fa5","system_id":"levelo_inurba_marseille","lat":43.314811,"lon":5.373103,"is_reserved":false,"is_disabled":false,"rental_uris":{"android":"levelo://app?vid=d2be997d-44d2-40a5-bb20-02aeaaf65fa5","ios":"levelo://app?vid=d2be997d-44d2-40a5-bb20-02aeaaf65fa5"},"vehicle_type_id":"4","last_reported":1692903886,"current_range_meters":30800,"station_id":"ce4bgt12rcd13ifvqcd0","pricing_plan_id":"free"},{"bike_id":"6c64a47c-4eaa-4c09-9dc6-92256c7c8325","system_id":"levelo_inurba_marseille","lat":43.314811,"lon":5.373104,"is_reserved":false,"is_disabled":false,"rental_uris":{"android":"levelo://app?vid=6c64a47c-4eaa-4c09-9dc6-92256c7c8325","ios":"levelo://app?vid=6c64a47c-4eaa-4c09-9dc6-92256c7c8325"},"vehicle_type_id":"4","last_reported":1692903886,"current_range_meters":8800,"station_id":"ce4bgt12rcd13ifvqcd0","pricing_plan_id":"free"},{"bike_id":"5f6c9c98-110b-44ce-8bf7-f9fb71a9811e","system_id":"levelo_inurba_marseille","lat":43.315,"lon":5.37305,"is_reserved":false,"is_disabled":false,"rental_uris":{"android":"levelo://app?vid=5f6c9c98-110b-44ce-8bf7-f9fb71a9811e","ios":"levelo://app?vid=5f6c9c98-110b-44ce-8bf7-f9fb71a9811e"},"vehicle_type_id":"4","last_reported":1692903886,"current_range_meters":18400,"station_id":"ce4bgt12rcd13ifvqcd0","pricing_plan_id":"free"},{"bike_id":"2bc21d40-e72c-4744-83ff-fcc6736462c1","system_id":"levelo_inurba_marseille","lat":43.305712,"lon":5.365641,"is_reserved":false,"is_disabled":false,"rental_uris":{"android":"levelo://app?vid=2bc21d40-e72c-4744-83ff-fcc6736462c1","ios":"levelo://app?vid=2bc21d40-e72c-4744-83ff-fcc6736462c1"},"vehicle_type_id":"4","last_reported":1692903886,"current_range_meters":15600,"station_id":"ce4bgs12rcd13ifvqcag","pricing_plan_id":"free"},{"bike_id":"4cc9a23d-ba2c-4f25-a201-ace7dde90031","system_id":"levelo_inurba_marseille","lat":43.305706,"lon":5.365654,"is_reserved":false,"is_disabled":false,"rental_uris":{"android":"levelo://app?vid=4cc9a23d-ba2c-4f25-a201-ace7dde90031","ios":"levelo://app?vid=4cc9a23d-ba2c-4f25-a201-ace7dde90031"},"vehicle_type_id":"4","last_reported":1692903886,"current_range_meters":0,"station_id":"ce4bgs12rcd13ifvqcag","pricing_plan_id":"free"},{"bike_id":"4948f8e2-406a-4abf-beb1-c82d239f5a04","system_id":"levelo_inurba_marseille","lat":43.30312,"lon":5.36884,"is_reserved":false,"is_disabled":false,"rental_uris":{"android":"levelo://app?vid=4948f8e2-406a-4abf-beb1-c82d239f5a04","ios":"levelo://app?vid=4948f8e2-406a-4abf-beb1-c82d239f5a04"},"vehicle_type_id":"4","last_reported":1692903886,"current_range_meters":6800,"station_id":"ce4bgqh2rcd13ifvqc5g","pricing_plan_id":"free"},{"bike_id":"ddde29e4-8ddc-45d4-9bbb-ab83d55b4682","system_id":"levelo_inurba_marseille","lat":43.30798,"lon":5.38155,"is_reserved":false,"is_disabled":false,"rental_uris":{"android":"levelo://app?vid=ddde29e4-8ddc-45d4-9bbb-ab83d55b4682","ios":"levelo://app?vid=ddde29e4-8ddc-45d4-9bbb-ab83d55b4682"},"vehicle_type_id":"4","last_reported":1692903886,"current_range_meters":20000,"station_id":"ce4bgt12rcd13ifvqce0","pricing_plan_id":"free"},{"bike_id":"dbf29b25-a0d6-4b34-9ec6-09a99f5c5590","system_id":"levelo_inurba_marseille","lat":43.304606,"lon":5.379026,"is_reserved":false,"is_disabled":false,"rental_uris":{"android":"levelo://app?vid=dbf29b25-a0d6-4b34-9ec6-09a99f5c5590","ios":"levelo://app?vid=dbf29b25-a0d6-4b34-9ec6-09a99f5c5590"},"vehicle_type_id":"4","last_reported":1692903886,"current_range_meters":1200,"station_id":"ce4bgup2rcd13ifvqcn0","pricing_plan_id":"free"},{"bike_id":"0173cb45-bff3-481d-b40a-84ba7e4b3fb4","system_id":"levelo_inurba_marseille","lat":43.302784,"lon":5.377158,"is_reserved":false,"is_disabled":false,"rental_uris":{"android":"levelo://app?vid=0173cb45-bff3-481d-b40a-84ba7e4b3fb4","ios":"levelo://app?vid=0173cb45-bff3-481d-b40a-84ba7e4b3fb4"},"vehicle_type_id":"4","last_reported":1692903886,"current_range_meters":1200,"station_id":"ce4bguh2rcd13ifvqcj0","pricing_plan_id":"free"},{"bike_id":"2b784dab-3035-4574-96b3-9bc43b6b77d1","system_id":"levelo_inurba_marseille","lat":43.31997,"lon":5.38162,"is_reserved":false,"is_disabled":false,"rental_uris":{"android":"levelo://app?vid=2b784dab-3035-4574-96b3-9bc43b6b77d1","ios":"levelo://app?vid=2b784dab-3035-4574-96b3-9bc43b6b77d1"},"vehicle_type_id":"4","last_reported":1692903886,"current_range_meters":8400,"station_id":"ce4bhr12rcd13ifvqhpg","pricing_plan_id":"free"},{"bike_id":"dff632a9-7816-4d1d-a9f8-c824f6d62b65","system_id":"levelo_inurba_marseille","lat":43.31999,"lon":5.38167,"is_reserved":false,"is_disabled":false,"rental_uris":{"android":"levelo://app?vid=dff632a9-7816-4d1d-a9f8-c824f6d62b65","ios":"levelo://app?vid=dff632a9-7816-4d1d-a9f8-c824f6d62b65"},"vehicle_type_id":"4","last_reported":1692903886,"current_range_meters":0,"station_id":"ce4bhr12rcd13ifvqhpg","pricing_plan_id":"free"},{"bike_id":"2b9fc4ea-1a7b-4d82-9eff-1a5763cdd485","system_id":"levelo_inurba_marseille","lat":43.313755,"lon":5.38489,"is_reserved":false,"is_disabled":false,"rental_uris":{"android":"levelo://app?vid=2b9fc4ea-1a7b-4d82-9eff-1a5763cdd485","ios":"levelo://app?vid=2b9fc4ea-1a7b-4d82-9eff-1a5763cdd485"},"vehicle_type_id":"4","last_reported":1692903886,"current_range_meters":18400,"station_id":"ce4bgt92rcd13ifvqcf0","pricing_plan_id":"free"},{"bike_id":"d567945c-9150-46b1-8d0c-4cab9e1dc5d4","system_id":"levelo_inurba_marseille","lat":43.31369,"lon":5.38492,"is_reserved":false,"is_disabled":false,"rental_uris":{"android":"levelo://app?vid=d567945c-9150-46b1-8d0c-4cab9e1dc5d4","ios":"levelo://app?vid=d567945c-9150-46b1-8d0c-4cab9e1dc5d4"},"vehicle_type_id":"4","last_reported":1692903886,"current_range_meters":20400,"station_id":"ce4bgt92rcd13ifvqcf0","pricing_plan_id":"free"},{"bike_id":"91755bc3-41fb-41f3-b79b-82748e19c305","system_id":"levelo_inurba_marseille","lat":43.29978,"lon":5.37161,"is_reserved":false,"is_disabled":false,"rental_uris":{"android":"levelo://app?vid=91755bc3-41fb-41f3-b79b-82748e19c305","ios":"levelo://app?vid=91755bc3-41fb-41f3-b79b-82748e19c305"},"vehicle_type_id":"4","last_reported":1692903886,"current_range_meters":14000,"station_id":"ce4bgr92rcd13ifvqc7g","pricing_plan_id":"free"},{"bike_id":"233aadc1-7b1d-4795-950b-7a69e9a1cc16","system_id":"levelo_inurba_marseille","lat":43.299222,"lon":5.365554,"is_reserved":false,"is_disabled":false,"rental_uris":{"android":"levelo://app?vid=233aadc1-7b1d-4795-950b-7a69e9a1cc16","ios":"levelo://app?vid=233aadc1-7b1d-4795-950b-7a69e9a1cc16"},"vehicle_type_id":"4","last_reported":1692903886,"current_range_meters":5600,"station_id":"ce4bgm92rcd13ifvqbr0","pricing_plan_id":"free"},{"bike_id":"e96a01d4-bb6c-41c7-91d0-364e0d2859aa","system_id":"levelo_inurba_marseille","lat":43.29977,"lon":5.37171,"is_reserved":false,"is_disabled":false,"rental_uris":{"android":"levelo://app?vid=e96a01d4-bb6c-41c7-91d0-364e0d2859aa","ios":"levelo://app?vid=e96a01d4-bb6c-41c7-91d0-364e0d2859aa"},"vehicle_type_id":"4","last_reported":1692903886,"current_range_meters":2400,"station_id":"ce4bgr92rcd13ifvqc7g","pricing_plan_id":"free"},{"bike_id":"7225c905-7762-4716-8911-9002dbf6ee11","system_id":"levelo_inurba_marseille","lat":43.299724,"lon":5.371829,"is_reserved":false,"is_disabled":false,"rental_uris":{"android":"levelo://app?vid=7225c905-7762-4716-8911-9002dbf6ee11","ios":"levelo://app?vid=7225c905-7762-4716-8911-9002dbf6ee11"},"vehicle_type_id":"4","last_reported":1692903886,"current_range_meters":13200,"station_id":"ce4bgr92rcd13ifvqc7g","pricing_plan_id":"free"},{"bike_id":"95dc9ecf-047e-4c3a-bb12-a5676cb36ad4","system_id":"levelo_inurba_marseille","lat":43.3216,"lon":5.38166,"is_reserved":false,"is_disabled":false,"rental_uris":{"android":"levelo://app?vid=95dc9ecf-047e-4c3a-bb12-a5676cb36ad4","ios":"levelo://app?vid=95dc9ecf-047e-4c3a-bb12-a5676cb36ad4"},"vehicle_type_id":"4","last_reported":1692903886,"current_range_meters":0,"station_id":"","pricing_plan_id":"free"},{"bike_id":"d37ecb77-6ebb-4a1d-ada0-0ea07556dad3","system_id":"levelo_inurba_marseille","lat":43.298433,"lon":5.362774,"is_reserved":false,"is_disabled":false,"rental_uris":{"android":"levelo://app?vid=d37ecb77-6ebb-4a1d-ada0-0ea07556dad3","ios":"levelo://app?vid=d37ecb77-6ebb-4a1d-ada0-0ea07556dad3"},"vehicle_type_id":"4","last_reported":1692903886,"current_range_meters":17600,"station_id":"ce4bgpp2rcd13ifvqc3g","pricing_plan_id":"free"},{"bike_id":"ea628102-f413-4421-a451-01c3055a1ca3","system_id":"levelo_inurba_marseille","lat":43.30538,"lon":5.38427,"is_reserved":false,"is_disabled":false,"rental_uris":{"android":"levelo://app?vid=ea628102-f413-4421-a451-01c3055a1ca3","ios":"levelo://app?vid=ea628102-f413-4421-a451-01c3055a1ca3"},"vehicle_type_id":"4","last_reported":1692903886,"current_range_meters":31200,"station_id":"ce4bgg92rcd13ifvqb30","pricing_plan_id":"free"},{"bike_id":"35eec3a1-aa54-4990-8eb4-78e6c0dd24d0","system_id":"levelo_inurba_marseille","lat":43.29917,"lon":5.37466,"is_reserved":false,"is_disabled":false,"rental_uris":{"android":"levelo://app?vid=35eec3a1-aa54-4990-8eb4-78e6c0dd24d0","ios":"levelo://app?vid=35eec3a1-aa54-4990-8eb4-78e6c0dd24d0"},"vehicle_type_id":"4","last_reported":1692903886,"current_range_meters":25600,"station_id":"ce4bgjh2rcd13ifvqbg0","pricing_plan_id":"free"},{"bike_id":"b885f463-e8c5-42cc-902f-7152167ce1c7","system_id":"levelo_inurba_marseille","lat":43.299243,"lon":5.374807,"is_reserved":false,"is_disabled":false,"rental_uris":{"android":"levelo://app?vid=b885f463-e8c5-42cc-902f-7152167ce1c7","ios":"levelo://app?vid=b885f463-e8c5-42cc-902f-7152167ce1c7"},"vehicle_type_id":"4","last_reported":1692903886,"current_range_meters":31200,"station_id":"ce4bgjh2rcd13ifvqbg0","pricing_plan_id":"free"},{"bike_id":"2f9e2def-2173-4eb4-a460-9a385f59debe","system_id":"levelo_inurba_marseille","lat":43.299243,"lon":5.37481,"is_reserved":false,"is_disabled":false,"rental_uris":{"android":"levelo://app?vid=2f9e2def-2173-4eb4-a460-9a385f59debe","ios":"levelo://app?vid=2f9e2def-2173-4eb4-a460-9a385f59debe"},"vehicle_type_id":"4","last_reported":1692903886,"current_range_meters":31600,"station_id":"ce4bgjh2rcd13ifvqbg0","pricing_plan_id":"free"},{"bike_id":"cb0c9485-db38-43ad-b3eb-941ade0b8d48","system_id":"levelo_inurba_marseille","lat":43.32822,"lon":5.36697,"is_reserved":false,"is_disabled":false,"rental_uris":{"android":"levelo://app?vid=cb0c9485-db38-43ad-b3eb-941ade0b8d48","ios":"levelo://app?vid=cb0c9485-db38-43ad-b3eb-941ade0b8d48"},"vehicle_type_id":"4","last_reported":1692903886,"current_range_meters":0,"station_id":"ce4bhs92rcd13ifvqi0g","pricing_plan_id":"free"},{"bike_id":"8a59e8ab-78e1-4e00-8471-10d3a5200fef","system_id":"levelo_inurba_marseille","lat":43.328371,"lon":5.366909,"is_reserved":false,"is_disabled":false,"rental_uris":{"android":"levelo://app?vid=8a59e8ab-78e1-4e00-8471-10d3a5200fef","ios":"levelo://app?vid=8a59e8ab-78e1-4e00-8471-10d3a5200fef"},"vehicle_type_id":"4","last_reported":1692903886,"current_range_meters":9200,"station_id":"ce4bhs92rcd13ifvqi0g","pricing_plan_id":"free"},{"bike_id":"d0f5a968-75c3-45cf-8359-a2045afc57cd","system_id":"levelo_inurba_marseille","lat":43.32826,"lon":5.36681,"is_reserved":false,"is_disabled":false,"rental_uris":{"android":"levelo://app?vid=d0f5a968-75c3-45cf-8359-a2045afc57cd","ios":"levelo://app?vid=d0f5a968-75c3-45cf-8359-a2045afc57cd"},"vehicle_type_id":"4","last_reported":1692903886,"current_range_meters":26400,"station_id":"ce4bhs92rcd13ifvqi0g","pricing_plan_id":"free"},{"bike_id":"884d5f7e-0c1a-4909-9d9b-0cc6980b9c90","system_id":"levelo_inurba_marseille","lat":43.328371,"lon":5.366909,"is_reserved":false,"is_disabled":false,"rental_uris":{"android":"levelo://app?vid=884d5f7e-0c1a-4909-9d9b-0cc6980b9c90","ios":"levelo://app?vid=884d5f7e-0c1a-4909-9d9b-0cc6980b9c90"},"vehicle_type_id":"4","last_reported":1692903886,"current_range_meters":2800,"station_id":"ce4bhs92rcd13ifvqi0g","pricing_plan_id":"free"},{"bike_id":"1982984c-1826-44ed-b984-c794b80833b8","system_id":"levelo_inurba_marseille","lat":43.32833,"lon":5.36677,"is_reserved":false,"is_disabled":false,"rental_uris":{"android":"levelo://app?vid=1982984c-1826-44ed-b984-c794b80833b8","ios":"levelo://app?vid=1982984c-1826-44ed-b984-c794b80833b8"},"vehicle_type_id":"4","last_reported":1692903886,"current_range_meters":30000,"station_id":"ce4bhs92rcd13ifvqi0g","pricing_plan_id":"free"},{"bike_id":"d43e5e3e-cc4f-4407-993a-a9c5ce5ad62d","system_id":"levelo_inurba_marseille","lat":43.32833,"lon":5.36677,"is_reserved":false,"is_disabled":false,"rental_uris":{"android":"levelo://app?vid=d43e5e3e-cc4f-4407-993a-a9c5ce5ad62d","ios":"levelo://app?vid=d43e5e3e-cc4f-4407-993a-a9c5ce5ad62d"},"vehicle_type_id":"4","last_reported":1692903886,"current_range_meters":23600,"station_id":"ce4bhs92rcd13ifvqi0g","pricing_plan_id":"free"},{"bike_id":"49dd2626-769b-42da-a83b-4618a2cc293c","system_id":"levelo_inurba_marseille","lat":43.31545,"lon":5.38807,"is_reserved":false,"is_disabled":false,"rental_uris":{"android":"levelo://app?vid=49dd2626-769b-42da-a83b-4618a2cc293c","ios":"levelo://app?vid=49dd2626-769b-42da-a83b-4618a2cc293c"},"vehicle_type_id":"4","last_reported":1692903886,"current_range_meters":27200,"station_id":"","pricing_plan_id":"free"},{"bike_id":"dd789220-e7b5-42c1-b9dc-dc4243148021","system_id":"levelo_inurba_marseille","lat":43.297163,"lon":5.365866,"is_reserved":false,"is_disabled":false,"rental_uris":{"android":"levelo://app?vid=dd789220-e7b5-42c1-b9dc-dc4243148021","ios":"levelo://app?vid=dd789220-e7b5-42c1-b9dc-dc4243148021"},"vehicle_type_id":"4","last_reported":1692903886,"current_range_meters":31600,"station_id":"ce4bgn12rcd13ifvqbt0","pricing_plan_id":"free"},{"bike_id":"bd0bd295-6ecc-40c4-a4d0-89f645593756","system_id":"levelo_inurba_marseille","lat":43.297163,"lon":5.365866,"is_reserved":false,"is_disabled":false,"rental_uris":{"android":"levelo://app?vid=bd0bd295-6ecc-40c4-a4d0-89f645593756","ios":"levelo://app?vid=bd0bd295-6ecc-40c4-a4d0-89f645593756"},"vehicle_type_id":"4","last_reported":1692903886,"current_range_meters":19200,"station_id":"ce4bgn12rcd13ifvqbt0","pricing_plan_id":"free"},{"bike_id":"e2a7e223-7ed0-4e52-a122-124c7dfaf415","system_id":"levelo_inurba_marseille","lat":43.2968,"lon":5.37291,"is_reserved":false,"is_disabled":false,"rental_uris":{"android":"levelo://app?vid=e2a7e223-7ed0-4e52-a122-124c7dfaf415","ios":"levelo://app?vid=e2a7e223-7ed0-4e52-a122-124c7dfaf415"},"vehicle_type_id":"4","last_reported":1692903886,"current_range_meters":19200,"station_id":"ce4bgk12rcd13ifvqbj0","pricing_plan_id":"free"},{"bike_id":"d3139180-8ba9-4c91-b6e4-8baae3c22113","system_id":"levelo_inurba_marseille","lat":43.296131,"lon":5.370791,"is_reserved":false,"is_disabled":false,"rental_uris":{"android":"levelo://app?vid=d3139180-8ba9-4c91-b6e4-8baae3c22113","ios":"levelo://app?vid=d3139180-8ba9-4c91-b6e4-8baae3c22113"},"vehicle_type_id":"4","last_reported":1692903886,"current_range_meters":31200,"station_id":"ce4bgnh2rcd13ifvqc0g","pricing_plan_id":"free"},{"bike_id":"977a6800-4299-43a7-a2aa-8dccd41beadd","system_id":"levelo_inurba_marseille","lat":43.296935,"lon":5.376544,"is_reserved":false,"is_disabled":false,"rental_uris":{"android":"levelo://app?vid=977a6800-4299-43a7-a2aa-8dccd41beadd","ios":"levelo://app?vid=977a6800-4299-43a7-a2aa-8dccd41beadd"},"vehicle_type_id":"4","last_reported":1692903886,"current_range_meters":0,"station_id":"ce4bgkh2rcd13ifvqbl0","pricing_plan_id":"free"},{"bike_id":"f2d9a382-b782-4ff2-9256-4d6536d7eca5","system_id":"levelo_inurba_marseille","lat":43.296921,"lon":5.376579,"is_reserved":false,"is_disabled":false,"rental_uris":{"android":"levelo://app?vid=f2d9a382-b782-4ff2-9256-4d6536d7eca5","ios":"levelo://app?vid=f2d9a382-b782-4ff2-9256-4d6536d7eca5"},"vehicle_type_id":"4","last_reported":1692903886,"current_range_meters":24400,"station_id":"ce4bgkh2rcd13ifvqbl0","pricing_plan_id":"free"},{"bike_id":"ea3f683c-bbf5-43a8-b2cf-76702757de70","system_id":"levelo_inurba_marseille","lat":43.3095,"lon":5.39026,"is_reserved":false,"is_disabled":false,"rental_uris":{"android":"levelo://app?vid=ea3f683c-bbf5-43a8-b2cf-76702757de70","ios":"levelo://app?vid=ea3f683c-bbf5-43a8-b2cf-76702757de70"},"vehicle_type_id":"4","last_reported":1692903886,"current_range_meters":9600,"station_id":"ce4bgup2rcd13ifvqco0","pricing_plan_id":"free"},{"bike_id":"2c93ce6f-c5e1-4ec9-9941-ebb7469bb8f2","system_id":"levelo_inurba_marseille","lat":43.317557,"lon":5.390173,"is_reserved":false,"is_disabled":false,"rental_uris":{"android":"levelo://app?vid=2c93ce6f-c5e1-4ec9-9941-ebb7469bb8f2","ios":"levelo://app?vid=2c93ce6f-c5e1-4ec9-9941-ebb7469bb8f2"},"vehicle_type_id":"4","last_reported":1692903886,"current_range_meters":31200,"station_id":"ce4bhqp2rcd13ifvqhng","pricing_plan_id":"free"},{"bike_id":"e3521786-6792-4480-92ec-9af5cda0b810","system_id":"levelo_inurba_marseille","lat":43.317557,"lon":5.390173,"is_reserved":false,"is_disabled":false,"rental_uris":{"android":"levelo://app?vid=e3521786-6792-4480-92ec-9af5cda0b810","ios":"levelo://app?vid=e3521786-6792-4480-92ec-9af5cda0b810"},"vehicle_type_id":"4","last_reported":1692903886,"current_range_meters":17200,"station_id":"ce4bhqp2rcd13ifvqhng","pricing_plan_id":"free"},{"bike_id":"bd7ed5a1-2659-459b-b821-8407e71d9000","system_id":"levelo_inurba_marseille","lat":43.317557,"lon":5.390173,"is_reserved":false,"is_disabled":false,"rental_uris":{"android":"levelo://app?vid=bd7ed5a1-2659-459b-b821-8407e71d9000","ios":"levelo://app?vid=bd7ed5a1-2659-459b-b821-8407e71d9000"},"vehicle_type_id":"4","last_reported":1692903886,"current_range_meters":21600,"station_id":"ce4bhqp2rcd13ifvqhng","pricing_plan_id":"free"},{"bike_id":"e191e4d1-9ef6-4356-b921-cf33b60eb1fb","system_id":"levelo_inurba_marseille","lat":43.317557,"lon":5.390173,"is_reserved":false,"is_disabled":false,"rental_uris":{"android":"levelo://app?vid=e191e4d1-9ef6-4356-b921-cf33b60eb1fb","ios":"levelo://app?vid=e191e4d1-9ef6-4356-b921-cf33b60eb1fb"},"vehicle_type_id":"4","last_reported":1692903886,"current_range_meters":21600,"station_id":"ce4bhqp2rcd13ifvqhng","pricing_plan_id":"free"},{"bike_id":"1ce4b758-4417-40aa-8a3a-9320613a3732","system_id":"levelo_inurba_marseille","lat":43.317557,"lon":5.390173,"is_reserved":false,"is_disabled":false,"rental_uris":{"android":"levelo://app?vid=1ce4b758-4417-40aa-8a3a-9320613a3732","ios":"levelo://app?vid=1ce4b758-4417-40aa-8a3a-9320613a3732"},"vehicle_type_id":"4","last_reported":1692903886,"current_range_meters":9200,"station_id":"ce4bhqp2rcd13ifvqhng","pricing_plan_id":"free"},{"bike_id":"6d8f3609-3a72-4964-bb63-294509618951","system_id":"levelo_inurba_marseille","lat":43.317557,"lon":5.390173,"is_reserved":false,"is_disabled":false,"rental_uris":{"android":"levelo://app?vid=6d8f3609-3a72-4964-bb63-294509618951","ios":"levelo://app?vid=6d8f3609-3a72-4964-bb63-294509618951"},"vehicle_type_id":"4","last_reported":1692903886,"current_range_meters":25200,"station_id":"ce4bhqp2rcd13ifvqhng","pricing_plan_id":"free"},{"bike_id":"835971ba-76e9-4639-b729-f2eb1d76544e","system_id":"levelo_inurba_marseille","lat":43.298037,"lon":5.381066,"is_reserved":false,"is_disabled":false,"rental_uris":{"android":"levelo://app?vid=835971ba-76e9-4639-b729-f2eb1d76544e","ios":"levelo://app?vid=835971ba-76e9-4639-b729-f2eb1d76544e"},"vehicle_type_id":"4","last_reported":1692903886,"current_range_meters":800,"station_id":"ce4bgip2rcd13ifvqbb0","pricing_plan_id":"free"},{"bike_id":"1ca512ff-b801-44c1-b043-2368fc8c8d35","system_id":"levelo_inurba_marseille","lat":43.295748,"lon":5.37522,"is_reserved":false,"is_disabled":false,"rental_uris":{"android":"levelo://app?vid=1ca512ff-b801-44c1-b043-2368fc8c8d35","ios":"levelo://app?vid=1ca512ff-b801-44c1-b043-2368fc8c8d35"},"vehicle_type_id":"4","last_reported":1692903886,"current_range_meters":0,"station_id":"ce4bgh92rcd13ifvqb50","pricing_plan_id":"free"},{"bike_id":"d204bc75-4ac9-4923-a09c-1310524500ec","system_id":"levelo_inurba_marseille","lat":43.295748,"lon":5.37522,"is_reserved":false,"is_disabled":false,"rental_uris":{"android":"levelo://app?vid=d204bc75-4ac9-4923-a09c-1310524500ec","ios":"levelo://app?vid=d204bc75-4ac9-4923-a09c-1310524500ec"},"vehicle_type_id":"4","last_reported":1692903886,"current_range_meters":0,"station_id":"ce4bgh92rcd13ifvqb50","pricing_plan_id":"free"},{"bike_id":"0baaf21a-416e-48c3-84da-327dad6654ea","system_id":"levelo_inurba_marseille","lat":43.295748,"lon":5.37522,"is_reserved":false,"is_disabled":false,"rental_uris":{"android":"levelo://app?vid=0baaf21a-416e-48c3-84da-327dad6654ea","ios":"levelo://app?vid=0baaf21a-416e-48c3-84da-327dad6654ea"},"vehicle_type_id":"4","last_reported":1692903886,"current_range_meters":14400,"station_id":"ce4bgh92rcd13ifvqb50","pricing_plan_id":"free"},{"bike_id":"ba370d6a-e947-4441-a5d9-2992f5128e45","system_id":"levelo_inurba_marseille","lat":43.295748,"lon":5.37522,"is_reserved":false,"is_disabled":false,"rental_uris":{"android":"levelo://app?vid=ba370d6a-e947-4441-a5d9-2992f5128e45","ios":"levelo://app?vid=ba370d6a-e947-4441-a5d9-2992f5128e45"},"vehicle_type_id":"4","last_reported":1692903886,"current_range_meters":20800,"station_id":"ce4bgh92rcd13ifvqb50","pricing_plan_id":"free"},{"bike_id":"bfa500eb-6df3-4a48-b852-3f851098f765","system_id":"levelo_inurba_marseille","lat":43.304278,"lon":5.388868,"is_reserved":false,"is_disabled":false,"rental_uris":{"android":"levelo://app?vid=bfa500eb-6df3-4a48-b852-3f851098f765","ios":"levelo://app?vid=bfa500eb-6df3-4a48-b852-3f851098f765"},"vehicle_type_id":"4","last_reported":1692903886,"current_range_meters":7600,"station_id":"ce4bgk12rcd13ifvqbi0","pricing_plan_id":"free"},{"bike_id":"1e854a57-ab01-440c-a421-a07fa728d848","system_id":"levelo_inurba_marseille","lat":43.295748,"lon":5.37522,"is_reserved":false,"is_disabled":false,"rental_uris":{"android":"levelo://app?vid=1e854a57-ab01-440c-a421-a07fa728d848","ios":"levelo://app?vid=1e854a57-ab01-440c-a421-a07fa728d848"},"vehicle_type_id":"4","last_reported":1692903886,"current_range_meters":6800,"station_id":"ce4bgh92rcd13ifvqb50","pricing_plan_id":"free"},{"bike_id":"aca0fb40-b08f-4df2-be6d-7ec96b5cc965","system_id":"levelo_inurba_marseille","lat":43.296263,"lon":5.377094,"is_reserved":false,"is_disabled":false,"rental_uris":{"android":"levelo://app?vid=aca0fb40-b08f-4df2-be6d-7ec96b5cc965","ios":"levelo://app?vid=aca0fb40-b08f-4df2-be6d-7ec96b5cc965"},"vehicle_type_id":"4","last_reported":1692903886,"current_range_meters":0,"station_id":"ce4bgi92rcd13ifvqb90","pricing_plan_id":"free"},{"bike_id":"1ab0f60d-a998-40b8-a3de-cf12afb36479","system_id":"levelo_inurba_marseille","lat":43.296263,"lon":5.377094,"is_reserved":false,"is_disabled":false,"rental_uris":{"android":"levelo://app?vid=1ab0f60d-a998-40b8-a3de-cf12afb36479","ios":"levelo://app?vid=1ab0f60d-a998-40b8-a3de-cf12afb36479"},"vehicle_type_id":"4","last_reported":1692903886,"current_range_meters":2000,"station_id":"ce4bgi92rcd13ifvqb90","pricing_plan_id":"free"},{"bike_id":"88633cd0-092e-443a-a19c-7f566d24b133","system_id":"levelo_inurba_marseille","lat":43.33068,"lon":5.36271,"is_reserved":false,"is_disabled":false,"rental_uris":{"android":"levelo://app?vid=88633cd0-092e-443a-a19c-7f566d24b133","ios":"levelo://app?vid=88633cd0-092e-443a-a19c-7f566d24b133"},"vehicle_type_id":"4","last_reported":1692903886,"current_range_meters":8400,"station_id":"","pricing_plan_id":"free"},{"bike_id":"952a19e7-6602-41c3-942f-79cfb514366f","system_id":"levelo_inurba_marseille","lat":43.296277,"lon":5.377108,"is_reserved":false,"is_disabled":false,"rental_uris":{"android":"levelo://app?vid=952a19e7-6602-41c3-942f-79cfb514366f","ios":"levelo://app?vid=952a19e7-6602-41c3-942f-79cfb514366f"},"vehicle_type_id":"4","last_reported":1692903886,"current_range_meters":31600,"station_id":"ce4bgi92rcd13ifvqb90","pricing_plan_id":"free"},{"bike_id":"329b52da-6179-4119-8885-76b50cbdc2a9","system_id":"levelo_inurba_marseille","lat":43.299717,"lon":5.384845,"is_reserved":false,"is_disabled":false,"rental_uris":{"android":"levelo://app?vid=329b52da-6179-4119-8885-76b50cbdc2a9","ios":"levelo://app?vid=329b52da-6179-4119-8885-76b50cbdc2a9"},"vehicle_type_id":"4","last_reported":1692903886,"current_range_meters":24000,"station_id":"ce4bgj92rcd13ifvqbd0","pricing_plan_id":"free"},{"bike_id":"d86052c9-41a6-4eaa-abb0-b385dac45127","system_id":"levelo_inurba_marseille","lat":43.295279,"lon":5.375048,"is_reserved":false,"is_disabled":false,"rental_uris":{"android":"levelo://app?vid=d86052c9-41a6-4eaa-abb0-b385dac45127","ios":"levelo://app?vid=d86052c9-41a6-4eaa-abb0-b385dac45127"},"vehicle_type_id":"4","last_reported":1692903886,"current_range_meters":25200,"station_id":"ce4bgkp2rcd13ifvqbmg","pricing_plan_id":"free"},{"bike_id":"0330c618-d726-456f-9b5a-3b6fbd7d14ee","system_id":"levelo_inurba_marseille","lat":43.299724,"lon":5.384848,"is_reserved":false,"is_disabled":false,"rental_uris":{"android":"levelo://app?vid=0330c618-d726-456f-9b5a-3b6fbd7d14ee","ios":"levelo://app?vid=0330c618-d726-456f-9b5a-3b6fbd7d14ee"},"vehicle_type_id":"4","last_reported":1692903886,"current_range_meters":28000,"station_id":"ce4bgj92rcd13ifvqbd0","pricing_plan_id":"free"},{"bike_id":"f86446dd-0c7b-4805-a281-089f877ac53c","system_id":"levelo_inurba_marseille","lat":43.299724,"lon":5.384848,"is_reserved":false,"is_disabled":false,"rental_uris":{"android":"levelo://app?vid=f86446dd-0c7b-4805-a281-089f877ac53c","ios":"levelo://app?vid=f86446dd-0c7b-4805-a281-089f877ac53c"},"vehicle_type_id":"4","last_reported":1692903886,"current_range_meters":24400,"station_id":"ce4bgj92rcd13ifvqbd0","pricing_plan_id":"free"},{"bike_id":"17b24b50-2328-478b-9728-0ee91fa1fb2f","system_id":"levelo_inurba_marseille","lat":43.301252,"lon":5.387877,"is_reserved":false,"is_disabled":false,"rental_uris":{"android":"levelo://app?vid=17b24b50-2328-478b-9728-0ee91fa1fb2f","ios":"levelo://app?vid=17b24b50-2328-478b-9728-0ee91fa1fb2f"},"vehicle_type_id":"4","last_reported":1692903886,"current_range_meters":22000,"station_id":"","pricing_plan_id":"free"},{"bike_id":"2ebab041-34c6-441f-bc09-68b4a40ab8e5","system_id":"levelo_inurba_marseille","lat":43.32358,"lon":5.3888,"is_reserved":false,"is_disabled":false,"rental_uris":{"android":"levelo://app?vid=2ebab041-34c6-441f-bc09-68b4a40ab8e5","ios":"levelo://app?vid=2ebab041-34c6-441f-bc09-68b4a40ab8e5"},"vehicle_type_id":"4","last_reported":1692903886,"current_range_meters":15600,"station_id":"ce4bhqp2rcd13ifvqhog","pricing_plan_id":"free"},{"bike_id":"828dede6-92f9-4c93-ad20-df1fdc8a0c35","system_id":"levelo_inurba_marseille","lat":43.32362,"lon":5.38879,"is_reserved":false,"is_disabled":false,"rental_uris":{"android":"levelo://app?vid=828dede6-92f9-4c93-ad20-df1fdc8a0c35","ios":"levelo://app?vid=828dede6-92f9-4c93-ad20-df1fdc8a0c35"},"vehicle_type_id":"4","last_reported":1692903886,"current_range_meters":12000,"station_id":"ce4bhqp2rcd13ifvqhog","pricing_plan_id":"free"},{"bike_id":"4cc6afcb-8ab3-420f-b8e1-a4bccdd2c827","system_id":"levelo_inurba_marseille","lat":43.32366,"lon":5.38877,"is_reserved":false,"is_disabled":false,"rental_uris":{"android":"levelo://app?vid=4cc6afcb-8ab3-420f-b8e1-a4bccdd2c827","ios":"levelo://app?vid=4cc6afcb-8ab3-420f-b8e1-a4bccdd2c827"},"vehicle_type_id":"4","last_reported":1692903886,"current_range_meters":31200,"station_id":"ce4bhqp2rcd13ifvqhog","pricing_plan_id":"free"},{"bike_id":"ca2f0900-1f67-4d11-a14f-c33da1dd1356","system_id":"levelo_inurba_marseille","lat":43.32367,"lon":5.38884,"is_reserved":false,"is_disabled":false,"rental_uris":{"android":"levelo://app?vid=ca2f0900-1f67-4d11-a14f-c33da1dd1356","ios":"levelo://app?vid=ca2f0900-1f67-4d11-a14f-c33da1dd1356"},"vehicle_type_id":"4","last_reported":1692903886,"current_range_meters":15200,"station_id":"ce4bhqp2rcd13ifvqhog","pricing_plan_id":"free"},{"bike_id":"00883cd9-a56a-4720-bb55-237d0136a4a1","system_id":"levelo_inurba_marseille","lat":43.32367,"lon":5.388836,"is_reserved":false,"is_disabled":false,"rental_uris":{"android":"levelo://app?vid=00883cd9-a56a-4720-bb55-237d0136a4a1","ios":"levelo://app?vid=00883cd9-a56a-4720-bb55-237d0136a4a1"},"vehicle_type_id":"4","last_reported":1692903886,"current_range_meters":24400,"station_id":"ce4bhqp2rcd13ifvqhog","pricing_plan_id":"free"},{"bike_id":"deaaf190-943b-4a73-9b49-eecd7b979724","system_id":"levelo_inurba_marseille","lat":43.29599,"lon":5.38103,"is_reserved":false,"is_disabled":false,"rental_uris":{"android":"levelo://app?vid=deaaf190-943b-4a73-9b49-eecd7b979724","ios":"levelo://app?vid=deaaf190-943b-4a73-9b49-eecd7b979724"},"vehicle_type_id":"4","last_reported":1692903886,"current_range_meters":24800,"station_id":"ce4bgl12rcd13ifvqbo0","pricing_plan_id":"free"},{"bike_id":"736a4977-9e62-4d04-a5cc-28e069211dff","system_id":"levelo_inurba_marseille","lat":43.29596,"lon":5.38114,"is_reserved":false,"is_disabled":false,"rental_uris":{"android":"levelo://app?vid=736a4977-9e62-4d04-a5cc-28e069211dff","ios":"levelo://app?vid=736a4977-9e62-4d04-a5cc-28e069211dff"},"vehicle_type_id":"4","last_reported":1692903886,"current_range_meters":26800,"station_id":"ce4bgl12rcd13ifvqbo0","pricing_plan_id":"free"},{"bike_id":"6b78e679-c455-4566-bbd4-8dd70fcd2c19","system_id":"levelo_inurba_marseille","lat":43.293009,"lon":5.374584,"is_reserved":false,"is_disabled":false,"rental_uris":{"android":"levelo://app?vid=6b78e679-c455-4566-bbd4-8dd70fcd2c19","ios":"levelo://app?vid=6b78e679-c455-4566-bbd4-8dd70fcd2c19"},"vehicle_type_id":"4","last_reported":1692903886,"current_range_meters":20400,"station_id":"ce4bgi12rcd13ifvqb70","pricing_plan_id":"free"},{"bike_id":"38fef587-7cc5-4800-b069-87b8f296a10a","system_id":"levelo_inurba_marseille","lat":43.293009,"lon":5.374584,"is_reserved":false,"is_disabled":false,"rental_uris":{"android":"levelo://app?vid=38fef587-7cc5-4800-b069-87b8f296a10a","ios":"levelo://app?vid=38fef587-7cc5-4800-b069-87b8f296a10a"},"vehicle_type_id":"4","last_reported":1692903886,"current_range_meters":31600,"station_id":"ce4bgi12rcd13ifvqb70","pricing_plan_id":"free"},{"bike_id":"6533c646-1091-4458-9ef2-bc9d36dce22d","system_id":"levelo_inurba_marseille","lat":43.293009,"lon":5.374584,"is_reserved":false,"is_disabled":false,"rental_uris":{"android":"levelo://app?vid=6533c646-1091-4458-9ef2-bc9d36dce22d","ios":"levelo://app?vid=6533c646-1091-4458-9ef2-bc9d36dce22d"},"vehicle_type_id":"4","last_reported":1692903886,"current_range_meters":30400,"station_id":"ce4bgi12rcd13ifvqb70","pricing_plan_id":"free"},{"bike_id":"0724f352-a262-45b7-9b71-9a09ff17d945","system_id":"levelo_inurba_marseille","lat":43.303002,"lon":5.392142,"is_reserved":false,"is_disabled":false,"rental_uris":{"android":"levelo://app?vid=0724f352-a262-45b7-9b71-9a09ff17d945","ios":"levelo://app?vid=0724f352-a262-45b7-9b71-9a09ff17d945"},"vehicle_type_id":"4","last_reported":1692903886,"current_range_meters":21200,"station_id":"ce4bgkh2rcd13ifvqbk0","pricing_plan_id":"free"},{"bike_id":"59d4a7cc-c4d8-47e1-a63f-2e26b5d209c3","system_id":"levelo_inurba_marseille","lat":43.2936,"lon":5.37835,"is_reserved":false,"is_disabled":false,"rental_uris":{"android":"levelo://app?vid=59d4a7cc-c4d8-47e1-a63f-2e26b5d209c3","ios":"levelo://app?vid=59d4a7cc-c4d8-47e1-a63f-2e26b5d209c3"},"vehicle_type_id":"4","last_reported":1692903886,"current_range_meters":30000,"station_id":"ce4bgjh2rcd13ifvqbf0","pricing_plan_id":"free"},{"bike_id":"2fb06989-f243-4ac7-87dd-8fe648c71549","system_id":"levelo_inurba_marseille","lat":43.2936,"lon":5.37835,"is_reserved":false,"is_disabled":false,"rental_uris":{"android":"levelo://app?vid=2fb06989-f243-4ac7-87dd-8fe648c71549","ios":"levelo://app?vid=2fb06989-f243-4ac7-87dd-8fe648c71549"},"vehicle_type_id":"4","last_reported":1692903886,"current_range_meters":5200,"station_id":"ce4bgjh2rcd13ifvqbf0","pricing_plan_id":"free"},{"bike_id":"0630713f-caa9-4220-8980-cb7932579f1a","system_id":"levelo_inurba_marseille","lat":43.300852,"lon":5.390859,"is_reserved":false,"is_disabled":false,"rental_uris":{"android":"levelo://app?vid=0630713f-caa9-4220-8980-cb7932579f1a","ios":"levelo://app?vid=0630713f-caa9-4220-8980-cb7932579f1a"},"vehicle_type_id":"4","last_reported":1692903886,"current_range_meters":800,"station_id":"ce4bh192rcd13ifvqdb0","pricing_plan_id":"free"},{"bike_id":"37a8eaab-d209-4010-b5c7-9133e5beda7f","system_id":"levelo_inurba_marseille","lat":43.291671,"lon":5.371575,"is_reserved":false,"is_disabled":false,"rental_uris":{"android":"levelo://app?vid=37a8eaab-d209-4010-b5c7-9133e5beda7f","ios":"levelo://app?vid=37a8eaab-d209-4010-b5c7-9133e5beda7f"},"vehicle_type_id":"4","last_reported":1692903886,"current_range_meters":0,"station_id":"ce4bha92rcd13ifvqeh0","pricing_plan_id":"free"},{"bike_id":"9bb2c07b-2d39-4c40-a547-b40e572c7838","system_id":"levelo_inurba_marseille","lat":43.29206,"lon":5.35794,"is_reserved":false,"is_disabled":false,"rental_uris":{"android":"levelo://app?vid=9bb2c07b-2d39-4c40-a547-b40e572c7838","ios":"levelo://app?vid=9bb2c07b-2d39-4c40-a547-b40e572c7838"},"vehicle_type_id":"4","last_reported":1692903886,"current_range_meters":26800,"station_id":"","pricing_plan_id":"free"},{"bike_id":"a1f95357-19e9-4379-904b-62f1af33a51a","system_id":"levelo_inurba_marseille","lat":43.313291,"lon":5.396838,"is_reserved":false,"is_disabled":false,"rental_uris":{"android":"levelo://app?vid=a1f95357-19e9-4379-904b-62f1af33a51a","ios":"levelo://app?vid=a1f95357-19e9-4379-904b-62f1af33a51a"},"vehicle_type_id":"4","last_reported":1692903886,"current_range_meters":24800,"station_id":"ce4bgvp2rcd13ifvqcu0","pricing_plan_id":"free"},{"bike_id":"adcd8b3b-7e5e-43e0-b7c9-749ea2e82472","system_id":"levelo_inurba_marseille","lat":43.31332,"lon":5.3969,"is_reserved":false,"is_disabled":false,"rental_uris":{"android":"levelo://app?vid=adcd8b3b-7e5e-43e0-b7c9-749ea2e82472","ios":"levelo://app?vid=adcd8b3b-7e5e-43e0-b7c9-749ea2e82472"},"vehicle_type_id":"4","last_reported":1692903886,"current_range_meters":16000,"station_id":"ce4bgvp2rcd13ifvqcu0","pricing_plan_id":"free"},{"bike_id":"e7b4d14f-8ad1-4f96-83be-a4422c722e6d","system_id":"levelo_inurba_marseille","lat":43.313291,"lon":5.396838,"is_reserved":false,"is_disabled":false,"rental_uris":{"android":"levelo://app?vid=e7b4d14f-8ad1-4f96-83be-a4422c722e6d","ios":"levelo://app?vid=e7b4d14f-8ad1-4f96-83be-a4422c722e6d"},"vehicle_type_id":"4","last_reported":1692903886,"current_range_meters":0,"station_id":"ce4bgvp2rcd13ifvqcu0","pricing_plan_id":"free"},{"bike_id":"127741e7-71da-4469-9c7d-a7776f901127","system_id":"levelo_inurba_marseille","lat":43.31326,"lon":5.39694,"is_reserved":false,"is_disabled":false,"rental_uris":{"android":"levelo://app?vid=127741e7-71da-4469-9c7d-a7776f901127","ios":"levelo://app?vid=127741e7-71da-4469-9c7d-a7776f901127"},"vehicle_type_id":"4","last_reported":1692903886,"current_range_meters":15200,"station_id":"ce4bgvp2rcd13ifvqcu0","pricing_plan_id":"free"},{"bike_id":"39b5b5cf-86ef-48ea-a176-58e554756417","system_id":"levelo_inurba_marseille","lat":43.30212,"lon":5.39467,"is_reserved":false,"is_disabled":false,"rental_uris":{"android":"levelo://app?vid=39b5b5cf-86ef-48ea-a176-58e554756417","ios":"levelo://app?vid=39b5b5cf-86ef-48ea-a176-58e554756417"},"vehicle_type_id":"4","last_reported":1692903886,"current_range_meters":29600,"station_id":"ce4bh0p2rcd13ifvqd70","pricing_plan_id":"free"},{"bike_id":"e130171c-429e-441b-8519-0aef9c9dcbb1","system_id":"levelo_inurba_marseille","lat":43.302008,"lon":5.394694,"is_reserved":false,"is_disabled":false,"rental_uris":{"android":"levelo://app?vid=e130171c-429e-441b-8519-0aef9c9dcbb1","ios":"levelo://app?vid=e130171c-429e-441b-8519-0aef9c9dcbb1"},"vehicle_type_id":"4","last_reported":1692903886,"current_range_meters":2800,"station_id":"ce4bh0p2rcd13ifvqd70","pricing_plan_id":"free"},{"bike_id":"c29b2205-3f9f-4ecb-bd90-736d2cfbf878","system_id":"levelo_inurba_marseille","lat":43.290327,"lon":5.375711,"is_reserved":false,"is_disabled":false,"rental_uris":{"android":"levelo://app?vid=c29b2205-3f9f-4ecb-bd90-736d2cfbf878","ios":"levelo://app?vid=c29b2205-3f9f-4ecb-bd90-736d2cfbf878"},"vehicle_type_id":"4","last_reported":1692903886,"current_range_meters":22800,"station_id":"ce4bh692rcd13ifvqe90","pricing_plan_id":"free"},{"bike_id":"7bdab7b9-9d99-475d-8a34-9b847ee05bd8","system_id":"levelo_inurba_marseille","lat":43.29042,"lon":5.37568,"is_reserved":false,"is_disabled":false,"rental_uris":{"android":"levelo://app?vid=7bdab7b9-9d99-475d-8a34-9b847ee05bd8","ios":"levelo://app?vid=7bdab7b9-9d99-475d-8a34-9b847ee05bd8"},"vehicle_type_id":"4","last_reported":1692903886,"current_range_meters":400,"station_id":"ce4bh692rcd13ifvqe90","pricing_plan_id":"free"},{"bike_id":"e3724724-804e-4acd-8e83-1375ea7519a8","system_id":"levelo_inurba_marseille","lat":43.289184,"lon":5.366408,"is_reserved":false,"is_disabled":false,"rental_uris":{"android":"levelo://app?vid=e3724724-804e-4acd-8e83-1375ea7519a8","ios":"levelo://app?vid=e3724724-804e-4acd-8e83-1375ea7519a8"},"vehicle_type_id":"4","last_reported":1692903886,"current_range_meters":22000,"station_id":"ce4bhap2rcd13ifvqek0","pricing_plan_id":"free"},{"bike_id":"0360d6f8-3e6a-44a5-9b7f-39ac57136c9e","system_id":"levelo_inurba_marseille","lat":43.289321,"lon":5.366332,"is_reserved":false,"is_disabled":false,"rental_uris":{"android":"levelo://app?vid=0360d6f8-3e6a-44a5-9b7f-39ac57136c9e","ios":"levelo://app?vid=0360d6f8-3e6a-44a5-9b7f-39ac57136c9e"},"vehicle_type_id":"4","last_reported":1692903886,"current_range_meters":21200,"station_id":"","pricing_plan_id":"free"},{"bike_id":"92ceb333-f38c-4df5-ac36-9317904ae1a7","system_id":"levelo_inurba_marseille","lat":43.28926,"lon":5.36642,"is_reserved":false,"is_disabled":false,"rental_uris":{"android":"levelo://app?vid=92ceb333-f38c-4df5-ac36-9317904ae1a7","ios":"levelo://app?vid=92ceb333-f38c-4df5-ac36-9317904ae1a7"},"vehicle_type_id":"4","last_reported":1692903886,"current_range_meters":30000,"station_id":"ce4bhap2rcd13ifvqek0","pricing_plan_id":"free"},{"bike_id":"d6b2e3c1-e0d4-475d-a621-a87d9156c865","system_id":"levelo_inurba_marseille","lat":43.292644,"lon":5.384257,"is_reserved":false,"is_disabled":false,"rental_uris":{"android":"levelo://app?vid=d6b2e3c1-e0d4-475d-a621-a87d9156c865","ios":"levelo://app?vid=d6b2e3c1-e0d4-475d-a621-a87d9156c865"},"vehicle_type_id":"4","last_reported":1692903886,"current_range_meters":800,"station_id":"ce4bh692rcd13ifvqea0","pricing_plan_id":"free"},{"bike_id":"590d9531-2337-44f4-ae1c-6dd7278f5681","system_id":"levelo_inurba_marseille","lat":43.292642,"lon":5.384254,"is_reserved":false,"is_disabled":false,"rental_uris":{"android":"levelo://app?vid=590d9531-2337-44f4-ae1c-6dd7278f5681","ios":"levelo://app?vid=590d9531-2337-44f4-ae1c-6dd7278f5681"},"vehicle_type_id":"4","last_reported":1692903886,"current_range_meters":18800,"station_id":"ce4bh692rcd13ifvqea0","pricing_plan_id":"free"},{"bike_id":"4f873d10-0232-47fc-aaa1-86da82724dee","system_id":"levelo_inurba_marseille","lat":43.292642,"lon":5.384254,"is_reserved":false,"is_disabled":false,"rental_uris":{"android":"levelo://app?vid=4f873d10-0232-47fc-aaa1-86da82724dee","ios":"levelo://app?vid=4f873d10-0232-47fc-aaa1-86da82724dee"},"vehicle_type_id":"4","last_reported":1692903886,"current_range_meters":22400,"station_id":"ce4bh692rcd13ifvqea0","pricing_plan_id":"free"},{"bike_id":"c3ddea25-2273-425a-8146-f4c3d838e972","system_id":"levelo_inurba_marseille","lat":43.292642,"lon":5.384254,"is_reserved":false,"is_disabled":false,"rental_uris":{"android":"levelo://app?vid=c3ddea25-2273-425a-8146-f4c3d838e972","ios":"levelo://app?vid=c3ddea25-2273-425a-8146-f4c3d838e972"},"vehicle_type_id":"4","last_reported":1692903886,"current_range_meters":0,"station_id":"ce4bh692rcd13ifvqea0","pricing_plan_id":"free"},{"bike_id":"2d133626-684d-41a9-a278-e86bd487699b","system_id":"levelo_inurba_marseille","lat":43.292644,"lon":5.384257,"is_reserved":false,"is_disabled":false,"rental_uris":{"android":"levelo://app?vid=2d133626-684d-41a9-a278-e86bd487699b","ios":"levelo://app?vid=2d133626-684d-41a9-a278-e86bd487699b"},"vehicle_type_id":"4","last_reported":1692903886,"current_range_meters":22800,"station_id":"ce4bh692rcd13ifvqea0","pricing_plan_id":"free"},{"bike_id":"febf6847-1463-4830-ad01-903176edb213","system_id":"levelo_inurba_marseille","lat":43.292642,"lon":5.384254,"is_reserved":false,"is_disabled":false,"rental_uris":{"android":"levelo://app?vid=febf6847-1463-4830-ad01-903176edb213","ios":"levelo://app?vid=febf6847-1463-4830-ad01-903176edb213"},"vehicle_type_id":"4","last_reported":1692903886,"current_range_meters":18800,"station_id":"ce4bh692rcd13ifvqea0","pricing_plan_id":"free"},{"bike_id":"42a386c7-050d-464c-a2bc-b5862a3a6662","system_id":"levelo_inurba_marseille","lat":43.292642,"lon":5.384254,"is_reserved":false,"is_disabled":false,"rental_uris":{"android":"levelo://app?vid=42a386c7-050d-464c-a2bc-b5862a3a6662","ios":"levelo://app?vid=42a386c7-050d-464c-a2bc-b5862a3a6662"},"vehicle_type_id":"4","last_reported":1692903886,"current_range_meters":9600,"station_id":"ce4bh692rcd13ifvqea0","pricing_plan_id":"free"},{"bike_id":"1c07e25f-84db-4513-bedb-11b97c6ec9b6","system_id":"levelo_inurba_marseille","lat":43.33041,"lon":5.38914,"is_reserved":false,"is_disabled":false,"rental_uris":{"android":"levelo://app?vid=1c07e25f-84db-4513-bedb-11b97c6ec9b6","ios":"levelo://app?vid=1c07e25f-84db-4513-bedb-11b97c6ec9b6"},"vehicle_type_id":"4","last_reported":1692903886,"current_range_meters":31200,"station_id":"ce4bhr92rcd13ifvqhrg","pricing_plan_id":"free"},{"bike_id":"bd7daa76-25f4-40b2-86bd-a216524cfea0","system_id":"levelo_inurba_marseille","lat":43.33042,"lon":5.38915,"is_reserved":false,"is_disabled":false,"rental_uris":{"android":"levelo://app?vid=bd7daa76-25f4-40b2-86bd-a216524cfea0","ios":"levelo://app?vid=bd7daa76-25f4-40b2-86bd-a216524cfea0"},"vehicle_type_id":"4","last_reported":1692903886,"current_range_meters":10000,"station_id":"ce4bhr92rcd13ifvqhrg","pricing_plan_id":"free"},{"bike_id":"73e30c8d-1fec-42fa-994e-db63cd20ad16","system_id":"levelo_inurba_marseille","lat":43.33039,"lon":5.38922,"is_reserved":false,"is_disabled":false,"rental_uris":{"android":"levelo://app?vid=73e30c8d-1fec-42fa-994e-db63cd20ad16","ios":"levelo://app?vid=73e30c8d-1fec-42fa-994e-db63cd20ad16"},"vehicle_type_id":"4","last_reported":1692903886,"current_range_meters":19200,"station_id":"ce4bhr92rcd13ifvqhrg","pricing_plan_id":"free"},{"bike_id":"c64531b8-215c-466c-8107-948273dfc7b2","system_id":"levelo_inurba_marseille","lat":43.33045,"lon":5.38917,"is_reserved":false,"is_disabled":false,"rental_uris":{"android":"levelo://app?vid=c64531b8-215c-466c-8107-948273dfc7b2","ios":"levelo://app?vid=c64531b8-215c-466c-8107-948273dfc7b2"},"vehicle_type_id":"4","last_reported":1692903886,"current_range_meters":31200,"station_id":"ce4bhr92rcd13ifvqhrg","pricing_plan_id":"free"},{"bike_id":"1895038e-acdb-4d35-aa35-e1291f23a30a","system_id":"levelo_inurba_marseille","lat":43.290104,"lon":5.356111,"is_reserved":false,"is_disabled":false,"rental_uris":{"android":"levelo://app?vid=1895038e-acdb-4d35-aa35-e1291f23a30a","ios":"levelo://app?vid=1895038e-acdb-4d35-aa35-e1291f23a30a"},"vehicle_type_id":"4","last_reported":1692903886,"current_range_meters":31200,"station_id":"ce4bhb92rcd13ifvqen0","pricing_plan_id":"free"},{"bike_id":"6093d433-f9d6-48fe-897b-a1be7c29ef34","system_id":"levelo_inurba_marseille","lat":43.290103,"lon":5.356114,"is_reserved":false,"is_disabled":false,"rental_uris":{"android":"levelo://app?vid=6093d433-f9d6-48fe-897b-a1be7c29ef34","ios":"levelo://app?vid=6093d433-f9d6-48fe-897b-a1be7c29ef34"},"vehicle_type_id":"4","last_reported":1692903886,"current_range_meters":29200,"station_id":"ce4bhb92rcd13ifvqen0","pricing_plan_id":"free"},{"bike_id":"a4df99ce-0488-49dd-a888-94686f562e88","system_id":"levelo_inurba_marseille","lat":43.290104,"lon":5.356111,"is_reserved":false,"is_disabled":false,"rental_uris":{"android":"levelo://app?vid=a4df99ce-0488-49dd-a888-94686f562e88","ios":"levelo://app?vid=a4df99ce-0488-49dd-a888-94686f562e88"},"vehicle_type_id":"4","last_reported":1692903886,"current_range_meters":30000,"station_id":"ce4bhb92rcd13ifvqen0","pricing_plan_id":"free"},{"bike_id":"9ccc4583-c024-4005-9500-9904f6a5551f","system_id":"levelo_inurba_marseille","lat":43.330466,"lon":5.389176,"is_reserved":false,"is_disabled":false,"rental_uris":{"android":"levelo://app?vid=9ccc4583-c024-4005-9500-9904f6a5551f","ios":"levelo://app?vid=9ccc4583-c024-4005-9500-9904f6a5551f"},"vehicle_type_id":"4","last_reported":1692903886,"current_range_meters":1200,"station_id":"ce4bhr92rcd13ifvqhrg","pricing_plan_id":"free"},{"bike_id":"16d7615d-d4da-4347-b011-db91c296f891","system_id":"levelo_inurba_marseille","lat":43.290995,"lon":5.381361,"is_reserved":false,"is_disabled":false,"rental_uris":{"android":"levelo://app?vid=16d7615d-d4da-4347-b011-db91c296f891","ios":"levelo://app?vid=16d7615d-d4da-4347-b011-db91c296f891"},"vehicle_type_id":"4","last_reported":1692903886,"current_range_meters":10400,"station_id":"ce4bh512rcd13ifvqe2g","pricing_plan_id":"free"},{"bike_id":"a0f8898b-6f7f-49ca-b1fe-16f4e52c3999","system_id":"levelo_inurba_marseille","lat":43.290995,"lon":5.381361,"is_reserved":false,"is_disabled":false,"rental_uris":{"android":"levelo://app?vid=a0f8898b-6f7f-49ca-b1fe-16f4e52c3999","ios":"levelo://app?vid=a0f8898b-6f7f-49ca-b1fe-16f4e52c3999"},"vehicle_type_id":"4","last_reported":1692903886,"current_range_meters":28800,"station_id":"ce4bh512rcd13ifvqe2g","pricing_plan_id":"free"},{"bike_id":"a968f142-2614-47c5-a16d-cb5bad19816c","system_id":"levelo_inurba_marseille","lat":43.290995,"lon":5.381361,"is_reserved":false,"is_disabled":false,"rental_uris":{"android":"levelo://app?vid=a968f142-2614-47c5-a16d-cb5bad19816c","ios":"levelo://app?vid=a968f142-2614-47c5-a16d-cb5bad19816c"},"vehicle_type_id":"4","last_reported":1692903886,"current_range_meters":2800,"station_id":"ce4bh512rcd13ifvqe2g","pricing_plan_id":"free"},{"bike_id":"76f85ae7-6296-4dc8-b8ed-0f8a5b82b3d6","system_id":"levelo_inurba_marseille","lat":43.2909,"lon":5.38142,"is_reserved":false,"is_disabled":false,"rental_uris":{"android":"levelo://app?vid=76f85ae7-6296-4dc8-b8ed-0f8a5b82b3d6","ios":"levelo://app?vid=76f85ae7-6296-4dc8-b8ed-0f8a5b82b3d6"},"vehicle_type_id":"4","last_reported":1692903886,"current_range_meters":22400,"station_id":"ce4bh512rcd13ifvqe2g","pricing_plan_id":"free"},{"bike_id":"3a3e46c1-2dc6-43fc-8216-96e12a21d0a7","system_id":"levelo_inurba_marseille","lat":43.2953,"lon":5.39039,"is_reserved":false,"is_disabled":false,"rental_uris":{"android":"levelo://app?vid=3a3e46c1-2dc6-43fc-8216-96e12a21d0a7","ios":"levelo://app?vid=3a3e46c1-2dc6-43fc-8216-96e12a21d0a7"},"vehicle_type_id":"4","last_reported":1692903886,"current_range_meters":16400,"station_id":"ce4bh3p2rcd13ifvqdp0","pricing_plan_id":"free"},{"bike_id":"404fc2c6-cc5e-4020-86b3-0523dfccdba9","system_id":"levelo_inurba_marseille","lat":43.295169,"lon":5.390426,"is_reserved":false,"is_disabled":false,"rental_uris":{"android":"levelo://app?vid=404fc2c6-cc5e-4020-86b3-0523dfccdba9","ios":"levelo://app?vid=404fc2c6-cc5e-4020-86b3-0523dfccdba9"},"vehicle_type_id":"4","last_reported":1692903886,"current_range_meters":0,"station_id":"ce4bh3p2rcd13ifvqdp0","pricing_plan_id":"free"},{"bike_id":"9b3394fd-56cf-4d54-9d82-18762fccbcab","system_id":"levelo_inurba_marseille","lat":43.295169,"lon":5.390426,"is_reserved":false,"is_disabled":false,"rental_uris":{"android":"levelo://app?vid=9b3394fd-56cf-4d54-9d82-18762fccbcab","ios":"levelo://app?vid=9b3394fd-56cf-4d54-9d82-18762fccbcab"},"vehicle_type_id":"4","last_reported":1692903886,"current_range_meters":27600,"station_id":"ce4bh3p2rcd13ifvqdp0","pricing_plan_id":"free"},{"bike_id":"e9b58a66-d942-4b20-9420-102503caa2fc","system_id":"levelo_inurba_marseille","lat":43.29031,"lon":5.38125,"is_reserved":false,"is_disabled":false,"rental_uris":{"android":"levelo://app?vid=e9b58a66-d942-4b20-9420-102503caa2fc","ios":"levelo://app?vid=e9b58a66-d942-4b20-9420-102503caa2fc"},"vehicle_type_id":"4","last_reported":1692903886,"current_range_meters":0,"station_id":"ce4bh4p2rcd13ifvqe1g","pricing_plan_id":"free"},{"bike_id":"6beac647-5ef2-4ea6-ac41-a98447ba0c9a","system_id":"levelo_inurba_marseille","lat":43.29011,"lon":5.38083,"is_reserved":false,"is_disabled":false,"rental_uris":{"android":"levelo://app?vid=6beac647-5ef2-4ea6-ac41-a98447ba0c9a","ios":"levelo://app?vid=6beac647-5ef2-4ea6-ac41-a98447ba0c9a"},"vehicle_type_id":"4","last_reported":1692903886,"current_range_meters":18800,"station_id":"ce4bh4p2rcd13ifvqe1g","pricing_plan_id":"free"},{"bike_id":"4133ecde-f0b1-4bd2-b8a4-fca6f3b56ead","system_id":"levelo_inurba_marseille","lat":43.29029,"lon":5.38148,"is_reserved":false,"is_disabled":false,"rental_uris":{"android":"levelo://app?vid=4133ecde-f0b1-4bd2-b8a4-fca6f3b56ead","ios":"levelo://app?vid=4133ecde-f0b1-4bd2-b8a4-fca6f3b56ead"},"vehicle_type_id":"4","last_reported":1692903886,"current_range_meters":10000,"station_id":"ce4bh4p2rcd13ifvqe1g","pricing_plan_id":"free"},{"bike_id":"269f2dde-d8e5-4760-a6e8-7009e40760d2","system_id":"levelo_inurba_marseille","lat":43.33747,"lon":5.37475,"is_reserved":false,"is_disabled":false,"rental_uris":{"android":"levelo://app?vid=269f2dde-d8e5-4760-a6e8-7009e40760d2","ios":"levelo://app?vid=269f2dde-d8e5-4760-a6e8-7009e40760d2"},"vehicle_type_id":"4","last_reported":1692903886,"current_range_meters":30400,"station_id":"","pricing_plan_id":"free"},{"bike_id":"f5938237-7c4b-42d9-be2e-9c94605bf187","system_id":"levelo_inurba_marseille","lat":43.301117,"lon":5.398795,"is_reserved":false,"is_disabled":false,"rental_uris":{"android":"levelo://app?vid=f5938237-7c4b-42d9-be2e-9c94605bf187","ios":"levelo://app?vid=f5938237-7c4b-42d9-be2e-9c94605bf187"},"vehicle_type_id":"4","last_reported":1692903886,"current_range_meters":8000,"station_id":"ce4bh0h2rcd13ifvqd40","pricing_plan_id":"free"},{"bike_id":"76a1650e-a47e-4d85-be63-68dbe1043ae4","system_id":"levelo_inurba_marseille","lat":43.301117,"lon":5.398795,"is_reserved":false,"is_disabled":false,"rental_uris":{"android":"levelo://app?vid=76a1650e-a47e-4d85-be63-68dbe1043ae4","ios":"levelo://app?vid=76a1650e-a47e-4d85-be63-68dbe1043ae4"},"vehicle_type_id":"4","last_reported":1692903886,"current_range_meters":0,"station_id":"ce4bh0h2rcd13ifvqd40","pricing_plan_id":"free"},{"bike_id":"d34175b9-b334-425b-a265-3fd3f5ce0bc7","system_id":"levelo_inurba_marseille","lat":43.301117,"lon":5.398795,"is_reserved":false,"is_disabled":false,"rental_uris":{"android":"levelo://app?vid=d34175b9-b334-425b-a265-3fd3f5ce0bc7","ios":"levelo://app?vid=d34175b9-b334-425b-a265-3fd3f5ce0bc7"},"vehicle_type_id":"4","last_reported":1692903886,"current_range_meters":800,"station_id":"ce4bh0h2rcd13ifvqd40","pricing_plan_id":"free"},{"bike_id":"fcd3d837-650a-4810-b279-e57df8f43832","system_id":"levelo_inurba_marseille","lat":43.301117,"lon":5.398795,"is_reserved":false,"is_disabled":false,"rental_uris":{"android":"levelo://app?vid=fcd3d837-650a-4810-b279-e57df8f43832","ios":"levelo://app?vid=fcd3d837-650a-4810-b279-e57df8f43832"},"vehicle_type_id":"4","last_reported":1692903886,"current_range_meters":2800,"station_id":"ce4bh0h2rcd13ifvqd40","pricing_plan_id":"free"},{"bike_id":"45ed04d1-e753-4899-a8aa-c8d2f30a6f28","system_id":"levelo_inurba_marseille","lat":43.286961,"lon":5.373785,"is_reserved":false,"is_disabled":false,"rental_uris":{"android":"levelo://app?vid=45ed04d1-e753-4899-a8aa-c8d2f30a6f28","ios":"levelo://app?vid=45ed04d1-e753-4899-a8aa-c8d2f30a6f28"},"vehicle_type_id":"4","last_reported":1692903886,"current_range_meters":0,"station_id":"ce4bh3p2rcd13ifvqdq0","pricing_plan_id":"free"},{"bike_id":"2365150f-73ab-4507-aea4-76016e6109c8","system_id":"levelo_inurba_marseille","lat":43.28671,"lon":5.36345,"is_reserved":false,"is_disabled":false,"rental_uris":{"android":"levelo://app?vid=2365150f-73ab-4507-aea4-76016e6109c8","ios":"levelo://app?vid=2365150f-73ab-4507-aea4-76016e6109c8"},"vehicle_type_id":"4","last_reported":1692903886,"current_range_meters":31200,"station_id":"ce4bhah2rcd13ifvqej0","pricing_plan_id":"free"},{"bike_id":"7a8a8437-2df2-417e-ba13-2edfbf438610","system_id":"levelo_inurba_marseille","lat":43.295196,"lon":5.39397,"is_reserved":false,"is_disabled":false,"rental_uris":{"android":"levelo://app?vid=7a8a8437-2df2-417e-ba13-2edfbf438610","ios":"levelo://app?vid=7a8a8437-2df2-417e-ba13-2edfbf438610"},"vehicle_type_id":"4","last_reported":1692903886,"current_range_meters":24000,"station_id":"ce4bh292rcd13ifvqdf0","pricing_plan_id":"free"},{"bike_id":"75199276-b705-4ad7-b6a9-49aeaa84628a","system_id":"levelo_inurba_marseille","lat":43.28666,"lon":5.36356,"is_reserved":false,"is_disabled":false,"rental_uris":{"android":"levelo://app?vid=75199276-b705-4ad7-b6a9-49aeaa84628a","ios":"levelo://app?vid=75199276-b705-4ad7-b6a9-49aeaa84628a"},"vehicle_type_id":"4","last_reported":1692903886,"current_range_meters":25200,"station_id":"ce4bhah2rcd13ifvqej0","pricing_plan_id":"free"},{"bike_id":"e9669efa-88bf-49f0-bd7a-78d41f5ff2af","system_id":"levelo_inurba_marseille","lat":43.286961,"lon":5.373785,"is_reserved":false,"is_disabled":false,"rental_uris":{"android":"levelo://app?vid=e9669efa-88bf-49f0-bd7a-78d41f5ff2af","ios":"levelo://app?vid=e9669efa-88bf-49f0-bd7a-78d41f5ff2af"},"vehicle_type_id":"4","last_reported":1692903886,"current_range_meters":0,"station_id":"ce4bh3p2rcd13ifvqdq0","pricing_plan_id":"free"},{"bike_id":"eb6b9546-a618-4e2e-96e6-bad962ac4633","system_id":"levelo_inurba_marseille","lat":43.304188,"lon":5.412904,"is_reserved":false,"is_disabled":false,"rental_uris":{"android":"levelo://app?vid=eb6b9546-a618-4e2e-96e6-bad962ac4633","ios":"levelo://app?vid=eb6b9546-a618-4e2e-96e6-bad962ac4633"},"vehicle_type_id":"4","last_reported":1692903886,"current_range_meters":9600,"station_id":"ce4bhop2rcd13ifvqh8g","pricing_plan_id":"free"},{"bike_id":"3ad9805f-f873-4cff-aeb2-5f74f4488e2b","system_id":"levelo_inurba_marseille","lat":43.29022,"lon":5.38645,"is_reserved":false,"is_disabled":false,"rental_uris":{"android":"levelo://app?vid=3ad9805f-f873-4cff-aeb2-5f74f4488e2b","ios":"levelo://app?vid=3ad9805f-f873-4cff-aeb2-5f74f4488e2b"},"vehicle_type_id":"4","last_reported":1692903886,"current_range_meters":30000,"station_id":"ce4bh4p2rcd13ifvqe0g","pricing_plan_id":"free"},{"bike_id":"153dd5c2-402d-4f45-bb69-d7473c1fd1e9","system_id":"levelo_inurba_marseille","lat":43.286039,"lon":5.370679,"is_reserved":false,"is_disabled":false,"rental_uris":{"android":"levelo://app?vid=153dd5c2-402d-4f45-bb69-d7473c1fd1e9","ios":"levelo://app?vid=153dd5c2-402d-4f45-bb69-d7473c1fd1e9"},"vehicle_type_id":"4","last_reported":1692903886,"current_range_meters":16800,"station_id":"ce4bht12rcd13ifvqi60","pricing_plan_id":"free"},{"bike_id":"b479af77-2d49-4f51-89b2-cae994a0ab9a","system_id":"levelo_inurba_marseille","lat":43.28602,"lon":5.37064,"is_reserved":false,"is_disabled":false,"rental_uris":{"android":"levelo://app?vid=b479af77-2d49-4f51-89b2-cae994a0ab9a","ios":"levelo://app?vid=b479af77-2d49-4f51-89b2-cae994a0ab9a"},"vehicle_type_id":"4","last_reported":1692903886,"current_range_meters":8000,"station_id":"ce4bht12rcd13ifvqi60","pricing_plan_id":"free"},{"bike_id":"9303d0ff-c4f9-4638-abf3-05c32a5c1a58","system_id":"levelo_inurba_marseille","lat":43.28715,"lon":5.37935,"is_reserved":false,"is_disabled":false,"rental_uris":{"android":"levelo://app?vid=9303d0ff-c4f9-4638-abf3-05c32a5c1a58","ios":"levelo://app?vid=9303d0ff-c4f9-4638-abf3-05c32a5c1a58"},"vehicle_type_id":"4","last_reported":1692903886,"current_range_meters":5600,"station_id":"ce4bh9p2rcd13ifvqec0","pricing_plan_id":"free"},{"bike_id":"7da9e437-1e79-4b5f-9ab0-65254ac17dd7","system_id":"levelo_inurba_marseille","lat":43.31645,"lon":5.40436,"is_reserved":false,"is_disabled":false,"rental_uris":{"android":"levelo://app?vid=7da9e437-1e79-4b5f-9ab0-65254ac17dd7","ios":"levelo://app?vid=7da9e437-1e79-4b5f-9ab0-65254ac17dd7"},"vehicle_type_id":"4","last_reported":1692903886,"current_range_meters":21600,"station_id":"ce4bh012rcd13ifvqd00","pricing_plan_id":"free"},{"bike_id":"cecd9555-8418-4ad2-83a2-8955bb46fc42","system_id":"levelo_inurba_marseille","lat":43.29437,"lon":5.39752,"is_reserved":false,"is_disabled":false,"rental_uris":{"android":"levelo://app?vid=cecd9555-8418-4ad2-83a2-8955bb46fc42","ios":"levelo://app?vid=cecd9555-8418-4ad2-83a2-8955bb46fc42"},"vehicle_type_id":"4","last_reported":1692903886,"current_range_meters":24000,"station_id":"ce4bh3h2rcd13ifvqdo0","pricing_plan_id":"free"},{"bike_id":"aa4fdcf4-9924-4379-9458-d1db62c1a979","system_id":"levelo_inurba_marseille","lat":43.29435,"lon":5.3975,"is_reserved":false,"is_disabled":false,"rental_uris":{"android":"levelo://app?vid=aa4fdcf4-9924-4379-9458-d1db62c1a979","ios":"levelo://app?vid=aa4fdcf4-9924-4379-9458-d1db62c1a979"},"vehicle_type_id":"4","last_reported":1692903886,"current_range_meters":8400,"station_id":"","pricing_plan_id":"free"},{"bike_id":"66e51e5e-9d06-496e-986f-a3ae98189e56","system_id":"levelo_inurba_marseille","lat":43.28618,"lon":5.35104,"is_reserved":false,"is_disabled":false,"rental_uris":{"android":"levelo://app?vid=66e51e5e-9d06-496e-986f-a3ae98189e56","ios":"levelo://app?vid=66e51e5e-9d06-496e-986f-a3ae98189e56"},"vehicle_type_id":"4","last_reported":1692903886,"current_range_meters":28000,"station_id":"ce4bhch2rcd13ifvqeug","pricing_plan_id":"free"},{"bike_id":"2363d3b5-6c15-401a-a59c-ee80bd4af927","system_id":"levelo_inurba_marseille","lat":43.28415,"lon":5.37522,"is_reserved":false,"is_disabled":false,"rental_uris":{"android":"levelo://app?vid=2363d3b5-6c15-401a-a59c-ee80bd4af927","ios":"levelo://app?vid=2363d3b5-6c15-401a-a59c-ee80bd4af927"},"vehicle_type_id":"4","last_reported":1692903886,"current_range_meters":800,"station_id":"ce4bh412rcd13ifvqds0","pricing_plan_id":"free"},{"bike_id":"0262e533-6648-4c31-a85d-abc458c3a3d6","system_id":"levelo_inurba_marseille","lat":43.284057,"lon":5.374996,"is_reserved":false,"is_disabled":false,"rental_uris":{"android":"levelo://app?vid=0262e533-6648-4c31-a85d-abc458c3a3d6","ios":"levelo://app?vid=0262e533-6648-4c31-a85d-abc458c3a3d6"},"vehicle_type_id":"4","last_reported":1692903886,"current_range_meters":6000,"station_id":"ce4bh412rcd13ifvqds0","pricing_plan_id":"free"},{"bike_id":"4c8860be-33d0-4025-aafe-c8b5e15a937c","system_id":"levelo_inurba_marseille","lat":43.28403,"lon":5.375,"is_reserved":false,"is_disabled":false,"rental_uris":{"android":"levelo://app?vid=4c8860be-33d0-4025-aafe-c8b5e15a937c","ios":"levelo://app?vid=4c8860be-33d0-4025-aafe-c8b5e15a937c"},"vehicle_type_id":"4","last_reported":1692903886,"current_range_meters":25200,"station_id":"ce4bh412rcd13ifvqds0","pricing_plan_id":"free"},{"bike_id":"5b904935-b337-4a16-8530-904975841239","system_id":"levelo_inurba_marseille","lat":43.319179,"lon":5.407725,"is_reserved":false,"is_disabled":false,"rental_uris":{"android":"levelo://app?vid=5b904935-b337-4a16-8530-904975841239","ios":"levelo://app?vid=5b904935-b337-4a16-8530-904975841239"},"vehicle_type_id":"4","last_reported":1692903886,"current_range_meters":11600,"station_id":"ce4bhq12rcd13ifvqhig","pricing_plan_id":"free"},{"bike_id":"a67bc8ba-477f-4950-afee-36977800f97f","system_id":"levelo_inurba_marseille","lat":43.33711,"lon":5.3918,"is_reserved":false,"is_disabled":false,"rental_uris":{"android":"levelo://app?vid=a67bc8ba-477f-4950-afee-36977800f97f","ios":"levelo://app?vid=a67bc8ba-477f-4950-afee-36977800f97f"},"vehicle_type_id":"4","last_reported":1692903886,"current_range_meters":30000,"station_id":"ce4bhr92rcd13ifvqhsg","pricing_plan_id":"free"},{"bike_id":"f59572cd-eeee-45a7-81fd-c3c75f5406c9","system_id":"levelo_inurba_marseille","lat":43.33717,"lon":5.3918,"is_reserved":false,"is_disabled":false,"rental_uris":{"android":"levelo://app?vid=f59572cd-eeee-45a7-81fd-c3c75f5406c9","ios":"levelo://app?vid=f59572cd-eeee-45a7-81fd-c3c75f5406c9"},"vehicle_type_id":"4","last_reported":1692903886,"current_range_meters":28800,"station_id":"ce4bhr92rcd13ifvqhsg","pricing_plan_id":"free"},{"bike_id":"7009255e-b3b4-4c16-89fc-1dba203d6726","system_id":"levelo_inurba_marseille","lat":43.33716,"lon":5.39182,"is_reserved":false,"is_disabled":false,"rental_uris":{"android":"levelo://app?vid=7009255e-b3b4-4c16-89fc-1dba203d6726","ios":"levelo://app?vid=7009255e-b3b4-4c16-89fc-1dba203d6726"},"vehicle_type_id":"4","last_reported":1692903886,"current_range_meters":17600,"station_id":"ce4bhr92rcd13ifvqhsg","pricing_plan_id":"free"},{"bike_id":"54aa535b-3168-437d-a935-bb332c86467c","system_id":"levelo_inurba_marseille","lat":43.33717,"lon":5.39181,"is_reserved":false,"is_disabled":false,"rental_uris":{"android":"levelo://app?vid=54aa535b-3168-437d-a935-bb332c86467c","ios":"levelo://app?vid=54aa535b-3168-437d-a935-bb332c86467c"},"vehicle_type_id":"4","last_reported":1692903886,"current_range_meters":24800,"station_id":"ce4bhr92rcd13ifvqhsg","pricing_plan_id":"free"},{"bike_id":"486e5578-f4b6-46c8-b288-dd2598c97761","system_id":"levelo_inurba_marseille","lat":43.33718,"lon":5.39183,"is_reserved":false,"is_disabled":false,"rental_uris":{"android":"levelo://app?vid=486e5578-f4b6-46c8-b288-dd2598c97761","ios":"levelo://app?vid=486e5578-f4b6-46c8-b288-dd2598c97761"},"vehicle_type_id":"4","last_reported":1692903886,"current_range_meters":31200,"station_id":"ce4bhr92rcd13ifvqhsg","pricing_plan_id":"free"},{"bike_id":"3584ed82-8c83-4732-884b-ec35eb5758d6","system_id":"levelo_inurba_marseille","lat":43.33717,"lon":5.39185,"is_reserved":false,"is_disabled":false,"rental_uris":{"android":"levelo://app?vid=3584ed82-8c83-4732-884b-ec35eb5758d6","ios":"levelo://app?vid=3584ed82-8c83-4732-884b-ec35eb5758d6"},"vehicle_type_id":"4","last_reported":1692903886,"current_range_meters":14000,"station_id":"ce4bhr92rcd13ifvqhsg","pricing_plan_id":"free"},{"bike_id":"fa78aabd-8504-4fff-97d5-67819f3c7e97","system_id":"levelo_inurba_marseille","lat":43.33721,"lon":5.3918,"is_reserved":false,"is_disabled":false,"rental_uris":{"android":"levelo://app?vid=fa78aabd-8504-4fff-97d5-67819f3c7e97","ios":"levelo://app?vid=fa78aabd-8504-4fff-97d5-67819f3c7e97"},"vehicle_type_id":"4","last_reported":1692903886,"current_range_meters":31200,"station_id":"ce4bhr92rcd13ifvqhsg","pricing_plan_id":"free"},{"bike_id":"22f5ebde-00e6-4c30-b807-8619e53ee930","system_id":"levelo_inurba_marseille","lat":43.33719,"lon":5.39187,"is_reserved":false,"is_disabled":false,"rental_uris":{"android":"levelo://app?vid=22f5ebde-00e6-4c30-b807-8619e53ee930","ios":"levelo://app?vid=22f5ebde-00e6-4c30-b807-8619e53ee930"},"vehicle_type_id":"4","last_reported":1692903886,"current_range_meters":30800,"station_id":"ce4bhr92rcd13ifvqhsg","pricing_plan_id":"free"},{"bike_id":"e54ac8bf-03e6-4445-b501-5f2a8496318b","system_id":"levelo_inurba_marseille","lat":43.33722,"lon":5.39183,"is_reserved":false,"is_disabled":false,"rental_uris":{"android":"levelo://app?vid=e54ac8bf-03e6-4445-b501-5f2a8496318b","ios":"levelo://app?vid=e54ac8bf-03e6-4445-b501-5f2a8496318b"},"vehicle_type_id":"4","last_reported":1692903886,"current_range_meters":12400,"station_id":"ce4bhr92rcd13ifvqhsg","pricing_plan_id":"free"},{"bike_id":"fcd157e8-6bfb-4a6b-89b1-fbc530062c9a","system_id":"levelo_inurba_marseille","lat":43.33724,"lon":5.39186,"is_reserved":false,"is_disabled":false,"rental_uris":{"android":"levelo://app?vid=fcd157e8-6bfb-4a6b-89b1-fbc530062c9a","ios":"levelo://app?vid=fcd157e8-6bfb-4a6b-89b1-fbc530062c9a"},"vehicle_type_id":"4","last_reported":1692903886,"current_range_meters":31200,"station_id":"ce4bhr92rcd13ifvqhsg","pricing_plan_id":"free"},{"bike_id":"c75134d3-0f32-460d-bec4-0f215ab4a802","system_id":"levelo_inurba_marseille","lat":43.337221,"lon":5.391904,"is_reserved":false,"is_disabled":false,"rental_uris":{"android":"levelo://app?vid=c75134d3-0f32-460d-bec4-0f215ab4a802","ios":"levelo://app?vid=c75134d3-0f32-460d-bec4-0f215ab4a802"},"vehicle_type_id":"4","last_reported":1692903886,"current_range_meters":23600,"station_id":"","pricing_plan_id":"free"},{"bike_id":"46e390b7-2599-401b-905f-b73a36d43789","system_id":"levelo_inurba_marseille","lat":43.28846,"lon":5.39276,"is_reserved":false,"is_disabled":false,"rental_uris":{"android":"levelo://app?vid=46e390b7-2599-401b-905f-b73a36d43789","ios":"levelo://app?vid=46e390b7-2599-401b-905f-b73a36d43789"},"vehicle_type_id":"4","last_reported":1692903886,"current_range_meters":22000,"station_id":"ce4bh2p2rcd13ifvqdi0","pricing_plan_id":"free"},{"bike_id":"81207e02-e329-4cea-9b6c-33ba9c0267d2","system_id":"levelo_inurba_marseille","lat":43.284787,"lon":5.384116,"is_reserved":false,"is_disabled":false,"rental_uris":{"android":"levelo://app?vid=81207e02-e329-4cea-9b6c-33ba9c0267d2","ios":"levelo://app?vid=81207e02-e329-4cea-9b6c-33ba9c0267d2"},"vehicle_type_id":"4","last_reported":1692903886,"current_range_meters":31600,"station_id":"ce4bh512rcd13ifvqe3g","pricing_plan_id":"free"},{"bike_id":"4304bbd9-08b8-4a1f-aa61-ec8461b5f43d","system_id":"levelo_inurba_marseille","lat":43.28855,"lon":5.39303,"is_reserved":false,"is_disabled":false,"rental_uris":{"android":"levelo://app?vid=4304bbd9-08b8-4a1f-aa61-ec8461b5f43d","ios":"levelo://app?vid=4304bbd9-08b8-4a1f-aa61-ec8461b5f43d"},"vehicle_type_id":"4","last_reported":1692903886,"current_range_meters":4400,"station_id":"ce4bh2p2rcd13ifvqdi0","pricing_plan_id":"free"},{"bike_id":"414290bd-353b-41b2-bd9a-1d3c2c5739df","system_id":"levelo_inurba_marseille","lat":43.284793,"lon":5.384119,"is_reserved":false,"is_disabled":false,"rental_uris":{"android":"levelo://app?vid=414290bd-353b-41b2-bd9a-1d3c2c5739df","ios":"levelo://app?vid=414290bd-353b-41b2-bd9a-1d3c2c5739df"},"vehicle_type_id":"4","last_reported":1692903886,"current_range_meters":26400,"station_id":"ce4bh512rcd13ifvqe3g","pricing_plan_id":"free"},{"bike_id":"8f1bb7ca-fcdd-4904-84f5-ac3f2d2671e6","system_id":"levelo_inurba_marseille","lat":43.32549,"lon":5.40548,"is_reserved":false,"is_disabled":false,"rental_uris":{"android":"levelo://app?vid=8f1bb7ca-fcdd-4904-84f5-ac3f2d2671e6","ios":"levelo://app?vid=8f1bb7ca-fcdd-4904-84f5-ac3f2d2671e6"},"vehicle_type_id":"4","last_reported":1692903886,"current_range_meters":13600,"station_id":"","pricing_plan_id":"free"},{"bike_id":"dc61fe66-a5b0-4c9b-acd7-1c620b8eafc0","system_id":"levelo_inurba_marseille","lat":43.288497,"lon":5.393089,"is_reserved":false,"is_disabled":false,"rental_uris":{"android":"levelo://app?vid=dc61fe66-a5b0-4c9b-acd7-1c620b8eafc0","ios":"levelo://app?vid=dc61fe66-a5b0-4c9b-acd7-1c620b8eafc0"},"vehicle_type_id":"4","last_reported":1692903886,"current_range_meters":16400,"station_id":"ce4bh2p2rcd13ifvqdi0","pricing_plan_id":"free"},{"bike_id":"f06e7d50-bf00-4111-8184-49a3a40754c3","system_id":"levelo_inurba_marseille","lat":43.2885,"lon":5.39311,"is_reserved":false,"is_disabled":false,"rental_uris":{"android":"levelo://app?vid=f06e7d50-bf00-4111-8184-49a3a40754c3","ios":"levelo://app?vid=f06e7d50-bf00-4111-8184-49a3a40754c3"},"vehicle_type_id":"4","last_reported":1692903886,"current_range_meters":26400,"station_id":"ce4bh2p2rcd13ifvqdi0","pricing_plan_id":"free"},{"bike_id":"a1876d02-9b35-467a-a1ef-16340a88af67","system_id":"levelo_inurba_marseille","lat":43.288497,"lon":5.393089,"is_reserved":false,"is_disabled":false,"rental_uris":{"android":"levelo://app?vid=a1876d02-9b35-467a-a1ef-16340a88af67","ios":"levelo://app?vid=a1876d02-9b35-467a-a1ef-16340a88af67"},"vehicle_type_id":"4","last_reported":1692903886,"current_range_meters":25200,"station_id":"ce4bh2p2rcd13ifvqdi0","pricing_plan_id":"free"},{"bike_id":"95be610f-1fad-4edb-8ac1-7aa271f09429","system_id":"levelo_inurba_marseille","lat":43.288497,"lon":5.393089,"is_reserved":false,"is_disabled":false,"rental_uris":{"android":"levelo://app?vid=95be610f-1fad-4edb-8ac1-7aa271f09429","ios":"levelo://app?vid=95be610f-1fad-4edb-8ac1-7aa271f09429"},"vehicle_type_id":"4","last_reported":1692903886,"current_range_meters":10800,"station_id":"ce4bh2p2rcd13ifvqdi0","pricing_plan_id":"free"},{"bike_id":"ea8bd491-cb71-4c8b-862c-f6ca3d1ee5cb","system_id":"levelo_inurba_marseille","lat":43.288497,"lon":5.393089,"is_reserved":false,"is_disabled":false,"rental_uris":{"android":"levelo://app?vid=ea8bd491-cb71-4c8b-862c-f6ca3d1ee5cb","ios":"levelo://app?vid=ea8bd491-cb71-4c8b-862c-f6ca3d1ee5cb"},"vehicle_type_id":"4","last_reported":1692903886,"current_range_meters":22800,"station_id":"ce4bh2p2rcd13ifvqdi0","pricing_plan_id":"free"},{"bike_id":"7ca7da80-5684-4dd9-8c35-19720f4d6833","system_id":"levelo_inurba_marseille","lat":43.288497,"lon":5.393089,"is_reserved":false,"is_disabled":false,"rental_uris":{"android":"levelo://app?vid=7ca7da80-5684-4dd9-8c35-19720f4d6833","ios":"levelo://app?vid=7ca7da80-5684-4dd9-8c35-19720f4d6833"},"vehicle_type_id":"4","last_reported":1692903886,"current_range_meters":21200,"station_id":"ce4bh2p2rcd13ifvqdi0","pricing_plan_id":"free"},{"bike_id":"988df165-85a0-49d9-b885-6ae4a04ed801","system_id":"levelo_inurba_marseille","lat":43.288497,"lon":5.393089,"is_reserved":false,"is_disabled":false,"rental_uris":{"android":"levelo://app?vid=988df165-85a0-49d9-b885-6ae4a04ed801","ios":"levelo://app?vid=988df165-85a0-49d9-b885-6ae4a04ed801"},"vehicle_type_id":"4","last_reported":1692903886,"current_range_meters":22800,"station_id":"ce4bh2p2rcd13ifvqdi0","pricing_plan_id":"free"},{"bike_id":"f50aca5f-cf5b-4020-925f-826a2e34874f","system_id":"levelo_inurba_marseille","lat":43.289363,"lon":5.396322,"is_reserved":false,"is_disabled":false,"rental_uris":{"android":"levelo://app?vid=f50aca5f-cf5b-4020-925f-826a2e34874f","ios":"levelo://app?vid=f50aca5f-cf5b-4020-925f-826a2e34874f"},"vehicle_type_id":"4","last_reported":1692903886,"current_range_meters":31600,"station_id":"ce4bh3h2rcd13ifvqdn0","pricing_plan_id":"free"},{"bike_id":"79ae07f7-3d9b-456b-927e-8e880eafedba","system_id":"levelo_inurba_marseille","lat":43.32572,"lon":5.40673,"is_reserved":false,"is_disabled":false,"rental_uris":{"android":"levelo://app?vid=79ae07f7-3d9b-456b-927e-8e880eafedba","ios":"levelo://app?vid=79ae07f7-3d9b-456b-927e-8e880eafedba"},"vehicle_type_id":"4","last_reported":1692903886,"current_range_meters":0,"station_id":"","pricing_plan_id":"free"},{"bike_id":"e400f1d1-3ab5-4ed7-b2b3-f3a5ce540863","system_id":"levelo_inurba_marseille","lat":43.282754,"lon":5.350519,"is_reserved":false,"is_disabled":false,"rental_uris":{"android":"levelo://app?vid=e400f1d1-3ab5-4ed7-b2b3-f3a5ce540863","ios":"levelo://app?vid=e400f1d1-3ab5-4ed7-b2b3-f3a5ce540863"},"vehicle_type_id":"4","last_reported":1692903886,"current_range_meters":0,"station_id":"ce4bhbp2rcd13ifvqerg","pricing_plan_id":"free"},{"bike_id":"aa86cacf-9e6f-4a78-bee4-02cb3c79732c","system_id":"levelo_inurba_marseille","lat":43.28268,"lon":5.35092,"is_reserved":false,"is_disabled":false,"rental_uris":{"android":"levelo://app?vid=aa86cacf-9e6f-4a78-bee4-02cb3c79732c","ios":"levelo://app?vid=aa86cacf-9e6f-4a78-bee4-02cb3c79732c"},"vehicle_type_id":"4","last_reported":1692903886,"current_range_meters":8000,"station_id":"ce4bhbp2rcd13ifvqerg","pricing_plan_id":"free"},{"bike_id":"9f46cfde-4f76-4076-bade-5765c2d3d473","system_id":"levelo_inurba_marseille","lat":43.28039,"lon":5.369297,"is_reserved":false,"is_disabled":false,"rental_uris":{"android":"levelo://app?vid=9f46cfde-4f76-4076-bade-5765c2d3d473","ios":"levelo://app?vid=9f46cfde-4f76-4076-bade-5765c2d3d473"},"vehicle_type_id":"4","last_reported":1692903886,"current_range_meters":31200,"station_id":"ce4bha12rcd13ifvqef0","pricing_plan_id":"free"},{"bike_id":"a64d28ca-c622-4bd1-ab36-a39ed9627084","system_id":"levelo_inurba_marseille","lat":43.2811,"lon":5.35188,"is_reserved":false,"is_disabled":false,"rental_uris":{"android":"levelo://app?vid=a64d28ca-c622-4bd1-ab36-a39ed9627084","ios":"levelo://app?vid=a64d28ca-c622-4bd1-ab36-a39ed9627084"},"vehicle_type_id":"4","last_reported":1692903886,"current_range_meters":22400,"station_id":"","pricing_plan_id":"free"},{"bike_id":"dd04c100-29bc-4bbe-a1e3-c43a1c39cf3d","system_id":"levelo_inurba_marseille","lat":43.28573,"lon":5.39491,"is_reserved":false,"is_disabled":false,"rental_uris":{"android":"levelo://app?vid=dd04c100-29bc-4bbe-a1e3-c43a1c39cf3d","ios":"levelo://app?vid=dd04c100-29bc-4bbe-a1e3-c43a1c39cf3d"},"vehicle_type_id":"4","last_reported":1692903886,"current_range_meters":9600,"station_id":"ce4bh292rcd13ifvqdg0","pricing_plan_id":"free"},{"bike_id":"26975f77-2750-457f-9a0f-fa55d42d8ff7","system_id":"levelo_inurba_marseille","lat":43.28571,"lon":5.39496,"is_reserved":false,"is_disabled":false,"rental_uris":{"android":"levelo://app?vid=26975f77-2750-457f-9a0f-fa55d42d8ff7","ios":"levelo://app?vid=26975f77-2750-457f-9a0f-fa55d42d8ff7"},"vehicle_type_id":"4","last_reported":1692903886,"current_range_meters":21200,"station_id":"ce4bh292rcd13ifvqdg0","pricing_plan_id":"free"},{"bike_id":"09e95610-6a40-4ad0-89f8-d70b1961ec69","system_id":"levelo_inurba_marseille","lat":43.326605,"lon":5.409903,"is_reserved":false,"is_disabled":false,"rental_uris":{"android":"levelo://app?vid=09e95610-6a40-4ad0-89f8-d70b1961ec69","ios":"levelo://app?vid=09e95610-6a40-4ad0-89f8-d70b1961ec69"},"vehicle_type_id":"4","last_reported":1692903886,"current_range_meters":28000,"station_id":"ce4bhpp2rcd13ifvqhgg","pricing_plan_id":"free"},{"bike_id":"9497f445-f7e9-499b-b661-7cca69396823","system_id":"levelo_inurba_marseille","lat":43.32655,"lon":5.4099,"is_reserved":false,"is_disabled":false,"rental_uris":{"android":"levelo://app?vid=9497f445-f7e9-499b-b661-7cca69396823","ios":"levelo://app?vid=9497f445-f7e9-499b-b661-7cca69396823"},"vehicle_type_id":"4","last_reported":1692903886,"current_range_meters":30000,"station_id":"ce4bhpp2rcd13ifvqhgg","pricing_plan_id":"free"},{"bike_id":"ce5437a3-ffc1-4454-848a-15a251877d37","system_id":"levelo_inurba_marseille","lat":43.32658,"lon":5.40992,"is_reserved":false,"is_disabled":false,"rental_uris":{"android":"levelo://app?vid=ce5437a3-ffc1-4454-848a-15a251877d37","ios":"levelo://app?vid=ce5437a3-ffc1-4454-848a-15a251877d37"},"vehicle_type_id":"4","last_reported":1692903886,"current_range_meters":26800,"station_id":"ce4bhpp2rcd13ifvqhgg","pricing_plan_id":"free"},{"bike_id":"c8df95a4-8dd4-4266-9b3a-2b6bf800c8bf","system_id":"levelo_inurba_marseille","lat":43.326605,"lon":5.409903,"is_reserved":false,"is_disabled":false,"rental_uris":{"android":"levelo://app?vid=c8df95a4-8dd4-4266-9b3a-2b6bf800c8bf","ios":"levelo://app?vid=c8df95a4-8dd4-4266-9b3a-2b6bf800c8bf"},"vehicle_type_id":"4","last_reported":1692903886,"current_range_meters":28000,"station_id":"ce4bhpp2rcd13ifvqhgg","pricing_plan_id":"free"},{"bike_id":"0182811c-7990-4e85-93c1-dcb0f1497a54","system_id":"levelo_inurba_marseille","lat":43.326605,"lon":5.409903,"is_reserved":false,"is_disabled":false,"rental_uris":{"android":"levelo://app?vid=0182811c-7990-4e85-93c1-dcb0f1497a54","ios":"levelo://app?vid=0182811c-7990-4e85-93c1-dcb0f1497a54"},"vehicle_type_id":"4","last_reported":1692903886,"current_range_meters":15600,"station_id":"ce4bhpp2rcd13ifvqhgg","pricing_plan_id":"free"},{"bike_id":"f67f951f-161d-4489-960d-93cbe58072c3","system_id":"levelo_inurba_marseille","lat":43.32655,"lon":5.40996,"is_reserved":false,"is_disabled":false,"rental_uris":{"android":"levelo://app?vid=f67f951f-161d-4489-960d-93cbe58072c3","ios":"levelo://app?vid=f67f951f-161d-4489-960d-93cbe58072c3"},"vehicle_type_id":"4","last_reported":1692903886,"current_range_meters":24800,"station_id":"ce4bhpp2rcd13ifvqhgg","pricing_plan_id":"free"},{"bike_id":"22a4a2a5-52ae-4e25-aefd-0e02a4daa4cf","system_id":"levelo_inurba_marseille","lat":43.32659,"lon":5.40995,"is_reserved":false,"is_disabled":false,"rental_uris":{"android":"levelo://app?vid=22a4a2a5-52ae-4e25-aefd-0e02a4daa4cf","ios":"levelo://app?vid=22a4a2a5-52ae-4e25-aefd-0e02a4daa4cf"},"vehicle_type_id":"4","last_reported":1692903886,"current_range_meters":8800,"station_id":"ce4bhpp2rcd13ifvqhgg","pricing_plan_id":"free"},{"bike_id":"27e36a88-9ada-4c4c-9699-bda7e6496a25","system_id":"levelo_inurba_marseille","lat":43.279087,"lon":5.380114,"is_reserved":false,"is_disabled":false,"rental_uris":{"android":"levelo://app?vid=27e36a88-9ada-4c4c-9699-bda7e6496a25","ios":"levelo://app?vid=27e36a88-9ada-4c4c-9699-bda7e6496a25"},"vehicle_type_id":"4","last_reported":1692903886,"current_range_meters":7200,"station_id":"ce4bhf92rcd13ifvqf50","pricing_plan_id":"free"},{"bike_id":"242415ca-5caf-43c6-ade8-389815da4bfa","system_id":"levelo_inurba_marseille","lat":43.28705,"lon":5.39983,"is_reserved":false,"is_disabled":false,"rental_uris":{"android":"levelo://app?vid=242415ca-5caf-43c6-ade8-389815da4bfa","ios":"levelo://app?vid=242415ca-5caf-43c6-ade8-389815da4bfa"},"vehicle_type_id":"4","last_reported":1692903886,"current_range_meters":8000,"station_id":"","pricing_plan_id":"free"},{"bike_id":"8682176b-31a6-4812-b3c4-81e476a2fa9b","system_id":"levelo_inurba_marseille","lat":43.287154,"lon":5.399979,"is_reserved":false,"is_disabled":false,"rental_uris":{"android":"levelo://app?vid=8682176b-31a6-4812-b3c4-81e476a2fa9b","ios":"levelo://app?vid=8682176b-31a6-4812-b3c4-81e476a2fa9b"},"vehicle_type_id":"4","last_reported":1692903886,"current_range_meters":0,"station_id":"ce4bho92rcd13ifvqh3g","pricing_plan_id":"free"},{"bike_id":"8b290439-9a8b-44e3-be69-2107a388d32a","system_id":"levelo_inurba_marseille","lat":43.3298,"lon":5.40949,"is_reserved":false,"is_disabled":false,"rental_uris":{"android":"levelo://app?vid=8b290439-9a8b-44e3-be69-2107a388d32a","ios":"levelo://app?vid=8b290439-9a8b-44e3-be69-2107a388d32a"},"vehicle_type_id":"4","last_reported":1692903886,"current_range_meters":30400,"station_id":"ce4bhq12rcd13ifvqhhg","pricing_plan_id":"free"},{"bike_id":"1e283795-9031-494f-a2e0-01877e7df5ac","system_id":"levelo_inurba_marseille","lat":43.320045,"lon":5.415046,"is_reserved":false,"is_disabled":false,"rental_uris":{"android":"levelo://app?vid=1e283795-9031-494f-a2e0-01877e7df5ac","ios":"levelo://app?vid=1e283795-9031-494f-a2e0-01877e7df5ac"},"vehicle_type_id":"4","last_reported":1692903886,"current_range_meters":29600,"station_id":"ce4bhq92rcd13ifvqhkg","pricing_plan_id":"free"},{"bike_id":"c7ecb26a-bb14-4c69-ad1b-96185ab121e0","system_id":"levelo_inurba_marseille","lat":43.320045,"lon":5.415048,"is_reserved":false,"is_disabled":false,"rental_uris":{"android":"levelo://app?vid=c7ecb26a-bb14-4c69-ad1b-96185ab121e0","ios":"levelo://app?vid=c7ecb26a-bb14-4c69-ad1b-96185ab121e0"},"vehicle_type_id":"4","last_reported":1692903886,"current_range_meters":28000,"station_id":"ce4bhq92rcd13ifvqhkg","pricing_plan_id":"free"},{"bike_id":"c327718a-8fe6-4791-a349-aba0f8f94e82","system_id":"levelo_inurba_marseille","lat":43.27973,"lon":5.38726,"is_reserved":false,"is_disabled":false,"rental_uris":{"android":"levelo://app?vid=c327718a-8fe6-4791-a349-aba0f8f94e82","ios":"levelo://app?vid=c327718a-8fe6-4791-a349-aba0f8f94e82"},"vehicle_type_id":"4","last_reported":1692903886,"current_range_meters":24400,"station_id":"ce4bhg12rcd13ifvqf80","pricing_plan_id":"free"},{"bike_id":"8dedf5d6-0062-4004-b871-a5a4fc242d85","system_id":"levelo_inurba_marseille","lat":43.325233,"lon":5.414318,"is_reserved":false,"is_disabled":false,"rental_uris":{"android":"levelo://app?vid=8dedf5d6-0062-4004-b871-a5a4fc242d85","ios":"levelo://app?vid=8dedf5d6-0062-4004-b871-a5a4fc242d85"},"vehicle_type_id":"4","last_reported":1692903886,"current_range_meters":30800,"station_id":"ce4bhq12rcd13ifvqhhg","pricing_plan_id":"free"},{"bike_id":"924ee3f8-2f9f-44f8-9716-5fa01dde3a70","system_id":"levelo_inurba_marseille","lat":43.325233,"lon":5.414318,"is_reserved":false,"is_disabled":false,"rental_uris":{"android":"levelo://app?vid=924ee3f8-2f9f-44f8-9716-5fa01dde3a70","ios":"levelo://app?vid=924ee3f8-2f9f-44f8-9716-5fa01dde3a70"},"vehicle_type_id":"4","last_reported":1692903886,"current_range_meters":31600,"station_id":"ce4bhq12rcd13ifvqhhg","pricing_plan_id":"free"},{"bike_id":"74d7a4cd-6be2-4bc3-984b-d3641d297153","system_id":"levelo_inurba_marseille","lat":43.325233,"lon":5.414318,"is_reserved":false,"is_disabled":false,"rental_uris":{"android":"levelo://app?vid=74d7a4cd-6be2-4bc3-984b-d3641d297153","ios":"levelo://app?vid=74d7a4cd-6be2-4bc3-984b-d3641d297153"},"vehicle_type_id":"4","last_reported":1692903886,"current_range_meters":30400,"station_id":"ce4bhq12rcd13ifvqhhg","pricing_plan_id":"free"},{"bike_id":"d32dde61-9671-4136-a6db-16a502f51a42","system_id":"levelo_inurba_marseille","lat":43.32542,"lon":5.41421,"is_reserved":false,"is_disabled":false,"rental_uris":{"android":"levelo://app?vid=d32dde61-9671-4136-a6db-16a502f51a42","ios":"levelo://app?vid=d32dde61-9671-4136-a6db-16a502f51a42"},"vehicle_type_id":"4","last_reported":1692903886,"current_range_meters":31200,"station_id":"ce4bhq12rcd13ifvqhhg","pricing_plan_id":"free"},{"bike_id":"ca78ac60-268b-4606-bc72-954fad1582bc","system_id":"levelo_inurba_marseille","lat":43.325233,"lon":5.414318,"is_reserved":false,"is_disabled":false,"rental_uris":{"android":"levelo://app?vid=ca78ac60-268b-4606-bc72-954fad1582bc","ios":"levelo://app?vid=ca78ac60-268b-4606-bc72-954fad1582bc"},"vehicle_type_id":"4","last_reported":1692903886,"current_range_meters":28800,"station_id":"ce4bhq12rcd13ifvqhhg","pricing_plan_id":"free"},{"bike_id":"3563d8b3-8312-4911-80be-32759d84381f","system_id":"levelo_inurba_marseille","lat":43.32537,"lon":5.41426,"is_reserved":false,"is_disabled":false,"rental_uris":{"android":"levelo://app?vid=3563d8b3-8312-4911-80be-32759d84381f","ios":"levelo://app?vid=3563d8b3-8312-4911-80be-32759d84381f"},"vehicle_type_id":"4","last_reported":1692903886,"current_range_meters":31200,"station_id":"ce4bhq12rcd13ifvqhhg","pricing_plan_id":"free"},{"bike_id":"1f6a60d6-8f82-4e1d-9c26-aaac50ef3256","system_id":"levelo_inurba_marseille","lat":43.32539,"lon":5.41426,"is_reserved":false,"is_disabled":false,"rental_uris":{"android":"levelo://app?vid=1f6a60d6-8f82-4e1d-9c26-aaac50ef3256","ios":"levelo://app?vid=1f6a60d6-8f82-4e1d-9c26-aaac50ef3256"},"vehicle_type_id":"4","last_reported":1692903886,"current_range_meters":30400,"station_id":"ce4bhq12rcd13ifvqhhg","pricing_plan_id":"free"},{"bike_id":"fcda139a-6bc0-4103-9b39-726e44e6f12a","system_id":"levelo_inurba_marseille","lat":43.32537,"lon":5.41429,"is_reserved":false,"is_disabled":false,"rental_uris":{"android":"levelo://app?vid=fcda139a-6bc0-4103-9b39-726e44e6f12a","ios":"levelo://app?vid=fcda139a-6bc0-4103-9b39-726e44e6f12a"},"vehicle_type_id":"4","last_reported":1692903886,"current_range_meters":22400,"station_id":"ce4bhq12rcd13ifvqhhg","pricing_plan_id":"free"},{"bike_id":"d1626fc8-4867-4903-8dd7-42552d175d48","system_id":"levelo_inurba_marseille","lat":43.32539,"lon":5.41429,"is_reserved":false,"is_disabled":false,"rental_uris":{"android":"levelo://app?vid=d1626fc8-4867-4903-8dd7-42552d175d48","ios":"levelo://app?vid=d1626fc8-4867-4903-8dd7-42552d175d48"},"vehicle_type_id":"4","last_reported":1692903886,"current_range_meters":29200,"station_id":"ce4bhq12rcd13ifvqhhg","pricing_plan_id":"free"},{"bike_id":"8f1b9876-2f23-4844-9ae1-81b89a2a5778","system_id":"levelo_inurba_marseille","lat":43.325233,"lon":5.414318,"is_reserved":false,"is_disabled":false,"rental_uris":{"android":"levelo://app?vid=8f1b9876-2f23-4844-9ae1-81b89a2a5778","ios":"levelo://app?vid=8f1b9876-2f23-4844-9ae1-81b89a2a5778"},"vehicle_type_id":"4","last_reported":1692903886,"current_range_meters":29200,"station_id":"ce4bhq12rcd13ifvqhhg","pricing_plan_id":"free"},{"bike_id":"22abc744-22cf-4dbb-a8e3-e69bf34e615d","system_id":"levelo_inurba_marseille","lat":43.32541,"lon":5.4143,"is_reserved":false,"is_disabled":false,"rental_uris":{"android":"levelo://app?vid=22abc744-22cf-4dbb-a8e3-e69bf34e615d","ios":"levelo://app?vid=22abc744-22cf-4dbb-a8e3-e69bf34e615d"},"vehicle_type_id":"4","last_reported":1692903886,"current_range_meters":30000,"station_id":"ce4bhq12rcd13ifvqhhg","pricing_plan_id":"free"},{"bike_id":"2f4b33dc-bb57-4ab8-9dd2-121a9c5922e3","system_id":"levelo_inurba_marseille","lat":43.325233,"lon":5.414318,"is_reserved":false,"is_disabled":false,"rental_uris":{"android":"levelo://app?vid=2f4b33dc-bb57-4ab8-9dd2-121a9c5922e3","ios":"levelo://app?vid=2f4b33dc-bb57-4ab8-9dd2-121a9c5922e3"},"vehicle_type_id":"4","last_reported":1692903886,"current_range_meters":24800,"station_id":"ce4bhq12rcd13ifvqhhg","pricing_plan_id":"free"},{"bike_id":"436fbc61-018e-4940-8a93-06dece7c064e","system_id":"levelo_inurba_marseille","lat":43.325233,"lon":5.414318,"is_reserved":false,"is_disabled":false,"rental_uris":{"android":"levelo://app?vid=436fbc61-018e-4940-8a93-06dece7c064e","ios":"levelo://app?vid=436fbc61-018e-4940-8a93-06dece7c064e"},"vehicle_type_id":"4","last_reported":1692903886,"current_range_meters":31200,"station_id":"ce4bhq12rcd13ifvqhhg","pricing_plan_id":"free"},{"bike_id":"83d62ff4-53ff-4a31-876e-f00a8a2bf84b","system_id":"levelo_inurba_marseille","lat":43.32543,"lon":5.41442,"is_reserved":false,"is_disabled":false,"rental_uris":{"android":"levelo://app?vid=83d62ff4-53ff-4a31-876e-f00a8a2bf84b","ios":"levelo://app?vid=83d62ff4-53ff-4a31-876e-f00a8a2bf84b"},"vehicle_type_id":"4","last_reported":1692903886,"current_range_meters":27600,"station_id":"ce4bhq12rcd13ifvqhhg","pricing_plan_id":"free"},{"bike_id":"e209d7c3-b9ee-4fb2-b8ca-62ec9988cdfb","system_id":"levelo_inurba_marseille","lat":43.34791,"lon":5.34852,"is_reserved":false,"is_disabled":false,"rental_uris":{"android":"levelo://app?vid=e209d7c3-b9ee-4fb2-b8ca-62ec9988cdfb","ios":"levelo://app?vid=e209d7c3-b9ee-4fb2-b8ca-62ec9988cdfb"},"vehicle_type_id":"4","last_reported":1692903886,"current_range_meters":0,"station_id":"","pricing_plan_id":"free"},{"bike_id":"72e45b05-e421-43d1-a846-8d414a8f0abd","system_id":"levelo_inurba_marseille","lat":43.278128,"lon":5.407195,"is_reserved":false,"is_disabled":false,"rental_uris":{"android":"levelo://app?vid=72e45b05-e421-43d1-a846-8d414a8f0abd","ios":"levelo://app?vid=72e45b05-e421-43d1-a846-8d414a8f0abd"},"vehicle_type_id":"4","last_reported":1692903886,"current_range_meters":10800,"station_id":"ce4bhnh2rcd13ifvqgtg","pricing_plan_id":"free"},{"bike_id":"9c431f3a-4902-491a-a9cf-c63f4d36529b","system_id":"levelo_inurba_marseille","lat":43.33612,"lon":5.410321,"is_reserved":false,"is_disabled":false,"rental_uris":{"android":"levelo://app?vid=9c431f3a-4902-491a-a9cf-c63f4d36529b","ios":"levelo://app?vid=9c431f3a-4902-491a-a9cf-c63f4d36529b"},"vehicle_type_id":"4","last_reported":1692903886,"current_range_meters":15600,"station_id":"ce4bhqh2rcd13ifvqhmg","pricing_plan_id":"free"},{"bike_id":"9278726e-fbb6-4d1c-afd8-9bbbcc5e3810","system_id":"levelo_inurba_marseille","lat":43.3361,"lon":5.41031,"is_reserved":false,"is_disabled":false,"rental_uris":{"android":"levelo://app?vid=9278726e-fbb6-4d1c-afd8-9bbbcc5e3810","ios":"levelo://app?vid=9278726e-fbb6-4d1c-afd8-9bbbcc5e3810"},"vehicle_type_id":"4","last_reported":1692903886,"current_range_meters":13200,"station_id":"ce4bhqh2rcd13ifvqhmg","pricing_plan_id":"free"},{"bike_id":"2c002134-e4d2-41d1-b436-28e8e2ea24ca","system_id":"levelo_inurba_marseille","lat":43.276771,"lon":5.388799,"is_reserved":false,"is_disabled":false,"rental_uris":{"android":"levelo://app?vid=2c002134-e4d2-41d1-b436-28e8e2ea24ca","ios":"levelo://app?vid=2c002134-e4d2-41d1-b436-28e8e2ea24ca"},"vehicle_type_id":"4","last_reported":1692903886,"current_range_meters":29200,"station_id":"ce4bhi12rcd13ifvqfo0","pricing_plan_id":"free"},{"bike_id":"c6d98e69-13e5-4bde-a0e1-e6e123ee3f5d","system_id":"levelo_inurba_marseille","lat":43.276771,"lon":5.388799,"is_reserved":false,"is_disabled":false,"rental_uris":{"android":"levelo://app?vid=c6d98e69-13e5-4bde-a0e1-e6e123ee3f5d","ios":"levelo://app?vid=c6d98e69-13e5-4bde-a0e1-e6e123ee3f5d"},"vehicle_type_id":"4","last_reported":1692903886,"current_range_meters":17600,"station_id":"ce4bhi12rcd13ifvqfo0","pricing_plan_id":"free"},{"bike_id":"3657c600-2c42-42f1-9e57-1b994a9cf0fe","system_id":"levelo_inurba_marseille","lat":43.317121,"lon":5.423936,"is_reserved":false,"is_disabled":false,"rental_uris":{"android":"levelo://app?vid=3657c600-2c42-42f1-9e57-1b994a9cf0fe","ios":"levelo://app?vid=3657c600-2c42-42f1-9e57-1b994a9cf0fe"},"vehicle_type_id":"4","last_reported":1692903886,"current_range_meters":13600,"station_id":"ce4bhp92rcd13ifvqhbg","pricing_plan_id":"free"},{"bike_id":"e70b76ea-5268-4e50-abe3-2f0407cbacc6","system_id":"levelo_inurba_marseille","lat":43.34139,"lon":5.409,"is_reserved":false,"is_disabled":false,"rental_uris":{"android":"levelo://app?vid=e70b76ea-5268-4e50-abe3-2f0407cbacc6","ios":"levelo://app?vid=e70b76ea-5268-4e50-abe3-2f0407cbacc6"},"vehicle_type_id":"4","last_reported":1692903886,"current_range_meters":8800,"station_id":"ce4bhqh2rcd13ifvqhlg","pricing_plan_id":"free"},{"bike_id":"517e42e8-7bf0-407a-9148-08d9c9486339","system_id":"levelo_inurba_marseille","lat":43.34142,"lon":5.40898,"is_reserved":false,"is_disabled":false,"rental_uris":{"android":"levelo://app?vid=517e42e8-7bf0-407a-9148-08d9c9486339","ios":"levelo://app?vid=517e42e8-7bf0-407a-9148-08d9c9486339"},"vehicle_type_id":"4","last_reported":1692903886,"current_range_meters":29600,"station_id":"ce4bhqh2rcd13ifvqhlg","pricing_plan_id":"free"},{"bike_id":"80bc4f7f-6b01-4264-9dc0-f1d8e1d4062e","system_id":"levelo_inurba_marseille","lat":43.34142,"lon":5.40898,"is_reserved":false,"is_disabled":false,"rental_uris":{"android":"levelo://app?vid=80bc4f7f-6b01-4264-9dc0-f1d8e1d4062e","ios":"levelo://app?vid=80bc4f7f-6b01-4264-9dc0-f1d8e1d4062e"},"vehicle_type_id":"4","last_reported":1692903886,"current_range_meters":22400,"station_id":"ce4bhqh2rcd13ifvqhlg","pricing_plan_id":"free"},{"bike_id":"56fae68c-5275-441a-9dc9-be69facb353e","system_id":"levelo_inurba_marseille","lat":43.34142,"lon":5.40902,"is_reserved":false,"is_disabled":false,"rental_uris":{"android":"levelo://app?vid=56fae68c-5275-441a-9dc9-be69facb353e","ios":"levelo://app?vid=56fae68c-5275-441a-9dc9-be69facb353e"},"vehicle_type_id":"4","last_reported":1692903886,"current_range_meters":25200,"station_id":"ce4bhqh2rcd13ifvqhlg","pricing_plan_id":"free"},{"bike_id":"b48fafa3-f376-4f62-bf2a-79b952294cee","system_id":"levelo_inurba_marseille","lat":43.34143,"lon":5.40902,"is_reserved":false,"is_disabled":false,"rental_uris":{"android":"levelo://app?vid=b48fafa3-f376-4f62-bf2a-79b952294cee","ios":"levelo://app?vid=b48fafa3-f376-4f62-bf2a-79b952294cee"},"vehicle_type_id":"4","last_reported":1692903886,"current_range_meters":29200,"station_id":"ce4bhqh2rcd13ifvqhlg","pricing_plan_id":"free"},{"bike_id":"8597d573-3163-48a6-852f-be56568980fa","system_id":"levelo_inurba_marseille","lat":43.34146,"lon":5.409,"is_reserved":false,"is_disabled":false,"rental_uris":{"android":"levelo://app?vid=8597d573-3163-48a6-852f-be56568980fa","ios":"levelo://app?vid=8597d573-3163-48a6-852f-be56568980fa"},"vehicle_type_id":"4","last_reported":1692903886,"current_range_meters":26800,"station_id":"ce4bhqh2rcd13ifvqhlg","pricing_plan_id":"free"},{"bike_id":"31852202-872c-40ee-ad71-fa11e1944efb","system_id":"levelo_inurba_marseille","lat":43.340804,"lon":5.410219,"is_reserved":false,"is_disabled":false,"rental_uris":{"android":"levelo://app?vid=31852202-872c-40ee-ad71-fa11e1944efb","ios":"levelo://app?vid=31852202-872c-40ee-ad71-fa11e1944efb"},"vehicle_type_id":"4","last_reported":1692903886,"current_range_meters":22400,"station_id":"ce4bhqh2rcd13ifvqhlg","pricing_plan_id":"free"},{"bike_id":"ace54788-8383-4f35-ad89-5689fe9325d3","system_id":"levelo_inurba_marseille","lat":43.27318,"lon":5.39072,"is_reserved":false,"is_disabled":false,"rental_uris":{"android":"levelo://app?vid=ace54788-8383-4f35-ad89-5689fe9325d3","ios":"levelo://app?vid=ace54788-8383-4f35-ad89-5689fe9325d3"},"vehicle_type_id":"4","last_reported":1692903886,"current_range_meters":0,"station_id":"ce4bhgp2rcd13ifvqfe0","pricing_plan_id":"free"},{"bike_id":"e7be7d2d-457c-4a5f-acad-0eec2d36a2da","system_id":"levelo_inurba_marseille","lat":43.274099,"lon":5.394019,"is_reserved":false,"is_disabled":false,"rental_uris":{"android":"levelo://app?vid=e7be7d2d-457c-4a5f-acad-0eec2d36a2da","ios":"levelo://app?vid=e7be7d2d-457c-4a5f-acad-0eec2d36a2da"},"vehicle_type_id":"4","last_reported":1692903886,"current_range_meters":2400,"station_id":"ce4bhdp2rcd13ifvqf20","pricing_plan_id":"free"},{"bike_id":"3d47640d-5db9-4f35-a640-7435ea5f8d81","system_id":"levelo_inurba_marseille","lat":43.30412,"lon":5.42544,"is_reserved":false,"is_disabled":false,"rental_uris":{"android":"levelo://app?vid=3d47640d-5db9-4f35-a640-7435ea5f8d81","ios":"levelo://app?vid=3d47640d-5db9-4f35-a640-7435ea5f8d81"},"vehicle_type_id":"4","last_reported":1692903886,"current_range_meters":15600,"station_id":"ce4bhoh2rcd13ifvqh6g","pricing_plan_id":"free"},{"bike_id":"ae01cb88-b30b-490f-95b3-c0db0e86ff9b","system_id":"levelo_inurba_marseille","lat":43.29555,"lon":5.42282,"is_reserved":false,"is_disabled":false,"rental_uris":{"android":"levelo://app?vid=ae01cb88-b30b-490f-95b3-c0db0e86ff9b","ios":"levelo://app?vid=ae01cb88-b30b-490f-95b3-c0db0e86ff9b"},"vehicle_type_id":"4","last_reported":1692903886,"current_range_meters":27200,"station_id":"ce4bhph2rcd13ifvqhdg","pricing_plan_id":"free"},{"bike_id":"e925c7fc-62b4-46e0-b980-1e64df98966e","system_id":"levelo_inurba_marseille","lat":43.295511,"lon":5.422926,"is_reserved":false,"is_disabled":false,"rental_uris":{"android":"levelo://app?vid=e925c7fc-62b4-46e0-b980-1e64df98966e","ios":"levelo://app?vid=e925c7fc-62b4-46e0-b980-1e64df98966e"},"vehicle_type_id":"4","last_reported":1692903886,"current_range_meters":27600,"station_id":"ce4bhph2rcd13ifvqhdg","pricing_plan_id":"free"},{"bike_id":"a1677f0b-66e8-44a8-9381-26e74c4d3cc6","system_id":"levelo_inurba_marseille","lat":43.295523,"lon":5.422926,"is_reserved":false,"is_disabled":false,"rental_uris":{"android":"levelo://app?vid=a1677f0b-66e8-44a8-9381-26e74c4d3cc6","ios":"levelo://app?vid=a1677f0b-66e8-44a8-9381-26e74c4d3cc6"},"vehicle_type_id":"4","last_reported":1692903886,"current_range_meters":16800,"station_id":"ce4bhph2rcd13ifvqhdg","pricing_plan_id":"free"},{"bike_id":"f358dd86-e4e1-4c2f-93db-b885100a6066","system_id":"levelo_inurba_marseille","lat":43.295523,"lon":5.422926,"is_reserved":false,"is_disabled":false,"rental_uris":{"android":"levelo://app?vid=f358dd86-e4e1-4c2f-93db-b885100a6066","ios":"levelo://app?vid=f358dd86-e4e1-4c2f-93db-b885100a6066"},"vehicle_type_id":"4","last_reported":1692903886,"current_range_meters":21200,"station_id":"ce4bhph2rcd13ifvqhdg","pricing_plan_id":"free"},{"bike_id":"d43890ad-51d6-4c56-ae0f-a1dc01266787","system_id":"levelo_inurba_marseille","lat":43.272124,"lon":5.391768,"is_reserved":false,"is_disabled":false,"rental_uris":{"android":"levelo://app?vid=d43890ad-51d6-4c56-ae0f-a1dc01266787","ios":"levelo://app?vid=d43890ad-51d6-4c56-ae0f-a1dc01266787"},"vehicle_type_id":"4","last_reported":1692903886,"current_range_meters":0,"station_id":"ce4bhhp2rcd13ifvqfm0","pricing_plan_id":"free"},{"bike_id":"f2ed05e4-50d0-44c2-8047-fad149da5e18","system_id":"levelo_inurba_marseille","lat":43.272116,"lon":5.391747,"is_reserved":false,"is_disabled":false,"rental_uris":{"android":"levelo://app?vid=f2ed05e4-50d0-44c2-8047-fad149da5e18","ios":"levelo://app?vid=f2ed05e4-50d0-44c2-8047-fad149da5e18"},"vehicle_type_id":"4","last_reported":1692903886,"current_range_meters":9600,"station_id":"ce4bhhp2rcd13ifvqfm0","pricing_plan_id":"free"},{"bike_id":"661aa541-1290-42e0-8ab4-f3bd4c82e1a6","system_id":"levelo_inurba_marseille","lat":43.272124,"lon":5.391768,"is_reserved":false,"is_disabled":false,"rental_uris":{"android":"levelo://app?vid=661aa541-1290-42e0-8ab4-f3bd4c82e1a6","ios":"levelo://app?vid=661aa541-1290-42e0-8ab4-f3bd4c82e1a6"},"vehicle_type_id":"4","last_reported":1692903886,"current_range_meters":13200,"station_id":"ce4bhhp2rcd13ifvqfm0","pricing_plan_id":"free"},{"bike_id":"fbf9222b-5c0c-4989-bf19-fdfde53e9814","system_id":"levelo_inurba_marseille","lat":43.272124,"lon":5.391768,"is_reserved":false,"is_disabled":false,"rental_uris":{"android":"levelo://app?vid=fbf9222b-5c0c-4989-bf19-fdfde53e9814","ios":"levelo://app?vid=fbf9222b-5c0c-4989-bf19-fdfde53e9814"},"vehicle_type_id":"4","last_reported":1692903886,"current_range_meters":30000,"station_id":"ce4bhhp2rcd13ifvqfm0","pricing_plan_id":"free"},{"bike_id":"27647160-44f8-407b-97ef-36d0d21bb824","system_id":"levelo_inurba_marseille","lat":43.272124,"lon":5.391768,"is_reserved":false,"is_disabled":false,"rental_uris":{"android":"levelo://app?vid=27647160-44f8-407b-97ef-36d0d21bb824","ios":"levelo://app?vid=27647160-44f8-407b-97ef-36d0d21bb824"},"vehicle_type_id":"4","last_reported":1692903886,"current_range_meters":6400,"station_id":"ce4bhhp2rcd13ifvqfm0","pricing_plan_id":"free"},{"bike_id":"204b0d0e-19cb-4cf1-a804-bf072c844102","system_id":"levelo_inurba_marseille","lat":43.278128,"lon":5.407195,"is_reserved":false,"is_disabled":false,"rental_uris":{"android":"levelo://app?vid=204b0d0e-19cb-4cf1-a804-bf072c844102","ios":"levelo://app?vid=204b0d0e-19cb-4cf1-a804-bf072c844102"},"vehicle_type_id":"4","last_reported":1692903886,"current_range_meters":12800,"station_id":"ce4bhnh2rcd13ifvqgtg","pricing_plan_id":"free"},{"bike_id":"8b2240db-859e-49ed-9b41-0059a4368512","system_id":"levelo_inurba_marseille","lat":43.269467,"lon":5.386439,"is_reserved":false,"is_disabled":false,"rental_uris":{"android":"levelo://app?vid=8b2240db-859e-49ed-9b41-0059a4368512","ios":"levelo://app?vid=8b2240db-859e-49ed-9b41-0059a4368512"},"vehicle_type_id":"4","last_reported":1692903886,"current_range_meters":16800,"station_id":"ce4bhh92rcd13ifvqfh0","pricing_plan_id":"free"},{"bike_id":"f063ab8b-a1de-401c-a660-5cb0246383a2","system_id":"levelo_inurba_marseille","lat":43.269467,"lon":5.386439,"is_reserved":false,"is_disabled":false,"rental_uris":{"android":"levelo://app?vid=f063ab8b-a1de-401c-a660-5cb0246383a2","ios":"levelo://app?vid=f063ab8b-a1de-401c-a660-5cb0246383a2"},"vehicle_type_id":"4","last_reported":1692903886,"current_range_meters":3600,"station_id":"ce4bhh92rcd13ifvqfh0","pricing_plan_id":"free"},