{"last_updated":1715360777,"ttl":30,"version":"2.2","data":{"bikes":[{"bike_id":"b6d5adf7-e3cf-42dc-bd46-9e38f2887abe","system_id":"levelo_inurba_marseille","lat":43.312478,"lon":5.368583,"is_reserved":false,"is_disabled":false,"rental_uris":{"android":"levelo://app?vid=b6d5adf7-e3cf-42dc-bd46-9e38f2887abe","ios":"levelo://app?vid=b6d5adf7-e3cf-42dc-bd46-9e38f2887abe"},"vehicle_type_id":"4","last_reported":1715360777,"current_range_meters":10400,"station_id":"ce4bgl92rcd13ifvqbq0","pricing_plan_id":"cebpf4jnsgd1na2vs0mg"},{"bike_id":"df63d519-4646-4773-b610-536b4fc36592","system_id":"levelo_inurba_marseille","lat":43.314811,"lon":5.373103,"is_reserved":false,"is_disabled":false,"rental_uris":{"android":"levelo://app?vid=df63d519-4646-4773-b610-536b4fc36592","ios":"levelo://app?vid=df63d519-4646-4773-b610-536b4fc36592"},"vehicle_type_id":"4","last_reported":1715360777,"current_range_meters":0,"station_id":"ce4bgt12rcd13ifvqcd0","pricing_plan_id":"cebpf4jnsgd1na2vs0mg"},{"bike_id":"d5f351d4-2553-4c47-94cd-61cac70a8de0","system_id":"levelo_inurba_marseille","lat":43.309039,"lon":5.371797,"is_reserved":false,"is_disabled":false,"rental_uris":{"android":"levelo://app?vid=d5f351d4-2553-4c47-94cd-61cac70a8de0","ios":"levelo://app?vid=d5f351d4-2553-4c47-94cd-61cac70a8de0"},"vehicle_type_id":"4","last_reported":1715360777,"current_range_meters":29200,"station_id":"ce4bguh2rcd13ifvqckg","pricing_plan_id":"cebpf4jnsgd1na2vs0mg"},{"bike_id":"22adb70e-9308-4a56-bba7-0d8ac6f9b1c9","system_id":"levelo_inurba_marseille","lat":43.31811,"lon":5.372065,"is_reserved":false,"is_disabled":false,"rental_uris":{"android":"levelo://app?vid=22adb70e-9308-4a56-bba7-0d8ac6f9b1c9","ios":"levelo://app?vid=22adb70e-9308-4a56-bba7-0d8ac6f9b1c9"},"vehicle_type_id":"4","last_reported":1715360777,"current_range_meters":0,"station_id":"","pricing_plan_id":"cebpf4jnsgd1na2vs0mg"},{"bike_id":"ad9a9b4a-ff90-47e1-a632-29f534e95644","system_id":"levelo_inurba_marseille","lat":43.30553,"lon":5.3671,"is_reserved":false,"is_disabled":false,"rental_uris":{"android":"levelo://app?vid=ad9a9b4a-ff90-47e1-a632-29f534e95644","ios":"levelo://app?vid=ad9a9b4a-ff90-47e1-a632-29f534e95644"},"vehicle_type_id":"4","last_reported":1715360777,"current_range_meters":400,"station_id":"ce4bgrp2rcd13ifvqc9g","pricing_plan_id":"cebpf4jnsgd1na2vs0mg"},{"bike_id":"3f72b6af-8864-48ee-b3a4-5b410a054f38","system_id":"levelo_inurba_marseille","lat":43.3054,"lon":5.36699,"is_reserved":false,"is_disabled":false,"rental_uris":{"android":"levelo://app?vid=3f72b6af-8864-48ee-b3a4-5b410a054f38","ios":"levelo://app?vid=3f72b6af-8864-48ee-b3a4-5b410a054f38"},"vehicle_type_id":"4","last_reported":1715360777,"current_range_meters":2000,"station_id":"ce4bgrp2rcd13ifvqc9g","pricing_plan_id":"cebpf4jnsgd1na2vs0mg"},{"bike_id":"ad1ffd7b-bdd1-474a-923c-aa324d952076","system_id":"levelo_inurba_marseille","lat":43.311131,"lon":5.377651,"is_reserved":false,"is_disabled":false,"rental_uris":{"android":"levelo://app?vid=ad1ffd7b-bdd1-474a-923c-aa324d952076","ios":"levelo://app?vid=ad1ffd7b-bdd1-474a-923c-aa324d952076"},"vehicle_type_id":"4","last_reported":1715360777,"current_range_meters":11600,"station_id":"ce4bgt92rcd13ifvqcg0","pricing_plan_id":"cebpf4jnsgd1na2vs0mg"},{"bike_id":"f8ba3353-26c4-4ecb-bad2-00678f7759de","system_id":"levelo_inurba_marseille","lat":43.307945,"lon":5.376487,"is_reserved":false,"is_disabled":false,"rental_uris":{"android":"levelo://app?vid=f8ba3353-26c4-4ecb-bad2-00678f7759de","ios":"levelo://app?vid=f8ba3353-26c4-4ecb-bad2-00678f7759de"},"vehicle_type_id":"4","last_reported":1715360777,"current_range_meters":22000,"station_id":"ce4bgv92rcd13ifvqcq0","pricing_plan_id":"cebpf4jnsgd1na2vs0mg"},{"bike_id":"a74c3573-5356-40a4-878a-9aa334782613","system_id":"levelo_inurba_marseille","lat":43.307945,"lon":5.376487,"is_reserved":false,"is_disabled":false,"rental_uris":{"android":"levelo://app?vid=a74c3573-5356-40a4-878a-9aa334782613","ios":"levelo://app?vid=a74c3573-5356-40a4-878a-9aa334782613"},"vehicle_type_id":"4","last_reported":1715360777,"current_range_meters":400,"station_id":"ce4bgv92rcd13ifvqcq0","pricing_plan_id":"cebpf4jnsgd1na2vs0mg"},{"bike_id":"11a7a983-511d-4139-b650-9b4cb1dc2177","system_id":"levelo_inurba_marseille","lat":43.307945,"lon":5.376487,"is_reserved":false,"is_disabled":false,"rental_uris":{"android":"levelo://app?vid=11a7a983-511d-4139-b650-9b4cb1dc2177","ios":"levelo://app?vid=11a7a983-511d-4139-b650-9b4cb1dc2177"},"vehicle_type_id":"4","last_reported":1715360777,"current_range_meters":9600,"station_id":"ce4bgv92rcd13ifvqcq0","pricing_plan_id":"cebpf4jnsgd1na2vs0mg"},{"bike_id":"a8420d12-5ea1-4553-ba77-74153419b9a1","system_id":"levelo_inurba_marseille","lat":43.307945,"lon":5.376487,"is_reserved":false,"is_disabled":false,"rental_uris":{"android":"levelo://app?vid=a8420d12-5ea1-4553-ba77-74153419b9a1","ios":"levelo://app?vid=a8420d12-5ea1-4553-ba77-74153419b9a1"},"vehicle_type_id":"4","last_reported":1715360777,"current_range_meters":31200,"station_id":"ce4bgv92rcd13ifvqcq0","pricing_plan_id":"cebpf4jnsgd1na2vs0mg"},{"bike_id":"c90ac416-330e-46e1-9c70-8cdbdc9bbc10","system_id":"levelo_inurba_marseille","lat":43.307813,"lon":5.37645,"is_reserved":false,"is_disabled":false,"rental_uris":{"android":"levelo://app?vid=c90ac416-330e-46e1-9c70-8cdbdc9bbc10","ios":"levelo://app?vid=c90ac416-330e-46e1-9c70-8cdbdc9bbc10"},"vehicle_type_id":"4","last_reported":1715360777,"current_range_meters":0,"station_id":"ce4bgv92rcd13ifvqcq0","pricing_plan_id":"cebpf4jnsgd1na2vs0mg"},{"bike_id":"a662f200-105e-48ce-b1bf-f36589f69a65","system_id":"levelo_inurba_marseille","lat":43.30779,"lon":5.3765,"is_reserved":false,"is_disabled":false,"rental_uris":{"android":"levelo://app?vid=a662f200-105e-48ce-b1bf-f36589f69a65","ios":"levelo://app?vid=a662f200-105e-48ce-b1bf-f36589f69a65"},"vehicle_type_id":"4","last_reported":1715360777,"current_range_meters":0,"station_id":"ce4bgv92rcd13ifvqcq0","pricing_plan_id":"cebpf4jnsgd1na2vs0mg"},{"bike_id":"794a3d84-387b-4eee-bcea-dc45edc430f6","system_id":"levelo_inurba_marseille","lat":43.307945,"lon":5.376487,"is_reserved":false,"is_disabled":false,"rental_uris":{"android":"levelo://app?vid=794a3d84-387b-4eee-bcea-dc45edc430f6","ios":"levelo://app?vid=794a3d84-387b-4eee-bcea-dc45edc430f6"},"vehicle_type_id":"4","last_reported":1715360777,"current_range_meters":0,"station_id":"ce4bgv92rcd13ifvqcq0","pricing_plan_id":"cebpf4jnsgd1na2vs0mg"},{"bike_id":"df54fb2c-4318-427d-9542-b24dffc80685","system_id":"levelo_inurba_marseille","lat":43.303046,"lon":5.368981,"is_reserved":false,"is_disabled":false,"rental_uris":{"android":"levelo://app?vid=df54fb2c-4318-427d-9542-b24dffc80685","ios":"levelo://app?vid=df54fb2c-4318-427d-9542-b24dffc80685"},"vehicle_type_id":"4","last_reported":1715360777,"current_range_meters":2400,"station_id":"ce4bgqh2rcd13ifvqc5g","pricing_plan_id":"cebpf4jnsgd1na2vs0mg"},{"bike_id":"cc643801-400b-4b21-a591-93bce67b790a","system_id":"levelo_inurba_marseille","lat":43.303046,"lon":5.368981,"is_reserved":false,"is_disabled":false,"rental_uris":{"android":"levelo://app?vid=cc643801-400b-4b21-a591-93bce67b790a","ios":"levelo://app?vid=cc643801-400b-4b21-a591-93bce67b790a"},"vehicle_type_id":"4","last_reported":1715360777,"current_range_meters":2400,"station_id":"ce4bgqh2rcd13ifvqc5g","pricing_plan_id":"cebpf4jnsgd1na2vs0mg"},{"bike_id":"7bffe1d0-a9d5-4709-b78c-c547d52da63e","system_id":"levelo_inurba_marseille","lat":43.30304,"lon":5.368987,"is_reserved":false,"is_disabled":false,"rental_uris":{"android":"levelo://app?vid=7bffe1d0-a9d5-4709-b78c-c547d52da63e","ios":"levelo://app?vid=7bffe1d0-a9d5-4709-b78c-c547d52da63e"},"vehicle_type_id":"4","last_reported":1715360777,"current_range_meters":10400,"station_id":"ce4bgqh2rcd13ifvqc5g","pricing_plan_id":"cebpf4jnsgd1na2vs0mg"},{"bike_id":"4413ca3f-dfb8-43f7-a2f0-6a1f91572433","system_id":"levelo_inurba_marseille","lat":43.315293,"lon":5.380349,"is_reserved":false,"is_disabled":false,"rental_uris":{"android":"levelo://app?vid=4413ca3f-dfb8-43f7-a2f0-6a1f91572433","ios":"levelo://app?vid=4413ca3f-dfb8-43f7-a2f0-6a1f91572433"},"vehicle_type_id":"4","last_reported":1715360777,"current_range_meters":21200,"station_id":"ce4bhsp2rcd13ifvqi50","pricing_plan_id":"cebpf4jnsgd1na2vs0mg"},{"bike_id":"16c12c23-247a-4512-b937-551aae49c96e","system_id":"levelo_inurba_marseille","lat":43.31528,"lon":5.38045,"is_reserved":false,"is_disabled":false,"rental_uris":{"android":"levelo://app?vid=16c12c23-247a-4512-b937-551aae49c96e","ios":"levelo://app?vid=16c12c23-247a-4512-b937-551aae49c96e"},"vehicle_type_id":"4","last_reported":1715360777,"current_range_meters":0,"station_id":"ce4bhsp2rcd13ifvqi50","pricing_plan_id":"cebpf4jnsgd1na2vs0mg"},{"bike_id":"b2b8de3a-d0ec-4a2e-82ed-4984f36708dd","system_id":"levelo_inurba_marseille","lat":43.301939,"lon":5.366286,"is_reserved":false,"is_disabled":false,"rental_uris":{"android":"levelo://app?vid=b2b8de3a-d0ec-4a2e-82ed-4984f36708dd","ios":"levelo://app?vid=b2b8de3a-d0ec-4a2e-82ed-4984f36708dd"},"vehicle_type_id":"4","last_reported":1715360777,"current_range_meters":0,"station_id":"ce4bgrh2rcd13ifvqc8g","pricing_plan_id":"cebpf4jnsgd1na2vs0mg"},{"bike_id":"5479c8dc-e713-468c-a68a-5bf90815c6b9","system_id":"levelo_inurba_marseille","lat":43.301939,"lon":5.366286,"is_reserved":false,"is_disabled":false,"rental_uris":{"android":"levelo://app?vid=5479c8dc-e713-468c-a68a-5bf90815c6b9","ios":"levelo://app?vid=5479c8dc-e713-468c-a68a-5bf90815c6b9"},"vehicle_type_id":"4","last_reported":1715360777,"current_range_meters":25600,"station_id":"ce4bgrh2rcd13ifvqc8g","pricing_plan_id":"cebpf4jnsgd1na2vs0mg"},{"bike_id":"7182b728-ba37-4d2b-a121-9fed32c4b75c","system_id":"levelo_inurba_marseille","lat":43.31908,"lon":5.37928,"is_reserved":false,"is_disabled":false,"rental_uris":{"android":"levelo://app?vid=7182b728-ba37-4d2b-a121-9fed32c4b75c","ios":"levelo://app?vid=7182b728-ba37-4d2b-a121-9fed32c4b75c"},"vehicle_type_id":"4","last_reported":1715360777,"current_range_meters":0,"station_id":"","pricing_plan_id":"cebpf4jnsgd1na2vs0mg"},{"bike_id":"adb4eda0-cc22-494e-9189-59040189da12","system_id":"levelo_inurba_marseille","lat":43.301939,"lon":5.366286,"is_reserved":false,"is_disabled":false,"rental_uris":{"android":"levelo://app?vid=adb4eda0-cc22-494e-9189-59040189da12","ios":"levelo://app?vid=adb4eda0-cc22-494e-9189-59040189da12"},"vehicle_type_id":"4","last_reported":1715360777,"current_range_meters":22000,"station_id":"ce4bgrh2rcd13ifvqc8g","pricing_plan_id":"cebpf4jnsgd1na2vs0mg"},{"bike_id":"75f6ee27-3dd2-470c-9419-f29aea173930","system_id":"levelo_inurba_marseille","lat":43.308012,"lon":5.381511,"is_reserved":false,"is_disabled":false,"rental_uris":{"android":"levelo://app?vid=75f6ee27-3dd2-470c-9419-f29aea173930","ios":"levelo://app?vid=75f6ee27-3dd2-470c-9419-f29aea173930"},"vehicle_type_id":"4","last_reported":1715360777,"current_range_meters":23200,"station_id":"ce4bgt12rcd13ifvqce0","pricing_plan_id":"cebpf4jnsgd1na2vs0mg"},{"bike_id":"8f91835e-b196-4919-807f-ad79cf6c9af0","system_id":"levelo_inurba_marseille","lat":43.308028,"lon":5.381538,"is_reserved":false,"is_disabled":false,"rental_uris":{"android":"levelo://app?vid=8f91835e-b196-4919-807f-ad79cf6c9af0","ios":"levelo://app?vid=8f91835e-b196-4919-807f-ad79cf6c9af0"},"vehicle_type_id":"4","last_reported":1715360777,"current_range_meters":800,"station_id":"ce4bgt12rcd13ifvqce0","pricing_plan_id":"cebpf4jnsgd1na2vs0mg"},{"bike_id":"3e6c7936-1c77-4d8d-800b-addacc1636c0","system_id":"levelo_inurba_marseille","lat":43.30807,"lon":5.38161,"is_reserved":false,"is_disabled":false,"rental_uris":{"android":"levelo://app?vid=3e6c7936-1c77-4d8d-800b-addacc1636c0","ios":"levelo://app?vid=3e6c7936-1c77-4d8d-800b-addacc1636c0"},"vehicle_type_id":"4","last_reported":1715360777,"current_range_meters":15200,"station_id":"ce4bgt12rcd13ifvqce0","pricing_plan_id":"cebpf4jnsgd1na2vs0mg"},{"bike_id":"d5fc92dc-7aba-4de8-a399-3230416fc775","system_id":"levelo_inurba_marseille","lat":43.308012,"lon":5.381511,"is_reserved":false,"is_disabled":false,"rental_uris":{"android":"levelo://app?vid=d5fc92dc-7aba-4de8-a399-3230416fc775","ios":"levelo://app?vid=d5fc92dc-7aba-4de8-a399-3230416fc775"},"vehicle_type_id":"4","last_reported":1715360777,"current_range_meters":6800,"station_id":"ce4bgt12rcd13ifvqce0","pricing_plan_id":"cebpf4jnsgd1na2vs0mg"},{"bike_id":"c89df958-972a-4223-8452-7af7f595f675","system_id":"levelo_inurba_marseille","lat":43.30461,"lon":5.37907,"is_reserved":false,"is_disabled":false,"rental_uris":{"android":"levelo://app?vid=c89df958-972a-4223-8452-7af7f595f675","ios":"levelo://app?vid=c89df958-972a-4223-8452-7af7f595f675"},"vehicle_type_id":"4","last_reported":1715360777,"current_range_meters":0,"station_id":"ce4bgup2rcd13ifvqcn0","pricing_plan_id":"cebpf4jnsgd1na2vs0mg"},{"bike_id":"54f7d52f-d58f-4bc2-be3c-a3b78991f4f1","system_id":"levelo_inurba_marseille","lat":43.324771,"lon":5.36557,"is_reserved":false,"is_disabled":false,"rental_uris":{"android":"levelo://app?vid=54f7d52f-d58f-4bc2-be3c-a3b78991f4f1","ios":"levelo://app?vid=54f7d52f-d58f-4bc2-be3c-a3b78991f4f1"},"vehicle_type_id":"4","last_reported":1715360777,"current_range_meters":800,"station_id":"ce4bhs12rcd13ifvqhvg","pricing_plan_id":"cebpf4jnsgd1na2vs0mg"},{"bike_id":"eb323908-45ea-4bba-8bb8-3fff8e666f6d","system_id":"levelo_inurba_marseille","lat":43.324771,"lon":5.36557,"is_reserved":false,"is_disabled":false,"rental_uris":{"android":"levelo://app?vid=eb323908-45ea-4bba-8bb8-3fff8e666f6d","ios":"levelo://app?vid=eb323908-45ea-4bba-8bb8-3fff8e666f6d"},"vehicle_type_id":"4","last_reported":1715360777,"current_range_meters":5200,"station_id":"ce4bhs12rcd13ifvqhvg","pricing_plan_id":"cebpf4jnsgd1na2vs0mg"},{"bike_id":"4eb92f76-c358-440b-bc3d-a815e556ffe4","system_id":"levelo_inurba_marseille","lat":43.324771,"lon":5.36557,"is_reserved":false,"is_disabled":false,"rental_uris":{"android":"levelo://app?vid=4eb92f76-c358-440b-bc3d-a815e556ffe4","ios":"levelo://app?vid=4eb92f76-c358-440b-bc3d-a815e556ffe4"},"vehicle_type_id":"4","last_reported":1715360777,"current_range_meters":6400,"station_id":"ce4bhs12rcd13ifvqhvg","pricing_plan_id":"cebpf4jnsgd1na2vs0mg"},{"bike_id":"ca917bde-b6a2-455f-9352-068fa3e12e48","system_id":"levelo_inurba_marseille","lat":43.324771,"lon":5.36557,"is_reserved":false,"is_disabled":false,"rental_uris":{"android":"levelo://app?vid=ca917bde-b6a2-455f-9352-068fa3e12e48","ios":"levelo://app?vid=ca917bde-b6a2-455f-9352-068fa3e12e48"},"vehicle_type_id":"4","last_reported":1715360777,"current_range_meters":18400,"station_id":"ce4bhs12rcd13ifvqhvg","pricing_plan_id":"cebpf4jnsgd1na2vs0mg"},{"bike_id":"2febb0ee-a21d-447a-a8c4-590c86129938","system_id":"levelo_inurba_marseille","lat":43.32481,"lon":5.36587,"is_reserved":false,"is_disabled":false,"rental_uris":{"android":"levelo://app?vid=2febb0ee-a21d-447a-a8c4-590c86129938","ios":"levelo://app?vid=2febb0ee-a21d-447a-a8c4-590c86129938"},"vehicle_type_id":"4","last_reported":1715360777,"current_range_meters":26400,"station_id":"ce4bhs12rcd13ifvqhvg","pricing_plan_id":"cebpf4jnsgd1na2vs0mg"},{"bike_id":"d94c9dec-b58f-4640-ae8d-6b4b27755d83","system_id":"levelo_inurba_marseille","lat":43.324771,"lon":5.36557,"is_reserved":false,"is_disabled":false,"rental_uris":{"android":"levelo://app?vid=d94c9dec-b58f-4640-ae8d-6b4b27755d83","ios":"levelo://app?vid=d94c9dec-b58f-4640-ae8d-6b4b27755d83"},"vehicle_type_id":"4","last_reported":1715360777,"current_range_meters":22000,"station_id":"ce4bhs12rcd13ifvqhvg","pricing_plan_id":"cebpf4jnsgd1na2vs0mg"},{"bike_id":"afc8d308-4744-4764-ab26-c6a27109151f","system_id":"levelo_inurba_marseille","lat":43.32482,"lon":5.36564,"is_reserved":false,"is_disabled":false,"rental_uris":{"android":"levelo://app?vid=afc8d308-4744-4764-ab26-c6a27109151f","ios":"levelo://app?vid=afc8d308-4744-4764-ab26-c6a27109151f"},"vehicle_type_id":"4","last_reported":1715360777,"current_range_meters":2000,"station_id":"ce4bhs12rcd13ifvqhvg","pricing_plan_id":"cebpf4jnsgd1na2vs0mg"},{"bike_id":"e406632f-ac47-4332-9afd-a2f29079c097","system_id":"levelo_inurba_marseille","lat":43.324771,"lon":5.36557,"is_reserved":false,"is_disabled":false,"rental_uris":{"android":"levelo://app?vid=e406632f-ac47-4332-9afd-a2f29079c097","ios":"levelo://app?vid=e406632f-ac47-4332-9afd-a2f29079c097"},"vehicle_type_id":"4","last_reported":1715360777,"current_range_meters":7200,"station_id":"ce4bhs12rcd13ifvqhvg","pricing_plan_id":"cebpf4jnsgd1na2vs0mg"},{"bike_id":"fb3916e9-8f1f-4a0d-bb23-7c1c918476e4","system_id":"levelo_inurba_marseille","lat":43.324835,"lon":5.365813,"is_reserved":false,"is_disabled":false,"rental_uris":{"android":"levelo://app?vid=fb3916e9-8f1f-4a0d-bb23-7c1c918476e4","ios":"levelo://app?vid=fb3916e9-8f1f-4a0d-bb23-7c1c918476e4"},"vehicle_type_id":"4","last_reported":1715360777,"current_range_meters":1600,"station_id":"ce4bhs12rcd13ifvqhvg","pricing_plan_id":"cebpf4jnsgd1na2vs0mg"},{"bike_id":"d1b4e1b5-938c-45f6-b01a-00001534d859","system_id":"levelo_inurba_marseille","lat":43.324771,"lon":5.36557,"is_reserved":false,"is_disabled":false,"rental_uris":{"android":"levelo://app?vid=d1b4e1b5-938c-45f6-b01a-00001534d859","ios":"levelo://app?vid=d1b4e1b5-938c-45f6-b01a-00001534d859"},"vehicle_type_id":"4","last_reported":1715360777,"current_range_meters":24000,"station_id":"ce4bhs12rcd13ifvqhvg","pricing_plan_id":"cebpf4jnsgd1na2vs0mg"},{"bike_id":"55dc8fe8-0eb7-4eaf-933b-376c94efe1da","system_id":"levelo_inurba_marseille","lat":43.324827,"lon":5.365574,"is_reserved":false,"is_disabled":false,"rental_uris":{"android":"levelo://app?vid=55dc8fe8-0eb7-4eaf-933b-376c94efe1da","ios":"levelo://app?vid=55dc8fe8-0eb7-4eaf-933b-376c94efe1da"},"vehicle_type_id":"4","last_reported":1715360777,"current_range_meters":0,"station_id":"ce4bhs12rcd13ifvqhvg","pricing_plan_id":"cebpf4jnsgd1na2vs0mg"},{"bike_id":"a1a5056f-afd6-4fe8-bf8d-db5a443d86b8","system_id":"levelo_inurba_marseille","lat":43.324771,"lon":5.36557,"is_reserved":false,"is_disabled":false,"rental_uris":{"android":"levelo://app?vid=a1a5056f-afd6-4fe8-bf8d-db5a443d86b8","ios":"levelo://app?vid=a1a5056f-afd6-4fe8-bf8d-db5a443d86b8"},"vehicle_type_id":"4","last_reported":1715360777,"current_range_meters":28800,"station_id":"ce4bhs12rcd13ifvqhvg","pricing_plan_id":"cebpf4jnsgd1na2vs0mg"},{"bike_id":"30bdfbd5-f2a2-462a-8026-f7d1294a50d1","system_id":"levelo_inurba_marseille","lat":43.32484,"lon":5.36561,"is_reserved":false,"is_disabled":false,"rental_uris":{"android":"levelo://app?vid=30bdfbd5-f2a2-462a-8026-f7d1294a50d1","ios":"levelo://app?vid=30bdfbd5-f2a2-462a-8026-f7d1294a50d1"},"vehicle_type_id":"4","last_reported":1715360777,"current_range_meters":0,"station_id":"ce4bhs12rcd13ifvqhvg","pricing_plan_id":"cebpf4jnsgd1na2vs0mg"},{"bike_id":"164645ae-7129-4725-bf89-15b685d686fe","system_id":"levelo_inurba_marseille","lat":43.324771,"lon":5.36557,"is_reserved":false,"is_disabled":false,"rental_uris":{"android":"levelo://app?vid=164645ae-7129-4725-bf89-15b685d686fe","ios":"levelo://app?vid=164645ae-7129-4725-bf89-15b685d686fe"},"vehicle_type_id":"4","last_reported":1715360777,"current_range_meters":9200,"station_id":"ce4bhs12rcd13ifvqhvg","pricing_plan_id":"cebpf4jnsgd1na2vs0mg"},{"bike_id":"78f7d97c-e4eb-4ebc-88e2-08b2969fa253","system_id":"levelo_inurba_marseille","lat":43.32487,"lon":5.36565,"is_reserved":false,"is_disabled":false,"rental_uris":{"android":"levelo://app?vid=78f7d97c-e4eb-4ebc-88e2-08b2969fa253","ios":"levelo://app?vid=78f7d97c-e4eb-4ebc-88e2-08b2969fa253"},"vehicle_type_id":"4","last_reported":1715360777,"current_range_meters":3600,"station_id":"ce4bhs12rcd13ifvqhvg","pricing_plan_id":"cebpf4jnsgd1na2vs0mg"},{"bike_id":"e2632a34-1f69-412a-b2ca-8192db3e2d87","system_id":"levelo_inurba_marseille","lat":43.324771,"lon":5.36557,"is_reserved":false,"is_disabled":false,"rental_uris":{"android":"levelo://app?vid=e2632a34-1f69-412a-b2ca-8192db3e2d87","ios":"levelo://app?vid=e2632a34-1f69-412a-b2ca-8192db3e2d87"},"vehicle_type_id":"4","last_reported":1715360777,"current_range_meters":29600,"station_id":"ce4bhs12rcd13ifvqhvg","pricing_plan_id":"cebpf4jnsgd1na2vs0mg"},{"bike_id":"e9f67143-4127-4ec2-946c-126a1154652d","system_id":"levelo_inurba_marseille","lat":43.32489,"lon":5.36571,"is_reserved":false,"is_disabled":false,"rental_uris":{"android":"levelo://app?vid=e9f67143-4127-4ec2-946c-126a1154652d","ios":"levelo://app?vid=e9f67143-4127-4ec2-946c-126a1154652d"},"vehicle_type_id":"4","last_reported":1715360777,"current_range_meters":12400,"station_id":"ce4bhs12rcd13ifvqhvg","pricing_plan_id":"cebpf4jnsgd1na2vs0mg"},{"bike_id":"409b6284-1b25-49cd-9d41-a45f3bd4007e","system_id":"levelo_inurba_marseille","lat":43.313571,"lon":5.384829,"is_reserved":false,"is_disabled":false,"rental_uris":{"android":"levelo://app?vid=409b6284-1b25-49cd-9d41-a45f3bd4007e","ios":"levelo://app?vid=409b6284-1b25-49cd-9d41-a45f3bd4007e"},"vehicle_type_id":"4","last_reported":1715360777,"current_range_meters":9600,"station_id":"ce4bgt92rcd13ifvqcf0","pricing_plan_id":"cebpf4jnsgd1na2vs0mg"},{"bike_id":"ee8aeea4-2d28-4e75-83d8-709771cc151d","system_id":"levelo_inurba_marseille","lat":43.310804,"lon":5.38359,"is_reserved":false,"is_disabled":false,"rental_uris":{"android":"levelo://app?vid=ee8aeea4-2d28-4e75-83d8-709771cc151d","ios":"levelo://app?vid=ee8aeea4-2d28-4e75-83d8-709771cc151d"},"vehicle_type_id":"4","last_reported":1715360777,"current_range_meters":13600,"station_id":"ce4bgv92rcd13ifvqcr0","pricing_plan_id":"cebpf4jnsgd1na2vs0mg"},{"bike_id":"2baba5fb-ddff-4e5b-9dab-d7b171b533ea","system_id":"levelo_inurba_marseille","lat":43.301429,"lon":5.37413,"is_reserved":false,"is_disabled":false,"rental_uris":{"android":"levelo://app?vid=2baba5fb-ddff-4e5b-9dab-d7b171b533ea","ios":"levelo://app?vid=2baba5fb-ddff-4e5b-9dab-d7b171b533ea"},"vehicle_type_id":"4","last_reported":1715360777,"current_range_meters":28800,"station_id":"ce4bgs92rcd13ifvqcc0","pricing_plan_id":"cebpf4jnsgd1na2vs0mg"},{"bike_id":"01c04c97-4832-43dd-9f74-dd981fd98b53","system_id":"levelo_inurba_marseille","lat":43.30134,"lon":5.37415,"is_reserved":false,"is_disabled":false,"rental_uris":{"android":"levelo://app?vid=01c04c97-4832-43dd-9f74-dd981fd98b53","ios":"levelo://app?vid=01c04c97-4832-43dd-9f74-dd981fd98b53"},"vehicle_type_id":"4","last_reported":1715360777,"current_range_meters":3200,"station_id":"","pricing_plan_id":"cebpf4jnsgd1na2vs0mg"},{"bike_id":"8f9b57a5-8979-4eb6-ad87-a113e6097ceb","system_id":"levelo_inurba_marseille","lat":43.302787,"lon":5.377535,"is_reserved":false,"is_disabled":false,"rental_uris":{"android":"levelo://app?vid=8f9b57a5-8979-4eb6-ad87-a113e6097ceb","ios":"levelo://app?vid=8f9b57a5-8979-4eb6-ad87-a113e6097ceb"},"vehicle_type_id":"4","last_reported":1715360777,"current_range_meters":0,"station_id":"ce4bguh2rcd13ifvqcj0","pricing_plan_id":"cebpf4jnsgd1na2vs0mg"},{"bike_id":"d5e5f7e3-b72c-49d9-bd5e-c7840eb049c7","system_id":"levelo_inurba_marseille","lat":43.3199,"lon":5.38162,"is_reserved":false,"is_disabled":false,"rental_uris":{"android":"levelo://app?vid=d5e5f7e3-b72c-49d9-bd5e-c7840eb049c7","ios":"levelo://app?vid=d5e5f7e3-b72c-49d9-bd5e-c7840eb049c7"},"vehicle_type_id":"4","last_reported":1715360777,"current_range_meters":7600,"station_id":"ce4bhr12rcd13ifvqhpg","pricing_plan_id":"cebpf4jnsgd1na2vs0mg"},{"bike_id":"9f9c37c9-fba2-430e-9680-de5a57004276","system_id":"levelo_inurba_marseille","lat":43.30631,"lon":5.38259,"is_reserved":false,"is_disabled":false,"rental_uris":{"android":"levelo://app?vid=9f9c37c9-fba2-430e-9680-de5a57004276","ios":"levelo://app?vid=9f9c37c9-fba2-430e-9680-de5a57004276"},"vehicle_type_id":"4","last_reported":1715360777,"current_range_meters":23600,"station_id":"","pricing_plan_id":"cebpf4jnsgd1na2vs0mg"},{"bike_id":"d334a706-a25b-4555-8bdd-5a949467df7c","system_id":"levelo_inurba_marseille","lat":43.31362,"lon":5.38494,"is_reserved":false,"is_disabled":false,"rental_uris":{"android":"levelo://app?vid=d334a706-a25b-4555-8bdd-5a949467df7c","ios":"levelo://app?vid=d334a706-a25b-4555-8bdd-5a949467df7c"},"vehicle_type_id":"4","last_reported":1715360777,"current_range_meters":0,"station_id":"ce4bgt92rcd13ifvqcf0","pricing_plan_id":"cebpf4jnsgd1na2vs0mg"},{"bike_id":"40e96fe2-f56a-46d0-a6c8-5f531d265c9e","system_id":"levelo_inurba_marseille","lat":43.313472,"lon":5.385275,"is_reserved":false,"is_disabled":false,"rental_uris":{"android":"levelo://app?vid=40e96fe2-f56a-46d0-a6c8-5f531d265c9e","ios":"levelo://app?vid=40e96fe2-f56a-46d0-a6c8-5f531d265c9e"},"vehicle_type_id":"4","last_reported":1715360777,"current_range_meters":0,"station_id":"ce4bgt92rcd13ifvqcf0","pricing_plan_id":"cebpf4jnsgd1na2vs0mg"},{"bike_id":"9acbed58-8007-40af-9578-eb701a7ad2e6","system_id":"levelo_inurba_marseille","lat":43.299222,"lon":5.365554,"is_reserved":false,"is_disabled":false,"rental_uris":{"android":"levelo://app?vid=9acbed58-8007-40af-9578-eb701a7ad2e6","ios":"levelo://app?vid=9acbed58-8007-40af-9578-eb701a7ad2e6"},"vehicle_type_id":"4","last_reported":1715360777,"current_range_meters":0,"station_id":"ce4bgm92rcd13ifvqbr0","pricing_plan_id":"cebpf4jnsgd1na2vs0mg"},{"bike_id":"76f2228f-ef17-4c38-968c-cfe9d959cbd5","system_id":"levelo_inurba_marseille","lat":43.29979,"lon":5.37191,"is_reserved":false,"is_disabled":false,"rental_uris":{"android":"levelo://app?vid=76f2228f-ef17-4c38-968c-cfe9d959cbd5","ios":"levelo://app?vid=76f2228f-ef17-4c38-968c-cfe9d959cbd5"},"vehicle_type_id":"4","last_reported":1715360777,"current_range_meters":0,"station_id":"ce4bgr92rcd13ifvqc7g","pricing_plan_id":"cebpf4jnsgd1na2vs0mg"},{"bike_id":"46eb7fa9-bb2d-4e2a-8ddc-382298b5b44f","system_id":"levelo_inurba_marseille","lat":43.299724,"lon":5.371829,"is_reserved":false,"is_disabled":false,"rental_uris":{"android":"levelo://app?vid=46eb7fa9-bb2d-4e2a-8ddc-382298b5b44f","ios":"levelo://app?vid=46eb7fa9-bb2d-4e2a-8ddc-382298b5b44f"},"vehicle_type_id":"4","last_reported":1715360777,"current_range_meters":0,"station_id":"ce4bgr92rcd13ifvqc7g","pricing_plan_id":"cebpf4jnsgd1na2vs0mg"},{"bike_id":"ab977594-ce80-4442-81ea-f7a8ebe89f9f","system_id":"levelo_inurba_marseille","lat":43.305364,"lon":5.384119,"is_reserved":false,"is_disabled":false,"rental_uris":{"android":"levelo://app?vid=ab977594-ce80-4442-81ea-f7a8ebe89f9f","ios":"levelo://app?vid=ab977594-ce80-4442-81ea-f7a8ebe89f9f"},"vehicle_type_id":"4","last_reported":1715360777,"current_range_meters":27200,"station_id":"ce4bgg92rcd13ifvqb30","pricing_plan_id":"cebpf4jnsgd1na2vs0mg"},{"bike_id":"9f555a5a-34be-4d1f-8516-90b307682187","system_id":"levelo_inurba_marseille","lat":43.305364,"lon":5.384119,"is_reserved":false,"is_disabled":false,"rental_uris":{"android":"levelo://app?vid=9f555a5a-34be-4d1f-8516-90b307682187","ios":"levelo://app?vid=9f555a5a-34be-4d1f-8516-90b307682187"},"vehicle_type_id":"4","last_reported":1715360777,"current_range_meters":20400,"station_id":"ce4bgg92rcd13ifvqb30","pricing_plan_id":"cebpf4jnsgd1na2vs0mg"},{"bike_id":"274662c2-084b-4f50-aeac-408e331da5a7","system_id":"levelo_inurba_marseille","lat":43.305364,"lon":5.384119,"is_reserved":false,"is_disabled":false,"rental_uris":{"android":"levelo://app?vid=274662c2-084b-4f50-aeac-408e331da5a7","ios":"levelo://app?vid=274662c2-084b-4f50-aeac-408e331da5a7"},"vehicle_type_id":"4","last_reported":1715360777,"current_range_meters":27600,"station_id":"ce4bgg92rcd13ifvqb30","pricing_plan_id":"cebpf4jnsgd1na2vs0mg"},{"bike_id":"fde6a55a-d000-4db7-9acd-79aba8706d9e","system_id":"levelo_inurba_marseille","lat":43.298433,"lon":5.362774,"is_reserved":false,"is_disabled":false,"rental_uris":{"android":"levelo://app?vid=fde6a55a-d000-4db7-9acd-79aba8706d9e","ios":"levelo://app?vid=fde6a55a-d000-4db7-9acd-79aba8706d9e"},"vehicle_type_id":"4","last_reported":1715360777,"current_range_meters":11200,"station_id":"ce4bgpp2rcd13ifvqc3g","pricing_plan_id":"cebpf4jnsgd1na2vs0mg"},{"bike_id":"edcd1f17-cc6e-4de5-9156-a222bc7ff0a9","system_id":"levelo_inurba_marseille","lat":43.298433,"lon":5.362774,"is_reserved":false,"is_disabled":false,"rental_uris":{"android":"levelo://app?vid=edcd1f17-cc6e-4de5-9156-a222bc7ff0a9","ios":"levelo://app?vid=edcd1f17-cc6e-4de5-9156-a222bc7ff0a9"},"vehicle_type_id":"4","last_reported":1715360777,"current_range_meters":0,"station_id":"ce4bgpp2rcd13ifvqc3g","pricing_plan_id":"cebpf4jnsgd1na2vs0mg"},{"bike_id":"29c7a5c2-21ae-4c44-8a22-32bfc3cd580a","system_id":"levelo_inurba_marseille","lat":43.311722,"lon":5.387247,"is_reserved":false,"is_disabled":false,"rental_uris":{"android":"levelo://app?vid=29c7a5c2-21ae-4c44-8a22-32bfc3cd580a","ios":"levelo://app?vid=29c7a5c2-21ae-4c44-8a22-32bfc3cd580a"},"vehicle_type_id":"4","last_reported":1715360777,"current_range_meters":1600,"station_id":"ce4bgv12rcd13ifvqcp0","pricing_plan_id":"cebpf4jnsgd1na2vs0mg"},{"bike_id":"6b80be42-b571-491a-9f4d-f3fcfe47d3cf","system_id":"levelo_inurba_marseille","lat":43.297794,"lon":5.370888,"is_reserved":false,"is_disabled":false,"rental_uris":{"android":"levelo://app?vid=6b80be42-b571-491a-9f4d-f3fcfe47d3cf","ios":"levelo://app?vid=6b80be42-b571-491a-9f4d-f3fcfe47d3cf"},"vehicle_type_id":"4","last_reported":1715360777,"current_range_meters":22000,"station_id":"ce4bgop2rcd13ifvqc1g","pricing_plan_id":"cebpf4jnsgd1na2vs0mg"},{"bike_id":"39cbf518-eb22-435e-a656-cd1395e5ea57","system_id":"levelo_inurba_marseille","lat":43.322872,"lon":5.382756,"is_reserved":false,"is_disabled":false,"rental_uris":{"android":"levelo://app?vid=39cbf518-eb22-435e-a656-cd1395e5ea57","ios":"levelo://app?vid=39cbf518-eb22-435e-a656-cd1395e5ea57"},"vehicle_type_id":"4","last_reported":1715360777,"current_range_meters":7200,"station_id":"ce4bhr12rcd13ifvqhqg","pricing_plan_id":"cebpf4jnsgd1na2vs0mg"},{"bike_id":"1e58ad80-b0b9-4a24-ad96-67336e306f62","system_id":"levelo_inurba_marseille","lat":43.297794,"lon":5.370888,"is_reserved":false,"is_disabled":false,"rental_uris":{"android":"levelo://app?vid=1e58ad80-b0b9-4a24-ad96-67336e306f62","ios":"levelo://app?vid=1e58ad80-b0b9-4a24-ad96-67336e306f62"},"vehicle_type_id":"4","last_reported":1715360777,"current_range_meters":9200,"station_id":"ce4bgop2rcd13ifvqc1g","pricing_plan_id":"cebpf4jnsgd1na2vs0mg"},{"bike_id":"c2c3238e-6176-4fe2-bdf0-3a9f0a640118","system_id":"levelo_inurba_marseille","lat":43.296962,"lon":5.367756,"is_reserved":false,"is_disabled":false,"rental_uris":{"android":"levelo://app?vid=c2c3238e-6176-4fe2-bdf0-3a9f0a640118","ios":"levelo://app?vid=c2c3238e-6176-4fe2-bdf0-3a9f0a640118"},"vehicle_type_id":"4","last_reported":1715360777,"current_range_meters":2800,"station_id":"","pricing_plan_id":"cebpf4jnsgd1na2vs0mg"},{"bike_id":"44924e83-bd57-42b7-969b-3c8fa2c8d13d","system_id":"levelo_inurba_marseille","lat":43.2968,"lon":5.37291,"is_reserved":false,"is_disabled":false,"rental_uris":{"android":"levelo://app?vid=44924e83-bd57-42b7-969b-3c8fa2c8d13d","ios":"levelo://app?vid=44924e83-bd57-42b7-969b-3c8fa2c8d13d"},"vehicle_type_id":"4","last_reported":1715360777,"current_range_meters":2000,"station_id":"ce4bgk12rcd13ifvqbj0","pricing_plan_id":"cebpf4jnsgd1na2vs0mg"},{"bike_id":"c43300f0-e08a-48f6-bbdd-9686ae4419b0","system_id":"levelo_inurba_marseille","lat":43.296129,"lon":5.370777,"is_reserved":false,"is_disabled":false,"rental_uris":{"android":"levelo://app?vid=c43300f0-e08a-48f6-bbdd-9686ae4419b0","ios":"levelo://app?vid=c43300f0-e08a-48f6-bbdd-9686ae4419b0"},"vehicle_type_id":"4","last_reported":1715360777,"current_range_meters":0,"station_id":"ce4bgnh2rcd13ifvqc0g","pricing_plan_id":"cebpf4jnsgd1na2vs0mg"},{"bike_id":"368f7388-a8b5-42df-871f-f9c843358288","system_id":"levelo_inurba_marseille","lat":43.29914,"lon":5.38138,"is_reserved":false,"is_disabled":false,"rental_uris":{"android":"levelo://app?vid=368f7388-a8b5-42df-871f-f9c843358288","ios":"levelo://app?vid=368f7388-a8b5-42df-871f-f9c843358288"},"vehicle_type_id":"4","last_reported":1715360777,"current_range_meters":9200,"station_id":"ce4bgj12rcd13ifvqbc0","pricing_plan_id":"cebpf4jnsgd1na2vs0mg"},{"bike_id":"3abf96d9-6e1d-4dc6-ac65-c9bb62e20fae","system_id":"levelo_inurba_marseille","lat":43.299028,"lon":5.381509,"is_reserved":false,"is_disabled":false,"rental_uris":{"android":"levelo://app?vid=3abf96d9-6e1d-4dc6-ac65-c9bb62e20fae","ios":"levelo://app?vid=3abf96d9-6e1d-4dc6-ac65-c9bb62e20fae"},"vehicle_type_id":"4","last_reported":1715360777,"current_range_meters":0,"station_id":"ce4bgj12rcd13ifvqbc0","pricing_plan_id":"cebpf4jnsgd1na2vs0mg"},{"bike_id":"c69500b3-9c8b-49b6-918f-abbc8a271da9","system_id":"levelo_inurba_marseille","lat":43.299028,"lon":5.381509,"is_reserved":false,"is_disabled":false,"rental_uris":{"android":"levelo://app?vid=c69500b3-9c8b-49b6-918f-abbc8a271da9","ios":"levelo://app?vid=c69500b3-9c8b-49b6-918f-abbc8a271da9"},"vehicle_type_id":"4","last_reported":1715360777,"current_range_meters":30800,"station_id":"ce4bgj12rcd13ifvqbc0","pricing_plan_id":"cebpf4jnsgd1na2vs0mg"},{"bike_id":"a1032f65-409d-44be-b835-05d297d4c832","system_id":"levelo_inurba_marseille","lat":43.298748,"lon":5.381183,"is_reserved":false,"is_disabled":false,"rental_uris":{"android":"levelo://app?vid=a1032f65-409d-44be-b835-05d297d4c832","ios":"levelo://app?vid=a1032f65-409d-44be-b835-05d297d4c832"},"vehicle_type_id":"4","last_reported":1715360777,"current_range_meters":0,"station_id":"ce4bgj12rcd13ifvqbc0","pricing_plan_id":"cebpf4jnsgd1na2vs0mg"},{"bike_id":"5f9c2a1b-30dc-4297-af0a-de573bfc5bb7","system_id":"levelo_inurba_marseille","lat":43.317557,"lon":5.390173,"is_reserved":false,"is_disabled":false,"rental_uris":{"android":"levelo://app?vid=5f9c2a1b-30dc-4297-af0a-de573bfc5bb7","ios":"levelo://app?vid=5f9c2a1b-30dc-4297-af0a-de573bfc5bb7"},"vehicle_type_id":"4","last_reported":1715360777,"current_range_meters":2800,"station_id":"ce4bhqp2rcd13ifvqhng","pricing_plan_id":"cebpf4jnsgd1na2vs0mg"},{"bike_id":"b03920ab-6364-4337-abc7-b323cc981599","system_id":"levelo_inurba_marseille","lat":43.317557,"lon":5.390173,"is_reserved":false,"is_disabled":false,"rental_uris":{"android":"levelo://app?vid=b03920ab-6364-4337-abc7-b323cc981599","ios":"levelo://app?vid=b03920ab-6364-4337-abc7-b323cc981599"},"vehicle_type_id":"4","last_reported":1715360777,"current_range_meters":9200,"station_id":"ce4bhqp2rcd13ifvqhng","pricing_plan_id":"cebpf4jnsgd1na2vs0mg"},{"bike_id":"f7253777-5958-4885-9ff2-299e2affdfb1","system_id":"levelo_inurba_marseille","lat":43.298037,"lon":5.381066,"is_reserved":false,"is_disabled":false,"rental_uris":{"android":"levelo://app?vid=f7253777-5958-4885-9ff2-299e2affdfb1","ios":"levelo://app?vid=f7253777-5958-4885-9ff2-299e2affdfb1"},"vehicle_type_id":"4","last_reported":1715360777,"current_range_meters":16800,"station_id":"ce4bgip2rcd13ifvqbb0","pricing_plan_id":"cebpf4jnsgd1na2vs0mg"},{"bike_id":"8d98b816-5c8d-4242-a3d1-8bc1af91f295","system_id":"levelo_inurba_marseille","lat":43.298037,"lon":5.381066,"is_reserved":false,"is_disabled":false,"rental_uris":{"android":"levelo://app?vid=8d98b816-5c8d-4242-a3d1-8bc1af91f295","ios":"levelo://app?vid=8d98b816-5c8d-4242-a3d1-8bc1af91f295"},"vehicle_type_id":"4","last_reported":1715360777,"current_range_meters":1200,"station_id":"ce4bgip2rcd13ifvqbb0","pricing_plan_id":"cebpf4jnsgd1na2vs0mg"},{"bike_id":"c623b989-8937-4e9e-a6d6-a68fc38c144b","system_id":"levelo_inurba_marseille","lat":43.298037,"lon":5.381066,"is_reserved":false,"is_disabled":false,"rental_uris":{"android":"levelo://app?vid=c623b989-8937-4e9e-a6d6-a68fc38c144b","ios":"levelo://app?vid=c623b989-8937-4e9e-a6d6-a68fc38c144b"},"vehicle_type_id":"4","last_reported":1715360777,"current_range_meters":0,"station_id":"ce4bgip2rcd13ifvqbb0","pricing_plan_id":"cebpf4jnsgd1na2vs0mg"},{"bike_id":"65c0cad1-b38c-48eb-a2ac-5bd4428bedae","system_id":"levelo_inurba_marseille","lat":43.298037,"lon":5.381066,"is_reserved":false,"is_disabled":false,"rental_uris":{"android":"levelo://app?vid=65c0cad1-b38c-48eb-a2ac-5bd4428bedae","ios":"levelo://app?vid=65c0cad1-b38c-48eb-a2ac-5bd4428bedae"},"vehicle_type_id":"4","last_reported":1715360777,"current_range_meters":13600,"station_id":"ce4bgip2rcd13ifvqbb0","pricing_plan_id":"cebpf4jnsgd1na2vs0mg"},{"bike_id":"8ad6a434-052b-4cb7-a08c-4a4373ec7ef2","system_id":"levelo_inurba_marseille","lat":43.298037,"lon":5.381066,"is_reserved":false,"is_disabled":false,"rental_uris":{"android":"levelo://app?vid=8ad6a434-052b-4cb7-a08c-4a4373ec7ef2","ios":"levelo://app?vid=8ad6a434-052b-4cb7-a08c-4a4373ec7ef2"},"vehicle_type_id":"4","last_reported":1715360777,"current_range_meters":16000,"station_id":"ce4bgip2rcd13ifvqbb0","pricing_plan_id":"cebpf4jnsgd1na2vs0mg"},{"bike_id":"405e60fe-76f8-4a3a-9e51-b2eafeaddca9","system_id":"levelo_inurba_marseille","lat":43.29901,"lon":5.38301,"is_reserved":false,"is_disabled":false,"rental_uris":{"android":"levelo://app?vid=405e60fe-76f8-4a3a-9e51-b2eafeaddca9","ios":"levelo://app?vid=405e60fe-76f8-4a3a-9e51-b2eafeaddca9"},"vehicle_type_id":"4","last_reported":1715360777,"current_range_meters":14800,"station_id":"","pricing_plan_id":"cebpf4jnsgd1na2vs0mg"},{"bike_id":"93741868-d6b6-447d-9602-38b3460d4d49","system_id":"levelo_inurba_marseille","lat":43.304274,"lon":5.388873,"is_reserved":false,"is_disabled":false,"rental_uris":{"android":"levelo://app?vid=93741868-d6b6-447d-9602-38b3460d4d49","ios":"levelo://app?vid=93741868-d6b6-447d-9602-38b3460d4d49"},"vehicle_type_id":"4","last_reported":1715360777,"current_range_meters":0,"station_id":"ce4bgk12rcd13ifvqbi0","pricing_plan_id":"cebpf4jnsgd1na2vs0mg"},{"bike_id":"36100467-4f2a-454d-80f9-08711d475704","system_id":"levelo_inurba_marseille","lat":43.295748,"lon":5.37522,"is_reserved":false,"is_disabled":false,"rental_uris":{"android":"levelo://app?vid=36100467-4f2a-454d-80f9-08711d475704","ios":"levelo://app?vid=36100467-4f2a-454d-80f9-08711d475704"},"vehicle_type_id":"4","last_reported":1715360777,"current_range_meters":0,"station_id":"ce4bgh92rcd13ifvqb50","pricing_plan_id":"cebpf4jnsgd1na2vs0mg"},{"bike_id":"4521dcbf-e6cd-4ad8-a796-03c73dcb17e8","system_id":"levelo_inurba_marseille","lat":43.304278,"lon":5.388868,"is_reserved":false,"is_disabled":false,"rental_uris":{"android":"levelo://app?vid=4521dcbf-e6cd-4ad8-a796-03c73dcb17e8","ios":"levelo://app?vid=4521dcbf-e6cd-4ad8-a796-03c73dcb17e8"},"vehicle_type_id":"4","last_reported":1715360777,"current_range_meters":18800,"station_id":"ce4bgk12rcd13ifvqbi0","pricing_plan_id":"cebpf4jnsgd1na2vs0mg"},{"bike_id":"51e607c9-1c55-44d6-91df-21acf39af3d2","system_id":"levelo_inurba_marseille","lat":43.2979,"lon":5.38121,"is_reserved":false,"is_disabled":false,"rental_uris":{"android":"levelo://app?vid=51e607c9-1c55-44d6-91df-21acf39af3d2","ios":"levelo://app?vid=51e607c9-1c55-44d6-91df-21acf39af3d2"},"vehicle_type_id":"4","last_reported":1715360777,"current_range_meters":0,"station_id":"ce4bgip2rcd13ifvqbb0","pricing_plan_id":"cebpf4jnsgd1na2vs0mg"},{"bike_id":"e910e21d-30a5-48f1-af34-da8ff413d621","system_id":"levelo_inurba_marseille","lat":43.2962,"lon":5.37715,"is_reserved":false,"is_disabled":false,"rental_uris":{"android":"levelo://app?vid=e910e21d-30a5-48f1-af34-da8ff413d621","ios":"levelo://app?vid=e910e21d-30a5-48f1-af34-da8ff413d621"},"vehicle_type_id":"4","last_reported":1715360777,"current_range_meters":0,"station_id":"","pricing_plan_id":"cebpf4jnsgd1na2vs0mg"},{"bike_id":"5b067d3d-a736-4299-8a15-aa2f897a8769","system_id":"levelo_inurba_marseille","lat":43.296277,"lon":5.377108,"is_reserved":false,"is_disabled":false,"rental_uris":{"android":"levelo://app?vid=5b067d3d-a736-4299-8a15-aa2f897a8769","ios":"levelo://app?vid=5b067d3d-a736-4299-8a15-aa2f897a8769"},"vehicle_type_id":"4","last_reported":1715360777,"current_range_meters":0,"station_id":"ce4bgi92rcd13ifvqb90","pricing_plan_id":"cebpf4jnsgd1na2vs0mg"},{"bike_id":"e3194c47-460a-4950-aab1-56c91dfc36a4","system_id":"levelo_inurba_marseille","lat":43.298037,"lon":5.381066,"is_reserved":false,"is_disabled":false,"rental_uris":{"android":"levelo://app?vid=e3194c47-460a-4950-aab1-56c91dfc36a4","ios":"levelo://app?vid=e3194c47-460a-4950-aab1-56c91dfc36a4"},"vehicle_type_id":"4","last_reported":1715360777,"current_range_meters":0,"station_id":"ce4bgip2rcd13ifvqbb0","pricing_plan_id":"cebpf4jnsgd1na2vs0mg"},{"bike_id":"9f94824e-45cc-4774-b0de-08bf014a74ab","system_id":"levelo_inurba_marseille","lat":43.298037,"lon":5.381066,"is_reserved":false,"is_disabled":false,"rental_uris":{"android":"levelo://app?vid=9f94824e-45cc-4774-b0de-08bf014a74ab","ios":"levelo://app?vid=9f94824e-45cc-4774-b0de-08bf014a74ab"},"vehicle_type_id":"4","last_reported":1715360777,"current_range_meters":0,"station_id":"ce4bgip2rcd13ifvqbb0","pricing_plan_id":"cebpf4jnsgd1na2vs0mg"},{"bike_id":"bbf031bc-a3ee-4e76-beb7-1b69085e14f3","system_id":"levelo_inurba_marseille","lat":43.296263,"lon":5.377094,"is_reserved":false,"is_disabled":false,"rental_uris":{"android":"levelo://app?vid=bbf031bc-a3ee-4e76-beb7-1b69085e14f3","ios":"levelo://app?vid=bbf031bc-a3ee-4e76-beb7-1b69085e14f3"},"vehicle_type_id":"4","last_reported":1715360777,"current_range_meters":12000,"station_id":"ce4bgi92rcd13ifvqb90","pricing_plan_id":"cebpf4jnsgd1na2vs0mg"},{"bike_id":"3331c93f-df7e-4750-b7e7-e3b22a64df78","system_id":"levelo_inurba_marseille","lat":43.296277,"lon":5.377108,"is_reserved":false,"is_disabled":false,"rental_uris":{"android":"levelo://app?vid=3331c93f-df7e-4750-b7e7-e3b22a64df78","ios":"levelo://app?vid=3331c93f-df7e-4750-b7e7-e3b22a64df78"},"vehicle_type_id":"4","last_reported":1715360777,"current_range_meters":2000,"station_id":"ce4bgi92rcd13ifvqb90","pricing_plan_id":"cebpf4jnsgd1na2vs0mg"},{"bike_id":"f58d6cc1-8e3b-4e96-9c49-5f1fd0c85239","system_id":"levelo_inurba_marseille","lat":43.299724,"lon":5.384848,"is_reserved":false,"is_disabled":false,"rental_uris":{"android":"levelo://app?vid=f58d6cc1-8e3b-4e96-9c49-5f1fd0c85239","ios":"levelo://app?vid=f58d6cc1-8e3b-4e96-9c49-5f1fd0c85239"},"vehicle_type_id":"4","last_reported":1715360777,"current_range_meters":0,"station_id":"ce4bgj92rcd13ifvqbd0","pricing_plan_id":"cebpf4jnsgd1na2vs0mg"},{"bike_id":"048bf066-2df2-466a-be33-82fead1d280e","system_id":"levelo_inurba_marseille","lat":43.299707,"lon":5.384859,"is_reserved":false,"is_disabled":false,"rental_uris":{"android":"levelo://app?vid=048bf066-2df2-466a-be33-82fead1d280e","ios":"levelo://app?vid=048bf066-2df2-466a-be33-82fead1d280e"},"vehicle_type_id":"4","last_reported":1715360777,"current_range_meters":0,"station_id":"ce4bgj92rcd13ifvqbd0","pricing_plan_id":"cebpf4jnsgd1na2vs0mg"},{"bike_id":"f8e3ff2a-6f9d-4dfa-a5e9-d3852f1581c9","system_id":"levelo_inurba_marseille","lat":43.295279,"lon":5.375048,"is_reserved":false,"is_disabled":false,"rental_uris":{"android":"levelo://app?vid=f8e3ff2a-6f9d-4dfa-a5e9-d3852f1581c9","ios":"levelo://app?vid=f8e3ff2a-6f9d-4dfa-a5e9-d3852f1581c9"},"vehicle_type_id":"4","last_reported":1715360777,"current_range_meters":400,"station_id":"ce4bgkp2rcd13ifvqbmg","pricing_plan_id":"cebpf4jnsgd1na2vs0mg"},{"bike_id":"e28e6f5c-f031-43de-a0af-87a9f6644e8f","system_id":"levelo_inurba_marseille","lat":43.299717,"lon":5.384845,"is_reserved":false,"is_disabled":false,"rental_uris":{"android":"levelo://app?vid=e28e6f5c-f031-43de-a0af-87a9f6644e8f","ios":"levelo://app?vid=e28e6f5c-f031-43de-a0af-87a9f6644e8f"},"vehicle_type_id":"4","last_reported":1715360777,"current_range_meters":400,"station_id":"ce4bgj92rcd13ifvqbd0","pricing_plan_id":"cebpf4jnsgd1na2vs0mg"},{"bike_id":"5f97ba58-ee61-4e37-803b-f389d87cef00","system_id":"levelo_inurba_marseille","lat":43.29965,"lon":5.385,"is_reserved":false,"is_disabled":false,"rental_uris":{"android":"levelo://app?vid=5f97ba58-ee61-4e37-803b-f389d87cef00","ios":"levelo://app?vid=5f97ba58-ee61-4e37-803b-f389d87cef00"},"vehicle_type_id":"4","last_reported":1715360777,"current_range_meters":0,"station_id":"ce4bgj92rcd13ifvqbd0","pricing_plan_id":"cebpf4jnsgd1na2vs0mg"},{"bike_id":"bf9ce777-1b8f-403f-85f6-58d9d5c32dca","system_id":"levelo_inurba_marseille","lat":43.299724,"lon":5.384848,"is_reserved":false,"is_disabled":false,"rental_uris":{"android":"levelo://app?vid=bf9ce777-1b8f-403f-85f6-58d9d5c32dca","ios":"levelo://app?vid=bf9ce777-1b8f-403f-85f6-58d9d5c32dca"},"vehicle_type_id":"4","last_reported":1715360777,"current_range_meters":0,"station_id":"ce4bgj92rcd13ifvqbd0","pricing_plan_id":"cebpf4jnsgd1na2vs0mg"},{"bike_id":"8d51a2ba-528b-45f2-9b46-f407928b26f4","system_id":"levelo_inurba_marseille","lat":43.299422,"lon":5.385433,"is_reserved":false,"is_disabled":false,"rental_uris":{"android":"levelo://app?vid=8d51a2ba-528b-45f2-9b46-f407928b26f4","ios":"levelo://app?vid=8d51a2ba-528b-45f2-9b46-f407928b26f4"},"vehicle_type_id":"4","last_reported":1715360777,"current_range_meters":0,"station_id":"ce4bgj92rcd13ifvqbd0","pricing_plan_id":"cebpf4jnsgd1na2vs0mg"},{"bike_id":"3e273561-2d6b-41aa-b9a6-1a1c4446e0dd","system_id":"levelo_inurba_marseille","lat":43.29487,"lon":5.3758,"is_reserved":false,"is_disabled":false,"rental_uris":{"android":"levelo://app?vid=3e273561-2d6b-41aa-b9a6-1a1c4446e0dd","ios":"levelo://app?vid=3e273561-2d6b-41aa-b9a6-1a1c4446e0dd"},"vehicle_type_id":"4","last_reported":1715360777,"current_range_meters":22800,"station_id":"","pricing_plan_id":"cebpf4jnsgd1na2vs0mg"},{"bike_id":"58332736-342d-45f4-95a8-fa62e7501018","system_id":"levelo_inurba_marseille","lat":43.32367,"lon":5.388836,"is_reserved":false,"is_disabled":false,"rental_uris":{"android":"levelo://app?vid=58332736-342d-45f4-95a8-fa62e7501018","ios":"levelo://app?vid=58332736-342d-45f4-95a8-fa62e7501018"},"vehicle_type_id":"4","last_reported":1715360777,"current_range_meters":6800,"station_id":"ce4bhqp2rcd13ifvqhog","pricing_plan_id":"cebpf4jnsgd1na2vs0mg"},{"bike_id":"ebf21933-c4a8-4725-87d3-9aca1571d6bd","system_id":"levelo_inurba_marseille","lat":43.32367,"lon":5.388836,"is_reserved":false,"is_disabled":false,"rental_uris":{"android":"levelo://app?vid=ebf21933-c4a8-4725-87d3-9aca1571d6bd","ios":"levelo://app?vid=ebf21933-c4a8-4725-87d3-9aca1571d6bd"},"vehicle_type_id":"4","last_reported":1715360777,"current_range_meters":10000,"station_id":"ce4bhqp2rcd13ifvqhog","pricing_plan_id":"cebpf4jnsgd1na2vs0mg"},{"bike_id":"37b69f55-639d-4032-b81d-34fbb53db95c","system_id":"levelo_inurba_marseille","lat":43.32367,"lon":5.388836,"is_reserved":false,"is_disabled":false,"rental_uris":{"android":"levelo://app?vid=37b69f55-639d-4032-b81d-34fbb53db95c","ios":"levelo://app?vid=37b69f55-639d-4032-b81d-34fbb53db95c"},"vehicle_type_id":"4","last_reported":1715360777,"current_range_meters":0,"station_id":"ce4bhqp2rcd13ifvqhog","pricing_plan_id":"cebpf4jnsgd1na2vs0mg"},{"bike_id":"42899321-4ffa-4a3f-99d8-2b8fb7f102ab","system_id":"levelo_inurba_marseille","lat":43.2961,"lon":5.38102,"is_reserved":false,"is_disabled":false,"rental_uris":{"android":"levelo://app?vid=42899321-4ffa-4a3f-99d8-2b8fb7f102ab","ios":"levelo://app?vid=42899321-4ffa-4a3f-99d8-2b8fb7f102ab"},"vehicle_type_id":"4","last_reported":1715360777,"current_range_meters":7600,"station_id":"ce4bgl12rcd13ifvqbo0","pricing_plan_id":"cebpf4jnsgd1na2vs0mg"},{"bike_id":"785103e6-ad30-446d-8b97-19d7415aad65","system_id":"levelo_inurba_marseille","lat":43.296064,"lon":5.381154,"is_reserved":false,"is_disabled":false,"rental_uris":{"android":"levelo://app?vid=785103e6-ad30-446d-8b97-19d7415aad65","ios":"levelo://app?vid=785103e6-ad30-446d-8b97-19d7415aad65"},"vehicle_type_id":"4","last_reported":1715360777,"current_range_meters":6400,"station_id":"ce4bgl12rcd13ifvqbo0","pricing_plan_id":"cebpf4jnsgd1na2vs0mg"},{"bike_id":"6a19b9c5-befe-4abe-821b-614d59b104c4","system_id":"levelo_inurba_marseille","lat":43.29597,"lon":5.38099,"is_reserved":false,"is_disabled":false,"rental_uris":{"android":"levelo://app?vid=6a19b9c5-befe-4abe-821b-614d59b104c4","ios":"levelo://app?vid=6a19b9c5-befe-4abe-821b-614d59b104c4"},"vehicle_type_id":"4","last_reported":1715360777,"current_range_meters":8000,"station_id":"ce4bgl12rcd13ifvqbo0","pricing_plan_id":"cebpf4jnsgd1na2vs0mg"},{"bike_id":"dd772fab-50f5-428e-bd03-a9e89764510b","system_id":"levelo_inurba_marseille","lat":43.292749,"lon":5.368402,"is_reserved":false,"is_disabled":false,"rental_uris":{"android":"levelo://app?vid=dd772fab-50f5-428e-bd03-a9e89764510b","ios":"levelo://app?vid=dd772fab-50f5-428e-bd03-a9e89764510b"},"vehicle_type_id":"4","last_reported":1715360777,"current_range_meters":10800,"station_id":"ce4bhbp2rcd13ifvqesg","pricing_plan_id":"cebpf4jnsgd1na2vs0mg"},{"bike_id":"84bd1c8c-aa59-4341-ba0e-e24e017e23e4","system_id":"levelo_inurba_marseille","lat":43.293259,"lon":5.371586,"is_reserved":false,"is_disabled":false,"rental_uris":{"android":"levelo://app?vid=84bd1c8c-aa59-4341-ba0e-e24e017e23e4","ios":"levelo://app?vid=84bd1c8c-aa59-4341-ba0e-e24e017e23e4"},"vehicle_type_id":"4","last_reported":1715360777,"current_range_meters":0,"station_id":"ce4bgh92rcd13ifvqb40","pricing_plan_id":"cebpf4jnsgd1na2vs0mg"},{"bike_id":"8a90e7e5-529d-4d1f-bed3-95ae58122de4","system_id":"levelo_inurba_marseille","lat":43.293259,"lon":5.371586,"is_reserved":false,"is_disabled":false,"rental_uris":{"android":"levelo://app?vid=8a90e7e5-529d-4d1f-bed3-95ae58122de4","ios":"levelo://app?vid=8a90e7e5-529d-4d1f-bed3-95ae58122de4"},"vehicle_type_id":"4","last_reported":1715360777,"current_range_meters":0,"station_id":"ce4bgh92rcd13ifvqb40","pricing_plan_id":"cebpf4jnsgd1na2vs0mg"},{"bike_id":"aef0ae3f-bf00-4a17-9aef-a87620ea0ded","system_id":"levelo_inurba_marseille","lat":43.29306,"lon":5.37433,"is_reserved":false,"is_disabled":false,"rental_uris":{"android":"levelo://app?vid=aef0ae3f-bf00-4a17-9aef-a87620ea0ded","ios":"levelo://app?vid=aef0ae3f-bf00-4a17-9aef-a87620ea0ded"},"vehicle_type_id":"4","last_reported":1715360777,"current_range_meters":0,"station_id":"ce4bgi12rcd13ifvqb70","pricing_plan_id":"cebpf4jnsgd1na2vs0mg"},{"bike_id":"5fd8e73c-15c0-45b6-b601-c52537a00f28","system_id":"levelo_inurba_marseille","lat":43.29297,"lon":5.3746,"is_reserved":false,"is_disabled":false,"rental_uris":{"android":"levelo://app?vid=5fd8e73c-15c0-45b6-b601-c52537a00f28","ios":"levelo://app?vid=5fd8e73c-15c0-45b6-b601-c52537a00f28"},"vehicle_type_id":"4","last_reported":1715360777,"current_range_meters":800,"station_id":"ce4bgi12rcd13ifvqb70","pricing_plan_id":"cebpf4jnsgd1na2vs0mg"},{"bike_id":"30b79b98-0b70-44f2-a413-87c1659a3ee7","system_id":"levelo_inurba_marseille","lat":43.30299,"lon":5.392,"is_reserved":false,"is_disabled":false,"rental_uris":{"android":"levelo://app?vid=30b79b98-0b70-44f2-a413-87c1659a3ee7","ios":"levelo://app?vid=30b79b98-0b70-44f2-a413-87c1659a3ee7"},"vehicle_type_id":"4","last_reported":1715360777,"current_range_meters":0,"station_id":"ce4bgkh2rcd13ifvqbk0","pricing_plan_id":"cebpf4jnsgd1na2vs0mg"},{"bike_id":"2e7dd592-fdc2-48e7-971f-59310a46821b","system_id":"levelo_inurba_marseille","lat":43.303002,"lon":5.392142,"is_reserved":false,"is_disabled":false,"rental_uris":{"android":"levelo://app?vid=2e7dd592-fdc2-48e7-971f-59310a46821b","ios":"levelo://app?vid=2e7dd592-fdc2-48e7-971f-59310a46821b"},"vehicle_type_id":"4","last_reported":1715360777,"current_range_meters":21600,"station_id":"ce4bgkh2rcd13ifvqbk0","pricing_plan_id":"cebpf4jnsgd1na2vs0mg"},{"bike_id":"19c82b70-947d-48c4-b1e0-6fbf9871232f","system_id":"levelo_inurba_marseille","lat":43.2936,"lon":5.37835,"is_reserved":false,"is_disabled":false,"rental_uris":{"android":"levelo://app?vid=19c82b70-947d-48c4-b1e0-6fbf9871232f","ios":"levelo://app?vid=19c82b70-947d-48c4-b1e0-6fbf9871232f"},"vehicle_type_id":"4","last_reported":1715360777,"current_range_meters":6800,"station_id":"ce4bgjh2rcd13ifvqbf0","pricing_plan_id":"cebpf4jnsgd1na2vs0mg"},{"bike_id":"0f304f43-75ca-4b3a-877c-7d6676c79d2c","system_id":"levelo_inurba_marseille","lat":43.2936,"lon":5.37835,"is_reserved":false,"is_disabled":false,"rental_uris":{"android":"levelo://app?vid=0f304f43-75ca-4b3a-877c-7d6676c79d2c","ios":"levelo://app?vid=0f304f43-75ca-4b3a-877c-7d6676c79d2c"},"vehicle_type_id":"4","last_reported":1715360777,"current_range_meters":20400,"station_id":"ce4bgjh2rcd13ifvqbf0","pricing_plan_id":"cebpf4jnsgd1na2vs0mg"},{"bike_id":"2d9491b6-5f1b-4502-bf7b-4b2fcfc1b07f","system_id":"levelo_inurba_marseille","lat":43.2936,"lon":5.37835,"is_reserved":false,"is_disabled":false,"rental_uris":{"android":"levelo://app?vid=2d9491b6-5f1b-4502-bf7b-4b2fcfc1b07f","ios":"levelo://app?vid=2d9491b6-5f1b-4502-bf7b-4b2fcfc1b07f"},"vehicle_type_id":"4","last_reported":1715360777,"current_range_meters":2800,"station_id":"ce4bgjh2rcd13ifvqbf0","pricing_plan_id":"cebpf4jnsgd1na2vs0mg"},{"bike_id":"0e5dcbdb-3dc5-40bd-bff7-3616a81a49d5","system_id":"levelo_inurba_marseille","lat":43.29367,"lon":5.37851,"is_reserved":false,"is_disabled":false,"rental_uris":{"android":"levelo://app?vid=0e5dcbdb-3dc5-40bd-bff7-3616a81a49d5","ios":"levelo://app?vid=0e5dcbdb-3dc5-40bd-bff7-3616a81a49d5"},"vehicle_type_id":"4","last_reported":1715360777,"current_range_meters":0,"station_id":"ce4bgjh2rcd13ifvqbf0","pricing_plan_id":"cebpf4jnsgd1na2vs0mg"},{"bike_id":"f16056bf-752d-413a-bac7-5d0f6d02c914","system_id":"levelo_inurba_marseille","lat":43.30085,"lon":5.390856,"is_reserved":false,"is_disabled":false,"rental_uris":{"android":"levelo://app?vid=f16056bf-752d-413a-bac7-5d0f6d02c914","ios":"levelo://app?vid=f16056bf-752d-413a-bac7-5d0f6d02c914"},"vehicle_type_id":"4","last_reported":1715360777,"current_range_meters":0,"station_id":"ce4bh192rcd13ifvqdb0","pricing_plan_id":"cebpf4jnsgd1na2vs0mg"},{"bike_id":"71a58acf-8fbb-4dc8-a854-b748d256b4a5","system_id":"levelo_inurba_marseille","lat":43.30085,"lon":5.390856,"is_reserved":false,"is_disabled":false,"rental_uris":{"android":"levelo://app?vid=71a58acf-8fbb-4dc8-a854-b748d256b4a5","ios":"levelo://app?vid=71a58acf-8fbb-4dc8-a854-b748d256b4a5"},"vehicle_type_id":"4","last_reported":1715360777,"current_range_meters":4400,"station_id":"ce4bh192rcd13ifvqdb0","pricing_plan_id":"cebpf4jnsgd1na2vs0mg"},{"bike_id":"9af67f9e-ac64-4ba6-b3f5-10c2b08acd6b","system_id":"levelo_inurba_marseille","lat":43.30085,"lon":5.390856,"is_reserved":false,"is_disabled":false,"rental_uris":{"android":"levelo://app?vid=9af67f9e-ac64-4ba6-b3f5-10c2b08acd6b","ios":"levelo://app?vid=9af67f9e-ac64-4ba6-b3f5-10c2b08acd6b"},"vehicle_type_id":"4","last_reported":1715360777,"current_range_meters":21600,"station_id":"ce4bh192rcd13ifvqdb0","pricing_plan_id":"cebpf4jnsgd1na2vs0mg"},{"bike_id":"4546190a-1ce5-4280-a9fe-c85d14ba5b85","system_id":"levelo_inurba_marseille","lat":43.293009,"lon":5.374584,"is_reserved":false,"is_disabled":false,"rental_uris":{"android":"levelo://app?vid=4546190a-1ce5-4280-a9fe-c85d14ba5b85","ios":"levelo://app?vid=4546190a-1ce5-4280-a9fe-c85d14ba5b85"},"vehicle_type_id":"4","last_reported":1715360777,"current_range_meters":4400,"station_id":"ce4bgi12rcd13ifvqb70","pricing_plan_id":"cebpf4jnsgd1na2vs0mg"},{"bike_id":"12bffdf0-ad7e-429f-90e4-9841b425b665","system_id":"levelo_inurba_marseille","lat":43.298764,"lon":5.388973,"is_reserved":false,"is_disabled":false,"rental_uris":{"android":"levelo://app?vid=12bffdf0-ad7e-429f-90e4-9841b425b665","ios":"levelo://app?vid=12bffdf0-ad7e-429f-90e4-9841b425b665"},"vehicle_type_id":"4","last_reported":1715360777,"current_range_meters":22800,"station_id":"ce4bh392rcd13ifvqdl0","pricing_plan_id":"cebpf4jnsgd1na2vs0mg"},{"bike_id":"d1890bfd-334b-4ba5-877e-4b9bd62463e8","system_id":"levelo_inurba_marseille","lat":43.298764,"lon":5.388973,"is_reserved":false,"is_disabled":false,"rental_uris":{"android":"levelo://app?vid=d1890bfd-334b-4ba5-877e-4b9bd62463e8","ios":"levelo://app?vid=d1890bfd-334b-4ba5-877e-4b9bd62463e8"},"vehicle_type_id":"4","last_reported":1715360777,"current_range_meters":2400,"station_id":"ce4bh392rcd13ifvqdl0","pricing_plan_id":"cebpf4jnsgd1na2vs0mg"},{"bike_id":"268a1073-9d89-4622-97c5-b37da325df0a","system_id":"levelo_inurba_marseille","lat":43.298764,"lon":5.388973,"is_reserved":false,"is_disabled":false,"rental_uris":{"android":"levelo://app?vid=268a1073-9d89-4622-97c5-b37da325df0a","ios":"levelo://app?vid=268a1073-9d89-4622-97c5-b37da325df0a"},"vehicle_type_id":"4","last_reported":1715360777,"current_range_meters":3200,"station_id":"ce4bh392rcd13ifvqdl0","pricing_plan_id":"cebpf4jnsgd1na2vs0mg"},{"bike_id":"bb797c5d-5573-43b1-b977-c202ff1777d5","system_id":"levelo_inurba_marseille","lat":43.29875,"lon":5.38909,"is_reserved":false,"is_disabled":false,"rental_uris":{"android":"levelo://app?vid=bb797c5d-5573-43b1-b977-c202ff1777d5","ios":"levelo://app?vid=bb797c5d-5573-43b1-b977-c202ff1777d5"},"vehicle_type_id":"4","last_reported":1715360777,"current_range_meters":0,"station_id":"ce4bh392rcd13ifvqdl0","pricing_plan_id":"cebpf4jnsgd1na2vs0mg"},{"bike_id":"a45a1369-8359-4d6e-84b6-9ac249e945d7","system_id":"levelo_inurba_marseille","lat":43.291671,"lon":5.371575,"is_reserved":false,"is_disabled":false,"rental_uris":{"android":"levelo://app?vid=a45a1369-8359-4d6e-84b6-9ac249e945d7","ios":"levelo://app?vid=a45a1369-8359-4d6e-84b6-9ac249e945d7"},"vehicle_type_id":"4","last_reported":1715360777,"current_range_meters":1200,"station_id":"ce4bha92rcd13ifvqeh0","pricing_plan_id":"cebpf4jnsgd1na2vs0mg"},{"bike_id":"84b23c8b-0e0f-496f-9c49-87c6e54855cd","system_id":"levelo_inurba_marseille","lat":43.291675,"lon":5.371583,"is_reserved":false,"is_disabled":false,"rental_uris":{"android":"levelo://app?vid=84b23c8b-0e0f-496f-9c49-87c6e54855cd","ios":"levelo://app?vid=84b23c8b-0e0f-496f-9c49-87c6e54855cd"},"vehicle_type_id":"4","last_reported":1715360777,"current_range_meters":16000,"station_id":"ce4bha92rcd13ifvqeh0","pricing_plan_id":"cebpf4jnsgd1na2vs0mg"},{"bike_id":"d5d8317d-464f-4715-9733-93ccf60ede58","system_id":"levelo_inurba_marseille","lat":43.291675,"lon":5.371583,"is_reserved":false,"is_disabled":false,"rental_uris":{"android":"levelo://app?vid=d5d8317d-464f-4715-9733-93ccf60ede58","ios":"levelo://app?vid=d5d8317d-464f-4715-9733-93ccf60ede58"},"vehicle_type_id":"4","last_reported":1715360777,"current_range_meters":6400,"station_id":"ce4bha92rcd13ifvqeh0","pricing_plan_id":"cebpf4jnsgd1na2vs0mg"},{"bike_id":"9ec66e30-d537-4442-983c-2d08f8a0dc50","system_id":"levelo_inurba_marseille","lat":43.2987,"lon":5.38916,"is_reserved":false,"is_disabled":false,"rental_uris":{"android":"levelo://app?vid=9ec66e30-d537-4442-983c-2d08f8a0dc50","ios":"levelo://app?vid=9ec66e30-d537-4442-983c-2d08f8a0dc50"},"vehicle_type_id":"4","last_reported":1715360777,"current_range_meters":0,"station_id":"ce4bh392rcd13ifvqdl0","pricing_plan_id":"cebpf4jnsgd1na2vs0mg"},{"bike_id":"e26bc84c-7d48-4574-a2c8-d0d89060de33","system_id":"levelo_inurba_marseille","lat":43.292005,"lon":5.357875,"is_reserved":false,"is_disabled":false,"rental_uris":{"android":"levelo://app?vid=e26bc84c-7d48-4574-a2c8-d0d89060de33","ios":"levelo://app?vid=e26bc84c-7d48-4574-a2c8-d0d89060de33"},"vehicle_type_id":"4","last_reported":1715360777,"current_range_meters":0,"station_id":"ce4bhb12rcd13ifvqel0","pricing_plan_id":"cebpf4jnsgd1na2vs0mg"},{"bike_id":"2404bde3-ded3-4f8b-a54c-9269b98ccf52","system_id":"levelo_inurba_marseille","lat":43.292005,"lon":5.357875,"is_reserved":false,"is_disabled":false,"rental_uris":{"android":"levelo://app?vid=2404bde3-ded3-4f8b-a54c-9269b98ccf52","ios":"levelo://app?vid=2404bde3-ded3-4f8b-a54c-9269b98ccf52"},"vehicle_type_id":"4","last_reported":1715360777,"current_range_meters":0,"station_id":"ce4bhb12rcd13ifvqel0","pricing_plan_id":"cebpf4jnsgd1na2vs0mg"},{"bike_id":"9370fa78-b363-4174-8c96-d0de0beb0930","system_id":"levelo_inurba_marseille","lat":43.313291,"lon":5.396838,"is_reserved":false,"is_disabled":false,"rental_uris":{"android":"levelo://app?vid=9370fa78-b363-4174-8c96-d0de0beb0930","ios":"levelo://app?vid=9370fa78-b363-4174-8c96-d0de0beb0930"},"vehicle_type_id":"4","last_reported":1715360777,"current_range_meters":8800,"station_id":"ce4bgvp2rcd13ifvqcu0","pricing_plan_id":"cebpf4jnsgd1na2vs0mg"},{"bike_id":"a04fc462-41b9-4c6f-ae67-0385a09097d7","system_id":"levelo_inurba_marseille","lat":43.313291,"lon":5.396838,"is_reserved":false,"is_disabled":false,"rental_uris":{"android":"levelo://app?vid=a04fc462-41b9-4c6f-ae67-0385a09097d7","ios":"levelo://app?vid=a04fc462-41b9-4c6f-ae67-0385a09097d7"},"vehicle_type_id":"4","last_reported":1715360777,"current_range_meters":8000,"station_id":"ce4bgvp2rcd13ifvqcu0","pricing_plan_id":"cebpf4jnsgd1na2vs0mg"},{"bike_id":"506381c5-f437-483a-885e-2d464f9772af","system_id":"levelo_inurba_marseille","lat":43.313291,"lon":5.396838,"is_reserved":false,"is_disabled":false,"rental_uris":{"android":"levelo://app?vid=506381c5-f437-483a-885e-2d464f9772af","ios":"levelo://app?vid=506381c5-f437-483a-885e-2d464f9772af"},"vehicle_type_id":"4","last_reported":1715360777,"current_range_meters":5200,"station_id":"ce4bgvp2rcd13ifvqcu0","pricing_plan_id":"cebpf4jnsgd1na2vs0mg"},{"bike_id":"1af84bba-9678-498d-bfdf-78d6f23085de","system_id":"levelo_inurba_marseille","lat":43.313291,"lon":5.396838,"is_reserved":false,"is_disabled":false,"rental_uris":{"android":"levelo://app?vid=1af84bba-9678-498d-bfdf-78d6f23085de","ios":"levelo://app?vid=1af84bba-9678-498d-bfdf-78d6f23085de"},"vehicle_type_id":"4","last_reported":1715360777,"current_range_meters":6800,"station_id":"ce4bgvp2rcd13ifvqcu0","pricing_plan_id":"cebpf4jnsgd1na2vs0mg"},{"bike_id":"fa2bde4b-9330-422d-9514-2cc48ecc76b0","system_id":"levelo_inurba_marseille","lat":43.291994,"lon":5.357886,"is_reserved":false,"is_disabled":false,"rental_uris":{"android":"levelo://app?vid=fa2bde4b-9330-422d-9514-2cc48ecc76b0","ios":"levelo://app?vid=fa2bde4b-9330-422d-9514-2cc48ecc76b0"},"vehicle_type_id":"4","last_reported":1715360777,"current_range_meters":400,"station_id":"ce4bhb12rcd13ifvqel0","pricing_plan_id":"cebpf4jnsgd1na2vs0mg"},{"bike_id":"0e94799a-1906-4681-9815-e34cc5d0c1fd","system_id":"levelo_inurba_marseille","lat":43.313291,"lon":5.396838,"is_reserved":false,"is_disabled":false,"rental_uris":{"android":"levelo://app?vid=0e94799a-1906-4681-9815-e34cc5d0c1fd","ios":"levelo://app?vid=0e94799a-1906-4681-9815-e34cc5d0c1fd"},"vehicle_type_id":"4","last_reported":1715360777,"current_range_meters":8000,"station_id":"ce4bgvp2rcd13ifvqcu0","pricing_plan_id":"cebpf4jnsgd1na2vs0mg"},{"bike_id":"8dd9861b-dce6-4f01-9bee-9045957c0538","system_id":"levelo_inurba_marseille","lat":43.313291,"lon":5.396838,"is_reserved":false,"is_disabled":false,"rental_uris":{"android":"levelo://app?vid=8dd9861b-dce6-4f01-9bee-9045957c0538","ios":"levelo://app?vid=8dd9861b-dce6-4f01-9bee-9045957c0538"},"vehicle_type_id":"4","last_reported":1715360777,"current_range_meters":21200,"station_id":"ce4bgvp2rcd13ifvqcu0","pricing_plan_id":"cebpf4jnsgd1na2vs0mg"},{"bike_id":"b0250921-dcad-4077-8241-5f079598fed4","system_id":"levelo_inurba_marseille","lat":43.292005,"lon":5.357875,"is_reserved":false,"is_disabled":false,"rental_uris":{"android":"levelo://app?vid=b0250921-dcad-4077-8241-5f079598fed4","ios":"levelo://app?vid=b0250921-dcad-4077-8241-5f079598fed4"},"vehicle_type_id":"4","last_reported":1715360777,"current_range_meters":0,"station_id":"ce4bhb12rcd13ifvqel0","pricing_plan_id":"cebpf4jnsgd1na2vs0mg"},{"bike_id":"d0d37b6f-0e4b-4d6a-8328-1ec40ac588f8","system_id":"levelo_inurba_marseille","lat":43.313291,"lon":5.396838,"is_reserved":false,"is_disabled":false,"rental_uris":{"android":"levelo://app?vid=d0d37b6f-0e4b-4d6a-8328-1ec40ac588f8","ios":"levelo://app?vid=d0d37b6f-0e4b-4d6a-8328-1ec40ac588f8"},"vehicle_type_id":"4","last_reported":1715360777,"current_range_meters":17200,"station_id":"ce4bgvp2rcd13ifvqcu0","pricing_plan_id":"cebpf4jnsgd1na2vs0mg"},{"bike_id":"232fcae1-c39d-4a07-b891-e5932d8c81c0","system_id":"levelo_inurba_marseille","lat":43.31333,"lon":5.39696,"is_reserved":false,"is_disabled":false,"rental_uris":{"android":"levelo://app?vid=232fcae1-c39d-4a07-b891-e5932d8c81c0","ios":"levelo://app?vid=232fcae1-c39d-4a07-b891-e5932d8c81c0"},"vehicle_type_id":"4","last_reported":1715360777,"current_range_meters":0,"station_id":"ce4bgvp2rcd13ifvqcu0","pricing_plan_id":"cebpf4jnsgd1na2vs0mg"},{"bike_id":"7e538638-58bc-4df7-b306-6ff4ae966c5f","system_id":"levelo_inurba_marseille","lat":43.31328,"lon":5.39697,"is_reserved":false,"is_disabled":false,"rental_uris":{"android":"levelo://app?vid=7e538638-58bc-4df7-b306-6ff4ae966c5f","ios":"levelo://app?vid=7e538638-58bc-4df7-b306-6ff4ae966c5f"},"vehicle_type_id":"4","last_reported":1715360777,"current_range_meters":6000,"station_id":"ce4bgvp2rcd13ifvqcu0","pricing_plan_id":"cebpf4jnsgd1na2vs0mg"},{"bike_id":"08ecc72b-d99c-4d48-b740-0e75232306b2","system_id":"levelo_inurba_marseille","lat":43.313291,"lon":5.396838,"is_reserved":false,"is_disabled":false,"rental_uris":{"android":"levelo://app?vid=08ecc72b-d99c-4d48-b740-0e75232306b2","ios":"levelo://app?vid=08ecc72b-d99c-4d48-b740-0e75232306b2"},"vehicle_type_id":"4","last_reported":1715360777,"current_range_meters":0,"station_id":"ce4bgvp2rcd13ifvqcu0","pricing_plan_id":"cebpf4jnsgd1na2vs0mg"},{"bike_id":"c41746da-18c9-48fa-b5ae-3c4de9009b38","system_id":"levelo_inurba_marseille","lat":43.313291,"lon":5.396838,"is_reserved":false,"is_disabled":false,"rental_uris":{"android":"levelo://app?vid=c41746da-18c9-48fa-b5ae-3c4de9009b38","ios":"levelo://app?vid=c41746da-18c9-48fa-b5ae-3c4de9009b38"},"vehicle_type_id":"4","last_reported":1715360777,"current_range_meters":9600,"station_id":"ce4bgvp2rcd13ifvqcu0","pricing_plan_id":"cebpf4jnsgd1na2vs0mg"},{"bike_id":"42c7f7f6-16c9-4161-a3dd-75a86ffb6ee8","system_id":"levelo_inurba_marseille","lat":43.313291,"lon":5.396838,"is_reserved":false,"is_disabled":false,"rental_uris":{"android":"levelo://app?vid=42c7f7f6-16c9-4161-a3dd-75a86ffb6ee8","ios":"levelo://app?vid=42c7f7f6-16c9-4161-a3dd-75a86ffb6ee8"},"vehicle_type_id":"4","last_reported":1715360777,"current_range_meters":31200,"station_id":"ce4bgvp2rcd13ifvqcu0","pricing_plan_id":"cebpf4jnsgd1na2vs0mg"},{"bike_id":"d891e286-e3ed-48d1-bdc9-ddb8ff64d2eb","system_id":"levelo_inurba_marseille","lat":43.3133,"lon":5.397,"is_reserved":false,"is_disabled":false,"rental_uris":{"android":"levelo://app?vid=d891e286-e3ed-48d1-bdc9-ddb8ff64d2eb","ios":"levelo://app?vid=d891e286-e3ed-48d1-bdc9-ddb8ff64d2eb"},"vehicle_type_id":"4","last_reported":1715360777,"current_range_meters":0,"station_id":"ce4bgvp2rcd13ifvqcu0","pricing_plan_id":"cebpf4jnsgd1na2vs0mg"},{"bike_id":"19acded3-5dee-48a0-8ac1-1507b197a8d1","system_id":"levelo_inurba_marseille","lat":43.309047,"lon":5.396551,"is_reserved":false,"is_disabled":false,"rental_uris":{"android":"levelo://app?vid=19acded3-5dee-48a0-8ac1-1507b197a8d1","ios":"levelo://app?vid=19acded3-5dee-48a0-8ac1-1507b197a8d1"},"vehicle_type_id":"4","last_reported":1715360777,"current_range_meters":21200,"station_id":"ce4bh012rcd13ifvqcv0","pricing_plan_id":"cebpf4jnsgd1na2vs0mg"},{"bike_id":"6b73a2db-71de-4596-b8d4-409a24c4fda9","system_id":"levelo_inurba_marseille","lat":43.309038,"lon":5.396546,"is_reserved":false,"is_disabled":false,"rental_uris":{"android":"levelo://app?vid=6b73a2db-71de-4596-b8d4-409a24c4fda9","ios":"levelo://app?vid=6b73a2db-71de-4596-b8d4-409a24c4fda9"},"vehicle_type_id":"4","last_reported":1715360777,"current_range_meters":7200,"station_id":"ce4bh012rcd13ifvqcv0","pricing_plan_id":"cebpf4jnsgd1na2vs0mg"},{"bike_id":"14da69f7-a084-42b6-bf3c-c151e1127a5a","system_id":"levelo_inurba_marseille","lat":43.29529,"lon":5.385581,"is_reserved":false,"is_disabled":false,"rental_uris":{"android":"levelo://app?vid=14da69f7-a084-42b6-bf3c-c151e1127a5a","ios":"levelo://app?vid=14da69f7-a084-42b6-bf3c-c151e1127a5a"},"vehicle_type_id":"4","last_reported":1715360777,"current_range_meters":0,"station_id":"ce4bgih2rcd13ifvqba0","pricing_plan_id":"cebpf4jnsgd1na2vs0mg"},{"bike_id":"c9680845-1adc-4b9d-99ca-bec65c6ba64d","system_id":"levelo_inurba_marseille","lat":43.29529,"lon":5.385581,"is_reserved":false,"is_disabled":false,"rental_uris":{"android":"levelo://app?vid=c9680845-1adc-4b9d-99ca-bec65c6ba64d","ios":"levelo://app?vid=c9680845-1adc-4b9d-99ca-bec65c6ba64d"},"vehicle_type_id":"4","last_reported":1715360777,"current_range_meters":3600,"station_id":"ce4bgih2rcd13ifvqba0","pricing_plan_id":"cebpf4jnsgd1na2vs0mg"},{"bike_id":"88509bac-c3a9-4d9e-9390-091e4cff44bf","system_id":"levelo_inurba_marseille","lat":43.29529,"lon":5.385581,"is_reserved":false,"is_disabled":false,"rental_uris":{"android":"levelo://app?vid=88509bac-c3a9-4d9e-9390-091e4cff44bf","ios":"levelo://app?vid=88509bac-c3a9-4d9e-9390-091e4cff44bf"},"vehicle_type_id":"4","last_reported":1715360777,"current_range_meters":17200,"station_id":"ce4bgih2rcd13ifvqba0","pricing_plan_id":"cebpf4jnsgd1na2vs0mg"},{"bike_id":"d26699dd-ab69-4e62-8e56-083f0c72e9c4","system_id":"levelo_inurba_marseille","lat":43.29529,"lon":5.385581,"is_reserved":false,"is_disabled":false,"rental_uris":{"android":"levelo://app?vid=d26699dd-ab69-4e62-8e56-083f0c72e9c4","ios":"levelo://app?vid=d26699dd-ab69-4e62-8e56-083f0c72e9c4"},"vehicle_type_id":"4","last_reported":1715360777,"current_range_meters":2800,"station_id":"ce4bgih2rcd13ifvqba0","pricing_plan_id":"cebpf4jnsgd1na2vs0mg"},{"bike_id":"0698d58b-4f88-4f30-b1ae-340ed0db8899","system_id":"levelo_inurba_marseille","lat":43.29529,"lon":5.385581,"is_reserved":false,"is_disabled":false,"rental_uris":{"android":"levelo://app?vid=0698d58b-4f88-4f30-b1ae-340ed0db8899","ios":"levelo://app?vid=0698d58b-4f88-4f30-b1ae-340ed0db8899"},"vehicle_type_id":"4","last_reported":1715360777,"current_range_meters":21600,"station_id":"ce4bgih2rcd13ifvqba0","pricing_plan_id":"cebpf4jnsgd1na2vs0mg"},{"bike_id":"52d43afd-928b-47cd-a4fe-15cab48d0be6","system_id":"levelo_inurba_marseille","lat":43.290779,"lon":5.371482,"is_reserved":false,"is_disabled":false,"rental_uris":{"android":"levelo://app?vid=52d43afd-928b-47cd-a4fe-15cab48d0be6","ios":"levelo://app?vid=52d43afd-928b-47cd-a4fe-15cab48d0be6"},"vehicle_type_id":"4","last_reported":1715360777,"current_range_meters":0,"station_id":"ce4bh5p2rcd13ifvqe4g","pricing_plan_id":"cebpf4jnsgd1na2vs0mg"},{"bike_id":"443d8001-2409-41b0-a841-1459c6090f04","system_id":"levelo_inurba_marseille","lat":43.295039,"lon":5.385935,"is_reserved":false,"is_disabled":false,"rental_uris":{"android":"levelo://app?vid=443d8001-2409-41b0-a841-1459c6090f04","ios":"levelo://app?vid=443d8001-2409-41b0-a841-1459c6090f04"},"vehicle_type_id":"4","last_reported":1715360777,"current_range_meters":2000,"station_id":"","pricing_plan_id":"cebpf4jnsgd1na2vs0mg"},{"bike_id":"cca3a4c6-7acf-4cef-acb5-990e541f7208","system_id":"levelo_inurba_marseille","lat":43.278399,"lon":5.392139,"is_reserved":false,"is_disabled":false,"rental_uris":{"android":"levelo://app?vid=cca3a4c6-7acf-4cef-acb5-990e541f7208","ios":"levelo://app?vid=cca3a4c6-7acf-4cef-acb5-990e541f7208"},"vehicle_type_id":"4","last_reported":1715360777,"current_range_meters":15600,"station_id":"ce4bhjp2rcd13ifvqga0","pricing_plan_id":"cebpf4jnsgd1na2vs0mg"},{"bike_id":"7ff8a989-abca-4ebd-ab0b-d3bfb1777ef4","system_id":"levelo_inurba_marseille","lat":43.302008,"lon":5.394694,"is_reserved":false,"is_disabled":false,"rental_uris":{"android":"levelo://app?vid=7ff8a989-abca-4ebd-ab0b-d3bfb1777ef4","ios":"levelo://app?vid=7ff8a989-abca-4ebd-ab0b-d3bfb1777ef4"},"vehicle_type_id":"4","last_reported":1715360777,"current_range_meters":12800,"station_id":"ce4bh0p2rcd13ifvqd70","pricing_plan_id":"cebpf4jnsgd1na2vs0mg"},{"bike_id":"a10881a6-2861-4602-9936-0d1db011fbdb","system_id":"levelo_inurba_marseille","lat":43.290631,"lon":5.359244,"is_reserved":false,"is_disabled":false,"rental_uris":{"android":"levelo://app?vid=a10881a6-2861-4602-9936-0d1db011fbdb","ios":"levelo://app?vid=a10881a6-2861-4602-9936-0d1db011fbdb"},"vehicle_type_id":"4","last_reported":1715360777,"current_range_meters":4000,"station_id":"ce4bha92rcd13ifvqeg0","pricing_plan_id":"cebpf4jnsgd1na2vs0mg"},{"bike_id":"82f816ff-3d41-4beb-9c27-4c6943cf3eb9","system_id":"levelo_inurba_marseille","lat":43.290631,"lon":5.359244,"is_reserved":false,"is_disabled":false,"rental_uris":{"android":"levelo://app?vid=82f816ff-3d41-4beb-9c27-4c6943cf3eb9","ios":"levelo://app?vid=82f816ff-3d41-4beb-9c27-4c6943cf3eb9"},"vehicle_type_id":"4","last_reported":1715360777,"current_range_meters":400,"station_id":"ce4bha92rcd13ifvqeg0","pricing_plan_id":"cebpf4jnsgd1na2vs0mg"},{"bike_id":"14e60466-e5ed-4be6-8212-2150bcb763fd","system_id":"levelo_inurba_marseille","lat":43.294153,"lon":5.386305,"is_reserved":false,"is_disabled":false,"rental_uris":{"android":"levelo://app?vid=14e60466-e5ed-4be6-8212-2150bcb763fd","ios":"levelo://app?vid=14e60466-e5ed-4be6-8212-2150bcb763fd"},"vehicle_type_id":"4","last_reported":1715360777,"current_range_meters":5600,"station_id":"ce4bh2h2rcd13ifvqdh0","pricing_plan_id":"cebpf4jnsgd1na2vs0mg"},{"bike_id":"e1a779ea-8229-412a-a7bc-ecae42e3c890","system_id":"levelo_inurba_marseille","lat":43.294162,"lon":5.386292,"is_reserved":false,"is_disabled":false,"rental_uris":{"android":"levelo://app?vid=e1a779ea-8229-412a-a7bc-ecae42e3c890","ios":"levelo://app?vid=e1a779ea-8229-412a-a7bc-ecae42e3c890"},"vehicle_type_id":"4","last_reported":1715360777,"current_range_meters":12400,"station_id":"ce4bh2h2rcd13ifvqdh0","pricing_plan_id":"cebpf4jnsgd1na2vs0mg"},{"bike_id":"c469841e-1280-4462-8299-05d83bc92fcf","system_id":"levelo_inurba_marseille","lat":43.289184,"lon":5.366408,"is_reserved":false,"is_disabled":false,"rental_uris":{"android":"levelo://app?vid=c469841e-1280-4462-8299-05d83bc92fcf","ios":"levelo://app?vid=c469841e-1280-4462-8299-05d83bc92fcf"},"vehicle_type_id":"4","last_reported":1715360777,"current_range_meters":12800,"station_id":"ce4bhap2rcd13ifvqek0","pricing_plan_id":"cebpf4jnsgd1na2vs0mg"},{"bike_id":"bba6fff5-2fbe-411a-a330-815defe5d60c","system_id":"levelo_inurba_marseille","lat":43.290327,"lon":5.375711,"is_reserved":false,"is_disabled":false,"rental_uris":{"android":"levelo://app?vid=bba6fff5-2fbe-411a-a330-815defe5d60c","ios":"levelo://app?vid=bba6fff5-2fbe-411a-a330-815defe5d60c"},"vehicle_type_id":"4","last_reported":1715360777,"current_range_meters":1600,"station_id":"ce4bh692rcd13ifvqe90","pricing_plan_id":"cebpf4jnsgd1na2vs0mg"},{"bike_id":"ecc4645e-2391-4804-8c0c-f66b100c64a0","system_id":"levelo_inurba_marseille","lat":43.294153,"lon":5.386305,"is_reserved":false,"is_disabled":false,"rental_uris":{"android":"levelo://app?vid=ecc4645e-2391-4804-8c0c-f66b100c64a0","ios":"levelo://app?vid=ecc4645e-2391-4804-8c0c-f66b100c64a0"},"vehicle_type_id":"4","last_reported":1715360777,"current_range_meters":5600,"station_id":"ce4bh2h2rcd13ifvqdh0","pricing_plan_id":"cebpf4jnsgd1na2vs0mg"},{"bike_id":"ae759f6d-f93e-4c61-908f-738d3cf9e897","system_id":"levelo_inurba_marseille","lat":43.294153,"lon":5.386305,"is_reserved":false,"is_disabled":false,"rental_uris":{"android":"levelo://app?vid=ae759f6d-f93e-4c61-908f-738d3cf9e897","ios":"levelo://app?vid=ae759f6d-f93e-4c61-908f-738d3cf9e897"},"vehicle_type_id":"4","last_reported":1715360777,"current_range_meters":800,"station_id":"ce4bh2h2rcd13ifvqdh0","pricing_plan_id":"cebpf4jnsgd1na2vs0mg"},{"bike_id":"7c1ea2ac-d7d0-48b4-afd5-32a9c56828b8","system_id":"levelo_inurba_marseille","lat":43.29417,"lon":5.38626,"is_reserved":false,"is_disabled":false,"rental_uris":{"android":"levelo://app?vid=7c1ea2ac-d7d0-48b4-afd5-32a9c56828b8","ios":"levelo://app?vid=7c1ea2ac-d7d0-48b4-afd5-32a9c56828b8"},"vehicle_type_id":"4","last_reported":1715360777,"current_range_meters":31200,"station_id":"ce4bh2h2rcd13ifvqdh0","pricing_plan_id":"cebpf4jnsgd1na2vs0mg"},{"bike_id":"54456d0b-f4c0-4225-8cc4-c5a2a6381a51","system_id":"levelo_inurba_marseille","lat":43.294162,"lon":5.386292,"is_reserved":false,"is_disabled":false,"rental_uris":{"android":"levelo://app?vid=54456d0b-f4c0-4225-8cc4-c5a2a6381a51","ios":"levelo://app?vid=54456d0b-f4c0-4225-8cc4-c5a2a6381a51"},"vehicle_type_id":"4","last_reported":1715360777,"current_range_meters":800,"station_id":"ce4bh2h2rcd13ifvqdh0","pricing_plan_id":"cebpf4jnsgd1na2vs0mg"},{"bike_id":"d2f6badf-41c9-460f-8e8a-da064f00f3d9","system_id":"levelo_inurba_marseille","lat":43.289184,"lon":5.366408,"is_reserved":false,"is_disabled":false,"rental_uris":{"android":"levelo://app?vid=d2f6badf-41c9-460f-8e8a-da064f00f3d9","ios":"levelo://app?vid=d2f6badf-41c9-460f-8e8a-da064f00f3d9"},"vehicle_type_id":"4","last_reported":1715360777,"current_range_meters":0,"station_id":"ce4bhap2rcd13ifvqek0","pricing_plan_id":"cebpf4jnsgd1na2vs0mg"},{"bike_id":"7b715acb-9c92-45ac-b9b4-e0c7b0dc06b2","system_id":"levelo_inurba_marseille","lat":43.28944,"lon":5.36636,"is_reserved":false,"is_disabled":false,"rental_uris":{"android":"levelo://app?vid=7b715acb-9c92-45ac-b9b4-e0c7b0dc06b2","ios":"levelo://app?vid=7b715acb-9c92-45ac-b9b4-e0c7b0dc06b2"},"vehicle_type_id":"4","last_reported":1715360777,"current_range_meters":0,"station_id":"ce4bhap2rcd13ifvqek0","pricing_plan_id":"cebpf4jnsgd1na2vs0mg"},{"bike_id":"b47d66c3-4fd4-4d0e-a7eb-4e81e8712db3","system_id":"levelo_inurba_marseille","lat":43.28944,"lon":5.36632,"is_reserved":false,"is_disabled":false,"rental_uris":{"android":"levelo://app?vid=b47d66c3-4fd4-4d0e-a7eb-4e81e8712db3","ios":"levelo://app?vid=b47d66c3-4fd4-4d0e-a7eb-4e81e8712db3"},"vehicle_type_id":"4","last_reported":1715360777,"current_range_meters":2800,"station_id":"ce4bhap2rcd13ifvqek0","pricing_plan_id":"cebpf4jnsgd1na2vs0mg"},{"bike_id":"480d5f3f-16b4-4644-af99-94e4eb534f08","system_id":"levelo_inurba_marseille","lat":43.28943,"lon":5.36636,"is_reserved":false,"is_disabled":false,"rental_uris":{"android":"levelo://app?vid=480d5f3f-16b4-4644-af99-94e4eb534f08","ios":"levelo://app?vid=480d5f3f-16b4-4644-af99-94e4eb534f08"},"vehicle_type_id":"4","last_reported":1715360777,"current_range_meters":2400,"station_id":"ce4bhap2rcd13ifvqek0","pricing_plan_id":"cebpf4jnsgd1na2vs0mg"},{"bike_id":"010392de-c3a2-426e-b8b6-37dd92d6c623","system_id":"levelo_inurba_marseille","lat":43.29415,"lon":5.38628,"is_reserved":false,"is_disabled":false,"rental_uris":{"android":"levelo://app?vid=010392de-c3a2-426e-b8b6-37dd92d6c623","ios":"levelo://app?vid=010392de-c3a2-426e-b8b6-37dd92d6c623"},"vehicle_type_id":"4","last_reported":1715360777,"current_range_meters":0,"station_id":"ce4bh2h2rcd13ifvqdh0","pricing_plan_id":"cebpf4jnsgd1na2vs0mg"},{"bike_id":"9c4ce958-d166-4d49-a753-15890f6edd0c","system_id":"levelo_inurba_marseille","lat":43.29415,"lon":5.38628,"is_reserved":false,"is_disabled":false,"rental_uris":{"android":"levelo://app?vid=9c4ce958-d166-4d49-a753-15890f6edd0c","ios":"levelo://app?vid=9c4ce958-d166-4d49-a753-15890f6edd0c"},"vehicle_type_id":"4","last_reported":1715360777,"current_range_meters":0,"station_id":"ce4bh2h2rcd13ifvqdh0","pricing_plan_id":"cebpf4jnsgd1na2vs0mg"},{"bike_id":"0a6026ec-f879-4749-adfe-b871c481b2f1","system_id":"levelo_inurba_marseille","lat":43.29414,"lon":5.38627,"is_reserved":false,"is_disabled":false,"rental_uris":{"android":"levelo://app?vid=0a6026ec-f879-4749-adfe-b871c481b2f1","ios":"levelo://app?vid=0a6026ec-f879-4749-adfe-b871c481b2f1"},"vehicle_type_id":"4","last_reported":1715360777,"current_range_meters":4800,"station_id":"ce4bh2h2rcd13ifvqdh0","pricing_plan_id":"cebpf4jnsgd1na2vs0mg"},{"bike_id":"82ed17d9-c644-4f67-aed7-c0309edccbfd","system_id":"levelo_inurba_marseille","lat":43.28941,"lon":5.36625,"is_reserved":false,"is_disabled":false,"rental_uris":{"android":"levelo://app?vid=82ed17d9-c644-4f67-aed7-c0309edccbfd","ios":"levelo://app?vid=82ed17d9-c644-4f67-aed7-c0309edccbfd"},"vehicle_type_id":"4","last_reported":1715360777,"current_range_meters":19600,"station_id":"ce4bhap2rcd13ifvqek0","pricing_plan_id":"cebpf4jnsgd1na2vs0mg"},{"bike_id":"43e04547-b7a8-4242-94ac-885f6de2d8c2","system_id":"levelo_inurba_marseille","lat":43.29412,"lon":5.386307,"is_reserved":false,"is_disabled":false,"rental_uris":{"android":"levelo://app?vid=43e04547-b7a8-4242-94ac-885f6de2d8c2","ios":"levelo://app?vid=43e04547-b7a8-4242-94ac-885f6de2d8c2"},"vehicle_type_id":"4","last_reported":1715360777,"current_range_meters":17600,"station_id":"ce4bh2h2rcd13ifvqdh0","pricing_plan_id":"cebpf4jnsgd1na2vs0mg"},{"bike_id":"4dcc9adb-f903-4dd8-88e4-75eca203acf0","system_id":"levelo_inurba_marseille","lat":43.28937,"lon":5.36641,"is_reserved":false,"is_disabled":false,"rental_uris":{"android":"levelo://app?vid=4dcc9adb-f903-4dd8-88e4-75eca203acf0","ios":"levelo://app?vid=4dcc9adb-f903-4dd8-88e4-75eca203acf0"},"vehicle_type_id":"4","last_reported":1715360777,"current_range_meters":9200,"station_id":"ce4bhap2rcd13ifvqek0","pricing_plan_id":"cebpf4jnsgd1na2vs0mg"},{"bike_id":"91419039-271c-42c5-a663-3cccbdfc6b3f","system_id":"levelo_inurba_marseille","lat":43.289336,"lon":5.366434,"is_reserved":false,"is_disabled":false,"rental_uris":{"android":"levelo://app?vid=91419039-271c-42c5-a663-3cccbdfc6b3f","ios":"levelo://app?vid=91419039-271c-42c5-a663-3cccbdfc6b3f"},"vehicle_type_id":"4","last_reported":1715360777,"current_range_meters":8800,"station_id":"ce4bhap2rcd13ifvqek0","pricing_plan_id":"cebpf4jnsgd1na2vs0mg"},{"bike_id":"5a454df4-8551-48c3-9a60-8b09cbed7209","system_id":"levelo_inurba_marseille","lat":43.28932,"lon":5.36636,"is_reserved":false,"is_disabled":false,"rental_uris":{"android":"levelo://app?vid=5a454df4-8551-48c3-9a60-8b09cbed7209","ios":"levelo://app?vid=5a454df4-8551-48c3-9a60-8b09cbed7209"},"vehicle_type_id":"4","last_reported":1715360777,"current_range_meters":15200,"station_id":"ce4bhap2rcd13ifvqek0","pricing_plan_id":"cebpf4jnsgd1na2vs0mg"},{"bike_id":"f76e1ead-ef11-4043-8acc-f6462dfb90bb","system_id":"levelo_inurba_marseille","lat":43.2894,"lon":5.36396,"is_reserved":false,"is_disabled":false,"rental_uris":{"android":"levelo://app?vid=f76e1ead-ef11-4043-8acc-f6462dfb90bb","ios":"levelo://app?vid=f76e1ead-ef11-4043-8acc-f6462dfb90bb"},"vehicle_type_id":"4","last_reported":1715360777,"current_range_meters":19200,"station_id":"ce4bhc92rcd13ifvqetg","pricing_plan_id":"cebpf4jnsgd1na2vs0mg"},{"bike_id":"94cd4185-2648-42f1-a919-698e9d2662e9","system_id":"levelo_inurba_marseille","lat":43.303718,"lon":5.396924,"is_reserved":false,"is_disabled":false,"rental_uris":{"android":"levelo://app?vid=94cd4185-2648-42f1-a919-698e9d2662e9","ios":"levelo://app?vid=94cd4185-2648-42f1-a919-698e9d2662e9"},"vehicle_type_id":"4","last_reported":1715360777,"current_range_meters":0,"station_id":"ce4bh092rcd13ifvqd20","pricing_plan_id":"cebpf4jnsgd1na2vs0mg"},{"bike_id":"413dce7c-3a64-472c-8854-66472e17b818","system_id":"levelo_inurba_marseille","lat":43.292642,"lon":5.384254,"is_reserved":false,"is_disabled":false,"rental_uris":{"android":"levelo://app?vid=413dce7c-3a64-472c-8854-66472e17b818","ios":"levelo://app?vid=413dce7c-3a64-472c-8854-66472e17b818"},"vehicle_type_id":"4","last_reported":1715360777,"current_range_meters":8400,"station_id":"ce4bh692rcd13ifvqea0","pricing_plan_id":"cebpf4jnsgd1na2vs0mg"},{"bike_id":"bd02865a-99af-479c-aa06-2ab83307a45a","system_id":"levelo_inurba_marseille","lat":43.292644,"lon":5.384257,"is_reserved":false,"is_disabled":false,"rental_uris":{"android":"levelo://app?vid=bd02865a-99af-479c-aa06-2ab83307a45a","ios":"levelo://app?vid=bd02865a-99af-479c-aa06-2ab83307a45a"},"vehicle_type_id":"4","last_reported":1715360777,"current_range_meters":3200,"station_id":"ce4bh692rcd13ifvqea0","pricing_plan_id":"cebpf4jnsgd1na2vs0mg"},{"bike_id":"c1ad2f01-8153-4128-bb8d-b19037b141d7","system_id":"levelo_inurba_marseille","lat":43.292642,"lon":5.384254,"is_reserved":false,"is_disabled":false,"rental_uris":{"android":"levelo://app?vid=c1ad2f01-8153-4128-bb8d-b19037b141d7","ios":"levelo://app?vid=c1ad2f01-8153-4128-bb8d-b19037b141d7"},"vehicle_type_id":"4","last_reported":1715360777,"current_range_meters":10400,"station_id":"ce4bh692rcd13ifvqea0","pricing_plan_id":"cebpf4jnsgd1na2vs0mg"},{"bike_id":"8b49cb43-35a1-41f2-b46a-96478d660d7c","system_id":"levelo_inurba_marseille","lat":43.304296,"lon":5.397513,"is_reserved":false,"is_disabled":false,"rental_uris":{"android":"levelo://app?vid=8b49cb43-35a1-41f2-b46a-96478d660d7c","ios":"levelo://app?vid=8b49cb43-35a1-41f2-b46a-96478d660d7c"},"vehicle_type_id":"4","last_reported":1715360777,"current_range_meters":3200,"station_id":"ce4bh092rcd13ifvqd20","pricing_plan_id":"cebpf4jnsgd1na2vs0mg"},{"bike_id":"95290f52-607e-4234-bd4d-5c8815285199","system_id":"levelo_inurba_marseille","lat":43.290995,"lon":5.381361,"is_reserved":false,"is_disabled":false,"rental_uris":{"android":"levelo://app?vid=95290f52-607e-4234-bd4d-5c8815285199","ios":"levelo://app?vid=95290f52-607e-4234-bd4d-5c8815285199"},"vehicle_type_id":"4","last_reported":1715360777,"current_range_meters":2000,"station_id":"ce4bh512rcd13ifvqe2g","pricing_plan_id":"cebpf4jnsgd1na2vs0mg"},{"bike_id":"476526b0-b59a-454f-9b96-8b795bc935ab","system_id":"levelo_inurba_marseille","lat":43.292644,"lon":5.384257,"is_reserved":false,"is_disabled":false,"rental_uris":{"android":"levelo://app?vid=476526b0-b59a-454f-9b96-8b795bc935ab","ios":"levelo://app?vid=476526b0-b59a-454f-9b96-8b795bc935ab"},"vehicle_type_id":"4","last_reported":1715360777,"current_range_meters":0,"station_id":"ce4bh692rcd13ifvqea0","pricing_plan_id":"cebpf4jnsgd1na2vs0mg"},{"bike_id":"315d7653-85c2-4acd-93a0-cdeb38a13534","system_id":"levelo_inurba_marseille","lat":43.292644,"lon":5.384257,"is_reserved":false,"is_disabled":false,"rental_uris":{"android":"levelo://app?vid=315d7653-85c2-4acd-93a0-cdeb38a13534","ios":"levelo://app?vid=315d7653-85c2-4acd-93a0-cdeb38a13534"},"vehicle_type_id":"4","last_reported":1715360777,"current_range_meters":20400,"station_id":"ce4bh692rcd13ifvqea0","pricing_plan_id":"cebpf4jnsgd1na2vs0mg"},{"bike_id":"2f5f1dbf-7d36-4121-9b02-dc264a4a7fa4","system_id":"levelo_inurba_marseille","lat":43.2927,"lon":5.38451,"is_reserved":false,"is_disabled":false,"rental_uris":{"android":"levelo://app?vid=2f5f1dbf-7d36-4121-9b02-dc264a4a7fa4","ios":"levelo://app?vid=2f5f1dbf-7d36-4121-9b02-dc264a4a7fa4"},"vehicle_type_id":"4","last_reported":1715360777,"current_range_meters":0,"station_id":"ce4bh692rcd13ifvqea0","pricing_plan_id":"cebpf4jnsgd1na2vs0mg"},{"bike_id":"2a68e5a1-3fb5-420d-8e50-09162f39d2d1","system_id":"levelo_inurba_marseille","lat":43.292644,"lon":5.384257,"is_reserved":false,"is_disabled":false,"rental_uris":{"android":"levelo://app?vid=2a68e5a1-3fb5-420d-8e50-09162f39d2d1","ios":"levelo://app?vid=2a68e5a1-3fb5-420d-8e50-09162f39d2d1"},"vehicle_type_id":"4","last_reported":1715360777,"current_range_meters":28000,"station_id":"ce4bh692rcd13ifvqea0","pricing_plan_id":"cebpf4jnsgd1na2vs0mg"},{"bike_id":"b19de65f-852c-4865-ad22-56313d045681","system_id":"levelo_inurba_marseille","lat":43.292644,"lon":5.384257,"is_reserved":false,"is_disabled":false,"rental_uris":{"android":"levelo://app?vid=b19de65f-852c-4865-ad22-56313d045681","ios":"levelo://app?vid=b19de65f-852c-4865-ad22-56313d045681"},"vehicle_type_id":"4","last_reported":1715360777,"current_range_meters":0,"station_id":"ce4bh692rcd13ifvqea0","pricing_plan_id":"cebpf4jnsgd1na2vs0mg"},{"bike_id":"101f67f2-372e-476f-94db-e7f6ff81b5b8","system_id":"levelo_inurba_marseille","lat":43.290995,"lon":5.381361,"is_reserved":false,"is_disabled":false,"rental_uris":{"android":"levelo://app?vid=101f67f2-372e-476f-94db-e7f6ff81b5b8","ios":"levelo://app?vid=101f67f2-372e-476f-94db-e7f6ff81b5b8"},"vehicle_type_id":"4","last_reported":1715360777,"current_range_meters":0,"station_id":"ce4bh512rcd13ifvqe2g","pricing_plan_id":"cebpf4jnsgd1na2vs0mg"},{"bike_id":"71de3054-0e13-41a2-aa99-b3394157421c","system_id":"levelo_inurba_marseille","lat":43.29014,"lon":5.35618,"is_reserved":false,"is_disabled":false,"rental_uris":{"android":"levelo://app?vid=71de3054-0e13-41a2-aa99-b3394157421c","ios":"levelo://app?vid=71de3054-0e13-41a2-aa99-b3394157421c"},"vehicle_type_id":"4","last_reported":1715360777,"current_range_meters":0,"station_id":"ce4bhb92rcd13ifvqen0","pricing_plan_id":"cebpf4jnsgd1na2vs0mg"},{"bike_id":"855ca560-38a3-4378-995f-f0c17b341f86","system_id":"levelo_inurba_marseille","lat":43.290104,"lon":5.356111,"is_reserved":false,"is_disabled":false,"rental_uris":{"android":"levelo://app?vid=855ca560-38a3-4378-995f-f0c17b341f86","ios":"levelo://app?vid=855ca560-38a3-4378-995f-f0c17b341f86"},"vehicle_type_id":"4","last_reported":1715360777,"current_range_meters":400,"station_id":"ce4bhb92rcd13ifvqen0","pricing_plan_id":"cebpf4jnsgd1na2vs0mg"},{"bike_id":"2cf92550-e669-41e2-83bc-8e3fc5ad0b97","system_id":"levelo_inurba_marseille","lat":43.290103,"lon":5.356114,"is_reserved":false,"is_disabled":false,"rental_uris":{"android":"levelo://app?vid=2cf92550-e669-41e2-83bc-8e3fc5ad0b97","ios":"levelo://app?vid=2cf92550-e669-41e2-83bc-8e3fc5ad0b97"},"vehicle_type_id":"4","last_reported":1715360777,"current_range_meters":15600,"station_id":"ce4bhb92rcd13ifvqen0","pricing_plan_id":"cebpf4jnsgd1na2vs0mg"},{"bike_id":"e8a9a349-78c0-4e1a-bfb4-cea4a03db8df","system_id":"levelo_inurba_marseille","lat":43.290103,"lon":5.356114,"is_reserved":false,"is_disabled":false,"rental_uris":{"android":"levelo://app?vid=e8a9a349-78c0-4e1a-bfb4-cea4a03db8df","ios":"levelo://app?vid=e8a9a349-78c0-4e1a-bfb4-cea4a03db8df"},"vehicle_type_id":"4","last_reported":1715360777,"current_range_meters":0,"station_id":"ce4bhb92rcd13ifvqen0","pricing_plan_id":"cebpf4jnsgd1na2vs0mg"},{"bike_id":"ae49ce9f-ec3e-415d-870a-ecc64576baf4","system_id":"levelo_inurba_marseille","lat":43.290103,"lon":5.356114,"is_reserved":false,"is_disabled":false,"rental_uris":{"android":"levelo://app?vid=ae49ce9f-ec3e-415d-870a-ecc64576baf4","ios":"levelo://app?vid=ae49ce9f-ec3e-415d-870a-ecc64576baf4"},"vehicle_type_id":"4","last_reported":1715360777,"current_range_meters":0,"station_id":"ce4bhb92rcd13ifvqen0","pricing_plan_id":"cebpf4jnsgd1na2vs0mg"},{"bike_id":"6c21111a-ba6e-4116-8f37-aa4be82039d1","system_id":"levelo_inurba_marseille","lat":43.290104,"lon":5.356111,"is_reserved":false,"is_disabled":false,"rental_uris":{"android":"levelo://app?vid=6c21111a-ba6e-4116-8f37-aa4be82039d1","ios":"levelo://app?vid=6c21111a-ba6e-4116-8f37-aa4be82039d1"},"vehicle_type_id":"4","last_reported":1715360777,"current_range_meters":0,"station_id":"ce4bhb92rcd13ifvqen0","pricing_plan_id":"cebpf4jnsgd1na2vs0mg"},{"bike_id":"691897eb-4a31-489b-b6f0-2c6da33f3ab0","system_id":"levelo_inurba_marseille","lat":43.290104,"lon":5.356111,"is_reserved":false,"is_disabled":false,"rental_uris":{"android":"levelo://app?vid=691897eb-4a31-489b-b6f0-2c6da33f3ab0","ios":"levelo://app?vid=691897eb-4a31-489b-b6f0-2c6da33f3ab0"},"vehicle_type_id":"4","last_reported":1715360777,"current_range_meters":0,"station_id":"ce4bhb92rcd13ifvqen0","pricing_plan_id":"cebpf4jnsgd1na2vs0mg"},{"bike_id":"53256060-5231-4b60-bd2f-a5bf78d6b60e","system_id":"levelo_inurba_marseille","lat":43.289,"lon":5.36088,"is_reserved":false,"is_disabled":false,"rental_uris":{"android":"levelo://app?vid=53256060-5231-4b60-bd2f-a5bf78d6b60e","ios":"levelo://app?vid=53256060-5231-4b60-bd2f-a5bf78d6b60e"},"vehicle_type_id":"4","last_reported":1715360777,"current_range_meters":15200,"station_id":"","pricing_plan_id":"cebpf4jnsgd1na2vs0mg"},{"bike_id":"fe02697b-f7ef-4dee-8e19-b435cf07fb66","system_id":"levelo_inurba_marseille","lat":43.290995,"lon":5.381361,"is_reserved":false,"is_disabled":false,"rental_uris":{"android":"levelo://app?vid=fe02697b-f7ef-4dee-8e19-b435cf07fb66","ios":"levelo://app?vid=fe02697b-f7ef-4dee-8e19-b435cf07fb66"},"vehicle_type_id":"4","last_reported":1715360777,"current_range_meters":0,"station_id":"ce4bh512rcd13ifvqe2g","pricing_plan_id":"cebpf4jnsgd1na2vs0mg"},{"bike_id":"4559fe57-1654-468f-a3ed-039ff5321478","system_id":"levelo_inurba_marseille","lat":43.290995,"lon":5.381361,"is_reserved":false,"is_disabled":false,"rental_uris":{"android":"levelo://app?vid=4559fe57-1654-468f-a3ed-039ff5321478","ios":"levelo://app?vid=4559fe57-1654-468f-a3ed-039ff5321478"},"vehicle_type_id":"4","last_reported":1715360777,"current_range_meters":16400,"station_id":"ce4bh512rcd13ifvqe2g","pricing_plan_id":"cebpf4jnsgd1na2vs0mg"},{"bike_id":"2505f9c8-3888-4d6a-978e-17f665677a33","system_id":"levelo_inurba_marseille","lat":43.288508,"lon":5.365201,"is_reserved":false,"is_disabled":false,"rental_uris":{"android":"levelo://app?vid=2505f9c8-3888-4d6a-978e-17f665677a33","ios":"levelo://app?vid=2505f9c8-3888-4d6a-978e-17f665677a33"},"vehicle_type_id":"4","last_reported":1715360777,"current_range_meters":0,"station_id":"","pricing_plan_id":"cebpf4jnsgd1na2vs0mg"},{"bike_id":"f261d094-302f-41f7-b52d-33620dcaabba","system_id":"levelo_inurba_marseille","lat":43.28982,"lon":5.37848,"is_reserved":false,"is_disabled":false,"rental_uris":{"android":"levelo://app?vid=f261d094-302f-41f7-b52d-33620dcaabba","ios":"levelo://app?vid=f261d094-302f-41f7-b52d-33620dcaabba"},"vehicle_type_id":"4","last_reported":1715360777,"current_range_meters":0,"station_id":"ce4bh9p2rcd13ifvqed0","pricing_plan_id":"cebpf4jnsgd1na2vs0mg"},{"bike_id":"6a552d54-f9e9-45eb-9c3e-51874614351f","system_id":"levelo_inurba_marseille","lat":43.289741,"lon":5.378306,"is_reserved":false,"is_disabled":false,"rental_uris":{"android":"levelo://app?vid=6a552d54-f9e9-45eb-9c3e-51874614351f","ios":"levelo://app?vid=6a552d54-f9e9-45eb-9c3e-51874614351f"},"vehicle_type_id":"4","last_reported":1715360777,"current_range_meters":14400,"station_id":"ce4bh9p2rcd13ifvqed0","pricing_plan_id":"cebpf4jnsgd1na2vs0mg"},{"bike_id":"a4aba531-41bc-481d-b1a6-a5a0e79124f0","system_id":"levelo_inurba_marseille","lat":43.298681,"lon":5.397225,"is_reserved":false,"is_disabled":false,"rental_uris":{"android":"levelo://app?vid=a4aba531-41bc-481d-b1a6-a5a0e79124f0","ios":"levelo://app?vid=a4aba531-41bc-481d-b1a6-a5a0e79124f0"},"vehicle_type_id":"4","last_reported":1715360777,"current_range_meters":20800,"station_id":"ce4bh0h2rcd13ifvqd50","pricing_plan_id":"cebpf4jnsgd1na2vs0mg"},{"bike_id":"3fe8f4ac-bd33-4c43-879d-d470a6807ea6","system_id":"levelo_inurba_marseille","lat":43.29029,"lon":5.38135,"is_reserved":false,"is_disabled":false,"rental_uris":{"android":"levelo://app?vid=3fe8f4ac-bd33-4c43-879d-d470a6807ea6","ios":"levelo://app?vid=3fe8f4ac-bd33-4c43-879d-d470a6807ea6"},"vehicle_type_id":"4","last_reported":1715360777,"current_range_meters":400,"station_id":"ce4bh4p2rcd13ifvqe1g","pricing_plan_id":"cebpf4jnsgd1na2vs0mg"},{"bike_id":"53ff1d0d-5c10-4295-ac46-20b23b50acfb","system_id":"levelo_inurba_marseille","lat":43.288673,"lon":5.358587,"is_reserved":false,"is_disabled":false,"rental_uris":{"android":"levelo://app?vid=53ff1d0d-5c10-4295-ac46-20b23b50acfb","ios":"levelo://app?vid=53ff1d0d-5c10-4295-ac46-20b23b50acfb"},"vehicle_type_id":"4","last_reported":1715360777,"current_range_meters":0,"station_id":"ce4bhb12rcd13ifvqem0","pricing_plan_id":"cebpf4jnsgd1na2vs0mg"},{"bike_id":"99c1386b-8188-405b-9222-664203339afa","system_id":"levelo_inurba_marseille","lat":43.2885,"lon":5.35945,"is_reserved":false,"is_disabled":false,"rental_uris":{"android":"levelo://app?vid=99c1386b-8188-405b-9222-664203339afa","ios":"levelo://app?vid=99c1386b-8188-405b-9222-664203339afa"},"vehicle_type_id":"4","last_reported":1715360777,"current_range_meters":0,"station_id":"","pricing_plan_id":"cebpf4jnsgd1na2vs0mg"},{"bike_id":"7d54440a-0c10-4c7b-9fd9-6df1d696dd80","system_id":"levelo_inurba_marseille","lat":43.28856,"lon":5.358371,"is_reserved":false,"is_disabled":false,"rental_uris":{"android":"levelo://app?vid=7d54440a-0c10-4c7b-9fd9-6df1d696dd80","ios":"levelo://app?vid=7d54440a-0c10-4c7b-9fd9-6df1d696dd80"},"vehicle_type_id":"4","last_reported":1715360777,"current_range_meters":0,"station_id":"ce4bhb12rcd13ifvqem0","pricing_plan_id":"cebpf4jnsgd1na2vs0mg"},{"bike_id":"729211a0-74e0-4211-8741-e8b6c9dbeef0","system_id":"levelo_inurba_marseille","lat":43.288467,"lon":5.358738,"is_reserved":false,"is_disabled":false,"rental_uris":{"android":"levelo://app?vid=729211a0-74e0-4211-8741-e8b6c9dbeef0","ios":"levelo://app?vid=729211a0-74e0-4211-8741-e8b6c9dbeef0"},"vehicle_type_id":"4","last_reported":1715360777,"current_range_meters":0,"station_id":"ce4bhb12rcd13ifvqem0","pricing_plan_id":"cebpf4jnsgd1na2vs0mg"},{"bike_id":"a6fe3be9-2ae1-42ce-9d62-911bb3dea5fa","system_id":"levelo_inurba_marseille","lat":43.28856,"lon":5.358371,"is_reserved":false,"is_disabled":false,"rental_uris":{"android":"levelo://app?vid=a6fe3be9-2ae1-42ce-9d62-911bb3dea5fa","ios":"levelo://app?vid=a6fe3be9-2ae1-42ce-9d62-911bb3dea5fa"},"vehicle_type_id":"4","last_reported":1715360777,"current_range_meters":31200,"station_id":"ce4bhb12rcd13ifvqem0","pricing_plan_id":"cebpf4jnsgd1na2vs0mg"},{"bike_id":"26f15d35-78b6-43ff-8712-a9bf6c175ad7","system_id":"levelo_inurba_marseille","lat":43.28842,"lon":5.35864,"is_reserved":false,"is_disabled":false,"rental_uris":{"android":"levelo://app?vid=26f15d35-78b6-43ff-8712-a9bf6c175ad7","ios":"levelo://app?vid=26f15d35-78b6-43ff-8712-a9bf6c175ad7"},"vehicle_type_id":"4","last_reported":1715360777,"current_range_meters":7200,"station_id":"ce4bhb12rcd13ifvqem0","pricing_plan_id":"cebpf4jnsgd1na2vs0mg"},{"bike_id":"8ee5f385-b496-4003-9df4-bf932980c86f","system_id":"levelo_inurba_marseille","lat":43.288436,"lon":5.358434,"is_reserved":false,"is_disabled":false,"rental_uris":{"android":"levelo://app?vid=8ee5f385-b496-4003-9df4-bf932980c86f","ios":"levelo://app?vid=8ee5f385-b496-4003-9df4-bf932980c86f"},"vehicle_type_id":"4","last_reported":1715360777,"current_range_meters":0,"station_id":"ce4bhb12rcd13ifvqem0","pricing_plan_id":"cebpf4jnsgd1na2vs0mg"},{"bike_id":"690d15a8-d91f-48dc-a7d1-750337795b1d","system_id":"levelo_inurba_marseille","lat":43.290345,"lon":5.38646,"is_reserved":false,"is_disabled":false,"rental_uris":{"android":"levelo://app?vid=690d15a8-d91f-48dc-a7d1-750337795b1d","ios":"levelo://app?vid=690d15a8-d91f-48dc-a7d1-750337795b1d"},"vehicle_type_id":"4","last_reported":1715360777,"current_range_meters":4000,"station_id":"ce4bh4p2rcd13ifvqe0g","pricing_plan_id":"cebpf4jnsgd1na2vs0mg"},{"bike_id":"1e8c07cd-1e49-4337-8e77-0f71219c8a93","system_id":"levelo_inurba_marseille","lat":43.312609,"lon":5.401662,"is_reserved":false,"is_disabled":false,"rental_uris":{"android":"levelo://app?vid=1e8c07cd-1e49-4337-8e77-0f71219c8a93","ios":"levelo://app?vid=1e8c07cd-1e49-4337-8e77-0f71219c8a93"},"vehicle_type_id":"4","last_reported":1715360777,"current_range_meters":2000,"station_id":"ce4bh092rcd13ifvqd30","pricing_plan_id":"cebpf4jnsgd1na2vs0mg"},{"bike_id":"efe6265c-fb8d-4946-b09a-741efc89f411","system_id":"levelo_inurba_marseille","lat":43.30939,"lon":5.40139,"is_reserved":false,"is_disabled":false,"rental_uris":{"android":"levelo://app?vid=efe6265c-fb8d-4946-b09a-741efc89f411","ios":"levelo://app?vid=efe6265c-fb8d-4946-b09a-741efc89f411"},"vehicle_type_id":"4","last_reported":1715360777,"current_range_meters":6800,"station_id":"ce4bgvp2rcd13ifvqct0","pricing_plan_id":"cebpf4jnsgd1na2vs0mg"},{"bike_id":"91d9714b-b35f-47ce-8f34-022bf351236f","system_id":"levelo_inurba_marseille","lat":43.33762,"lon":5.37436,"is_reserved":false,"is_disabled":false,"rental_uris":{"android":"levelo://app?vid=91d9714b-b35f-47ce-8f34-022bf351236f","ios":"levelo://app?vid=91d9714b-b35f-47ce-8f34-022bf351236f"},"vehicle_type_id":"4","last_reported":1715360777,"current_range_meters":28000,"station_id":"","pricing_plan_id":"cebpf4jnsgd1na2vs0mg"},{"bike_id":"daee7310-f8c7-4f5e-bd33-5c1f2393bee7","system_id":"levelo_inurba_marseille","lat":43.30642,"lon":5.401031,"is_reserved":false,"is_disabled":false,"rental_uris":{"android":"levelo://app?vid=daee7310-f8c7-4f5e-bd33-5c1f2393bee7","ios":"levelo://app?vid=daee7310-f8c7-4f5e-bd33-5c1f2393bee7"},"vehicle_type_id":"4","last_reported":1715360777,"current_range_meters":0,"station_id":"ce4bh112rcd13ifvqda0","pricing_plan_id":"cebpf4jnsgd1na2vs0mg"},{"bike_id":"585c513f-2405-4f32-aceb-e06dcc07c72f","system_id":"levelo_inurba_marseille","lat":43.3065,"lon":5.40093,"is_reserved":false,"is_disabled":false,"rental_uris":{"android":"levelo://app?vid=585c513f-2405-4f32-aceb-e06dcc07c72f","ios":"levelo://app?vid=585c513f-2405-4f32-aceb-e06dcc07c72f"},"vehicle_type_id":"4","last_reported":1715360777,"current_range_meters":0,"station_id":"ce4bh112rcd13ifvqda0","pricing_plan_id":"cebpf4jnsgd1na2vs0mg"},