{"last_updated":1768144260,"ttl":60,"version":"2.2","data":{"bikes":[{"bike_id":"2f105e06-b85c-4039-8bf0-4e881c40778f","system_id":"levelo_inurba_marseille","lat":43.26565,"lon":5.37275,"is_reserved":false,"is_disabled":false,"rental_uris":{"android":"levelo://app?vid=2f105e06-b85c-4039-8bf0-4e881c40778f","ios":"levelo://app?vid=2f105e06-b85c-4039-8bf0-4e881c40778f"},"vehicle_type_id":"4","last_reported":1768144260,"current_range_meters":2800,"station_id":"ce4bhg12rcd13ifvqf70","pricing_plan_id":"cebpf4jnsgd1na2vs0mg"},{"bike_id":"55b9f7bf-f636-4d95-87ce-c4cb6a492fdf","system_id":"levelo_inurba_marseille","lat":43.24644,"lon":5.38891,"is_reserved":false,"is_disabled":false,"rental_uris":{"android":"levelo://app?vid=55b9f7bf-f636-4d95-87ce-c4cb6a492fdf","ios":"levelo://app?vid=55b9f7bf-f636-4d95-87ce-c4cb6a492fdf"},"vehicle_type_id":"4","last_reported":1768144260,"current_range_meters":2800,"station_id":"ce4bhg12rcd13ifvqf60","pricing_plan_id":"cebpf4jnsgd1na2vs0mg"},{"bike_id":"b1de97eb-9987-4268-a3de-fad899a3da21","system_id":"levelo_inurba_marseille","lat":43.25713,"lon":5.41113,"is_reserved":false,"is_disabled":false,"rental_uris":{"android":"levelo://app?vid=b1de97eb-9987-4268-a3de-fad899a3da21","ios":"levelo://app?vid=b1de97eb-9987-4268-a3de-fad899a3da21"},"vehicle_type_id":"4","last_reported":1768144260,"current_range_meters":2800,"station_id":"ce4bhkp2rcd13ifvqgd0","pricing_plan_id":"cebpf4jnsgd1na2vs0mg"},{"bike_id":"1347a05a-fe6b-495b-96d9-20a9a96846e2","system_id":"levelo_inurba_marseille","lat":43.278323,"lon":5.392054,"is_reserved":false,"is_disabled":false,"rental_uris":{"android":"levelo://app?vid=1347a05a-fe6b-495b-96d9-20a9a96846e2","ios":"levelo://app?vid=1347a05a-fe6b-495b-96d9-20a9a96846e2"},"vehicle_type_id":"4","last_reported":1768144260,"current_range_meters":2800,"station_id":"ce4bhjp2rcd13ifvqga0","pricing_plan_id":"cebpf4jnsgd1na2vs0mg"},{"bike_id":"344318d5-d37d-415c-a19d-49a3cc55b651","system_id":"levelo_inurba_marseille","lat":43.23183,"lon":5.39987,"is_reserved":false,"is_disabled":false,"rental_uris":{"android":"levelo://app?vid=344318d5-d37d-415c-a19d-49a3cc55b651","ios":"levelo://app?vid=344318d5-d37d-415c-a19d-49a3cc55b651"},"vehicle_type_id":"4","last_reported":1768144260,"current_range_meters":2800,"station_id":"ce4bhn12rcd13ifvqgqg","pricing_plan_id":"cebpf4jnsgd1na2vs0mg"},{"bike_id":"87f67e97-3d5d-4e9b-a43f-2ccacab47334","system_id":"levelo_inurba_marseille","lat":43.26682,"lon":5.38259,"is_reserved":false,"is_disabled":false,"rental_uris":{"android":"levelo://app?vid=87f67e97-3d5d-4e9b-a43f-2ccacab47334","ios":"levelo://app?vid=87f67e97-3d5d-4e9b-a43f-2ccacab47334"},"vehicle_type_id":"4","last_reported":1768144260,"current_range_meters":2800,"station_id":"ce4bhg92rcd13ifvqf90","pricing_plan_id":"cebpf4jnsgd1na2vs0mg"},{"bike_id":"3d3ab340-7df0-45a6-b6bf-f26dee187b81","system_id":"levelo_inurba_marseille","lat":43.258496,"lon":5.39923,"is_reserved":false,"is_disabled":false,"rental_uris":{"android":"levelo://app?vid=3d3ab340-7df0-45a6-b6bf-f26dee187b81","ios":"levelo://app?vid=3d3ab340-7df0-45a6-b6bf-f26dee187b81"},"vehicle_type_id":"4","last_reported":1768144260,"current_range_meters":2800,"station_id":"ce4bhl92rcd13ifvqghg","pricing_plan_id":"cebpf4jnsgd1na2vs0mg"},{"bike_id":"df548035-cee1-4f4d-b0ba-fa4f5834db8f","system_id":"levelo_inurba_marseille","lat":43.24812,"lon":5.37449,"is_reserved":false,"is_disabled":false,"rental_uris":{"android":"levelo://app?vid=df548035-cee1-4f4d-b0ba-fa4f5834db8f","ios":"levelo://app?vid=df548035-cee1-4f4d-b0ba-fa4f5834db8f"},"vehicle_type_id":"4","last_reported":1768144260,"current_range_meters":2800,"station_id":"ce4bhgh2rcd13ifvqfb0","pricing_plan_id":"cebpf4jnsgd1na2vs0mg"},{"bike_id":"1ceaa45a-f93c-443f-ad85-239474b90b5c","system_id":"levelo_inurba_marseille","lat":43.290073,"lon":5.356166,"is_reserved":false,"is_disabled":false,"rental_uris":{"android":"levelo://app?vid=1ceaa45a-f93c-443f-ad85-239474b90b5c","ios":"levelo://app?vid=1ceaa45a-f93c-443f-ad85-239474b90b5c"},"vehicle_type_id":"4","last_reported":1768144260,"current_range_meters":2800,"station_id":"ce4bhb92rcd13ifvqen0","pricing_plan_id":"cebpf4jnsgd1na2vs0mg"},{"bike_id":"15705fcb-fc6a-4f08-9895-a6a73b2606cb","system_id":"levelo_inurba_marseille","lat":43.26074,"lon":5.39428,"is_reserved":false,"is_disabled":false,"rental_uris":{"android":"levelo://app?vid=15705fcb-fc6a-4f08-9895-a6a73b2606cb","ios":"levelo://app?vid=15705fcb-fc6a-4f08-9895-a6a73b2606cb"},"vehicle_type_id":"4","last_reported":1768144260,"current_range_meters":2800,"station_id":"ce4bhh92rcd13ifvqfj0","pricing_plan_id":"cebpf4jnsgd1na2vs0mg"},{"bike_id":"dbb60bc6-4fb6-45fc-959a-667b177859f9","system_id":"levelo_inurba_marseille","lat":43.24167,"lon":5.36387,"is_reserved":false,"is_disabled":false,"rental_uris":{"android":"levelo://app?vid=dbb60bc6-4fb6-45fc-959a-667b177859f9","ios":"levelo://app?vid=dbb60bc6-4fb6-45fc-959a-667b177859f9"},"vehicle_type_id":"4","last_reported":1768144260,"current_range_meters":2800,"station_id":"cpo36qri1sfpv3e86is0","pricing_plan_id":"cebpf4jnsgd1na2vs0mg"},{"bike_id":"f807eb45-2249-4a58-ad9a-c278e707985e","system_id":"levelo_inurba_marseille","lat":43.28952,"lon":5.38553,"is_reserved":false,"is_disabled":false,"rental_uris":{"android":"levelo://app?vid=f807eb45-2249-4a58-ad9a-c278e707985e","ios":"levelo://app?vid=f807eb45-2249-4a58-ad9a-c278e707985e"},"vehicle_type_id":"4","last_reported":1768144260,"current_range_meters":2800,"station_id":"","pricing_plan_id":"cebpf4jnsgd1na2vs0mg"},{"bike_id":"8dbc6796-10ad-485e-bfaa-05f30cae6c7d","system_id":"levelo_inurba_marseille","lat":43.2952,"lon":5.37893,"is_reserved":false,"is_disabled":true,"rental_uris":{"android":"levelo://app?vid=8dbc6796-10ad-485e-bfaa-05f30cae6c7d","ios":"levelo://app?vid=8dbc6796-10ad-485e-bfaa-05f30cae6c7d"},"vehicle_type_id":"4","last_reported":1768144260,"current_range_meters":2800,"station_id":"","pricing_plan_id":"cebpf4jnsgd1na2vs0mg"},{"bike_id":"5094aeb9-ac3f-47d1-a484-8aeeb36f0571","system_id":"levelo_inurba_marseille","lat":43.27977,"lon":5.41674,"is_reserved":false,"is_disabled":false,"rental_uris":{"android":"levelo://app?vid=5094aeb9-ac3f-47d1-a484-8aeeb36f0571","ios":"levelo://app?vid=5094aeb9-ac3f-47d1-a484-8aeeb36f0571"},"vehicle_type_id":"4","last_reported":1768144260,"current_range_meters":3200,"station_id":"ce4bho12rcd13ifvqh1g","pricing_plan_id":"cebpf4jnsgd1na2vs0mg"},{"bike_id":"b2295231-8d7a-4a3c-8ee1-7dbae04933b0","system_id":"levelo_inurba_marseille","lat":43.26946,"lon":5.40224,"is_reserved":false,"is_disabled":false,"rental_uris":{"android":"levelo://app?vid=b2295231-8d7a-4a3c-8ee1-7dbae04933b0","ios":"levelo://app?vid=b2295231-8d7a-4a3c-8ee1-7dbae04933b0"},"vehicle_type_id":"4","last_reported":1768144260,"current_range_meters":3200,"station_id":"cjm6bp8fraef2m0cb0m0","pricing_plan_id":"cebpf4jnsgd1na2vs0mg"},{"bike_id":"31ddb865-11db-4d02-a42e-59f8adbeb38f","system_id":"levelo_inurba_marseille","lat":43.24051,"lon":5.37771,"is_reserved":false,"is_disabled":false,"rental_uris":{"android":"levelo://app?vid=31ddb865-11db-4d02-a42e-59f8adbeb38f","ios":"levelo://app?vid=31ddb865-11db-4d02-a42e-59f8adbeb38f"},"vehicle_type_id":"4","last_reported":1768144260,"current_range_meters":3200,"station_id":"ce4bhnp2rcd13ifvqgvg","pricing_plan_id":"cebpf4jnsgd1na2vs0mg"},{"bike_id":"1d2da464-79bc-4f4a-9df3-99a307867c6a","system_id":"levelo_inurba_marseille","lat":43.283017,"lon":5.352182,"is_reserved":false,"is_disabled":false,"rental_uris":{"android":"levelo://app?vid=1d2da464-79bc-4f4a-9df3-99a307867c6a","ios":"levelo://app?vid=1d2da464-79bc-4f4a-9df3-99a307867c6a"},"vehicle_type_id":"4","last_reported":1768144260,"current_range_meters":3200,"station_id":"","pricing_plan_id":"cebpf4jnsgd1na2vs0mg"},{"bike_id":"7ea882bf-fcdd-4b8f-9c45-58d3a7503753","system_id":"levelo_inurba_marseille","lat":43.239626,"lon":5.366278,"is_reserved":false,"is_disabled":false,"rental_uris":{"android":"levelo://app?vid=7ea882bf-fcdd-4b8f-9c45-58d3a7503753","ios":"levelo://app?vid=7ea882bf-fcdd-4b8f-9c45-58d3a7503753"},"vehicle_type_id":"4","last_reported":1768144260,"current_range_meters":3200,"station_id":"ce4bhi12rcd13ifvqfp0","pricing_plan_id":"cebpf4jnsgd1na2vs0mg"},{"bike_id":"adc17377-8069-4bc9-89eb-37414e96a5e2","system_id":"levelo_inurba_marseille","lat":43.32476,"lon":5.36555,"is_reserved":false,"is_disabled":false,"rental_uris":{"android":"levelo://app?vid=adc17377-8069-4bc9-89eb-37414e96a5e2","ios":"levelo://app?vid=adc17377-8069-4bc9-89eb-37414e96a5e2"},"vehicle_type_id":"4","last_reported":1768144260,"current_range_meters":3200,"station_id":"ce4bhs12rcd13ifvqhvg","pricing_plan_id":"cebpf4jnsgd1na2vs0mg"},{"bike_id":"6b468f87-c778-443b-b772-9f7ef9ff4c87","system_id":"levelo_inurba_marseille","lat":43.24385,"lon":5.37054,"is_reserved":false,"is_disabled":false,"rental_uris":{"android":"levelo://app?vid=6b468f87-c778-443b-b772-9f7ef9ff4c87","ios":"levelo://app?vid=6b468f87-c778-443b-b772-9f7ef9ff4c87"},"vehicle_type_id":"4","last_reported":1768144260,"current_range_meters":3200,"station_id":"ce4bhhh2rcd13ifvqfk0","pricing_plan_id":"cebpf4jnsgd1na2vs0mg"},{"bike_id":"b0705fba-044f-40d4-aa4d-c063a6c8eff7","system_id":"levelo_inurba_marseille","lat":43.29,"lon":5.35628,"is_reserved":false,"is_disabled":false,"rental_uris":{"android":"levelo://app?vid=b0705fba-044f-40d4-aa4d-c063a6c8eff7","ios":"levelo://app?vid=b0705fba-044f-40d4-aa4d-c063a6c8eff7"},"vehicle_type_id":"4","last_reported":1768144260,"current_range_meters":3200,"station_id":"ce4bhb92rcd13ifvqen0","pricing_plan_id":"cebpf4jnsgd1na2vs0mg"},{"bike_id":"ff1b366e-4d96-4ac4-80a4-581a393c5884","system_id":"levelo_inurba_marseille","lat":43.25494,"lon":5.37651,"is_reserved":false,"is_disabled":false,"rental_uris":{"android":"levelo://app?vid=ff1b366e-4d96-4ac4-80a4-581a393c5884","ios":"levelo://app?vid=ff1b366e-4d96-4ac4-80a4-581a393c5884"},"vehicle_type_id":"4","last_reported":1768144260,"current_range_meters":3600,"station_id":"ce4bhh12rcd13ifvqff0","pricing_plan_id":"cebpf4jnsgd1na2vs0mg"},{"bike_id":"d29147e9-12b9-49d5-9a41-487e37c613b5","system_id":"levelo_inurba_marseille","lat":43.22564,"lon":5.41634,"is_reserved":false,"is_disabled":false,"rental_uris":{"android":"levelo://app?vid=d29147e9-12b9-49d5-9a41-487e37c613b5","ios":"levelo://app?vid=d29147e9-12b9-49d5-9a41-487e37c613b5"},"vehicle_type_id":"4","last_reported":1768144260,"current_range_meters":3600,"station_id":"st_d2o4gvlbi1j2169b742g","pricing_plan_id":"cebpf4jnsgd1na2vs0mg"},{"bike_id":"a1dcd8bf-b300-4092-8c84-5204375249a5","system_id":"levelo_inurba_marseille","lat":43.24808,"lon":5.37458,"is_reserved":false,"is_disabled":false,"rental_uris":{"android":"levelo://app?vid=a1dcd8bf-b300-4092-8c84-5204375249a5","ios":"levelo://app?vid=a1dcd8bf-b300-4092-8c84-5204375249a5"},"vehicle_type_id":"4","last_reported":1768144260,"current_range_meters":3600,"station_id":"ce4bhgh2rcd13ifvqfb0","pricing_plan_id":"cebpf4jnsgd1na2vs0mg"},{"bike_id":"7b2e1feb-e452-437c-bf2c-529398956fa8","system_id":"levelo_inurba_marseille","lat":43.27329,"lon":5.39091,"is_reserved":false,"is_disabled":false,"rental_uris":{"android":"levelo://app?vid=7b2e1feb-e452-437c-bf2c-529398956fa8","ios":"levelo://app?vid=7b2e1feb-e452-437c-bf2c-529398956fa8"},"vehicle_type_id":"4","last_reported":1768144260,"current_range_meters":3600,"station_id":"ce4bhgp2rcd13ifvqfe0","pricing_plan_id":"cebpf4jnsgd1na2vs0mg"},{"bike_id":"2f94929b-7e6c-4e24-b276-2f585e92f29a","system_id":"levelo_inurba_marseille","lat":43.297576,"lon":5.427726,"is_reserved":false,"is_disabled":true,"rental_uris":{"android":"levelo://app?vid=2f94929b-7e6c-4e24-b276-2f585e92f29a","ios":"levelo://app?vid=2f94929b-7e6c-4e24-b276-2f585e92f29a"},"vehicle_type_id":"4","last_reported":1768144260,"current_range_meters":3600,"station_id":"st_d3md5207bmas73dh9klg","pricing_plan_id":"cebpf4jnsgd1na2vs0mg"},{"bike_id":"10679ca2-c408-4f6e-9cb7-c327ffeb6465","system_id":"levelo_inurba_marseille","lat":43.289555,"lon":5.36394,"is_reserved":false,"is_disabled":false,"rental_uris":{"android":"levelo://app?vid=10679ca2-c408-4f6e-9cb7-c327ffeb6465","ios":"levelo://app?vid=10679ca2-c408-4f6e-9cb7-c327ffeb6465"},"vehicle_type_id":"4","last_reported":1768144260,"current_range_meters":3600,"station_id":"ce4bhc92rcd13ifvqetg","pricing_plan_id":"cebpf4jnsgd1na2vs0mg"},{"bike_id":"7bacb1b8-d414-4ae1-b1b9-375c09195819","system_id":"levelo_inurba_marseille","lat":43.30548,"lon":5.36556,"is_reserved":false,"is_disabled":false,"rental_uris":{"android":"levelo://app?vid=7bacb1b8-d414-4ae1-b1b9-375c09195819","ios":"levelo://app?vid=7bacb1b8-d414-4ae1-b1b9-375c09195819"},"vehicle_type_id":"4","last_reported":1768144260,"current_range_meters":3600,"station_id":"ce4bgs12rcd13ifvqcag","pricing_plan_id":"cebpf4jnsgd1na2vs0mg"},{"bike_id":"e3f8a098-8639-446b-9c17-a55f46262e9c","system_id":"levelo_inurba_marseille","lat":43.25344,"lon":5.42152,"is_reserved":false,"is_disabled":false,"rental_uris":{"android":"levelo://app?vid=e3f8a098-8639-446b-9c17-a55f46262e9c","ios":"levelo://app?vid=e3f8a098-8639-446b-9c17-a55f46262e9c"},"vehicle_type_id":"4","last_reported":1768144260,"current_range_meters":3600,"station_id":"st_d2m65c5bi1j21697t3ng","pricing_plan_id":"cebpf4jnsgd1na2vs0mg"},{"bike_id":"cb2ed7b5-31c9-42e2-885e-c3b6fb2bb225","system_id":"levelo_inurba_marseille","lat":43.23966,"lon":5.36625,"is_reserved":false,"is_disabled":false,"rental_uris":{"android":"levelo://app?vid=cb2ed7b5-31c9-42e2-885e-c3b6fb2bb225","ios":"levelo://app?vid=cb2ed7b5-31c9-42e2-885e-c3b6fb2bb225"},"vehicle_type_id":"4","last_reported":1768144260,"current_range_meters":3600,"station_id":"ce4bhi12rcd13ifvqfp0","pricing_plan_id":"cebpf4jnsgd1na2vs0mg"},{"bike_id":"c253fa61-8fed-462f-a5ce-20493a3a0b3d","system_id":"levelo_inurba_marseille","lat":43.27894,"lon":5.38008,"is_reserved":false,"is_disabled":false,"rental_uris":{"android":"levelo://app?vid=c253fa61-8fed-462f-a5ce-20493a3a0b3d","ios":"levelo://app?vid=c253fa61-8fed-462f-a5ce-20493a3a0b3d"},"vehicle_type_id":"4","last_reported":1768144260,"current_range_meters":3600,"station_id":"ce4bhf92rcd13ifvqf50","pricing_plan_id":"cebpf4jnsgd1na2vs0mg"},{"bike_id":"0b09aa27-0b01-4b3a-8132-f473500df553","system_id":"levelo_inurba_marseille","lat":43.29029,"lon":5.43969,"is_reserved":false,"is_disabled":false,"rental_uris":{"android":"levelo://app?vid=0b09aa27-0b01-4b3a-8132-f473500df553","ios":"levelo://app?vid=0b09aa27-0b01-4b3a-8132-f473500df553"},"vehicle_type_id":"4","last_reported":1768144260,"current_range_meters":3600,"station_id":"","pricing_plan_id":"cebpf4jnsgd1na2vs0mg"},{"bike_id":"b1764e4c-a901-41ad-88fb-d93a1e39a2fc","system_id":"levelo_inurba_marseille","lat":43.2654,"lon":5.37273,"is_reserved":false,"is_disabled":false,"rental_uris":{"android":"levelo://app?vid=b1764e4c-a901-41ad-88fb-d93a1e39a2fc","ios":"levelo://app?vid=b1764e4c-a901-41ad-88fb-d93a1e39a2fc"},"vehicle_type_id":"4","last_reported":1768144260,"current_range_meters":3600,"station_id":"ce4bhg12rcd13ifvqf70","pricing_plan_id":"cebpf4jnsgd1na2vs0mg"},{"bike_id":"1b1b65f2-5621-43a3-8721-1a01794caa40","system_id":"levelo_inurba_marseille","lat":43.23967,"lon":5.36617,"is_reserved":false,"is_disabled":false,"rental_uris":{"android":"levelo://app?vid=1b1b65f2-5621-43a3-8721-1a01794caa40","ios":"levelo://app?vid=1b1b65f2-5621-43a3-8721-1a01794caa40"},"vehicle_type_id":"4","last_reported":1768144260,"current_range_meters":3600,"station_id":"ce4bhi12rcd13ifvqfp0","pricing_plan_id":"cebpf4jnsgd1na2vs0mg"},{"bike_id":"21fd000f-f4ce-4f18-a6a2-88e29d9458f7","system_id":"levelo_inurba_marseille","lat":43.23784,"lon":5.36594,"is_reserved":false,"is_disabled":false,"rental_uris":{"android":"levelo://app?vid=21fd000f-f4ce-4f18-a6a2-88e29d9458f7","ios":"levelo://app?vid=21fd000f-f4ce-4f18-a6a2-88e29d9458f7"},"vehicle_type_id":"4","last_reported":1768144260,"current_range_meters":3600,"station_id":"st_d3nk18o9ro0c73en2l3g","pricing_plan_id":"cebpf4jnsgd1na2vs0mg"},{"bike_id":"dbe9e179-37a7-4bf6-8958-b4f7e3523bb3","system_id":"levelo_inurba_marseille","lat":43.2829,"lon":5.43012,"is_reserved":false,"is_disabled":false,"rental_uris":{"android":"levelo://app?vid=dbe9e179-37a7-4bf6-8958-b4f7e3523bb3","ios":"levelo://app?vid=dbe9e179-37a7-4bf6-8958-b4f7e3523bb3"},"vehicle_type_id":"4","last_reported":1768144260,"current_range_meters":3600,"station_id":"","pricing_plan_id":"cebpf4jnsgd1na2vs0mg"},{"bike_id":"f8075f9d-b8a7-4230-8aa6-7f7f95cc5413","system_id":"levelo_inurba_marseille","lat":43.28206,"lon":5.39048,"is_reserved":false,"is_disabled":true,"rental_uris":{"android":"levelo://app?vid=f8075f9d-b8a7-4230-8aa6-7f7f95cc5413","ios":"levelo://app?vid=f8075f9d-b8a7-4230-8aa6-7f7f95cc5413"},"vehicle_type_id":"4","last_reported":1768144260,"current_range_meters":4000,"station_id":"ce4bhn92rcd13ifvqgsg","pricing_plan_id":"cebpf4jnsgd1na2vs0mg"},{"bike_id":"611d5909-481c-4108-a2ce-d73d9b8234f6","system_id":"levelo_inurba_marseille","lat":43.261999,"lon":5.374492,"is_reserved":false,"is_disabled":false,"rental_uris":{"android":"levelo://app?vid=611d5909-481c-4108-a2ce-d73d9b8234f6","ios":"levelo://app?vid=611d5909-481c-4108-a2ce-d73d9b8234f6"},"vehicle_type_id":"4","last_reported":1768144260,"current_range_meters":4000,"station_id":"ce4bhgp2rcd13ifvqfc0","pricing_plan_id":"cebpf4jnsgd1na2vs0mg"},{"bike_id":"1b3bfb24-a9b3-432e-a377-81ff67edd865","system_id":"levelo_inurba_marseille","lat":43.24476,"lon":5.42517,"is_reserved":false,"is_disabled":false,"rental_uris":{"android":"levelo://app?vid=1b3bfb24-a9b3-432e-a377-81ff67edd865","ios":"levelo://app?vid=1b3bfb24-a9b3-432e-a377-81ff67edd865"},"vehicle_type_id":"4","last_reported":1768144260,"current_range_meters":4000,"station_id":"st_d4a3vfp97mjs738cd8kg","pricing_plan_id":"cebpf4jnsgd1na2vs0mg"},{"bike_id":"9ba3abdd-ccf0-4033-8df7-7454ef98b00e","system_id":"levelo_inurba_marseille","lat":43.23787,"lon":5.36612,"is_reserved":false,"is_disabled":false,"rental_uris":{"android":"levelo://app?vid=9ba3abdd-ccf0-4033-8df7-7454ef98b00e","ios":"levelo://app?vid=9ba3abdd-ccf0-4033-8df7-7454ef98b00e"},"vehicle_type_id":"4","last_reported":1768144260,"current_range_meters":4000,"station_id":"st_d3nk18o9ro0c73en2l3g","pricing_plan_id":"cebpf4jnsgd1na2vs0mg"},{"bike_id":"d185ea19-d0b9-48e8-b8ad-c2d47e27d62f","system_id":"levelo_inurba_marseille","lat":43.24192,"lon":5.39741,"is_reserved":false,"is_disabled":false,"rental_uris":{"android":"levelo://app?vid=d185ea19-d0b9-48e8-b8ad-c2d47e27d62f","ios":"levelo://app?vid=d185ea19-d0b9-48e8-b8ad-c2d47e27d62f"},"vehicle_type_id":"4","last_reported":1768144260,"current_range_meters":4000,"station_id":"ce4bhn12rcd13ifvqgpg","pricing_plan_id":"cebpf4jnsgd1na2vs0mg"},{"bike_id":"16e3fedb-ca09-4c48-89c8-9b7e653afc1d","system_id":"levelo_inurba_marseille","lat":43.21234,"lon":5.35027,"is_reserved":false,"is_disabled":false,"rental_uris":{"android":"levelo://app?vid=16e3fedb-ca09-4c48-89c8-9b7e653afc1d","ios":"levelo://app?vid=16e3fedb-ca09-4c48-89c8-9b7e653afc1d"},"vehicle_type_id":"4","last_reported":1768144260,"current_range_meters":4000,"station_id":"","pricing_plan_id":"cebpf4jnsgd1na2vs0mg"},{"bike_id":"d26f4054-daa5-4936-9c27-6bfc7457f4e6","system_id":"levelo_inurba_marseille","lat":43.288401,"lon":5.35844,"is_reserved":false,"is_disabled":false,"rental_uris":{"android":"levelo://app?vid=d26f4054-daa5-4936-9c27-6bfc7457f4e6","ios":"levelo://app?vid=d26f4054-daa5-4936-9c27-6bfc7457f4e6"},"vehicle_type_id":"4","last_reported":1768144260,"current_range_meters":4000,"station_id":"ce4bhb12rcd13ifvqem0","pricing_plan_id":"cebpf4jnsgd1na2vs0mg"},{"bike_id":"3298400b-a581-435c-aa7d-6c0aebe8e78f","system_id":"levelo_inurba_marseille","lat":43.32479,"lon":5.36561,"is_reserved":false,"is_disabled":false,"rental_uris":{"android":"levelo://app?vid=3298400b-a581-435c-aa7d-6c0aebe8e78f","ios":"levelo://app?vid=3298400b-a581-435c-aa7d-6c0aebe8e78f"},"vehicle_type_id":"4","last_reported":1768144260,"current_range_meters":4400,"station_id":"ce4bhs12rcd13ifvqhvg","pricing_plan_id":"cebpf4jnsgd1na2vs0mg"},{"bike_id":"9f0bec8a-d8c3-4362-a3e4-51b3613e9f15","system_id":"levelo_inurba_marseille","lat":43.29849,"lon":5.39738,"is_reserved":false,"is_disabled":false,"rental_uris":{"android":"levelo://app?vid=9f0bec8a-d8c3-4362-a3e4-51b3613e9f15","ios":"levelo://app?vid=9f0bec8a-d8c3-4362-a3e4-51b3613e9f15"},"vehicle_type_id":"4","last_reported":1768144260,"current_range_meters":4400,"station_id":"ce4bh0h2rcd13ifvqd50","pricing_plan_id":"cebpf4jnsgd1na2vs0mg"},{"bike_id":"73aa8b26-ad51-4672-82b0-eabd4ddaa3c3","system_id":"levelo_inurba_marseille","lat":43.288563,"lon":5.358204,"is_reserved":false,"is_disabled":false,"rental_uris":{"android":"levelo://app?vid=73aa8b26-ad51-4672-82b0-eabd4ddaa3c3","ios":"levelo://app?vid=73aa8b26-ad51-4672-82b0-eabd4ddaa3c3"},"vehicle_type_id":"4","last_reported":1768144260,"current_range_meters":4400,"station_id":"ce4bhb12rcd13ifvqem0","pricing_plan_id":"cebpf4jnsgd1na2vs0mg"},{"bike_id":"ff43ef99-a2e3-42cb-a87f-e919c3749872","system_id":"levelo_inurba_marseille","lat":43.29717,"lon":5.41478,"is_reserved":false,"is_disabled":false,"rental_uris":{"android":"levelo://app?vid=ff43ef99-a2e3-42cb-a87f-e919c3749872","ios":"levelo://app?vid=ff43ef99-a2e3-42cb-a87f-e919c3749872"},"vehicle_type_id":"4","last_reported":1768144260,"current_range_meters":4400,"station_id":"","pricing_plan_id":"cebpf4jnsgd1na2vs0mg"},{"bike_id":"499b63c7-d47c-4bda-89d6-56b8c0a94a03","system_id":"levelo_inurba_marseille","lat":43.31668,"lon":5.43065,"is_reserved":false,"is_disabled":false,"rental_uris":{"android":"levelo://app?vid=499b63c7-d47c-4bda-89d6-56b8c0a94a03","ios":"levelo://app?vid=499b63c7-d47c-4bda-89d6-56b8c0a94a03"},"vehicle_type_id":"4","last_reported":1768144260,"current_range_meters":4400,"station_id":"","pricing_plan_id":"cebpf4jnsgd1na2vs0mg"},{"bike_id":"966aeaae-8409-4e1d-ad10-b5fd960928a1","system_id":"levelo_inurba_marseille","lat":43.31071,"lon":5.38349,"is_reserved":false,"is_disabled":false,"rental_uris":{"android":"levelo://app?vid=966aeaae-8409-4e1d-ad10-b5fd960928a1","ios":"levelo://app?vid=966aeaae-8409-4e1d-ad10-b5fd960928a1"},"vehicle_type_id":"4","last_reported":1768144260,"current_range_meters":4400,"station_id":"ce4bgv92rcd13ifvqcr0","pricing_plan_id":"cebpf4jnsgd1na2vs0mg"},{"bike_id":"82ea0eff-fcdd-49ac-8b94-8e49ceef320f","system_id":"levelo_inurba_marseille","lat":43.26217,"lon":5.37443,"is_reserved":false,"is_disabled":false,"rental_uris":{"android":"levelo://app?vid=82ea0eff-fcdd-49ac-8b94-8e49ceef320f","ios":"levelo://app?vid=82ea0eff-fcdd-49ac-8b94-8e49ceef320f"},"vehicle_type_id":"4","last_reported":1768144260,"current_range_meters":4400,"station_id":"ce4bhgp2rcd13ifvqfc0","pricing_plan_id":"cebpf4jnsgd1na2vs0mg"},{"bike_id":"ff91d566-89da-4f23-a85f-8fe443e9709a","system_id":"levelo_inurba_marseille","lat":43.21749,"lon":5.34614,"is_reserved":false,"is_disabled":false,"rental_uris":{"android":"levelo://app?vid=ff91d566-89da-4f23-a85f-8fe443e9709a","ios":"levelo://app?vid=ff91d566-89da-4f23-a85f-8fe443e9709a"},"vehicle_type_id":"4","last_reported":1768144260,"current_range_meters":4400,"station_id":"st_cvj6r9ubvosntc0bgbag","pricing_plan_id":"cebpf4jnsgd1na2vs0mg"},{"bike_id":"d047f3e6-5232-4d8a-a716-cf93d04ed4b1","system_id":"levelo_inurba_marseille","lat":43.27171,"lon":5.41002,"is_reserved":false,"is_disabled":false,"rental_uris":{"android":"levelo://app?vid=d047f3e6-5232-4d8a-a716-cf93d04ed4b1","ios":"levelo://app?vid=d047f3e6-5232-4d8a-a716-cf93d04ed4b1"},"vehicle_type_id":"4","last_reported":1768144260,"current_range_meters":4400,"station_id":"ce4bhl12rcd13ifvqgf0","pricing_plan_id":"cebpf4jnsgd1na2vs0mg"},{"bike_id":"9695ced4-9069-43de-9381-414e38a96d05","system_id":"levelo_inurba_marseille","lat":43.30051,"lon":5.37165,"is_reserved":false,"is_disabled":false,"rental_uris":{"android":"levelo://app?vid=9695ced4-9069-43de-9381-414e38a96d05","ios":"levelo://app?vid=9695ced4-9069-43de-9381-414e38a96d05"},"vehicle_type_id":"4","last_reported":1768144260,"current_range_meters":4400,"station_id":"","pricing_plan_id":"cebpf4jnsgd1na2vs0mg"},{"bike_id":"7f391882-abdd-4a67-9c14-bc81f5c2dbfb","system_id":"levelo_inurba_marseille","lat":43.24062,"lon":5.37761,"is_reserved":false,"is_disabled":false,"rental_uris":{"android":"levelo://app?vid=7f391882-abdd-4a67-9c14-bc81f5c2dbfb","ios":"levelo://app?vid=7f391882-abdd-4a67-9c14-bc81f5c2dbfb"},"vehicle_type_id":"4","last_reported":1768144260,"current_range_meters":4400,"station_id":"ce4bhnp2rcd13ifvqgvg","pricing_plan_id":"cebpf4jnsgd1na2vs0mg"},{"bike_id":"7c6e8543-32df-4a27-bc11-b68f55311974","system_id":"levelo_inurba_marseille","lat":43.284771,"lon":5.484074,"is_reserved":false,"is_disabled":false,"rental_uris":{"android":"levelo://app?vid=7c6e8543-32df-4a27-bc11-b68f55311974","ios":"levelo://app?vid=7c6e8543-32df-4a27-bc11-b68f55311974"},"vehicle_type_id":"4","last_reported":1768144260,"current_range_meters":4400,"station_id":"","pricing_plan_id":"cebpf4jnsgd1na2vs0mg"},{"bike_id":"c7c2fb25-2812-4554-a688-8c1334dc293c","system_id":"levelo_inurba_marseille","lat":43.33359,"lon":5.41124,"is_reserved":false,"is_disabled":false,"rental_uris":{"android":"levelo://app?vid=c7c2fb25-2812-4554-a688-8c1334dc293c","ios":"levelo://app?vid=c7c2fb25-2812-4554-a688-8c1334dc293c"},"vehicle_type_id":"4","last_reported":1768144260,"current_range_meters":4400,"station_id":"","pricing_plan_id":"cebpf4jnsgd1na2vs0mg"},{"bike_id":"b62ff4b3-6a3a-419d-85d1-6a59965f4e3e","system_id":"levelo_inurba_marseille","lat":43.22932,"lon":5.353763,"is_reserved":false,"is_disabled":false,"rental_uris":{"android":"levelo://app?vid=b62ff4b3-6a3a-419d-85d1-6a59965f4e3e","ios":"levelo://app?vid=b62ff4b3-6a3a-419d-85d1-6a59965f4e3e"},"vehicle_type_id":"4","last_reported":1768144260,"current_range_meters":4400,"station_id":"cpo3532slgdg3j2ikp40","pricing_plan_id":"cebpf4jnsgd1na2vs0mg"},{"bike_id":"a5d48e5a-4bc7-4550-bc20-8208d7c6f029","system_id":"levelo_inurba_marseille","lat":43.28616,"lon":5.35106,"is_reserved":false,"is_disabled":false,"rental_uris":{"android":"levelo://app?vid=a5d48e5a-4bc7-4550-bc20-8208d7c6f029","ios":"levelo://app?vid=a5d48e5a-4bc7-4550-bc20-8208d7c6f029"},"vehicle_type_id":"4","last_reported":1768144260,"current_range_meters":4400,"station_id":"ce4bhch2rcd13ifvqeug","pricing_plan_id":"cebpf4jnsgd1na2vs0mg"},{"bike_id":"3a7d4bf0-4f04-4cf8-b966-90e49b6d003c","system_id":"levelo_inurba_marseille","lat":43.26567,"lon":5.39012,"is_reserved":false,"is_disabled":false,"rental_uris":{"android":"levelo://app?vid=3a7d4bf0-4f04-4cf8-b966-90e49b6d003c","ios":"levelo://app?vid=3a7d4bf0-4f04-4cf8-b966-90e49b6d003c"},"vehicle_type_id":"4","last_reported":1768144260,"current_range_meters":4800,"station_id":"ce4bhe12rcd13ifvqf30","pricing_plan_id":"cebpf4jnsgd1na2vs0mg"},{"bike_id":"520f905b-9190-4407-aa69-8696aaa8c86e","system_id":"levelo_inurba_marseille","lat":43.29762,"lon":5.37082,"is_reserved":false,"is_disabled":false,"rental_uris":{"android":"levelo://app?vid=520f905b-9190-4407-aa69-8696aaa8c86e","ios":"levelo://app?vid=520f905b-9190-4407-aa69-8696aaa8c86e"},"vehicle_type_id":"4","last_reported":1768144260,"current_range_meters":4800,"station_id":"ce4bgop2rcd13ifvqc1g","pricing_plan_id":"cebpf4jnsgd1na2vs0mg"},{"bike_id":"a815540b-72e6-4e6f-b923-e273e879b5e8","system_id":"levelo_inurba_marseille","lat":43.255781,"lon":5.382438,"is_reserved":false,"is_disabled":false,"rental_uris":{"android":"levelo://app?vid=a815540b-72e6-4e6f-b923-e273e879b5e8","ios":"levelo://app?vid=a815540b-72e6-4e6f-b923-e273e879b5e8"},"vehicle_type_id":"4","last_reported":1768144260,"current_range_meters":4800,"station_id":"ce4bhih2rcd13ifvqfs0","pricing_plan_id":"cebpf4jnsgd1na2vs0mg"},{"bike_id":"482b64f0-95c8-4d9a-ad82-af53e37e0257","system_id":"levelo_inurba_marseille","lat":43.2119,"lon":5.35074,"is_reserved":false,"is_disabled":false,"rental_uris":{"android":"levelo://app?vid=482b64f0-95c8-4d9a-ad82-af53e37e0257","ios":"levelo://app?vid=482b64f0-95c8-4d9a-ad82-af53e37e0257"},"vehicle_type_id":"4","last_reported":1768144260,"current_range_meters":4800,"station_id":"st_cvj6sg6p6f1abm77japg","pricing_plan_id":"cebpf4jnsgd1na2vs0mg"},{"bike_id":"66ae2066-20c7-4352-a2eb-0e3d6d9d2dc9","system_id":"levelo_inurba_marseille","lat":43.29714,"lon":5.37684,"is_reserved":false,"is_disabled":false,"rental_uris":{"android":"levelo://app?vid=66ae2066-20c7-4352-a2eb-0e3d6d9d2dc9","ios":"levelo://app?vid=66ae2066-20c7-4352-a2eb-0e3d6d9d2dc9"},"vehicle_type_id":"4","last_reported":1768144260,"current_range_meters":4800,"station_id":"ce4bgkh2rcd13ifvqbl0","pricing_plan_id":"cebpf4jnsgd1na2vs0mg"},{"bike_id":"6074d460-8355-43c9-ad00-28e850a7492f","system_id":"levelo_inurba_marseille","lat":43.288705,"lon":5.425178,"is_reserved":false,"is_disabled":false,"rental_uris":{"android":"levelo://app?vid=6074d460-8355-43c9-ad00-28e850a7492f","ios":"levelo://app?vid=6074d460-8355-43c9-ad00-28e850a7492f"},"vehicle_type_id":"4","last_reported":1768144260,"current_range_meters":4800,"station_id":"st_d3b462108ojc7389ooeg","pricing_plan_id":"cebpf4jnsgd1na2vs0mg"},{"bike_id":"3a944ff1-8f80-4b3a-87d1-40b3f03c9b0c","system_id":"levelo_inurba_marseille","lat":43.31093,"lon":5.38634,"is_reserved":false,"is_disabled":false,"rental_uris":{"android":"levelo://app?vid=3a944ff1-8f80-4b3a-87d1-40b3f03c9b0c","ios":"levelo://app?vid=3a944ff1-8f80-4b3a-87d1-40b3f03c9b0c"},"vehicle_type_id":"4","last_reported":1768144260,"current_range_meters":4800,"station_id":"","pricing_plan_id":"cebpf4jnsgd1na2vs0mg"},{"bike_id":"5f1926fd-d72e-4e1b-9f43-3129c1820cf8","system_id":"levelo_inurba_marseille","lat":43.29009,"lon":5.35599,"is_reserved":false,"is_disabled":false,"rental_uris":{"android":"levelo://app?vid=5f1926fd-d72e-4e1b-9f43-3129c1820cf8","ios":"levelo://app?vid=5f1926fd-d72e-4e1b-9f43-3129c1820cf8"},"vehicle_type_id":"4","last_reported":1768144260,"current_range_meters":4800,"station_id":"ce4bhb92rcd13ifvqen0","pricing_plan_id":"cebpf4jnsgd1na2vs0mg"},{"bike_id":"a20e324f-461e-49f1-9758-c1dce453e58f","system_id":"levelo_inurba_marseille","lat":43.22937,"lon":5.35373,"is_reserved":false,"is_disabled":false,"rental_uris":{"android":"levelo://app?vid=a20e324f-461e-49f1-9758-c1dce453e58f","ios":"levelo://app?vid=a20e324f-461e-49f1-9758-c1dce453e58f"},"vehicle_type_id":"4","last_reported":1768144260,"current_range_meters":4800,"station_id":"cpo3532slgdg3j2ikp40","pricing_plan_id":"cebpf4jnsgd1na2vs0mg"},{"bike_id":"915e50fc-eb77-46cf-8656-e7c415747427","system_id":"levelo_inurba_marseille","lat":43.30375,"lon":5.42489,"is_reserved":false,"is_disabled":false,"rental_uris":{"android":"levelo://app?vid=915e50fc-eb77-46cf-8656-e7c415747427","ios":"levelo://app?vid=915e50fc-eb77-46cf-8656-e7c415747427"},"vehicle_type_id":"4","last_reported":1768144260,"current_range_meters":4800,"station_id":"ce4bhoh2rcd13ifvqh6g","pricing_plan_id":"cebpf4jnsgd1na2vs0mg"},{"bike_id":"7d830b5d-9ecf-4784-ac40-38317f2e4419","system_id":"levelo_inurba_marseille","lat":43.27605,"lon":5.36118,"is_reserved":false,"is_disabled":false,"rental_uris":{"android":"levelo://app?vid=7d830b5d-9ecf-4784-ac40-38317f2e4419","ios":"levelo://app?vid=7d830b5d-9ecf-4784-ac40-38317f2e4419"},"vehicle_type_id":"4","last_reported":1768144260,"current_range_meters":4800,"station_id":"ce4bgj92rcd13ifvqbe0","pricing_plan_id":"cebpf4jnsgd1na2vs0mg"},{"bike_id":"e55c9f86-50a1-4115-b25f-eff46507af6e","system_id":"levelo_inurba_marseille","lat":43.28637,"lon":5.3509,"is_reserved":false,"is_disabled":false,"rental_uris":{"android":"levelo://app?vid=e55c9f86-50a1-4115-b25f-eff46507af6e","ios":"levelo://app?vid=e55c9f86-50a1-4115-b25f-eff46507af6e"},"vehicle_type_id":"4","last_reported":1768144260,"current_range_meters":4800,"station_id":"ce4bhch2rcd13ifvqeug","pricing_plan_id":"cebpf4jnsgd1na2vs0mg"},{"bike_id":"21f2137c-178c-4a13-87c4-5d3f3db886f2","system_id":"levelo_inurba_marseille","lat":43.24463,"lon":5.42539,"is_reserved":false,"is_disabled":false,"rental_uris":{"android":"levelo://app?vid=21f2137c-178c-4a13-87c4-5d3f3db886f2","ios":"levelo://app?vid=21f2137c-178c-4a13-87c4-5d3f3db886f2"},"vehicle_type_id":"4","last_reported":1768144260,"current_range_meters":4800,"station_id":"st_d4a3vfp97mjs738cd8kg","pricing_plan_id":"cebpf4jnsgd1na2vs0mg"},{"bike_id":"71d57bf5-c230-447a-940e-2204353fcc06","system_id":"levelo_inurba_marseille","lat":43.23056,"lon":5.35491,"is_reserved":false,"is_disabled":false,"rental_uris":{"android":"levelo://app?vid=71d57bf5-c230-447a-940e-2204353fcc06","ios":"levelo://app?vid=71d57bf5-c230-447a-940e-2204353fcc06"},"vehicle_type_id":"4","last_reported":1768144260,"current_range_meters":4800,"station_id":"cpo3342slgdg3j2ifvpg","pricing_plan_id":"cebpf4jnsgd1na2vs0mg"},{"bike_id":"a2cbe1b6-513a-4fb3-92e4-6a53dcb07592","system_id":"levelo_inurba_marseille","lat":43.29238,"lon":5.360925,"is_reserved":false,"is_disabled":false,"rental_uris":{"android":"levelo://app?vid=a2cbe1b6-513a-4fb3-92e4-6a53dcb07592","ios":"levelo://app?vid=a2cbe1b6-513a-4fb3-92e4-6a53dcb07592"},"vehicle_type_id":"4","last_reported":1768144260,"current_range_meters":4800,"station_id":"ce4bhbh2rcd13ifvqeqg","pricing_plan_id":"cebpf4jnsgd1na2vs0mg"},{"bike_id":"e7e6cb92-4ba6-4878-a96f-e087afdbdbc0","system_id":"levelo_inurba_marseille","lat":43.22929,"lon":5.35377,"is_reserved":false,"is_disabled":false,"rental_uris":{"android":"levelo://app?vid=e7e6cb92-4ba6-4878-a96f-e087afdbdbc0","ios":"levelo://app?vid=e7e6cb92-4ba6-4878-a96f-e087afdbdbc0"},"vehicle_type_id":"4","last_reported":1768144260,"current_range_meters":5600,"station_id":"cpo3532slgdg3j2ikp40","pricing_plan_id":"cebpf4jnsgd1na2vs0mg"},{"bike_id":"63fdfcde-c194-4554-84ef-d1d69c79a723","system_id":"levelo_inurba_marseille","lat":43.29,"lon":5.35616,"is_reserved":false,"is_disabled":false,"rental_uris":{"android":"levelo://app?vid=63fdfcde-c194-4554-84ef-d1d69c79a723","ios":"levelo://app?vid=63fdfcde-c194-4554-84ef-d1d69c79a723"},"vehicle_type_id":"4","last_reported":1768144260,"current_range_meters":5600,"station_id":"ce4bhb92rcd13ifvqen0","pricing_plan_id":"cebpf4jnsgd1na2vs0mg"},{"bike_id":"34b08f38-0c81-41bc-a4f2-7c28ada5b497","system_id":"levelo_inurba_marseille","lat":43.28448,"lon":5.39198,"is_reserved":false,"is_disabled":false,"rental_uris":{"android":"levelo://app?vid=34b08f38-0c81-41bc-a4f2-7c28ada5b497","ios":"levelo://app?vid=34b08f38-0c81-41bc-a4f2-7c28ada5b497"},"vehicle_type_id":"4","last_reported":1768144260,"current_range_meters":5600,"station_id":"ce4bhoh2rcd13ifvqh5g","pricing_plan_id":"cebpf4jnsgd1na2vs0mg"},{"bike_id":"de025d8b-9701-499a-99d0-5a88bfb4d63f","system_id":"levelo_inurba_marseille","lat":43.25579,"lon":5.38244,"is_reserved":false,"is_disabled":false,"rental_uris":{"android":"levelo://app?vid=de025d8b-9701-499a-99d0-5a88bfb4d63f","ios":"levelo://app?vid=de025d8b-9701-499a-99d0-5a88bfb4d63f"},"vehicle_type_id":"4","last_reported":1768144260,"current_range_meters":5600,"station_id":"ce4bhih2rcd13ifvqfs0","pricing_plan_id":"cebpf4jnsgd1na2vs0mg"},{"bike_id":"f022b7b1-b862-409c-962c-4e0f0a54f1c6","system_id":"levelo_inurba_marseille","lat":43.27058,"lon":5.40252,"is_reserved":false,"is_disabled":false,"rental_uris":{"android":"levelo://app?vid=f022b7b1-b862-409c-962c-4e0f0a54f1c6","ios":"levelo://app?vid=f022b7b1-b862-409c-962c-4e0f0a54f1c6"},"vehicle_type_id":"4","last_reported":1768144260,"current_range_meters":5600,"station_id":"ce4bhk92rcd13ifvqgc0","pricing_plan_id":"cebpf4jnsgd1na2vs0mg"},{"bike_id":"604f78fd-36d7-4821-843f-e68feb228a98","system_id":"levelo_inurba_marseille","lat":43.241607,"lon":5.364217,"is_reserved":false,"is_disabled":false,"rental_uris":{"android":"levelo://app?vid=604f78fd-36d7-4821-843f-e68feb228a98","ios":"levelo://app?vid=604f78fd-36d7-4821-843f-e68feb228a98"},"vehicle_type_id":"4","last_reported":1768144260,"current_range_meters":5600,"station_id":"cpo36qri1sfpv3e86is0","pricing_plan_id":"cebpf4jnsgd1na2vs0mg"},{"bike_id":"95172e0d-44d7-4bb1-abdc-dd3fd118e056","system_id":"levelo_inurba_marseille","lat":43.27999,"lon":5.41657,"is_reserved":false,"is_disabled":false,"rental_uris":{"android":"levelo://app?vid=95172e0d-44d7-4bb1-abdc-dd3fd118e056","ios":"levelo://app?vid=95172e0d-44d7-4bb1-abdc-dd3fd118e056"},"vehicle_type_id":"4","last_reported":1768144260,"current_range_meters":5600,"station_id":"ce4bho12rcd13ifvqh1g","pricing_plan_id":"cebpf4jnsgd1na2vs0mg"},{"bike_id":"37285173-7629-4cca-86c4-ad83064b32f4","system_id":"levelo_inurba_marseille","lat":43.26547,"lon":5.37298,"is_reserved":false,"is_disabled":false,"rental_uris":{"android":"levelo://app?vid=37285173-7629-4cca-86c4-ad83064b32f4","ios":"levelo://app?vid=37285173-7629-4cca-86c4-ad83064b32f4"},"vehicle_type_id":"4","last_reported":1768144260,"current_range_meters":5600,"station_id":"ce4bhg12rcd13ifvqf70","pricing_plan_id":"cebpf4jnsgd1na2vs0mg"},{"bike_id":"937eaf44-6d62-4c5c-959b-f6586d2b8682","system_id":"levelo_inurba_marseille","lat":43.30135,"lon":5.37409,"is_reserved":false,"is_disabled":false,"rental_uris":{"android":"levelo://app?vid=937eaf44-6d62-4c5c-959b-f6586d2b8682","ios":"levelo://app?vid=937eaf44-6d62-4c5c-959b-f6586d2b8682"},"vehicle_type_id":"4","last_reported":1768144260,"current_range_meters":5600,"station_id":"ce4bgs92rcd13ifvqcc0","pricing_plan_id":"cebpf4jnsgd1na2vs0mg"},{"bike_id":"6fdf77f4-df4a-4c49-9e87-7104cf455c2b","system_id":"levelo_inurba_marseille","lat":43.31319,"lon":5.38666,"is_reserved":false,"is_disabled":true,"rental_uris":{"android":"levelo://app?vid=6fdf77f4-df4a-4c49-9e87-7104cf455c2b","ios":"levelo://app?vid=6fdf77f4-df4a-4c49-9e87-7104cf455c2b"},"vehicle_type_id":"4","last_reported":1768144260,"current_range_meters":5600,"station_id":"ce4bgt92rcd13ifvqcf0","pricing_plan_id":"cebpf4jnsgd1na2vs0mg"},{"bike_id":"202b9ed5-8993-43b0-b2e5-5a58a7060431","system_id":"levelo_inurba_marseille","lat":43.28082,"lon":5.39656,"is_reserved":false,"is_disabled":false,"rental_uris":{"android":"levelo://app?vid=202b9ed5-8993-43b0-b2e5-5a58a7060431","ios":"levelo://app?vid=202b9ed5-8993-43b0-b2e5-5a58a7060431"},"vehicle_type_id":"4","last_reported":1768144260,"current_range_meters":5600,"station_id":"ce4bho12rcd13ifvqh2g","pricing_plan_id":"cebpf4jnsgd1na2vs0mg"},{"bike_id":"ee66d2db-c17a-4b2a-83f9-37da596d1de5","system_id":"levelo_inurba_marseille","lat":43.24161,"lon":5.3639,"is_reserved":false,"is_disabled":false,"rental_uris":{"android":"levelo://app?vid=ee66d2db-c17a-4b2a-83f9-37da596d1de5","ios":"levelo://app?vid=ee66d2db-c17a-4b2a-83f9-37da596d1de5"},"vehicle_type_id":"4","last_reported":1768144260,"current_range_meters":5600,"station_id":"cpo36qri1sfpv3e86is0","pricing_plan_id":"cebpf4jnsgd1na2vs0mg"},{"bike_id":"26201a0e-2fa7-46bf-adb4-65d194f95ff4","system_id":"levelo_inurba_marseille","lat":43.2872,"lon":5.37385,"is_reserved":false,"is_disabled":true,"rental_uris":{"android":"levelo://app?vid=26201a0e-2fa7-46bf-adb4-65d194f95ff4","ios":"levelo://app?vid=26201a0e-2fa7-46bf-adb4-65d194f95ff4"},"vehicle_type_id":"4","last_reported":1768144260,"current_range_meters":5600,"station_id":"ce4bh3p2rcd13ifvqdq0","pricing_plan_id":"cebpf4jnsgd1na2vs0mg"},{"bike_id":"13a9c239-15d3-4470-9e4f-ae229b9c026f","system_id":"levelo_inurba_marseille","lat":43.21199,"lon":5.35076,"is_reserved":false,"is_disabled":true,"rental_uris":{"android":"levelo://app?vid=13a9c239-15d3-4470-9e4f-ae229b9c026f","ios":"levelo://app?vid=13a9c239-15d3-4470-9e4f-ae229b9c026f"},"vehicle_type_id":"4","last_reported":1768144260,"current_range_meters":5600,"station_id":"st_cvj6sg6p6f1abm77japg","pricing_plan_id":"cebpf4jnsgd1na2vs0mg"},{"bike_id":"15acaff8-889e-4081-ae54-8b8658492504","system_id":"levelo_inurba_marseille","lat":43.31411,"lon":5.40344,"is_reserved":false,"is_disabled":false,"rental_uris":{"android":"levelo://app?vid=15acaff8-889e-4081-ae54-8b8658492504","ios":"levelo://app?vid=15acaff8-889e-4081-ae54-8b8658492504"},"vehicle_type_id":"4","last_reported":1768144260,"current_range_meters":5600,"station_id":"","pricing_plan_id":"cebpf4jnsgd1na2vs0mg"},{"bike_id":"9e9276e3-a8ca-4969-8c04-47f68072c26e","system_id":"levelo_inurba_marseille","lat":43.22532,"lon":5.34839,"is_reserved":false,"is_disabled":false,"rental_uris":{"android":"levelo://app?vid=9e9276e3-a8ca-4969-8c04-47f68072c26e","ios":"levelo://app?vid=9e9276e3-a8ca-4969-8c04-47f68072c26e"},"vehicle_type_id":"4","last_reported":1768144260,"current_range_meters":5600,"station_id":"","pricing_plan_id":"cebpf4jnsgd1na2vs0mg"},{"bike_id":"1e5349c9-1961-45c6-b629-396680afa24e","system_id":"levelo_inurba_marseille","lat":43.23194,"lon":5.35551,"is_reserved":false,"is_disabled":false,"rental_uris":{"android":"levelo://app?vid=1e5349c9-1961-45c6-b629-396680afa24e","ios":"levelo://app?vid=1e5349c9-1961-45c6-b629-396680afa24e"},"vehicle_type_id":"4","last_reported":1768144260,"current_range_meters":5600,"station_id":"ce4bhu92rcd13ifvqi70","pricing_plan_id":"cebpf4jnsgd1na2vs0mg"},{"bike_id":"a086ce0c-3cff-47d2-ac7e-009ad7c5e69f","system_id":"levelo_inurba_marseille","lat":43.24075,"lon":5.37763,"is_reserved":false,"is_disabled":false,"rental_uris":{"android":"levelo://app?vid=a086ce0c-3cff-47d2-ac7e-009ad7c5e69f","ios":"levelo://app?vid=a086ce0c-3cff-47d2-ac7e-009ad7c5e69f"},"vehicle_type_id":"4","last_reported":1768144260,"current_range_meters":6000,"station_id":"ce4bhnp2rcd13ifvqgvg","pricing_plan_id":"cebpf4jnsgd1na2vs0mg"},{"bike_id":"c46739cb-8652-48d3-972f-9096dc83781a","system_id":"levelo_inurba_marseille","lat":43.2319,"lon":5.35562,"is_reserved":false,"is_disabled":false,"rental_uris":{"android":"levelo://app?vid=c46739cb-8652-48d3-972f-9096dc83781a","ios":"levelo://app?vid=c46739cb-8652-48d3-972f-9096dc83781a"},"vehicle_type_id":"4","last_reported":1768144260,"current_range_meters":6000,"station_id":"ce4bhu92rcd13ifvqi70","pricing_plan_id":"cebpf4jnsgd1na2vs0mg"},{"bike_id":"ae427873-2ce0-47ee-826b-d04d8e4f867a","system_id":"levelo_inurba_marseille","lat":43.30132,"lon":5.43123,"is_reserved":false,"is_disabled":false,"rental_uris":{"android":"levelo://app?vid=ae427873-2ce0-47ee-826b-d04d8e4f867a","ios":"levelo://app?vid=ae427873-2ce0-47ee-826b-d04d8e4f867a"},"vehicle_type_id":"4","last_reported":1768144260,"current_range_meters":6000,"station_id":"st_d3js3co5814s73ftftug","pricing_plan_id":"cebpf4jnsgd1na2vs0mg"},{"bike_id":"16c0960c-9de7-4b37-a0c4-1bf60f2af40d","system_id":"levelo_inurba_marseille","lat":43.28423,"lon":5.34988,"is_reserved":false,"is_disabled":false,"rental_uris":{"android":"levelo://app?vid=16c0960c-9de7-4b37-a0c4-1bf60f2af40d","ios":"levelo://app?vid=16c0960c-9de7-4b37-a0c4-1bf60f2af40d"},"vehicle_type_id":"4","last_reported":1768144260,"current_range_meters":6000,"station_id":"ce4bhbh2rcd13ifvqepg","pricing_plan_id":"cebpf4jnsgd1na2vs0mg"},{"bike_id":"9e546458-c3a8-4e35-9b2b-b0910317fcfc","system_id":"levelo_inurba_marseille","lat":43.22932,"lon":5.35385,"is_reserved":false,"is_disabled":false,"rental_uris":{"android":"levelo://app?vid=9e546458-c3a8-4e35-9b2b-b0910317fcfc","ios":"levelo://app?vid=9e546458-c3a8-4e35-9b2b-b0910317fcfc"},"vehicle_type_id":"4","last_reported":1768144260,"current_range_meters":6000,"station_id":"cpo3532slgdg3j2ikp40","pricing_plan_id":"cebpf4jnsgd1na2vs0mg"},{"bike_id":"1a57bf80-d95f-4df4-85ec-7a70570ac48b","system_id":"levelo_inurba_marseille","lat":43.28939,"lon":5.3639,"is_reserved":false,"is_disabled":false,"rental_uris":{"android":"levelo://app?vid=1a57bf80-d95f-4df4-85ec-7a70570ac48b","ios":"levelo://app?vid=1a57bf80-d95f-4df4-85ec-7a70570ac48b"},"vehicle_type_id":"4","last_reported":1768144260,"current_range_meters":6000,"station_id":"ce4bhc92rcd13ifvqetg","pricing_plan_id":"cebpf4jnsgd1na2vs0mg"},{"bike_id":"ccbe76d3-bc0d-49c4-ae83-7ec33ebf6571","system_id":"levelo_inurba_marseille","lat":43.22561,"lon":5.41625,"is_reserved":false,"is_disabled":false,"rental_uris":{"android":"levelo://app?vid=ccbe76d3-bc0d-49c4-ae83-7ec33ebf6571","ios":"levelo://app?vid=ccbe76d3-bc0d-49c4-ae83-7ec33ebf6571"},"vehicle_type_id":"4","last_reported":1768144260,"current_range_meters":6000,"station_id":"st_d2o4gvlbi1j2169b742g","pricing_plan_id":"cebpf4jnsgd1na2vs0mg"},{"bike_id":"b3ec06dc-5582-4ec8-86f8-068552b353f7","system_id":"levelo_inurba_marseille","lat":43.297096,"lon":5.379252,"is_reserved":false,"is_disabled":false,"rental_uris":{"android":"levelo://app?vid=b3ec06dc-5582-4ec8-86f8-068552b353f7","ios":"levelo://app?vid=b3ec06dc-5582-4ec8-86f8-068552b353f7"},"vehicle_type_id":"4","last_reported":1768144260,"current_range_meters":6000,"station_id":"ce4bgkh2rcd13ifvqbl0","pricing_plan_id":"cebpf4jnsgd1na2vs0mg"},{"bike_id":"5bc98532-9bc6-437b-aabf-29eed8dfa3d8","system_id":"levelo_inurba_marseille","lat":43.290143,"lon":5.356141,"is_reserved":false,"is_disabled":false,"rental_uris":{"android":"levelo://app?vid=5bc98532-9bc6-437b-aabf-29eed8dfa3d8","ios":"levelo://app?vid=5bc98532-9bc6-437b-aabf-29eed8dfa3d8"},"vehicle_type_id":"4","last_reported":1768144260,"current_range_meters":6000,"station_id":"ce4bhbh2rcd13ifvqeqg","pricing_plan_id":"cebpf4jnsgd1na2vs0mg"},{"bike_id":"077c8981-bea2-4e23-9f90-a06cf25901d0","system_id":"levelo_inurba_marseille","lat":43.29585,"lon":5.38041,"is_reserved":false,"is_disabled":false,"rental_uris":{"android":"levelo://app?vid=077c8981-bea2-4e23-9f90-a06cf25901d0","ios":"levelo://app?vid=077c8981-bea2-4e23-9f90-a06cf25901d0"},"vehicle_type_id":"4","last_reported":1768144260,"current_range_meters":6000,"station_id":"","pricing_plan_id":"cebpf4jnsgd1na2vs0mg"},{"bike_id":"f29bcdd1-b142-420c-9a19-02897faadde8","system_id":"levelo_inurba_marseille","lat":43.2867,"lon":5.3635,"is_reserved":false,"is_disabled":false,"rental_uris":{"android":"levelo://app?vid=f29bcdd1-b142-420c-9a19-02897faadde8","ios":"levelo://app?vid=f29bcdd1-b142-420c-9a19-02897faadde8"},"vehicle_type_id":"4","last_reported":1768144260,"current_range_meters":6000,"station_id":"ce4bhah2rcd13ifvqej0","pricing_plan_id":"cebpf4jnsgd1na2vs0mg"},{"bike_id":"b14a3e10-8a8e-4d8d-8883-90f52641ea80","system_id":"levelo_inurba_marseille","lat":43.211955,"lon":5.350772,"is_reserved":false,"is_disabled":false,"rental_uris":{"android":"levelo://app?vid=b14a3e10-8a8e-4d8d-8883-90f52641ea80","ios":"levelo://app?vid=b14a3e10-8a8e-4d8d-8883-90f52641ea80"},"vehicle_type_id":"4","last_reported":1768144260,"current_range_meters":6000,"station_id":"st_cvj6sg6p6f1abm77japg","pricing_plan_id":"cebpf4jnsgd1na2vs0mg"},{"bike_id":"198ee023-44c5-4b14-b226-0cba1143df0f","system_id":"levelo_inurba_marseille","lat":43.24809,"lon":5.37458,"is_reserved":false,"is_disabled":false,"rental_uris":{"android":"levelo://app?vid=198ee023-44c5-4b14-b226-0cba1143df0f","ios":"levelo://app?vid=198ee023-44c5-4b14-b226-0cba1143df0f"},"vehicle_type_id":"4","last_reported":1768144260,"current_range_meters":6000,"station_id":"ce4bhgh2rcd13ifvqfb0","pricing_plan_id":"cebpf4jnsgd1na2vs0mg"},{"bike_id":"f4a60f1b-2920-4fb8-8f42-1eaeaa00e372","system_id":"levelo_inurba_marseille","lat":43.301304,"lon":5.431212,"is_reserved":false,"is_disabled":false,"rental_uris":{"android":"levelo://app?vid=f4a60f1b-2920-4fb8-8f42-1eaeaa00e372","ios":"levelo://app?vid=f4a60f1b-2920-4fb8-8f42-1eaeaa00e372"},"vehicle_type_id":"4","last_reported":1768144260,"current_range_meters":6000,"station_id":"st_d3js3co5814s73ftftug","pricing_plan_id":"cebpf4jnsgd1na2vs0mg"},{"bike_id":"69db0ffc-6870-4d4a-840e-d0c8f02a8535","system_id":"levelo_inurba_marseille","lat":43.29723,"lon":5.37685,"is_reserved":false,"is_disabled":false,"rental_uris":{"android":"levelo://app?vid=69db0ffc-6870-4d4a-840e-d0c8f02a8535","ios":"levelo://app?vid=69db0ffc-6870-4d4a-840e-d0c8f02a8535"},"vehicle_type_id":"4","last_reported":1768144260,"current_range_meters":6000,"station_id":"ce4bgkh2rcd13ifvqbl0","pricing_plan_id":"cebpf4jnsgd1na2vs0mg"},{"bike_id":"17f66319-ac3b-44f3-9f86-4da99c24d4a6","system_id":"levelo_inurba_marseille","lat":43.26034,"lon":5.37559,"is_reserved":false,"is_disabled":false,"rental_uris":{"android":"levelo://app?vid=17f66319-ac3b-44f3-9f86-4da99c24d4a6","ios":"levelo://app?vid=17f66319-ac3b-44f3-9f86-4da99c24d4a6"},"vehicle_type_id":"4","last_reported":1768144260,"current_range_meters":6000,"station_id":"ce4bhgh2rcd13ifvqfa0","pricing_plan_id":"cebpf4jnsgd1na2vs0mg"},{"bike_id":"bec1bdf7-8c3e-466a-9564-9717af11359e","system_id":"levelo_inurba_marseille","lat":43.2464,"lon":5.38152,"is_reserved":false,"is_disabled":true,"rental_uris":{"android":"levelo://app?vid=bec1bdf7-8c3e-466a-9564-9717af11359e","ios":"levelo://app?vid=bec1bdf7-8c3e-466a-9564-9717af11359e"},"vehicle_type_id":"4","last_reported":1768144260,"current_range_meters":6000,"station_id":"ce4bhih2rcd13ifvqfr0","pricing_plan_id":"cebpf4jnsgd1na2vs0mg"},{"bike_id":"5bc7ff2b-e7bf-48b3-a943-69925151068e","system_id":"levelo_inurba_marseille","lat":43.28423,"lon":5.34983,"is_reserved":false,"is_disabled":false,"rental_uris":{"android":"levelo://app?vid=5bc7ff2b-e7bf-48b3-a943-69925151068e","ios":"levelo://app?vid=5bc7ff2b-e7bf-48b3-a943-69925151068e"},"vehicle_type_id":"4","last_reported":1768144260,"current_range_meters":6000,"station_id":"ce4bhbh2rcd13ifvqepg","pricing_plan_id":"cebpf4jnsgd1na2vs0mg"},{"bike_id":"65ad97e6-aef1-40d9-8756-ec2d6c923c46","system_id":"levelo_inurba_marseille","lat":43.229356,"lon":5.353747,"is_reserved":false,"is_disabled":false,"rental_uris":{"android":"levelo://app?vid=65ad97e6-aef1-40d9-8756-ec2d6c923c46","ios":"levelo://app?vid=65ad97e6-aef1-40d9-8756-ec2d6c923c46"},"vehicle_type_id":"4","last_reported":1768144260,"current_range_meters":6000,"station_id":"cpo3532slgdg3j2ikp40","pricing_plan_id":"cebpf4jnsgd1na2vs0mg"},{"bike_id":"0737c10a-d287-45c3-a7cb-fc329a4255fd","system_id":"levelo_inurba_marseille","lat":43.21744,"lon":5.346196,"is_reserved":false,"is_disabled":false,"rental_uris":{"android":"levelo://app?vid=0737c10a-d287-45c3-a7cb-fc329a4255fd","ios":"levelo://app?vid=0737c10a-d287-45c3-a7cb-fc329a4255fd"},"vehicle_type_id":"4","last_reported":1768144260,"current_range_meters":6000,"station_id":"ce4bgkh2rcd13ifvqbl0","pricing_plan_id":"cebpf4jnsgd1na2vs0mg"},{"bike_id":"21b36af9-5980-4af9-95e8-5ecd52aecbcb","system_id":"levelo_inurba_marseille","lat":43.25333,"lon":5.42167,"is_reserved":false,"is_disabled":false,"rental_uris":{"android":"levelo://app?vid=21b36af9-5980-4af9-95e8-5ecd52aecbcb","ios":"levelo://app?vid=21b36af9-5980-4af9-95e8-5ecd52aecbcb"},"vehicle_type_id":"4","last_reported":1768144260,"current_range_meters":6000,"station_id":"st_d2m65c5bi1j21697t3ng","pricing_plan_id":"cebpf4jnsgd1na2vs0mg"},{"bike_id":"6c862ac4-ff51-4222-8e5d-dfa931391cfa","system_id":"levelo_inurba_marseille","lat":43.287148,"lon":5.379403,"is_reserved":false,"is_disabled":false,"rental_uris":{"android":"levelo://app?vid=6c862ac4-ff51-4222-8e5d-dfa931391cfa","ios":"levelo://app?vid=6c862ac4-ff51-4222-8e5d-dfa931391cfa"},"vehicle_type_id":"4","last_reported":1768144260,"current_range_meters":6000,"station_id":"ce4bh9p2rcd13ifvqec0","pricing_plan_id":"cebpf4jnsgd1na2vs0mg"},{"bike_id":"b555239d-2168-4ba9-bdf4-8b711ca32acb","system_id":"levelo_inurba_marseille","lat":43.28469,"lon":5.48397,"is_reserved":false,"is_disabled":false,"rental_uris":{"android":"levelo://app?vid=b555239d-2168-4ba9-bdf4-8b711ca32acb","ios":"levelo://app?vid=b555239d-2168-4ba9-bdf4-8b711ca32acb"},"vehicle_type_id":"4","last_reported":1768144260,"current_range_meters":6000,"station_id":"","pricing_plan_id":"cebpf4jnsgd1na2vs0mg"},{"bike_id":"7a2b1e2b-1f85-429f-9e31-eaf2f3b7d4a5","system_id":"levelo_inurba_marseille","lat":43.262074,"lon":5.37927,"is_reserved":false,"is_disabled":true,"rental_uris":{"android":"levelo://app?vid=7a2b1e2b-1f85-429f-9e31-eaf2f3b7d4a5","ios":"levelo://app?vid=7a2b1e2b-1f85-429f-9e31-eaf2f3b7d4a5"},"vehicle_type_id":"4","last_reported":1768144260,"current_range_meters":6400,"station_id":"","pricing_plan_id":"cebpf4jnsgd1na2vs0mg"},{"bike_id":"252022da-26ee-4d7f-abc8-1b488b81c896","system_id":"levelo_inurba_marseille","lat":43.30196,"lon":5.37064,"is_reserved":false,"is_disabled":false,"rental_uris":{"android":"levelo://app?vid=252022da-26ee-4d7f-abc8-1b488b81c896","ios":"levelo://app?vid=252022da-26ee-4d7f-abc8-1b488b81c896"},"vehicle_type_id":"4","last_reported":1768144260,"current_range_meters":6400,"station_id":"","pricing_plan_id":"cebpf4jnsgd1na2vs0mg"},{"bike_id":"2f7f8ed0-abfd-41e3-bc34-9299a62bf687","system_id":"levelo_inurba_marseille","lat":43.2406,"lon":5.37765,"is_reserved":false,"is_disabled":false,"rental_uris":{"android":"levelo://app?vid=2f7f8ed0-abfd-41e3-bc34-9299a62bf687","ios":"levelo://app?vid=2f7f8ed0-abfd-41e3-bc34-9299a62bf687"},"vehicle_type_id":"4","last_reported":1768144260,"current_range_meters":6400,"station_id":"ce4bhnp2rcd13ifvqgvg","pricing_plan_id":"cebpf4jnsgd1na2vs0mg"},{"bike_id":"3632ea8b-40de-4396-b94a-0af04633fa3b","system_id":"levelo_inurba_marseille","lat":43.26544,"lon":5.37284,"is_reserved":false,"is_disabled":false,"rental_uris":{"android":"levelo://app?vid=3632ea8b-40de-4396-b94a-0af04633fa3b","ios":"levelo://app?vid=3632ea8b-40de-4396-b94a-0af04633fa3b"},"vehicle_type_id":"4","last_reported":1768144260,"current_range_meters":6400,"station_id":"ce4bhg12rcd13ifvqf70","pricing_plan_id":"cebpf4jnsgd1na2vs0mg"},{"bike_id":"6e36cea3-6261-40dc-8b0c-472654c551d2","system_id":"levelo_inurba_marseille","lat":43.29004,"lon":5.35612,"is_reserved":false,"is_disabled":false,"rental_uris":{"android":"levelo://app?vid=6e36cea3-6261-40dc-8b0c-472654c551d2","ios":"levelo://app?vid=6e36cea3-6261-40dc-8b0c-472654c551d2"},"vehicle_type_id":"4","last_reported":1768144260,"current_range_meters":6400,"station_id":"ce4bhb92rcd13ifvqen0","pricing_plan_id":"cebpf4jnsgd1na2vs0mg"},{"bike_id":"115e350d-ebdb-4733-b6aa-048a79db46ab","system_id":"levelo_inurba_marseille","lat":43.31991,"lon":5.38158,"is_reserved":false,"is_disabled":false,"rental_uris":{"android":"levelo://app?vid=115e350d-ebdb-4733-b6aa-048a79db46ab","ios":"levelo://app?vid=115e350d-ebdb-4733-b6aa-048a79db46ab"},"vehicle_type_id":"4","last_reported":1768144260,"current_range_meters":6400,"station_id":"ce4bhr12rcd13ifvqhpg","pricing_plan_id":"cebpf4jnsgd1na2vs0mg"},{"bike_id":"5aa482e6-221b-4498-a6a2-fec31f16d788","system_id":"levelo_inurba_marseille","lat":43.284799,"lon":5.484008,"is_reserved":false,"is_disabled":false,"rental_uris":{"android":"levelo://app?vid=5aa482e6-221b-4498-a6a2-fec31f16d788","ios":"levelo://app?vid=5aa482e6-221b-4498-a6a2-fec31f16d788"},"vehicle_type_id":"4","last_reported":1768144260,"current_range_meters":6400,"station_id":"","pricing_plan_id":"cebpf4jnsgd1na2vs0mg"},{"bike_id":"239a18cd-6c0d-43fb-8897-a3f843c7752a","system_id":"levelo_inurba_marseille","lat":43.248064,"lon":5.374555,"is_reserved":false,"is_disabled":false,"rental_uris":{"android":"levelo://app?vid=239a18cd-6c0d-43fb-8897-a3f843c7752a","ios":"levelo://app?vid=239a18cd-6c0d-43fb-8897-a3f843c7752a"},"vehicle_type_id":"4","last_reported":1768144260,"current_range_meters":6400,"station_id":"ce4bhgh2rcd13ifvqfb0","pricing_plan_id":"cebpf4jnsgd1na2vs0mg"},{"bike_id":"5c19822a-c497-4f67-8777-6169bef66dc3","system_id":"levelo_inurba_marseille","lat":43.225302,"lon":5.348282,"is_reserved":false,"is_disabled":false,"rental_uris":{"android":"levelo://app?vid=5c19822a-c497-4f67-8777-6169bef66dc3","ios":"levelo://app?vid=5c19822a-c497-4f67-8777-6169bef66dc3"},"vehicle_type_id":"4","last_reported":1768144260,"current_range_meters":6400,"station_id":"","pricing_plan_id":"cebpf4jnsgd1na2vs0mg"},{"bike_id":"87d5c75a-ce16-46ad-a6dd-f7088e8ac2aa","system_id":"levelo_inurba_marseille","lat":43.258602,"lon":5.399013,"is_reserved":false,"is_disabled":false,"rental_uris":{"android":"levelo://app?vid=87d5c75a-ce16-46ad-a6dd-f7088e8ac2aa","ios":"levelo://app?vid=87d5c75a-ce16-46ad-a6dd-f7088e8ac2aa"},"vehicle_type_id":"4","last_reported":1768144260,"current_range_meters":6400,"station_id":"ce4bhl92rcd13ifvqghg","pricing_plan_id":"cebpf4jnsgd1na2vs0mg"},{"bike_id":"78190b18-d4f6-4583-b796-9b44806d2811","system_id":"levelo_inurba_marseille","lat":43.284805,"lon":5.484016,"is_reserved":false,"is_disabled":false,"rental_uris":{"android":"levelo://app?vid=78190b18-d4f6-4583-b796-9b44806d2811","ios":"levelo://app?vid=78190b18-d4f6-4583-b796-9b44806d2811"},"vehicle_type_id":"4","last_reported":1768144260,"current_range_meters":6400,"station_id":"","pricing_plan_id":"cebpf4jnsgd1na2vs0mg"},{"bike_id":"9227257d-26df-4311-bdb9-080324817f5d","system_id":"levelo_inurba_marseille","lat":43.217551,"lon":5.346091,"is_reserved":false,"is_disabled":true,"rental_uris":{"android":"levelo://app?vid=9227257d-26df-4311-bdb9-080324817f5d","ios":"levelo://app?vid=9227257d-26df-4311-bdb9-080324817f5d"},"vehicle_type_id":"4","last_reported":1768144260,"current_range_meters":6400,"station_id":"st_cvj6r9ubvosntc0bgbag","pricing_plan_id":"cebpf4jnsgd1na2vs0mg"},{"bike_id":"e6f34154-a48e-49f3-9790-37e1b4a4c491","system_id":"levelo_inurba_marseille","lat":43.30041,"lon":5.38192,"is_reserved":false,"is_disabled":false,"rental_uris":{"android":"levelo://app?vid=e6f34154-a48e-49f3-9790-37e1b4a4c491","ios":"levelo://app?vid=e6f34154-a48e-49f3-9790-37e1b4a4c491"},"vehicle_type_id":"4","last_reported":1768144260,"current_range_meters":6400,"station_id":"","pricing_plan_id":"cebpf4jnsgd1na2vs0mg"},{"bike_id":"45d8ca9c-83b5-46fa-abec-3dfc830de414","system_id":"levelo_inurba_marseille","lat":43.27995,"lon":5.4003,"is_reserved":false,"is_disabled":false,"rental_uris":{"android":"levelo://app?vid=45d8ca9c-83b5-46fa-abec-3dfc830de414","ios":"levelo://app?vid=45d8ca9c-83b5-46fa-abec-3dfc830de414"},"vehicle_type_id":"4","last_reported":1768144260,"current_range_meters":6400,"station_id":"ce4bho92rcd13ifvqh4g","pricing_plan_id":"cebpf4jnsgd1na2vs0mg"},{"bike_id":"fa4bb0d8-ba68-465b-864b-6be18ff84a1b","system_id":"levelo_inurba_marseille","lat":43.231975,"lon":5.355596,"is_reserved":false,"is_disabled":false,"rental_uris":{"android":"levelo://app?vid=fa4bb0d8-ba68-465b-864b-6be18ff84a1b","ios":"levelo://app?vid=fa4bb0d8-ba68-465b-864b-6be18ff84a1b"},"vehicle_type_id":"4","last_reported":1768144260,"current_range_meters":6400,"station_id":"ce4bhu92rcd13ifvqi70","pricing_plan_id":"cebpf4jnsgd1na2vs0mg"},{"bike_id":"d01cbaf4-4f71-47f8-877a-c178b0fccc8f","system_id":"levelo_inurba_marseille","lat":43.28072,"lon":5.39656,"is_reserved":false,"is_disabled":false,"rental_uris":{"android":"levelo://app?vid=d01cbaf4-4f71-47f8-877a-c178b0fccc8f","ios":"levelo://app?vid=d01cbaf4-4f71-47f8-877a-c178b0fccc8f"},"vehicle_type_id":"4","last_reported":1768144260,"current_range_meters":6400,"station_id":"ce4bho12rcd13ifvqh2g","pricing_plan_id":"cebpf4jnsgd1na2vs0mg"},{"bike_id":"be8576a8-995a-45d7-bc62-cb26c280bb04","system_id":"levelo_inurba_marseille","lat":43.23217,"lon":5.35556,"is_reserved":false,"is_disabled":false,"rental_uris":{"android":"levelo://app?vid=be8576a8-995a-45d7-bc62-cb26c280bb04","ios":"levelo://app?vid=be8576a8-995a-45d7-bc62-cb26c280bb04"},"vehicle_type_id":"4","last_reported":1768144260,"current_range_meters":6400,"station_id":"ce4bhu92rcd13ifvqi70","pricing_plan_id":"cebpf4jnsgd1na2vs0mg"},{"bike_id":"ca35d045-2c1b-44bb-b957-8f4166968359","system_id":"levelo_inurba_marseille","lat":43.26049,"lon":5.39405,"is_reserved":false,"is_disabled":false,"rental_uris":{"android":"levelo://app?vid=ca35d045-2c1b-44bb-b957-8f4166968359","ios":"levelo://app?vid=ca35d045-2c1b-44bb-b957-8f4166968359"},"vehicle_type_id":"4","last_reported":1768144260,"current_range_meters":6800,"station_id":"ce4bhh92rcd13ifvqfj0","pricing_plan_id":"cebpf4jnsgd1na2vs0mg"},{"bike_id":"55bba2e1-7980-4514-99d7-bd9c1f78730f","system_id":"levelo_inurba_marseille","lat":43.28985,"lon":5.35594,"is_reserved":false,"is_disabled":false,"rental_uris":{"android":"levelo://app?vid=55bba2e1-7980-4514-99d7-bd9c1f78730f","ios":"levelo://app?vid=55bba2e1-7980-4514-99d7-bd9c1f78730f"},"vehicle_type_id":"4","last_reported":1768144260,"current_range_meters":6800,"station_id":"ce4bhb92rcd13ifvqen0","pricing_plan_id":"cebpf4jnsgd1na2vs0mg"},{"bike_id":"10b06b52-b9d8-49fd-9373-4da8a32198a5","system_id":"levelo_inurba_marseille","lat":43.28157,"lon":5.4265,"is_reserved":false,"is_disabled":false,"rental_uris":{"android":"levelo://app?vid=10b06b52-b9d8-49fd-9373-4da8a32198a5","ios":"levelo://app?vid=10b06b52-b9d8-49fd-9373-4da8a32198a5"},"vehicle_type_id":"4","last_reported":1768144260,"current_range_meters":6800,"station_id":"ce4bhnh2rcd13ifvqgug","pricing_plan_id":"cebpf4jnsgd1na2vs0mg"},{"bike_id":"316b4887-1177-46b4-83f1-fdcd48191dde","system_id":"levelo_inurba_marseille","lat":43.27369,"lon":5.36253,"is_reserved":false,"is_disabled":false,"rental_uris":{"android":"levelo://app?vid=316b4887-1177-46b4-83f1-fdcd48191dde","ios":"levelo://app?vid=316b4887-1177-46b4-83f1-fdcd48191dde"},"vehicle_type_id":"4","last_reported":1768144260,"current_range_meters":6800,"station_id":"ce4bhbh2rcd13ifvqeo0","pricing_plan_id":"cebpf4jnsgd1na2vs0mg"},{"bike_id":"f0ebc8c2-e687-4bde-b3f8-6d500df6884a","system_id":"levelo_inurba_marseille","lat":43.29903,"lon":5.43646,"is_reserved":false,"is_disabled":false,"rental_uris":{"android":"levelo://app?vid=f0ebc8c2-e687-4bde-b3f8-6d500df6884a","ios":"levelo://app?vid=f0ebc8c2-e687-4bde-b3f8-6d500df6884a"},"vehicle_type_id":"4","last_reported":1768144260,"current_range_meters":6800,"station_id":"ce4bhpp2rcd13ifvqhfg","pricing_plan_id":"cebpf4jnsgd1na2vs0mg"},{"bike_id":"4ad6c3b4-e4f5-40a8-80cf-012ab506a9bb","system_id":"levelo_inurba_marseille","lat":43.29906,"lon":5.43648,"is_reserved":false,"is_disabled":false,"rental_uris":{"android":"levelo://app?vid=4ad6c3b4-e4f5-40a8-80cf-012ab506a9bb","ios":"levelo://app?vid=4ad6c3b4-e4f5-40a8-80cf-012ab506a9bb"},"vehicle_type_id":"4","last_reported":1768144260,"current_range_meters":6800,"station_id":"ce4bhpp2rcd13ifvqhfg","pricing_plan_id":"cebpf4jnsgd1na2vs0mg"},{"bike_id":"4c3558f2-faf6-43e6-a593-3aae3d520ba3","system_id":"levelo_inurba_marseille","lat":43.30319,"lon":5.36908,"is_reserved":false,"is_disabled":false,"rental_uris":{"android":"levelo://app?vid=4c3558f2-faf6-43e6-a593-3aae3d520ba3","ios":"levelo://app?vid=4c3558f2-faf6-43e6-a593-3aae3d520ba3"},"vehicle_type_id":"4","last_reported":1768144260,"current_range_meters":6800,"station_id":"ce4bgqh2rcd13ifvqc5g","pricing_plan_id":"cebpf4jnsgd1na2vs0mg"},{"bike_id":"1f59c014-e189-40c6-8ff0-db431223bd52","system_id":"levelo_inurba_marseille","lat":43.2872,"lon":5.36096,"is_reserved":false,"is_disabled":false,"rental_uris":{"android":"levelo://app?vid=1f59c014-e189-40c6-8ff0-db431223bd52","ios":"levelo://app?vid=1f59c014-e189-40c6-8ff0-db431223bd52"},"vehicle_type_id":"4","last_reported":1768144260,"current_range_meters":6800,"station_id":"cki0cbj6b192h4jlfktg","pricing_plan_id":"cebpf4jnsgd1na2vs0mg"},{"bike_id":"bb2344d8-a1ee-4d35-a630-9f7958cde331","system_id":"levelo_inurba_marseille","lat":43.25572,"lon":5.38239,"is_reserved":false,"is_disabled":true,"rental_uris":{"android":"levelo://app?vid=bb2344d8-a1ee-4d35-a630-9f7958cde331","ios":"levelo://app?vid=bb2344d8-a1ee-4d35-a630-9f7958cde331"},"vehicle_type_id":"4","last_reported":1768144260,"current_range_meters":6800,"station_id":"ce4bhih2rcd13ifvqfs0","pricing_plan_id":"cebpf4jnsgd1na2vs0mg"},{"bike_id":"5a828171-37e3-4937-8eaa-03dcee500f40","system_id":"levelo_inurba_marseille","lat":43.2256,"lon":5.41605,"is_reserved":false,"is_disabled":false,"rental_uris":{"android":"levelo://app?vid=5a828171-37e3-4937-8eaa-03dcee500f40","ios":"levelo://app?vid=5a828171-37e3-4937-8eaa-03dcee500f40"},"vehicle_type_id":"4","last_reported":1768144260,"current_range_meters":6800,"station_id":"st_d2o4gvlbi1j2169b742g","pricing_plan_id":"cebpf4jnsgd1na2vs0mg"},{"bike_id":"341bef65-3438-4c79-9e36-8e26aeba9285","system_id":"levelo_inurba_marseille","lat":43.268,"lon":5.40273,"is_reserved":false,"is_disabled":false,"rental_uris":{"android":"levelo://app?vid=341bef65-3438-4c79-9e36-8e26aeba9285","ios":"levelo://app?vid=341bef65-3438-4c79-9e36-8e26aeba9285"},"vehicle_type_id":"4","last_reported":1768144260,"current_range_meters":6800,"station_id":"ce501612rcd8frsf0b60","pricing_plan_id":"cebpf4jnsgd1na2vs0mg"},{"bike_id":"20d859a4-6222-4b8d-987c-76d7ef98e3e0","system_id":"levelo_inurba_marseille","lat":43.28997,"lon":5.35624,"is_reserved":false,"is_disabled":false,"rental_uris":{"android":"levelo://app?vid=20d859a4-6222-4b8d-987c-76d7ef98e3e0","ios":"levelo://app?vid=20d859a4-6222-4b8d-987c-76d7ef98e3e0"},"vehicle_type_id":"4","last_reported":1768144260,"current_range_meters":6800,"station_id":"ce4bhb92rcd13ifvqen0","pricing_plan_id":"cebpf4jnsgd1na2vs0mg"},{"bike_id":"8f97d907-0afa-48c9-9def-458ed100166b","system_id":"levelo_inurba_marseille","lat":43.288631,"lon":5.425246,"is_reserved":false,"is_disabled":false,"rental_uris":{"android":"levelo://app?vid=8f97d907-0afa-48c9-9def-458ed100166b","ios":"levelo://app?vid=8f97d907-0afa-48c9-9def-458ed100166b"},"vehicle_type_id":"4","last_reported":1768144260,"current_range_meters":6800,"station_id":"st_d3b462108ojc7389ooeg","pricing_plan_id":"cebpf4jnsgd1na2vs0mg"},{"bike_id":"58aa14d4-fedd-4d9a-8bec-0f25ed660b9a","system_id":"levelo_inurba_marseille","lat":43.2552,"lon":5.37665,"is_reserved":false,"is_disabled":false,"rental_uris":{"android":"levelo://app?vid=58aa14d4-fedd-4d9a-8bec-0f25ed660b9a","ios":"levelo://app?vid=58aa14d4-fedd-4d9a-8bec-0f25ed660b9a"},"vehicle_type_id":"4","last_reported":1768144260,"current_range_meters":6800,"station_id":"ce4bhh12rcd13ifvqff0","pricing_plan_id":"cebpf4jnsgd1na2vs0mg"},{"bike_id":"71b2703a-10b0-4767-968a-df4bb78082d2","system_id":"levelo_inurba_marseille","lat":43.29146,"lon":5.37493,"is_reserved":false,"is_disabled":false,"rental_uris":{"android":"levelo://app?vid=71b2703a-10b0-4767-968a-df4bb78082d2","ios":"levelo://app?vid=71b2703a-10b0-4767-968a-df4bb78082d2"},"vehicle_type_id":"4","last_reported":1768144260,"current_range_meters":6800,"station_id":"","pricing_plan_id":"cebpf4jnsgd1na2vs0mg"},{"bike_id":"8a7ee903-e4c0-4637-b8c6-905f7f6393e5","system_id":"levelo_inurba_marseille","lat":43.24173,"lon":5.364,"is_reserved":false,"is_disabled":false,"rental_uris":{"android":"levelo://app?vid=8a7ee903-e4c0-4637-b8c6-905f7f6393e5","ios":"levelo://app?vid=8a7ee903-e4c0-4637-b8c6-905f7f6393e5"},"vehicle_type_id":"4","last_reported":1768144260,"current_range_meters":6800,"station_id":"cpo36qri1sfpv3e86is0","pricing_plan_id":"cebpf4jnsgd1na2vs0mg"},{"bike_id":"77ebb402-c310-4819-a3c5-7760e39e1d8f","system_id":"levelo_inurba_marseille","lat":43.28869,"lon":5.39843,"is_reserved":false,"is_disabled":false,"rental_uris":{"android":"levelo://app?vid=77ebb402-c310-4819-a3c5-7760e39e1d8f","ios":"levelo://app?vid=77ebb402-c310-4819-a3c5-7760e39e1d8f"},"vehicle_type_id":"4","last_reported":1768144260,"current_range_meters":6800,"station_id":"","pricing_plan_id":"cebpf4jnsgd1na2vs0mg"},{"bike_id":"29fdb3ba-409b-49ff-8cf8-e90a73d1a102","system_id":"levelo_inurba_marseille","lat":43.23933,"lon":5.36635,"is_reserved":false,"is_disabled":false,"rental_uris":{"android":"levelo://app?vid=29fdb3ba-409b-49ff-8cf8-e90a73d1a102","ios":"levelo://app?vid=29fdb3ba-409b-49ff-8cf8-e90a73d1a102"},"vehicle_type_id":"4","last_reported":1768144260,"current_range_meters":6800,"station_id":"ce4bhi12rcd13ifvqfp0","pricing_plan_id":"cebpf4jnsgd1na2vs0mg"},{"bike_id":"1fcba929-37a9-47fb-be40-5c6979bd2bfc","system_id":"levelo_inurba_marseille","lat":43.26027,"lon":5.37551,"is_reserved":false,"is_disabled":false,"rental_uris":{"android":"levelo://app?vid=1fcba929-37a9-47fb-be40-5c6979bd2bfc","ios":"levelo://app?vid=1fcba929-37a9-47fb-be40-5c6979bd2bfc"},"vehicle_type_id":"4","last_reported":1768144260,"current_range_meters":6800,"station_id":"ce4bhgh2rcd13ifvqfa0","pricing_plan_id":"cebpf4jnsgd1na2vs0mg"},{"bike_id":"b791af64-3fcf-40da-8ca5-bd27122b3b12","system_id":"levelo_inurba_marseille","lat":43.27368,"lon":5.36234,"is_reserved":false,"is_disabled":false,"rental_uris":{"android":"levelo://app?vid=b791af64-3fcf-40da-8ca5-bd27122b3b12","ios":"levelo://app?vid=b791af64-3fcf-40da-8ca5-bd27122b3b12"},"vehicle_type_id":"4","last_reported":1768144260,"current_range_meters":6800,"station_id":"ce4bhbh2rcd13ifvqeo0","pricing_plan_id":"cebpf4jnsgd1na2vs0mg"},{"bike_id":"5ae46213-526f-49bc-859d-bd77a6272ad3","system_id":"levelo_inurba_marseille","lat":43.2319,"lon":5.39986,"is_reserved":false,"is_disabled":true,"rental_uris":{"android":"levelo://app?vid=5ae46213-526f-49bc-859d-bd77a6272ad3","ios":"levelo://app?vid=5ae46213-526f-49bc-859d-bd77a6272ad3"},"vehicle_type_id":"4","last_reported":1768144260,"current_range_meters":7200,"station_id":"ce4bhn12rcd13ifvqgqg","pricing_plan_id":"cebpf4jnsgd1na2vs0mg"},{"bike_id":"f71d23bb-0817-4575-bf00-a7284c6a3bb5","system_id":"levelo_inurba_marseille","lat":43.29476,"lon":5.43293,"is_reserved":false,"is_disabled":false,"rental_uris":{"android":"levelo://app?vid=f71d23bb-0817-4575-bf00-a7284c6a3bb5","ios":"levelo://app?vid=f71d23bb-0817-4575-bf00-a7284c6a3bb5"},"vehicle_type_id":"4","last_reported":1768144260,"current_range_meters":7200,"station_id":"st_d3j5ugp08ojc73fj9d10","pricing_plan_id":"cebpf4jnsgd1na2vs0mg"},{"bike_id":"01755f55-961f-40b3-9e23-e95349abd649","system_id":"levelo_inurba_marseille","lat":43.26057,"lon":5.39384,"is_reserved":false,"is_disabled":false,"rental_uris":{"android":"levelo://app?vid=01755f55-961f-40b3-9e23-e95349abd649","ios":"levelo://app?vid=01755f55-961f-40b3-9e23-e95349abd649"},"vehicle_type_id":"4","last_reported":1768144260,"current_range_meters":7200,"station_id":"ce4bhh92rcd13ifvqfj0","pricing_plan_id":"cebpf4jnsgd1na2vs0mg"},{"bike_id":"2b75c922-9612-4798-89cf-9ab819b7fee0","system_id":"levelo_inurba_marseille","lat":43.27341,"lon":5.39124,"is_reserved":false,"is_disabled":false,"rental_uris":{"android":"levelo://app?vid=2b75c922-9612-4798-89cf-9ab819b7fee0","ios":"levelo://app?vid=2b75c922-9612-4798-89cf-9ab819b7fee0"},"vehicle_type_id":"4","last_reported":1768144260,"current_range_meters":7200,"station_id":"","pricing_plan_id":"cebpf4jnsgd1na2vs0mg"},{"bike_id":"9970f978-d332-4998-b118-01bc35c6b403","system_id":"levelo_inurba_marseille","lat":43.25566,"lon":5.38227,"is_reserved":false,"is_disabled":false,"rental_uris":{"android":"levelo://app?vid=9970f978-d332-4998-b118-01bc35c6b403","ios":"levelo://app?vid=9970f978-d332-4998-b118-01bc35c6b403"},"vehicle_type_id":"4","last_reported":1768144260,"current_range_meters":7200,"station_id":"ce4bhih2rcd13ifvqfs0","pricing_plan_id":"cebpf4jnsgd1na2vs0mg"},{"bike_id":"2e00dc9d-8fca-4c53-9c49-436b3c531ac4","system_id":"levelo_inurba_marseille","lat":43.248071,"lon":5.374497,"is_reserved":false,"is_disabled":false,"rental_uris":{"android":"levelo://app?vid=2e00dc9d-8fca-4c53-9c49-436b3c531ac4","ios":"levelo://app?vid=2e00dc9d-8fca-4c53-9c49-436b3c531ac4"},"vehicle_type_id":"4","last_reported":1768144260,"current_range_meters":7200,"station_id":"ce4bhgh2rcd13ifvqfb0","pricing_plan_id":"cebpf4jnsgd1na2vs0mg"},{"bike_id":"3d9ca8f9-ac9d-41f8-ad50-df6291e7a4c4","system_id":"levelo_inurba_marseille","lat":43.23196,"lon":5.355516,"is_reserved":false,"is_disabled":false,"rental_uris":{"android":"levelo://app?vid=3d9ca8f9-ac9d-41f8-ad50-df6291e7a4c4","ios":"levelo://app?vid=3d9ca8f9-ac9d-41f8-ad50-df6291e7a4c4"},"vehicle_type_id":"4","last_reported":1768144260,"current_range_meters":7200,"station_id":"ce4bhu92rcd13ifvqi70","pricing_plan_id":"cebpf4jnsgd1na2vs0mg"},{"bike_id":"a91695ee-af8f-4e73-8e7f-a8deb13a52eb","system_id":"levelo_inurba_marseille","lat":43.27998,"lon":5.40016,"is_reserved":false,"is_disabled":false,"rental_uris":{"android":"levelo://app?vid=a91695ee-af8f-4e73-8e7f-a8deb13a52eb","ios":"levelo://app?vid=a91695ee-af8f-4e73-8e7f-a8deb13a52eb"},"vehicle_type_id":"4","last_reported":1768144260,"current_range_meters":7200,"station_id":"ce4bho92rcd13ifvqh4g","pricing_plan_id":"cebpf4jnsgd1na2vs0mg"},{"bike_id":"1f38f0a0-9d5e-4cb4-93c5-d4ef43fbf00e","system_id":"levelo_inurba_marseille","lat":43.306086,"lon":5.371372,"is_reserved":false,"is_disabled":false,"rental_uris":{"android":"levelo://app?vid=1f38f0a0-9d5e-4cb4-93c5-d4ef43fbf00e","ios":"levelo://app?vid=1f38f0a0-9d5e-4cb4-93c5-d4ef43fbf00e"},"vehicle_type_id":"4","last_reported":1768144260,"current_range_meters":7200,"station_id":"","pricing_plan_id":"cebpf4jnsgd1na2vs0mg"},{"bike_id":"2bbac75b-b725-44b5-b9cb-b8e39bea2819","system_id":"levelo_inurba_marseille","lat":43.293123,"lon":5.369918,"is_reserved":false,"is_disabled":true,"rental_uris":{"android":"levelo://app?vid=2bbac75b-b725-44b5-b9cb-b8e39bea2819","ios":"levelo://app?vid=2bbac75b-b725-44b5-b9cb-b8e39bea2819"},"vehicle_type_id":"4","last_reported":1768144260,"current_range_meters":7200,"station_id":"","pricing_plan_id":"cebpf4jnsgd1na2vs0mg"},{"bike_id":"f1738cae-b37c-436c-93e9-f046d263b6fa","system_id":"levelo_inurba_marseille","lat":43.225301,"lon":5.348359,"is_reserved":false,"is_disabled":false,"rental_uris":{"android":"levelo://app?vid=f1738cae-b37c-436c-93e9-f046d263b6fa","ios":"levelo://app?vid=f1738cae-b37c-436c-93e9-f046d263b6fa"},"vehicle_type_id":"4","last_reported":1768144260,"current_range_meters":7200,"station_id":"","pricing_plan_id":"cebpf4jnsgd1na2vs0mg"},{"bike_id":"8d3f99e8-e0d3-4ac2-bf02-cbd27ce4a64f","system_id":"levelo_inurba_marseille","lat":43.28624,"lon":5.35104,"is_reserved":false,"is_disabled":false,"rental_uris":{"android":"levelo://app?vid=8d3f99e8-e0d3-4ac2-bf02-cbd27ce4a64f","ios":"levelo://app?vid=8d3f99e8-e0d3-4ac2-bf02-cbd27ce4a64f"},"vehicle_type_id":"4","last_reported":1768144260,"current_range_meters":7200,"station_id":"ce4bhch2rcd13ifvqeug","pricing_plan_id":"cebpf4jnsgd1na2vs0mg"},{"bike_id":"c45769ad-3c79-4738-a862-73653de80b69","system_id":"levelo_inurba_marseille","lat":43.31479,"lon":5.37986,"is_reserved":false,"is_disabled":false,"rental_uris":{"android":"levelo://app?vid=c45769ad-3c79-4738-a862-73653de80b69","ios":"levelo://app?vid=c45769ad-3c79-4738-a862-73653de80b69"},"vehicle_type_id":"4","last_reported":1768144260,"current_range_meters":7200,"station_id":"","pricing_plan_id":"cebpf4jnsgd1na2vs0mg"},{"bike_id":"6f4243d7-a899-45df-9f36-5a28e263a49a","system_id":"levelo_inurba_marseille","lat":43.245,"lon":5.42573,"is_reserved":false,"is_disabled":false,"rental_uris":{"android":"levelo://app?vid=6f4243d7-a899-45df-9f36-5a28e263a49a","ios":"levelo://app?vid=6f4243d7-a899-45df-9f36-5a28e263a49a"},"vehicle_type_id":"4","last_reported":1768144260,"current_range_meters":7200,"station_id":"st_d4a3vfp97mjs738cd8kg","pricing_plan_id":"cebpf4jnsgd1na2vs0mg"},{"bike_id":"4c7b2ffd-ccb0-48ab-a409-0108095ad067","system_id":"levelo_inurba_marseille","lat":43.23195,"lon":5.39972,"is_reserved":false,"is_disabled":true,"rental_uris":{"android":"levelo://app?vid=4c7b2ffd-ccb0-48ab-a409-0108095ad067","ios":"levelo://app?vid=4c7b2ffd-ccb0-48ab-a409-0108095ad067"},"vehicle_type_id":"4","last_reported":1768144260,"current_range_meters":7200,"station_id":"ce4bhn12rcd13ifvqgqg","pricing_plan_id":"cebpf4jnsgd1na2vs0mg"},{"bike_id":"551e9f37-b525-4909-9e6e-0277dfd85b6b","system_id":"levelo_inurba_marseille","lat":43.22561,"lon":5.4163,"is_reserved":false,"is_disabled":false,"rental_uris":{"android":"levelo://app?vid=551e9f37-b525-4909-9e6e-0277dfd85b6b","ios":"levelo://app?vid=551e9f37-b525-4909-9e6e-0277dfd85b6b"},"vehicle_type_id":"4","last_reported":1768144260,"current_range_meters":7200,"station_id":"st_d2o4gvlbi1j2169b742g","pricing_plan_id":"cebpf4jnsgd1na2vs0mg"},{"bike_id":"8ba2682e-b693-468c-b2f4-8e9fbd16ea48","system_id":"levelo_inurba_marseille","lat":43.30888,"lon":5.39647,"is_reserved":false,"is_disabled":false,"rental_uris":{"android":"levelo://app?vid=8ba2682e-b693-468c-b2f4-8e9fbd16ea48","ios":"levelo://app?vid=8ba2682e-b693-468c-b2f4-8e9fbd16ea48"},"vehicle_type_id":"4","last_reported":1768144260,"current_range_meters":7200,"station_id":"ce4bh012rcd13ifvqcv0","pricing_plan_id":"cebpf4jnsgd1na2vs0mg"},{"bike_id":"8e2c255f-8a1c-4938-a733-53fdabb4706b","system_id":"levelo_inurba_marseille","lat":43.30939,"lon":5.3903,"is_reserved":false,"is_disabled":false,"rental_uris":{"android":"levelo://app?vid=8e2c255f-8a1c-4938-a733-53fdabb4706b","ios":"levelo://app?vid=8e2c255f-8a1c-4938-a733-53fdabb4706b"},"vehicle_type_id":"4","last_reported":1768144260,"current_range_meters":7200,"station_id":"ce4bgup2rcd13ifvqco0","pricing_plan_id":"cebpf4jnsgd1na2vs0mg"},{"bike_id":"c59f5a79-013e-434e-937e-1cdde0b23ac2","system_id":"levelo_inurba_marseille","lat":43.25329,"lon":5.42172,"is_reserved":false,"is_disabled":false,"rental_uris":{"android":"levelo://app?vid=c59f5a79-013e-434e-937e-1cdde0b23ac2","ios":"levelo://app?vid=c59f5a79-013e-434e-937e-1cdde0b23ac2"},"vehicle_type_id":"4","last_reported":1768144260,"current_range_meters":7200,"station_id":"st_d2m65c5bi1j21697t3ng","pricing_plan_id":"cebpf4jnsgd1na2vs0mg"},{"bike_id":"6869894f-67a0-4b58-8bae-911192c83f2f","system_id":"levelo_inurba_marseille","lat":43.318738,"lon":5.400006,"is_reserved":false,"is_disabled":false,"rental_uris":{"android":"levelo://app?vid=6869894f-67a0-4b58-8bae-911192c83f2f","ios":"levelo://app?vid=6869894f-67a0-4b58-8bae-911192c83f2f"},"vehicle_type_id":"4","last_reported":1768144260,"current_range_meters":7200,"station_id":"","pricing_plan_id":"cebpf4jnsgd1na2vs0mg"},{"bike_id":"21c109ac-e8ef-4037-9186-0bc96f2921c1","system_id":"levelo_inurba_marseille","lat":43.23202,"lon":5.3555,"is_reserved":false,"is_disabled":false,"rental_uris":{"android":"levelo://app?vid=21c109ac-e8ef-4037-9186-0bc96f2921c1","ios":"levelo://app?vid=21c109ac-e8ef-4037-9186-0bc96f2921c1"},"vehicle_type_id":"4","last_reported":1768144260,"current_range_meters":7200,"station_id":"ce4bhu92rcd13ifvqi70","pricing_plan_id":"cebpf4jnsgd1na2vs0mg"},{"bike_id":"784bade9-de85-4c9f-99c1-e1f7d025a70e","system_id":"levelo_inurba_marseille","lat":43.22587,"lon":5.41554,"is_reserved":false,"is_disabled":false,"rental_uris":{"android":"levelo://app?vid=784bade9-de85-4c9f-99c1-e1f7d025a70e","ios":"levelo://app?vid=784bade9-de85-4c9f-99c1-e1f7d025a70e"},"vehicle_type_id":"4","last_reported":1768144260,"current_range_meters":8000,"station_id":"","pricing_plan_id":"cebpf4jnsgd1na2vs0mg"},{"bike_id":"ce168850-ad18-4118-b8c3-4df4ab978171","system_id":"levelo_inurba_marseille","lat":43.2954,"lon":5.3854,"is_reserved":false,"is_disabled":false,"rental_uris":{"android":"levelo://app?vid=ce168850-ad18-4118-b8c3-4df4ab978171","ios":"levelo://app?vid=ce168850-ad18-4118-b8c3-4df4ab978171"},"vehicle_type_id":"4","last_reported":1768144260,"current_range_meters":8000,"station_id":"ce4bgih2rcd13ifvqba0","pricing_plan_id":"cebpf4jnsgd1na2vs0mg"},{"bike_id":"262e3e96-b101-4813-a83b-25a8cb086f56","system_id":"levelo_inurba_marseille","lat":43.28991,"lon":5.35601,"is_reserved":false,"is_disabled":false,"rental_uris":{"android":"levelo://app?vid=262e3e96-b101-4813-a83b-25a8cb086f56","ios":"levelo://app?vid=262e3e96-b101-4813-a83b-25a8cb086f56"},"vehicle_type_id":"4","last_reported":1768144260,"current_range_meters":8000,"station_id":"ce4bhb92rcd13ifvqen0","pricing_plan_id":"cebpf4jnsgd1na2vs0mg"},{"bike_id":"7628e7a5-7b21-4849-a067-eb70db95c2b6","system_id":"levelo_inurba_marseille","lat":43.29895,"lon":5.43669,"is_reserved":false,"is_disabled":false,"rental_uris":{"android":"levelo://app?vid=7628e7a5-7b21-4849-a067-eb70db95c2b6","ios":"levelo://app?vid=7628e7a5-7b21-4849-a067-eb70db95c2b6"},"vehicle_type_id":"4","last_reported":1768144260,"current_range_meters":8000,"station_id":"ce4bhpp2rcd13ifvqhfg","pricing_plan_id":"cebpf4jnsgd1na2vs0mg"},{"bike_id":"947ce4af-bec6-4b27-9e63-ce65682eb248","system_id":"levelo_inurba_marseille","lat":43.32358,"lon":5.36762,"is_reserved":false,"is_disabled":false,"rental_uris":{"android":"levelo://app?vid=947ce4af-bec6-4b27-9e63-ce65682eb248","ios":"levelo://app?vid=947ce4af-bec6-4b27-9e63-ce65682eb248"},"vehicle_type_id":"4","last_reported":1768144260,"current_range_meters":8000,"station_id":"ce4bhsh2rcd13ifvqi2g","pricing_plan_id":"cebpf4jnsgd1na2vs0mg"},{"bike_id":"4bb0d39c-53f9-41fa-85e4-2bccc60ee9cf","system_id":"levelo_inurba_marseille","lat":43.31992,"lon":5.38156,"is_reserved":false,"is_disabled":false,"rental_uris":{"android":"levelo://app?vid=4bb0d39c-53f9-41fa-85e4-2bccc60ee9cf","ios":"levelo://app?vid=4bb0d39c-53f9-41fa-85e4-2bccc60ee9cf"},"vehicle_type_id":"4","last_reported":1768144260,"current_range_meters":8000,"station_id":"ce4bhr12rcd13ifvqhpg","pricing_plan_id":"cebpf4jnsgd1na2vs0mg"},{"bike_id":"ed8b1e0c-466c-45ea-a324-897647f6b251","system_id":"levelo_inurba_marseille","lat":43.23783,"lon":5.36633,"is_reserved":false,"is_disabled":false,"rental_uris":{"android":"levelo://app?vid=ed8b1e0c-466c-45ea-a324-897647f6b251","ios":"levelo://app?vid=ed8b1e0c-466c-45ea-a324-897647f6b251"},"vehicle_type_id":"4","last_reported":1768144260,"current_range_meters":8000,"station_id":"st_d3nk18o9ro0c73en2l3g","pricing_plan_id":"cebpf4jnsgd1na2vs0mg"},{"bike_id":"439a61d5-d051-40af-9b0f-2926884e52eb","system_id":"levelo_inurba_marseille","lat":43.30728,"lon":5.40978,"is_reserved":false,"is_disabled":false,"rental_uris":{"android":"levelo://app?vid=439a61d5-d051-40af-9b0f-2926884e52eb","ios":"levelo://app?vid=439a61d5-d051-40af-9b0f-2926884e52eb"},"vehicle_type_id":"4","last_reported":1768144260,"current_range_meters":8000,"station_id":"","pricing_plan_id":"cebpf4jnsgd1na2vs0mg"},{"bike_id":"fa978f85-8fd8-4bcd-bd90-2c68404c4c9c","system_id":"levelo_inurba_marseille","lat":43.28528,"lon":5.44109,"is_reserved":false,"is_disabled":false,"rental_uris":{"android":"levelo://app?vid=fa978f85-8fd8-4bcd-bd90-2c68404c4c9c","ios":"levelo://app?vid=fa978f85-8fd8-4bcd-bd90-2c68404c4c9c"},"vehicle_type_id":"4","last_reported":1768144260,"current_range_meters":8000,"station_id":"st_d3j3df2ikq2c7380ej80","pricing_plan_id":"cebpf4jnsgd1na2vs0mg"},{"bike_id":"45459dc7-d042-4048-ba59-95892104ded5","system_id":"levelo_inurba_marseille","lat":43.27618,"lon":5.36106,"is_reserved":false,"is_disabled":false,"rental_uris":{"android":"levelo://app?vid=45459dc7-d042-4048-ba59-95892104ded5","ios":"levelo://app?vid=45459dc7-d042-4048-ba59-95892104ded5"},"vehicle_type_id":"4","last_reported":1768144260,"current_range_meters":8000,"station_id":"ce4bgj92rcd13ifvqbe0","pricing_plan_id":"cebpf4jnsgd1na2vs0mg"},{"bike_id":"244b7538-163d-454d-823f-8b1f8b0c67c5","system_id":"levelo_inurba_marseille","lat":43.294393,"lon":5.397648,"is_reserved":false,"is_disabled":true,"rental_uris":{"android":"levelo://app?vid=244b7538-163d-454d-823f-8b1f8b0c67c5","ios":"levelo://app?vid=244b7538-163d-454d-823f-8b1f8b0c67c5"},"vehicle_type_id":"4","last_reported":1768144260,"current_range_meters":8000,"station_id":"ce4bh3h2rcd13ifvqdo0","pricing_plan_id":"cebpf4jnsgd1na2vs0mg"},{"bike_id":"d62f9e36-0176-47ea-b04e-e25d60615654","system_id":"levelo_inurba_marseille","lat":43.26491,"lon":5.39563,"is_reserved":false,"is_disabled":false,"rental_uris":{"android":"levelo://app?vid=d62f9e36-0176-47ea-b04e-e25d60615654","ios":"levelo://app?vid=d62f9e36-0176-47ea-b04e-e25d60615654"},"vehicle_type_id":"4","last_reported":1768144260,"current_range_meters":8000,"station_id":"ce4bhi12rcd13ifvqfq0","pricing_plan_id":"cebpf4jnsgd1na2vs0mg"},{"bike_id":"c72dfa06-f246-4eb4-a47f-cc812e4e69c1","system_id":"levelo_inurba_marseille","lat":43.23972,"lon":5.36629,"is_reserved":false,"is_disabled":false,"rental_uris":{"android":"levelo://app?vid=c72dfa06-f246-4eb4-a47f-cc812e4e69c1","ios":"levelo://app?vid=c72dfa06-f246-4eb4-a47f-cc812e4e69c1"},"vehicle_type_id":"4","last_reported":1768144260,"current_range_meters":8000,"station_id":"ce4bhi12rcd13ifvqfp0","pricing_plan_id":"cebpf4jnsgd1na2vs0mg"},{"bike_id":"cfa9d431-0c3a-47b2-bafd-95922015c415","system_id":"levelo_inurba_marseille","lat":43.31855,"lon":5.37735,"is_reserved":false,"is_disabled":false,"rental_uris":{"android":"levelo://app?vid=cfa9d431-0c3a-47b2-bafd-95922015c415","ios":"levelo://app?vid=cfa9d431-0c3a-47b2-bafd-95922015c415"},"vehicle_type_id":"4","last_reported":1768144260,"current_range_meters":8000,"station_id":"","pricing_plan_id":"cebpf4jnsgd1na2vs0mg"},{"bike_id":"edd0b1e1-8c8d-4f25-a2be-11b368b57a1a","system_id":"levelo_inurba_marseille","lat":43.22945,"lon":5.35375,"is_reserved":false,"is_disabled":false,"rental_uris":{"android":"levelo://app?vid=edd0b1e1-8c8d-4f25-a2be-11b368b57a1a","ios":"levelo://app?vid=edd0b1e1-8c8d-4f25-a2be-11b368b57a1a"},"vehicle_type_id":"4","last_reported":1768144260,"current_range_meters":8000,"station_id":"cpo3532slgdg3j2ikp40","pricing_plan_id":"cebpf4jnsgd1na2vs0mg"},{"bike_id":"d9c321c1-bd42-4a0f-bd8a-d741d0e507f0","system_id":"levelo_inurba_marseille","lat":43.2417,"lon":5.36396,"is_reserved":false,"is_disabled":false,"rental_uris":{"android":"levelo://app?vid=d9c321c1-bd42-4a0f-bd8a-d741d0e507f0","ios":"levelo://app?vid=d9c321c1-bd42-4a0f-bd8a-d741d0e507f0"},"vehicle_type_id":"4","last_reported":1768144260,"current_range_meters":8000,"station_id":"cpo36qri1sfpv3e86is0","pricing_plan_id":"cebpf4jnsgd1na2vs0mg"},{"bike_id":"13659355-3b54-4ad6-b7f4-ae9f253cf70e","system_id":"levelo_inurba_marseille","lat":43.27378,"lon":5.36252,"is_reserved":false,"is_disabled":false,"rental_uris":{"android":"levelo://app?vid=13659355-3b54-4ad6-b7f4-ae9f253cf70e","ios":"levelo://app?vid=13659355-3b54-4ad6-b7f4-ae9f253cf70e"},"vehicle_type_id":"4","last_reported":1768144260,"current_range_meters":8000,"station_id":"ce4bhbh2rcd13ifvqeo0","pricing_plan_id":"cebpf4jnsgd1na2vs0mg"},{"bike_id":"3991aaf6-6607-41bd-8ce4-547617d780d0","system_id":"levelo_inurba_marseille","lat":43.25514,"lon":5.37654,"is_reserved":false,"is_disabled":false,"rental_uris":{"android":"levelo://app?vid=3991aaf6-6607-41bd-8ce4-547617d780d0","ios":"levelo://app?vid=3991aaf6-6607-41bd-8ce4-547617d780d0"},"vehicle_type_id":"4","last_reported":1768144260,"current_range_meters":8000,"station_id":"ce4bhh12rcd13ifvqff0","pricing_plan_id":"cebpf4jnsgd1na2vs0mg"},{"bike_id":"abb5c0e1-568c-4e32-96f0-ab5e4883373c","system_id":"levelo_inurba_marseille","lat":43.26571,"lon":5.37292,"is_reserved":false,"is_disabled":false,"rental_uris":{"android":"levelo://app?vid=abb5c0e1-568c-4e32-96f0-ab5e4883373c","ios":"levelo://app?vid=abb5c0e1-568c-4e32-96f0-ab5e4883373c"},"vehicle_type_id":"4","last_reported":1768144260,"current_range_meters":8000,"station_id":"ce4bhg12rcd13ifvqf70","pricing_plan_id":"cebpf4jnsgd1na2vs0mg"},{"bike_id":"5675f1f3-1aa9-4832-92db-33a123f77538","system_id":"levelo_inurba_marseille","lat":43.28151,"lon":5.42596,"is_reserved":false,"is_disabled":false,"rental_uris":{"android":"levelo://app?vid=5675f1f3-1aa9-4832-92db-33a123f77538","ios":"levelo://app?vid=5675f1f3-1aa9-4832-92db-33a123f77538"},"vehicle_type_id":"4","last_reported":1768144260,"current_range_meters":8000,"station_id":"ce4bhnh2rcd13ifvqgug","pricing_plan_id":"cebpf4jnsgd1na2vs0mg"},{"bike_id":"5eb236d0-c732-47a3-b4ae-bebb81ae84fb","system_id":"levelo_inurba_marseille","lat":43.30863,"lon":5.40586,"is_reserved":false,"is_disabled":false,"rental_uris":{"android":"levelo://app?vid=5eb236d0-c732-47a3-b4ae-bebb81ae84fb","ios":"levelo://app?vid=5eb236d0-c732-47a3-b4ae-bebb81ae84fb"},"vehicle_type_id":"4","last_reported":1768144260,"current_range_meters":8400,"station_id":"","pricing_plan_id":"cebpf4jnsgd1na2vs0mg"},{"bike_id":"8f84ac63-f584-47a4-b9d1-cf46620d8a58","system_id":"levelo_inurba_marseille","lat":43.28269,"lon":5.35056,"is_reserved":false,"is_disabled":false,"rental_uris":{"android":"levelo://app?vid=8f84ac63-f584-47a4-b9d1-cf46620d8a58","ios":"levelo://app?vid=8f84ac63-f584-47a4-b9d1-cf46620d8a58"},"vehicle_type_id":"4","last_reported":1768144260,"current_range_meters":8400,"station_id":"ce4bhbp2rcd13ifvqerg","pricing_plan_id":"cebpf4jnsgd1na2vs0mg"},{"bike_id":"20de3ddf-3cfd-42ef-81e0-029c9589c76b","system_id":"levelo_inurba_marseille","lat":43.315653,"lon":5.387713,"is_reserved":false,"is_disabled":false,"rental_uris":{"android":"levelo://app?vid=20de3ddf-3cfd-42ef-81e0-029c9589c76b","ios":"levelo://app?vid=20de3ddf-3cfd-42ef-81e0-029c9589c76b"},"vehicle_type_id":"4","last_reported":1768144260,"current_range_meters":8400,"station_id":"","pricing_plan_id":"cebpf4jnsgd1na2vs0mg"},{"bike_id":"a9643177-8d0d-4088-8bf1-848629983930","system_id":"levelo_inurba_marseille","lat":43.26552,"lon":5.37301,"is_reserved":false,"is_disabled":false,"rental_uris":{"android":"levelo://app?vid=a9643177-8d0d-4088-8bf1-848629983930","ios":"levelo://app?vid=a9643177-8d0d-4088-8bf1-848629983930"},"vehicle_type_id":"4","last_reported":1768144260,"current_range_meters":8400,"station_id":"ce4bhg12rcd13ifvqf70","pricing_plan_id":"cebpf4jnsgd1na2vs0mg"},{"bike_id":"b5e622b0-5126-4c46-aea7-514865fdad46","system_id":"levelo_inurba_marseille","lat":43.225,"lon":5.34836,"is_reserved":false,"is_disabled":false,"rental_uris":{"android":"levelo://app?vid=b5e622b0-5126-4c46-aea7-514865fdad46","ios":"levelo://app?vid=b5e622b0-5126-4c46-aea7-514865fdad46"},"vehicle_type_id":"4","last_reported":1768144260,"current_range_meters":8400,"station_id":"st_cvj5dfep6f1abm77gieg","pricing_plan_id":"cebpf4jnsgd1na2vs0mg"},{"bike_id":"097b1db9-7cfb-4c5a-94d5-72ec3ba5c8b3","system_id":"levelo_inurba_marseille","lat":43.28009,"lon":5.40903,"is_reserved":false,"is_disabled":false,"rental_uris":{"android":"levelo://app?vid=097b1db9-7cfb-4c5a-94d5-72ec3ba5c8b3","ios":"levelo://app?vid=097b1db9-7cfb-4c5a-94d5-72ec3ba5c8b3"},"vehicle_type_id":"4","last_reported":1768144260,"current_range_meters":8400,"station_id":"","pricing_plan_id":"cebpf4jnsgd1na2vs0mg"},{"bike_id":"ed2cd03a-66bb-4e81-9432-86bceab963be","system_id":"levelo_inurba_marseille","lat":43.22545,"lon":5.41626,"is_reserved":false,"is_disabled":false,"rental_uris":{"android":"levelo://app?vid=ed2cd03a-66bb-4e81-9432-86bceab963be","ios":"levelo://app?vid=ed2cd03a-66bb-4e81-9432-86bceab963be"},"vehicle_type_id":"4","last_reported":1768144260,"current_range_meters":8400,"station_id":"st_d2o4gvlbi1j2169b742g","pricing_plan_id":"cebpf4jnsgd1na2vs0mg"},{"bike_id":"dfd48d63-e5d1-4425-97d5-a11fee772bb6","system_id":"levelo_inurba_marseille","lat":43.25572,"lon":5.38248,"is_reserved":false,"is_disabled":false,"rental_uris":{"android":"levelo://app?vid=dfd48d63-e5d1-4425-97d5-a11fee772bb6","ios":"levelo://app?vid=dfd48d63-e5d1-4425-97d5-a11fee772bb6"},"vehicle_type_id":"4","last_reported":1768144260,"current_range_meters":8400,"station_id":"ce4bhih2rcd13ifvqfs0","pricing_plan_id":"cebpf4jnsgd1na2vs0mg"},{"bike_id":"ddca8b76-308e-4bd5-893c-d3fca5b2f318","system_id":"levelo_inurba_marseille","lat":43.282352,"lon":5.402719,"is_reserved":false,"is_disabled":false,"rental_uris":{"android":"levelo://app?vid=ddca8b76-308e-4bd5-893c-d3fca5b2f318","ios":"levelo://app?vid=ddca8b76-308e-4bd5-893c-d3fca5b2f318"},"vehicle_type_id":"4","last_reported":1768144260,"current_range_meters":8400,"station_id":"","pricing_plan_id":"cebpf4jnsgd1na2vs0mg"},{"bike_id":"d8755b01-f3a4-45d0-9782-07d7ef00b236","system_id":"levelo_inurba_marseille","lat":43.28039,"lon":5.4166,"is_reserved":false,"is_disabled":false,"rental_uris":{"android":"levelo://app?vid=d8755b01-f3a4-45d0-9782-07d7ef00b236","ios":"levelo://app?vid=d8755b01-f3a4-45d0-9782-07d7ef00b236"},"vehicle_type_id":"4","last_reported":1768144260,"current_range_meters":8400,"station_id":"ce4bho12rcd13ifvqh1g","pricing_plan_id":"cebpf4jnsgd1na2vs0mg"},{"bike_id":"858e8a6e-ece2-491f-b2a2-0e10d2fd226b","system_id":"levelo_inurba_marseille","lat":43.290047,"lon":5.356147,"is_reserved":false,"is_disabled":false,"rental_uris":{"android":"levelo://app?vid=858e8a6e-ece2-491f-b2a2-0e10d2fd226b","ios":"levelo://app?vid=858e8a6e-ece2-491f-b2a2-0e10d2fd226b"},"vehicle_type_id":"4","last_reported":1768144260,"current_range_meters":8400,"station_id":"ce4bhb92rcd13ifvqen0","pricing_plan_id":"cebpf4jnsgd1na2vs0mg"},{"bike_id":"53285794-c62b-442b-9e6a-233ce6590272","system_id":"levelo_inurba_marseille","lat":43.245826,"lon":5.374825,"is_reserved":false,"is_disabled":false,"rental_uris":{"android":"levelo://app?vid=53285794-c62b-442b-9e6a-233ce6590272","ios":"levelo://app?vid=53285794-c62b-442b-9e6a-233ce6590272"},"vehicle_type_id":"4","last_reported":1768144260,"current_range_meters":8400,"station_id":"","pricing_plan_id":"cebpf4jnsgd1na2vs0mg"},{"bike_id":"cfc31cb0-49ca-4b30-8c65-0b6d74754b4a","system_id":"levelo_inurba_marseille","lat":43.28619,"lon":5.42619,"is_reserved":false,"is_disabled":false,"rental_uris":{"android":"levelo://app?vid=cfc31cb0-49ca-4b30-8c65-0b6d74754b4a","ios":"levelo://app?vid=cfc31cb0-49ca-4b30-8c65-0b6d74754b4a"},"vehicle_type_id":"4","last_reported":1768144260,"current_range_meters":8400,"station_id":"","pricing_plan_id":"cebpf4jnsgd1na2vs0mg"},{"bike_id":"cbc05215-eae3-482c-8a83-406d798cd6ab","system_id":"levelo_inurba_marseille","lat":43.24168,"lon":5.36399,"is_reserved":false,"is_disabled":false,"rental_uris":{"android":"levelo://app?vid=cbc05215-eae3-482c-8a83-406d798cd6ab","ios":"levelo://app?vid=cbc05215-eae3-482c-8a83-406d798cd6ab"},"vehicle_type_id":"4","last_reported":1768144260,"current_range_meters":8400,"station_id":"cpo36qri1sfpv3e86is0","pricing_plan_id":"cebpf4jnsgd1na2vs0mg"},{"bike_id":"ccf3df2d-2595-4e60-bc12-4ee57003c1b4","system_id":"levelo_inurba_marseille","lat":43.28675,"lon":5.38712,"is_reserved":false,"is_disabled":false,"rental_uris":{"android":"levelo://app?vid=ccf3df2d-2595-4e60-bc12-4ee57003c1b4","ios":"levelo://app?vid=ccf3df2d-2595-4e60-bc12-4ee57003c1b4"},"vehicle_type_id":"4","last_reported":1768144260,"current_range_meters":8400,"station_id":"ce4bh492rcd13ifvqdug","pricing_plan_id":"cebpf4jnsgd1na2vs0mg"},{"bike_id":"0fee359e-fd0a-419a-8bad-68dfffe61373","system_id":"levelo_inurba_marseille","lat":43.32535,"lon":5.40677,"is_reserved":false,"is_disabled":false,"rental_uris":{"android":"levelo://app?vid=0fee359e-fd0a-419a-8bad-68dfffe61373","ios":"levelo://app?vid=0fee359e-fd0a-419a-8bad-68dfffe61373"},"vehicle_type_id":"4","last_reported":1768144260,"current_range_meters":8400,"station_id":"","pricing_plan_id":"cebpf4jnsgd1na2vs0mg"},{"bike_id":"4ddffc0c-a073-4800-9872-80f96d7a4252","system_id":"levelo_inurba_marseille","lat":43.25339,"lon":5.42179,"is_reserved":false,"is_disabled":false,"rental_uris":{"android":"levelo://app?vid=4ddffc0c-a073-4800-9872-80f96d7a4252","ios":"levelo://app?vid=4ddffc0c-a073-4800-9872-80f96d7a4252"},"vehicle_type_id":"4","last_reported":1768144260,"current_range_meters":8400,"station_id":"st_d2m65c5bi1j21697t3ng","pricing_plan_id":"cebpf4jnsgd1na2vs0mg"},{"bike_id":"c09077fd-b45e-4923-87ed-8f3d3b3f4e4e","system_id":"levelo_inurba_marseille","lat":43.284831,"lon":5.48404,"is_reserved":false,"is_disabled":false,"rental_uris":{"android":"levelo://app?vid=c09077fd-b45e-4923-87ed-8f3d3b3f4e4e","ios":"levelo://app?vid=c09077fd-b45e-4923-87ed-8f3d3b3f4e4e"},"vehicle_type_id":"4","last_reported":1768144260,"current_range_meters":8400,"station_id":"","pricing_plan_id":"cebpf4jnsgd1na2vs0mg"},{"bike_id":"c16eeb36-557f-48b5-919d-9403f7369faf","system_id":"levelo_inurba_marseille","lat":43.27376,"lon":5.36262,"is_reserved":false,"is_disabled":false,"rental_uris":{"android":"levelo://app?vid=c16eeb36-557f-48b5-919d-9403f7369faf","ios":"levelo://app?vid=c16eeb36-557f-48b5-919d-9403f7369faf"},"vehicle_type_id":"4","last_reported":1768144260,"current_range_meters":8400,"station_id":"ce4bhbh2rcd13ifvqeo0","pricing_plan_id":"cebpf4jnsgd1na2vs0mg"},{"bike_id":"36ffbd15-3b45-4724-86db-461ef951debf","system_id":"levelo_inurba_marseille","lat":43.21756,"lon":5.34608,"is_reserved":false,"is_disabled":false,"rental_uris":{"android":"levelo://app?vid=36ffbd15-3b45-4724-86db-461ef951debf","ios":"levelo://app?vid=36ffbd15-3b45-4724-86db-461ef951debf"},"vehicle_type_id":"4","last_reported":1768144260,"current_range_meters":8800,"station_id":"st_cvj6r9ubvosntc0bgbag","pricing_plan_id":"cebpf4jnsgd1na2vs0mg"},{"bike_id":"7391bea9-cf28-4483-bef1-ec64b236fa58","system_id":"levelo_inurba_marseille","lat":43.22934,"lon":5.35377,"is_reserved":false,"is_disabled":false,"rental_uris":{"android":"levelo://app?vid=7391bea9-cf28-4483-bef1-ec64b236fa58","ios":"levelo://app?vid=7391bea9-cf28-4483-bef1-ec64b236fa58"},"vehicle_type_id":"4","last_reported":1768144260,"current_range_meters":8800,"station_id":"cpo3532slgdg3j2ikp40","pricing_plan_id":"cebpf4jnsgd1na2vs0mg"},{"bike_id":"c7aa20f8-983d-45fa-8f15-bc3b76c15f97","system_id":"levelo_inurba_marseille","lat":43.32331,"lon":5.3704,"is_reserved":false,"is_disabled":false,"rental_uris":{"android":"levelo://app?vid=c7aa20f8-983d-45fa-8f15-bc3b76c15f97","ios":"levelo://app?vid=c7aa20f8-983d-45fa-8f15-bc3b76c15f97"},"vehicle_type_id":"4","last_reported":1768144260,"current_range_meters":8800,"station_id":"","pricing_plan_id":"cebpf4jnsgd1na2vs0mg"},{"bike_id":"38a5a6be-7a66-462f-bfdd-a381aa75e6d3","system_id":"levelo_inurba_marseille","lat":43.28694,"lon":5.38662,"is_reserved":false,"is_disabled":true,"rental_uris":{"android":"levelo://app?vid=38a5a6be-7a66-462f-bfdd-a381aa75e6d3","ios":"levelo://app?vid=38a5a6be-7a66-462f-bfdd-a381aa75e6d3"},"vehicle_type_id":"4","last_reported":1768144260,"current_range_meters":8800,"station_id":"ce4bh492rcd13ifvqdug","pricing_plan_id":"cebpf4jnsgd1na2vs0mg"},{"bike_id":"748968f8-327c-4969-9ba7-2d3fe0ea40f7","system_id":"levelo_inurba_marseille","lat":43.29509,"lon":5.3961,"is_reserved":false,"is_disabled":false,"rental_uris":{"android":"levelo://app?vid=748968f8-327c-4969-9ba7-2d3fe0ea40f7","ios":"levelo://app?vid=748968f8-327c-4969-9ba7-2d3fe0ea40f7"},"vehicle_type_id":"4","last_reported":1768144260,"current_range_meters":8800,"station_id":"","pricing_plan_id":"cebpf4jnsgd1na2vs0mg"},{"bike_id":"e48607cd-b2f5-4b5a-9c6c-86ffe0a63554","system_id":"levelo_inurba_marseille","lat":43.24388,"lon":5.37065,"is_reserved":false,"is_disabled":false,"rental_uris":{"android":"levelo://app?vid=e48607cd-b2f5-4b5a-9c6c-86ffe0a63554","ios":"levelo://app?vid=e48607cd-b2f5-4b5a-9c6c-86ffe0a63554"},"vehicle_type_id":"4","last_reported":1768144260,"current_range_meters":8800,"station_id":"ce4bhhh2rcd13ifvqfk0","pricing_plan_id":"cebpf4jnsgd1na2vs0mg"},{"bike_id":"60ac9e41-58fb-435b-91cd-61a2280b9470","system_id":"levelo_inurba_marseille","lat":43.29758,"lon":5.42768,"is_reserved":false,"is_disabled":false,"rental_uris":{"android":"levelo://app?vid=60ac9e41-58fb-435b-91cd-61a2280b9470","ios":"levelo://app?vid=60ac9e41-58fb-435b-91cd-61a2280b9470"},"vehicle_type_id":"4","last_reported":1768144260,"current_range_meters":8800,"station_id":"st_d3md5207bmas73dh9klg","pricing_plan_id":"cebpf4jnsgd1na2vs0mg"},{"bike_id":"1ea802fd-f66e-4c41-8354-41e1828b1dc4","system_id":"levelo_inurba_marseille","lat":43.28616,"lon":5.35097,"is_reserved":false,"is_disabled":false,"rental_uris":{"android":"levelo://app?vid=1ea802fd-f66e-4c41-8354-41e1828b1dc4","ios":"levelo://app?vid=1ea802fd-f66e-4c41-8354-41e1828b1dc4"},"vehicle_type_id":"4","last_reported":1768144260,"current_range_meters":8800,"station_id":"ce4bhch2rcd13ifvqeug","pricing_plan_id":"cebpf4jnsgd1na2vs0mg"},{"bike_id":"99fe5b1b-414f-4991-bd96-50c5447c2892","system_id":"levelo_inurba_marseille","lat":43.27486,"lon":5.42305,"is_reserved":false,"is_disabled":false,"rental_uris":{"android":"levelo://app?vid=99fe5b1b-414f-4991-bd96-50c5447c2892","ios":"levelo://app?vid=99fe5b1b-414f-4991-bd96-50c5447c2892"},"vehicle_type_id":"4","last_reported":1768144260,"current_range_meters":8800,"station_id":"ce4bhn92rcd13ifvqgrg","pricing_plan_id":"cebpf4jnsgd1na2vs0mg"},{"bike_id":"4f2d395d-6c79-4f80-87d2-a40483f0801a","system_id":"levelo_inurba_marseille","lat":43.21194,"lon":5.3507,"is_reserved":false,"is_disabled":false,"rental_uris":{"android":"levelo://app?vid=4f2d395d-6c79-4f80-87d2-a40483f0801a","ios":"levelo://app?vid=4f2d395d-6c79-4f80-87d2-a40483f0801a"},"vehicle_type_id":"4","last_reported":1768144260,"current_range_meters":8800,"station_id":"st_cvj6sg6p6f1abm77japg","pricing_plan_id":"cebpf4jnsgd1na2vs0mg"},{"bike_id":"10c0b1c4-7d2b-417e-87d0-9f8889d09f30","system_id":"levelo_inurba_marseille","lat":43.225611,"lon":5.416265,"is_reserved":false,"is_disabled":false,"rental_uris":{"android":"levelo://app?vid=10c0b1c4-7d2b-417e-87d0-9f8889d09f30","ios":"levelo://app?vid=10c0b1c4-7d2b-417e-87d0-9f8889d09f30"},