{"last_updated":1731579019,"ttl":60,"version":"2.2","data":{"bikes":[{"bike_id":"fcbc6c4f-b593-4d07-ba9a-4724676504df","system_id":"levelo_inurba_marseille","lat":43.28273,"lon":5.35066,"is_reserved":false,"is_disabled":false,"rental_uris":{"android":"levelo://app?vid=fcbc6c4f-b593-4d07-ba9a-4724676504df","ios":"levelo://app?vid=fcbc6c4f-b593-4d07-ba9a-4724676504df"},"vehicle_type_id":"4","last_reported":1731579019,"current_range_meters":8000,"station_id":"ce4bhbp2rcd13ifvqerg","pricing_plan_id":"cebpf4jnsgd1na2vs0mg"},{"bike_id":"8a86cdc2-56ee-4258-9f38-2fe0ed00da0e","system_id":"levelo_inurba_marseille","lat":43.30308,"lon":5.36896,"is_reserved":false,"is_disabled":false,"rental_uris":{"android":"levelo://app?vid=8a86cdc2-56ee-4258-9f38-2fe0ed00da0e","ios":"levelo://app?vid=8a86cdc2-56ee-4258-9f38-2fe0ed00da0e"},"vehicle_type_id":"4","last_reported":1731579019,"current_range_meters":30400,"station_id":"ce4bgqh2rcd13ifvqc5g","pricing_plan_id":"cebpf4jnsgd1na2vs0mg"},{"bike_id":"d72e41e0-b2be-44d4-9a5d-48e19d343592","system_id":"levelo_inurba_marseille","lat":43.31348,"lon":5.36717,"is_reserved":false,"is_disabled":false,"rental_uris":{"android":"levelo://app?vid=d72e41e0-b2be-44d4-9a5d-48e19d343592","ios":"levelo://app?vid=d72e41e0-b2be-44d4-9a5d-48e19d343592"},"vehicle_type_id":"4","last_reported":1731579019,"current_range_meters":32800,"station_id":"ce4bgr92rcd13ifvqc6g","pricing_plan_id":"cebpf4jnsgd1na2vs0mg"},{"bike_id":"b65884a7-d9b0-45b3-a1e6-8401e1cbb45e","system_id":"levelo_inurba_marseille","lat":43.30952,"lon":5.39034,"is_reserved":false,"is_disabled":false,"rental_uris":{"android":"levelo://app?vid=b65884a7-d9b0-45b3-a1e6-8401e1cbb45e","ios":"levelo://app?vid=b65884a7-d9b0-45b3-a1e6-8401e1cbb45e"},"vehicle_type_id":"4","last_reported":1731579019,"current_range_meters":29600,"station_id":"ce4bgup2rcd13ifvqco0","pricing_plan_id":"cebpf4jnsgd1na2vs0mg"},{"bike_id":"a65636a1-9916-40c3-9c94-f5277a18a30b","system_id":"levelo_inurba_marseille","lat":43.31228,"lon":5.36862,"is_reserved":false,"is_disabled":false,"rental_uris":{"android":"levelo://app?vid=a65636a1-9916-40c3-9c94-f5277a18a30b","ios":"levelo://app?vid=a65636a1-9916-40c3-9c94-f5277a18a30b"},"vehicle_type_id":"4","last_reported":1731579019,"current_range_meters":28400,"station_id":"ce4bgl92rcd13ifvqbq0","pricing_plan_id":"cebpf4jnsgd1na2vs0mg"},{"bike_id":"031a0ee1-9b61-4ad3-8ccf-1548b59049f9","system_id":"levelo_inurba_marseille","lat":43.30949,"lon":5.39047,"is_reserved":false,"is_disabled":false,"rental_uris":{"android":"levelo://app?vid=031a0ee1-9b61-4ad3-8ccf-1548b59049f9","ios":"levelo://app?vid=031a0ee1-9b61-4ad3-8ccf-1548b59049f9"},"vehicle_type_id":"4","last_reported":1731579019,"current_range_meters":34800,"station_id":"ce4bgup2rcd13ifvqco0","pricing_plan_id":"cebpf4jnsgd1na2vs0mg"},{"bike_id":"7e2766db-455e-43cd-949c-f290a2177e18","system_id":"levelo_inurba_marseille","lat":43.30284,"lon":5.37691,"is_reserved":false,"is_disabled":false,"rental_uris":{"android":"levelo://app?vid=7e2766db-455e-43cd-949c-f290a2177e18","ios":"levelo://app?vid=7e2766db-455e-43cd-949c-f290a2177e18"},"vehicle_type_id":"4","last_reported":1731579019,"current_range_meters":29600,"station_id":"ce4bguh2rcd13ifvqcj0","pricing_plan_id":"cebpf4jnsgd1na2vs0mg"},{"bike_id":"99cc30ee-bba1-4c59-b2d4-2a6aab810ae9","system_id":"levelo_inurba_marseille","lat":43.30885,"lon":5.39653,"is_reserved":false,"is_disabled":false,"rental_uris":{"android":"levelo://app?vid=99cc30ee-bba1-4c59-b2d4-2a6aab810ae9","ios":"levelo://app?vid=99cc30ee-bba1-4c59-b2d4-2a6aab810ae9"},"vehicle_type_id":"4","last_reported":1731579019,"current_range_meters":8400,"station_id":"ce4bh012rcd13ifvqcv0","pricing_plan_id":"cebpf4jnsgd1na2vs0mg"},{"bike_id":"0c275282-f059-4496-a54e-ec665479b0c1","system_id":"levelo_inurba_marseille","lat":43.299668,"lon":5.371721,"is_reserved":false,"is_disabled":false,"rental_uris":{"android":"levelo://app?vid=0c275282-f059-4496-a54e-ec665479b0c1","ios":"levelo://app?vid=0c275282-f059-4496-a54e-ec665479b0c1"},"vehicle_type_id":"4","last_reported":1731579019,"current_range_meters":36800,"station_id":"ce4bgr92rcd13ifvqc7g","pricing_plan_id":"cebpf4jnsgd1na2vs0mg"},{"bike_id":"4f904763-3530-4936-9292-7b00ce605d6e","system_id":"levelo_inurba_marseille","lat":43.29573,"lon":5.39962,"is_reserved":false,"is_disabled":false,"rental_uris":{"android":"levelo://app?vid=4f904763-3530-4936-9292-7b00ce605d6e","ios":"levelo://app?vid=4f904763-3530-4936-9292-7b00ce605d6e"},"vehicle_type_id":"4","last_reported":1731579019,"current_range_meters":32400,"station_id":"ce4bh312rcd13ifvqdj0","pricing_plan_id":"cebpf4jnsgd1na2vs0mg"},{"bike_id":"1e3cdf81-de67-4ba7-a758-1eb6f82cf22c","system_id":"levelo_inurba_marseille","lat":43.29298,"lon":5.37444,"is_reserved":false,"is_disabled":false,"rental_uris":{"android":"levelo://app?vid=1e3cdf81-de67-4ba7-a758-1eb6f82cf22c","ios":"levelo://app?vid=1e3cdf81-de67-4ba7-a758-1eb6f82cf22c"},"vehicle_type_id":"4","last_reported":1731579019,"current_range_meters":26000,"station_id":"ce4bgi12rcd13ifvqb70","pricing_plan_id":"cebpf4jnsgd1na2vs0mg"},{"bike_id":"a789c85f-e51c-488c-b82a-114415ab3524","system_id":"levelo_inurba_marseille","lat":43.25088,"lon":5.39521,"is_reserved":false,"is_disabled":false,"rental_uris":{"android":"levelo://app?vid=a789c85f-e51c-488c-b82a-114415ab3524","ios":"levelo://app?vid=a789c85f-e51c-488c-b82a-114415ab3524"},"vehicle_type_id":"4","last_reported":1731579019,"current_range_meters":22000,"station_id":"ce4bhm12rcd13ifvqgkg","pricing_plan_id":"cebpf4jnsgd1na2vs0mg"},{"bike_id":"be9a7d5c-a83f-41ba-b953-8e7db0668e00","system_id":"levelo_inurba_marseille","lat":43.2861,"lon":5.37054,"is_reserved":false,"is_disabled":false,"rental_uris":{"android":"levelo://app?vid=be9a7d5c-a83f-41ba-b953-8e7db0668e00","ios":"levelo://app?vid=be9a7d5c-a83f-41ba-b953-8e7db0668e00"},"vehicle_type_id":"4","last_reported":1731579019,"current_range_meters":12400,"station_id":"ce4bht12rcd13ifvqi60","pricing_plan_id":"cebpf4jnsgd1na2vs0mg"},{"bike_id":"ae292185-8e91-4db6-a612-c3563674c7fa","system_id":"levelo_inurba_marseille","lat":43.317581,"lon":5.390235,"is_reserved":false,"is_disabled":false,"rental_uris":{"android":"levelo://app?vid=ae292185-8e91-4db6-a612-c3563674c7fa","ios":"levelo://app?vid=ae292185-8e91-4db6-a612-c3563674c7fa"},"vehicle_type_id":"4","last_reported":1731579019,"current_range_meters":22000,"station_id":"ce4bhqp2rcd13ifvqhng","pricing_plan_id":"cebpf4jnsgd1na2vs0mg"},{"bike_id":"91fe36a8-bc4f-4b08-8287-b0444a16f338","system_id":"levelo_inurba_marseille","lat":43.23152,"lon":5.43733,"is_reserved":false,"is_disabled":false,"rental_uris":{"android":"levelo://app?vid=91fe36a8-bc4f-4b08-8287-b0444a16f338","ios":"levelo://app?vid=91fe36a8-bc4f-4b08-8287-b0444a16f338"},"vehicle_type_id":"4","last_reported":1731579019,"current_range_meters":38800,"station_id":"ce4bhmp2rcd13ifvqgog","pricing_plan_id":"cebpf4jnsgd1na2vs0mg"},{"bike_id":"8472a442-1b27-4429-9cbb-acb2837e6d0f","system_id":"levelo_inurba_marseille","lat":43.24081,"lon":5.37737,"is_reserved":false,"is_disabled":false,"rental_uris":{"android":"levelo://app?vid=8472a442-1b27-4429-9cbb-acb2837e6d0f","ios":"levelo://app?vid=8472a442-1b27-4429-9cbb-acb2837e6d0f"},"vehicle_type_id":"4","last_reported":1731579019,"current_range_meters":24800,"station_id":"ce4bhnp2rcd13ifvqgvg","pricing_plan_id":"cebpf4jnsgd1na2vs0mg"},{"bike_id":"cc792d10-5e3a-4b03-849b-38a1e4ffc260","system_id":"levelo_inurba_marseille","lat":43.337444,"lon":5.374475,"is_reserved":false,"is_disabled":false,"rental_uris":{"android":"levelo://app?vid=cc792d10-5e3a-4b03-849b-38a1e4ffc260","ios":"levelo://app?vid=cc792d10-5e3a-4b03-849b-38a1e4ffc260"},"vehicle_type_id":"4","last_reported":1731579019,"current_range_meters":35200,"station_id":"","pricing_plan_id":"cebpf4jnsgd1na2vs0mg"},{"bike_id":"211b95b3-0964-4620-a467-44e4b7e2bf10","system_id":"levelo_inurba_marseille","lat":43.2678,"lon":5.3941,"is_reserved":false,"is_disabled":false,"rental_uris":{"android":"levelo://app?vid=211b95b3-0964-4620-a467-44e4b7e2bf10","ios":"levelo://app?vid=211b95b3-0964-4620-a467-44e4b7e2bf10"},"vehicle_type_id":"4","last_reported":1731579019,"current_range_meters":32000,"station_id":"ce4bhh12rcd13ifvqfg0","pricing_plan_id":"cebpf4jnsgd1na2vs0mg"},{"bike_id":"6a2ecd71-746e-4975-855c-9ca6a55f4c09","system_id":"levelo_inurba_marseille","lat":43.25109,"lon":5.4032,"is_reserved":false,"is_disabled":false,"rental_uris":{"android":"levelo://app?vid=6a2ecd71-746e-4975-855c-9ca6a55f4c09","ios":"levelo://app?vid=6a2ecd71-746e-4975-855c-9ca6a55f4c09"},"vehicle_type_id":"4","last_reported":1731579019,"current_range_meters":28800,"station_id":"ce4bhlh2rcd13ifvqgig","pricing_plan_id":"cebpf4jnsgd1na2vs0mg"},{"bike_id":"9d3d8f04-350a-47f9-a91d-71c04ea9de18","system_id":"levelo_inurba_marseille","lat":43.23152,"lon":5.43708,"is_reserved":false,"is_disabled":false,"rental_uris":{"android":"levelo://app?vid=9d3d8f04-350a-47f9-a91d-71c04ea9de18","ios":"levelo://app?vid=9d3d8f04-350a-47f9-a91d-71c04ea9de18"},"vehicle_type_id":"4","last_reported":1731579019,"current_range_meters":30800,"station_id":"ce4bhmp2rcd13ifvqgog","pricing_plan_id":"cebpf4jnsgd1na2vs0mg"},{"bike_id":"f4c3fde6-2540-49a4-bb23-f1fa8ca9a78b","system_id":"levelo_inurba_marseille","lat":43.30552,"lon":5.36555,"is_reserved":false,"is_disabled":false,"rental_uris":{"android":"levelo://app?vid=f4c3fde6-2540-49a4-bb23-f1fa8ca9a78b","ios":"levelo://app?vid=f4c3fde6-2540-49a4-bb23-f1fa8ca9a78b"},"vehicle_type_id":"4","last_reported":1731579019,"current_range_meters":19200,"station_id":"","pricing_plan_id":"cebpf4jnsgd1na2vs0mg"},{"bike_id":"b77ac093-3fb3-448b-bd8f-97b597b53a11","system_id":"levelo_inurba_marseille","lat":43.24072,"lon":5.3776,"is_reserved":false,"is_disabled":false,"rental_uris":{"android":"levelo://app?vid=b77ac093-3fb3-448b-bd8f-97b597b53a11","ios":"levelo://app?vid=b77ac093-3fb3-448b-bd8f-97b597b53a11"},"vehicle_type_id":"4","last_reported":1731579019,"current_range_meters":4400,"station_id":"ce4bhnp2rcd13ifvqgvg","pricing_plan_id":"cebpf4jnsgd1na2vs0mg"},{"bike_id":"3a0419a3-13ed-4d36-8acb-56d7e9e39621","system_id":"levelo_inurba_marseille","lat":43.29848,"lon":5.36274,"is_reserved":false,"is_disabled":false,"rental_uris":{"android":"levelo://app?vid=3a0419a3-13ed-4d36-8acb-56d7e9e39621","ios":"levelo://app?vid=3a0419a3-13ed-4d36-8acb-56d7e9e39621"},"vehicle_type_id":"4","last_reported":1731579019,"current_range_meters":38800,"station_id":"ce4bgpp2rcd13ifvqc3g","pricing_plan_id":"cebpf4jnsgd1na2vs0mg"},{"bike_id":"0d573abc-7633-40c1-9c80-2e9e6737b467","system_id":"levelo_inurba_marseille","lat":43.24999,"lon":5.38925,"is_reserved":false,"is_disabled":false,"rental_uris":{"android":"levelo://app?vid=0d573abc-7633-40c1-9c80-2e9e6737b467","ios":"levelo://app?vid=0d573abc-7633-40c1-9c80-2e9e6737b467"},"vehicle_type_id":"4","last_reported":1731579019,"current_range_meters":37600,"station_id":"ce4bhgp2rcd13ifvqfd0","pricing_plan_id":"cebpf4jnsgd1na2vs0mg"},{"bike_id":"1579722b-848e-48df-9236-515caaaed928","system_id":"levelo_inurba_marseille","lat":43.29528,"lon":5.37506,"is_reserved":false,"is_disabled":false,"rental_uris":{"android":"levelo://app?vid=1579722b-848e-48df-9236-515caaaed928","ios":"levelo://app?vid=1579722b-848e-48df-9236-515caaaed928"},"vehicle_type_id":"4","last_reported":1731579019,"current_range_meters":38000,"station_id":"ce4bgkp2rcd13ifvqbmg","pricing_plan_id":"cebpf4jnsgd1na2vs0mg"},{"bike_id":"10f83ea1-21fc-49d5-934a-4b6f18d7a2b7","system_id":"levelo_inurba_marseille","lat":43.336019,"lon":5.410159,"is_reserved":false,"is_disabled":false,"rental_uris":{"android":"levelo://app?vid=10f83ea1-21fc-49d5-934a-4b6f18d7a2b7","ios":"levelo://app?vid=10f83ea1-21fc-49d5-934a-4b6f18d7a2b7"},"vehicle_type_id":"4","last_reported":1731579019,"current_range_meters":38800,"station_id":"ce4bhqh2rcd13ifvqhmg","pricing_plan_id":"cebpf4jnsgd1na2vs0mg"},{"bike_id":"e0e231e9-a8d6-4508-bfb0-ed25eda22d2a","system_id":"levelo_inurba_marseille","lat":43.28471,"lon":5.38409,"is_reserved":false,"is_disabled":false,"rental_uris":{"android":"levelo://app?vid=e0e231e9-a8d6-4508-bfb0-ed25eda22d2a","ios":"levelo://app?vid=e0e231e9-a8d6-4508-bfb0-ed25eda22d2a"},"vehicle_type_id":"4","last_reported":1731579019,"current_range_meters":26000,"station_id":"ce4bh512rcd13ifvqe3g","pricing_plan_id":"cebpf4jnsgd1na2vs0mg"},{"bike_id":"4b66fe0e-1c21-4673-aae3-433ab3e23357","system_id":"levelo_inurba_marseille","lat":43.31351,"lon":5.36729,"is_reserved":false,"is_disabled":false,"rental_uris":{"android":"levelo://app?vid=4b66fe0e-1c21-4673-aae3-433ab3e23357","ios":"levelo://app?vid=4b66fe0e-1c21-4673-aae3-433ab3e23357"},"vehicle_type_id":"4","last_reported":1731579019,"current_range_meters":8400,"station_id":"ce4bgr92rcd13ifvqc6g","pricing_plan_id":"cebpf4jnsgd1na2vs0mg"},{"bike_id":"4a74f469-1d99-48ee-a8ca-9199898c00a4","system_id":"levelo_inurba_marseille","lat":43.23199,"lon":5.35547,"is_reserved":false,"is_disabled":false,"rental_uris":{"android":"levelo://app?vid=4a74f469-1d99-48ee-a8ca-9199898c00a4","ios":"levelo://app?vid=4a74f469-1d99-48ee-a8ca-9199898c00a4"},"vehicle_type_id":"4","last_reported":1731579019,"current_range_meters":22000,"station_id":"ce4bhu92rcd13ifvqi70","pricing_plan_id":"cebpf4jnsgd1na2vs0mg"},{"bike_id":"c4b2bafb-ae76-412e-a120-055cc31bbdd6","system_id":"levelo_inurba_marseille","lat":43.250023,"lon":5.389233,"is_reserved":false,"is_disabled":false,"rental_uris":{"android":"levelo://app?vid=c4b2bafb-ae76-412e-a120-055cc31bbdd6","ios":"levelo://app?vid=c4b2bafb-ae76-412e-a120-055cc31bbdd6"},"vehicle_type_id":"4","last_reported":1731579019,"current_range_meters":22400,"station_id":"ce4bhgp2rcd13ifvqfd0","pricing_plan_id":"cebpf4jnsgd1na2vs0mg"},{"bike_id":"bb98d3d7-6c23-4d35-9283-356abff5348c","system_id":"levelo_inurba_marseille","lat":43.29172,"lon":5.37141,"is_reserved":false,"is_disabled":false,"rental_uris":{"android":"levelo://app?vid=bb98d3d7-6c23-4d35-9283-356abff5348c","ios":"levelo://app?vid=bb98d3d7-6c23-4d35-9283-356abff5348c"},"vehicle_type_id":"4","last_reported":1731579019,"current_range_meters":38800,"station_id":"ce4bha92rcd13ifvqeh0","pricing_plan_id":"cebpf4jnsgd1na2vs0mg"},{"bike_id":"304bc20b-dec5-43dd-9211-c6d16fa3594e","system_id":"levelo_inurba_marseille","lat":43.30528,"lon":5.36692,"is_reserved":false,"is_disabled":false,"rental_uris":{"android":"levelo://app?vid=304bc20b-dec5-43dd-9211-c6d16fa3594e","ios":"levelo://app?vid=304bc20b-dec5-43dd-9211-c6d16fa3594e"},"vehicle_type_id":"4","last_reported":1731579019,"current_range_meters":32000,"station_id":"ce4bgrp2rcd13ifvqc9g","pricing_plan_id":"cebpf4jnsgd1na2vs0mg"},{"bike_id":"c0d36329-4d48-4aa1-bc06-ca1aa8cf1f4d","system_id":"levelo_inurba_marseille","lat":43.29222,"lon":5.36079,"is_reserved":false,"is_disabled":false,"rental_uris":{"android":"levelo://app?vid=c0d36329-4d48-4aa1-bc06-ca1aa8cf1f4d","ios":"levelo://app?vid=c0d36329-4d48-4aa1-bc06-ca1aa8cf1f4d"},"vehicle_type_id":"4","last_reported":1731579019,"current_range_meters":24800,"station_id":"ce4bhbh2rcd13ifvqeqg","pricing_plan_id":"cebpf4jnsgd1na2vs0mg"},{"bike_id":"3668eb37-2c3a-4a2e-a271-4967dc4f81e2","system_id":"levelo_inurba_marseille","lat":43.2957,"lon":5.37494,"is_reserved":false,"is_disabled":false,"rental_uris":{"android":"levelo://app?vid=3668eb37-2c3a-4a2e-a271-4967dc4f81e2","ios":"levelo://app?vid=3668eb37-2c3a-4a2e-a271-4967dc4f81e2"},"vehicle_type_id":"4","last_reported":1731579019,"current_range_meters":36800,"station_id":"ce4bgh92rcd13ifvqb50","pricing_plan_id":"cebpf4jnsgd1na2vs0mg"},{"bike_id":"4b1abe0a-9f48-4536-a8fc-6a4c289408b8","system_id":"levelo_inurba_marseille","lat":43.30535,"lon":5.3669,"is_reserved":false,"is_disabled":false,"rental_uris":{"android":"levelo://app?vid=4b1abe0a-9f48-4536-a8fc-6a4c289408b8","ios":"levelo://app?vid=4b1abe0a-9f48-4536-a8fc-6a4c289408b8"},"vehicle_type_id":"4","last_reported":1731579019,"current_range_meters":40000,"station_id":"ce4bgrp2rcd13ifvqc9g","pricing_plan_id":"cebpf4jnsgd1na2vs0mg"},{"bike_id":"47c967a5-3c8a-4d73-a522-90111361a0a0","system_id":"levelo_inurba_marseille","lat":43.32482,"lon":5.36573,"is_reserved":false,"is_disabled":false,"rental_uris":{"android":"levelo://app?vid=47c967a5-3c8a-4d73-a522-90111361a0a0","ios":"levelo://app?vid=47c967a5-3c8a-4d73-a522-90111361a0a0"},"vehicle_type_id":"4","last_reported":1731579019,"current_range_meters":38800,"station_id":"ce4bhs12rcd13ifvqhvg","pricing_plan_id":"cebpf4jnsgd1na2vs0mg"},{"bike_id":"b401526e-9797-412b-a024-2aeff2654ce6","system_id":"levelo_inurba_marseille","lat":43.27933,"lon":5.35496,"is_reserved":false,"is_disabled":false,"rental_uris":{"android":"levelo://app?vid=b401526e-9797-412b-a024-2aeff2654ce6","ios":"levelo://app?vid=b401526e-9797-412b-a024-2aeff2654ce6"},"vehicle_type_id":"4","last_reported":1731579019,"current_range_meters":6400,"station_id":"","pricing_plan_id":"cebpf4jnsgd1na2vs0mg"},{"bike_id":"1443d4ee-f1e6-442f-a552-dabe20c31267","system_id":"levelo_inurba_marseille","lat":43.29909,"lon":5.38151,"is_reserved":false,"is_disabled":false,"rental_uris":{"android":"levelo://app?vid=1443d4ee-f1e6-442f-a552-dabe20c31267","ios":"levelo://app?vid=1443d4ee-f1e6-442f-a552-dabe20c31267"},"vehicle_type_id":"4","last_reported":1731579019,"current_range_meters":38800,"station_id":"ce4bgj12rcd13ifvqbc0","pricing_plan_id":"cebpf4jnsgd1na2vs0mg"},{"bike_id":"ef899d31-9e66-4a92-9d67-ec6a9f41e924","system_id":"levelo_inurba_marseille","lat":43.26952,"lon":5.3863,"is_reserved":false,"is_disabled":false,"rental_uris":{"android":"levelo://app?vid=ef899d31-9e66-4a92-9d67-ec6a9f41e924","ios":"levelo://app?vid=ef899d31-9e66-4a92-9d67-ec6a9f41e924"},"vehicle_type_id":"4","last_reported":1731579019,"current_range_meters":35200,"station_id":"ce4bhh92rcd13ifvqfh0","pricing_plan_id":"cebpf4jnsgd1na2vs0mg"},{"bike_id":"884c3eea-4219-4f9c-954c-8a12e6e92d39","system_id":"levelo_inurba_marseille","lat":43.26946,"lon":5.38635,"is_reserved":false,"is_disabled":false,"rental_uris":{"android":"levelo://app?vid=884c3eea-4219-4f9c-954c-8a12e6e92d39","ios":"levelo://app?vid=884c3eea-4219-4f9c-954c-8a12e6e92d39"},"vehicle_type_id":"4","last_reported":1731579019,"current_range_meters":26000,"station_id":"ce4bhh92rcd13ifvqfh0","pricing_plan_id":"cebpf4jnsgd1na2vs0mg"},{"bike_id":"2d988347-9c45-4c49-a1fc-7c2979a31818","system_id":"levelo_inurba_marseille","lat":43.28267,"lon":5.35076,"is_reserved":false,"is_disabled":false,"rental_uris":{"android":"levelo://app?vid=2d988347-9c45-4c49-a1fc-7c2979a31818","ios":"levelo://app?vid=2d988347-9c45-4c49-a1fc-7c2979a31818"},"vehicle_type_id":"4","last_reported":1731579019,"current_range_meters":17200,"station_id":"ce4bhbp2rcd13ifvqerg","pricing_plan_id":"cebpf4jnsgd1na2vs0mg"},{"bike_id":"d2e51693-906f-4e59-a304-0537c6274510","system_id":"levelo_inurba_marseille","lat":43.23151,"lon":5.4372,"is_reserved":false,"is_disabled":false,"rental_uris":{"android":"levelo://app?vid=d2e51693-906f-4e59-a304-0537c6274510","ios":"levelo://app?vid=d2e51693-906f-4e59-a304-0537c6274510"},"vehicle_type_id":"4","last_reported":1731579019,"current_range_meters":19600,"station_id":"ce4bhmp2rcd13ifvqgog","pricing_plan_id":"cebpf4jnsgd1na2vs0mg"},{"bike_id":"7f0e351c-57d1-46b2-a9fc-ddb18678de12","system_id":"levelo_inurba_marseille","lat":43.29017,"lon":5.38627,"is_reserved":false,"is_disabled":false,"rental_uris":{"android":"levelo://app?vid=7f0e351c-57d1-46b2-a9fc-ddb18678de12","ios":"levelo://app?vid=7f0e351c-57d1-46b2-a9fc-ddb18678de12"},"vehicle_type_id":"4","last_reported":1731579019,"current_range_meters":38400,"station_id":"ce4bh4p2rcd13ifvqe0g","pricing_plan_id":"cebpf4jnsgd1na2vs0mg"},{"bike_id":"1c5f9b0d-a04c-486e-8bbd-89d9b7fb7aa0","system_id":"levelo_inurba_marseille","lat":43.3414,"lon":5.40899,"is_reserved":false,"is_disabled":false,"rental_uris":{"android":"levelo://app?vid=1c5f9b0d-a04c-486e-8bbd-89d9b7fb7aa0","ios":"levelo://app?vid=1c5f9b0d-a04c-486e-8bbd-89d9b7fb7aa0"},"vehicle_type_id":"4","last_reported":1731579019,"current_range_meters":29600,"station_id":"ce4bhqh2rcd13ifvqhlg","pricing_plan_id":"cebpf4jnsgd1na2vs0mg"},{"bike_id":"d27770cd-6ecf-4dd3-9188-7bdfaca7efe4","system_id":"levelo_inurba_marseille","lat":43.24175,"lon":5.39717,"is_reserved":false,"is_disabled":false,"rental_uris":{"android":"levelo://app?vid=d27770cd-6ecf-4dd3-9188-7bdfaca7efe4","ios":"levelo://app?vid=d27770cd-6ecf-4dd3-9188-7bdfaca7efe4"},"vehicle_type_id":"4","last_reported":1731579019,"current_range_meters":22400,"station_id":"ce4bhn12rcd13ifvqgpg","pricing_plan_id":"cebpf4jnsgd1na2vs0mg"},{"bike_id":"a5906a4c-065f-4383-95f0-b2ef844c8865","system_id":"levelo_inurba_marseille","lat":43.2693,"lon":5.38918,"is_reserved":false,"is_disabled":false,"rental_uris":{"android":"levelo://app?vid=a5906a4c-065f-4383-95f0-b2ef844c8865","ios":"levelo://app?vid=a5906a4c-065f-4383-95f0-b2ef844c8865"},"vehicle_type_id":"4","last_reported":1731579019,"current_range_meters":38800,"station_id":"ce4bhhh2rcd13ifvqfl0","pricing_plan_id":"cebpf4jnsgd1na2vs0mg"},{"bike_id":"75801e28-b69b-4a5e-945c-714926c1ddf7","system_id":"levelo_inurba_marseille","lat":43.337444,"lon":5.374475,"is_reserved":false,"is_disabled":false,"rental_uris":{"android":"levelo://app?vid=75801e28-b69b-4a5e-945c-714926c1ddf7","ios":"levelo://app?vid=75801e28-b69b-4a5e-945c-714926c1ddf7"},"vehicle_type_id":"4","last_reported":1731579019,"current_range_meters":36000,"station_id":"","pricing_plan_id":"cebpf4jnsgd1na2vs0mg"},{"bike_id":"460294fb-fd20-42e7-85c5-d0e52643477f","system_id":"levelo_inurba_marseille","lat":43.27491,"lon":5.42453,"is_reserved":false,"is_disabled":false,"rental_uris":{"android":"levelo://app?vid=460294fb-fd20-42e7-85c5-d0e52643477f","ios":"levelo://app?vid=460294fb-fd20-42e7-85c5-d0e52643477f"},"vehicle_type_id":"4","last_reported":1731579019,"current_range_meters":8400,"station_id":"ce4bhn92rcd13ifvqgrg","pricing_plan_id":"cebpf4jnsgd1na2vs0mg"},{"bike_id":"eebdc58d-ef9d-4db2-94b3-b9cfd3d032d6","system_id":"levelo_inurba_marseille","lat":43.30526,"lon":5.36695,"is_reserved":false,"is_disabled":false,"rental_uris":{"android":"levelo://app?vid=eebdc58d-ef9d-4db2-94b3-b9cfd3d032d6","ios":"levelo://app?vid=eebdc58d-ef9d-4db2-94b3-b9cfd3d032d6"},"vehicle_type_id":"4","last_reported":1731579019,"current_range_meters":32400,"station_id":"ce4bgrp2rcd13ifvqc9g","pricing_plan_id":"cebpf4jnsgd1na2vs0mg"},{"bike_id":"9a6b3fa5-17ed-462b-822c-1e04067883f8","system_id":"levelo_inurba_marseille","lat":43.24179,"lon":5.39728,"is_reserved":false,"is_disabled":false,"rental_uris":{"android":"levelo://app?vid=9a6b3fa5-17ed-462b-822c-1e04067883f8","ios":"levelo://app?vid=9a6b3fa5-17ed-462b-822c-1e04067883f8"},"vehicle_type_id":"4","last_reported":1731579019,"current_range_meters":28400,"station_id":"ce4bhn12rcd13ifvqgpg","pricing_plan_id":"cebpf4jnsgd1na2vs0mg"},{"bike_id":"e1a6970f-d408-49cf-a4fe-ef82d2512acf","system_id":"levelo_inurba_marseille","lat":43.32477,"lon":5.36561,"is_reserved":false,"is_disabled":false,"rental_uris":{"android":"levelo://app?vid=e1a6970f-d408-49cf-a4fe-ef82d2512acf","ios":"levelo://app?vid=e1a6970f-d408-49cf-a4fe-ef82d2512acf"},"vehicle_type_id":"4","last_reported":1731579019,"current_range_meters":14400,"station_id":"ce4bhs12rcd13ifvqhvg","pricing_plan_id":"cebpf4jnsgd1na2vs0mg"},{"bike_id":"431da0da-2765-40c5-8ec6-144e64d098fc","system_id":"levelo_inurba_marseille","lat":43.30541,"lon":5.3654,"is_reserved":false,"is_disabled":false,"rental_uris":{"android":"levelo://app?vid=431da0da-2765-40c5-8ec6-144e64d098fc","ios":"levelo://app?vid=431da0da-2765-40c5-8ec6-144e64d098fc"},"vehicle_type_id":"4","last_reported":1731579019,"current_range_meters":16800,"station_id":"ce4bgs12rcd13ifvqcag","pricing_plan_id":"cebpf4jnsgd1na2vs0mg"},{"bike_id":"d5248d2b-5b98-4ab1-bb99-9a959d0082a8","system_id":"levelo_inurba_marseille","lat":43.30528,"lon":5.36536,"is_reserved":false,"is_disabled":false,"rental_uris":{"android":"levelo://app?vid=d5248d2b-5b98-4ab1-bb99-9a959d0082a8","ios":"levelo://app?vid=d5248d2b-5b98-4ab1-bb99-9a959d0082a8"},"vehicle_type_id":"4","last_reported":1731579019,"current_range_meters":38800,"station_id":"ce4bgs12rcd13ifvqcag","pricing_plan_id":"cebpf4jnsgd1na2vs0mg"},{"bike_id":"e2badf85-87df-423f-90ae-3db5d2b1e066","system_id":"levelo_inurba_marseille","lat":43.28999,"lon":5.35609,"is_reserved":false,"is_disabled":false,"rental_uris":{"android":"levelo://app?vid=e2badf85-87df-423f-90ae-3db5d2b1e066","ios":"levelo://app?vid=e2badf85-87df-423f-90ae-3db5d2b1e066"},"vehicle_type_id":"4","last_reported":1731579019,"current_range_meters":28800,"station_id":"ce4bhb92rcd13ifvqen0","pricing_plan_id":"cebpf4jnsgd1na2vs0mg"},{"bike_id":"e847e146-21bb-4981-950b-4996c8e13080","system_id":"levelo_inurba_marseille","lat":43.27324,"lon":5.39074,"is_reserved":false,"is_disabled":false,"rental_uris":{"android":"levelo://app?vid=e847e146-21bb-4981-950b-4996c8e13080","ios":"levelo://app?vid=e847e146-21bb-4981-950b-4996c8e13080"},"vehicle_type_id":"4","last_reported":1731579019,"current_range_meters":17600,"station_id":"ce4bhgp2rcd13ifvqfe0","pricing_plan_id":"cebpf4jnsgd1na2vs0mg"},{"bike_id":"c2cea8d8-d71b-4127-85aa-4f9781f97708","system_id":"levelo_inurba_marseille","lat":43.24805,"lon":5.37449,"is_reserved":false,"is_disabled":false,"rental_uris":{"android":"levelo://app?vid=c2cea8d8-d71b-4127-85aa-4f9781f97708","ios":"levelo://app?vid=c2cea8d8-d71b-4127-85aa-4f9781f97708"},"vehicle_type_id":"4","last_reported":1731579019,"current_range_meters":38800,"station_id":"ce4bhgh2rcd13ifvqfb0","pricing_plan_id":"cebpf4jnsgd1na2vs0mg"},{"bike_id":"a885910c-aaa9-4ec7-b396-5d7f8239d63c","system_id":"levelo_inurba_marseille","lat":43.29176,"lon":5.37146,"is_reserved":false,"is_disabled":false,"rental_uris":{"android":"levelo://app?vid=a885910c-aaa9-4ec7-b396-5d7f8239d63c","ios":"levelo://app?vid=a885910c-aaa9-4ec7-b396-5d7f8239d63c"},"vehicle_type_id":"4","last_reported":1731579019,"current_range_meters":39200,"station_id":"ce4bha92rcd13ifvqeh0","pricing_plan_id":"cebpf4jnsgd1na2vs0mg"},{"bike_id":"a583d3ea-648d-4ca4-ab6d-7c3a4f13bd72","system_id":"levelo_inurba_marseille","lat":43.23967,"lon":5.36632,"is_reserved":false,"is_disabled":false,"rental_uris":{"android":"levelo://app?vid=a583d3ea-648d-4ca4-ab6d-7c3a4f13bd72","ios":"levelo://app?vid=a583d3ea-648d-4ca4-ab6d-7c3a4f13bd72"},"vehicle_type_id":"4","last_reported":1731579019,"current_range_meters":24400,"station_id":"ce4bhi12rcd13ifvqfp0","pricing_plan_id":"cebpf4jnsgd1na2vs0mg"},{"bike_id":"ddb3f156-bc2f-40c2-a0f4-a5d33cb7db8a","system_id":"levelo_inurba_marseille","lat":43.29363,"lon":5.37838,"is_reserved":false,"is_disabled":false,"rental_uris":{"android":"levelo://app?vid=ddb3f156-bc2f-40c2-a0f4-a5d33cb7db8a","ios":"levelo://app?vid=ddb3f156-bc2f-40c2-a0f4-a5d33cb7db8a"},"vehicle_type_id":"4","last_reported":1731579019,"current_range_meters":32800,"station_id":"ce4bgjh2rcd13ifvqbf0","pricing_plan_id":"cebpf4jnsgd1na2vs0mg"},{"bike_id":"817849d8-25eb-48a4-b155-e11b87f519ff","system_id":"levelo_inurba_marseille","lat":43.30542,"lon":5.36527,"is_reserved":false,"is_disabled":false,"rental_uris":{"android":"levelo://app?vid=817849d8-25eb-48a4-b155-e11b87f519ff","ios":"levelo://app?vid=817849d8-25eb-48a4-b155-e11b87f519ff"},"vehicle_type_id":"4","last_reported":1731579019,"current_range_meters":40000,"station_id":"ce4bgs12rcd13ifvqcag","pricing_plan_id":"cebpf4jnsgd1na2vs0mg"},{"bike_id":"0aa50df3-327a-48eb-b5f0-a973f44a8663","system_id":"levelo_inurba_marseille","lat":43.24176,"lon":5.39717,"is_reserved":false,"is_disabled":false,"rental_uris":{"android":"levelo://app?vid=0aa50df3-327a-48eb-b5f0-a973f44a8663","ios":"levelo://app?vid=0aa50df3-327a-48eb-b5f0-a973f44a8663"},"vehicle_type_id":"4","last_reported":1731579019,"current_range_meters":26800,"station_id":"ce4bhn12rcd13ifvqgpg","pricing_plan_id":"cebpf4jnsgd1na2vs0mg"},{"bike_id":"c673c85a-59de-4b62-b9d3-423f8c623f79","system_id":"levelo_inurba_marseille","lat":43.29277,"lon":5.36841,"is_reserved":false,"is_disabled":false,"rental_uris":{"android":"levelo://app?vid=c673c85a-59de-4b62-b9d3-423f8c623f79","ios":"levelo://app?vid=c673c85a-59de-4b62-b9d3-423f8c623f79"},"vehicle_type_id":"4","last_reported":1731579019,"current_range_meters":31200,"station_id":"ce4bhbp2rcd13ifvqesg","pricing_plan_id":"cebpf4jnsgd1na2vs0mg"},{"bike_id":"3acbdc03-a672-4a72-9075-0dd572cd8407","system_id":"levelo_inurba_marseille","lat":43.2749,"lon":5.42451,"is_reserved":false,"is_disabled":false,"rental_uris":{"android":"levelo://app?vid=3acbdc03-a672-4a72-9075-0dd572cd8407","ios":"levelo://app?vid=3acbdc03-a672-4a72-9075-0dd572cd8407"},"vehicle_type_id":"4","last_reported":1731579019,"current_range_meters":38000,"station_id":"ce4bhn92rcd13ifvqgrg","pricing_plan_id":"cebpf4jnsgd1na2vs0mg"},{"bike_id":"be56c31e-769c-4501-bb4f-efa7f502c697","system_id":"levelo_inurba_marseille","lat":43.30953,"lon":5.39038,"is_reserved":false,"is_disabled":false,"rental_uris":{"android":"levelo://app?vid=be56c31e-769c-4501-bb4f-efa7f502c697","ios":"levelo://app?vid=be56c31e-769c-4501-bb4f-efa7f502c697"},"vehicle_type_id":"4","last_reported":1731579019,"current_range_meters":30400,"station_id":"ce4bgup2rcd13ifvqco0","pricing_plan_id":"cebpf4jnsgd1na2vs0mg"},{"bike_id":"05ef0e5c-fc94-4eeb-bfa5-5f0566aac8e5","system_id":"levelo_inurba_marseille","lat":43.24171,"lon":5.39727,"is_reserved":false,"is_disabled":false,"rental_uris":{"android":"levelo://app?vid=05ef0e5c-fc94-4eeb-bfa5-5f0566aac8e5","ios":"levelo://app?vid=05ef0e5c-fc94-4eeb-bfa5-5f0566aac8e5"},"vehicle_type_id":"4","last_reported":1731579019,"current_range_meters":40000,"station_id":"ce4bhn12rcd13ifvqgpg","pricing_plan_id":"cebpf4jnsgd1na2vs0mg"},{"bike_id":"d99bff46-e3e0-4c25-9719-3fa3dd9a1a6e","system_id":"levelo_inurba_marseille","lat":43.3157,"lon":5.37276,"is_reserved":false,"is_disabled":false,"rental_uris":{"android":"levelo://app?vid=d99bff46-e3e0-4c25-9719-3fa3dd9a1a6e","ios":"levelo://app?vid=d99bff46-e3e0-4c25-9719-3fa3dd9a1a6e"},"vehicle_type_id":"4","last_reported":1731579019,"current_range_meters":20800,"station_id":"ce4bgt12rcd13ifvqcd0","pricing_plan_id":"cebpf4jnsgd1na2vs0mg"},{"bike_id":"50f953f9-da0b-4fcf-a81f-4fc9538513d1","system_id":"levelo_inurba_marseille","lat":43.26948,"lon":5.3863,"is_reserved":false,"is_disabled":false,"rental_uris":{"android":"levelo://app?vid=50f953f9-da0b-4fcf-a81f-4fc9538513d1","ios":"levelo://app?vid=50f953f9-da0b-4fcf-a81f-4fc9538513d1"},"vehicle_type_id":"4","last_reported":1731579019,"current_range_meters":39200,"station_id":"ce4bhh92rcd13ifvqfh0","pricing_plan_id":"cebpf4jnsgd1na2vs0mg"},{"bike_id":"e2e2fbf4-0c1a-4b24-85d8-09094ab8d3e5","system_id":"levelo_inurba_marseille","lat":43.26948,"lon":5.38623,"is_reserved":false,"is_disabled":false,"rental_uris":{"android":"levelo://app?vid=e2e2fbf4-0c1a-4b24-85d8-09094ab8d3e5","ios":"levelo://app?vid=e2e2fbf4-0c1a-4b24-85d8-09094ab8d3e5"},"vehicle_type_id":"4","last_reported":1731579019,"current_range_meters":24400,"station_id":"ce4bhh92rcd13ifvqfh0","pricing_plan_id":"cebpf4jnsgd1na2vs0mg"},{"bike_id":"7328681f-85a2-4fa2-ba05-e515e3f7c93f","system_id":"levelo_inurba_marseille","lat":43.29851,"lon":5.36279,"is_reserved":false,"is_disabled":false,"rental_uris":{"android":"levelo://app?vid=7328681f-85a2-4fa2-ba05-e515e3f7c93f","ios":"levelo://app?vid=7328681f-85a2-4fa2-ba05-e515e3f7c93f"},"vehicle_type_id":"4","last_reported":1731579019,"current_range_meters":38800,"station_id":"ce4bgpp2rcd13ifvqc3g","pricing_plan_id":"cebpf4jnsgd1na2vs0mg"},{"bike_id":"28027ead-f239-40f0-94da-00cfd8a0af48","system_id":"levelo_inurba_marseille","lat":43.30136,"lon":5.3742,"is_reserved":false,"is_disabled":false,"rental_uris":{"android":"levelo://app?vid=28027ead-f239-40f0-94da-00cfd8a0af48","ios":"levelo://app?vid=28027ead-f239-40f0-94da-00cfd8a0af48"},"vehicle_type_id":"4","last_reported":1731579019,"current_range_meters":10800,"station_id":"ce4bgs92rcd13ifvqcc0","pricing_plan_id":"cebpf4jnsgd1na2vs0mg"},{"bike_id":"c46e4db1-bc3d-4b3e-b7b0-c1464ddb0450","system_id":"levelo_inurba_marseille","lat":43.29781,"lon":5.38098,"is_reserved":false,"is_disabled":false,"rental_uris":{"android":"levelo://app?vid=c46e4db1-bc3d-4b3e-b7b0-c1464ddb0450","ios":"levelo://app?vid=c46e4db1-bc3d-4b3e-b7b0-c1464ddb0450"},"vehicle_type_id":"4","last_reported":1731579019,"current_range_meters":38800,"station_id":"ce4bgip2rcd13ifvqbb0","pricing_plan_id":"cebpf4jnsgd1na2vs0mg"},{"bike_id":"d01fa0d7-3ff9-4d2e-89ad-f0d1f196d558","system_id":"levelo_inurba_marseille","lat":43.265045,"lon":5.395423,"is_reserved":false,"is_disabled":false,"rental_uris":{"android":"levelo://app?vid=d01fa0d7-3ff9-4d2e-89ad-f0d1f196d558","ios":"levelo://app?vid=d01fa0d7-3ff9-4d2e-89ad-f0d1f196d558"},"vehicle_type_id":"4","last_reported":1731579019,"current_range_meters":4400,"station_id":"ce4bhi12rcd13ifvqfq0","pricing_plan_id":"cebpf4jnsgd1na2vs0mg"},{"bike_id":"a64b2e87-dfc1-4098-aac6-83156bb73f66","system_id":"levelo_inurba_marseille","lat":43.25001,"lon":5.38932,"is_reserved":false,"is_disabled":false,"rental_uris":{"android":"levelo://app?vid=a64b2e87-dfc1-4098-aac6-83156bb73f66","ios":"levelo://app?vid=a64b2e87-dfc1-4098-aac6-83156bb73f66"},"vehicle_type_id":"4","last_reported":1731579019,"current_range_meters":31200,"station_id":"ce4bhgp2rcd13ifvqfd0","pricing_plan_id":"cebpf4jnsgd1na2vs0mg"},{"bike_id":"7e68d8eb-008a-41fa-8d76-b35dd2ccf3ff","system_id":"levelo_inurba_marseille","lat":43.25002,"lon":5.38924,"is_reserved":false,"is_disabled":false,"rental_uris":{"android":"levelo://app?vid=7e68d8eb-008a-41fa-8d76-b35dd2ccf3ff","ios":"levelo://app?vid=7e68d8eb-008a-41fa-8d76-b35dd2ccf3ff"},"vehicle_type_id":"4","last_reported":1731579019,"current_range_meters":26000,"station_id":"ce4bhgp2rcd13ifvqfd0","pricing_plan_id":"cebpf4jnsgd1na2vs0mg"},{"bike_id":"adf6d005-fa58-4531-8a7d-3b2a244cc8c7","system_id":"levelo_inurba_marseille","lat":43.29768,"lon":5.36798,"is_reserved":false,"is_disabled":false,"rental_uris":{"android":"levelo://app?vid=adf6d005-fa58-4531-8a7d-3b2a244cc8c7","ios":"levelo://app?vid=adf6d005-fa58-4531-8a7d-3b2a244cc8c7"},"vehicle_type_id":"4","last_reported":1731579019,"current_range_meters":24000,"station_id":"","pricing_plan_id":"cebpf4jnsgd1na2vs0mg"},{"bike_id":"ed6bdc28-7c6f-4af1-8074-4c0838b6c2d3","system_id":"levelo_inurba_marseille","lat":43.28928,"lon":5.3839,"is_reserved":false,"is_disabled":false,"rental_uris":{"android":"levelo://app?vid=ed6bdc28-7c6f-4af1-8074-4c0838b6c2d3","ios":"levelo://app?vid=ed6bdc28-7c6f-4af1-8074-4c0838b6c2d3"},"vehicle_type_id":"4","last_reported":1731579019,"current_range_meters":33200,"station_id":"ce4bh612rcd13ifvqe6g","pricing_plan_id":"cebpf4jnsgd1na2vs0mg"},{"bike_id":"e7176aa2-d3c2-43a2-b061-c0a4679ce72f","system_id":"levelo_inurba_marseille","lat":43.29844,"lon":5.36268,"is_reserved":false,"is_disabled":false,"rental_uris":{"android":"levelo://app?vid=e7176aa2-d3c2-43a2-b061-c0a4679ce72f","ios":"levelo://app?vid=e7176aa2-d3c2-43a2-b061-c0a4679ce72f"},"vehicle_type_id":"4","last_reported":1731579019,"current_range_meters":38400,"station_id":"ce4bgpp2rcd13ifvqc3g","pricing_plan_id":"cebpf4jnsgd1na2vs0mg"},{"bike_id":"f15f84e3-6119-4797-bcba-f763c86025cb","system_id":"levelo_inurba_marseille","lat":43.337444,"lon":5.374475,"is_reserved":false,"is_disabled":false,"rental_uris":{"android":"levelo://app?vid=f15f84e3-6119-4797-bcba-f763c86025cb","ios":"levelo://app?vid=f15f84e3-6119-4797-bcba-f763c86025cb"},"vehicle_type_id":"4","last_reported":1731579019,"current_range_meters":35600,"station_id":"","pricing_plan_id":"cebpf4jnsgd1na2vs0mg"},{"bike_id":"3d95c69b-f912-4aa9-8628-9bb26d0c43d0","system_id":"levelo_inurba_marseille","lat":43.30958,"lon":5.39035,"is_reserved":false,"is_disabled":false,"rental_uris":{"android":"levelo://app?vid=3d95c69b-f912-4aa9-8628-9bb26d0c43d0","ios":"levelo://app?vid=3d95c69b-f912-4aa9-8628-9bb26d0c43d0"},"vehicle_type_id":"4","last_reported":1731579019,"current_range_meters":35200,"station_id":"ce4bgup2rcd13ifvqco0","pricing_plan_id":"cebpf4jnsgd1na2vs0mg"},{"bike_id":"e54f7e57-6b8f-4026-9ce1-7c86b5bd1def","system_id":"levelo_inurba_marseille","lat":43.25724,"lon":5.41108,"is_reserved":false,"is_disabled":false,"rental_uris":{"android":"levelo://app?vid=e54f7e57-6b8f-4026-9ce1-7c86b5bd1def","ios":"levelo://app?vid=e54f7e57-6b8f-4026-9ce1-7c86b5bd1def"},"vehicle_type_id":"4","last_reported":1731579019,"current_range_meters":9600,"station_id":"ce4bhkp2rcd13ifvqgd0","pricing_plan_id":"cebpf4jnsgd1na2vs0mg"},{"bike_id":"86955ecb-6f16-4a3a-b2e3-273a1e401fbf","system_id":"levelo_inurba_marseille","lat":43.3042,"lon":5.41271,"is_reserved":false,"is_disabled":false,"rental_uris":{"android":"levelo://app?vid=86955ecb-6f16-4a3a-b2e3-273a1e401fbf","ios":"levelo://app?vid=86955ecb-6f16-4a3a-b2e3-273a1e401fbf"},"vehicle_type_id":"4","last_reported":1731579019,"current_range_meters":6800,"station_id":"ce4bhop2rcd13ifvqh8g","pricing_plan_id":"cebpf4jnsgd1na2vs0mg"},{"bike_id":"c12e8bda-0e21-4687-9bad-39d69ce4f3e0","system_id":"levelo_inurba_marseille","lat":43.28266,"lon":5.35056,"is_reserved":false,"is_disabled":false,"rental_uris":{"android":"levelo://app?vid=c12e8bda-0e21-4687-9bad-39d69ce4f3e0","ios":"levelo://app?vid=c12e8bda-0e21-4687-9bad-39d69ce4f3e0"},"vehicle_type_id":"4","last_reported":1731579019,"current_range_meters":13600,"station_id":"ce4bhbp2rcd13ifvqerg","pricing_plan_id":"cebpf4jnsgd1na2vs0mg"},{"bike_id":"ba295aa4-e303-4da2-9863-82d8a34fc59c","system_id":"levelo_inurba_marseille","lat":43.23959,"lon":5.36626,"is_reserved":false,"is_disabled":false,"rental_uris":{"android":"levelo://app?vid=ba295aa4-e303-4da2-9863-82d8a34fc59c","ios":"levelo://app?vid=ba295aa4-e303-4da2-9863-82d8a34fc59c"},"vehicle_type_id":"4","last_reported":1731579019,"current_range_meters":15200,"station_id":"ce4bhi12rcd13ifvqfp0","pricing_plan_id":"cebpf4jnsgd1na2vs0mg"},{"bike_id":"1c8232d0-f2a1-4a06-a925-0435ff814278","system_id":"levelo_inurba_marseille","lat":43.30464,"lon":5.37908,"is_reserved":false,"is_disabled":false,"rental_uris":{"android":"levelo://app?vid=1c8232d0-f2a1-4a06-a925-0435ff814278","ios":"levelo://app?vid=1c8232d0-f2a1-4a06-a925-0435ff814278"},"vehicle_type_id":"4","last_reported":1731579019,"current_range_meters":28800,"station_id":"ce4bgup2rcd13ifvqcn0","pricing_plan_id":"cebpf4jnsgd1na2vs0mg"},{"bike_id":"30a5dc35-910c-400e-ba39-f0c43ffde61d","system_id":"levelo_inurba_marseille","lat":43.26945,"lon":5.38637,"is_reserved":false,"is_disabled":false,"rental_uris":{"android":"levelo://app?vid=30a5dc35-910c-400e-ba39-f0c43ffde61d","ios":"levelo://app?vid=30a5dc35-910c-400e-ba39-f0c43ffde61d"},"vehicle_type_id":"4","last_reported":1731579019,"current_range_meters":12400,"station_id":"ce4bhh92rcd13ifvqfh0","pricing_plan_id":"cebpf4jnsgd1na2vs0mg"},{"bike_id":"2dfe3ff7-15f1-44d8-8056-486b409d3678","system_id":"levelo_inurba_marseille","lat":43.31684,"lon":5.4046,"is_reserved":false,"is_disabled":false,"rental_uris":{"android":"levelo://app?vid=2dfe3ff7-15f1-44d8-8056-486b409d3678","ios":"levelo://app?vid=2dfe3ff7-15f1-44d8-8056-486b409d3678"},"vehicle_type_id":"4","last_reported":1731579019,"current_range_meters":34800,"station_id":"ce4bh012rcd13ifvqd00","pricing_plan_id":"cebpf4jnsgd1na2vs0mg"},{"bike_id":"8963f262-bdcb-43f5-9e37-237198779ba8","system_id":"levelo_inurba_marseille","lat":43.33773,"lon":5.37442,"is_reserved":false,"is_disabled":false,"rental_uris":{"android":"levelo://app?vid=8963f262-bdcb-43f5-9e37-237198779ba8","ios":"levelo://app?vid=8963f262-bdcb-43f5-9e37-237198779ba8"},"vehicle_type_id":"4","last_reported":1731579019,"current_range_meters":34000,"station_id":"","pricing_plan_id":"cebpf4jnsgd1na2vs0mg"},{"bike_id":"398b47b3-a042-4cec-b1dd-254773a78263","system_id":"levelo_inurba_marseille","lat":43.27403,"lon":5.38948,"is_reserved":false,"is_disabled":false,"rental_uris":{"android":"levelo://app?vid=398b47b3-a042-4cec-b1dd-254773a78263","ios":"levelo://app?vid=398b47b3-a042-4cec-b1dd-254773a78263"},"vehicle_type_id":"4","last_reported":1731579019,"current_range_meters":5600,"station_id":"","pricing_plan_id":"cebpf4jnsgd1na2vs0mg"},{"bike_id":"5a1166d5-d0bb-49b4-8f26-a06056d47780","system_id":"levelo_inurba_marseille","lat":43.25586,"lon":5.38232,"is_reserved":false,"is_disabled":false,"rental_uris":{"android":"levelo://app?vid=5a1166d5-d0bb-49b4-8f26-a06056d47780","ios":"levelo://app?vid=5a1166d5-d0bb-49b4-8f26-a06056d47780"},"vehicle_type_id":"4","last_reported":1731579019,"current_range_meters":11600,"station_id":"ce4bhih2rcd13ifvqfs0","pricing_plan_id":"cebpf4jnsgd1na2vs0mg"},{"bike_id":"aca23579-0a19-4a4b-a12f-57b0591e79bd","system_id":"levelo_inurba_marseille","lat":43.24082,"lon":5.37749,"is_reserved":false,"is_disabled":false,"rental_uris":{"android":"levelo://app?vid=aca23579-0a19-4a4b-a12f-57b0591e79bd","ios":"levelo://app?vid=aca23579-0a19-4a4b-a12f-57b0591e79bd"},"vehicle_type_id":"4","last_reported":1731579019,"current_range_meters":28000,"station_id":"ce4bhnp2rcd13ifvqgvg","pricing_plan_id":"cebpf4jnsgd1na2vs0mg"},{"bike_id":"8bdd1563-4d6f-4b35-a587-d579383f3bae","system_id":"levelo_inurba_marseille","lat":43.28475,"lon":5.38413,"is_reserved":false,"is_disabled":false,"rental_uris":{"android":"levelo://app?vid=8bdd1563-4d6f-4b35-a587-d579383f3bae","ios":"levelo://app?vid=8bdd1563-4d6f-4b35-a587-d579383f3bae"},"vehicle_type_id":"4","last_reported":1731579019,"current_range_meters":23200,"station_id":"ce4bh512rcd13ifvqe3g","pricing_plan_id":"cebpf4jnsgd1na2vs0mg"},{"bike_id":"ac1081cc-aff5-436e-a11b-24d06190a755","system_id":"levelo_inurba_marseille","lat":43.337444,"lon":5.374475,"is_reserved":false,"is_disabled":false,"rental_uris":{"android":"levelo://app?vid=ac1081cc-aff5-436e-a11b-24d06190a755","ios":"levelo://app?vid=ac1081cc-aff5-436e-a11b-24d06190a755"},"vehicle_type_id":"4","last_reported":1731579019,"current_range_meters":34800,"station_id":"","pricing_plan_id":"cebpf4jnsgd1na2vs0mg"},{"bike_id":"92e3ad17-17c9-4714-a148-ef9436ad6113","system_id":"levelo_inurba_marseille","lat":43.22935,"lon":5.3538,"is_reserved":false,"is_disabled":false,"rental_uris":{"android":"levelo://app?vid=92e3ad17-17c9-4714-a148-ef9436ad6113","ios":"levelo://app?vid=92e3ad17-17c9-4714-a148-ef9436ad6113"},"vehicle_type_id":"4","last_reported":1731579019,"current_range_meters":39200,"station_id":"cpo3532slgdg3j2ikp40","pricing_plan_id":"cebpf4jnsgd1na2vs0mg"},{"bike_id":"187a7fa8-9afd-4d26-b5e7-6a10712e67a7","system_id":"levelo_inurba_marseille","lat":43.23147,"lon":5.43702,"is_reserved":false,"is_disabled":false,"rental_uris":{"android":"levelo://app?vid=187a7fa8-9afd-4d26-b5e7-6a10712e67a7","ios":"levelo://app?vid=187a7fa8-9afd-4d26-b5e7-6a10712e67a7"},"vehicle_type_id":"4","last_reported":1731579019,"current_range_meters":39200,"station_id":"ce4bhmp2rcd13ifvqgog","pricing_plan_id":"cebpf4jnsgd1na2vs0mg"},{"bike_id":"856605d7-f375-4182-84a8-f5e071abd77c","system_id":"levelo_inurba_marseille","lat":43.30088,"lon":5.39085,"is_reserved":false,"is_disabled":false,"rental_uris":{"android":"levelo://app?vid=856605d7-f375-4182-84a8-f5e071abd77c","ios":"levelo://app?vid=856605d7-f375-4182-84a8-f5e071abd77c"},"vehicle_type_id":"4","last_reported":1731579019,"current_range_meters":25200,"station_id":"ce4bh192rcd13ifvqdb0","pricing_plan_id":"cebpf4jnsgd1na2vs0mg"},{"bike_id":"e9ad2495-6032-4fd9-9e83-73811f258e7f","system_id":"levelo_inurba_marseille","lat":43.28053,"lon":5.37836,"is_reserved":false,"is_disabled":false,"rental_uris":{"android":"levelo://app?vid=e9ad2495-6032-4fd9-9e83-73811f258e7f","ios":"levelo://app?vid=e9ad2495-6032-4fd9-9e83-73811f258e7f"},"vehicle_type_id":"4","last_reported":1731579019,"current_range_meters":7200,"station_id":"ce4bh412rcd13ifvqds0","pricing_plan_id":"cebpf4jnsgd1na2vs0mg"},{"bike_id":"beb7b9bd-a544-4d0c-b0ee-a6204f3f5108","system_id":"levelo_inurba_marseille","lat":43.291962,"lon":5.385193,"is_reserved":false,"is_disabled":false,"rental_uris":{"android":"levelo://app?vid=beb7b9bd-a544-4d0c-b0ee-a6204f3f5108","ios":"levelo://app?vid=beb7b9bd-a544-4d0c-b0ee-a6204f3f5108"},"vehicle_type_id":"4","last_reported":1731579019,"current_range_meters":24800,"station_id":"","pricing_plan_id":"cebpf4jnsgd1na2vs0mg"},{"bike_id":"82f309e6-c4ae-421f-89cb-1d64a8e0ef10","system_id":"levelo_inurba_marseille","lat":43.337444,"lon":5.374475,"is_reserved":false,"is_disabled":false,"rental_uris":{"android":"levelo://app?vid=82f309e6-c4ae-421f-89cb-1d64a8e0ef10","ios":"levelo://app?vid=82f309e6-c4ae-421f-89cb-1d64a8e0ef10"},"vehicle_type_id":"4","last_reported":1731579019,"current_range_meters":33200,"station_id":"","pricing_plan_id":"cebpf4jnsgd1na2vs0mg"},{"bike_id":"5419d154-3ce9-4c40-9294-d16b9d2b3431","system_id":"levelo_inurba_marseille","lat":43.337444,"lon":5.374475,"is_reserved":false,"is_disabled":false,"rental_uris":{"android":"levelo://app?vid=5419d154-3ce9-4c40-9294-d16b9d2b3431","ios":"levelo://app?vid=5419d154-3ce9-4c40-9294-d16b9d2b3431"},"vehicle_type_id":"4","last_reported":1731579019,"current_range_meters":33200,"station_id":"","pricing_plan_id":"cebpf4jnsgd1na2vs0mg"},{"bike_id":"1ad4859f-77f4-4ff4-bc69-b1e3ce615952","system_id":"levelo_inurba_marseille","lat":43.291694,"lon":5.371545,"is_reserved":false,"is_disabled":false,"rental_uris":{"android":"levelo://app?vid=1ad4859f-77f4-4ff4-bc69-b1e3ce615952","ios":"levelo://app?vid=1ad4859f-77f4-4ff4-bc69-b1e3ce615952"},"vehicle_type_id":"4","last_reported":1731579019,"current_range_meters":6800,"station_id":"ce4bha92rcd13ifvqeh0","pricing_plan_id":"cebpf4jnsgd1na2vs0mg"},{"bike_id":"8146b127-e602-40cb-a6bf-0f40669d5db0","system_id":"levelo_inurba_marseille","lat":43.25725,"lon":5.41106,"is_reserved":false,"is_disabled":false,"rental_uris":{"android":"levelo://app?vid=8146b127-e602-40cb-a6bf-0f40669d5db0","ios":"levelo://app?vid=8146b127-e602-40cb-a6bf-0f40669d5db0"},"vehicle_type_id":"4","last_reported":1731579019,"current_range_meters":17200,"station_id":"ce4bhkp2rcd13ifvqgd0","pricing_plan_id":"cebpf4jnsgd1na2vs0mg"},{"bike_id":"6e4ab7d2-c1df-4ea4-bb4b-2f5c43ed5717","system_id":"levelo_inurba_marseille","lat":43.33768,"lon":5.37439,"is_reserved":false,"is_disabled":false,"rental_uris":{"android":"levelo://app?vid=6e4ab7d2-c1df-4ea4-bb4b-2f5c43ed5717","ios":"levelo://app?vid=6e4ab7d2-c1df-4ea4-bb4b-2f5c43ed5717"},"vehicle_type_id":"4","last_reported":1731579019,"current_range_meters":33200,"station_id":"","pricing_plan_id":"cebpf4jnsgd1na2vs0mg"},{"bike_id":"bd465249-964f-4479-968e-5f6e32af60f1","system_id":"levelo_inurba_marseille","lat":43.337444,"lon":5.374475,"is_reserved":false,"is_disabled":false,"rental_uris":{"android":"levelo://app?vid=bd465249-964f-4479-968e-5f6e32af60f1","ios":"levelo://app?vid=bd465249-964f-4479-968e-5f6e32af60f1"},"vehicle_type_id":"4","last_reported":1731579019,"current_range_meters":35600,"station_id":"","pricing_plan_id":"cebpf4jnsgd1na2vs0mg"},{"bike_id":"e9884c3e-ef8b-4f5f-bbd2-a8caa762df54","system_id":"levelo_inurba_marseille","lat":43.24803,"lon":5.37456,"is_reserved":false,"is_disabled":false,"rental_uris":{"android":"levelo://app?vid=e9884c3e-ef8b-4f5f-bbd2-a8caa762df54","ios":"levelo://app?vid=e9884c3e-ef8b-4f5f-bbd2-a8caa762df54"},"vehicle_type_id":"4","last_reported":1731579019,"current_range_meters":38000,"station_id":"ce4bhgh2rcd13ifvqfb0","pricing_plan_id":"cebpf4jnsgd1na2vs0mg"},{"bike_id":"ab567196-6448-4d50-a225-babc4359ed54","system_id":"levelo_inurba_marseille","lat":43.30546,"lon":5.36699,"is_reserved":false,"is_disabled":false,"rental_uris":{"android":"levelo://app?vid=ab567196-6448-4d50-a225-babc4359ed54","ios":"levelo://app?vid=ab567196-6448-4d50-a225-babc4359ed54"},"vehicle_type_id":"4","last_reported":1731579019,"current_range_meters":24400,"station_id":"ce4bgrp2rcd13ifvqc9g","pricing_plan_id":"cebpf4jnsgd1na2vs0mg"},{"bike_id":"b96e2145-7c97-4ff3-b554-da8671ad0dec","system_id":"levelo_inurba_marseille","lat":43.2985,"lon":5.36284,"is_reserved":false,"is_disabled":false,"rental_uris":{"android":"levelo://app?vid=b96e2145-7c97-4ff3-b554-da8671ad0dec","ios":"levelo://app?vid=b96e2145-7c97-4ff3-b554-da8671ad0dec"},"vehicle_type_id":"4","last_reported":1731579019,"current_range_meters":36800,"station_id":"ce4bgpp2rcd13ifvqc3g","pricing_plan_id":"cebpf4jnsgd1na2vs0mg"},{"bike_id":"956b0e11-d66d-499b-a1ef-f74ac0cb077e","system_id":"levelo_inurba_marseille","lat":43.27074,"lon":5.42275,"is_reserved":false,"is_disabled":false,"rental_uris":{"android":"levelo://app?vid=956b0e11-d66d-499b-a1ef-f74ac0cb077e","ios":"levelo://app?vid=956b0e11-d66d-499b-a1ef-f74ac0cb077e"},"vehicle_type_id":"4","last_reported":1731579019,"current_range_meters":32000,"station_id":"ce4bhk92rcd13ifvqgb0","pricing_plan_id":"cebpf4jnsgd1na2vs0mg"},{"bike_id":"fac874d5-613b-476e-b896-330f965f6db3","system_id":"levelo_inurba_marseille","lat":43.31179,"lon":5.38704,"is_reserved":false,"is_disabled":false,"rental_uris":{"android":"levelo://app?vid=fac874d5-613b-476e-b896-330f965f6db3","ios":"levelo://app?vid=fac874d5-613b-476e-b896-330f965f6db3"},"vehicle_type_id":"4","last_reported":1731579019,"current_range_meters":7200,"station_id":"ce4bgv12rcd13ifvqcp0","pricing_plan_id":"cebpf4jnsgd1na2vs0mg"},{"bike_id":"9e456525-0f5f-4a80-9d37-85501f13c908","system_id":"levelo_inurba_marseille","lat":43.25083,"lon":5.39512,"is_reserved":false,"is_disabled":false,"rental_uris":{"android":"levelo://app?vid=9e456525-0f5f-4a80-9d37-85501f13c908","ios":"levelo://app?vid=9e456525-0f5f-4a80-9d37-85501f13c908"},"vehicle_type_id":"4","last_reported":1731579019,"current_range_meters":40000,"station_id":"ce4bhm12rcd13ifvqgkg","pricing_plan_id":"cebpf4jnsgd1na2vs0mg"},{"bike_id":"22bda305-c183-441b-b9df-ce228438db27","system_id":"levelo_inurba_marseille","lat":43.29995,"lon":5.37206,"is_reserved":false,"is_disabled":false,"rental_uris":{"android":"levelo://app?vid=22bda305-c183-441b-b9df-ce228438db27","ios":"levelo://app?vid=22bda305-c183-441b-b9df-ce228438db27"},"vehicle_type_id":"4","last_reported":1731579019,"current_range_meters":24400,"station_id":"ce4bgr92rcd13ifvqc7g","pricing_plan_id":"cebpf4jnsgd1na2vs0mg"},{"bike_id":"c9d041c0-acec-4cf4-bba2-e01a92441368","system_id":"levelo_inurba_marseille","lat":43.337444,"lon":5.374475,"is_reserved":false,"is_disabled":false,"rental_uris":{"android":"levelo://app?vid=c9d041c0-acec-4cf4-bba2-e01a92441368","ios":"levelo://app?vid=c9d041c0-acec-4cf4-bba2-e01a92441368"},"vehicle_type_id":"4","last_reported":1731579019,"current_range_meters":34800,"station_id":"","pricing_plan_id":"cebpf4jnsgd1na2vs0mg"},{"bike_id":"c5632cbd-40af-4c93-9f93-5def2f16fea5","system_id":"levelo_inurba_marseille","lat":43.30952,"lon":5.39042,"is_reserved":false,"is_disabled":false,"rental_uris":{"android":"levelo://app?vid=c5632cbd-40af-4c93-9f93-5def2f16fea5","ios":"levelo://app?vid=c5632cbd-40af-4c93-9f93-5def2f16fea5"},"vehicle_type_id":"4","last_reported":1731579019,"current_range_meters":27600,"station_id":"ce4bgup2rcd13ifvqco0","pricing_plan_id":"cebpf4jnsgd1na2vs0mg"},{"bike_id":"aab59851-7fc5-4654-bfb6-bc69a0fe9cc8","system_id":"levelo_inurba_marseille","lat":43.29575,"lon":5.37503,"is_reserved":false,"is_disabled":false,"rental_uris":{"android":"levelo://app?vid=aab59851-7fc5-4654-bfb6-bc69a0fe9cc8","ios":"levelo://app?vid=aab59851-7fc5-4654-bfb6-bc69a0fe9cc8"},"vehicle_type_id":"4","last_reported":1731579019,"current_range_meters":34800,"station_id":"ce4bgh92rcd13ifvqb50","pricing_plan_id":"cebpf4jnsgd1na2vs0mg"},{"bike_id":"f8861758-49fd-41b4-a46e-00cfd5e801f9","system_id":"levelo_inurba_marseille","lat":43.24546,"lon":5.3952,"is_reserved":false,"is_disabled":false,"rental_uris":{"android":"levelo://app?vid=f8861758-49fd-41b4-a46e-00cfd5e801f9","ios":"levelo://app?vid=f8861758-49fd-41b4-a46e-00cfd5e801f9"},"vehicle_type_id":"4","last_reported":1731579019,"current_range_meters":35600,"station_id":"ce4bhlp2rcd13ifvqgjg","pricing_plan_id":"cebpf4jnsgd1na2vs0mg"},{"bike_id":"1a3f88a7-ba66-47f0-b62b-2014c1df80d9","system_id":"levelo_inurba_marseille","lat":43.23152,"lon":5.43707,"is_reserved":false,"is_disabled":false,"rental_uris":{"android":"levelo://app?vid=1a3f88a7-ba66-47f0-b62b-2014c1df80d9","ios":"levelo://app?vid=1a3f88a7-ba66-47f0-b62b-2014c1df80d9"},"vehicle_type_id":"4","last_reported":1731579019,"current_range_meters":24800,"station_id":"ce4bhmp2rcd13ifvqgog","pricing_plan_id":"cebpf4jnsgd1na2vs0mg"},{"bike_id":"df66abf0-5814-42dd-b2a3-5842fb95e6fb","system_id":"levelo_inurba_marseille","lat":43.3414,"lon":5.40899,"is_reserved":false,"is_disabled":false,"rental_uris":{"android":"levelo://app?vid=df66abf0-5814-42dd-b2a3-5842fb95e6fb","ios":"levelo://app?vid=df66abf0-5814-42dd-b2a3-5842fb95e6fb"},"vehicle_type_id":"4","last_reported":1731579019,"current_range_meters":35200,"station_id":"ce4bhqh2rcd13ifvqhlg","pricing_plan_id":"cebpf4jnsgd1na2vs0mg"},{"bike_id":"8cc2aec6-7e03-4434-97a3-0d8e9d8caaf1","system_id":"levelo_inurba_marseille","lat":43.26959,"lon":5.3864,"is_reserved":false,"is_disabled":false,"rental_uris":{"android":"levelo://app?vid=8cc2aec6-7e03-4434-97a3-0d8e9d8caaf1","ios":"levelo://app?vid=8cc2aec6-7e03-4434-97a3-0d8e9d8caaf1"},"vehicle_type_id":"4","last_reported":1731579019,"current_range_meters":38800,"station_id":"ce4bhh92rcd13ifvqfh0","pricing_plan_id":"cebpf4jnsgd1na2vs0mg"},{"bike_id":"951eec13-1f0e-42f5-988f-3f359a0c6e48","system_id":"levelo_inurba_marseille","lat":43.30145,"lon":5.38075,"is_reserved":false,"is_disabled":false,"rental_uris":{"android":"levelo://app?vid=951eec13-1f0e-42f5-988f-3f359a0c6e48","ios":"levelo://app?vid=951eec13-1f0e-42f5-988f-3f359a0c6e48"},"vehicle_type_id":"4","last_reported":1731579019,"current_range_meters":2800,"station_id":"ce4bgjp2rcd13ifvqbh0","pricing_plan_id":"cebpf4jnsgd1na2vs0mg"},{"bike_id":"52a2a24f-1582-4c1c-b7d8-d1b3dc644561","system_id":"levelo_inurba_marseille","lat":43.28416,"lon":5.34991,"is_reserved":false,"is_disabled":false,"rental_uris":{"android":"levelo://app?vid=52a2a24f-1582-4c1c-b7d8-d1b3dc644561","ios":"levelo://app?vid=52a2a24f-1582-4c1c-b7d8-d1b3dc644561"},"vehicle_type_id":"4","last_reported":1731579019,"current_range_meters":36800,"station_id":"ce4bhbh2rcd13ifvqepg","pricing_plan_id":"cebpf4jnsgd1na2vs0mg"},{"bike_id":"405716d9-2be8-4559-9370-b01533cfe98b","system_id":"levelo_inurba_marseille","lat":43.31351,"lon":5.36717,"is_reserved":false,"is_disabled":false,"rental_uris":{"android":"levelo://app?vid=405716d9-2be8-4559-9370-b01533cfe98b","ios":"levelo://app?vid=405716d9-2be8-4559-9370-b01533cfe98b"},"vehicle_type_id":"4","last_reported":1731579019,"current_range_meters":28000,"station_id":"ce4bgr92rcd13ifvqc6g","pricing_plan_id":"cebpf4jnsgd1na2vs0mg"},{"bike_id":"a6aefba3-3a19-4050-bc48-0171f063e022","system_id":"levelo_inurba_marseille","lat":43.27493,"lon":5.42443,"is_reserved":false,"is_disabled":false,"rental_uris":{"android":"levelo://app?vid=a6aefba3-3a19-4050-bc48-0171f063e022","ios":"levelo://app?vid=a6aefba3-3a19-4050-bc48-0171f063e022"},"vehicle_type_id":"4","last_reported":1731579019,"current_range_meters":29600,"station_id":"ce4bhn92rcd13ifvqgrg","pricing_plan_id":"cebpf4jnsgd1na2vs0mg"},{"bike_id":"92eef5a4-7413-4712-aa62-eb761eb3479d","system_id":"levelo_inurba_marseille","lat":43.28109,"lon":5.37834,"is_reserved":false,"is_disabled":false,"rental_uris":{"android":"levelo://app?vid=92eef5a4-7413-4712-aa62-eb761eb3479d","ios":"levelo://app?vid=92eef5a4-7413-4712-aa62-eb761eb3479d"},"vehicle_type_id":"4","last_reported":1731579019,"current_range_meters":38000,"station_id":"ce4bha12rcd13ifvqee0","pricing_plan_id":"cebpf4jnsgd1na2vs0mg"},{"bike_id":"8bd65918-5bb3-45c5-a451-04dbff6dcd01","system_id":"levelo_inurba_marseille","lat":43.29003,"lon":5.39849,"is_reserved":false,"is_disabled":false,"rental_uris":{"android":"levelo://app?vid=8bd65918-5bb3-45c5-a451-04dbff6dcd01","ios":"levelo://app?vid=8bd65918-5bb3-45c5-a451-04dbff6dcd01"},"vehicle_type_id":"4","last_reported":1731579019,"current_range_meters":38400,"station_id":"ce4bh3h2rcd13ifvqdn0","pricing_plan_id":"cebpf4jnsgd1na2vs0mg"},{"bike_id":"dcf71a52-f3e1-4df6-92d3-80fe9464d673","system_id":"levelo_inurba_marseille","lat":43.28001,"lon":5.40003,"is_reserved":false,"is_disabled":false,"rental_uris":{"android":"levelo://app?vid=dcf71a52-f3e1-4df6-92d3-80fe9464d673","ios":"levelo://app?vid=dcf71a52-f3e1-4df6-92d3-80fe9464d673"},"vehicle_type_id":"4","last_reported":1731579019,"current_range_meters":38800,"station_id":"ce4bho92rcd13ifvqh4g","pricing_plan_id":"cebpf4jnsgd1na2vs0mg"},{"bike_id":"942ebb39-b1c0-4e2a-8bd6-9132b397a7ce","system_id":"levelo_inurba_marseille","lat":43.27987,"lon":5.41652,"is_reserved":false,"is_disabled":false,"rental_uris":{"android":"levelo://app?vid=942ebb39-b1c0-4e2a-8bd6-9132b397a7ce","ios":"levelo://app?vid=942ebb39-b1c0-4e2a-8bd6-9132b397a7ce"},"vehicle_type_id":"4","last_reported":1731579019,"current_range_meters":36800,"station_id":"ce4bho12rcd13ifvqh1g","pricing_plan_id":"cebpf4jnsgd1na2vs0mg"},{"bike_id":"7993481c-6af9-41f2-9bac-c327a53be150","system_id":"levelo_inurba_marseille","lat":43.2315,"lon":5.43696,"is_reserved":false,"is_disabled":false,"rental_uris":{"android":"levelo://app?vid=7993481c-6af9-41f2-9bac-c327a53be150","ios":"levelo://app?vid=7993481c-6af9-41f2-9bac-c327a53be150"},"vehicle_type_id":"4","last_reported":1731579019,"current_range_meters":8400,"station_id":"ce4bhmp2rcd13ifvqgog","pricing_plan_id":"cebpf4jnsgd1na2vs0mg"},{"bike_id":"013e26b4-a571-45b3-bcad-4522a6f0a23d","system_id":"levelo_inurba_marseille","lat":43.29572,"lon":5.39978,"is_reserved":false,"is_disabled":false,"rental_uris":{"android":"levelo://app?vid=013e26b4-a571-45b3-bcad-4522a6f0a23d","ios":"levelo://app?vid=013e26b4-a571-45b3-bcad-4522a6f0a23d"},"vehicle_type_id":"4","last_reported":1731579019,"current_range_meters":31200,"station_id":"ce4bh312rcd13ifvqdj0","pricing_plan_id":"cebpf4jnsgd1na2vs0mg"},{"bike_id":"4b09a844-598b-47fd-b89b-9a6ffb3358d9","system_id":"levelo_inurba_marseille","lat":43.32534,"lon":5.41444,"is_reserved":false,"is_disabled":false,"rental_uris":{"android":"levelo://app?vid=4b09a844-598b-47fd-b89b-9a6ffb3358d9","ios":"levelo://app?vid=4b09a844-598b-47fd-b89b-9a6ffb3358d9"},"vehicle_type_id":"4","last_reported":1731579019,"current_range_meters":15200,"station_id":"ce4bhq12rcd13ifvqhhg","pricing_plan_id":"cebpf4jnsgd1na2vs0mg"},{"bike_id":"afe2e088-4a36-4017-9dde-ff8c960d2821","system_id":"levelo_inurba_marseille","lat":43.34145,"lon":5.40903,"is_reserved":false,"is_disabled":false,"rental_uris":{"android":"levelo://app?vid=afe2e088-4a36-4017-9dde-ff8c960d2821","ios":"levelo://app?vid=afe2e088-4a36-4017-9dde-ff8c960d2821"},"vehicle_type_id":"4","last_reported":1731579019,"current_range_meters":30400,"station_id":"ce4bhqh2rcd13ifvqhlg","pricing_plan_id":"cebpf4jnsgd1na2vs0mg"},{"bike_id":"e48cc742-94f8-4b58-8e08-b32f59f5545e","system_id":"levelo_inurba_marseille","lat":43.27674,"lon":5.38897,"is_reserved":false,"is_disabled":false,"rental_uris":{"android":"levelo://app?vid=e48cc742-94f8-4b58-8e08-b32f59f5545e","ios":"levelo://app?vid=e48cc742-94f8-4b58-8e08-b32f59f5545e"},"vehicle_type_id":"4","last_reported":1731579019,"current_range_meters":6800,"station_id":"ce4bhi12rcd13ifvqfo0","pricing_plan_id":"cebpf4jnsgd1na2vs0mg"},{"bike_id":"ddbb20f1-8941-4d92-a381-35faa231c65a","system_id":"levelo_inurba_marseille","lat":43.29073,"lon":5.37176,"is_reserved":false,"is_disabled":false,"rental_uris":{"android":"levelo://app?vid=ddbb20f1-8941-4d92-a381-35faa231c65a","ios":"levelo://app?vid=ddbb20f1-8941-4d92-a381-35faa231c65a"},"vehicle_type_id":"4","last_reported":1731579019,"current_range_meters":24800,"station_id":"ce4bh5p2rcd13ifvqe4g","pricing_plan_id":"cebpf4jnsgd1na2vs0mg"},{"bike_id":"337ea833-1b01-4041-a864-7a3676c066d7","system_id":"levelo_inurba_marseille","lat":43.27072,"lon":5.42273,"is_reserved":false,"is_disabled":false,"rental_uris":{"android":"levelo://app?vid=337ea833-1b01-4041-a864-7a3676c066d7","ios":"levelo://app?vid=337ea833-1b01-4041-a864-7a3676c066d7"},"vehicle_type_id":"4","last_reported":1731579019,"current_range_meters":38400,"station_id":"ce4bhk92rcd13ifvqgb0","pricing_plan_id":"cebpf4jnsgd1na2vs0mg"},{"bike_id":"90fa3aa4-2dff-4d06-9d66-76be92efdaec","system_id":"levelo_inurba_marseille","lat":43.2848,"lon":5.38565,"is_reserved":false,"is_disabled":false,"rental_uris":{"android":"levelo://app?vid=90fa3aa4-2dff-4d06-9d66-76be92efdaec","ios":"levelo://app?vid=90fa3aa4-2dff-4d06-9d66-76be92efdaec"},"vehicle_type_id":"4","last_reported":1731579019,"current_range_meters":23200,"station_id":"ce4bh8p2rcd13ifvqeb0","pricing_plan_id":"cebpf4jnsgd1na2vs0mg"},{"bike_id":"8dc67529-5229-43a1-8974-b429efa1d3ba","system_id":"levelo_inurba_marseille","lat":43.30553,"lon":5.36517,"is_reserved":false,"is_disabled":false,"rental_uris":{"android":"levelo://app?vid=8dc67529-5229-43a1-8974-b429efa1d3ba","ios":"levelo://app?vid=8dc67529-5229-43a1-8974-b429efa1d3ba"},"vehicle_type_id":"4","last_reported":1731579019,"current_range_meters":39200,"station_id":"ce4bgs12rcd13ifvqcag","pricing_plan_id":"cebpf4jnsgd1na2vs0mg"},{"bike_id":"96352786-b953-4b6d-96b3-5df619023394","system_id":"levelo_inurba_marseille","lat":43.31355,"lon":5.36714,"is_reserved":false,"is_disabled":false,"rental_uris":{"android":"levelo://app?vid=96352786-b953-4b6d-96b3-5df619023394","ios":"levelo://app?vid=96352786-b953-4b6d-96b3-5df619023394"},"vehicle_type_id":"4","last_reported":1731579019,"current_range_meters":6000,"station_id":"ce4bgr92rcd13ifvqc6g","pricing_plan_id":"cebpf4jnsgd1na2vs0mg"},{"bike_id":"4b0c5f0c-e1e0-486f-956e-a3d4d03ca077","system_id":"levelo_inurba_marseille","lat":43.27814,"lon":5.40709,"is_reserved":false,"is_disabled":false,"rental_uris":{"android":"levelo://app?vid=4b0c5f0c-e1e0-486f-956e-a3d4d03ca077","ios":"levelo://app?vid=4b0c5f0c-e1e0-486f-956e-a3d4d03ca077"},"vehicle_type_id":"4","last_reported":1731579019,"current_range_meters":38000,"station_id":"ce4bhnh2rcd13ifvqgtg","pricing_plan_id":"cebpf4jnsgd1na2vs0mg"},{"bike_id":"d1de8638-bffd-4be4-ae10-3dd7a5d6ff38","system_id":"levelo_inurba_marseille","lat":43.30545,"lon":5.36711,"is_reserved":false,"is_disabled":false,"rental_uris":{"android":"levelo://app?vid=d1de8638-bffd-4be4-ae10-3dd7a5d6ff38","ios":"levelo://app?vid=d1de8638-bffd-4be4-ae10-3dd7a5d6ff38"},"vehicle_type_id":"4","last_reported":1731579019,"current_range_meters":7200,"station_id":"ce4bgrp2rcd13ifvqc9g","pricing_plan_id":"cebpf4jnsgd1na2vs0mg"},{"bike_id":"37212eb8-cfa6-47ba-9ed7-bfed51287466","system_id":"levelo_inurba_marseille","lat":43.31476,"lon":5.37359,"is_reserved":false,"is_disabled":false,"rental_uris":{"android":"levelo://app?vid=37212eb8-cfa6-47ba-9ed7-bfed51287466","ios":"levelo://app?vid=37212eb8-cfa6-47ba-9ed7-bfed51287466"},"vehicle_type_id":"4","last_reported":1731579019,"current_range_meters":38400,"station_id":"ce4bgt12rcd13ifvqcd0","pricing_plan_id":"cebpf4jnsgd1na2vs0mg"},{"bike_id":"9d73d99b-c534-402b-a023-0f39938e9708","system_id":"levelo_inurba_marseille","lat":43.31229,"lon":5.36861,"is_reserved":false,"is_disabled":false,"rental_uris":{"android":"levelo://app?vid=9d73d99b-c534-402b-a023-0f39938e9708","ios":"levelo://app?vid=9d73d99b-c534-402b-a023-0f39938e9708"},"vehicle_type_id":"4","last_reported":1731579019,"current_range_meters":38000,"station_id":"ce4bgl92rcd13ifvqbq0","pricing_plan_id":"cebpf4jnsgd1na2vs0mg"},{"bike_id":"012927f2-0ce0-4abc-933c-6366952c031d","system_id":"levelo_inurba_marseille","lat":43.24177,"lon":5.39728,"is_reserved":false,"is_disabled":false,"rental_uris":{"android":"levelo://app?vid=012927f2-0ce0-4abc-933c-6366952c031d","ios":"levelo://app?vid=012927f2-0ce0-4abc-933c-6366952c031d"},"vehicle_type_id":"4","last_reported":1731579019,"current_range_meters":27600,"station_id":"ce4bhn12rcd13ifvqgpg","pricing_plan_id":"cebpf4jnsgd1na2vs0mg"},{"bike_id":"3f7042d7-7ab2-4583-9643-3e96635206e7","system_id":"levelo_inurba_marseille","lat":43.24184,"lon":5.39727,"is_reserved":false,"is_disabled":false,"rental_uris":{"android":"levelo://app?vid=3f7042d7-7ab2-4583-9643-3e96635206e7","ios":"levelo://app?vid=3f7042d7-7ab2-4583-9643-3e96635206e7"},"vehicle_type_id":"4","last_reported":1731579019,"current_range_meters":12400,"station_id":"ce4bhn12rcd13ifvqgpg","pricing_plan_id":"cebpf4jnsgd1na2vs0mg"},{"bike_id":"a8309f22-6b23-44b6-8cae-c8da391143bd","system_id":"levelo_inurba_marseille","lat":43.29975,"lon":5.37165,"is_reserved":false,"is_disabled":false,"rental_uris":{"android":"levelo://app?vid=a8309f22-6b23-44b6-8cae-c8da391143bd","ios":"levelo://app?vid=a8309f22-6b23-44b6-8cae-c8da391143bd"},"vehicle_type_id":"4","last_reported":1731579019,"current_range_meters":16400,"station_id":"ce4bgr92rcd13ifvqc7g","pricing_plan_id":"cebpf4jnsgd1na2vs0mg"},{"bike_id":"132690e9-8e93-42ef-a711-d4dcdbcf02b3","system_id":"levelo_inurba_marseille","lat":43.23963,"lon":5.3663,"is_reserved":false,"is_disabled":false,"rental_uris":{"android":"levelo://app?vid=132690e9-8e93-42ef-a711-d4dcdbcf02b3","ios":"levelo://app?vid=132690e9-8e93-42ef-a711-d4dcdbcf02b3"},"vehicle_type_id":"4","last_reported":1731579019,"current_range_meters":10800,"station_id":"ce4bhi12rcd13ifvqfp0","pricing_plan_id":"cebpf4jnsgd1na2vs0mg"},{"bike_id":"e320d189-79ad-4b4b-8378-af120e211eb6","system_id":"levelo_inurba_marseille","lat":43.2593,"lon":5.4089,"is_reserved":false,"is_disabled":false,"rental_uris":{"android":"levelo://app?vid=e320d189-79ad-4b4b-8378-af120e211eb6","ios":"levelo://app?vid=e320d189-79ad-4b4b-8378-af120e211eb6"},"vehicle_type_id":"4","last_reported":1731579019,"current_range_meters":27200,"station_id":"ce4bhm92rcd13ifvqglg","pricing_plan_id":"cebpf4jnsgd1na2vs0mg"},{"bike_id":"bab82320-e6fc-48dd-9d66-dc00547e2081","system_id":"levelo_inurba_marseille","lat":43.26946,"lon":5.3863,"is_reserved":false,"is_disabled":false,"rental_uris":{"android":"levelo://app?vid=bab82320-e6fc-48dd-9d66-dc00547e2081","ios":"levelo://app?vid=bab82320-e6fc-48dd-9d66-dc00547e2081"},"vehicle_type_id":"4","last_reported":1731579019,"current_range_meters":31200,"station_id":"ce4bhh92rcd13ifvqfh0","pricing_plan_id":"cebpf4jnsgd1na2vs0mg"},{"bike_id":"6cd6cd57-0685-4d87-903a-571cb9380930","system_id":"levelo_inurba_marseille","lat":43.231827,"lon":5.399777,"is_reserved":false,"is_disabled":false,"rental_uris":{"android":"levelo://app?vid=6cd6cd57-0685-4d87-903a-571cb9380930","ios":"levelo://app?vid=6cd6cd57-0685-4d87-903a-571cb9380930"},"vehicle_type_id":"4","last_reported":1731579019,"current_range_meters":37600,"station_id":"ce4bhn12rcd13ifvqgqg","pricing_plan_id":"cebpf4jnsgd1na2vs0mg"},{"bike_id":"7c9b8995-ac96-4708-b4eb-b4b17631b9d8","system_id":"levelo_inurba_marseille","lat":43.337444,"lon":5.374475,"is_reserved":false,"is_disabled":false,"rental_uris":{"android":"levelo://app?vid=7c9b8995-ac96-4708-b4eb-b4b17631b9d8","ios":"levelo://app?vid=7c9b8995-ac96-4708-b4eb-b4b17631b9d8"},"vehicle_type_id":"4","last_reported":1731579019,"current_range_meters":33600,"station_id":"","pricing_plan_id":"cebpf4jnsgd1na2vs0mg"},{"bike_id":"aa6bb8a3-6021-42ac-b0b1-22f50ff8e5e7","system_id":"levelo_inurba_marseille","lat":43.30911,"lon":5.36843,"is_reserved":false,"is_disabled":false,"rental_uris":{"android":"levelo://app?vid=aa6bb8a3-6021-42ac-b0b1-22f50ff8e5e7","ios":"levelo://app?vid=aa6bb8a3-6021-42ac-b0b1-22f50ff8e5e7"},"vehicle_type_id":"4","last_reported":1731579019,"current_range_meters":40000,"station_id":"ce4bgn92rcd13ifvqbvg","pricing_plan_id":"cebpf4jnsgd1na2vs0mg"},{"bike_id":"83de6277-4ffb-47e0-a2dc-f7bf1a8c74b7","system_id":"levelo_inurba_marseille","lat":43.23149,"lon":5.43718,"is_reserved":false,"is_disabled":false,"rental_uris":{"android":"levelo://app?vid=83de6277-4ffb-47e0-a2dc-f7bf1a8c74b7","ios":"levelo://app?vid=83de6277-4ffb-47e0-a2dc-f7bf1a8c74b7"},"vehicle_type_id":"4","last_reported":1731579019,"current_range_meters":20000,"station_id":"ce4bhmp2rcd13ifvqgog","pricing_plan_id":"cebpf4jnsgd1na2vs0mg"},{"bike_id":"a4df5d8f-a96e-44fd-a33c-a0551b9dcb5d","system_id":"levelo_inurba_marseille","lat":43.27058,"lon":5.42268,"is_reserved":false,"is_disabled":false,"rental_uris":{"android":"levelo://app?vid=a4df5d8f-a96e-44fd-a33c-a0551b9dcb5d","ios":"levelo://app?vid=a4df5d8f-a96e-44fd-a33c-a0551b9dcb5d"},"vehicle_type_id":"4","last_reported":1731579019,"current_range_meters":38800,"station_id":"ce4bhk92rcd13ifvqgb0","pricing_plan_id":"cebpf4jnsgd1na2vs0mg"},{"bike_id":"14085507-244c-446e-84c9-1de352577f61","system_id":"levelo_inurba_marseille","lat":43.29258,"lon":5.38448,"is_reserved":false,"is_disabled":false,"rental_uris":{"android":"levelo://app?vid=14085507-244c-446e-84c9-1de352577f61","ios":"levelo://app?vid=14085507-244c-446e-84c9-1de352577f61"},"vehicle_type_id":"4","last_reported":1731579019,"current_range_meters":8000,"station_id":"ce4bh692rcd13ifvqea0","pricing_plan_id":"cebpf4jnsgd1na2vs0mg"},{"bike_id":"8d06e41d-acbb-422d-9c3f-49462f4119df","system_id":"levelo_inurba_marseille","lat":43.337444,"lon":5.374475,"is_reserved":false,"is_disabled":false,"rental_uris":{"android":"levelo://app?vid=8d06e41d-acbb-422d-9c3f-49462f4119df","ios":"levelo://app?vid=8d06e41d-acbb-422d-9c3f-49462f4119df"},"vehicle_type_id":"4","last_reported":1731579019,"current_range_meters":35600,"station_id":"","pricing_plan_id":"cebpf4jnsgd1na2vs0mg"},{"bike_id":"a5c26769-8a1e-4fe0-8a85-c0c875723743","system_id":"levelo_inurba_marseille","lat":43.2894,"lon":5.39628,"is_reserved":false,"is_disabled":false,"rental_uris":{"android":"levelo://app?vid=a5c26769-8a1e-4fe0-8a85-c0c875723743","ios":"levelo://app?vid=a5c26769-8a1e-4fe0-8a85-c0c875723743"},"vehicle_type_id":"4","last_reported":1731579019,"current_range_meters":38800,"station_id":"ce4bh3h2rcd13ifvqdn0","pricing_plan_id":"cebpf4jnsgd1na2vs0mg"},{"bike_id":"a592f289-7c17-4820-9105-4cfe6872b948","system_id":"levelo_inurba_marseille","lat":43.28148,"lon":5.42641,"is_reserved":false,"is_disabled":false,"rental_uris":{"android":"levelo://app?vid=a592f289-7c17-4820-9105-4cfe6872b948","ios":"levelo://app?vid=a592f289-7c17-4820-9105-4cfe6872b948"},"vehicle_type_id":"4","last_reported":1731579019,"current_range_meters":36400,"station_id":"ce4bhnh2rcd13ifvqgug","pricing_plan_id":"cebpf4jnsgd1na2vs0mg"},{"bike_id":"9ec4a873-10c0-42b9-88fa-f7df6c72dcf0","system_id":"levelo_inurba_marseille","lat":43.29532,"lon":5.38534,"is_reserved":false,"is_disabled":false,"rental_uris":{"android":"levelo://app?vid=9ec4a873-10c0-42b9-88fa-f7df6c72dcf0","ios":"levelo://app?vid=9ec4a873-10c0-42b9-88fa-f7df6c72dcf0"},"vehicle_type_id":"4","last_reported":1731579019,"current_range_meters":16000,"station_id":"ce4bgih2rcd13ifvqba0","pricing_plan_id":"cebpf4jnsgd1na2vs0mg"},{"bike_id":"750a093a-fe76-45c3-9f99-2f95a63b6f4a","system_id":"levelo_inurba_marseille","lat":43.31481,"lon":5.37308,"is_reserved":false,"is_disabled":false,"rental_uris":{"android":"levelo://app?vid=750a093a-fe76-45c3-9f99-2f95a63b6f4a","ios":"levelo://app?vid=750a093a-fe76-45c3-9f99-2f95a63b6f4a"},"vehicle_type_id":"4","last_reported":1731579019,"current_range_meters":16400,"station_id":"ce4bgt12rcd13ifvqcd0","pricing_plan_id":"cebpf4jnsgd1na2vs0mg"},{"bike_id":"2b249cd5-9b7d-4102-a488-e5ca8fd9b05d","system_id":"levelo_inurba_marseille","lat":43.29366,"lon":5.37858,"is_reserved":false,"is_disabled":false,"rental_uris":{"android":"levelo://app?vid=2b249cd5-9b7d-4102-a488-e5ca8fd9b05d","ios":"levelo://app?vid=2b249cd5-9b7d-4102-a488-e5ca8fd9b05d"},"vehicle_type_id":"4","last_reported":1731579019,"current_range_meters":9200,"station_id":"ce4bgjh2rcd13ifvqbf0","pricing_plan_id":"cebpf4jnsgd1na2vs0mg"},{"bike_id":"f0400df8-a33c-410f-84e8-56d9b17dfd3f","system_id":"levelo_inurba_marseille","lat":43.28938,"lon":5.36624,"is_reserved":false,"is_disabled":false,"rental_uris":{"android":"levelo://app?vid=f0400df8-a33c-410f-84e8-56d9b17dfd3f","ios":"levelo://app?vid=f0400df8-a33c-410f-84e8-56d9b17dfd3f"},"vehicle_type_id":"4","last_reported":1731579019,"current_range_meters":38800,"station_id":"ce4bhap2rcd13ifvqek0","pricing_plan_id":"cebpf4jnsgd1na2vs0mg"},{"bike_id":"fc746dc4-7003-4908-8493-3a62027ab2bc","system_id":"levelo_inurba_marseille","lat":43.27682,"lon":5.38892,"is_reserved":false,"is_disabled":false,"rental_uris":{"android":"levelo://app?vid=fc746dc4-7003-4908-8493-3a62027ab2bc","ios":"levelo://app?vid=fc746dc4-7003-4908-8493-3a62027ab2bc"},"vehicle_type_id":"4","last_reported":1731579019,"current_range_meters":38800,"station_id":"ce4bhi12rcd13ifvqfo0","pricing_plan_id":"cebpf4jnsgd1na2vs0mg"},{"bike_id":"bd77f83d-0c8a-462b-8810-33df7e44b82e","system_id":"levelo_inurba_marseille","lat":43.30089,"lon":5.39087,"is_reserved":false,"is_disabled":false,"rental_uris":{"android":"levelo://app?vid=bd77f83d-0c8a-462b-8810-33df7e44b82e","ios":"levelo://app?vid=bd77f83d-0c8a-462b-8810-33df7e44b82e"},"vehicle_type_id":"4","last_reported":1731579019,"current_range_meters":16400,"station_id":"ce4bh192rcd13ifvqdb0","pricing_plan_id":"cebpf4jnsgd1na2vs0mg"},{"bike_id":"302217a2-0056-477e-a525-f473de66ebad","system_id":"levelo_inurba_marseille","lat":43.27489,"lon":5.42459,"is_reserved":false,"is_disabled":false,"rental_uris":{"android":"levelo://app?vid=302217a2-0056-477e-a525-f473de66ebad","ios":"levelo://app?vid=302217a2-0056-477e-a525-f473de66ebad"},"vehicle_type_id":"4","last_reported":1731579019,"current_range_meters":22000,"station_id":"ce4bhn92rcd13ifvqgrg","pricing_plan_id":"cebpf4jnsgd1na2vs0mg"},{"bike_id":"7735a892-8d6b-4a93-b64f-341778d38d92","system_id":"levelo_inurba_marseille","lat":43.3361,"lon":5.41022,"is_reserved":false,"is_disabled":false,"rental_uris":{"android":"levelo://app?vid=7735a892-8d6b-4a93-b64f-341778d38d92","ios":"levelo://app?vid=7735a892-8d6b-4a93-b64f-341778d38d92"},"vehicle_type_id":"4","last_reported":1731579019,"current_range_meters":25600,"station_id":"ce4bhqh2rcd13ifvqhmg","pricing_plan_id":"cebpf4jnsgd1na2vs0mg"},{"bike_id":"a5baad26-2b66-4d5a-a9af-3321501fc6d9","system_id":"levelo_inurba_marseille","lat":43.30949,"lon":5.39034,"is_reserved":false,"is_disabled":false,"rental_uris":{"android":"levelo://app?vid=a5baad26-2b66-4d5a-a9af-3321501fc6d9","ios":"levelo://app?vid=a5baad26-2b66-4d5a-a9af-3321501fc6d9"},"vehicle_type_id":"4","last_reported":1731579019,"current_range_meters":13600,"station_id":"ce4bgup2rcd13ifvqco0","pricing_plan_id":"cebpf4jnsgd1na2vs0mg"},{"bike_id":"d806e681-58ec-4112-8b30-9115697b12d1","system_id":"levelo_inurba_marseille","lat":43.27943,"lon":5.41038,"is_reserved":false,"is_disabled":false,"rental_uris":{"android":"levelo://app?vid=d806e681-58ec-4112-8b30-9115697b12d1","ios":"levelo://app?vid=d806e681-58ec-4112-8b30-9115697b12d1"},"vehicle_type_id":"4","last_reported":1731579019,"current_range_meters":32000,"station_id":"ce4bhnp2rcd13ifvqh0g","pricing_plan_id":"cebpf4jnsgd1na2vs0mg"},{"bike_id":"088719d3-df86-4762-930f-697dcfcb2014","system_id":"levelo_inurba_marseille","lat":43.29561,"lon":5.37506,"is_reserved":false,"is_disabled":false,"rental_uris":{"android":"levelo://app?vid=088719d3-df86-4762-930f-697dcfcb2014","ios":"levelo://app?vid=088719d3-df86-4762-930f-697dcfcb2014"},"vehicle_type_id":"4","last_reported":1731579019,"current_range_meters":38800,"station_id":"ce4bgh92rcd13ifvqb50","pricing_plan_id":"cebpf4jnsgd1na2vs0mg"},{"bike_id":"dae5cfe0-b8b5-4b7f-a29e-18f7f77aa5ed","system_id":"levelo_inurba_marseille","lat":43.29941,"lon":5.38027,"is_reserved":false,"is_disabled":false,"rental_uris":{"android":"levelo://app?vid=dae5cfe0-b8b5-4b7f-a29e-18f7f77aa5ed","ios":"levelo://app?vid=dae5cfe0-b8b5-4b7f-a29e-18f7f77aa5ed"},"vehicle_type_id":"4","last_reported":1731579019,"current_range_meters":24400,"station_id":"","pricing_plan_id":"cebpf4jnsgd1na2vs0mg"},{"bike_id":"2c42d584-2ba9-4238-aecb-3f33de8ff762","system_id":"levelo_inurba_marseille","lat":43.29523,"lon":5.39027,"is_reserved":false,"is_disabled":false,"rental_uris":{"android":"levelo://app?vid=2c42d584-2ba9-4238-aecb-3f33de8ff762","ios":"levelo://app?vid=2c42d584-2ba9-4238-aecb-3f33de8ff762"},"vehicle_type_id":"4","last_reported":1731579019,"current_range_meters":25600,"station_id":"ce4bh3p2rcd13ifvqdp0","pricing_plan_id":"cebpf4jnsgd1na2vs0mg"},{"bike_id":"d64789a5-6f7a-491a-b16a-1ea1a1a93312","system_id":"levelo_inurba_marseille","lat":43.30454,"lon":5.37893,"is_reserved":false,"is_disabled":false,"rental_uris":{"android":"levelo://app?vid=d64789a5-6f7a-491a-b16a-1ea1a1a93312","ios":"levelo://app?vid=d64789a5-6f7a-491a-b16a-1ea1a1a93312"},"vehicle_type_id":"4","last_reported":1731579019,"current_range_meters":20400,"station_id":"ce4bgup2rcd13ifvqcn0","pricing_plan_id":"cebpf4jnsgd1na2vs0mg"},{"bike_id":"07d49024-dfe3-4e6a-93a0-c529f2ab4b6d","system_id":"levelo_inurba_marseille","lat":43.2979,"lon":5.39347,"is_reserved":false,"is_disabled":false,"rental_uris":{"android":"levelo://app?vid=07d49024-dfe3-4e6a-93a0-c529f2ab4b6d","ios":"levelo://app?vid=07d49024-dfe3-4e6a-93a0-c529f2ab4b6d"},"vehicle_type_id":"4","last_reported":1731579019,"current_range_meters":18800,"station_id":"chh1huq6cuj3fo74tm60","pricing_plan_id":"cebpf4jnsgd1na2vs0mg"},{"bike_id":"8efad5db-810c-49d2-b266-01d74f7398f4","system_id":"levelo_inurba_marseille","lat":43.27996,"lon":5.40015,"is_reserved":false,"is_disabled":false,"rental_uris":{"android":"levelo://app?vid=8efad5db-810c-49d2-b266-01d74f7398f4","ios":"levelo://app?vid=8efad5db-810c-49d2-b266-01d74f7398f4"},"vehicle_type_id":"4","last_reported":1731579019,"current_range_meters":19600,"station_id":"ce4bho92rcd13ifvqh4g","pricing_plan_id":"cebpf4jnsgd1na2vs0mg"},{"bike_id":"c1e1d600-da00-4612-883a-5579e413c8b2","system_id":"levelo_inurba_marseille","lat":43.30083,"lon":5.39097,"is_reserved":false,"is_disabled":false,"rental_uris":{"android":"levelo://app?vid=c1e1d600-da00-4612-883a-5579e413c8b2","ios":"levelo://app?vid=c1e1d600-da00-4612-883a-5579e413c8b2"},"vehicle_type_id":"4","last_reported":1731579019,"current_range_meters":25600,"station_id":"ce4bh192rcd13ifvqdb0","pricing_plan_id":"cebpf4jnsgd1na2vs0mg"},{"bike_id":"07ee4904-f535-458a-b0b5-2f7426ce7969","system_id":"levelo_inurba_marseille","lat":43.24079,"lon":5.37747,"is_reserved":false,"is_disabled":false,"rental_uris":{"android":"levelo://app?vid=07ee4904-f535-458a-b0b5-2f7426ce7969","ios":"levelo://app?vid=07ee4904-f535-458a-b0b5-2f7426ce7969"},"vehicle_type_id":"4","last_reported":1731579019,"current_range_meters":7200,"station_id":"ce4bhnp2rcd13ifvqgvg","pricing_plan_id":"cebpf4jnsgd1na2vs0mg"},{"bike_id":"e59905c3-5224-4954-ab4f-d9afd600e14c","system_id":"levelo_inurba_marseille","lat":43.29011,"lon":5.35613,"is_reserved":false,"is_disabled":false,"rental_uris":{"android":"levelo://app?vid=e59905c3-5224-4954-ab4f-d9afd600e14c","ios":"levelo://app?vid=e59905c3-5224-4954-ab4f-d9afd600e14c"},"vehicle_type_id":"4","last_reported":1731579019,"current_range_meters":32400,"station_id":"ce4bhb92rcd13ifvqen0","pricing_plan_id":"cebpf4jnsgd1na2vs0mg"},{"bike_id":"8aa67a89-0dc6-4b92-b9d3-266a6f0ca2c6","system_id":"levelo_inurba_marseille","lat":43.30529,"lon":5.36688,"is_reserved":false,"is_disabled":false,"rental_uris":{"android":"levelo://app?vid=8aa67a89-0dc6-4b92-b9d3-266a6f0ca2c6","ios":"levelo://app?vid=8aa67a89-0dc6-4b92-b9d3-266a6f0ca2c6"},"vehicle_type_id":"4","last_reported":1731579019,"current_range_meters":40000,"station_id":"ce4bgrp2rcd13ifvqc9g","pricing_plan_id":"cebpf4jnsgd1na2vs0mg"},{"bike_id":"13477c0b-7244-4a30-80fa-2b1c286e6691","system_id":"levelo_inurba_marseille","lat":43.30948,"lon":5.39032,"is_reserved":false,"is_disabled":false,"rental_uris":{"android":"levelo://app?vid=13477c0b-7244-4a30-80fa-2b1c286e6691","ios":"levelo://app?vid=13477c0b-7244-4a30-80fa-2b1c286e6691"},"vehicle_type_id":"4","last_reported":1731579019,"current_range_meters":26800,"station_id":"ce4bgup2rcd13ifvqco0","pricing_plan_id":"cebpf4jnsgd1na2vs0mg"},{"bike_id":"16301016-56cc-40c9-8025-2224aea88312","system_id":"levelo_inurba_marseille","lat":43.30098,"lon":5.3908,"is_reserved":false,"is_disabled":false,"rental_uris":{"android":"levelo://app?vid=16301016-56cc-40c9-8025-2224aea88312","ios":"levelo://app?vid=16301016-56cc-40c9-8025-2224aea88312"},"vehicle_type_id":"4","last_reported":1731579019,"current_range_meters":8400,"station_id":"ce4bh192rcd13ifvqdb0","pricing_plan_id":"cebpf4jnsgd1na2vs0mg"},{"bike_id":"47d918a1-7282-4a7a-8ccf-c2762d1798c4","system_id":"levelo_inurba_marseille","lat":43.24085,"lon":5.37748,"is_reserved":false,"is_disabled":false,"rental_uris":{"android":"levelo://app?vid=47d918a1-7282-4a7a-8ccf-c2762d1798c4","ios":"levelo://app?vid=47d918a1-7282-4a7a-8ccf-c2762d1798c4"},"vehicle_type_id":"4","last_reported":1731579019,"current_range_meters":38000,"station_id":"ce4bhnp2rcd13ifvqgvg","pricing_plan_id":"cebpf4jnsgd1na2vs0mg"},{"bike_id":"b761fbf5-2bb8-4246-8985-7f4acd907d8e","system_id":"levelo_inurba_marseille","lat":43.29671,"lon":5.37294,"is_reserved":false,"is_disabled":false,"rental_uris":{"android":"levelo://app?vid=b761fbf5-2bb8-4246-8985-7f4acd907d8e","ios":"levelo://app?vid=b761fbf5-2bb8-4246-8985-7f4acd907d8e"},"vehicle_type_id":"4","last_reported":1731579019,"current_range_meters":24400,"station_id":"ce4bgk12rcd13ifvqbj0","pricing_plan_id":"cebpf4jnsgd1na2vs0mg"},{"bike_id":"6a6ea60f-2251-4c20-a3fd-b8dbfc3cb31a","system_id":"levelo_inurba_marseille","lat":43.33764,"lon":5.37473,"is_reserved":false,"is_disabled":false,"rental_uris":{"android":"levelo://app?vid=6a6ea60f-2251-4c20-a3fd-b8dbfc3cb31a","ios":"levelo://app?vid=6a6ea60f-2251-4c20-a3fd-b8dbfc3cb31a"},"vehicle_type_id":"4","last_reported":1731579019,"current_range_meters":35200,"station_id":"","pricing_plan_id":"cebpf4jnsgd1na2vs0mg"},{"bike_id":"616e77dd-5ce7-4504-aaa9-20c24c923601","system_id":"levelo_inurba_marseille","lat":43.24071,"lon":5.37758,"is_reserved":false,"is_disabled":false,"rental_uris":{"android":"levelo://app?vid=616e77dd-5ce7-4504-aaa9-20c24c923601","ios":"levelo://app?vid=616e77dd-5ce7-4504-aaa9-20c24c923601"},"vehicle_type_id":"4","last_reported":1731579019,"current_range_meters":21600,"station_id":"ce4bhnp2rcd13ifvqgvg","pricing_plan_id":"cebpf4jnsgd1na2vs0mg"},{"bike_id":"2868211a-801a-40e9-87f4-374361291305","system_id":"levelo_inurba_marseille","lat":43.28154,"lon":5.42645,"is_reserved":false,"is_disabled":false,"rental_uris":{"android":"levelo://app?vid=2868211a-801a-40e9-87f4-374361291305","ios":"levelo://app?vid=2868211a-801a-40e9-87f4-374361291305"},"vehicle_type_id":"4","last_reported":1731579019,"current_range_meters":27200,"station_id":"ce4bhnh2rcd13ifvqgug","pricing_plan_id":"cebpf4jnsgd1na2vs0mg"},{"bike_id":"e29f90f1-17a9-449f-989c-37480ccfb0f7","system_id":"levelo_inurba_marseille","lat":43.27172,"lon":5.40992,"is_reserved":false,"is_disabled":false,"rental_uris":{"android":"levelo://app?vid=e29f90f1-17a9-449f-989c-37480ccfb0f7","ios":"levelo://app?vid=e29f90f1-17a9-449f-989c-37480ccfb0f7"},"vehicle_type_id":"4","last_reported":1731579019,"current_range_meters":4000,"station_id":"ce4bhl12rcd13ifvqgf0","pricing_plan_id":"cebpf4jnsgd1na2vs0mg"},{"bike_id":"1311c692-6e9d-4afb-b7b0-20686564fe7a","system_id":"levelo_inurba_marseille","lat":43.337444,"lon":5.374475,"is_reserved":false,"is_disabled":false,"rental_uris":{"android":"levelo://app?vid=1311c692-6e9d-4afb-b7b0-20686564fe7a","ios":"levelo://app?vid=1311c692-6e9d-4afb-b7b0-20686564fe7a"},"vehicle_type_id":"4","last_reported":1731579019,"current_range_meters":33200,"station_id":"","pricing_plan_id":"cebpf4jnsgd1na2vs0mg"},{"bike_id":"0dfae7b5-5a7f-412e-9d8c-649cf1a7a3e9","system_id":"levelo_inurba_marseille","lat":43.29369,"lon":5.37854,"is_reserved":false,"is_disabled":false,"rental_uris":{"android":"levelo://app?vid=0dfae7b5-5a7f-412e-9d8c-649cf1a7a3e9","ios":"levelo://app?vid=0dfae7b5-5a7f-412e-9d8c-649cf1a7a3e9"},"vehicle_type_id":"4","last_reported":1731579019,"current_range_meters":39200,"station_id":"ce4bgjh2rcd13ifvqbf0","pricing_plan_id":"cebpf4jnsgd1na2vs0mg"},{"bike_id":"07a4be1c-5cf0-4f3e-8c27-4c3e24078daa","system_id":"levelo_inurba_marseille","lat":43.24807,"lon":5.37456,"is_reserved":false,"is_disabled":false,"rental_uris":{"android":"levelo://app?vid=07a4be1c-5cf0-4f3e-8c27-4c3e24078daa","ios":"levelo://app?vid=07a4be1c-5cf0-4f3e-8c27-4c3e24078daa"},"vehicle_type_id":"4","last_reported":1731579019,"current_range_meters":38800,"station_id":"ce4bhgh2rcd13ifvqfb0","pricing_plan_id":"cebpf4jnsgd1na2vs0mg"},{"bike_id":"8a65dbd7-2ca0-43b4-81e7-209f818930cf","system_id":"levelo_inurba_marseille","lat":43.29171,"lon":5.37151,"is_reserved":false,"is_disabled":false,"rental_uris":{"android":"levelo://app?vid=8a65dbd7-2ca0-43b4-81e7-209f818930cf","ios":"levelo://app?vid=8a65dbd7-2ca0-43b4-81e7-209f818930cf"},"vehicle_type_id":"4","last_reported":1731579019,"current_range_meters":39200,"station_id":"ce4bha92rcd13ifvqeh0","pricing_plan_id":"cebpf4jnsgd1na2vs0mg"},{"bike_id":"163fe7f7-6a69-4e3f-b7b8-bd391e653884","system_id":"levelo_inurba_marseille","lat":43.29964,"lon":5.37174,"is_reserved":false,"is_disabled":false,"rental_uris":{"android":"levelo://app?vid=163fe7f7-6a69-4e3f-b7b8-bd391e653884","ios":"levelo://app?vid=163fe7f7-6a69-4e3f-b7b8-bd391e653884"},"vehicle_type_id":"4","last_reported":1731579019,"current_range_meters":28000,"station_id":"ce4bgr92rcd13ifvqc7g","pricing_plan_id":"cebpf4jnsgd1na2vs0mg"},{"bike_id":"913e24fc-fcc0-4289-8c6b-d5f0b310633d","system_id":"levelo_inurba_marseille","lat":43.26685,"lon":5.38265,"is_reserved":false,"is_disabled":false,"rental_uris":{"android":"levelo://app?vid=913e24fc-fcc0-4289-8c6b-d5f0b310633d","ios":"levelo://app?vid=913e24fc-fcc0-4289-8c6b-d5f0b310633d"},"vehicle_type_id":"4","last_reported":1731579019,"current_range_meters":28400,"station_id":"ce4bhg92rcd13ifvqf90","pricing_plan_id":"cebpf4jnsgd1na2vs0mg"},{"bike_id":"240b26f9-3a46-4cae-b9bc-5a2dcc7a3700","system_id":"levelo_inurba_marseille","lat":43.26287,"lon":5.39666,"is_reserved":false,"is_disabled":false,"rental_uris":{"android":"levelo://app?vid=240b26f9-3a46-4cae-b9bc-5a2dcc7a3700","ios":"levelo://app?vid=240b26f9-3a46-4cae-b9bc-5a2dcc7a3700"},"vehicle_type_id":"4","last_reported":1731579019,"current_range_meters":31200,"station_id":"ce4bhhp2rcd13ifvqfm0","pricing_plan_id":"cebpf4jnsgd1na2vs0mg"},{"bike_id":"89a6716f-5f16-40b3-9241-949a22d82d45","system_id":"levelo_inurba_marseille","lat":43.26687,"lon":5.3827,"is_reserved":false,"is_disabled":false,"rental_uris":{"android":"levelo://app?vid=89a6716f-5f16-40b3-9241-949a22d82d45","ios":"levelo://app?vid=89a6716f-5f16-40b3-9241-949a22d82d45"},"vehicle_type_id":"4","last_reported":1731579019,"current_range_meters":27600,"station_id":"ce4bhg92rcd13ifvqf90","pricing_plan_id":"cebpf4jnsgd1na2vs0mg"},{"bike_id":"31350a99-483c-49fb-a63d-d7083a0512c9","system_id":"levelo_inurba_marseille","lat":43.29003,"lon":5.35614,"is_reserved":false,"is_disabled":false,"rental_uris":{"android":"levelo://app?vid=31350a99-483c-49fb-a63d-d7083a0512c9","ios":"levelo://app?vid=31350a99-483c-49fb-a63d-d7083a0512c9"},"vehicle_type_id":"4","last_reported":1731579019,"current_range_meters":36800,"station_id":"ce4bhb92rcd13ifvqen0","pricing_plan_id":"cebpf4jnsgd1na2vs0mg"},{"bike_id":"5202b004-fc42-475e-a16f-b05d55c94338","system_id":"levelo_inurba_marseille","lat":43.30145,"lon":5.38073,"is_reserved":false,"is_disabled":false,"rental_uris":{"android":"levelo://app?vid=5202b004-fc42-475e-a16f-b05d55c94338","ios":"levelo://app?vid=5202b004-fc42-475e-a16f-b05d55c94338"},"vehicle_type_id":"4","last_reported":1731579019,"current_range_meters":38800,"station_id":"ce4bgjp2rcd13ifvqbh0","pricing_plan_id":"cebpf4jnsgd1na2vs0mg"},{"bike_id":"14041b42-c763-4196-acb4-81474847f26a","system_id":"levelo_inurba_marseille","lat":43.24082,"lon":5.3775,"is_reserved":false,"is_disabled":false,"rental_uris":{"android":"levelo://app?vid=14041b42-c763-4196-acb4-81474847f26a","ios":"levelo://app?vid=14041b42-c763-4196-acb4-81474847f26a"},"vehicle_type_id":"4","last_reported":1731579019,"current_range_meters":37600,"station_id":"ce4bhnp2rcd13ifvqgvg","pricing_plan_id":"cebpf4jnsgd1na2vs0mg"},{"bike_id":"af4fdae5-746b-40ab-a091-4e45947ddf5c","system_id":"levelo_inurba_marseille","lat":43.29939,"lon":5.36555,"is_reserved":false,"is_disabled":false,"rental_uris":{"android":"levelo://app?vid=af4fdae5-746b-40ab-a091-4e45947ddf5c","ios":"levelo://app?vid=af4fdae5-746b-40ab-a091-4e45947ddf5c"},"vehicle_type_id":"4","last_reported":1731579019,"current_range_meters":9200,"station_id":"ce4bgm92rcd13ifvqbr0","pricing_plan_id":"cebpf4jnsgd1na2vs0mg"},{"bike_id":"d133c4c9-da8c-4e9c-acbb-58fb1adcb664","system_id":"levelo_inurba_marseille","lat":43.294281,"lon":5.389288,"is_reserved":false,"is_disabled":false,"rental_uris":{"android":"levelo://app?vid=d133c4c9-da8c-4e9c-acbb-58fb1adcb664","ios":"levelo://app?vid=d133c4c9-da8c-4e9c-acbb-58fb1adcb664"},"vehicle_type_id":"4","last_reported":1731579019,"current_range_meters":16800,"station_id":"ce4bh2h2rcd13ifvqdh0","pricing_plan_id":"cebpf4jnsgd1na2vs0mg"},{"bike_id":"2371864c-284f-40f2-86e3-82f3c9fa99d8","system_id":"levelo_inurba_marseille","lat":43.29989,"lon":5.37179,"is_reserved":false,"is_disabled":false,"rental_uris":{"android":"levelo://app?vid=2371864c-284f-40f2-86e3-82f3c9fa99d8","ios":"levelo://app?vid=2371864c-284f-40f2-86e3-82f3c9fa99d8"},"vehicle_type_id":"4","last_reported":1731579019,"current_range_meters":6800,"station_id":"ce4bgr92rcd13ifvqc7g","pricing_plan_id":"cebpf4jnsgd1na2vs0mg"},{"bike_id":"02e8a2be-273e-4701-a489-d3560e326c7d","system_id":"levelo_inurba_marseille","lat":43.29907,"lon":5.38145,"is_reserved":false,"is_disabled":false,"rental_uris":{"android":"levelo://app?vid=02e8a2be-273e-4701-a489-d3560e326c7d","ios":"levelo://app?vid=02e8a2be-273e-4701-a489-d3560e326c7d"},"vehicle_type_id":"4","last_reported":1731579019,"current_range_meters":38800,"station_id":"ce4bgj12rcd13ifvqbc0","pricing_plan_id":"cebpf4jnsgd1na2vs0mg"},{"bike_id":"bba76986-27db-4a0b-aac9-b12dd5c4e056","system_id":"levelo_inurba_marseille","lat":43.3054,"lon":5.36529,"is_reserved":false,"is_disabled":false,"rental_uris":{"android":"levelo://app?vid=bba76986-27db-4a0b-aac9-b12dd5c4e056","ios":"levelo://app?vid=bba76986-27db-4a0b-aac9-b12dd5c4e056"},"vehicle_type_id":"4","last_reported":1731579019,"current_range_meters":40000,"station_id":"ce4bgs12rcd13ifvqcag","pricing_plan_id":"cebpf4jnsgd1na2vs0mg"},{"bike_id":"e172574a-62b1-4631-8fb4-dded1439cd60","system_id":"levelo_inurba_marseille","lat":43.27492,"lon":5.42455,"is_reserved":false,"is_disabled":false,"rental_uris":{"android":"levelo://app?vid=e172574a-62b1-4631-8fb4-dded1439cd60","ios":"levelo://app?vid=e172574a-62b1-4631-8fb4-dded1439cd60"},"vehicle_type_id":"4","last_reported":1731579019,"current_range_meters":16000,"station_id":"ce4bhn92rcd13ifvqgrg","pricing_plan_id":"cebpf4jnsgd1na2vs0mg"},{"bike_id":"e4984a30-1b06-4064-a0fd-3e3fc5b647cc","system_id":"levelo_inurba_marseille","lat":43.29265,"lon":5.36846,"is_reserved":false,"is_disabled":false,"rental_uris":{"android":"levelo://app?vid=e4984a30-1b06-4064-a0fd-3e3fc5b647cc","ios":"levelo://app?vid=e4984a30-1b06-4064-a0fd-3e3fc5b647cc"},"vehicle_type_id":"4","last_reported":1731579019,"current_range_meters":38000,"station_id":"ce4bhbp2rcd13ifvqesg","pricing_plan_id":"cebpf4jnsgd1na2vs0mg"},{"bike_id":"30d0e49b-05a1-49a1-9c6e-ab3b8828cb1d","system_id":"levelo_inurba_marseille","lat":43.29621,"lon":5.37738,"is_reserved":false,"is_disabled":false,"rental_uris":{"android":"levelo://app?vid=30d0e49b-05a1-49a1-9c6e-ab3b8828cb1d","ios":"levelo://app?vid=30d0e49b-05a1-49a1-9c6e-ab3b8828cb1d"},"vehicle_type_id":"4","last_reported":1731579019,"current_range_meters":9200,"station_id":"ce4bgi92rcd13ifvqb90","pricing_plan_id":"cebpf4jnsgd1na2vs0mg"},{"bike_id":"eccee6ec-97cb-4904-bde1-843bf1f43a38","system_id":"levelo_inurba_marseille","lat":43.306026,"lon":5.372327,"is_reserved":false,"is_disabled":false,"rental_uris":{"android":"levelo://app?vid=eccee6ec-97cb-4904-bde1-843bf1f43a38","ios":"levelo://app?vid=eccee6ec-97cb-4904-bde1-843bf1f43a38"},"vehicle_type_id":"4","last_reported":1731579019,"current_range_meters":28800,"station_id":"ce4bgup2rcd13ifvqco0","pricing_plan_id":"cebpf4jnsgd1na2vs0mg"},{"bike_id":"f5df91d9-4a7c-43df-9009-00af233090e5","system_id":"levelo_inurba_marseille","lat":43.33608,"lon":5.41027,"is_reserved":false,"is_disabled":false,"rental_uris":{"android":"levelo://app?vid=f5df91d9-4a7c-43df-9009-00af233090e5","ios":"levelo://app?vid=f5df91d9-4a7c-43df-9009-00af233090e5"},"vehicle_type_id":"4","last_reported":1731579019,"current_range_meters":39200,"station_id":"ce4bhqh2rcd13ifvqhmg","pricing_plan_id":"cebpf4jnsgd1na2vs0mg"},{"bike_id":"240b7b31-a289-4011-a3f7-f77f11a18f22","system_id":"levelo_inurba_marseille","lat":43.29179,"lon":5.37158,"is_reserved":false,"is_disabled":false,"rental_uris":{"android":"levelo://app?vid=240b7b31-a289-4011-a3f7-f77f11a18f22","ios":"levelo://app?vid=240b7b31-a289-4011-a3f7-f77f11a18f22"},"vehicle_type_id":"4","last_reported":1731579019,"current_range_meters":37600,"station_id":"ce4bha92rcd13ifvqeh0","pricing_plan_id":"cebpf4jnsgd1na2vs0mg"},{"bike_id":"59581e6e-843e-4d0f-99b5-ef3fc250a475","system_id":"levelo_inurba_marseille","lat":43.29678,"lon":5.37293,"is_reserved":false,"is_disabled":false,"rental_uris":{"android":"levelo://app?vid=59581e6e-843e-4d0f-99b5-ef3fc250a475","ios":"levelo://app?vid=59581e6e-843e-4d0f-99b5-ef3fc250a475"},"vehicle_type_id":"4","last_reported":1731579019,"current_range_meters":16000,"station_id":"ce4bgk12rcd13ifvqbj0","pricing_plan_id":"cebpf4jnsgd1na2vs0mg"},{"bike_id":"1bda1f07-b7d4-4dea-acbc-bba7a290c9cc","system_id":"levelo_inurba_marseille","lat":43.2985,"lon":5.36281,"is_reserved":false,"is_disabled":false,"rental_uris":{"android":"levelo://app?vid=1bda1f07-b7d4-4dea-acbc-bba7a290c9cc","ios":"levelo://app?vid=1bda1f07-b7d4-4dea-acbc-bba7a290c9cc"},"vehicle_type_id":"4","last_reported":1731579019,"current_range_meters":8400,"station_id":"ce4bgpp2rcd13ifvqc3g","pricing_plan_id":"cebpf4jnsgd1na2vs0mg"},{"bike_id":"c5eaa274-764e-4094-8ea1-94a8521ea9e2","system_id":"levelo_inurba_marseille","lat":43.30957,"lon":5.39032,"is_reserved":false,"is_disabled":false,"rental_uris":{"android":"levelo://app?vid=c5eaa274-764e-4094-8ea1-94a8521ea9e2","ios":"levelo://app?vid=c5eaa274-764e-4094-8ea1-94a8521ea9e2"},"vehicle_type_id":"4","last_reported":1731579019,"current_range_meters":38000,"station_id":"ce4bgup2rcd13ifvqco0","pricing_plan_id":"cebpf4jnsgd1na2vs0mg"},{"bike_id":"69c475f7-1f0a-4836-bf10-d2f807a812ef","system_id":"levelo_inurba_marseille","lat":43.29296,"lon":5.37453,"is_reserved":false,"is_disabled":false,"rental_uris":{"android":"levelo://app?vid=69c475f7-1f0a-4836-bf10-d2f807a812ef","ios":"levelo://app?vid=69c475f7-1f0a-4836-bf10-d2f807a812ef"},"vehicle_type_id":"4","last_reported":1731579019,"current_range_meters":20800,"station_id":"ce4bgi12rcd13ifvqb70","pricing_plan_id":"cebpf4jnsgd1na2vs0mg"},{"bike_id":"7859a5ae-74ed-4e8a-b212-d33efeb6280b","system_id":"levelo_inurba_marseille","lat":43.30256,"lon":5.37955,"is_reserved":false,"is_disabled":false,"rental_uris":{"android":"levelo://app?vid=7859a5ae-74ed-4e8a-b212-d33efeb6280b","ios":"levelo://app?vid=7859a5ae-74ed-4e8a-b212-d33efeb6280b"},"vehicle_type_id":"4","last_reported":1731579019,"current_range_meters":27200,"station_id":"ce4bgup2rcd13ifvqcn0","pricing_plan_id":"cebpf4jnsgd1na2vs0mg"},{"bike_id":"b0dbcd3d-346f-49d2-981d-208ac5d51b9d","system_id":"levelo_inurba_marseille","lat":43.29006,"lon":5.3561,"is_reserved":false,"is_disabled":false,"rental_uris":{"android":"levelo://app?vid=b0dbcd3d-346f-49d2-981d-208ac5d51b9d","ios":"levelo://app?vid=b0dbcd3d-346f-49d2-981d-208ac5d51b9d"},"vehicle_type_id":"4","last_reported":1731579019,"current_range_meters":38000,"station_id":"ce4bhb92rcd13ifvqen0","pricing_plan_id":"cebpf4jnsgd1na2vs0mg"},{"bike_id":"2bd2782f-03e7-4948-a6c5-5a949b0b1d95","system_id":"levelo_inurba_marseille","lat":43.29307,"lon":5.37167,"is_reserved":false,"is_disabled":false,"rental_uris":{"android":"levelo://app?vid=2bd2782f-03e7-4948-a6c5-5a949b0b1d95","ios":"levelo://app?vid=2bd2782f-03e7-4948-a6c5-5a949b0b1d95"},"vehicle_type_id":"4","last_reported":1731579019,"current_range_meters":36000,"station_id":"ce4bgh92rcd13ifvqb40","pricing_plan_id":"cebpf4jnsgd1na2vs0mg"},{"bike_id":"bfda5cdc-ddff-407c-84f1-0fa1f3b8073d","system_id":"levelo_inurba_marseille","lat":43.28105,"lon":5.37845,"is_reserved":false,"is_disabled":false,"rental_uris":{"android":"levelo://app?vid=bfda5cdc-ddff-407c-84f1-0fa1f3b8073d","ios":"levelo://app?vid=bfda5cdc-ddff-407c-84f1-0fa1f3b8073d"},"vehicle_type_id":"4","last_reported":1731579019,"current_range_meters":22400,"station_id":"ce4bha12rcd13ifvqee0","pricing_plan_id":"cebpf4jnsgd1na2vs0mg"},{"bike_id":"6f82e55a-c17d-4ba7-9370-2c8a0d93a3d0","system_id":"levelo_inurba_marseille","lat":43.26935,"lon":5.38917,"is_reserved":false,"is_disabled":false,"rental_uris":{"android":"levelo://app?vid=6f82e55a-c17d-4ba7-9370-2c8a0d93a3d0","ios":"levelo://app?vid=6f82e55a-c17d-4ba7-9370-2c8a0d93a3d0"},"vehicle_type_id":"4","last_reported":1731579019,"current_range_meters":39200,"station_id":"ce4bhhh2rcd13ifvqfl0","pricing_plan_id":"cebpf4jnsgd1na2vs0mg"},{"bike_id":"0f433459-e074-4293-bfa5-3b5b113abeb1","system_id":"levelo_inurba_marseille","lat":43.33007,"lon":5.38899,"is_reserved":false,"is_disabled":false,"rental_uris":{"android":"levelo://app?vid=0f433459-e074-4293-bfa5-3b5b113abeb1","ios":"levelo://app?vid=0f433459-e074-4293-bfa5-3b5b113abeb1"},"vehicle_type_id":"4","last_reported":1731579019,"current_range_meters":34000,"station_id":"ce4bhr92rcd13ifvqhsg","pricing_plan_id":"cebpf4jnsgd1na2vs0mg"},{"bike_id":"b6bca026-1efe-4754-928d-9042ba992b22","system_id":"levelo_inurba_marseille","lat":43.28413,"lon":5.3499,"is_reserved":false,"is_disabled":false,"rental_uris":{"android":"levelo://app?vid=b6bca026-1efe-4754-928d-9042ba992b22","ios":"levelo://app?vid=b6bca026-1efe-4754-928d-9042ba992b22"},"vehicle_type_id":"4","last_reported":1731579019,"current_range_meters":36400,"station_id":"ce4bhbh2rcd13ifvqepg","pricing_plan_id":"cebpf4jnsgd1na2vs0mg"},{"bike_id":"7825fde2-bf57-41e8-9d0b-6f93ded2046d","system_id":"levelo_inurba_marseille","lat":43.26949,"lon":5.38909,"is_reserved":false,"is_disabled":false,"rental_uris":{"android":"levelo://app?vid=7825fde2-bf57-41e8-9d0b-6f93ded2046d","ios":"levelo://app?vid=7825fde2-bf57-41e8-9d0b-6f93ded2046d"},"vehicle_type_id":"4","last_reported":1731579019,"current_range_meters":28000,"station_id":"ce4bhhh2rcd13ifvqfl0","pricing_plan_id":"cebpf4jnsgd1na2vs0mg"},{"bike_id":"a9fd04f5-5c1a-40e1-9a0e-d3b9b22ef63d","system_id":"levelo_inurba_marseille","lat":43.29313,"lon":5.3717,"is_reserved":false,"is_disabled":false,"rental_uris":{"android":"levelo://app?vid=a9fd04f5-5c1a-40e1-9a0e-d3b9b22ef63d","ios":"levelo://app?vid=a9fd04f5-5c1a-40e1-9a0e-d3b9b22ef63d"},"vehicle_type_id":"4","last_reported":1731579019,"current_range_meters":33600,"station_id":"ce4bgh92rcd13ifvqb40","pricing_plan_id":"cebpf4jnsgd1na2vs0mg"},{"bike_id":"dbd750a9-0c24-495b-8b51-27338322d10f","system_id":"levelo_inurba_marseille","lat":43.30535,"lon":5.36524,"is_reserved":false,"is_disabled":false,"rental_uris":{"android":"levelo://app?vid=dbd750a9-0c24-495b-8b51-27338322d10f","ios":"levelo://app?vid=dbd750a9-0c24-495b-8b51-27338322d10f"},"vehicle_type_id":"4","last_reported":1731579019,"current_range_meters":38800,"station_id":"ce4bgs12rcd13ifvqcag","pricing_plan_id":"cebpf4jnsgd1na2vs0mg"},{"bike_id":"6c563cd4-79be-46b4-a9b4-bf2346c85548","system_id":"levelo_inurba_marseille","lat":43.28671,"lon":5.36348,"is_reserved":false,"is_disabled":false,"rental_uris":{"android":"levelo://app?vid=6c563cd4-79be-46b4-a9b4-bf2346c85548","ios":"levelo://app?vid=6c563cd4-79be-46b4-a9b4-bf2346c85548"},"vehicle_type_id":"4","last_reported":1731579019,"current_range_meters":24400,"station_id":"ce4bhah2rcd13ifvqej0","pricing_plan_id":"cebpf4jnsgd1na2vs0mg"},