{"last_updated":1727809615,"ttl":60,"version":"2.2","data":{"bikes":[{"bike_id":"21975b15-7ed1-49cd-8f95-93af18db056a","system_id":"levelo_inurba_marseille","lat":43.28487,"lon":5.38413,"is_reserved":false,"is_disabled":false,"rental_uris":{"android":"levelo://app?vid=21975b15-7ed1-49cd-8f95-93af18db056a","ios":"levelo://app?vid=21975b15-7ed1-49cd-8f95-93af18db056a"},"vehicle_type_id":"4","last_reported":1727809616,"current_range_meters":33600,"station_id":"ce4bh512rcd13ifvqe3g","pricing_plan_id":"cebpf4jnsgd1na2vs0mg"},{"bike_id":"8322c86f-920b-48fc-93cf-fd6768f28fdd","system_id":"levelo_inurba_marseille","lat":43.29794,"lon":5.37921,"is_reserved":false,"is_disabled":false,"rental_uris":{"android":"levelo://app?vid=8322c86f-920b-48fc-93cf-fd6768f28fdd","ios":"levelo://app?vid=8322c86f-920b-48fc-93cf-fd6768f28fdd"},"vehicle_type_id":"4","last_reported":1727809616,"current_range_meters":28800,"station_id":"","pricing_plan_id":"cebpf4jnsgd1na2vs0mg"},{"bike_id":"d97196d4-185e-4916-bd86-5eb6fdf18447","system_id":"levelo_inurba_marseille","lat":43.33025,"lon":5.39043,"is_reserved":false,"is_disabled":false,"rental_uris":{"android":"levelo://app?vid=d97196d4-185e-4916-bd86-5eb6fdf18447","ios":"levelo://app?vid=d97196d4-185e-4916-bd86-5eb6fdf18447"},"vehicle_type_id":"4","last_reported":1727809616,"current_range_meters":24000,"station_id":"ce4bhr92rcd13ifvqhrg","pricing_plan_id":"cebpf4jnsgd1na2vs0mg"},{"bike_id":"29e7621a-9400-40b6-ae1b-a2b0109ffc94","system_id":"levelo_inurba_marseille","lat":43.32826,"lon":5.38758,"is_reserved":false,"is_disabled":false,"rental_uris":{"android":"levelo://app?vid=29e7621a-9400-40b6-ae1b-a2b0109ffc94","ios":"levelo://app?vid=29e7621a-9400-40b6-ae1b-a2b0109ffc94"},"vehicle_type_id":"4","last_reported":1727809616,"current_range_meters":38400,"station_id":"","pricing_plan_id":"cebpf4jnsgd1na2vs0mg"},{"bike_id":"60713726-c570-4436-b1ff-4110b2cf7354","system_id":"levelo_inurba_marseille","lat":43.28155,"lon":5.42651,"is_reserved":false,"is_disabled":false,"rental_uris":{"android":"levelo://app?vid=60713726-c570-4436-b1ff-4110b2cf7354","ios":"levelo://app?vid=60713726-c570-4436-b1ff-4110b2cf7354"},"vehicle_type_id":"4","last_reported":1727809616,"current_range_meters":34000,"station_id":"ce4bhnh2rcd13ifvqgug","pricing_plan_id":"cebpf4jnsgd1na2vs0mg"},{"bike_id":"100a6eb3-d864-4715-8031-7729c74975fb","system_id":"levelo_inurba_marseille","lat":43.28001,"lon":5.40028,"is_reserved":false,"is_disabled":false,"rental_uris":{"android":"levelo://app?vid=100a6eb3-d864-4715-8031-7729c74975fb","ios":"levelo://app?vid=100a6eb3-d864-4715-8031-7729c74975fb"},"vehicle_type_id":"4","last_reported":1727809616,"current_range_meters":38800,"station_id":"ce4bho92rcd13ifvqh4g","pricing_plan_id":"cebpf4jnsgd1na2vs0mg"},{"bike_id":"31afeb16-79a7-47bd-9608-000f4b892c26","system_id":"levelo_inurba_marseille","lat":43.24655,"lon":5.38905,"is_reserved":false,"is_disabled":false,"rental_uris":{"android":"levelo://app?vid=31afeb16-79a7-47bd-9608-000f4b892c26","ios":"levelo://app?vid=31afeb16-79a7-47bd-9608-000f4b892c26"},"vehicle_type_id":"4","last_reported":1727809616,"current_range_meters":2800,"station_id":"ce4bhg12rcd13ifvqf60","pricing_plan_id":"cebpf4jnsgd1na2vs0mg"},{"bike_id":"94a351ac-6b51-41e8-9231-e3b701d295c5","system_id":"levelo_inurba_marseille","lat":43.257945,"lon":5.398004,"is_reserved":false,"is_disabled":false,"rental_uris":{"android":"levelo://app?vid=94a351ac-6b51-41e8-9231-e3b701d295c5","ios":"levelo://app?vid=94a351ac-6b51-41e8-9231-e3b701d295c5"},"vehicle_type_id":"4","last_reported":1727809616,"current_range_meters":4000,"station_id":"ce4bhl92rcd13ifvqghg","pricing_plan_id":"cebpf4jnsgd1na2vs0mg"},{"bike_id":"f6a077b0-361c-4838-a898-222b193a4c46","system_id":"levelo_inurba_marseille","lat":43.29557,"lon":5.42278,"is_reserved":false,"is_disabled":false,"rental_uris":{"android":"levelo://app?vid=f6a077b0-361c-4838-a898-222b193a4c46","ios":"levelo://app?vid=f6a077b0-361c-4838-a898-222b193a4c46"},"vehicle_type_id":"4","last_reported":1727809616,"current_range_meters":36800,"station_id":"ce4bhph2rcd13ifvqhdg","pricing_plan_id":"cebpf4jnsgd1na2vs0mg"},{"bike_id":"5633e79e-4e31-4fb6-b1a0-473c62afd6cf","system_id":"levelo_inurba_marseille","lat":43.27812,"lon":5.40717,"is_reserved":false,"is_disabled":false,"rental_uris":{"android":"levelo://app?vid=5633e79e-4e31-4fb6-b1a0-473c62afd6cf","ios":"levelo://app?vid=5633e79e-4e31-4fb6-b1a0-473c62afd6cf"},"vehicle_type_id":"4","last_reported":1727809616,"current_range_meters":13600,"station_id":"ce4bhnh2rcd13ifvqgtg","pricing_plan_id":"cebpf4jnsgd1na2vs0mg"},{"bike_id":"0bdcf6b5-ec87-45a0-bb37-594a6fcb82b6","system_id":"levelo_inurba_marseille","lat":43.29539,"lon":5.38553,"is_reserved":false,"is_disabled":false,"rental_uris":{"android":"levelo://app?vid=0bdcf6b5-ec87-45a0-bb37-594a6fcb82b6","ios":"levelo://app?vid=0bdcf6b5-ec87-45a0-bb37-594a6fcb82b6"},"vehicle_type_id":"4","last_reported":1727809616,"current_range_meters":39200,"station_id":"ce4bgih2rcd13ifvqba0","pricing_plan_id":"cebpf4jnsgd1na2vs0mg"},{"bike_id":"f27e3350-df53-490f-a6b3-6a7da6bbb01a","system_id":"levelo_inurba_marseille","lat":43.31714,"lon":5.437,"is_reserved":false,"is_disabled":false,"rental_uris":{"android":"levelo://app?vid=f27e3350-df53-490f-a6b3-6a7da6bbb01a","ios":"levelo://app?vid=f27e3350-df53-490f-a6b3-6a7da6bbb01a"},"vehicle_type_id":"4","last_reported":1727809616,"current_range_meters":18000,"station_id":"ce4bhp92rcd13ifvqhcg","pricing_plan_id":"cebpf4jnsgd1na2vs0mg"},{"bike_id":"9286e443-1724-46e9-bb69-d4356282935e","system_id":"levelo_inurba_marseille","lat":43.24084,"lon":5.37758,"is_reserved":false,"is_disabled":false,"rental_uris":{"android":"levelo://app?vid=9286e443-1724-46e9-bb69-d4356282935e","ios":"levelo://app?vid=9286e443-1724-46e9-bb69-d4356282935e"},"vehicle_type_id":"4","last_reported":1727809616,"current_range_meters":15200,"station_id":"ce4bhnp2rcd13ifvqgvg","pricing_plan_id":"cebpf4jnsgd1na2vs0mg"},{"bike_id":"2bcae53e-00f4-417f-8ff2-8df0cc29f28a","system_id":"levelo_inurba_marseille","lat":43.27807,"lon":5.40717,"is_reserved":false,"is_disabled":false,"rental_uris":{"android":"levelo://app?vid=2bcae53e-00f4-417f-8ff2-8df0cc29f28a","ios":"levelo://app?vid=2bcae53e-00f4-417f-8ff2-8df0cc29f28a"},"vehicle_type_id":"4","last_reported":1727809616,"current_range_meters":39200,"station_id":"ce4bhnh2rcd13ifvqgtg","pricing_plan_id":"cebpf4jnsgd1na2vs0mg"},{"bike_id":"291b6700-f2fd-456a-9b46-4fca87fc0f6b","system_id":"levelo_inurba_marseille","lat":43.31708,"lon":5.43709,"is_reserved":false,"is_disabled":false,"rental_uris":{"android":"levelo://app?vid=291b6700-f2fd-456a-9b46-4fca87fc0f6b","ios":"levelo://app?vid=291b6700-f2fd-456a-9b46-4fca87fc0f6b"},"vehicle_type_id":"4","last_reported":1727809616,"current_range_meters":17200,"station_id":"ce4bhp92rcd13ifvqhcg","pricing_plan_id":"cebpf4jnsgd1na2vs0mg"},{"bike_id":"52901fae-2a8c-4844-9132-223ab1c2809e","system_id":"levelo_inurba_marseille","lat":43.300926,"lon":5.388272,"is_reserved":false,"is_disabled":false,"rental_uris":{"android":"levelo://app?vid=52901fae-2a8c-4844-9132-223ab1c2809e","ios":"levelo://app?vid=52901fae-2a8c-4844-9132-223ab1c2809e"},"vehicle_type_id":"4","last_reported":1727809616,"current_range_meters":8800,"station_id":"ce4bghh2rcd13ifvqb60","pricing_plan_id":"cebpf4jnsgd1na2vs0mg"},{"bike_id":"bcd3d28a-ea65-4172-8f36-03236c255f65","system_id":"levelo_inurba_marseille","lat":43.30319,"lon":5.40446,"is_reserved":false,"is_disabled":false,"rental_uris":{"android":"levelo://app?vid=bcd3d28a-ea65-4172-8f36-03236c255f65","ios":"levelo://app?vid=bcd3d28a-ea65-4172-8f36-03236c255f65"},"vehicle_type_id":"4","last_reported":1727809616,"current_range_meters":38800,"station_id":"ce4bh012rcd13ifvqd10","pricing_plan_id":"cebpf4jnsgd1na2vs0mg"},{"bike_id":"3f2e7019-42e5-494b-ab01-bfb73ee3f7dd","system_id":"levelo_inurba_marseille","lat":43.27843,"lon":5.39207,"is_reserved":false,"is_disabled":false,"rental_uris":{"android":"levelo://app?vid=3f2e7019-42e5-494b-ab01-bfb73ee3f7dd","ios":"levelo://app?vid=3f2e7019-42e5-494b-ab01-bfb73ee3f7dd"},"vehicle_type_id":"4","last_reported":1727809616,"current_range_meters":28400,"station_id":"ce4bhjp2rcd13ifvqga0","pricing_plan_id":"cebpf4jnsgd1na2vs0mg"},{"bike_id":"9ea65383-a0de-4a50-8614-6075feadc120","system_id":"levelo_inurba_marseille","lat":43.3133,"lon":5.39692,"is_reserved":false,"is_disabled":false,"rental_uris":{"android":"levelo://app?vid=9ea65383-a0de-4a50-8614-6075feadc120","ios":"levelo://app?vid=9ea65383-a0de-4a50-8614-6075feadc120"},"vehicle_type_id":"4","last_reported":1727809616,"current_range_meters":36400,"station_id":"ce4bgvp2rcd13ifvqcu0","pricing_plan_id":"cebpf4jnsgd1na2vs0mg"},{"bike_id":"b0814d00-42bd-462e-bc07-ba95cbc11f81","system_id":"levelo_inurba_marseille","lat":43.31329,"lon":5.39693,"is_reserved":false,"is_disabled":false,"rental_uris":{"android":"levelo://app?vid=b0814d00-42bd-462e-bc07-ba95cbc11f81","ios":"levelo://app?vid=b0814d00-42bd-462e-bc07-ba95cbc11f81"},"vehicle_type_id":"4","last_reported":1727809616,"current_range_meters":20000,"station_id":"ce4bgvp2rcd13ifvqcu0","pricing_plan_id":"cebpf4jnsgd1na2vs0mg"},{"bike_id":"43c1e5a4-b8d0-43e7-82b5-8d7b9ca74bff","system_id":"levelo_inurba_marseille","lat":43.31356,"lon":5.38498,"is_reserved":false,"is_disabled":false,"rental_uris":{"android":"levelo://app?vid=43c1e5a4-b8d0-43e7-82b5-8d7b9ca74bff","ios":"levelo://app?vid=43c1e5a4-b8d0-43e7-82b5-8d7b9ca74bff"},"vehicle_type_id":"4","last_reported":1727809616,"current_range_meters":24400,"station_id":"ce4bgt92rcd13ifvqcf0","pricing_plan_id":"cebpf4jnsgd1na2vs0mg"},{"bike_id":"7e76f61d-1104-460b-895f-03b2abf7da39","system_id":"levelo_inurba_marseille","lat":43.24077,"lon":5.37759,"is_reserved":false,"is_disabled":false,"rental_uris":{"android":"levelo://app?vid=7e76f61d-1104-460b-895f-03b2abf7da39","ios":"levelo://app?vid=7e76f61d-1104-460b-895f-03b2abf7da39"},"vehicle_type_id":"4","last_reported":1727809616,"current_range_meters":16400,"station_id":"ce4bhnp2rcd13ifvqgvg","pricing_plan_id":"cebpf4jnsgd1na2vs0mg"},{"bike_id":"1bd4444f-2f28-42f4-8820-c243d2603262","system_id":"levelo_inurba_marseille","lat":43.2799,"lon":5.40016,"is_reserved":false,"is_disabled":false,"rental_uris":{"android":"levelo://app?vid=1bd4444f-2f28-42f4-8820-c243d2603262","ios":"levelo://app?vid=1bd4444f-2f28-42f4-8820-c243d2603262"},"vehicle_type_id":"4","last_reported":1727809616,"current_range_meters":3600,"station_id":"ce4bho92rcd13ifvqh4g","pricing_plan_id":"cebpf4jnsgd1na2vs0mg"},{"bike_id":"d97cabd9-4352-4e3a-97fc-d3f8ae01999c","system_id":"levelo_inurba_marseille","lat":43.32335,"lon":5.40625,"is_reserved":false,"is_disabled":false,"rental_uris":{"android":"levelo://app?vid=d97cabd9-4352-4e3a-97fc-d3f8ae01999c","ios":"levelo://app?vid=d97cabd9-4352-4e3a-97fc-d3f8ae01999c"},"vehicle_type_id":"4","last_reported":1727809616,"current_range_meters":38400,"station_id":"ce4bhq92rcd13ifvqhjg","pricing_plan_id":"cebpf4jnsgd1na2vs0mg"},{"bike_id":"c32d92b6-7ce5-4d09-bf38-7781f66ad1d1","system_id":"levelo_inurba_marseille","lat":43.25718,"lon":5.41114,"is_reserved":false,"is_disabled":false,"rental_uris":{"android":"levelo://app?vid=c32d92b6-7ce5-4d09-bf38-7781f66ad1d1","ios":"levelo://app?vid=c32d92b6-7ce5-4d09-bf38-7781f66ad1d1"},"vehicle_type_id":"4","last_reported":1727809616,"current_range_meters":8400,"station_id":"ce4bhkp2rcd13ifvqgd0","pricing_plan_id":"cebpf4jnsgd1na2vs0mg"},{"bike_id":"e08af445-c3b0-417c-917e-8d2bc8ea400e","system_id":"levelo_inurba_marseille","lat":43.29199,"lon":5.393226,"is_reserved":false,"is_disabled":false,"rental_uris":{"android":"levelo://app?vid=e08af445-c3b0-417c-917e-8d2bc8ea400e","ios":"levelo://app?vid=e08af445-c3b0-417c-917e-8d2bc8ea400e"},"vehicle_type_id":"4","last_reported":1727809616,"current_range_meters":38400,"station_id":"ce4bh192rcd13ifvqdd0","pricing_plan_id":"cebpf4jnsgd1na2vs0mg"},{"bike_id":"271633d5-a713-486a-bb2e-a429d752254f","system_id":"levelo_inurba_marseille","lat":43.2926,"lon":5.38436,"is_reserved":false,"is_disabled":false,"rental_uris":{"android":"levelo://app?vid=271633d5-a713-486a-bb2e-a429d752254f","ios":"levelo://app?vid=271633d5-a713-486a-bb2e-a429d752254f"},"vehicle_type_id":"4","last_reported":1727809616,"current_range_meters":20000,"station_id":"ce4bh692rcd13ifvqea0","pricing_plan_id":"cebpf4jnsgd1na2vs0mg"},{"bike_id":"cc07bd96-c001-4cad-b8d8-6c83fdb27706","system_id":"levelo_inurba_marseille","lat":43.27994,"lon":5.40014,"is_reserved":false,"is_disabled":false,"rental_uris":{"android":"levelo://app?vid=cc07bd96-c001-4cad-b8d8-6c83fdb27706","ios":"levelo://app?vid=cc07bd96-c001-4cad-b8d8-6c83fdb27706"},"vehicle_type_id":"4","last_reported":1727809616,"current_range_meters":16400,"station_id":"ce4bho92rcd13ifvqh4g","pricing_plan_id":"cebpf4jnsgd1na2vs0mg"},{"bike_id":"5805b4f5-b7c4-49cb-a46c-5267733fcd97","system_id":"levelo_inurba_marseille","lat":43.28005,"lon":5.4001,"is_reserved":false,"is_disabled":false,"rental_uris":{"android":"levelo://app?vid=5805b4f5-b7c4-49cb-a46c-5267733fcd97","ios":"levelo://app?vid=5805b4f5-b7c4-49cb-a46c-5267733fcd97"},"vehicle_type_id":"4","last_reported":1727809616,"current_range_meters":34000,"station_id":"ce4bho92rcd13ifvqh4g","pricing_plan_id":"cebpf4jnsgd1na2vs0mg"},{"bike_id":"dcffcb79-9050-4869-9a2e-f9afc4235967","system_id":"levelo_inurba_marseille","lat":43.3133,"lon":5.39693,"is_reserved":false,"is_disabled":false,"rental_uris":{"android":"levelo://app?vid=dcffcb79-9050-4869-9a2e-f9afc4235967","ios":"levelo://app?vid=dcffcb79-9050-4869-9a2e-f9afc4235967"},"vehicle_type_id":"4","last_reported":1727809616,"current_range_meters":34000,"station_id":"ce4bgvp2rcd13ifvqcu0","pricing_plan_id":"cebpf4jnsgd1na2vs0mg"},{"bike_id":"2b3cba80-980e-45c6-af09-5c9975ad2ab1","system_id":"levelo_inurba_marseille","lat":43.30132,"lon":5.39865,"is_reserved":false,"is_disabled":false,"rental_uris":{"android":"levelo://app?vid=2b3cba80-980e-45c6-af09-5c9975ad2ab1","ios":"levelo://app?vid=2b3cba80-980e-45c6-af09-5c9975ad2ab1"},"vehicle_type_id":"4","last_reported":1727809616,"current_range_meters":30400,"station_id":"ce4bh0h2rcd13ifvqd40","pricing_plan_id":"cebpf4jnsgd1na2vs0mg"},{"bike_id":"a2c17efe-a385-4232-8dec-4a5f5de49af6","system_id":"levelo_inurba_marseille","lat":43.27668,"lon":5.38903,"is_reserved":false,"is_disabled":false,"rental_uris":{"android":"levelo://app?vid=a2c17efe-a385-4232-8dec-4a5f5de49af6","ios":"levelo://app?vid=a2c17efe-a385-4232-8dec-4a5f5de49af6"},"vehicle_type_id":"4","last_reported":1727809616,"current_range_meters":4800,"station_id":"ce4bhi12rcd13ifvqfo0","pricing_plan_id":"cebpf4jnsgd1na2vs0mg"},{"bike_id":"8884666a-6177-4a7b-b0cb-8adad2eb0450","system_id":"levelo_inurba_marseille","lat":43.292511,"lon":5.384397,"is_reserved":false,"is_disabled":false,"rental_uris":{"android":"levelo://app?vid=8884666a-6177-4a7b-b0cb-8adad2eb0450","ios":"levelo://app?vid=8884666a-6177-4a7b-b0cb-8adad2eb0450"},"vehicle_type_id":"4","last_reported":1727809616,"current_range_meters":28400,"station_id":"ce4bgqh2rcd13ifvqc4g","pricing_plan_id":"cebpf4jnsgd1na2vs0mg"},{"bike_id":"d616de3c-fdcc-449b-aaab-950f4c46fdd3","system_id":"levelo_inurba_marseille","lat":43.32107,"lon":5.36782,"is_reserved":false,"is_disabled":false,"rental_uris":{"android":"levelo://app?vid=d616de3c-fdcc-449b-aaab-950f4c46fdd3","ios":"levelo://app?vid=d616de3c-fdcc-449b-aaab-950f4c46fdd3"},"vehicle_type_id":"4","last_reported":1727809616,"current_range_meters":12000,"station_id":"ce4bhrh2rcd13ifvqhug","pricing_plan_id":"cebpf4jnsgd1na2vs0mg"},{"bike_id":"9b3928c5-abc0-44e6-a77c-1a525abff7a7","system_id":"levelo_inurba_marseille","lat":43.30323,"lon":5.4045,"is_reserved":false,"is_disabled":false,"rental_uris":{"android":"levelo://app?vid=9b3928c5-abc0-44e6-a77c-1a525abff7a7","ios":"levelo://app?vid=9b3928c5-abc0-44e6-a77c-1a525abff7a7"},"vehicle_type_id":"4","last_reported":1727809616,"current_range_meters":38800,"station_id":"ce4bh012rcd13ifvqd10","pricing_plan_id":"cebpf4jnsgd1na2vs0mg"},{"bike_id":"57ce1f67-5421-4a7a-9fe7-c0ce29d69433","system_id":"levelo_inurba_marseille","lat":43.28474,"lon":5.38411,"is_reserved":false,"is_disabled":false,"rental_uris":{"android":"levelo://app?vid=57ce1f67-5421-4a7a-9fe7-c0ce29d69433","ios":"levelo://app?vid=57ce1f67-5421-4a7a-9fe7-c0ce29d69433"},"vehicle_type_id":"4","last_reported":1727809616,"current_range_meters":38800,"station_id":"ce4bh512rcd13ifvqe3g","pricing_plan_id":"cebpf4jnsgd1na2vs0mg"},{"bike_id":"36745552-19f0-408c-a494-b45848bc9c3f","system_id":"levelo_inurba_marseille","lat":43.29047,"lon":5.3995,"is_reserved":false,"is_disabled":false,"rental_uris":{"android":"levelo://app?vid=36745552-19f0-408c-a494-b45848bc9c3f","ios":"levelo://app?vid=36745552-19f0-408c-a494-b45848bc9c3f"},"vehicle_type_id":"4","last_reported":1727809616,"current_range_meters":10000,"station_id":"ce4bh392rcd13ifvqdm0","pricing_plan_id":"cebpf4jnsgd1na2vs0mg"},{"bike_id":"d9935980-1a1e-417b-9dde-bc0953e2ec18","system_id":"levelo_inurba_marseille","lat":43.24809,"lon":5.37459,"is_reserved":false,"is_disabled":false,"rental_uris":{"android":"levelo://app?vid=d9935980-1a1e-417b-9dde-bc0953e2ec18","ios":"levelo://app?vid=d9935980-1a1e-417b-9dde-bc0953e2ec18"},"vehicle_type_id":"4","last_reported":1727809616,"current_range_meters":8400,"station_id":"ce4bhjp2rcd13ifvqg90","pricing_plan_id":"cebpf4jnsgd1na2vs0mg"},{"bike_id":"c87cbcf6-5323-4613-b4d0-9266fc83505c","system_id":"levelo_inurba_marseille","lat":43.27804,"lon":5.40728,"is_reserved":false,"is_disabled":false,"rental_uris":{"android":"levelo://app?vid=c87cbcf6-5323-4613-b4d0-9266fc83505c","ios":"levelo://app?vid=c87cbcf6-5323-4613-b4d0-9266fc83505c"},"vehicle_type_id":"4","last_reported":1727809616,"current_range_meters":18000,"station_id":"ce4bhnh2rcd13ifvqgtg","pricing_plan_id":"cebpf4jnsgd1na2vs0mg"},{"bike_id":"7ceac49f-bc33-42d2-879a-e265db9cf0ee","system_id":"levelo_inurba_marseille","lat":43.28708,"lon":5.39982,"is_reserved":false,"is_disabled":false,"rental_uris":{"android":"levelo://app?vid=7ceac49f-bc33-42d2-879a-e265db9cf0ee","ios":"levelo://app?vid=7ceac49f-bc33-42d2-879a-e265db9cf0ee"},"vehicle_type_id":"4","last_reported":1727809616,"current_range_meters":8000,"station_id":"ce4bho92rcd13ifvqh3g","pricing_plan_id":"cebpf4jnsgd1na2vs0mg"},{"bike_id":"5202a5ee-0c79-4ce1-9250-f50282b4385e","system_id":"levelo_inurba_marseille","lat":43.2418,"lon":5.39742,"is_reserved":false,"is_disabled":false,"rental_uris":{"android":"levelo://app?vid=5202a5ee-0c79-4ce1-9250-f50282b4385e","ios":"levelo://app?vid=5202a5ee-0c79-4ce1-9250-f50282b4385e"},"vehicle_type_id":"4","last_reported":1727809616,"current_range_meters":14800,"station_id":"ce4bhn12rcd13ifvqgpg","pricing_plan_id":"cebpf4jnsgd1na2vs0mg"},{"bike_id":"609844d3-402e-4c83-8b7f-d2093120cb67","system_id":"levelo_inurba_marseille","lat":43.32539,"lon":5.41455,"is_reserved":false,"is_disabled":false,"rental_uris":{"android":"levelo://app?vid=609844d3-402e-4c83-8b7f-d2093120cb67","ios":"levelo://app?vid=609844d3-402e-4c83-8b7f-d2093120cb67"},"vehicle_type_id":"4","last_reported":1727809616,"current_range_meters":38000,"station_id":"ce4bhq12rcd13ifvqhhg","pricing_plan_id":"cebpf4jnsgd1na2vs0mg"},{"bike_id":"c1645d45-545a-4e30-8150-1fefbb49ec13","system_id":"levelo_inurba_marseille","lat":43.2937,"lon":5.37852,"is_reserved":false,"is_disabled":false,"rental_uris":{"android":"levelo://app?vid=c1645d45-545a-4e30-8150-1fefbb49ec13","ios":"levelo://app?vid=c1645d45-545a-4e30-8150-1fefbb49ec13"},"vehicle_type_id":"4","last_reported":1727809616,"current_range_meters":14000,"station_id":"ce4bgjh2rcd13ifvqbf0","pricing_plan_id":"cebpf4jnsgd1na2vs0mg"},{"bike_id":"4f25ac2d-0308-439f-aeed-3522acdf667e","system_id":"levelo_inurba_marseille","lat":43.299,"lon":5.43664,"is_reserved":false,"is_disabled":false,"rental_uris":{"android":"levelo://app?vid=4f25ac2d-0308-439f-aeed-3522acdf667e","ios":"levelo://app?vid=4f25ac2d-0308-439f-aeed-3522acdf667e"},"vehicle_type_id":"4","last_reported":1727809616,"current_range_meters":17600,"station_id":"ce4bhpp2rcd13ifvqhfg","pricing_plan_id":"cebpf4jnsgd1na2vs0mg"},{"bike_id":"2efe889c-d7f9-441d-afae-d38011cb4d35","system_id":"levelo_inurba_marseille","lat":43.28464,"lon":5.35889,"is_reserved":false,"is_disabled":false,"rental_uris":{"android":"levelo://app?vid=2efe889c-d7f9-441d-afae-d38011cb4d35","ios":"levelo://app?vid=2efe889c-d7f9-441d-afae-d38011cb4d35"},"vehicle_type_id":"4","last_reported":1727809616,"current_range_meters":38800,"station_id":"ce4bhah2rcd13ifvqei0","pricing_plan_id":"cebpf4jnsgd1na2vs0mg"},{"bike_id":"792ca888-d2c3-418b-8a3b-5bdb3017b5e6","system_id":"levelo_inurba_marseille","lat":43.25576,"lon":5.38223,"is_reserved":false,"is_disabled":false,"rental_uris":{"android":"levelo://app?vid=792ca888-d2c3-418b-8a3b-5bdb3017b5e6","ios":"levelo://app?vid=792ca888-d2c3-418b-8a3b-5bdb3017b5e6"},"vehicle_type_id":"4","last_reported":1727809616,"current_range_meters":2000,"station_id":"ce4bhih2rcd13ifvqfs0","pricing_plan_id":"cebpf4jnsgd1na2vs0mg"},{"bike_id":"c52d3422-a019-4b1b-ad42-4a8126945c79","system_id":"levelo_inurba_marseille","lat":43.30797,"lon":5.38142,"is_reserved":false,"is_disabled":false,"rental_uris":{"android":"levelo://app?vid=c52d3422-a019-4b1b-ad42-4a8126945c79","ios":"levelo://app?vid=c52d3422-a019-4b1b-ad42-4a8126945c79"},"vehicle_type_id":"4","last_reported":1727809616,"current_range_meters":24000,"station_id":"ce4bgt12rcd13ifvqce0","pricing_plan_id":"cebpf4jnsgd1na2vs0mg"},{"bike_id":"dd6278a9-2159-4635-ac87-f4b2a08a8f6d","system_id":"levelo_inurba_marseille","lat":43.29255,"lon":5.38447,"is_reserved":false,"is_disabled":false,"rental_uris":{"android":"levelo://app?vid=dd6278a9-2159-4635-ac87-f4b2a08a8f6d","ios":"levelo://app?vid=dd6278a9-2159-4635-ac87-f4b2a08a8f6d"},"vehicle_type_id":"4","last_reported":1727809616,"current_range_meters":2800,"station_id":"ce4bh692rcd13ifvqea0","pricing_plan_id":"cebpf4jnsgd1na2vs0mg"},{"bike_id":"26d718c7-9f7d-4c2c-82a6-84e58e5afac1","system_id":"levelo_inurba_marseille","lat":43.24079,"lon":5.37759,"is_reserved":false,"is_disabled":false,"rental_uris":{"android":"levelo://app?vid=26d718c7-9f7d-4c2c-82a6-84e58e5afac1","ios":"levelo://app?vid=26d718c7-9f7d-4c2c-82a6-84e58e5afac1"},"vehicle_type_id":"4","last_reported":1727809616,"current_range_meters":12400,"station_id":"ce4bhnp2rcd13ifvqgvg","pricing_plan_id":"cebpf4jnsgd1na2vs0mg"},{"bike_id":"de1e7b09-ca4b-4b48-a3fd-23a534e7333f","system_id":"levelo_inurba_marseille","lat":43.31752,"lon":5.39024,"is_reserved":false,"is_disabled":false,"rental_uris":{"android":"levelo://app?vid=de1e7b09-ca4b-4b48-a3fd-23a534e7333f","ios":"levelo://app?vid=de1e7b09-ca4b-4b48-a3fd-23a534e7333f"},"vehicle_type_id":"4","last_reported":1727809616,"current_range_meters":38800,"station_id":"ce4bhqp2rcd13ifvqhng","pricing_plan_id":"cebpf4jnsgd1na2vs0mg"},{"bike_id":"a61f1737-47c3-4b11-8bb6-8ef91d66c567","system_id":"levelo_inurba_marseille","lat":43.29531,"lon":5.38548,"is_reserved":false,"is_disabled":false,"rental_uris":{"android":"levelo://app?vid=a61f1737-47c3-4b11-8bb6-8ef91d66c567","ios":"levelo://app?vid=a61f1737-47c3-4b11-8bb6-8ef91d66c567"},"vehicle_type_id":"4","last_reported":1727809616,"current_range_meters":16800,"station_id":"ce4bgih2rcd13ifvqba0","pricing_plan_id":"cebpf4jnsgd1na2vs0mg"},{"bike_id":"2ae79f09-d280-47e8-864e-c5ffdd4f6c88","system_id":"levelo_inurba_marseille","lat":43.28573,"lon":5.395,"is_reserved":false,"is_disabled":false,"rental_uris":{"android":"levelo://app?vid=2ae79f09-d280-47e8-864e-c5ffdd4f6c88","ios":"levelo://app?vid=2ae79f09-d280-47e8-864e-c5ffdd4f6c88"},"vehicle_type_id":"4","last_reported":1727809616,"current_range_meters":24000,"station_id":"ce4bh292rcd13ifvqdg0","pricing_plan_id":"cebpf4jnsgd1na2vs0mg"},{"bike_id":"e39cd6f1-548c-400d-9f96-bf8b0c294a2d","system_id":"levelo_inurba_marseille","lat":43.24075,"lon":5.37751,"is_reserved":false,"is_disabled":false,"rental_uris":{"android":"levelo://app?vid=e39cd6f1-548c-400d-9f96-bf8b0c294a2d","ios":"levelo://app?vid=e39cd6f1-548c-400d-9f96-bf8b0c294a2d"},"vehicle_type_id":"4","last_reported":1727809616,"current_range_meters":11200,"station_id":"ce4bhnp2rcd13ifvqgvg","pricing_plan_id":"cebpf4jnsgd1na2vs0mg"},{"bike_id":"a7382c38-586b-4b5c-8530-e1282870af04","system_id":"levelo_inurba_marseille","lat":43.23167,"lon":5.39995,"is_reserved":false,"is_disabled":false,"rental_uris":{"android":"levelo://app?vid=a7382c38-586b-4b5c-8530-e1282870af04","ios":"levelo://app?vid=a7382c38-586b-4b5c-8530-e1282870af04"},"vehicle_type_id":"4","last_reported":1727809616,"current_range_meters":29600,"station_id":"ce4bhn12rcd13ifvqgqg","pricing_plan_id":"cebpf4jnsgd1na2vs0mg"},{"bike_id":"f8f518e3-bd48-40f5-801a-4ead88758ee2","system_id":"levelo_inurba_marseille","lat":43.32116,"lon":5.36773,"is_reserved":false,"is_disabled":false,"rental_uris":{"android":"levelo://app?vid=f8f518e3-bd48-40f5-801a-4ead88758ee2","ios":"levelo://app?vid=f8f518e3-bd48-40f5-801a-4ead88758ee2"},"vehicle_type_id":"4","last_reported":1727809616,"current_range_meters":13600,"station_id":"ce4bhrh2rcd13ifvqhug","pricing_plan_id":"cebpf4jnsgd1na2vs0mg"},{"bike_id":"eb2f3e81-5bc0-40a6-b7d0-df45f91bb71c","system_id":"levelo_inurba_marseille","lat":43.27989,"lon":5.40015,"is_reserved":false,"is_disabled":false,"rental_uris":{"android":"levelo://app?vid=eb2f3e81-5bc0-40a6-b7d0-df45f91bb71c","ios":"levelo://app?vid=eb2f3e81-5bc0-40a6-b7d0-df45f91bb71c"},"vehicle_type_id":"4","last_reported":1727809616,"current_range_meters":19600,"station_id":"ce4bho92rcd13ifvqh4g","pricing_plan_id":"cebpf4jnsgd1na2vs0mg"},{"bike_id":"fcb6e2fa-bddc-471a-a752-78d06c986bba","system_id":"levelo_inurba_marseille","lat":43.29098,"lon":5.38107,"is_reserved":false,"is_disabled":false,"rental_uris":{"android":"levelo://app?vid=fcb6e2fa-bddc-471a-a752-78d06c986bba","ios":"levelo://app?vid=fcb6e2fa-bddc-471a-a752-78d06c986bba"},"vehicle_type_id":"4","last_reported":1727809616,"current_range_meters":39200,"station_id":"ce4bh512rcd13ifvqe2g","pricing_plan_id":"cebpf4jnsgd1na2vs0mg"},{"bike_id":"0cae34fa-1db9-45b3-875f-66e7602a49ac","system_id":"levelo_inurba_marseille","lat":43.30258,"lon":5.40073,"is_reserved":false,"is_disabled":false,"rental_uris":{"android":"levelo://app?vid=0cae34fa-1db9-45b3-875f-66e7602a49ac","ios":"levelo://app?vid=0cae34fa-1db9-45b3-875f-66e7602a49ac"},"vehicle_type_id":"4","last_reported":1727809616,"current_range_meters":5600,"station_id":"ce4bgvh2rcd13ifvqcs0","pricing_plan_id":"cebpf4jnsgd1na2vs0mg"},{"bike_id":"f0cde73e-7a23-4658-949c-057962d03ded","system_id":"levelo_inurba_marseille","lat":43.30545,"lon":5.38424,"is_reserved":false,"is_disabled":false,"rental_uris":{"android":"levelo://app?vid=f0cde73e-7a23-4658-949c-057962d03ded","ios":"levelo://app?vid=f0cde73e-7a23-4658-949c-057962d03ded"},"vehicle_type_id":"4","last_reported":1727809616,"current_range_meters":8400,"station_id":"ce4bgg92rcd13ifvqb30","pricing_plan_id":"cebpf4jnsgd1na2vs0mg"},{"bike_id":"dc03e946-be64-435d-a6e2-304d0c9f3ef5","system_id":"levelo_inurba_marseille","lat":43.31531,"lon":5.38029,"is_reserved":false,"is_disabled":false,"rental_uris":{"android":"levelo://app?vid=dc03e946-be64-435d-a6e2-304d0c9f3ef5","ios":"levelo://app?vid=dc03e946-be64-435d-a6e2-304d0c9f3ef5"},"vehicle_type_id":"4","last_reported":1727809616,"current_range_meters":38800,"station_id":"ce4bhsp2rcd13ifvqi50","pricing_plan_id":"cebpf4jnsgd1na2vs0mg"},{"bike_id":"c272a279-90ee-4bfb-9ffd-5998d51b43da","system_id":"levelo_inurba_marseille","lat":43.25577,"lon":5.38235,"is_reserved":false,"is_disabled":false,"rental_uris":{"android":"levelo://app?vid=c272a279-90ee-4bfb-9ffd-5998d51b43da","ios":"levelo://app?vid=c272a279-90ee-4bfb-9ffd-5998d51b43da"},"vehicle_type_id":"4","last_reported":1727809616,"current_range_meters":14800,"station_id":"ce4bhih2rcd13ifvqfs0","pricing_plan_id":"cebpf4jnsgd1na2vs0mg"},{"bike_id":"d995d233-d2fe-4db9-b69b-baa1337469bf","system_id":"levelo_inurba_marseille","lat":43.26747,"lon":5.40249,"is_reserved":false,"is_disabled":false,"rental_uris":{"android":"levelo://app?vid=d995d233-d2fe-4db9-b69b-baa1337469bf","ios":"levelo://app?vid=d995d233-d2fe-4db9-b69b-baa1337469bf"},"vehicle_type_id":"4","last_reported":1727809616,"current_range_meters":12400,"station_id":"ce4bhm92rcd13ifvqglg","pricing_plan_id":"cebpf4jnsgd1na2vs0mg"},{"bike_id":"3ddf769c-c1f4-4c07-a643-d89d6207fa69","system_id":"levelo_inurba_marseille","lat":43.266907,"lon":5.382808,"is_reserved":false,"is_disabled":false,"rental_uris":{"android":"levelo://app?vid=3ddf769c-c1f4-4c07-a643-d89d6207fa69","ios":"levelo://app?vid=3ddf769c-c1f4-4c07-a643-d89d6207fa69"},"vehicle_type_id":"4","last_reported":1727809616,"current_range_meters":36800,"station_id":"ce4bhg92rcd13ifvqf90","pricing_plan_id":"cebpf4jnsgd1na2vs0mg"},{"bike_id":"c5b8e549-bb22-449a-ad51-48c4a36bbb88","system_id":"levelo_inurba_marseille","lat":43.316908,"lon":5.376544,"is_reserved":false,"is_disabled":false,"rental_uris":{"android":"levelo://app?vid=c5b8e549-bb22-449a-ad51-48c4a36bbb88","ios":"levelo://app?vid=c5b8e549-bb22-449a-ad51-48c4a36bbb88"},"vehicle_type_id":"4","last_reported":1727809616,"current_range_meters":17200,"station_id":"ce4bguh2rcd13ifvqcj0","pricing_plan_id":"cebpf4jnsgd1na2vs0mg"},{"bike_id":"694a2003-b864-4c5d-9f59-24f2c76b0986","system_id":"levelo_inurba_marseille","lat":43.30236,"lon":5.40067,"is_reserved":false,"is_disabled":false,"rental_uris":{"android":"levelo://app?vid=694a2003-b864-4c5d-9f59-24f2c76b0986","ios":"levelo://app?vid=694a2003-b864-4c5d-9f59-24f2c76b0986"},"vehicle_type_id":"4","last_reported":1727809616,"current_range_meters":4000,"station_id":"ce4bgvh2rcd13ifvqcs0","pricing_plan_id":"cebpf4jnsgd1na2vs0mg"},{"bike_id":"03e02804-3d03-44ab-8848-f2ea6f99a3bb","system_id":"levelo_inurba_marseille","lat":43.28656,"lon":5.36353,"is_reserved":false,"is_disabled":false,"rental_uris":{"android":"levelo://app?vid=03e02804-3d03-44ab-8848-f2ea6f99a3bb","ios":"levelo://app?vid=03e02804-3d03-44ab-8848-f2ea6f99a3bb"},"vehicle_type_id":"4","last_reported":1727809616,"current_range_meters":20800,"station_id":"ce4bhah2rcd13ifvqej0","pricing_plan_id":"cebpf4jnsgd1na2vs0mg"},{"bike_id":"1e92b09a-83bd-434d-bc30-b1805b0d50c8","system_id":"levelo_inurba_marseille","lat":43.27994,"lon":5.40008,"is_reserved":false,"is_disabled":false,"rental_uris":{"android":"levelo://app?vid=1e92b09a-83bd-434d-bc30-b1805b0d50c8","ios":"levelo://app?vid=1e92b09a-83bd-434d-bc30-b1805b0d50c8"},"vehicle_type_id":"4","last_reported":1727809616,"current_range_meters":12800,"station_id":"ce4bho92rcd13ifvqh4g","pricing_plan_id":"cebpf4jnsgd1na2vs0mg"},{"bike_id":"c7102913-06d2-4186-bb76-c1bbe10cd03c","system_id":"levelo_inurba_marseille","lat":43.27999,"lon":5.40002,"is_reserved":false,"is_disabled":false,"rental_uris":{"android":"levelo://app?vid=c7102913-06d2-4186-bb76-c1bbe10cd03c","ios":"levelo://app?vid=c7102913-06d2-4186-bb76-c1bbe10cd03c"},"vehicle_type_id":"4","last_reported":1727809616,"current_range_meters":28400,"station_id":"ce4bho92rcd13ifvqh4g","pricing_plan_id":"cebpf4jnsgd1na2vs0mg"},{"bike_id":"b652f429-09b8-4697-9c1b-3b9adc3c55d8","system_id":"levelo_inurba_marseille","lat":43.26871,"lon":5.39135,"is_reserved":false,"is_disabled":false,"rental_uris":{"android":"levelo://app?vid=b652f429-09b8-4697-9c1b-3b9adc3c55d8","ios":"levelo://app?vid=b652f429-09b8-4697-9c1b-3b9adc3c55d8"},"vehicle_type_id":"4","last_reported":1727809616,"current_range_meters":6400,"station_id":"","pricing_plan_id":"cebpf4jnsgd1na2vs0mg"},{"bike_id":"61a947e1-a421-40aa-a820-d6e19a6f0fe4","system_id":"levelo_inurba_marseille","lat":43.31721,"lon":5.42404,"is_reserved":false,"is_disabled":false,"rental_uris":{"android":"levelo://app?vid=61a947e1-a421-40aa-a820-d6e19a6f0fe4","ios":"levelo://app?vid=61a947e1-a421-40aa-a820-d6e19a6f0fe4"},"vehicle_type_id":"4","last_reported":1727809616,"current_range_meters":26000,"station_id":"ce4bhp92rcd13ifvqhbg","pricing_plan_id":"cebpf4jnsgd1na2vs0mg"},{"bike_id":"37623181-9101-4c73-bb6a-5aa8fec97674","system_id":"levelo_inurba_marseille","lat":43.28417,"lon":5.37516,"is_reserved":false,"is_disabled":false,"rental_uris":{"android":"levelo://app?vid=37623181-9101-4c73-bb6a-5aa8fec97674","ios":"levelo://app?vid=37623181-9101-4c73-bb6a-5aa8fec97674"},"vehicle_type_id":"4","last_reported":1727809616,"current_range_meters":9200,"station_id":"ce4bhah2rcd13ifvqei0","pricing_plan_id":"cebpf4jnsgd1na2vs0mg"},{"bike_id":"1cbb5b9f-27fd-4647-944e-96013dabaee7","system_id":"levelo_inurba_marseille","lat":43.31756,"lon":5.39015,"is_reserved":false,"is_disabled":false,"rental_uris":{"android":"levelo://app?vid=1cbb5b9f-27fd-4647-944e-96013dabaee7","ios":"levelo://app?vid=1cbb5b9f-27fd-4647-944e-96013dabaee7"},"vehicle_type_id":"4","last_reported":1727809616,"current_range_meters":38800,"station_id":"ce4bhqp2rcd13ifvqhng","pricing_plan_id":"cebpf4jnsgd1na2vs0mg"},{"bike_id":"cc334f47-266c-4194-bd67-059ec0658e9f","system_id":"levelo_inurba_marseille","lat":43.31267,"lon":5.40185,"is_reserved":false,"is_disabled":false,"rental_uris":{"android":"levelo://app?vid=cc334f47-266c-4194-bd67-059ec0658e9f","ios":"levelo://app?vid=cc334f47-266c-4194-bd67-059ec0658e9f"},"vehicle_type_id":"4","last_reported":1727809616,"current_range_meters":17600,"station_id":"ce4bh092rcd13ifvqd30","pricing_plan_id":"cebpf4jnsgd1na2vs0mg"},{"bike_id":"43ec8304-b11c-44d9-9f47-bc865890f14a","system_id":"levelo_inurba_marseille","lat":43.25088,"lon":5.3951,"is_reserved":false,"is_disabled":false,"rental_uris":{"android":"levelo://app?vid=43ec8304-b11c-44d9-9f47-bc865890f14a","ios":"levelo://app?vid=43ec8304-b11c-44d9-9f47-bc865890f14a"},"vehicle_type_id":"4","last_reported":1727809616,"current_range_meters":16000,"station_id":"ce4bhm12rcd13ifvqgkg","pricing_plan_id":"cebpf4jnsgd1na2vs0mg"},{"bike_id":"83bc7ecd-4926-4ad0-ba7f-2ba6c976eeb2","system_id":"levelo_inurba_marseille","lat":43.30496,"lon":5.3802,"is_reserved":false,"is_disabled":false,"rental_uris":{"android":"levelo://app?vid=83bc7ecd-4926-4ad0-ba7f-2ba6c976eeb2","ios":"levelo://app?vid=83bc7ecd-4926-4ad0-ba7f-2ba6c976eeb2"},"vehicle_type_id":"4","last_reported":1727809616,"current_range_meters":20000,"station_id":"ce4bgg92rcd13ifvqb30","pricing_plan_id":"cebpf4jnsgd1na2vs0mg"},{"bike_id":"0648bb6d-fc4d-47d0-a540-1fdb4578e7d0","system_id":"levelo_inurba_marseille","lat":43.309326,"lon":5.401586,"is_reserved":false,"is_disabled":false,"rental_uris":{"android":"levelo://app?vid=0648bb6d-fc4d-47d0-a540-1fdb4578e7d0","ios":"levelo://app?vid=0648bb6d-fc4d-47d0-a540-1fdb4578e7d0"},"vehicle_type_id":"4","last_reported":1727809616,"current_range_meters":33600,"station_id":"ce4bhq92rcd13ifvqhjg","pricing_plan_id":"cebpf4jnsgd1na2vs0mg"},{"bike_id":"08926519-111d-4e88-a5da-c72e53ee7b9f","system_id":"levelo_inurba_marseille","lat":43.29172,"lon":5.37157,"is_reserved":false,"is_disabled":false,"rental_uris":{"android":"levelo://app?vid=08926519-111d-4e88-a5da-c72e53ee7b9f","ios":"levelo://app?vid=08926519-111d-4e88-a5da-c72e53ee7b9f"},"vehicle_type_id":"4","last_reported":1727809616,"current_range_meters":20000,"station_id":"ce4bha92rcd13ifvqeh0","pricing_plan_id":"cebpf4jnsgd1na2vs0mg"},{"bike_id":"55685846-82b1-45c7-9fb0-70b5c72764fe","system_id":"levelo_inurba_marseille","lat":43.30911,"lon":5.36857,"is_reserved":false,"is_disabled":false,"rental_uris":{"android":"levelo://app?vid=55685846-82b1-45c7-9fb0-70b5c72764fe","ios":"levelo://app?vid=55685846-82b1-45c7-9fb0-70b5c72764fe"},"vehicle_type_id":"4","last_reported":1727809616,"current_range_meters":38800,"station_id":"ce4bgn92rcd13ifvqbvg","pricing_plan_id":"cebpf4jnsgd1na2vs0mg"},{"bike_id":"66fca013-aa6a-46fd-aa76-1d7e3011dba3","system_id":"levelo_inurba_marseille","lat":43.31713,"lon":5.43706,"is_reserved":false,"is_disabled":false,"rental_uris":{"android":"levelo://app?vid=66fca013-aa6a-46fd-aa76-1d7e3011dba3","ios":"levelo://app?vid=66fca013-aa6a-46fd-aa76-1d7e3011dba3"},"vehicle_type_id":"4","last_reported":1727809616,"current_range_meters":7200,"station_id":"ce4bhp92rcd13ifvqhcg","pricing_plan_id":"cebpf4jnsgd1na2vs0mg"},{"bike_id":"a99cfa16-6a26-4d46-b42a-b7e04be52efa","system_id":"levelo_inurba_marseille","lat":43.29039,"lon":5.39969,"is_reserved":false,"is_disabled":false,"rental_uris":{"android":"levelo://app?vid=a99cfa16-6a26-4d46-b42a-b7e04be52efa","ios":"levelo://app?vid=a99cfa16-6a26-4d46-b42a-b7e04be52efa"},"vehicle_type_id":"4","last_reported":1727809616,"current_range_meters":28000,"station_id":"ce4bh392rcd13ifvqdm0","pricing_plan_id":"cebpf4jnsgd1na2vs0mg"},{"bike_id":"c65dd9e4-f26f-413e-b094-7809b55e35e2","system_id":"levelo_inurba_marseille","lat":43.26509,"lon":5.39547,"is_reserved":false,"is_disabled":false,"rental_uris":{"android":"levelo://app?vid=c65dd9e4-f26f-413e-b094-7809b55e35e2","ios":"levelo://app?vid=c65dd9e4-f26f-413e-b094-7809b55e35e2"},"vehicle_type_id":"4","last_reported":1727809616,"current_range_meters":25200,"station_id":"","pricing_plan_id":"cebpf4jnsgd1na2vs0mg"},{"bike_id":"89b9dfd5-0dc9-4197-bb8d-be7f07ee51ff","system_id":"levelo_inurba_marseille","lat":43.31532,"lon":5.3803,"is_reserved":false,"is_disabled":false,"rental_uris":{"android":"levelo://app?vid=89b9dfd5-0dc9-4197-bb8d-be7f07ee51ff","ios":"levelo://app?vid=89b9dfd5-0dc9-4197-bb8d-be7f07ee51ff"},"vehicle_type_id":"4","last_reported":1727809616,"current_range_meters":24800,"station_id":"ce4bhsp2rcd13ifvqi50","pricing_plan_id":"cebpf4jnsgd1na2vs0mg"},{"bike_id":"2e6db03b-89d0-4b7f-9255-d4415cec9b74","system_id":"levelo_inurba_marseille","lat":43.25084,"lon":5.39516,"is_reserved":false,"is_disabled":false,"rental_uris":{"android":"levelo://app?vid=2e6db03b-89d0-4b7f-9255-d4415cec9b74","ios":"levelo://app?vid=2e6db03b-89d0-4b7f-9255-d4415cec9b74"},"vehicle_type_id":"4","last_reported":1727809616,"current_range_meters":3200,"station_id":"ce4bhm12rcd13ifvqgkg","pricing_plan_id":"cebpf4jnsgd1na2vs0mg"},{"bike_id":"4158dfa0-734d-4050-bbb4-c1d838b33c7b","system_id":"levelo_inurba_marseille","lat":43.25574,"lon":5.38236,"is_reserved":false,"is_disabled":false,"rental_uris":{"android":"levelo://app?vid=4158dfa0-734d-4050-bbb4-c1d838b33c7b","ios":"levelo://app?vid=4158dfa0-734d-4050-bbb4-c1d838b33c7b"},"vehicle_type_id":"4","last_reported":1727809616,"current_range_meters":6800,"station_id":"ce4bhih2rcd13ifvqfs0","pricing_plan_id":"cebpf4jnsgd1na2vs0mg"},{"bike_id":"e47d8b5f-6f7d-401a-8617-51b7d9b65561","system_id":"levelo_inurba_marseille","lat":43.32216,"lon":5.38767,"is_reserved":false,"is_disabled":false,"rental_uris":{"android":"levelo://app?vid=e47d8b5f-6f7d-401a-8617-51b7d9b65561","ios":"levelo://app?vid=e47d8b5f-6f7d-401a-8617-51b7d9b65561"},"vehicle_type_id":"4","last_reported":1727809616,"current_range_meters":16000,"station_id":"","pricing_plan_id":"cebpf4jnsgd1na2vs0mg"},{"bike_id":"6ff016f9-d31d-4e50-9002-5dee01876d27","system_id":"levelo_inurba_marseille","lat":43.31331,"lon":5.39692,"is_reserved":false,"is_disabled":false,"rental_uris":{"android":"levelo://app?vid=6ff016f9-d31d-4e50-9002-5dee01876d27","ios":"levelo://app?vid=6ff016f9-d31d-4e50-9002-5dee01876d27"},"vehicle_type_id":"4","last_reported":1727809616,"current_range_meters":16400,"station_id":"ce4bgvp2rcd13ifvqcu0","pricing_plan_id":"cebpf4jnsgd1na2vs0mg"},{"bike_id":"0fc4c247-8b03-4bc7-b720-372a02098457","system_id":"levelo_inurba_marseille","lat":43.29259,"lon":5.38442,"is_reserved":false,"is_disabled":false,"rental_uris":{"android":"levelo://app?vid=0fc4c247-8b03-4bc7-b720-372a02098457","ios":"levelo://app?vid=0fc4c247-8b03-4bc7-b720-372a02098457"},"vehicle_type_id":"4","last_reported":1727809616,"current_range_meters":30400,"station_id":"ce4bh692rcd13ifvqea0","pricing_plan_id":"cebpf4jnsgd1na2vs0mg"},{"bike_id":"972f0298-3b6a-4a5a-9a88-2b3812e933f5","system_id":"levelo_inurba_marseille","lat":43.27931,"lon":5.39587,"is_reserved":false,"is_disabled":false,"rental_uris":{"android":"levelo://app?vid=972f0298-3b6a-4a5a-9a88-2b3812e933f5","ios":"levelo://app?vid=972f0298-3b6a-4a5a-9a88-2b3812e933f5"},"vehicle_type_id":"4","last_reported":1727809616,"current_range_meters":7200,"station_id":"ce4bhf92rcd13ifvqf40","pricing_plan_id":"cebpf4jnsgd1na2vs0mg"},{"bike_id":"cfba82ab-a56c-417d-9efb-36af76ceaa4b","system_id":"levelo_inurba_marseille","lat":43.29423,"lon":5.38627,"is_reserved":false,"is_disabled":false,"rental_uris":{"android":"levelo://app?vid=cfba82ab-a56c-417d-9efb-36af76ceaa4b","ios":"levelo://app?vid=cfba82ab-a56c-417d-9efb-36af76ceaa4b"},"vehicle_type_id":"4","last_reported":1727809616,"current_range_meters":35600,"station_id":"ce4bh2h2rcd13ifvqdh0","pricing_plan_id":"cebpf4jnsgd1na2vs0mg"},{"bike_id":"948d1db7-1a5c-4cc6-a010-f2853eff30d9","system_id":"levelo_inurba_marseille","lat":43.29994,"lon":5.38495,"is_reserved":false,"is_disabled":false,"rental_uris":{"android":"levelo://app?vid=948d1db7-1a5c-4cc6-a010-f2853eff30d9","ios":"levelo://app?vid=948d1db7-1a5c-4cc6-a010-f2853eff30d9"},"vehicle_type_id":"4","last_reported":1727809616,"current_range_meters":24000,"station_id":"ce4bgj92rcd13ifvqbd0","pricing_plan_id":"cebpf4jnsgd1na2vs0mg"},{"bike_id":"2909ce6b-0ead-469f-8eef-31f67245e4ba","system_id":"levelo_inurba_marseille","lat":43.29205,"lon":5.39315,"is_reserved":false,"is_disabled":false,"rental_uris":{"android":"levelo://app?vid=2909ce6b-0ead-469f-8eef-31f67245e4ba","ios":"levelo://app?vid=2909ce6b-0ead-469f-8eef-31f67245e4ba"},"vehicle_type_id":"4","last_reported":1727809616,"current_range_meters":32400,"station_id":"ce4bh192rcd13ifvqdd0","pricing_plan_id":"cebpf4jnsgd1na2vs0mg"},{"bike_id":"82c2475c-c35b-4b23-a470-b125ed8a5409","system_id":"levelo_inurba_marseille","lat":43.317169,"lon":5.436871,"is_reserved":false,"is_disabled":false,"rental_uris":{"android":"levelo://app?vid=82c2475c-c35b-4b23-a470-b125ed8a5409","ios":"levelo://app?vid=82c2475c-c35b-4b23-a470-b125ed8a5409"},"vehicle_type_id":"4","last_reported":1727809616,"current_range_meters":9600,"station_id":"ce4bhop2rcd13ifvqh7g","pricing_plan_id":"cebpf4jnsgd1na2vs0mg"},{"bike_id":"b407643d-0dae-49ac-b89c-8322071a6906","system_id":"levelo_inurba_marseille","lat":43.28853,"lon":5.39322,"is_reserved":false,"is_disabled":false,"rental_uris":{"android":"levelo://app?vid=b407643d-0dae-49ac-b89c-8322071a6906","ios":"levelo://app?vid=b407643d-0dae-49ac-b89c-8322071a6906"},"vehicle_type_id":"4","last_reported":1727809616,"current_range_meters":38800,"station_id":"ce4bh2p2rcd13ifvqdi0","pricing_plan_id":"cebpf4jnsgd1na2vs0mg"},{"bike_id":"556459c1-4fec-48bd-b923-cd562eb26411","system_id":"levelo_inurba_marseille","lat":43.322931,"lon":5.382559,"is_reserved":false,"is_disabled":false,"rental_uris":{"android":"levelo://app?vid=556459c1-4fec-48bd-b923-cd562eb26411","ios":"levelo://app?vid=556459c1-4fec-48bd-b923-cd562eb26411"},"vehicle_type_id":"4","last_reported":1727809616,"current_range_meters":38800,"station_id":"ce4bhr12rcd13ifvqhqg","pricing_plan_id":"cebpf4jnsgd1na2vs0mg"},{"bike_id":"1b0da400-df7f-46cf-a71b-f878e1e3bfe9","system_id":"levelo_inurba_marseille","lat":43.24071,"lon":5.37763,"is_reserved":false,"is_disabled":false,"rental_uris":{"android":"levelo://app?vid=1b0da400-df7f-46cf-a71b-f878e1e3bfe9","ios":"levelo://app?vid=1b0da400-df7f-46cf-a71b-f878e1e3bfe9"},"vehicle_type_id":"4","last_reported":1727809616,"current_range_meters":28800,"station_id":"ce4bhnp2rcd13ifvqgvg","pricing_plan_id":"cebpf4jnsgd1na2vs0mg"},{"bike_id":"6ee1c32f-2fd5-447d-a744-ecec795ff307","system_id":"levelo_inurba_marseille","lat":43.28846,"lon":5.39318,"is_reserved":false,"is_disabled":false,"rental_uris":{"android":"levelo://app?vid=6ee1c32f-2fd5-447d-a744-ecec795ff307","ios":"levelo://app?vid=6ee1c32f-2fd5-447d-a744-ecec795ff307"},"vehicle_type_id":"4","last_reported":1727809616,"current_range_meters":27600,"station_id":"ce4bh2p2rcd13ifvqdi0","pricing_plan_id":"cebpf4jnsgd1na2vs0mg"},{"bike_id":"aae274d4-174b-48df-8d7a-32f65846d636","system_id":"levelo_inurba_marseille","lat":43.27826,"lon":5.39213,"is_reserved":false,"is_disabled":false,"rental_uris":{"android":"levelo://app?vid=aae274d4-174b-48df-8d7a-32f65846d636","ios":"levelo://app?vid=aae274d4-174b-48df-8d7a-32f65846d636"},"vehicle_type_id":"4","last_reported":1727809616,"current_range_meters":20800,"station_id":"ce4bhjp2rcd13ifvqga0","pricing_plan_id":"cebpf4jnsgd1na2vs0mg"},{"bike_id":"0b1af6cf-e415-43a8-9c1f-e6f9562cdcc8","system_id":"levelo_inurba_marseille","lat":43.285522,"lon":5.358816,"is_reserved":false,"is_disabled":false,"rental_uris":{"android":"levelo://app?vid=0b1af6cf-e415-43a8-9c1f-e6f9562cdcc8","ios":"levelo://app?vid=0b1af6cf-e415-43a8-9c1f-e6f9562cdcc8"},"vehicle_type_id":"4","last_reported":1727809616,"current_range_meters":21600,"station_id":"","pricing_plan_id":"cebpf4jnsgd1na2vs0mg"},{"bike_id":"d22ae321-847f-4577-8563-9e21e8a7db72","system_id":"levelo_inurba_marseille","lat":43.30772,"lon":5.37661,"is_reserved":false,"is_disabled":false,"rental_uris":{"android":"levelo://app?vid=d22ae321-847f-4577-8563-9e21e8a7db72","ios":"levelo://app?vid=d22ae321-847f-4577-8563-9e21e8a7db72"},"vehicle_type_id":"4","last_reported":1727809616,"current_range_meters":26800,"station_id":"ce4bgv92rcd13ifvqcq0","pricing_plan_id":"cebpf4jnsgd1na2vs0mg"},{"bike_id":"41a5f294-f1c2-4c14-bca4-f2c3d656cd48","system_id":"levelo_inurba_marseille","lat":43.31274,"lon":5.40181,"is_reserved":false,"is_disabled":false,"rental_uris":{"android":"levelo://app?vid=41a5f294-f1c2-4c14-bca4-f2c3d656cd48","ios":"levelo://app?vid=41a5f294-f1c2-4c14-bca4-f2c3d656cd48"},"vehicle_type_id":"4","last_reported":1727809616,"current_range_meters":4400,"station_id":"ce4bh092rcd13ifvqd30","pricing_plan_id":"cebpf4jnsgd1na2vs0mg"},{"bike_id":"c070c241-857d-41ab-837e-b7196074f68c","system_id":"levelo_inurba_marseille","lat":43.293601,"lon":5.402028,"is_reserved":false,"is_disabled":false,"rental_uris":{"android":"levelo://app?vid=c070c241-857d-41ab-837e-b7196074f68c","ios":"levelo://app?vid=c070c241-857d-41ab-837e-b7196074f68c"},"vehicle_type_id":"4","last_reported":1727809616,"current_range_meters":33600,"station_id":"ce4bh192rcd13ifvqdc0","pricing_plan_id":"cebpf4jnsgd1na2vs0mg"},{"bike_id":"946f0037-4f02-4e5c-acb2-800667fab619","system_id":"levelo_inurba_marseille","lat":43.31081,"lon":5.42434,"is_reserved":false,"is_disabled":false,"rental_uris":{"android":"levelo://app?vid=946f0037-4f02-4e5c-acb2-800667fab619","ios":"levelo://app?vid=946f0037-4f02-4e5c-acb2-800667fab619"},"vehicle_type_id":"4","last_reported":1727809616,"current_range_meters":12000,"station_id":"ce4bhp92rcd13ifvqhag","pricing_plan_id":"cebpf4jnsgd1na2vs0mg"},{"bike_id":"8ceb96fe-a74c-49c6-8577-bc4076ef5c3c","system_id":"levelo_inurba_marseille","lat":43.32284,"lon":5.38273,"is_reserved":false,"is_disabled":false,"rental_uris":{"android":"levelo://app?vid=8ceb96fe-a74c-49c6-8577-bc4076ef5c3c","ios":"levelo://app?vid=8ceb96fe-a74c-49c6-8577-bc4076ef5c3c"},"vehicle_type_id":"4","last_reported":1727809616,"current_range_meters":8800,"station_id":"ce4bhr12rcd13ifvqhqg","pricing_plan_id":"cebpf4jnsgd1na2vs0mg"},{"bike_id":"b337bd20-f5ab-4d71-a842-ea60a4480d01","system_id":"levelo_inurba_marseille","lat":43.33752,"lon":5.37462,"is_reserved":false,"is_disabled":false,"rental_uris":{"android":"levelo://app?vid=b337bd20-f5ab-4d71-a842-ea60a4480d01","ios":"levelo://app?vid=b337bd20-f5ab-4d71-a842-ea60a4480d01"},"vehicle_type_id":"4","last_reported":1727809616,"current_range_meters":36400,"station_id":"","pricing_plan_id":"cebpf4jnsgd1na2vs0mg"},{"bike_id":"2d1e394b-c65c-48dd-8f6c-7fbd688f784e","system_id":"levelo_inurba_marseille","lat":43.31637,"lon":5.38793,"is_reserved":false,"is_disabled":false,"rental_uris":{"android":"levelo://app?vid=2d1e394b-c65c-48dd-8f6c-7fbd688f784e","ios":"levelo://app?vid=2d1e394b-c65c-48dd-8f6c-7fbd688f784e"},"vehicle_type_id":"4","last_reported":1727809616,"current_range_meters":11200,"station_id":"ce4bhqp2rcd13ifvqhng","pricing_plan_id":"cebpf4jnsgd1na2vs0mg"},{"bike_id":"a839f8c2-1f19-41c9-b661-130324e30c0f","system_id":"levelo_inurba_marseille","lat":43.323,"lon":5.38271,"is_reserved":false,"is_disabled":false,"rental_uris":{"android":"levelo://app?vid=a839f8c2-1f19-41c9-b661-130324e30c0f","ios":"levelo://app?vid=a839f8c2-1f19-41c9-b661-130324e30c0f"},"vehicle_type_id":"4","last_reported":1727809616,"current_range_meters":38800,"station_id":"ce4bhr12rcd13ifvqhqg","pricing_plan_id":"cebpf4jnsgd1na2vs0mg"},{"bike_id":"9231a36c-7928-4257-8dac-88d2299f12cb","system_id":"levelo_inurba_marseille","lat":43.30552,"lon":5.36543,"is_reserved":false,"is_disabled":false,"rental_uris":{"android":"levelo://app?vid=9231a36c-7928-4257-8dac-88d2299f12cb","ios":"levelo://app?vid=9231a36c-7928-4257-8dac-88d2299f12cb"},"vehicle_type_id":"4","last_reported":1727809616,"current_range_meters":4400,"station_id":"ce4bgs12rcd13ifvqcag","pricing_plan_id":"cebpf4jnsgd1na2vs0mg"},{"bike_id":"ae930aae-3a30-4a57-aa73-83ecdadcd743","system_id":"levelo_inurba_marseille","lat":43.284243,"lon":5.384353,"is_reserved":false,"is_disabled":false,"rental_uris":{"android":"levelo://app?vid=ae930aae-3a30-4a57-aa73-83ecdadcd743","ios":"levelo://app?vid=ae930aae-3a30-4a57-aa73-83ecdadcd743"},"vehicle_type_id":"4","last_reported":1727809616,"current_range_meters":2800,"station_id":"ce4bho12rcd13ifvqh2g","pricing_plan_id":"cebpf4jnsgd1na2vs0mg"},{"bike_id":"20d9e3e6-ec7c-47c4-9e05-bd73a2788e7b","system_id":"levelo_inurba_marseille","lat":43.2917,"lon":5.37161,"is_reserved":false,"is_disabled":false,"rental_uris":{"android":"levelo://app?vid=20d9e3e6-ec7c-47c4-9e05-bd73a2788e7b","ios":"levelo://app?vid=20d9e3e6-ec7c-47c4-9e05-bd73a2788e7b"},"vehicle_type_id":"4","last_reported":1727809616,"current_range_meters":35600,"station_id":"ce4bha92rcd13ifvqeh0","pricing_plan_id":"cebpf4jnsgd1na2vs0mg"},{"bike_id":"b1018ad7-f643-4e5c-847a-0fdf0bc59381","system_id":"levelo_inurba_marseille","lat":43.28267,"lon":5.35058,"is_reserved":false,"is_disabled":false,"rental_uris":{"android":"levelo://app?vid=b1018ad7-f643-4e5c-847a-0fdf0bc59381","ios":"levelo://app?vid=b1018ad7-f643-4e5c-847a-0fdf0bc59381"},"vehicle_type_id":"4","last_reported":1727809616,"current_range_meters":6800,"station_id":"ce4bhbp2rcd13ifvqerg","pricing_plan_id":"cebpf4jnsgd1na2vs0mg"},{"bike_id":"f493192b-13c6-47a1-9573-739dd32e633f","system_id":"levelo_inurba_marseille","lat":43.337444,"lon":5.374475,"is_reserved":false,"is_disabled":false,"rental_uris":{"android":"levelo://app?vid=f493192b-13c6-47a1-9573-739dd32e633f","ios":"levelo://app?vid=f493192b-13c6-47a1-9573-739dd32e633f"},"vehicle_type_id":"4","last_reported":1727809616,"current_range_meters":16000,"station_id":"","pricing_plan_id":"cebpf4jnsgd1na2vs0mg"},{"bike_id":"c2629999-0b30-4007-9559-d03725d82d4b","system_id":"levelo_inurba_marseille","lat":43.324862,"lon":5.365638,"is_reserved":false,"is_disabled":false,"rental_uris":{"android":"levelo://app?vid=c2629999-0b30-4007-9559-d03725d82d4b","ios":"levelo://app?vid=c2629999-0b30-4007-9559-d03725d82d4b"},"vehicle_type_id":"4","last_reported":1727809616,"current_range_meters":40000,"station_id":"ce4bhs12rcd13ifvqhvg","pricing_plan_id":"cebpf4jnsgd1na2vs0mg"},{"bike_id":"b80714f2-054a-41f9-aa05-b00cb61e00ca","system_id":"levelo_inurba_marseille","lat":43.30137,"lon":5.39864,"is_reserved":false,"is_disabled":false,"rental_uris":{"android":"levelo://app?vid=b80714f2-054a-41f9-aa05-b00cb61e00ca","ios":"levelo://app?vid=b80714f2-054a-41f9-aa05-b00cb61e00ca"},"vehicle_type_id":"4","last_reported":1727809616,"current_range_meters":38800,"station_id":"ce4bh0h2rcd13ifvqd40","pricing_plan_id":"cebpf4jnsgd1na2vs0mg"},{"bike_id":"d0f3ba74-2db6-4276-a970-d6d9e934005a","system_id":"levelo_inurba_marseille","lat":43.33721,"lon":5.39184,"is_reserved":false,"is_disabled":false,"rental_uris":{"android":"levelo://app?vid=d0f3ba74-2db6-4276-a970-d6d9e934005a","ios":"levelo://app?vid=d0f3ba74-2db6-4276-a970-d6d9e934005a"},"vehicle_type_id":"4","last_reported":1727809616,"current_range_meters":38800,"station_id":"ce4bhr92rcd13ifvqhsg","pricing_plan_id":"cebpf4jnsgd1na2vs0mg"},{"bike_id":"39a62900-db66-494a-8b50-762d0e14932a","system_id":"levelo_inurba_marseille","lat":43.30904,"lon":5.36853,"is_reserved":false,"is_disabled":false,"rental_uris":{"android":"levelo://app?vid=39a62900-db66-494a-8b50-762d0e14932a","ios":"levelo://app?vid=39a62900-db66-494a-8b50-762d0e14932a"},"vehicle_type_id":"4","last_reported":1727809616,"current_range_meters":38800,"station_id":"ce4bgn92rcd13ifvqbvg","pricing_plan_id":"cebpf4jnsgd1na2vs0mg"},{"bike_id":"739b54b2-8aaa-423e-b972-62c501acde77","system_id":"levelo_inurba_marseille","lat":43.29256,"lon":5.38441,"is_reserved":false,"is_disabled":false,"rental_uris":{"android":"levelo://app?vid=739b54b2-8aaa-423e-b972-62c501acde77","ios":"levelo://app?vid=739b54b2-8aaa-423e-b972-62c501acde77"},"vehicle_type_id":"4","last_reported":1727809616,"current_range_meters":20000,"station_id":"ce4bh692rcd13ifvqea0","pricing_plan_id":"cebpf4jnsgd1na2vs0mg"},{"bike_id":"1a4cde06-d65b-46ab-b941-d222868e51c5","system_id":"levelo_inurba_marseille","lat":43.23968,"lon":5.36635,"is_reserved":false,"is_disabled":false,"rental_uris":{"android":"levelo://app?vid=1a4cde06-d65b-46ab-b941-d222868e51c5","ios":"levelo://app?vid=1a4cde06-d65b-46ab-b941-d222868e51c5"},"vehicle_type_id":"4","last_reported":1727809616,"current_range_meters":17600,"station_id":"ce4bhi12rcd13ifvqfp0","pricing_plan_id":"cebpf4jnsgd1na2vs0mg"},{"bike_id":"f1dd1acd-6ae2-46a7-8d62-c777e527ff0c","system_id":"levelo_inurba_marseille","lat":43.28458,"lon":5.35886,"is_reserved":false,"is_disabled":false,"rental_uris":{"android":"levelo://app?vid=f1dd1acd-6ae2-46a7-8d62-c777e527ff0c","ios":"levelo://app?vid=f1dd1acd-6ae2-46a7-8d62-c777e527ff0c"},"vehicle_type_id":"4","last_reported":1727809616,"current_range_meters":4400,"station_id":"ce4bhah2rcd13ifvqei0","pricing_plan_id":"cebpf4jnsgd1na2vs0mg"},{"bike_id":"a56b1f36-5a20-4f9b-acc6-3573c94f3560","system_id":"levelo_inurba_marseille","lat":43.30885,"lon":5.39642,"is_reserved":false,"is_disabled":false,"rental_uris":{"android":"levelo://app?vid=a56b1f36-5a20-4f9b-acc6-3573c94f3560","ios":"levelo://app?vid=a56b1f36-5a20-4f9b-acc6-3573c94f3560"},"vehicle_type_id":"4","last_reported":1727809616,"current_range_meters":24800,"station_id":"ce4bh012rcd13ifvqcv0","pricing_plan_id":"cebpf4jnsgd1na2vs0mg"},{"bike_id":"7fa3e1ea-ac86-4c9b-bfdd-c3011114f0ad","system_id":"levelo_inurba_marseille","lat":43.29281,"lon":5.36844,"is_reserved":false,"is_disabled":false,"rental_uris":{"android":"levelo://app?vid=7fa3e1ea-ac86-4c9b-bfdd-c3011114f0ad","ios":"levelo://app?vid=7fa3e1ea-ac86-4c9b-bfdd-c3011114f0ad"},"vehicle_type_id":"4","last_reported":1727809616,"current_range_meters":23200,"station_id":"ce4bhbp2rcd13ifvqesg","pricing_plan_id":"cebpf4jnsgd1na2vs0mg"},{"bike_id":"1de4b099-258d-4c16-bd38-5296c070786f","system_id":"levelo_inurba_marseille","lat":43.28158,"lon":5.42641,"is_reserved":false,"is_disabled":false,"rental_uris":{"android":"levelo://app?vid=1de4b099-258d-4c16-bd38-5296c070786f","ios":"levelo://app?vid=1de4b099-258d-4c16-bd38-5296c070786f"},"vehicle_type_id":"4","last_reported":1727809616,"current_range_meters":9200,"station_id":"ce4bhnh2rcd13ifvqgug","pricing_plan_id":"cebpf4jnsgd1na2vs0mg"},{"bike_id":"a2ae8adb-cbe8-4c0b-89c0-a433c1504522","system_id":"levelo_inurba_marseille","lat":43.31262,"lon":5.40179,"is_reserved":false,"is_disabled":false,"rental_uris":{"android":"levelo://app?vid=a2ae8adb-cbe8-4c0b-89c0-a433c1504522","ios":"levelo://app?vid=a2ae8adb-cbe8-4c0b-89c0-a433c1504522"},"vehicle_type_id":"4","last_reported":1727809616,"current_range_meters":28400,"station_id":"ce4bh092rcd13ifvqd30","pricing_plan_id":"cebpf4jnsgd1na2vs0mg"},{"bike_id":"3bcc3ac7-550c-459a-84d5-57e4a30c928c","system_id":"levelo_inurba_marseille","lat":43.275703,"lon":5.384293,"is_reserved":false,"is_disabled":false,"rental_uris":{"android":"levelo://app?vid=3bcc3ac7-550c-459a-84d5-57e4a30c928c","ios":"levelo://app?vid=3bcc3ac7-550c-459a-84d5-57e4a30c928c"},"vehicle_type_id":"4","last_reported":1727809616,"current_range_meters":36400,"station_id":"ce4bhi12rcd13ifvqfo0","pricing_plan_id":"cebpf4jnsgd1na2vs0mg"},{"bike_id":"db9b3873-b11f-4c9e-bd75-bcbf0b724899","system_id":"levelo_inurba_marseille","lat":43.30132,"lon":5.3987,"is_reserved":false,"is_disabled":false,"rental_uris":{"android":"levelo://app?vid=db9b3873-b11f-4c9e-bd75-bcbf0b724899","ios":"levelo://app?vid=db9b3873-b11f-4c9e-bd75-bcbf0b724899"},"vehicle_type_id":"4","last_reported":1727809616,"current_range_meters":28400,"station_id":"ce4bh0h2rcd13ifvqd40","pricing_plan_id":"cebpf4jnsgd1na2vs0mg"},{"bike_id":"328eedeb-6fc6-4df9-b1fa-f3847d53acaa","system_id":"levelo_inurba_marseille","lat":43.26687,"lon":5.38272,"is_reserved":false,"is_disabled":false,"rental_uris":{"android":"levelo://app?vid=328eedeb-6fc6-4df9-b1fa-f3847d53acaa","ios":"levelo://app?vid=328eedeb-6fc6-4df9-b1fa-f3847d53acaa"},"vehicle_type_id":"4","last_reported":1727809616,"current_range_meters":38800,"station_id":"ce4bhg92rcd13ifvqf90","pricing_plan_id":"cebpf4jnsgd1na2vs0mg"},{"bike_id":"19bf32a8-a2e8-4650-bc7b-14c408dc6d3f","system_id":"levelo_inurba_marseille","lat":43.28295,"lon":5.35082,"is_reserved":false,"is_disabled":false,"rental_uris":{"android":"levelo://app?vid=19bf32a8-a2e8-4650-bc7b-14c408dc6d3f","ios":"levelo://app?vid=19bf32a8-a2e8-4650-bc7b-14c408dc6d3f"},"vehicle_type_id":"4","last_reported":1727809616,"current_range_meters":21600,"station_id":"ce4bhbp2rcd13ifvqerg","pricing_plan_id":"cebpf4jnsgd1na2vs0mg"},{"bike_id":"b7a4367c-fc71-4ab7-95c7-5d35b416dab0","system_id":"levelo_inurba_marseille","lat":43.31535,"lon":5.38037,"is_reserved":false,"is_disabled":false,"rental_uris":{"android":"levelo://app?vid=b7a4367c-fc71-4ab7-95c7-5d35b416dab0","ios":"levelo://app?vid=b7a4367c-fc71-4ab7-95c7-5d35b416dab0"},"vehicle_type_id":"4","last_reported":1727809616,"current_range_meters":38800,"station_id":"ce4bhsp2rcd13ifvqi50","pricing_plan_id":"cebpf4jnsgd1na2vs0mg"},{"bike_id":"7a3a7026-91f4-4dfe-b3ba-acff67110b94","system_id":"levelo_inurba_marseille","lat":43.29193,"lon":5.35816,"is_reserved":false,"is_disabled":false,"rental_uris":{"android":"levelo://app?vid=7a3a7026-91f4-4dfe-b3ba-acff67110b94","ios":"levelo://app?vid=7a3a7026-91f4-4dfe-b3ba-acff67110b94"},"vehicle_type_id":"4","last_reported":1727809616,"current_range_meters":22000,"station_id":"","pricing_plan_id":"cebpf4jnsgd1na2vs0mg"},{"bike_id":"37621281-5028-4585-b6ad-dbe94e6e8663","system_id":"levelo_inurba_marseille","lat":43.33025,"lon":5.3905,"is_reserved":false,"is_disabled":false,"rental_uris":{"android":"levelo://app?vid=37621281-5028-4585-b6ad-dbe94e6e8663","ios":"levelo://app?vid=37621281-5028-4585-b6ad-dbe94e6e8663"},"vehicle_type_id":"4","last_reported":1727809616,"current_range_meters":38800,"station_id":"ce4bhr92rcd13ifvqhrg","pricing_plan_id":"cebpf4jnsgd1na2vs0mg"},{"bike_id":"ef29ff35-fd09-4474-b929-41254ea52f61","system_id":"levelo_inurba_marseille","lat":43.27981,"lon":5.40027,"is_reserved":false,"is_disabled":false,"rental_uris":{"android":"levelo://app?vid=ef29ff35-fd09-4474-b929-41254ea52f61","ios":"levelo://app?vid=ef29ff35-fd09-4474-b929-41254ea52f61"},"vehicle_type_id":"4","last_reported":1727809616,"current_range_meters":8000,"station_id":"ce4bho92rcd13ifvqh4g","pricing_plan_id":"cebpf4jnsgd1na2vs0mg"},{"bike_id":"d92ab752-9f2b-4ec9-9644-bc381e960903","system_id":"levelo_inurba_marseille","lat":43.2799,"lon":5.40019,"is_reserved":false,"is_disabled":false,"rental_uris":{"android":"levelo://app?vid=d92ab752-9f2b-4ec9-9644-bc381e960903","ios":"levelo://app?vid=d92ab752-9f2b-4ec9-9644-bc381e960903"},"vehicle_type_id":"4","last_reported":1727809616,"current_range_meters":17600,"station_id":"ce4bho92rcd13ifvqh4g","pricing_plan_id":"cebpf4jnsgd1na2vs0mg"},{"bike_id":"6c0177cd-aaa8-4750-90b7-3b363589c17c","system_id":"levelo_inurba_marseille","lat":43.32335,"lon":5.40621,"is_reserved":false,"is_disabled":false,"rental_uris":{"android":"levelo://app?vid=6c0177cd-aaa8-4750-90b7-3b363589c17c","ios":"levelo://app?vid=6c0177cd-aaa8-4750-90b7-3b363589c17c"},"vehicle_type_id":"4","last_reported":1727809616,"current_range_meters":27200,"station_id":"ce4bhq92rcd13ifvqhjg","pricing_plan_id":"cebpf4jnsgd1na2vs0mg"},{"bike_id":"8d9fd315-34b8-429a-813d-1bf9af532a07","system_id":"levelo_inurba_marseille","lat":43.28152,"lon":5.42646,"is_reserved":false,"is_disabled":false,"rental_uris":{"android":"levelo://app?vid=8d9fd315-34b8-429a-813d-1bf9af532a07","ios":"levelo://app?vid=8d9fd315-34b8-429a-813d-1bf9af532a07"},"vehicle_type_id":"4","last_reported":1727809616,"current_range_meters":3200,"station_id":"ce4bhnh2rcd13ifvqgug","pricing_plan_id":"cebpf4jnsgd1na2vs0mg"},{"bike_id":"b3672e33-6b77-4411-9955-eb46704118d7","system_id":"levelo_inurba_marseille","lat":43.25728,"lon":5.41106,"is_reserved":false,"is_disabled":false,"rental_uris":{"android":"levelo://app?vid=b3672e33-6b77-4411-9955-eb46704118d7","ios":"levelo://app?vid=b3672e33-6b77-4411-9955-eb46704118d7"},"vehicle_type_id":"4","last_reported":1727809616,"current_range_meters":27200,"station_id":"ce4bhkp2rcd13ifvqgd0","pricing_plan_id":"cebpf4jnsgd1na2vs0mg"},{"bike_id":"da8b909d-4bb5-4ea6-a10a-05f75d1002d9","system_id":"levelo_inurba_marseille","lat":43.28848,"lon":5.39313,"is_reserved":false,"is_disabled":false,"rental_uris":{"android":"levelo://app?vid=da8b909d-4bb5-4ea6-a10a-05f75d1002d9","ios":"levelo://app?vid=da8b909d-4bb5-4ea6-a10a-05f75d1002d9"},"vehicle_type_id":"4","last_reported":1727809616,"current_range_meters":38800,"station_id":"ce4bh2p2rcd13ifvqdi0","pricing_plan_id":"cebpf4jnsgd1na2vs0mg"},{"bike_id":"b46a91f9-0b26-498d-b8ac-ec249396e291","system_id":"levelo_inurba_marseille","lat":43.29906,"lon":5.43655,"is_reserved":false,"is_disabled":false,"rental_uris":{"android":"levelo://app?vid=b46a91f9-0b26-498d-b8ac-ec249396e291","ios":"levelo://app?vid=b46a91f9-0b26-498d-b8ac-ec249396e291"},"vehicle_type_id":"4","last_reported":1727809616,"current_range_meters":21600,"station_id":"ce4bhpp2rcd13ifvqhfg","pricing_plan_id":"cebpf4jnsgd1na2vs0mg"},{"bike_id":"e6d3a592-cfd1-4a8c-ac02-20bdf5c7295d","system_id":"levelo_inurba_marseille","lat":43.31623,"lon":5.37337,"is_reserved":false,"is_disabled":false,"rental_uris":{"android":"levelo://app?vid=e6d3a592-cfd1-4a8c-ac02-20bdf5c7295d","ios":"levelo://app?vid=e6d3a592-cfd1-4a8c-ac02-20bdf5c7295d"},"vehicle_type_id":"4","last_reported":1727809616,"current_range_meters":38800,"station_id":"","pricing_plan_id":"cebpf4jnsgd1na2vs0mg"},{"bike_id":"fe46a18e-2d3c-404b-81e9-b616c7087db1","system_id":"levelo_inurba_marseille","lat":43.3079,"lon":5.37655,"is_reserved":false,"is_disabled":false,"rental_uris":{"android":"levelo://app?vid=fe46a18e-2d3c-404b-81e9-b616c7087db1","ios":"levelo://app?vid=fe46a18e-2d3c-404b-81e9-b616c7087db1"},"vehicle_type_id":"4","last_reported":1727809616,"current_range_meters":36400,"station_id":"ce4bgv92rcd13ifvqcq0","pricing_plan_id":"cebpf4jnsgd1na2vs0mg"},{"bike_id":"b5e4df66-c8b2-46d7-a7ce-add59ccd51c1","system_id":"levelo_inurba_marseille","lat":43.27991,"lon":5.40014,"is_reserved":false,"is_disabled":false,"rental_uris":{"android":"levelo://app?vid=b5e4df66-c8b2-46d7-a7ce-add59ccd51c1","ios":"levelo://app?vid=b5e4df66-c8b2-46d7-a7ce-add59ccd51c1"},"vehicle_type_id":"4","last_reported":1727809616,"current_range_meters":19200,"station_id":"ce4bho92rcd13ifvqh4g","pricing_plan_id":"cebpf4jnsgd1na2vs0mg"},{"bike_id":"68ceab08-3b9b-4feb-b179-a7ed90c936e6","system_id":"levelo_inurba_marseille","lat":43.29907,"lon":5.38151,"is_reserved":false,"is_disabled":false,"rental_uris":{"android":"levelo://app?vid=68ceab08-3b9b-4feb-b179-a7ed90c936e6","ios":"levelo://app?vid=68ceab08-3b9b-4feb-b179-a7ed90c936e6"},"vehicle_type_id":"4","last_reported":1727809616,"current_range_meters":17600,"station_id":"ce4bgj12rcd13ifvqbc0","pricing_plan_id":"cebpf4jnsgd1na2vs0mg"},{"bike_id":"64ca7f10-ba03-4e25-9fc6-d9eca385bb9c","system_id":"levelo_inurba_marseille","lat":43.28418,"lon":5.37517,"is_reserved":false,"is_disabled":false,"rental_uris":{"android":"levelo://app?vid=64ca7f10-ba03-4e25-9fc6-d9eca385bb9c","ios":"levelo://app?vid=64ca7f10-ba03-4e25-9fc6-d9eca385bb9c"},"vehicle_type_id":"4","last_reported":1727809616,"current_range_meters":26000,"station_id":"ce4bh412rcd13ifvqds0","pricing_plan_id":"cebpf4jnsgd1na2vs0mg"},{"bike_id":"9ec9c6f4-7594-4f24-b075-0b78691507e4","system_id":"levelo_inurba_marseille","lat":43.279957,"lon":5.400157,"is_reserved":false,"is_disabled":false,"rental_uris":{"android":"levelo://app?vid=9ec9c6f4-7594-4f24-b075-0b78691507e4","ios":"levelo://app?vid=9ec9c6f4-7594-4f24-b075-0b78691507e4"},"vehicle_type_id":"4","last_reported":1727809616,"current_range_meters":38800,"station_id":"ce4bho92rcd13ifvqh4g","pricing_plan_id":"cebpf4jnsgd1na2vs0mg"},{"bike_id":"f06da63c-7b41-44ac-8682-180e5fe41c55","system_id":"levelo_inurba_marseille","lat":43.30296,"lon":5.36871,"is_reserved":false,"is_disabled":false,"rental_uris":{"android":"levelo://app?vid=f06da63c-7b41-44ac-8682-180e5fe41c55","ios":"levelo://app?vid=f06da63c-7b41-44ac-8682-180e5fe41c55"},"vehicle_type_id":"4","last_reported":1727809616,"current_range_meters":4000,"station_id":"ce4bgqh2rcd13ifvqc5g","pricing_plan_id":"cebpf4jnsgd1na2vs0mg"},{"bike_id":"924e64d3-3186-42a7-9c62-5c9ff91a2001","system_id":"levelo_inurba_marseille","lat":43.31119,"lon":5.37765,"is_reserved":false,"is_disabled":false,"rental_uris":{"android":"levelo://app?vid=924e64d3-3186-42a7-9c62-5c9ff91a2001","ios":"levelo://app?vid=924e64d3-3186-42a7-9c62-5c9ff91a2001"},"vehicle_type_id":"4","last_reported":1727809616,"current_range_meters":38800,"station_id":"ce4bgt92rcd13ifvqcg0","pricing_plan_id":"cebpf4jnsgd1na2vs0mg"},{"bike_id":"a28592a7-a547-4490-ad7e-8f39ff40fc15","system_id":"levelo_inurba_marseille","lat":43.27071,"lon":5.42285,"is_reserved":false,"is_disabled":false,"rental_uris":{"android":"levelo://app?vid=a28592a7-a547-4490-ad7e-8f39ff40fc15","ios":"levelo://app?vid=a28592a7-a547-4490-ad7e-8f39ff40fc15"},"vehicle_type_id":"4","last_reported":1727809616,"current_range_meters":10000,"station_id":"ce4bhk92rcd13ifvqgb0","pricing_plan_id":"cebpf4jnsgd1na2vs0mg"},{"bike_id":"c4432127-0b97-48c8-b745-bef6023d020a","system_id":"levelo_inurba_marseille","lat":43.33727,"lon":5.39187,"is_reserved":false,"is_disabled":false,"rental_uris":{"android":"levelo://app?vid=c4432127-0b97-48c8-b745-bef6023d020a","ios":"levelo://app?vid=c4432127-0b97-48c8-b745-bef6023d020a"},"vehicle_type_id":"4","last_reported":1727809616,"current_range_meters":30800,"station_id":"ce4bhr92rcd13ifvqhsg","pricing_plan_id":"cebpf4jnsgd1na2vs0mg"},{"bike_id":"d19421e0-7a25-4d2a-8d00-c44bee06df3c","system_id":"levelo_inurba_marseille","lat":43.28479,"lon":5.38423,"is_reserved":false,"is_disabled":false,"rental_uris":{"android":"levelo://app?vid=d19421e0-7a25-4d2a-8d00-c44bee06df3c","ios":"levelo://app?vid=d19421e0-7a25-4d2a-8d00-c44bee06df3c"},"vehicle_type_id":"4","last_reported":1727809616,"current_range_meters":6400,"station_id":"ce4bh512rcd13ifvqe3g","pricing_plan_id":"cebpf4jnsgd1na2vs0mg"},{"bike_id":"d29dc684-5977-4857-9fdb-728775ead93e","system_id":"levelo_inurba_marseille","lat":43.33721,"lon":5.391843,"is_reserved":false,"is_disabled":false,"rental_uris":{"android":"levelo://app?vid=d29dc684-5977-4857-9fdb-728775ead93e","ios":"levelo://app?vid=d29dc684-5977-4857-9fdb-728775ead93e"},"vehicle_type_id":"4","last_reported":1727809616,"current_range_meters":37600,"station_id":"ce4bhr92rcd13ifvqhsg","pricing_plan_id":"cebpf4jnsgd1na2vs0mg"},{"bike_id":"d1db18f8-1c4b-4828-9b2c-027f685c46fe","system_id":"levelo_inurba_marseille","lat":43.31169,"lon":5.38734,"is_reserved":false,"is_disabled":false,"rental_uris":{"android":"levelo://app?vid=d1db18f8-1c4b-4828-9b2c-027f685c46fe","ios":"levelo://app?vid=d1db18f8-1c4b-4828-9b2c-027f685c46fe"},"vehicle_type_id":"4","last_reported":1727809616,"current_range_meters":15200,"station_id":"ce4bgv12rcd13ifvqcp0","pricing_plan_id":"cebpf4jnsgd1na2vs0mg"},{"bike_id":"01171968-cc24-458a-8748-74cb6279bce6","system_id":"levelo_inurba_marseille","lat":43.303284,"lon":5.376812,"is_reserved":false,"is_disabled":false,"rental_uris":{"android":"levelo://app?vid=01171968-cc24-458a-8748-74cb6279bce6","ios":"levelo://app?vid=01171968-cc24-458a-8748-74cb6279bce6"},"vehicle_type_id":"4","last_reported":1727809616,"current_range_meters":38800,"station_id":"ce4bguh2rcd13ifvqcj0","pricing_plan_id":"cebpf4jnsgd1na2vs0mg"},{"bike_id":"e5c8dffa-3c93-44b4-9e7e-4adb83decb53","system_id":"levelo_inurba_marseille","lat":43.24181,"lon":5.39742,"is_reserved":false,"is_disabled":false,"rental_uris":{"android":"levelo://app?vid=e5c8dffa-3c93-44b4-9e7e-4adb83decb53","ios":"levelo://app?vid=e5c8dffa-3c93-44b4-9e7e-4adb83decb53"},"vehicle_type_id":"4","last_reported":1727809616,"current_range_meters":9600,"station_id":"ce4bhn12rcd13ifvqgpg","pricing_plan_id":"cebpf4jnsgd1na2vs0mg"},{"bike_id":"3974bde5-4bee-4436-a125-b7e7fec808c0","system_id":"levelo_inurba_marseille","lat":43.26197,"lon":5.37452,"is_reserved":false,"is_disabled":false,"rental_uris":{"android":"levelo://app?vid=3974bde5-4bee-4436-a125-b7e7fec808c0","ios":"levelo://app?vid=3974bde5-4bee-4436-a125-b7e7fec808c0"},"vehicle_type_id":"4","last_reported":1727809616,"current_range_meters":29600,"station_id":"ce4bhgp2rcd13ifvqfc0","pricing_plan_id":"cebpf4jnsgd1na2vs0mg"},{"bike_id":"af924da6-063d-4061-abcf-623ee171c598","system_id":"levelo_inurba_marseille","lat":43.29282,"lon":5.40116,"is_reserved":false,"is_disabled":false,"rental_uris":{"android":"levelo://app?vid=af924da6-063d-4061-abcf-623ee171c598","ios":"levelo://app?vid=af924da6-063d-4061-abcf-623ee171c598"},"vehicle_type_id":"4","last_reported":1727809616,"current_range_meters":16800,"station_id":"ce4bh312rcd13ifvqdk0","pricing_plan_id":"cebpf4jnsgd1na2vs0mg"},{"bike_id":"80cd2eb9-6d61-4806-bcbf-bdc942195b61","system_id":"levelo_inurba_marseille","lat":43.284607,"lon":5.358967,"is_reserved":false,"is_disabled":false,"rental_uris":{"android":"levelo://app?vid=80cd2eb9-6d61-4806-bcbf-bdc942195b61","ios":"levelo://app?vid=80cd2eb9-6d61-4806-bcbf-bdc942195b61"},"vehicle_type_id":"4","last_reported":1727809616,"current_range_meters":31200,"station_id":"ce4bhah2rcd13ifvqej0","pricing_plan_id":"cebpf4jnsgd1na2vs0mg"},{"bike_id":"d02732f0-a413-4720-a3bc-e52746670bfb","system_id":"levelo_inurba_marseille","lat":43.32289,"lon":5.38266,"is_reserved":false,"is_disabled":false,"rental_uris":{"android":"levelo://app?vid=d02732f0-a413-4720-a3bc-e52746670bfb","ios":"levelo://app?vid=d02732f0-a413-4720-a3bc-e52746670bfb"},"vehicle_type_id":"4","last_reported":1727809616,"current_range_meters":26800,"station_id":"ce4bhr12rcd13ifvqhqg","pricing_plan_id":"cebpf4jnsgd1na2vs0mg"},{"bike_id":"b11ad43b-c46e-408b-8084-a135505e015e","system_id":"levelo_inurba_marseille","lat":43.254214,"lon":5.394313,"is_reserved":false,"is_disabled":false,"rental_uris":{"android":"levelo://app?vid=b11ad43b-c46e-408b-8084-a135505e015e","ios":"levelo://app?vid=b11ad43b-c46e-408b-8084-a135505e015e"},"vehicle_type_id":"4","last_reported":1727809616,"current_range_meters":12000,"station_id":"","pricing_plan_id":"cebpf4jnsgd1na2vs0mg"},{"bike_id":"ee27f79f-1328-4ad3-a457-5fd1d6cdcd3a","system_id":"levelo_inurba_marseille","lat":43.26499,"lon":5.3954,"is_reserved":false,"is_disabled":false,"rental_uris":{"android":"levelo://app?vid=ee27f79f-1328-4ad3-a457-5fd1d6cdcd3a","ios":"levelo://app?vid=ee27f79f-1328-4ad3-a457-5fd1d6cdcd3a"},"vehicle_type_id":"4","last_reported":1727809616,"current_range_meters":8000,"station_id":"ce4bhi12rcd13ifvqfq0","pricing_plan_id":"cebpf4jnsgd1na2vs0mg"},{"bike_id":"a165878f-00b3-42aa-b99b-681f0bd1f09f","system_id":"levelo_inurba_marseille","lat":43.28407,"lon":5.37516,"is_reserved":false,"is_disabled":false,"rental_uris":{"android":"levelo://app?vid=a165878f-00b3-42aa-b99b-681f0bd1f09f","ios":"levelo://app?vid=a165878f-00b3-42aa-b99b-681f0bd1f09f"},"vehicle_type_id":"4","last_reported":1727809616,"current_range_meters":5600,"station_id":"ce4bh412rcd13ifvqds0","pricing_plan_id":"cebpf4jnsgd1na2vs0mg"},{"bike_id":"ab932a5f-6aba-4bb1-ade3-2d0ba12729b9","system_id":"levelo_inurba_marseille","lat":43.32284,"lon":5.38265,"is_reserved":false,"is_disabled":false,"rental_uris":{"android":"levelo://app?vid=ab932a5f-6aba-4bb1-ade3-2d0ba12729b9","ios":"levelo://app?vid=ab932a5f-6aba-4bb1-ade3-2d0ba12729b9"},"vehicle_type_id":"4","last_reported":1727809616,"current_range_meters":20400,"station_id":"ce4bhr12rcd13ifvqhqg","pricing_plan_id":"cebpf4jnsgd1na2vs0mg"},{"bike_id":"7a58c2c8-50c0-4818-855c-4b86297baff1","system_id":"levelo_inurba_marseille","lat":43.337444,"lon":5.374475,"is_reserved":false,"is_disabled":false,"rental_uris":{"android":"levelo://app?vid=7a58c2c8-50c0-4818-855c-4b86297baff1","ios":"levelo://app?vid=7a58c2c8-50c0-4818-855c-4b86297baff1"},"vehicle_type_id":"4","last_reported":1727809616,"current_range_meters":30800,"station_id":"","pricing_plan_id":"cebpf4jnsgd1na2vs0mg"},{"bike_id":"f0db11ce-2498-4a56-b762-7aa0a64821f6","system_id":"levelo_inurba_marseille","lat":43.32482,"lon":5.36567,"is_reserved":false,"is_disabled":false,"rental_uris":{"android":"levelo://app?vid=f0db11ce-2498-4a56-b762-7aa0a64821f6","ios":"levelo://app?vid=f0db11ce-2498-4a56-b762-7aa0a64821f6"},"vehicle_type_id":"4","last_reported":1727809616,"current_range_meters":11600,"station_id":"ce4bhs12rcd13ifvqhvg","pricing_plan_id":"cebpf4jnsgd1na2vs0mg"},{"bike_id":"b6e1016f-bcbd-4fce-b5e6-3e1d594eb641","system_id":"levelo_inurba_marseille","lat":43.27215,"lon":5.39189,"is_reserved":false,"is_disabled":false,"rental_uris":{"android":"levelo://app?vid=b6e1016f-bcbd-4fce-b5e6-3e1d594eb641","ios":"levelo://app?vid=b6e1016f-bcbd-4fce-b5e6-3e1d594eb641"},"vehicle_type_id":"4","last_reported":1727809616,"current_range_meters":37600,"station_id":"ce4bhhp2rcd13ifvqfm0","pricing_plan_id":"cebpf4jnsgd1na2vs0mg"},{"bike_id":"7290d321-c4b9-4040-b019-2ab99646f6de","system_id":"levelo_inurba_marseille","lat":43.289816,"lon":5.378359,"is_reserved":false,"is_disabled":false,"rental_uris":{"android":"levelo://app?vid=7290d321-c4b9-4040-b019-2ab99646f6de","ios":"levelo://app?vid=7290d321-c4b9-4040-b019-2ab99646f6de"},"vehicle_type_id":"4","last_reported":1727809616,"current_range_meters":8400,"station_id":"ce4bh9p2rcd13ifvqed0","pricing_plan_id":"cebpf4jnsgd1na2vs0mg"},{"bike_id":"e650637e-f231-4eae-9c5d-c52eba283438","system_id":"levelo_inurba_marseille","lat":43.28724,"lon":5.36074,"is_reserved":false,"is_disabled":false,"rental_uris":{"android":"levelo://app?vid=e650637e-f231-4eae-9c5d-c52eba283438","ios":"levelo://app?vid=e650637e-f231-4eae-9c5d-c52eba283438"},"vehicle_type_id":"4","last_reported":1727809616,"current_range_meters":8000,"station_id":"cki0cbj6b192h4jlfktg","pricing_plan_id":"cebpf4jnsgd1na2vs0mg"},{"bike_id":"67a8cb29-5427-4b99-bbe5-5e9d0ec42a10","system_id":"levelo_inurba_marseille","lat":43.28726,"lon":5.36082,"is_reserved":false,"is_disabled":false,"rental_uris":{"android":"levelo://app?vid=67a8cb29-5427-4b99-bbe5-5e9d0ec42a10","ios":"levelo://app?vid=67a8cb29-5427-4b99-bbe5-5e9d0ec42a10"},"vehicle_type_id":"4","last_reported":1727809616,"current_range_meters":1600,"station_id":"cki0cbj6b192h4jlfktg","pricing_plan_id":"cebpf4jnsgd1na2vs0mg"},{"bike_id":"ead9e092-c2b2-467c-82e1-ce35e8e07880","system_id":"levelo_inurba_marseille","lat":43.27811,"lon":5.40711,"is_reserved":false,"is_disabled":false,"rental_uris":{"android":"levelo://app?vid=ead9e092-c2b2-467c-82e1-ce35e8e07880","ios":"levelo://app?vid=ead9e092-c2b2-467c-82e1-ce35e8e07880"},"vehicle_type_id":"4","last_reported":1727809616,"current_range_meters":38800,"station_id":"ce4bhnh2rcd13ifvqgtg","pricing_plan_id":"cebpf4jnsgd1na2vs0mg"},{"bike_id":"d5135729-2fd0-413d-bc2f-b8b94e1fa6c2","system_id":"levelo_inurba_marseille","lat":43.2508,"lon":5.39517,"is_reserved":false,"is_disabled":false,"rental_uris":{"android":"levelo://app?vid=d5135729-2fd0-413d-bc2f-b8b94e1fa6c2","ios":"levelo://app?vid=d5135729-2fd0-413d-bc2f-b8b94e1fa6c2"},"vehicle_type_id":"4","last_reported":1727809616,"current_range_meters":30000,"station_id":"ce4bhm12rcd13ifvqgkg","pricing_plan_id":"cebpf4jnsgd1na2vs0mg"},{"bike_id":"d27dcfb3-4783-4d43-90e7-ed4c65749c2e","system_id":"levelo_inurba_marseille","lat":43.29171,"lon":5.37168,"is_reserved":false,"is_disabled":false,"rental_uris":{"android":"levelo://app?vid=d27dcfb3-4783-4d43-90e7-ed4c65749c2e","ios":"levelo://app?vid=d27dcfb3-4783-4d43-90e7-ed4c65749c2e"},"vehicle_type_id":"4","last_reported":1727809616,"current_range_meters":25600,"station_id":"ce4bha92rcd13ifvqeh0","pricing_plan_id":"cebpf4jnsgd1na2vs0mg"},{"bike_id":"92ac41bb-ab36-44e8-ace8-2147f0b6a10d","system_id":"levelo_inurba_marseille","lat":43.308044,"lon":5.435428,"is_reserved":false,"is_disabled":false,"rental_uris":{"android":"levelo://app?vid=92ac41bb-ab36-44e8-ace8-2147f0b6a10d","ios":"levelo://app?vid=92ac41bb-ab36-44e8-ace8-2147f0b6a10d"},"vehicle_type_id":"4","last_reported":1727809616,"current_range_meters":19600,"station_id":"ce4bhph2rcd13ifvqheg","pricing_plan_id":"cebpf4jnsgd1na2vs0mg"},{"bike_id":"7bbd42bb-c4e7-40ae-a7c0-13453c6dffe6","system_id":"levelo_inurba_marseille","lat":43.31755,"lon":5.3902,"is_reserved":false,"is_disabled":false,"rental_uris":{"android":"levelo://app?vid=7bbd42bb-c4e7-40ae-a7c0-13453c6dffe6","ios":"levelo://app?vid=7bbd42bb-c4e7-40ae-a7c0-13453c6dffe6"},"vehicle_type_id":"4","last_reported":1727809616,"current_range_meters":32000,"station_id":"ce4bhqp2rcd13ifvqhng","pricing_plan_id":"cebpf4jnsgd1na2vs0mg"},{"bike_id":"7924f2c5-e7be-4860-bdb8-fd135748ea7e","system_id":"levelo_inurba_marseille","lat":43.29271,"lon":5.38438,"is_reserved":false,"is_disabled":false,"rental_uris":{"android":"levelo://app?vid=7924f2c5-e7be-4860-bdb8-fd135748ea7e","ios":"levelo://app?vid=7924f2c5-e7be-4860-bdb8-fd135748ea7e"},"vehicle_type_id":"4","last_reported":1727809616,"current_range_meters":33200,"station_id":"ce4bh692rcd13ifvqea0","pricing_plan_id":"cebpf4jnsgd1na2vs0mg"},{"bike_id":"a1de05c1-82b2-4d55-a73a-aff75d468430","system_id":"levelo_inurba_marseille","lat":43.29794,"lon":5.39356,"is_reserved":false,"is_disabled":false,"rental_uris":{"android":"levelo://app?vid=a1de05c1-82b2-4d55-a73a-aff75d468430","ios":"levelo://app?vid=a1de05c1-82b2-4d55-a73a-aff75d468430"},"vehicle_type_id":"4","last_reported":1727809616,"current_range_meters":2800,"station_id":"chh1huq6cuj3fo74tm60","pricing_plan_id":"cebpf4jnsgd1na2vs0mg"},{"bike_id":"b7a75d39-7de2-45b7-9a7f-76b26f7a01b8","system_id":"levelo_inurba_marseille","lat":43.32494,"lon":5.37422,"is_reserved":false,"is_disabled":false,"rental_uris":{"android":"levelo://app?vid=b7a75d39-7de2-45b7-9a7f-76b26f7a01b8","ios":"levelo://app?vid=b7a75d39-7de2-45b7-9a7f-76b26f7a01b8"},"vehicle_type_id":"4","last_reported":1727809616,"current_range_meters":36000,"station_id":"ce4bguh2rcd13ifvqckg","pricing_plan_id":"cebpf4jnsgd1na2vs0mg"},{"bike_id":"82c7638b-4272-4d5d-90fd-55e01777e539","system_id":"levelo_inurba_marseille","lat":43.27995,"lon":5.40009,"is_reserved":false,"is_disabled":false,"rental_uris":{"android":"levelo://app?vid=82c7638b-4272-4d5d-90fd-55e01777e539","ios":"levelo://app?vid=82c7638b-4272-4d5d-90fd-55e01777e539"},"vehicle_type_id":"4","last_reported":1727809616,"current_range_meters":6800,"station_id":"ce4bho92rcd13ifvqh4g","pricing_plan_id":"cebpf4jnsgd1na2vs0mg"},{"bike_id":"b9bd8474-91ff-4e5a-8efc-e12747961e53","system_id":"levelo_inurba_marseille","lat":43.24082,"lon":5.37753,"is_reserved":false,"is_disabled":false,"rental_uris":{"android":"levelo://app?vid=b9bd8474-91ff-4e5a-8efc-e12747961e53","ios":"levelo://app?vid=b9bd8474-91ff-4e5a-8efc-e12747961e53"},"vehicle_type_id":"4","last_reported":1727809616,"current_range_meters":17600,"station_id":"ce4bhnp2rcd13ifvqgvg","pricing_plan_id":"cebpf4jnsgd1na2vs0mg"},{"bike_id":"8384b0a5-14c9-4b06-a8d3-03a72ab5bfe9","system_id":"levelo_inurba_marseille","lat":43.28939,"lon":5.36634,"is_reserved":false,"is_disabled":false,"rental_uris":{"android":"levelo://app?vid=8384b0a5-14c9-4b06-a8d3-03a72ab5bfe9","ios":"levelo://app?vid=8384b0a5-14c9-4b06-a8d3-03a72ab5bfe9"},"vehicle_type_id":"4","last_reported":1727809616,"current_range_meters":36000,"station_id":"ce4bhap2rcd13ifvqek0","pricing_plan_id":"cebpf4jnsgd1na2vs0mg"},{"bike_id":"437b8d29-8ec2-410d-9e63-c5b7cc126a00","system_id":"levelo_inurba_marseille","lat":43.32285,"lon":5.38277,"is_reserved":false,"is_disabled":false,"rental_uris":{"android":"levelo://app?vid=437b8d29-8ec2-410d-9e63-c5b7cc126a00","ios":"levelo://app?vid=437b8d29-8ec2-410d-9e63-c5b7cc126a00"},"vehicle_type_id":"4","last_reported":1727809616,"current_range_meters":30000,"station_id":"ce4bhr12rcd13ifvqhqg","pricing_plan_id":"cebpf4jnsgd1na2vs0mg"},{"bike_id":"508058b4-8bd9-4912-939e-09a5fad199ae","system_id":"levelo_inurba_marseille","lat":43.27812,"lon":5.4072,"is_reserved":false,"is_disabled":false,"rental_uris":{"android":"levelo://app?vid=508058b4-8bd9-4912-939e-09a5fad199ae","ios":"levelo://app?vid=508058b4-8bd9-4912-939e-09a5fad199ae"},"vehicle_type_id":"4","last_reported":1727809616,"current_range_meters":36400,"station_id":"ce4bhnh2rcd13ifvqgtg","pricing_plan_id":"cebpf4jnsgd1na2vs0mg"},{"bike_id":"57131a28-b3c5-491d-b1d5-8f3cf74de851","system_id":"levelo_inurba_marseille","lat":43.28939,"lon":5.36399,"is_reserved":false,"is_disabled":false,"rental_uris":{"android":"levelo://app?vid=57131a28-b3c5-491d-b1d5-8f3cf74de851","ios":"levelo://app?vid=57131a28-b3c5-491d-b1d5-8f3cf74de851"},"vehicle_type_id":"4","last_reported":1727809616,"current_range_meters":10000,"station_id":"ce4bhc92rcd13ifvqetg","pricing_plan_id":"cebpf4jnsgd1na2vs0mg"},{"bike_id":"57e3fdb1-6e73-4ae5-b93d-7896deaad710","system_id":"levelo_inurba_marseille","lat":43.2804,"lon":5.36946,"is_reserved":false,"is_disabled":false,"rental_uris":{"android":"levelo://app?vid=57e3fdb1-6e73-4ae5-b93d-7896deaad710","ios":"levelo://app?vid=57e3fdb1-6e73-4ae5-b93d-7896deaad710"},"vehicle_type_id":"4","last_reported":1727809616,"current_range_meters":17200,"station_id":"ce4bha12rcd13ifvqef0","pricing_plan_id":"cebpf4jnsgd1na2vs0mg"},{"bike_id":"9eb0cf80-8c7a-428d-87a6-ee75eb1a42ad","system_id":"levelo_inurba_marseille","lat":43.27501,"lon":5.42449,"is_reserved":false,"is_disabled":false,"rental_uris":{"android":"levelo://app?vid=9eb0cf80-8c7a-428d-87a6-ee75eb1a42ad","ios":"levelo://app?vid=9eb0cf80-8c7a-428d-87a6-ee75eb1a42ad"},"vehicle_type_id":"4","last_reported":1727809616,"current_range_meters":10000,"station_id":"ce4bhn92rcd13ifvqgrg","pricing_plan_id":"cebpf4jnsgd1na2vs0mg"},{"bike_id":"fded9251-b838-4ace-a111-a857502a68e1","system_id":"levelo_inurba_marseille","lat":43.29889,"lon":5.4367,"is_reserved":false,"is_disabled":false,"rental_uris":{"android":"levelo://app?vid=fded9251-b838-4ace-a111-a857502a68e1","ios":"levelo://app?vid=fded9251-b838-4ace-a111-a857502a68e1"},"vehicle_type_id":"4","last_reported":1727809616,"current_range_meters":12000,"station_id":"ce4bhpp2rcd13ifvqhfg","pricing_plan_id":"cebpf4jnsgd1na2vs0mg"},{"bike_id":"3f9ed83b-0491-4b38-a8b1-0067fa715ad5","system_id":"levelo_inurba_marseille","lat":43.28851,"lon":5.39319,"is_reserved":false,"is_disabled":false,"rental_uris":{"android":"levelo://app?vid=3f9ed83b-0491-4b38-a8b1-0067fa715ad5","ios":"levelo://app?vid=3f9ed83b-0491-4b38-a8b1-0067fa715ad5"},"vehicle_type_id":"4","last_reported":1727809616,"current_range_meters":38800,"station_id":"ce4bh2p2rcd13ifvqdi0","pricing_plan_id":"cebpf4jnsgd1na2vs0mg"},{"bike_id":"116a8ab1-6397-4b58-8f48-07627f54943c","system_id":"levelo_inurba_marseille","lat":43.308835,"lon":5.39654,"is_reserved":false,"is_disabled":false,"rental_uris":{"android":"levelo://app?vid=116a8ab1-6397-4b58-8f48-07627f54943c","ios":"levelo://app?vid=116a8ab1-6397-4b58-8f48-07627f54943c"},"vehicle_type_id":"4","last_reported":1727809616,"current_range_meters":4400,"station_id":"ce4bh012rcd13ifvqcv0","pricing_plan_id":"cebpf4jnsgd1na2vs0mg"},{"bike_id":"74956dbe-73fd-4e71-846f-7416f31b3b0b","system_id":"levelo_inurba_marseille","lat":43.27993,"lon":5.40011,"is_reserved":false,"is_disabled":false,"rental_uris":{"android":"levelo://app?vid=74956dbe-73fd-4e71-846f-7416f31b3b0b","ios":"levelo://app?vid=74956dbe-73fd-4e71-846f-7416f31b3b0b"},"vehicle_type_id":"4","last_reported":1727809616,"current_range_meters":38800,"station_id":"ce4bho92rcd13ifvqh4g","pricing_plan_id":"cebpf4jnsgd1na2vs0mg"},{"bike_id":"e8c4d98b-9959-4b09-84e2-5f296ba0cb15","system_id":"levelo_inurba_marseille","lat":43.28665,"lon":5.36355,"is_reserved":false,"is_disabled":false,"rental_uris":{"android":"levelo://app?vid=e8c4d98b-9959-4b09-84e2-5f296ba0cb15","ios":"levelo://app?vid=e8c4d98b-9959-4b09-84e2-5f296ba0cb15"},"vehicle_type_id":"4","last_reported":1727809616,"current_range_meters":8000,"station_id":"ce4bhah2rcd13ifvqej0","pricing_plan_id":"cebpf4jnsgd1na2vs0mg"},{"bike_id":"79582176-d13f-4c1b-98a2-28a21e208e32","system_id":"levelo_inurba_marseille","lat":43.30087,"lon":5.39094,"is_reserved":false,"is_disabled":false,"rental_uris":{"android":"levelo://app?vid=79582176-d13f-4c1b-98a2-28a21e208e32","ios":"levelo://app?vid=79582176-d13f-4c1b-98a2-28a21e208e32"},"vehicle_type_id":"4","last_reported":1727809616,"current_range_meters":26800,"station_id":"ce4bh192rcd13ifvqdb0","pricing_plan_id":"cebpf4jnsgd1na2vs0mg"},{"bike_id":"0306418a-ecd7-471e-be8c-81f7ec244baf","system_id":"levelo_inurba_marseille","lat":43.31086,"lon":5.42428,"is_reserved":false,"is_disabled":false,"rental_uris":{"android":"levelo://app?vid=0306418a-ecd7-471e-be8c-81f7ec244baf","ios":"levelo://app?vid=0306418a-ecd7-471e-be8c-81f7ec244baf"},"vehicle_type_id":"4","last_reported":1727809616,"current_range_meters":39200,"station_id":"ce4bhp92rcd13ifvqhag","pricing_plan_id":"cebpf4jnsgd1na2vs0mg"},{"bike_id":"3a1842bf-b52d-4835-97b1-9c30914f4aed","system_id":"levelo_inurba_marseille","lat":43.31082,"lon":5.42429,"is_reserved":false,"is_disabled":false,"rental_uris":{"android":"levelo://app?vid=3a1842bf-b52d-4835-97b1-9c30914f4aed","ios":"levelo://app?vid=3a1842bf-b52d-4835-97b1-9c30914f4aed"},"vehicle_type_id":"4","last_reported":1727809616,"current_range_meters":38800,"station_id":"ce4bhp92rcd13ifvqhag","pricing_plan_id":"cebpf4jnsgd1na2vs0mg"},{"bike_id":"2f72d8b5-87e5-41ce-8bf5-2a01555553a2","system_id":"levelo_inurba_marseille","lat":43.27811,"lon":5.40714,"is_reserved":false,"is_disabled":false,"rental_uris":{"android":"levelo://app?vid=2f72d8b5-87e5-41ce-8bf5-2a01555553a2","ios":"levelo://app?vid=2f72d8b5-87e5-41ce-8bf5-2a01555553a2"},"vehicle_type_id":"4","last_reported":1727809616,"current_range_meters":30800,"station_id":"ce4bhnh2rcd13ifvqgtg","pricing_plan_id":"cebpf4jnsgd1na2vs0mg"},{"bike_id":"ec3735d9-6371-4b5b-97b4-ee64c302670f","system_id":"levelo_inurba_marseille","lat":43.320022,"lon":5.381597,"is_reserved":false,"is_disabled":false,"rental_uris":{"android":"levelo://app?vid=ec3735d9-6371-4b5b-97b4-ee64c302670f","ios":"levelo://app?vid=ec3735d9-6371-4b5b-97b4-ee64c302670f"},"vehicle_type_id":"4","last_reported":1727809616,"current_range_meters":38800,"station_id":"ce4bhr12rcd13ifvqhpg","pricing_plan_id":"cebpf4jnsgd1na2vs0mg"},{"bike_id":"56031aea-9627-4974-9856-b4f618a93914","system_id":"levelo_inurba_marseille","lat":43.31267,"lon":5.40175,"is_reserved":false,"is_disabled":false,"rental_uris":{"android":"levelo://app?vid=56031aea-9627-4974-9856-b4f618a93914","ios":"levelo://app?vid=56031aea-9627-4974-9856-b4f618a93914"},"vehicle_type_id":"4","last_reported":1727809616,"current_range_meters":12000,"station_id":"ce4bh092rcd13ifvqd30","pricing_plan_id":"cebpf4jnsgd1na2vs0mg"},{"bike_id":"b9bf7a7c-bf5e-4453-936d-eed13b748c4b","system_id":"levelo_inurba_marseille","lat":43.29264,"lon":5.38447,"is_reserved":false,"is_disabled":false,"rental_uris":{"android":"levelo://app?vid=b9bf7a7c-bf5e-4453-936d-eed13b748c4b","ios":"levelo://app?vid=b9bf7a7c-bf5e-4453-936d-eed13b748c4b"},"vehicle_type_id":"4","last_reported":1727809616,"current_range_meters":2800,"station_id":"ce4bh692rcd13ifvqea0","pricing_plan_id":"cebpf4jnsgd1na2vs0mg"},{"bike_id":"fa57c0a6-8008-4e21-a910-7479a4575e6e","system_id":"levelo_inurba_marseille","lat":43.29279,"lon":5.40118,"is_reserved":false,"is_disabled":false,"rental_uris":{"android":"levelo://app?vid=fa57c0a6-8008-4e21-a910-7479a4575e6e","ios":"levelo://app?vid=fa57c0a6-8008-4e21-a910-7479a4575e6e"},"vehicle_type_id":"4","last_reported":1727809616,"current_range_meters":11600,"station_id":"ce4bh312rcd13ifvqdk0","pricing_plan_id":"cebpf4jnsgd1na2vs0mg"},{"bike_id":"3f370a2c-619a-4392-bd50-26df4bf68643","system_id":"levelo_inurba_marseille","lat":43.32337,"lon":5.40621,"is_reserved":false,"is_disabled":false,"rental_uris":{"android":"levelo://app?vid=3f370a2c-619a-4392-bd50-26df4bf68643","ios":"levelo://app?vid=3f370a2c-619a-4392-bd50-26df4bf68643"},"vehicle_type_id":"4","last_reported":1727809616,"current_range_meters":38000,"station_id":"ce4bhq92rcd13ifvqhjg","pricing_plan_id":"cebpf4jnsgd1na2vs0mg"},{"bike_id":"a3bb5cfe-0a37-4de6-ab68-cdfeaabac780","system_id":"levelo_inurba_marseille","lat":43.32472,"lon":5.36577,"is_reserved":false,"is_disabled":false,"rental_uris":{"android":"levelo://app?vid=a3bb5cfe-0a37-4de6-ab68-cdfeaabac780","ios":"levelo://app?vid=a3bb5cfe-0a37-4de6-ab68-cdfeaabac780"},"vehicle_type_id":"4","last_reported":1727809616,"current_range_meters":37600,"station_id":"ce4bhs12rcd13ifvqhvg","pricing_plan_id":"cebpf4jnsgd1na2vs0mg"},{"bike_id":"d63fc2c6-5709-45e7-9eb5-f48f53e6afbf","system_id":"levelo_inurba_marseille","lat":43.29418,"lon":5.38631,"is_reserved":false,"is_disabled":false,"rental_uris":{"android":"levelo://app?vid=d63fc2c6-5709-45e7-9eb5-f48f53e6afbf","ios":"levelo://app?vid=d63fc2c6-5709-45e7-9eb5-f48f53e6afbf"},"vehicle_type_id":"4","last_reported":1727809616,"current_range_meters":9200,"station_id":"ce4bh2h2rcd13ifvqdh0","pricing_plan_id":"cebpf4jnsgd1na2vs0mg"},{"bike_id":"923cf930-c13e-416a-8fc5-f51ae063bd76","system_id":"levelo_inurba_marseille","lat":43.28609,"lon":5.35107,"is_reserved":false,"is_disabled":false,"rental_uris":{"android":"levelo://app?vid=923cf930-c13e-416a-8fc5-f51ae063bd76","ios":"levelo://app?vid=923cf930-c13e-416a-8fc5-f51ae063bd76"},"vehicle_type_id":"4","last_reported":1727809616,"current_range_meters":32400,"station_id":"ce4bhch2rcd13ifvqeug","pricing_plan_id":"cebpf4jnsgd1na2vs0mg"},{"bike_id":"dd74c7b7-b8b9-4afd-838c-03c782812643","system_id":"levelo_inurba_marseille","lat":43.30891,"lon":5.39654,"is_reserved":false,"is_disabled":false,"rental_uris":{"android":"levelo://app?vid=dd74c7b7-b8b9-4afd-838c-03c782812643","ios":"levelo://app?vid=dd74c7b7-b8b9-4afd-838c-03c782812643"},"vehicle_type_id":"4","last_reported":1727809616,"current_range_meters":17600,"station_id":"ce4bh012rcd13ifvqcv0","pricing_plan_id":"cebpf4jnsgd1na2vs0mg"},{"bike_id":"273d2fe6-abd4-4427-a7c9-29e1b226b624","system_id":"levelo_inurba_marseille","lat":43.29093,"lon":5.38139,"is_reserved":false,"is_disabled":false,"rental_uris":{"android":"levelo://app?vid=273d2fe6-abd4-4427-a7c9-29e1b226b624","ios":"levelo://app?vid=273d2fe6-abd4-4427-a7c9-29e1b226b624"},"vehicle_type_id":"4","last_reported":1727809616,"current_range_meters":14800,"station_id":"ce4bh512rcd13ifvqe2g","pricing_plan_id":"cebpf4jnsgd1na2vs0mg"},{"bike_id":"cdb87415-5443-41ff-941b-7528d72c17b0","system_id":"levelo_inurba_marseille","lat":43.30329,"lon":5.40439,"is_reserved":false,"is_disabled":false,"rental_uris":{"android":"levelo://app?vid=cdb87415-5443-41ff-941b-7528d72c17b0","ios":"levelo://app?vid=cdb87415-5443-41ff-941b-7528d72c17b0"},"vehicle_type_id":"4","last_reported":1727809616,"current_range_meters":22000,"station_id":"ce4bh012rcd13ifvqd10","pricing_plan_id":"cebpf4jnsgd1na2vs0mg"},{"bike_id":"7dcfba29-06dd-41a1-a034-908a6cb3debc","system_id":"levelo_inurba_marseille","lat":43.32484,"lon":5.36568,"is_reserved":false,"is_disabled":false,"rental_uris":{"android":"levelo://app?vid=7dcfba29-06dd-41a1-a034-908a6cb3debc","ios":"levelo://app?vid=7dcfba29-06dd-41a1-a034-908a6cb3debc"},"vehicle_type_id":"4","last_reported":1727809616,"current_range_meters":37600,"station_id":"ce4bhs12rcd13ifvqhvg","pricing_plan_id":"cebpf4jnsgd1na2vs0mg"},{"bike_id":"5b42c565-9fd0-4f86-9504-b5449b2210e1","system_id":"levelo_inurba_marseille","lat":43.31752,"lon":5.39018,"is_reserved":false,"is_disabled":false,"rental_uris":{"android":"levelo://app?vid=5b42c565-9fd0-4f86-9504-b5449b2210e1","ios":"levelo://app?vid=5b42c565-9fd0-4f86-9504-b5449b2210e1"},"vehicle_type_id":"4","last_reported":1727809616,"current_range_meters":38800,"station_id":"ce4bhqp2rcd13ifvqhng","pricing_plan_id":"cebpf4jnsgd1na2vs0mg"},{"bike_id":"43c5b989-38fb-4f8f-bcc3-869c6b872774","system_id":"levelo_inurba_marseille","lat":43.31714,"lon":5.37754,"is_reserved":false,"is_disabled":false,"rental_uris":{"android":"levelo://app?vid=43c5b989-38fb-4f8f-bcc3-869c6b872774","ios":"levelo://app?vid=43c5b989-38fb-4f8f-bcc3-869c6b872774"},"vehicle_type_id":"4","last_reported":1727809616,"current_range_meters":19600,"station_id":"ce4bgth2rcd13ifvqch0","pricing_plan_id":"cebpf4jnsgd1na2vs0mg"},{"bike_id":"eb99b6cf-1679-4a0a-b8b3-611f18d5da2d","system_id":"levelo_inurba_marseille","lat":43.31713,"lon":5.37739,"is_reserved":false,"is_disabled":false,"rental_uris":{"android":"levelo://app?vid=eb99b6cf-1679-4a0a-b8b3-611f18d5da2d","ios":"levelo://app?vid=eb99b6cf-1679-4a0a-b8b3-611f18d5da2d"},"vehicle_type_id":"4","last_reported":1727809616,"current_range_meters":3200,"station_id":"ce4bgth2rcd13ifvqch0","pricing_plan_id":"cebpf4jnsgd1na2vs0mg"},{"bike_id":"0bac7494-8be7-455a-8828-62f69b51dde6","system_id":"levelo_inurba_marseille","lat":43.30139,"lon":5.39863,"is_reserved":false,"is_disabled":false,"rental_uris":{"android":"levelo://app?vid=0bac7494-8be7-455a-8828-62f69b51dde6","ios":"levelo://app?vid=0bac7494-8be7-455a-8828-62f69b51dde6"},"vehicle_type_id":"4","last_reported":1727809616,"current_range_meters":16000,"station_id":"ce4bh0h2rcd13ifvqd40","pricing_plan_id":"cebpf4jnsgd1na2vs0mg"},{"bike_id":"0da8fe58-6296-4f1b-b8b8-14716687e0b4","system_id":"levelo_inurba_marseille","lat":43.31332,"lon":5.39695,"is_reserved":false,"is_disabled":false,"rental_uris":{"android":"levelo://app?vid=0da8fe58-6296-4f1b-b8b8-14716687e0b4","ios":"levelo://app?vid=0da8fe58-6296-4f1b-b8b8-14716687e0b4"},"vehicle_type_id":"4","last_reported":1727809616,"current_range_meters":38800,"station_id":"ce4bgvp2rcd13ifvqcu0","pricing_plan_id":"cebpf4jnsgd1na2vs0mg"},{"bike_id":"ce9bfe8d-7f0a-46cd-ac96-6ae67b779c78","system_id":"levelo_inurba_marseille","lat":43.27904,"lon":5.38018,"is_reserved":false,"is_disabled":false,"rental_uris":{"android":"levelo://app?vid=ce9bfe8d-7f0a-46cd-ac96-6ae67b779c78","ios":"levelo://app?vid=ce9bfe8d-7f0a-46cd-ac96-6ae67b779c78"},"vehicle_type_id":"4","last_reported":1727809616,"current_range_meters":12400,"station_id":"ce4bhf92rcd13ifvqf50","pricing_plan_id":"cebpf4jnsgd1na2vs0mg"},{"bike_id":"8d6ec373-064f-4271-9a9f-025b34edbda5","system_id":"levelo_inurba_marseille","lat":43.29876,"lon":5.3891,"is_reserved":false,"is_disabled":false,"rental_uris":{"android":"levelo://app?vid=8d6ec373-064f-4271-9a9f-025b34edbda5","ios":"levelo://app?vid=8d6ec373-064f-4271-9a9f-025b34edbda5"},"vehicle_type_id":"4","last_reported":1727809616,"current_range_meters":9600,"station_id":"ce4bh392rcd13ifvqdl0","pricing_plan_id":"cebpf4jnsgd1na2vs0mg"},{"bike_id":"54194341-6954-47f9-8821-d91cad679033","system_id":"levelo_inurba_marseille","lat":43.31176,"lon":5.38721,"is_reserved":false,"is_disabled":false,"rental_uris":{"android":"levelo://app?vid=54194341-6954-47f9-8821-d91cad679033","ios":"levelo://app?vid=54194341-6954-47f9-8821-d91cad679033"},"vehicle_type_id":"4","last_reported":1727809616,"current_range_meters":27200,"station_id":"ce4bgv12rcd13ifvqcp0","pricing_plan_id":"cebpf4jnsgd1na2vs0mg"},{"bike_id":"73878f8d-94ac-455b-bbd7-836c06e337de","system_id":"levelo_inurba_marseille","lat":43.29421,"lon":5.38634,"is_reserved":false,"is_disabled":false,"rental_uris":{"android":"levelo://app?vid=73878f8d-94ac-455b-bbd7-836c06e337de","ios":"levelo://app?vid=73878f8d-94ac-455b-bbd7-836c06e337de"},"vehicle_type_id":"4","last_reported":1727809616,"current_range_meters":25200,"station_id":"ce4bh2h2rcd13ifvqdh0","pricing_plan_id":"cebpf4jnsgd1na2vs0mg"},{"bike_id":"3bb0704b-e238-4cb3-965a-f36f7a5cdbde","system_id":"levelo_inurba_marseille","lat":43.32478,"lon":5.36566,"is_reserved":false,"is_disabled":false,"rental_uris":{"android":"levelo://app?vid=3bb0704b-e238-4cb3-965a-f36f7a5cdbde","ios":"levelo://app?vid=3bb0704b-e238-4cb3-965a-f36f7a5cdbde"},"vehicle_type_id":"4","last_reported":1727809616,"current_range_meters":15200,"station_id":"ce4bhs12rcd13ifvqhvg","pricing_plan_id":"cebpf4jnsgd1na2vs0mg"},{"bike_id":"e686463a-e293-4038-b17c-9ccadabf5984","system_id":"levelo_inurba_marseille","lat":43.29899,"lon":5.43674,"is_reserved":false,"is_disabled":false,"rental_uris":{"android":"levelo://app?vid=e686463a-e293-4038-b17c-9ccadabf5984","ios":"levelo://app?vid=e686463a-e293-4038-b17c-9ccadabf5984"},"vehicle_type_id":"4","last_reported":1727809616,"current_range_meters":40000,"station_id":"ce4bhpp2rcd13ifvqhfg","pricing_plan_id":"cebpf4jnsgd1na2vs0mg"},{"bike_id":"ea8c77f8-a4d6-44d0-890b-075962a0252e","system_id":"levelo_inurba_marseille","lat":43.29044,"lon":5.37571,"is_reserved":false,"is_disabled":false,"rental_uris":{"android":"levelo://app?vid=ea8c77f8-a4d6-44d0-890b-075962a0252e","ios":"levelo://app?vid=ea8c77f8-a4d6-44d0-890b-075962a0252e"},"vehicle_type_id":"4","last_reported":1727809616,"current_range_meters":38800,"station_id":"ce4bh692rcd13ifvqe90","pricing_plan_id":"cebpf4jnsgd1na2vs0mg"},{"bike_id":"5644078e-2f2c-4595-b652-c81a155272bf","system_id":"levelo_inurba_marseille","lat":43.30884,"lon":5.3965,"is_reserved":false,"is_disabled":false,"rental_uris":{"android":"levelo://app?vid=5644078e-2f2c-4595-b652-c81a155272bf","ios":"levelo://app?vid=5644078e-2f2c-4595-b652-c81a155272bf"},"vehicle_type_id":"4","last_reported":1727809616,"current_range_meters":13600,"station_id":"ce4bh012rcd13ifvqcv0","pricing_plan_id":"cebpf4jnsgd1na2vs0mg"},{"bike_id":"1727a209-9ea4-47cf-a28d-2e48d195263d","system_id":"levelo_inurba_marseille","lat":43.28,"lon":5.40018,"is_reserved":false,"is_disabled":false,"rental_uris":{"android":"levelo://app?vid=1727a209-9ea4-47cf-a28d-2e48d195263d","ios":"levelo://app?vid=1727a209-9ea4-47cf-a28d-2e48d195263d"},"vehicle_type_id":"4","last_reported":1727809616,"current_range_meters":33200,"station_id":"ce4bho92rcd13ifvqh4g","pricing_plan_id":"cebpf4jnsgd1na2vs0mg"},{"bike_id":"31c1cc2c-166b-4ccf-a564-a0e30f4dab2c","system_id":"levelo_inurba_marseille","lat":43.3081,"lon":5.38164,"is_reserved":false,"is_disabled":false,"rental_uris":{"android":"levelo://app?vid=31c1cc2c-166b-4ccf-a564-a0e30f4dab2c","ios":"levelo://app?vid=31c1cc2c-166b-4ccf-a564-a0e30f4dab2c"},"vehicle_type_id":"4","last_reported":1727809616,"current_range_meters":37600,"station_id":"ce4bgt12rcd13ifvqce0","pricing_plan_id":"cebpf4jnsgd1na2vs0mg"},{"bike_id":"a6866f1e-2be6-4aeb-be02-c3a209d1c92c","system_id":"levelo_inurba_marseille","lat":43.28405,"lon":5.37521,"is_reserved":false,"is_disabled":false,"rental_uris":{"android":"levelo://app?vid=a6866f1e-2be6-4aeb-be02-c3a209d1c92c","ios":"levelo://app?vid=a6866f1e-2be6-4aeb-be02-c3a209d1c92c"},"vehicle_type_id":"4","last_reported":1727809616,"current_range_meters":17200,"station_id":"ce4bh412rcd13ifvqds0","pricing_plan_id":"cebpf4jnsgd1na2vs0mg"},{"bike_id":"d78ed947-08cd-429b-8d6b-386f54410ecf","system_id":"levelo_inurba_marseille","lat":43.28838,"lon":5.39313,"is_reserved":false,"is_disabled":false,"rental_uris":{"android":"levelo://app?vid=d78ed947-08cd-429b-8d6b-386f54410ecf","ios":"levelo://app?vid=d78ed947-08cd-429b-8d6b-386f54410ecf"},"vehicle_type_id":"4","last_reported":1727809616,"current_range_meters":22400,"station_id":"ce4bh2p2rcd13ifvqdi0","pricing_plan_id":"cebpf4jnsgd1na2vs0mg"},