{"last_updated":1761131372,"ttl":60,"version":"2.2","data":{"bikes":[{"bike_id":"23d2e327-9a1c-43f9-a1d7-2fca27e96f84","system_id":"levelo_inurba_marseille","lat":43.27354,"lon":5.41519,"is_reserved":false,"is_disabled":false,"rental_uris":{"android":"levelo://app?vid=23d2e327-9a1c-43f9-a1d7-2fca27e96f84","ios":"levelo://app?vid=23d2e327-9a1c-43f9-a1d7-2fca27e96f84"},"vehicle_type_id":"4","last_reported":1761131372,"current_range_meters":2800,"station_id":"","pricing_plan_id":"cebpf4jnsgd1na2vs0mg"},{"bike_id":"6d8da19b-0143-43ba-a2b6-b774a32597d4","system_id":"levelo_inurba_marseille","lat":43.2816,"lon":5.3476,"is_reserved":false,"is_disabled":false,"rental_uris":{"android":"levelo://app?vid=6d8da19b-0143-43ba-a2b6-b774a32597d4","ios":"levelo://app?vid=6d8da19b-0143-43ba-a2b6-b774a32597d4"},"vehicle_type_id":"4","last_reported":1761131372,"current_range_meters":3200,"station_id":"","pricing_plan_id":"cebpf4jnsgd1na2vs0mg"},{"bike_id":"8dcfa198-2d4a-4918-bbd0-8ce1a90c26be","system_id":"levelo_inurba_marseille","lat":43.30305,"lon":5.36886,"is_reserved":false,"is_disabled":false,"rental_uris":{"android":"levelo://app?vid=8dcfa198-2d4a-4918-bbd0-8ce1a90c26be","ios":"levelo://app?vid=8dcfa198-2d4a-4918-bbd0-8ce1a90c26be"},"vehicle_type_id":"4","last_reported":1761131372,"current_range_meters":3200,"station_id":"ce4bgqh2rcd13ifvqc5g","pricing_plan_id":"cebpf4jnsgd1na2vs0mg"},{"bike_id":"163f1c6c-98e0-4365-ad77-f0d5d98ce2d8","system_id":"levelo_inurba_marseille","lat":43.211908,"lon":5.350735,"is_reserved":false,"is_disabled":false,"rental_uris":{"android":"levelo://app?vid=163f1c6c-98e0-4365-ad77-f0d5d98ce2d8","ios":"levelo://app?vid=163f1c6c-98e0-4365-ad77-f0d5d98ce2d8"},"vehicle_type_id":"4","last_reported":1761131372,"current_range_meters":3200,"station_id":"","pricing_plan_id":"cebpf4jnsgd1na2vs0mg"},{"bike_id":"98490d11-db71-4361-ab96-f0addd49d050","system_id":"levelo_inurba_marseille","lat":43.30006,"lon":5.37352,"is_reserved":false,"is_disabled":false,"rental_uris":{"android":"levelo://app?vid=98490d11-db71-4361-ab96-f0addd49d050","ios":"levelo://app?vid=98490d11-db71-4361-ab96-f0addd49d050"},"vehicle_type_id":"4","last_reported":1761131372,"current_range_meters":3200,"station_id":"","pricing_plan_id":"cebpf4jnsgd1na2vs0mg"},{"bike_id":"e3f03a4b-79e8-4c86-8b60-dae37cb49b4e","system_id":"levelo_inurba_marseille","lat":43.21748,"lon":5.346,"is_reserved":false,"is_disabled":false,"rental_uris":{"android":"levelo://app?vid=e3f03a4b-79e8-4c86-8b60-dae37cb49b4e","ios":"levelo://app?vid=e3f03a4b-79e8-4c86-8b60-dae37cb49b4e"},"vehicle_type_id":"4","last_reported":1761131372,"current_range_meters":3600,"station_id":"st_cvj6r9ubvosntc0bgbag","pricing_plan_id":"cebpf4jnsgd1na2vs0mg"},{"bike_id":"56808f09-5a62-403b-b8e3-97d89aaf3152","system_id":"levelo_inurba_marseille","lat":43.29797,"lon":5.37908,"is_reserved":false,"is_disabled":false,"rental_uris":{"android":"levelo://app?vid=56808f09-5a62-403b-b8e3-97d89aaf3152","ios":"levelo://app?vid=56808f09-5a62-403b-b8e3-97d89aaf3152"},"vehicle_type_id":"4","last_reported":1761131372,"current_range_meters":3600,"station_id":"","pricing_plan_id":"cebpf4jnsgd1na2vs0mg"},{"bike_id":"32fe13f3-1998-41d4-a763-4eea85838a36","system_id":"levelo_inurba_marseille","lat":43.286073,"lon":5.37065,"is_reserved":false,"is_disabled":false,"rental_uris":{"android":"levelo://app?vid=32fe13f3-1998-41d4-a763-4eea85838a36","ios":"levelo://app?vid=32fe13f3-1998-41d4-a763-4eea85838a36"},"vehicle_type_id":"4","last_reported":1761131372,"current_range_meters":3600,"station_id":"ce4bht12rcd13ifvqi60","pricing_plan_id":"cebpf4jnsgd1na2vs0mg"},{"bike_id":"d47a812c-a499-4a60-9f4d-bd589a67d1a7","system_id":"levelo_inurba_marseille","lat":43.33599,"lon":5.4102,"is_reserved":false,"is_disabled":false,"rental_uris":{"android":"levelo://app?vid=d47a812c-a499-4a60-9f4d-bd589a67d1a7","ios":"levelo://app?vid=d47a812c-a499-4a60-9f4d-bd589a67d1a7"},"vehicle_type_id":"4","last_reported":1761131372,"current_range_meters":4000,"station_id":"ce4bhqh2rcd13ifvqhmg","pricing_plan_id":"cebpf4jnsgd1na2vs0mg"},{"bike_id":"8952652d-181d-4647-99e0-dd7c8dc8f72d","system_id":"levelo_inurba_marseille","lat":43.2853,"lon":5.44117,"is_reserved":false,"is_disabled":false,"rental_uris":{"android":"levelo://app?vid=8952652d-181d-4647-99e0-dd7c8dc8f72d","ios":"levelo://app?vid=8952652d-181d-4647-99e0-dd7c8dc8f72d"},"vehicle_type_id":"4","last_reported":1761131372,"current_range_meters":5600,"station_id":"st_d3j3df2ikq2c7380ej80","pricing_plan_id":"cebpf4jnsgd1na2vs0mg"},{"bike_id":"1a1deaff-f49d-4805-9b6e-b92773ad5258","system_id":"levelo_inurba_marseille","lat":43.265481,"lon":5.37285,"is_reserved":false,"is_disabled":false,"rental_uris":{"android":"levelo://app?vid=1a1deaff-f49d-4805-9b6e-b92773ad5258","ios":"levelo://app?vid=1a1deaff-f49d-4805-9b6e-b92773ad5258"},"vehicle_type_id":"4","last_reported":1761131372,"current_range_meters":5600,"station_id":"ce4bhn92rcd13ifvqgsg","pricing_plan_id":"cebpf4jnsgd1na2vs0mg"},{"bike_id":"a870d8c4-d388-4bd8-a292-a2b1665e7e0e","system_id":"levelo_inurba_marseille","lat":43.304308,"lon":5.405861,"is_reserved":false,"is_disabled":false,"rental_uris":{"android":"levelo://app?vid=a870d8c4-d388-4bd8-a292-a2b1665e7e0e","ios":"levelo://app?vid=a870d8c4-d388-4bd8-a292-a2b1665e7e0e"},"vehicle_type_id":"4","last_reported":1761131372,"current_range_meters":5600,"station_id":"","pricing_plan_id":"cebpf4jnsgd1na2vs0mg"},{"bike_id":"4154d683-e72a-4592-9e60-2a3872848698","system_id":"levelo_inurba_marseille","lat":43.28475,"lon":5.48401,"is_reserved":false,"is_disabled":false,"rental_uris":{"android":"levelo://app?vid=4154d683-e72a-4592-9e60-2a3872848698","ios":"levelo://app?vid=4154d683-e72a-4592-9e60-2a3872848698"},"vehicle_type_id":"4","last_reported":1761131372,"current_range_meters":6000,"station_id":"st_d3jp68qikq2c7381ktn0","pricing_plan_id":"cebpf4jnsgd1na2vs0mg"},{"bike_id":"898ce7c2-a33f-476d-aacc-ab9f374247cb","system_id":"levelo_inurba_marseille","lat":43.30877,"lon":5.39633,"is_reserved":false,"is_disabled":false,"rental_uris":{"android":"levelo://app?vid=898ce7c2-a33f-476d-aacc-ab9f374247cb","ios":"levelo://app?vid=898ce7c2-a33f-476d-aacc-ab9f374247cb"},"vehicle_type_id":"4","last_reported":1761131372,"current_range_meters":6000,"station_id":"ce4bh012rcd13ifvqcv0","pricing_plan_id":"cebpf4jnsgd1na2vs0mg"},{"bike_id":"a2e131f8-3c9f-478a-b394-6a9db5f46a7a","system_id":"levelo_inurba_marseille","lat":43.30131,"lon":5.37428,"is_reserved":false,"is_disabled":true,"rental_uris":{"android":"levelo://app?vid=a2e131f8-3c9f-478a-b394-6a9db5f46a7a","ios":"levelo://app?vid=a2e131f8-3c9f-478a-b394-6a9db5f46a7a"},"vehicle_type_id":"4","last_reported":1761131372,"current_range_meters":6000,"station_id":"ce4bgs92rcd13ifvqcc0","pricing_plan_id":"cebpf4jnsgd1na2vs0mg"},{"bike_id":"255a377d-604e-4d67-8392-ad06983e4054","system_id":"levelo_inurba_marseille","lat":43.2927,"lon":5.36843,"is_reserved":false,"is_disabled":false,"rental_uris":{"android":"levelo://app?vid=255a377d-604e-4d67-8392-ad06983e4054","ios":"levelo://app?vid=255a377d-604e-4d67-8392-ad06983e4054"},"vehicle_type_id":"4","last_reported":1761131372,"current_range_meters":6000,"station_id":"ce4bhbp2rcd13ifvqesg","pricing_plan_id":"cebpf4jnsgd1na2vs0mg"},{"bike_id":"adb6da43-a790-4bbe-8cdb-8fa1e5d17796","system_id":"levelo_inurba_marseille","lat":43.3175,"lon":5.38585,"is_reserved":false,"is_disabled":true,"rental_uris":{"android":"levelo://app?vid=adb6da43-a790-4bbe-8cdb-8fa1e5d17796","ios":"levelo://app?vid=adb6da43-a790-4bbe-8cdb-8fa1e5d17796"},"vehicle_type_id":"4","last_reported":1761131372,"current_range_meters":6000,"station_id":"","pricing_plan_id":"cebpf4jnsgd1na2vs0mg"},{"bike_id":"2d24ac31-78f9-481b-9d5c-ea0a58464439","system_id":"levelo_inurba_marseille","lat":43.29198,"lon":5.42261,"is_reserved":false,"is_disabled":false,"rental_uris":{"android":"levelo://app?vid=2d24ac31-78f9-481b-9d5c-ea0a58464439","ios":"levelo://app?vid=2d24ac31-78f9-481b-9d5c-ea0a58464439"},"vehicle_type_id":"4","last_reported":1761131372,"current_range_meters":6000,"station_id":"","pricing_plan_id":"cebpf4jnsgd1na2vs0mg"},{"bike_id":"e7cb61d9-84d9-41c0-8427-00fc6a9e436b","system_id":"levelo_inurba_marseille","lat":43.31059,"lon":5.37549,"is_reserved":false,"is_disabled":false,"rental_uris":{"android":"levelo://app?vid=e7cb61d9-84d9-41c0-8427-00fc6a9e436b","ios":"levelo://app?vid=e7cb61d9-84d9-41c0-8427-00fc6a9e436b"},"vehicle_type_id":"4","last_reported":1761131372,"current_range_meters":6000,"station_id":"","pricing_plan_id":"cebpf4jnsgd1na2vs0mg"},{"bike_id":"21a770c2-7850-4b78-ba2c-c68039fc32e3","system_id":"levelo_inurba_marseille","lat":43.31219,"lon":5.36856,"is_reserved":false,"is_disabled":false,"rental_uris":{"android":"levelo://app?vid=21a770c2-7850-4b78-ba2c-c68039fc32e3","ios":"levelo://app?vid=21a770c2-7850-4b78-ba2c-c68039fc32e3"},"vehicle_type_id":"4","last_reported":1761131372,"current_range_meters":6400,"station_id":"ce4bgl92rcd13ifvqbq0","pricing_plan_id":"cebpf4jnsgd1na2vs0mg"},{"bike_id":"75b8dac4-aff6-43b9-bdbc-9b0f00dcb374","system_id":"levelo_inurba_marseille","lat":43.29562,"lon":5.39971,"is_reserved":false,"is_disabled":false,"rental_uris":{"android":"levelo://app?vid=75b8dac4-aff6-43b9-bdbc-9b0f00dcb374","ios":"levelo://app?vid=75b8dac4-aff6-43b9-bdbc-9b0f00dcb374"},"vehicle_type_id":"4","last_reported":1761131372,"current_range_meters":6400,"station_id":"ce4bh312rcd13ifvqdj0","pricing_plan_id":"cebpf4jnsgd1na2vs0mg"},{"bike_id":"24ce534c-5d06-4f76-aeda-4ee77595fe53","system_id":"levelo_inurba_marseille","lat":43.23164,"lon":5.4369,"is_reserved":false,"is_disabled":false,"rental_uris":{"android":"levelo://app?vid=24ce534c-5d06-4f76-aeda-4ee77595fe53","ios":"levelo://app?vid=24ce534c-5d06-4f76-aeda-4ee77595fe53"},"vehicle_type_id":"4","last_reported":1761131372,"current_range_meters":6400,"station_id":"ce4bhmp2rcd13ifvqgog","pricing_plan_id":"cebpf4jnsgd1na2vs0mg"},{"bike_id":"9f30fdb6-7ce6-42e7-b07a-dd9420a73c38","system_id":"levelo_inurba_marseille","lat":43.30142,"lon":5.3808,"is_reserved":false,"is_disabled":false,"rental_uris":{"android":"levelo://app?vid=9f30fdb6-7ce6-42e7-b07a-dd9420a73c38","ios":"levelo://app?vid=9f30fdb6-7ce6-42e7-b07a-dd9420a73c38"},"vehicle_type_id":"4","last_reported":1761131372,"current_range_meters":6800,"station_id":"ce4bgjp2rcd13ifvqbh0","pricing_plan_id":"cebpf4jnsgd1na2vs0mg"},{"bike_id":"64964488-5a86-4121-95f2-b35f51470caf","system_id":"levelo_inurba_marseille","lat":43.26209,"lon":5.37439,"is_reserved":false,"is_disabled":false,"rental_uris":{"android":"levelo://app?vid=64964488-5a86-4121-95f2-b35f51470caf","ios":"levelo://app?vid=64964488-5a86-4121-95f2-b35f51470caf"},"vehicle_type_id":"4","last_reported":1761131372,"current_range_meters":6800,"station_id":"ce4bhgp2rcd13ifvqfc0","pricing_plan_id":"cebpf4jnsgd1na2vs0mg"},{"bike_id":"08f884e1-40bf-4382-9b87-338ee53fe904","system_id":"levelo_inurba_marseille","lat":43.29891,"lon":5.43665,"is_reserved":false,"is_disabled":false,"rental_uris":{"android":"levelo://app?vid=08f884e1-40bf-4382-9b87-338ee53fe904","ios":"levelo://app?vid=08f884e1-40bf-4382-9b87-338ee53fe904"},"vehicle_type_id":"4","last_reported":1761131372,"current_range_meters":7200,"station_id":"ce4bhpp2rcd13ifvqhfg","pricing_plan_id":"cebpf4jnsgd1na2vs0mg"},{"bike_id":"f172e0cb-8805-47b3-904f-87ed99aedc8c","system_id":"levelo_inurba_marseille","lat":43.28403,"lon":5.37501,"is_reserved":false,"is_disabled":false,"rental_uris":{"android":"levelo://app?vid=f172e0cb-8805-47b3-904f-87ed99aedc8c","ios":"levelo://app?vid=f172e0cb-8805-47b3-904f-87ed99aedc8c"},"vehicle_type_id":"4","last_reported":1761131372,"current_range_meters":8000,"station_id":"ce4bh412rcd13ifvqds0","pricing_plan_id":"cebpf4jnsgd1na2vs0mg"},{"bike_id":"3d068a7d-8c2c-4f97-8d7d-54140fa95800","system_id":"levelo_inurba_marseille","lat":43.273583,"lon":5.39879,"is_reserved":false,"is_disabled":false,"rental_uris":{"android":"levelo://app?vid=3d068a7d-8c2c-4f97-8d7d-54140fa95800","ios":"levelo://app?vid=3d068a7d-8c2c-4f97-8d7d-54140fa95800"},"vehicle_type_id":"4","last_reported":1761131372,"current_range_meters":8000,"station_id":"","pricing_plan_id":"cebpf4jnsgd1na2vs0mg"},{"bike_id":"1e828d29-9ce3-4620-8df4-1dbcabd64cc3","system_id":"levelo_inurba_marseille","lat":43.21191,"lon":5.35073,"is_reserved":false,"is_disabled":false,"rental_uris":{"android":"levelo://app?vid=1e828d29-9ce3-4620-8df4-1dbcabd64cc3","ios":"levelo://app?vid=1e828d29-9ce3-4620-8df4-1dbcabd64cc3"},"vehicle_type_id":"4","last_reported":1761131372,"current_range_meters":8000,"station_id":"st_cvj6sg6p6f1abm77japg","pricing_plan_id":"cebpf4jnsgd1na2vs0mg"},{"bike_id":"ec36adce-3e16-462a-b3e8-2458ed53e6c5","system_id":"levelo_inurba_marseille","lat":43.29264,"lon":5.38449,"is_reserved":false,"is_disabled":false,"rental_uris":{"android":"levelo://app?vid=ec36adce-3e16-462a-b3e8-2458ed53e6c5","ios":"levelo://app?vid=ec36adce-3e16-462a-b3e8-2458ed53e6c5"},"vehicle_type_id":"4","last_reported":1761131372,"current_range_meters":8000,"station_id":"ce4bh692rcd13ifvqea0","pricing_plan_id":"cebpf4jnsgd1na2vs0mg"},{"bike_id":"2dd7c346-6c96-4775-846a-652a22a7267b","system_id":"levelo_inurba_marseille","lat":43.23189,"lon":5.39974,"is_reserved":false,"is_disabled":false,"rental_uris":{"android":"levelo://app?vid=2dd7c346-6c96-4775-846a-652a22a7267b","ios":"levelo://app?vid=2dd7c346-6c96-4775-846a-652a22a7267b"},"vehicle_type_id":"4","last_reported":1761131372,"current_range_meters":8000,"station_id":"ce4bhn12rcd13ifvqgqg","pricing_plan_id":"cebpf4jnsgd1na2vs0mg"},{"bike_id":"66bec76d-d7e9-4a1e-a715-39e56334bf96","system_id":"levelo_inurba_marseille","lat":43.2829,"lon":5.39654,"is_reserved":false,"is_disabled":false,"rental_uris":{"android":"levelo://app?vid=66bec76d-d7e9-4a1e-a715-39e56334bf96","ios":"levelo://app?vid=66bec76d-d7e9-4a1e-a715-39e56334bf96"},"vehicle_type_id":"4","last_reported":1761131372,"current_range_meters":8400,"station_id":"","pricing_plan_id":"cebpf4jnsgd1na2vs0mg"},{"bike_id":"b7e41c34-cad5-468c-aadc-3ef8a1845b5a","system_id":"levelo_inurba_marseille","lat":43.28162,"lon":5.36123,"is_reserved":false,"is_disabled":false,"rental_uris":{"android":"levelo://app?vid=b7e41c34-cad5-468c-aadc-3ef8a1845b5a","ios":"levelo://app?vid=b7e41c34-cad5-468c-aadc-3ef8a1845b5a"},"vehicle_type_id":"4","last_reported":1761131372,"current_range_meters":8400,"station_id":"","pricing_plan_id":"cebpf4jnsgd1na2vs0mg"},{"bike_id":"97585d63-cae0-46a3-8fec-9651d52b3156","system_id":"levelo_inurba_marseille","lat":43.27899,"lon":5.37998,"is_reserved":false,"is_disabled":true,"rental_uris":{"android":"levelo://app?vid=97585d63-cae0-46a3-8fec-9651d52b3156","ios":"levelo://app?vid=97585d63-cae0-46a3-8fec-9651d52b3156"},"vehicle_type_id":"4","last_reported":1761131372,"current_range_meters":8400,"station_id":"ce4bhf92rcd13ifvqf50","pricing_plan_id":"cebpf4jnsgd1na2vs0mg"},{"bike_id":"da3c5d5d-639d-4a11-88e1-f7b9c2ad220a","system_id":"levelo_inurba_marseille","lat":43.31613,"lon":5.37676,"is_reserved":false,"is_disabled":true,"rental_uris":{"android":"levelo://app?vid=da3c5d5d-639d-4a11-88e1-f7b9c2ad220a","ios":"levelo://app?vid=da3c5d5d-639d-4a11-88e1-f7b9c2ad220a"},"vehicle_type_id":"4","last_reported":1761131372,"current_range_meters":8400,"station_id":"ce4bgth2rcd13ifvqch0","pricing_plan_id":"cebpf4jnsgd1na2vs0mg"},{"bike_id":"ef09b433-5bd3-4617-847a-73c7afe35967","system_id":"levelo_inurba_marseille","lat":43.30173,"lon":5.38086,"is_reserved":false,"is_disabled":false,"rental_uris":{"android":"levelo://app?vid=ef09b433-5bd3-4617-847a-73c7afe35967","ios":"levelo://app?vid=ef09b433-5bd3-4617-847a-73c7afe35967"},"vehicle_type_id":"4","last_reported":1761131372,"current_range_meters":8800,"station_id":"ce4bgjp2rcd13ifvqbh0","pricing_plan_id":"cebpf4jnsgd1na2vs0mg"},{"bike_id":"9a2f46b2-5805-4c07-8b96-50cdae99294d","system_id":"levelo_inurba_marseille","lat":43.309454,"lon":5.390396,"is_reserved":false,"is_disabled":false,"rental_uris":{"android":"levelo://app?vid=9a2f46b2-5805-4c07-8b96-50cdae99294d","ios":"levelo://app?vid=9a2f46b2-5805-4c07-8b96-50cdae99294d"},"vehicle_type_id":"4","last_reported":1761131372,"current_range_meters":8800,"station_id":"ce4bgup2rcd13ifvqco0","pricing_plan_id":"cebpf4jnsgd1na2vs0mg"},{"bike_id":"c4432b73-0adb-475d-83b3-18f6e7bba483","system_id":"levelo_inurba_marseille","lat":43.33035,"lon":5.39411,"is_reserved":false,"is_disabled":false,"rental_uris":{"android":"levelo://app?vid=c4432b73-0adb-475d-83b3-18f6e7bba483","ios":"levelo://app?vid=c4432b73-0adb-475d-83b3-18f6e7bba483"},"vehicle_type_id":"4","last_reported":1761131372,"current_range_meters":8800,"station_id":"","pricing_plan_id":"cebpf4jnsgd1na2vs0mg"},{"bike_id":"e3f21edf-9578-405a-a9ca-12f70a24bf29","system_id":"levelo_inurba_marseille","lat":43.30123,"lon":5.39851,"is_reserved":false,"is_disabled":false,"rental_uris":{"android":"levelo://app?vid=e3f21edf-9578-405a-a9ca-12f70a24bf29","ios":"levelo://app?vid=e3f21edf-9578-405a-a9ca-12f70a24bf29"},"vehicle_type_id":"4","last_reported":1761131372,"current_range_meters":9200,"station_id":"ce4bh0h2rcd13ifvqd40","pricing_plan_id":"cebpf4jnsgd1na2vs0mg"},{"bike_id":"e6a607fb-c069-4293-9973-f23a27ee62ab","system_id":"levelo_inurba_marseille","lat":43.337153,"lon":5.391862,"is_reserved":false,"is_disabled":false,"rental_uris":{"android":"levelo://app?vid=e6a607fb-c069-4293-9973-f23a27ee62ab","ios":"levelo://app?vid=e6a607fb-c069-4293-9973-f23a27ee62ab"},"vehicle_type_id":"4","last_reported":1761131372,"current_range_meters":9200,"station_id":"ce4bhr92rcd13ifvqhsg","pricing_plan_id":"cebpf4jnsgd1na2vs0mg"},{"bike_id":"1dab638a-c5c1-4610-91a2-47832ff6f333","system_id":"levelo_inurba_marseille","lat":43.2621,"lon":5.37931,"is_reserved":false,"is_disabled":false,"rental_uris":{"android":"levelo://app?vid=1dab638a-c5c1-4610-91a2-47832ff6f333","ios":"levelo://app?vid=1dab638a-c5c1-4610-91a2-47832ff6f333"},"vehicle_type_id":"4","last_reported":1761131372,"current_range_meters":9200,"station_id":"ce4bhjp2rcd13ifvqg90","pricing_plan_id":"cebpf4jnsgd1na2vs0mg"},{"bike_id":"3201e625-69d5-420e-838c-f4c3f44666ef","system_id":"levelo_inurba_marseille","lat":43.33819,"lon":5.37426,"is_reserved":false,"is_disabled":false,"rental_uris":{"android":"levelo://app?vid=3201e625-69d5-420e-838c-f4c3f44666ef","ios":"levelo://app?vid=3201e625-69d5-420e-838c-f4c3f44666ef"},"vehicle_type_id":"4","last_reported":1761131372,"current_range_meters":9200,"station_id":"","pricing_plan_id":"cebpf4jnsgd1na2vs0mg"},{"bike_id":"b8457e49-45d1-4539-8d31-1eb0283df508","system_id":"levelo_inurba_marseille","lat":43.33164,"lon":5.35496,"is_reserved":false,"is_disabled":false,"rental_uris":{"android":"levelo://app?vid=b8457e49-45d1-4539-8d31-1eb0283df508","ios":"levelo://app?vid=b8457e49-45d1-4539-8d31-1eb0283df508"},"vehicle_type_id":"4","last_reported":1761131372,"current_range_meters":9600,"station_id":"","pricing_plan_id":"cebpf4jnsgd1na2vs0mg"},{"bike_id":"19840955-f9d6-49c1-86e8-b7616b7da32c","system_id":"levelo_inurba_marseille","lat":43.33134,"lon":5.39115,"is_reserved":false,"is_disabled":true,"rental_uris":{"android":"levelo://app?vid=19840955-f9d6-49c1-86e8-b7616b7da32c","ios":"levelo://app?vid=19840955-f9d6-49c1-86e8-b7616b7da32c"},"vehicle_type_id":"4","last_reported":1761131372,"current_range_meters":9600,"station_id":"","pricing_plan_id":"cebpf4jnsgd1na2vs0mg"},{"bike_id":"d38bb17a-4ac6-4da6-829b-fc2ffe260364","system_id":"levelo_inurba_marseille","lat":43.31892,"lon":5.40721,"is_reserved":false,"is_disabled":true,"rental_uris":{"android":"levelo://app?vid=d38bb17a-4ac6-4da6-829b-fc2ffe260364","ios":"levelo://app?vid=d38bb17a-4ac6-4da6-829b-fc2ffe260364"},"vehicle_type_id":"4","last_reported":1761131372,"current_range_meters":10000,"station_id":"ce4bhq12rcd13ifvqhig","pricing_plan_id":"cebpf4jnsgd1na2vs0mg"},{"bike_id":"a3783c14-c37d-48be-aad3-8fe0ff3273b6","system_id":"levelo_inurba_marseille","lat":43.30948,"lon":5.3903,"is_reserved":false,"is_disabled":false,"rental_uris":{"android":"levelo://app?vid=a3783c14-c37d-48be-aad3-8fe0ff3273b6","ios":"levelo://app?vid=a3783c14-c37d-48be-aad3-8fe0ff3273b6"},"vehicle_type_id":"4","last_reported":1761131372,"current_range_meters":10000,"station_id":"ce4bgup2rcd13ifvqco0","pricing_plan_id":"cebpf4jnsgd1na2vs0mg"},{"bike_id":"82bc2e4f-0f5b-4513-a939-c3aaa84da718","system_id":"levelo_inurba_marseille","lat":43.29288,"lon":5.40112,"is_reserved":false,"is_disabled":false,"rental_uris":{"android":"levelo://app?vid=82bc2e4f-0f5b-4513-a939-c3aaa84da718","ios":"levelo://app?vid=82bc2e4f-0f5b-4513-a939-c3aaa84da718"},"vehicle_type_id":"4","last_reported":1761131372,"current_range_meters":10800,"station_id":"ce4bh312rcd13ifvqdk0","pricing_plan_id":"cebpf4jnsgd1na2vs0mg"},{"bike_id":"d83ba3b5-f05f-4b3f-995a-05ad1a505367","system_id":"levelo_inurba_marseille","lat":43.31717,"lon":5.42398,"is_reserved":false,"is_disabled":false,"rental_uris":{"android":"levelo://app?vid=d83ba3b5-f05f-4b3f-995a-05ad1a505367","ios":"levelo://app?vid=d83ba3b5-f05f-4b3f-995a-05ad1a505367"},"vehicle_type_id":"4","last_reported":1761131372,"current_range_meters":10800,"station_id":"ce4bhp92rcd13ifvqhbg","pricing_plan_id":"cebpf4jnsgd1na2vs0mg"},{"bike_id":"9969dc89-b3da-432d-a478-1a7bf655bb81","system_id":"levelo_inurba_marseille","lat":43.32363,"lon":5.36761,"is_reserved":false,"is_disabled":false,"rental_uris":{"android":"levelo://app?vid=9969dc89-b3da-432d-a478-1a7bf655bb81","ios":"levelo://app?vid=9969dc89-b3da-432d-a478-1a7bf655bb81"},"vehicle_type_id":"4","last_reported":1761131372,"current_range_meters":10800,"station_id":"ce4bhsh2rcd13ifvqi2g","pricing_plan_id":"cebpf4jnsgd1na2vs0mg"},{"bike_id":"323bf2de-3bb4-4b4c-b330-b19ea807dbf5","system_id":"levelo_inurba_marseille","lat":43.31074,"lon":5.38345,"is_reserved":false,"is_disabled":true,"rental_uris":{"android":"levelo://app?vid=323bf2de-3bb4-4b4c-b330-b19ea807dbf5","ios":"levelo://app?vid=323bf2de-3bb4-4b4c-b330-b19ea807dbf5"},"vehicle_type_id":"4","last_reported":1761131372,"current_range_meters":10800,"station_id":"ce4bgv92rcd13ifvqcr0","pricing_plan_id":"cebpf4jnsgd1na2vs0mg"},{"bike_id":"14d758ca-f2fe-46f9-ba15-57abec0ba795","system_id":"levelo_inurba_marseille","lat":43.28695,"lon":5.37396,"is_reserved":false,"is_disabled":false,"rental_uris":{"android":"levelo://app?vid=14d758ca-f2fe-46f9-ba15-57abec0ba795","ios":"levelo://app?vid=14d758ca-f2fe-46f9-ba15-57abec0ba795"},"vehicle_type_id":"4","last_reported":1761131372,"current_range_meters":10800,"station_id":"ce4bh3p2rcd13ifvqdq0","pricing_plan_id":"cebpf4jnsgd1na2vs0mg"},{"bike_id":"146c2516-bef0-44a7-b04d-fb80b55a97f2","system_id":"levelo_inurba_marseille","lat":43.30121,"lon":5.43139,"is_reserved":false,"is_disabled":false,"rental_uris":{"android":"levelo://app?vid=146c2516-bef0-44a7-b04d-fb80b55a97f2","ios":"levelo://app?vid=146c2516-bef0-44a7-b04d-fb80b55a97f2"},"vehicle_type_id":"4","last_reported":1761131372,"current_range_meters":11200,"station_id":"st_d3js3co5814s73ftftug","pricing_plan_id":"cebpf4jnsgd1na2vs0mg"},{"bike_id":"4e7e8f57-06ea-4923-b3c1-ea91802d5920","system_id":"levelo_inurba_marseille","lat":43.27976,"lon":5.41645,"is_reserved":false,"is_disabled":false,"rental_uris":{"android":"levelo://app?vid=4e7e8f57-06ea-4923-b3c1-ea91802d5920","ios":"levelo://app?vid=4e7e8f57-06ea-4923-b3c1-ea91802d5920"},"vehicle_type_id":"4","last_reported":1761131372,"current_range_meters":11200,"station_id":"ce4bho12rcd13ifvqh1g","pricing_plan_id":"cebpf4jnsgd1na2vs0mg"},{"bike_id":"02f7835e-8895-43db-bc46-dc0659a292d5","system_id":"levelo_inurba_marseille","lat":43.29331,"lon":5.3707,"is_reserved":false,"is_disabled":false,"rental_uris":{"android":"levelo://app?vid=02f7835e-8895-43db-bc46-dc0659a292d5","ios":"levelo://app?vid=02f7835e-8895-43db-bc46-dc0659a292d5"},"vehicle_type_id":"4","last_reported":1761131372,"current_range_meters":11200,"station_id":"","pricing_plan_id":"cebpf4jnsgd1na2vs0mg"},{"bike_id":"848732f0-de57-4c7b-8c1c-59414a9d2707","system_id":"levelo_inurba_marseille","lat":43.261937,"lon":5.374158,"is_reserved":false,"is_disabled":false,"rental_uris":{"android":"levelo://app?vid=848732f0-de57-4c7b-8c1c-59414a9d2707","ios":"levelo://app?vid=848732f0-de57-4c7b-8c1c-59414a9d2707"},"vehicle_type_id":"4","last_reported":1761131372,"current_range_meters":11200,"station_id":"ce4bhgp2rcd13ifvqfc0","pricing_plan_id":"cebpf4jnsgd1na2vs0mg"},{"bike_id":"27a0a5b8-bb02-4a68-83d8-ad971dc33659","system_id":"levelo_inurba_marseille","lat":43.32048,"lon":5.40871,"is_reserved":false,"is_disabled":false,"rental_uris":{"android":"levelo://app?vid=27a0a5b8-bb02-4a68-83d8-ad971dc33659","ios":"levelo://app?vid=27a0a5b8-bb02-4a68-83d8-ad971dc33659"},"vehicle_type_id":"4","last_reported":1761131372,"current_range_meters":11200,"station_id":"","pricing_plan_id":"cebpf4jnsgd1na2vs0mg"},{"bike_id":"40e17525-0511-4786-8546-896444b0c93b","system_id":"levelo_inurba_marseille","lat":43.21193,"lon":5.3507,"is_reserved":false,"is_disabled":false,"rental_uris":{"android":"levelo://app?vid=40e17525-0511-4786-8546-896444b0c93b","ios":"levelo://app?vid=40e17525-0511-4786-8546-896444b0c93b"},"vehicle_type_id":"4","last_reported":1761131372,"current_range_meters":11200,"station_id":"","pricing_plan_id":"cebpf4jnsgd1na2vs0mg"},{"bike_id":"89dd87c4-c8d0-4de7-8902-2b0447e67475","system_id":"levelo_inurba_marseille","lat":43.31232,"lon":5.36877,"is_reserved":false,"is_disabled":false,"rental_uris":{"android":"levelo://app?vid=89dd87c4-c8d0-4de7-8902-2b0447e67475","ios":"levelo://app?vid=89dd87c4-c8d0-4de7-8902-2b0447e67475"},"vehicle_type_id":"4","last_reported":1761131372,"current_range_meters":12000,"station_id":"","pricing_plan_id":"cebpf4jnsgd1na2vs0mg"},{"bike_id":"4470f962-1b98-471a-8dc8-50f1fa75fbab","system_id":"levelo_inurba_marseille","lat":43.2315,"lon":5.43703,"is_reserved":false,"is_disabled":false,"rental_uris":{"android":"levelo://app?vid=4470f962-1b98-471a-8dc8-50f1fa75fbab","ios":"levelo://app?vid=4470f962-1b98-471a-8dc8-50f1fa75fbab"},"vehicle_type_id":"4","last_reported":1761131372,"current_range_meters":12000,"station_id":"ce4bhmp2rcd13ifvqgog","pricing_plan_id":"cebpf4jnsgd1na2vs0mg"},{"bike_id":"b869754e-ab30-4b29-93e2-c3b579cde905","system_id":"levelo_inurba_marseille","lat":43.270506,"lon":5.383067,"is_reserved":false,"is_disabled":false,"rental_uris":{"android":"levelo://app?vid=b869754e-ab30-4b29-93e2-c3b579cde905","ios":"levelo://app?vid=b869754e-ab30-4b29-93e2-c3b579cde905"},"vehicle_type_id":"4","last_reported":1761131372,"current_range_meters":12000,"station_id":"st_d3n2fo6cfp8s73cte1j0","pricing_plan_id":"cebpf4jnsgd1na2vs0mg"},{"bike_id":"82576c51-8b9b-43eb-aa43-fc4a18c9ea5b","system_id":"levelo_inurba_marseille","lat":43.21751,"lon":5.346,"is_reserved":false,"is_disabled":false,"rental_uris":{"android":"levelo://app?vid=82576c51-8b9b-43eb-aa43-fc4a18c9ea5b","ios":"levelo://app?vid=82576c51-8b9b-43eb-aa43-fc4a18c9ea5b"},"vehicle_type_id":"4","last_reported":1761131372,"current_range_meters":12400,"station_id":"st_cvj6r9ubvosntc0bgbag","pricing_plan_id":"cebpf4jnsgd1na2vs0mg"},{"bike_id":"9407777e-6482-44ca-9dc8-02173a68d113","system_id":"levelo_inurba_marseille","lat":43.3136,"lon":5.38502,"is_reserved":false,"is_disabled":false,"rental_uris":{"android":"levelo://app?vid=9407777e-6482-44ca-9dc8-02173a68d113","ios":"levelo://app?vid=9407777e-6482-44ca-9dc8-02173a68d113"},"vehicle_type_id":"4","last_reported":1761131372,"current_range_meters":12400,"station_id":"ce4bgt92rcd13ifvqcf0","pricing_plan_id":"cebpf4jnsgd1na2vs0mg"},{"bike_id":"423d673d-2fc7-4939-8d87-de6497c69e03","system_id":"levelo_inurba_marseille","lat":43.29971,"lon":5.37162,"is_reserved":false,"is_disabled":false,"rental_uris":{"android":"levelo://app?vid=423d673d-2fc7-4939-8d87-de6497c69e03","ios":"levelo://app?vid=423d673d-2fc7-4939-8d87-de6497c69e03"},"vehicle_type_id":"4","last_reported":1761131372,"current_range_meters":12400,"station_id":"ce4bgr92rcd13ifvqc7g","pricing_plan_id":"cebpf4jnsgd1na2vs0mg"},{"bike_id":"464bd8a3-6573-4884-b980-774e68ad4ab1","system_id":"levelo_inurba_marseille","lat":43.27169,"lon":5.40992,"is_reserved":false,"is_disabled":false,"rental_uris":{"android":"levelo://app?vid=464bd8a3-6573-4884-b980-774e68ad4ab1","ios":"levelo://app?vid=464bd8a3-6573-4884-b980-774e68ad4ab1"},"vehicle_type_id":"4","last_reported":1761131372,"current_range_meters":12400,"station_id":"ce4bhl12rcd13ifvqgf0","pricing_plan_id":"cebpf4jnsgd1na2vs0mg"},{"bike_id":"6692e090-9792-45dd-b639-89e41212fa24","system_id":"levelo_inurba_marseille","lat":43.31289,"lon":5.38429,"is_reserved":false,"is_disabled":true,"rental_uris":{"android":"levelo://app?vid=6692e090-9792-45dd-b639-89e41212fa24","ios":"levelo://app?vid=6692e090-9792-45dd-b639-89e41212fa24"},"vehicle_type_id":"4","last_reported":1761131372,"current_range_meters":12800,"station_id":"","pricing_plan_id":"cebpf4jnsgd1na2vs0mg"},{"bike_id":"46e71a08-7e6c-4660-87ec-495dba3c6628","system_id":"levelo_inurba_marseille","lat":43.29675,"lon":5.36227,"is_reserved":false,"is_disabled":false,"rental_uris":{"android":"levelo://app?vid=46e71a08-7e6c-4660-87ec-495dba3c6628","ios":"levelo://app?vid=46e71a08-7e6c-4660-87ec-495dba3c6628"},"vehicle_type_id":"4","last_reported":1761131372,"current_range_meters":12800,"station_id":"","pricing_plan_id":"cebpf4jnsgd1na2vs0mg"},{"bike_id":"f2c7d1c4-d7da-49ee-b593-7dd1bde302ff","system_id":"levelo_inurba_marseille","lat":43.2985,"lon":5.36286,"is_reserved":false,"is_disabled":false,"rental_uris":{"android":"levelo://app?vid=f2c7d1c4-d7da-49ee-b593-7dd1bde302ff","ios":"levelo://app?vid=f2c7d1c4-d7da-49ee-b593-7dd1bde302ff"},"vehicle_type_id":"4","last_reported":1761131372,"current_range_meters":12800,"station_id":"ce4bgpp2rcd13ifvqc3g","pricing_plan_id":"cebpf4jnsgd1na2vs0mg"},{"bike_id":"27e4da55-03ac-4a27-9cbb-4218c6a866bf","system_id":"levelo_inurba_marseille","lat":43.280642,"lon":5.352788,"is_reserved":false,"is_disabled":false,"rental_uris":{"android":"levelo://app?vid=27e4da55-03ac-4a27-9cbb-4218c6a866bf","ios":"levelo://app?vid=27e4da55-03ac-4a27-9cbb-4218c6a866bf"},"vehicle_type_id":"4","last_reported":1761131372,"current_range_meters":12800,"station_id":"","pricing_plan_id":"cebpf4jnsgd1na2vs0mg"},{"bike_id":"d00f4c2a-3594-49b4-b41c-198467814d53","system_id":"levelo_inurba_marseille","lat":43.24078,"lon":5.3776,"is_reserved":false,"is_disabled":false,"rental_uris":{"android":"levelo://app?vid=d00f4c2a-3594-49b4-b41c-198467814d53","ios":"levelo://app?vid=d00f4c2a-3594-49b4-b41c-198467814d53"},"vehicle_type_id":"4","last_reported":1761131372,"current_range_meters":13600,"station_id":"ce4bhnp2rcd13ifvqgvg","pricing_plan_id":"cebpf4jnsgd1na2vs0mg"},{"bike_id":"4c8e04d1-b29a-440b-8327-6d25f5f6d3df","system_id":"levelo_inurba_marseille","lat":43.273726,"lon":5.362629,"is_reserved":false,"is_disabled":false,"rental_uris":{"android":"levelo://app?vid=4c8e04d1-b29a-440b-8327-6d25f5f6d3df","ios":"levelo://app?vid=4c8e04d1-b29a-440b-8327-6d25f5f6d3df"},"vehicle_type_id":"4","last_reported":1761131372,"current_range_meters":13600,"station_id":"ce4bhbh2rcd13ifvqeo0","pricing_plan_id":"cebpf4jnsgd1na2vs0mg"},{"bike_id":"396aaa55-c35f-41fc-8337-93bac25c9dde","system_id":"levelo_inurba_marseille","lat":43.29231,"lon":5.35542,"is_reserved":false,"is_disabled":false,"rental_uris":{"android":"levelo://app?vid=396aaa55-c35f-41fc-8337-93bac25c9dde","ios":"levelo://app?vid=396aaa55-c35f-41fc-8337-93bac25c9dde"},"vehicle_type_id":"4","last_reported":1761131372,"current_range_meters":13600,"station_id":"","pricing_plan_id":"cebpf4jnsgd1na2vs0mg"},{"bike_id":"9c3a0aeb-4e98-485f-926d-d39010084da4","system_id":"levelo_inurba_marseille","lat":43.31319,"lon":5.39692,"is_reserved":false,"is_disabled":false,"rental_uris":{"android":"levelo://app?vid=9c3a0aeb-4e98-485f-926d-d39010084da4","ios":"levelo://app?vid=9c3a0aeb-4e98-485f-926d-d39010084da4"},"vehicle_type_id":"4","last_reported":1761131372,"current_range_meters":13600,"station_id":"ce4bgvp2rcd13ifvqcu0","pricing_plan_id":"cebpf4jnsgd1na2vs0mg"},{"bike_id":"37d01fc8-4b4d-4652-a489-1254eb9d4c80","system_id":"levelo_inurba_marseille","lat":43.34076,"lon":5.40411,"is_reserved":false,"is_disabled":false,"rental_uris":{"android":"levelo://app?vid=37d01fc8-4b4d-4652-a489-1254eb9d4c80","ios":"levelo://app?vid=37d01fc8-4b4d-4652-a489-1254eb9d4c80"},"vehicle_type_id":"4","last_reported":1761131372,"current_range_meters":13600,"station_id":"","pricing_plan_id":"cebpf4jnsgd1na2vs0mg"},{"bike_id":"2d979906-e4ae-41ed-bb35-b96b15a64b3b","system_id":"levelo_inurba_marseille","lat":43.30713,"lon":5.42441,"is_reserved":false,"is_disabled":false,"rental_uris":{"android":"levelo://app?vid=2d979906-e4ae-41ed-bb35-b96b15a64b3b","ios":"levelo://app?vid=2d979906-e4ae-41ed-bb35-b96b15a64b3b"},"vehicle_type_id":"4","last_reported":1761131372,"current_range_meters":14000,"station_id":"st_cvj6ca6bvosntc0bfgr0","pricing_plan_id":"cebpf4jnsgd1na2vs0mg"},{"bike_id":"dcba6075-c194-48d6-9cd1-b8817b6acf09","system_id":"levelo_inurba_marseille","lat":43.294666,"lon":5.391739,"is_reserved":false,"is_disabled":false,"rental_uris":{"android":"levelo://app?vid=dcba6075-c194-48d6-9cd1-b8817b6acf09","ios":"levelo://app?vid=dcba6075-c194-48d6-9cd1-b8817b6acf09"},"vehicle_type_id":"4","last_reported":1761131372,"current_range_meters":14000,"station_id":"ce4bh3p2rcd13ifvqdp0","pricing_plan_id":"cebpf4jnsgd1na2vs0mg"},{"bike_id":"ad49045e-335c-4f38-bfb2-f616783f3911","system_id":"levelo_inurba_marseille","lat":43.284836,"lon":5.385702,"is_reserved":false,"is_disabled":false,"rental_uris":{"android":"levelo://app?vid=ad49045e-335c-4f38-bfb2-f616783f3911","ios":"levelo://app?vid=ad49045e-335c-4f38-bfb2-f616783f3911"},"vehicle_type_id":"4","last_reported":1761131372,"current_range_meters":14400,"station_id":"ce4bh8p2rcd13ifvqeb0","pricing_plan_id":"cebpf4jnsgd1na2vs0mg"},{"bike_id":"9a748f30-1b6a-4468-b57c-f76e659b0a47","system_id":"levelo_inurba_marseille","lat":43.29528,"lon":5.38533,"is_reserved":false,"is_disabled":false,"rental_uris":{"android":"levelo://app?vid=9a748f30-1b6a-4468-b57c-f76e659b0a47","ios":"levelo://app?vid=9a748f30-1b6a-4468-b57c-f76e659b0a47"},"vehicle_type_id":"4","last_reported":1761131372,"current_range_meters":14400,"station_id":"ce4bgih2rcd13ifvqba0","pricing_plan_id":"cebpf4jnsgd1na2vs0mg"},{"bike_id":"1ae4f4ba-cdf3-4681-97bc-7048fb9fbd77","system_id":"levelo_inurba_marseille","lat":43.27817,"lon":5.39217,"is_reserved":false,"is_disabled":false,"rental_uris":{"android":"levelo://app?vid=1ae4f4ba-cdf3-4681-97bc-7048fb9fbd77","ios":"levelo://app?vid=1ae4f4ba-cdf3-4681-97bc-7048fb9fbd77"},"vehicle_type_id":"4","last_reported":1761131372,"current_range_meters":14400,"station_id":"ce4bhjp2rcd13ifvqga0","pricing_plan_id":"cebpf4jnsgd1na2vs0mg"},{"bike_id":"3b1b2127-2a9b-43c8-9a20-0a4ad1a09169","system_id":"levelo_inurba_marseille","lat":43.23188,"lon":5.35557,"is_reserved":false,"is_disabled":false,"rental_uris":{"android":"levelo://app?vid=3b1b2127-2a9b-43c8-9a20-0a4ad1a09169","ios":"levelo://app?vid=3b1b2127-2a9b-43c8-9a20-0a4ad1a09169"},"vehicle_type_id":"4","last_reported":1761131372,"current_range_meters":14400,"station_id":"ce4bhu92rcd13ifvqi70","pricing_plan_id":"cebpf4jnsgd1na2vs0mg"},{"bike_id":"65df4d6d-8abb-4a02-907e-7e8b789e1820","system_id":"levelo_inurba_marseille","lat":43.23788,"lon":5.36639,"is_reserved":false,"is_disabled":false,"rental_uris":{"android":"levelo://app?vid=65df4d6d-8abb-4a02-907e-7e8b789e1820","ios":"levelo://app?vid=65df4d6d-8abb-4a02-907e-7e8b789e1820"},"vehicle_type_id":"4","last_reported":1761131372,"current_range_meters":14800,"station_id":"st_d3nk18o9ro0c73en2l3g","pricing_plan_id":"cebpf4jnsgd1na2vs0mg"},{"bike_id":"bbd08cf4-31da-4d68-b46e-697f80190f23","system_id":"levelo_inurba_marseille","lat":43.27175,"lon":5.40988,"is_reserved":false,"is_disabled":false,"rental_uris":{"android":"levelo://app?vid=bbd08cf4-31da-4d68-b46e-697f80190f23","ios":"levelo://app?vid=bbd08cf4-31da-4d68-b46e-697f80190f23"},"vehicle_type_id":"4","last_reported":1761131372,"current_range_meters":14800,"station_id":"ce4bhl12rcd13ifvqgf0","pricing_plan_id":"cebpf4jnsgd1na2vs0mg"},{"bike_id":"5fabd670-ccef-4367-85ef-3f219e895c7f","system_id":"levelo_inurba_marseille","lat":43.302704,"lon":5.37712,"is_reserved":false,"is_disabled":false,"rental_uris":{"android":"levelo://app?vid=5fabd670-ccef-4367-85ef-3f219e895c7f","ios":"levelo://app?vid=5fabd670-ccef-4367-85ef-3f219e895c7f"},"vehicle_type_id":"4","last_reported":1761131372,"current_range_meters":14800,"station_id":"ce4bguh2rcd13ifvqcj0","pricing_plan_id":"cebpf4jnsgd1na2vs0mg"},{"bike_id":"5b2fb394-b654-4cda-abea-19d87e1a4938","system_id":"levelo_inurba_marseille","lat":43.240822,"lon":5.377519,"is_reserved":false,"is_disabled":false,"rental_uris":{"android":"levelo://app?vid=5b2fb394-b654-4cda-abea-19d87e1a4938","ios":"levelo://app?vid=5b2fb394-b654-4cda-abea-19d87e1a4938"},"vehicle_type_id":"4","last_reported":1761131372,"current_range_meters":14800,"station_id":"ce4bhnp2rcd13ifvqgvg","pricing_plan_id":"cebpf4jnsgd1na2vs0mg"},{"bike_id":"e952c26b-9650-41cc-b7d9-4631d12d8beb","system_id":"levelo_inurba_marseille","lat":43.3054,"lon":5.36557,"is_reserved":false,"is_disabled":false,"rental_uris":{"android":"levelo://app?vid=e952c26b-9650-41cc-b7d9-4631d12d8beb","ios":"levelo://app?vid=e952c26b-9650-41cc-b7d9-4631d12d8beb"},"vehicle_type_id":"4","last_reported":1761131372,"current_range_meters":14800,"station_id":"ce4bgs12rcd13ifvqcag","pricing_plan_id":"cebpf4jnsgd1na2vs0mg"},{"bike_id":"8517d2ad-4627-4d5c-b43d-563f1cd29009","system_id":"levelo_inurba_marseille","lat":43.30425,"lon":5.36851,"is_reserved":false,"is_disabled":false,"rental_uris":{"android":"levelo://app?vid=8517d2ad-4627-4d5c-b43d-563f1cd29009","ios":"levelo://app?vid=8517d2ad-4627-4d5c-b43d-563f1cd29009"},"vehicle_type_id":"4","last_reported":1761131372,"current_range_meters":15200,"station_id":"","pricing_plan_id":"cebpf4jnsgd1na2vs0mg"},{"bike_id":"3d7013be-dfe4-430a-97e8-197a834810ee","system_id":"levelo_inurba_marseille","lat":43.24643,"lon":5.38893,"is_reserved":false,"is_disabled":false,"rental_uris":{"android":"levelo://app?vid=3d7013be-dfe4-430a-97e8-197a834810ee","ios":"levelo://app?vid=3d7013be-dfe4-430a-97e8-197a834810ee"},"vehicle_type_id":"4","last_reported":1761131372,"current_range_meters":15200,"station_id":"ce4bhg12rcd13ifvqf60","pricing_plan_id":"cebpf4jnsgd1na2vs0mg"},{"bike_id":"b61e6817-4496-4ad7-ab43-b524af2e26e5","system_id":"levelo_inurba_marseille","lat":43.2866,"lon":5.38661,"is_reserved":false,"is_disabled":false,"rental_uris":{"android":"levelo://app?vid=b61e6817-4496-4ad7-ab43-b524af2e26e5","ios":"levelo://app?vid=b61e6817-4496-4ad7-ab43-b524af2e26e5"},"vehicle_type_id":"4","last_reported":1761131372,"current_range_meters":15200,"station_id":"","pricing_plan_id":"cebpf4jnsgd1na2vs0mg"},{"bike_id":"462648eb-9432-48c9-b86d-ac565d46704e","system_id":"levelo_inurba_marseille","lat":43.27657,"lon":5.38904,"is_reserved":false,"is_disabled":false,"rental_uris":{"android":"levelo://app?vid=462648eb-9432-48c9-b86d-ac565d46704e","ios":"levelo://app?vid=462648eb-9432-48c9-b86d-ac565d46704e"},"vehicle_type_id":"4","last_reported":1761131372,"current_range_meters":15200,"station_id":"ce4bhi12rcd13ifvqfo0","pricing_plan_id":"cebpf4jnsgd1na2vs0mg"},{"bike_id":"07e992db-48e1-481b-a50e-3b491cfc1455","system_id":"levelo_inurba_marseille","lat":43.31991,"lon":5.41291,"is_reserved":false,"is_disabled":false,"rental_uris":{"android":"levelo://app?vid=07e992db-48e1-481b-a50e-3b491cfc1455","ios":"levelo://app?vid=07e992db-48e1-481b-a50e-3b491cfc1455"},"vehicle_type_id":"4","last_reported":1761131372,"current_range_meters":15200,"station_id":"","pricing_plan_id":"cebpf4jnsgd1na2vs0mg"},{"bike_id":"e01c0407-9fea-4afc-844a-8e1d738fcda5","system_id":"levelo_inurba_marseille","lat":43.2417,"lon":5.36402,"is_reserved":false,"is_disabled":false,"rental_uris":{"android":"levelo://app?vid=e01c0407-9fea-4afc-844a-8e1d738fcda5","ios":"levelo://app?vid=e01c0407-9fea-4afc-844a-8e1d738fcda5"},"vehicle_type_id":"4","last_reported":1761131372,"current_range_meters":16000,"station_id":"cpo36qri1sfpv3e86is0","pricing_plan_id":"cebpf4jnsgd1na2vs0mg"},{"bike_id":"2eae4a7b-da84-49e6-90d5-936840471c3e","system_id":"levelo_inurba_marseille","lat":43.23156,"lon":5.43703,"is_reserved":false,"is_disabled":false,"rental_uris":{"android":"levelo://app?vid=2eae4a7b-da84-49e6-90d5-936840471c3e","ios":"levelo://app?vid=2eae4a7b-da84-49e6-90d5-936840471c3e"},"vehicle_type_id":"4","last_reported":1761131372,"current_range_meters":16000,"station_id":"ce4bhmp2rcd13ifvqgog","pricing_plan_id":"cebpf4jnsgd1na2vs0mg"},{"bike_id":"9870a68d-ae62-4bec-82c3-a7443a850bdc","system_id":"levelo_inurba_marseille","lat":43.31289,"lon":5.37778,"is_reserved":false,"is_disabled":false,"rental_uris":{"android":"levelo://app?vid=9870a68d-ae62-4bec-82c3-a7443a850bdc","ios":"levelo://app?vid=9870a68d-ae62-4bec-82c3-a7443a850bdc"},"vehicle_type_id":"4","last_reported":1761131372,"current_range_meters":16400,"station_id":"","pricing_plan_id":"cebpf4jnsgd1na2vs0mg"},{"bike_id":"89d8739f-4b8e-4f60-8f43-e495253557db","system_id":"levelo_inurba_marseille","lat":43.28537,"lon":5.44094,"is_reserved":false,"is_disabled":false,"rental_uris":{"android":"levelo://app?vid=89d8739f-4b8e-4f60-8f43-e495253557db","ios":"levelo://app?vid=89d8739f-4b8e-4f60-8f43-e495253557db"},"vehicle_type_id":"4","last_reported":1761131372,"current_range_meters":16400,"station_id":"st_d3j3df2ikq2c7380ej80","pricing_plan_id":"cebpf4jnsgd1na2vs0mg"},{"bike_id":"c67f70ff-6787-4002-8d14-586baa1e3a16","system_id":"levelo_inurba_marseille","lat":43.250866,"lon":5.395259,"is_reserved":false,"is_disabled":false,"rental_uris":{"android":"levelo://app?vid=c67f70ff-6787-4002-8d14-586baa1e3a16","ios":"levelo://app?vid=c67f70ff-6787-4002-8d14-586baa1e3a16"},"vehicle_type_id":"4","last_reported":1761131372,"current_range_meters":16400,"station_id":"ce4bhm12rcd13ifvqgkg","pricing_plan_id":"cebpf4jnsgd1na2vs0mg"},{"bike_id":"9238808e-498c-4ce7-9d2d-fb35caddbc2b","system_id":"levelo_inurba_marseille","lat":43.24646,"lon":5.38884,"is_reserved":false,"is_disabled":false,"rental_uris":{"android":"levelo://app?vid=9238808e-498c-4ce7-9d2d-fb35caddbc2b","ios":"levelo://app?vid=9238808e-498c-4ce7-9d2d-fb35caddbc2b"},"vehicle_type_id":"4","last_reported":1761131372,"current_range_meters":16400,"station_id":"ce4bhg12rcd13ifvqf60","pricing_plan_id":"cebpf4jnsgd1na2vs0mg"},{"bike_id":"9d8bcd8e-8ecf-425f-98ef-b7c9398172e2","system_id":"levelo_inurba_marseille","lat":43.32364,"lon":5.36764,"is_reserved":false,"is_disabled":false,"rental_uris":{"android":"levelo://app?vid=9d8bcd8e-8ecf-425f-98ef-b7c9398172e2","ios":"levelo://app?vid=9d8bcd8e-8ecf-425f-98ef-b7c9398172e2"},"vehicle_type_id":"4","last_reported":1761131372,"current_range_meters":16400,"station_id":"ce4bhsh2rcd13ifvqi2g","pricing_plan_id":"cebpf4jnsgd1na2vs0mg"},{"bike_id":"4eae2ec4-8862-466e-a3d9-395cca4276d0","system_id":"levelo_inurba_marseille","lat":43.30319,"lon":5.3753,"is_reserved":false,"is_disabled":false,"rental_uris":{"android":"levelo://app?vid=4eae2ec4-8862-466e-a3d9-395cca4276d0","ios":"levelo://app?vid=4eae2ec4-8862-466e-a3d9-395cca4276d0"},"vehicle_type_id":"4","last_reported":1761131372,"current_range_meters":16400,"station_id":"","pricing_plan_id":"cebpf4jnsgd1na2vs0mg"},{"bike_id":"c6c2dba1-db81-4cd1-9c62-d4db3c03abcc","system_id":"levelo_inurba_marseille","lat":43.25591,"lon":5.38216,"is_reserved":false,"is_disabled":false,"rental_uris":{"android":"levelo://app?vid=c6c2dba1-db81-4cd1-9c62-d4db3c03abcc","ios":"levelo://app?vid=c6c2dba1-db81-4cd1-9c62-d4db3c03abcc"},"vehicle_type_id":"4","last_reported":1761131372,"current_range_meters":16400,"station_id":"ce4bhih2rcd13ifvqfs0","pricing_plan_id":"cebpf4jnsgd1na2vs0mg"},{"bike_id":"5ebfc2c5-ca33-4ab1-b8d2-379d251344af","system_id":"levelo_inurba_marseille","lat":43.30538,"lon":5.36545,"is_reserved":false,"is_disabled":false,"rental_uris":{"android":"levelo://app?vid=5ebfc2c5-ca33-4ab1-b8d2-379d251344af","ios":"levelo://app?vid=5ebfc2c5-ca33-4ab1-b8d2-379d251344af"},"vehicle_type_id":"4","last_reported":1761131372,"current_range_meters":16800,"station_id":"ce4bgs12rcd13ifvqcag","pricing_plan_id":"cebpf4jnsgd1na2vs0mg"},{"bike_id":"d89a4c93-adcd-4ebb-8e78-ffedcc62ea63","system_id":"levelo_inurba_marseille","lat":43.27162,"lon":5.41012,"is_reserved":false,"is_disabled":false,"rental_uris":{"android":"levelo://app?vid=d89a4c93-adcd-4ebb-8e78-ffedcc62ea63","ios":"levelo://app?vid=d89a4c93-adcd-4ebb-8e78-ffedcc62ea63"},"vehicle_type_id":"4","last_reported":1761131372,"current_range_meters":16800,"station_id":"ce4bhl12rcd13ifvqgf0","pricing_plan_id":"cebpf4jnsgd1na2vs0mg"},{"bike_id":"618a9c44-e479-45b6-b144-58d3228e3132","system_id":"levelo_inurba_marseille","lat":43.24634,"lon":5.38892,"is_reserved":false,"is_disabled":false,"rental_uris":{"android":"levelo://app?vid=618a9c44-e479-45b6-b144-58d3228e3132","ios":"levelo://app?vid=618a9c44-e479-45b6-b144-58d3228e3132"},"vehicle_type_id":"4","last_reported":1761131372,"current_range_meters":16800,"station_id":"ce4bhg12rcd13ifvqf60","pricing_plan_id":"cebpf4jnsgd1na2vs0mg"},{"bike_id":"042b51df-71d2-40e9-9102-008e9be6293c","system_id":"levelo_inurba_marseille","lat":43.31728,"lon":5.40426,"is_reserved":false,"is_disabled":false,"rental_uris":{"android":"levelo://app?vid=042b51df-71d2-40e9-9102-008e9be6293c","ios":"levelo://app?vid=042b51df-71d2-40e9-9102-008e9be6293c"},"vehicle_type_id":"4","last_reported":1761131372,"current_range_meters":16800,"station_id":"","pricing_plan_id":"cebpf4jnsgd1na2vs0mg"},{"bike_id":"b3b13e92-d401-45af-ad84-a41c7bbeb5fe","system_id":"levelo_inurba_marseille","lat":43.30968,"lon":5.3749,"is_reserved":false,"is_disabled":false,"rental_uris":{"android":"levelo://app?vid=b3b13e92-d401-45af-ad84-a41c7bbeb5fe","ios":"levelo://app?vid=b3b13e92-d401-45af-ad84-a41c7bbeb5fe"},"vehicle_type_id":"4","last_reported":1761131372,"current_range_meters":16800,"station_id":"","pricing_plan_id":"cebpf4jnsgd1na2vs0mg"},{"bike_id":"76617880-e916-4001-97b7-117fee9fa177","system_id":"levelo_inurba_marseille","lat":43.28408,"lon":5.37498,"is_reserved":false,"is_disabled":false,"rental_uris":{"android":"levelo://app?vid=76617880-e916-4001-97b7-117fee9fa177","ios":"levelo://app?vid=76617880-e916-4001-97b7-117fee9fa177"},"vehicle_type_id":"4","last_reported":1761131372,"current_range_meters":16800,"station_id":"ce4bh412rcd13ifvqds0","pricing_plan_id":"cebpf4jnsgd1na2vs0mg"},{"bike_id":"fbb74503-2d8f-4e8a-9630-af6095649c50","system_id":"levelo_inurba_marseille","lat":43.29709,"lon":5.36891,"is_reserved":false,"is_disabled":false,"rental_uris":{"android":"levelo://app?vid=fbb74503-2d8f-4e8a-9630-af6095649c50","ios":"levelo://app?vid=fbb74503-2d8f-4e8a-9630-af6095649c50"},"vehicle_type_id":"4","last_reported":1761131372,"current_range_meters":16800,"station_id":"","pricing_plan_id":"cebpf4jnsgd1na2vs0mg"},{"bike_id":"a79c6bd1-700c-48dd-854c-b0af28c99022","system_id":"levelo_inurba_marseille","lat":43.24647,"lon":5.43137,"is_reserved":false,"is_disabled":false,"rental_uris":{"android":"levelo://app?vid=a79c6bd1-700c-48dd-854c-b0af28c99022","ios":"levelo://app?vid=a79c6bd1-700c-48dd-854c-b0af28c99022"},"vehicle_type_id":"4","last_reported":1761131372,"current_range_meters":16800,"station_id":"st_d2m6c4gdas8pm72e190g","pricing_plan_id":"cebpf4jnsgd1na2vs0mg"},{"bike_id":"7eaccf47-6888-4390-ad75-1424216bc488","system_id":"levelo_inurba_marseille","lat":43.30798,"lon":5.38158,"is_reserved":false,"is_disabled":false,"rental_uris":{"android":"levelo://app?vid=7eaccf47-6888-4390-ad75-1424216bc488","ios":"levelo://app?vid=7eaccf47-6888-4390-ad75-1424216bc488"},"vehicle_type_id":"4","last_reported":1761131372,"current_range_meters":17200,"station_id":"ce4bgt12rcd13ifvqce0","pricing_plan_id":"cebpf4jnsgd1na2vs0mg"},{"bike_id":"c8c0fa58-a519-4343-9887-b0c694f93aef","system_id":"levelo_inurba_marseille","lat":43.28874,"lon":5.42524,"is_reserved":false,"is_disabled":false,"rental_uris":{"android":"levelo://app?vid=c8c0fa58-a519-4343-9887-b0c694f93aef","ios":"levelo://app?vid=c8c0fa58-a519-4343-9887-b0c694f93aef"},"vehicle_type_id":"4","last_reported":1761131372,"current_range_meters":17200,"station_id":"st_d3b462108ojc7389ooeg","pricing_plan_id":"cebpf4jnsgd1na2vs0mg"},{"bike_id":"0ec4ef5d-d495-417b-9bb4-a7234e30b1f5","system_id":"levelo_inurba_marseille","lat":43.24542,"lon":5.39522,"is_reserved":false,"is_disabled":false,"rental_uris":{"android":"levelo://app?vid=0ec4ef5d-d495-417b-9bb4-a7234e30b1f5","ios":"levelo://app?vid=0ec4ef5d-d495-417b-9bb4-a7234e30b1f5"},"vehicle_type_id":"4","last_reported":1761131372,"current_range_meters":17200,"station_id":"ce4bhlp2rcd13ifvqgjg","pricing_plan_id":"cebpf4jnsgd1na2vs0mg"},{"bike_id":"55a04775-0c88-4ceb-bbfc-2b1cd64b72c4","system_id":"levelo_inurba_marseille","lat":43.24165,"lon":5.3971,"is_reserved":false,"is_disabled":false,"rental_uris":{"android":"levelo://app?vid=55a04775-0c88-4ceb-bbfc-2b1cd64b72c4","ios":"levelo://app?vid=55a04775-0c88-4ceb-bbfc-2b1cd64b72c4"},"vehicle_type_id":"4","last_reported":1761131372,"current_range_meters":17200,"station_id":"ce4bhn12rcd13ifvqgpg","pricing_plan_id":"cebpf4jnsgd1na2vs0mg"},{"bike_id":"dfbe5a48-ea53-4ee9-9761-fed4878d577f","system_id":"levelo_inurba_marseille","lat":43.31722,"lon":5.42393,"is_reserved":false,"is_disabled":false,"rental_uris":{"android":"levelo://app?vid=dfbe5a48-ea53-4ee9-9761-fed4878d577f","ios":"levelo://app?vid=dfbe5a48-ea53-4ee9-9761-fed4878d577f"},"vehicle_type_id":"4","last_reported":1761131372,"current_range_meters":17200,"station_id":"ce4bhp92rcd13ifvqhbg","pricing_plan_id":"cebpf4jnsgd1na2vs0mg"},{"bike_id":"6dedb052-20a2-44cd-aeba-04edee226593","system_id":"levelo_inurba_marseille","lat":43.2256,"lon":5.41636,"is_reserved":false,"is_disabled":false,"rental_uris":{"android":"levelo://app?vid=6dedb052-20a2-44cd-aeba-04edee226593","ios":"levelo://app?vid=6dedb052-20a2-44cd-aeba-04edee226593"},"vehicle_type_id":"4","last_reported":1761131372,"current_range_meters":17600,"station_id":"st_d2o4gvlbi1j2169b742g","pricing_plan_id":"cebpf4jnsgd1na2vs0mg"},{"bike_id":"61525fe3-26d4-4c5c-a075-e59599c296c4","system_id":"levelo_inurba_marseille","lat":43.31427,"lon":5.39295,"is_reserved":false,"is_disabled":false,"rental_uris":{"android":"levelo://app?vid=61525fe3-26d4-4c5c-a075-e59599c296c4","ios":"levelo://app?vid=61525fe3-26d4-4c5c-a075-e59599c296c4"},"vehicle_type_id":"4","last_reported":1761131372,"current_range_meters":17600,"station_id":"","pricing_plan_id":"cebpf4jnsgd1na2vs0mg"},{"bike_id":"612b7784-911c-4890-a540-330f9d5f4992","system_id":"levelo_inurba_marseille","lat":43.24155,"lon":5.36407,"is_reserved":false,"is_disabled":false,"rental_uris":{"android":"levelo://app?vid=612b7784-911c-4890-a540-330f9d5f4992","ios":"levelo://app?vid=612b7784-911c-4890-a540-330f9d5f4992"},"vehicle_type_id":"4","last_reported":1761131372,"current_range_meters":17600,"station_id":"cpo36qri1sfpv3e86is0","pricing_plan_id":"cebpf4jnsgd1na2vs0mg"},{"bike_id":"38387a70-516f-4130-b4ce-7b96b1d8d939","system_id":"levelo_inurba_marseille","lat":43.3136,"lon":5.36707,"is_reserved":false,"is_disabled":false,"rental_uris":{"android":"levelo://app?vid=38387a70-516f-4130-b4ce-7b96b1d8d939","ios":"levelo://app?vid=38387a70-516f-4130-b4ce-7b96b1d8d939"},"vehicle_type_id":"4","last_reported":1761131372,"current_range_meters":17600,"station_id":"ce4bgr92rcd13ifvqc6g","pricing_plan_id":"cebpf4jnsgd1na2vs0mg"},{"bike_id":"1db58ee4-5c7d-4ef1-8a33-4047f3a1feb6","system_id":"levelo_inurba_marseille","lat":43.32537,"lon":5.41429,"is_reserved":false,"is_disabled":false,"rental_uris":{"android":"levelo://app?vid=1db58ee4-5c7d-4ef1-8a33-4047f3a1feb6","ios":"levelo://app?vid=1db58ee4-5c7d-4ef1-8a33-4047f3a1feb6"},"vehicle_type_id":"4","last_reported":1761131372,"current_range_meters":17600,"station_id":"ce4bhq12rcd13ifvqhhg","pricing_plan_id":"cebpf4jnsgd1na2vs0mg"},{"bike_id":"7ce64255-cce6-4db1-b2c9-3af07be0c301","system_id":"levelo_inurba_marseille","lat":43.28154,"lon":5.42642,"is_reserved":false,"is_disabled":false,"rental_uris":{"android":"levelo://app?vid=7ce64255-cce6-4db1-b2c9-3af07be0c301","ios":"levelo://app?vid=7ce64255-cce6-4db1-b2c9-3af07be0c301"},"vehicle_type_id":"4","last_reported":1761131372,"current_range_meters":17600,"station_id":"ce4bhnh2rcd13ifvqgug","pricing_plan_id":"cebpf4jnsgd1na2vs0mg"},{"bike_id":"b25a4d27-84df-4f1c-af12-2f9e9b4f629a","system_id":"levelo_inurba_marseille","lat":43.282206,"lon":5.39055,"is_reserved":false,"is_disabled":true,"rental_uris":{"android":"levelo://app?vid=b25a4d27-84df-4f1c-af12-2f9e9b4f629a","ios":"levelo://app?vid=b25a4d27-84df-4f1c-af12-2f9e9b4f629a"},"vehicle_type_id":"4","last_reported":1761131372,"current_range_meters":17600,"station_id":"ce4bhn92rcd13ifvqgsg","pricing_plan_id":"cebpf4jnsgd1na2vs0mg"},{"bike_id":"e81ea38e-7c02-4a5a-b40c-4d63413eb05c","system_id":"levelo_inurba_marseille","lat":43.23151,"lon":5.43713,"is_reserved":false,"is_disabled":false,"rental_uris":{"android":"levelo://app?vid=e81ea38e-7c02-4a5a-b40c-4d63413eb05c","ios":"levelo://app?vid=e81ea38e-7c02-4a5a-b40c-4d63413eb05c"},"vehicle_type_id":"4","last_reported":1761131372,"current_range_meters":17600,"station_id":"ce4bhmp2rcd13ifvqgog","pricing_plan_id":"cebpf4jnsgd1na2vs0mg"},{"bike_id":"99332a38-6d7c-4935-86ee-07acb729932e","system_id":"levelo_inurba_marseille","lat":43.298023,"lon":5.381016,"is_reserved":false,"is_disabled":false,"rental_uris":{"android":"levelo://app?vid=99332a38-6d7c-4935-86ee-07acb729932e","ios":"levelo://app?vid=99332a38-6d7c-4935-86ee-07acb729932e"},"vehicle_type_id":"4","last_reported":1761131372,"current_range_meters":18000,"station_id":"ce4bgip2rcd13ifvqbb0","pricing_plan_id":"cebpf4jnsgd1na2vs0mg"},{"bike_id":"37919a81-5f03-4e93-b094-379888e8cb5b","system_id":"levelo_inurba_marseille","lat":43.30275,"lon":5.36908,"is_reserved":false,"is_disabled":false,"rental_uris":{"android":"levelo://app?vid=37919a81-5f03-4e93-b094-379888e8cb5b","ios":"levelo://app?vid=37919a81-5f03-4e93-b094-379888e8cb5b"},"vehicle_type_id":"4","last_reported":1761131372,"current_range_meters":18000,"station_id":"ce4bgqh2rcd13ifvqc5g","pricing_plan_id":"cebpf4jnsgd1na2vs0mg"},{"bike_id":"fc088b50-e903-4413-b68e-3a2b8a695866","system_id":"levelo_inurba_marseille","lat":43.24624,"lon":5.43152,"is_reserved":false,"is_disabled":false,"rental_uris":{"android":"levelo://app?vid=fc088b50-e903-4413-b68e-3a2b8a695866","ios":"levelo://app?vid=fc088b50-e903-4413-b68e-3a2b8a695866"},"vehicle_type_id":"4","last_reported":1761131372,"current_range_meters":18000,"station_id":"st_d2m6c4gdas8pm72e190g","pricing_plan_id":"cebpf4jnsgd1na2vs0mg"},{"bike_id":"be8b6abc-461e-4246-9cc6-627f9543efb1","system_id":"levelo_inurba_marseille","lat":43.296202,"lon":5.371602,"is_reserved":false,"is_disabled":false,"rental_uris":{"android":"levelo://app?vid=be8b6abc-461e-4246-9cc6-627f9543efb1","ios":"levelo://app?vid=be8b6abc-461e-4246-9cc6-627f9543efb1"},"vehicle_type_id":"4","last_reported":1761131372,"current_range_meters":18000,"station_id":"ce4bgnh2rcd13ifvqc0g","pricing_plan_id":"cebpf4jnsgd1na2vs0mg"},{"bike_id":"912fafd0-bac8-42fa-aa96-95edf9b3b9a2","system_id":"levelo_inurba_marseille","lat":43.30132,"lon":5.3809,"is_reserved":false,"is_disabled":false,"rental_uris":{"android":"levelo://app?vid=912fafd0-bac8-42fa-aa96-95edf9b3b9a2","ios":"levelo://app?vid=912fafd0-bac8-42fa-aa96-95edf9b3b9a2"},"vehicle_type_id":"4","last_reported":1761131372,"current_range_meters":18000,"station_id":"ce4bgjp2rcd13ifvqbh0","pricing_plan_id":"cebpf4jnsgd1na2vs0mg"},{"bike_id":"205a1994-d98a-42ee-a2a9-7548fdcc1a21","system_id":"levelo_inurba_marseille","lat":43.30527,"lon":5.36558,"is_reserved":false,"is_disabled":false,"rental_uris":{"android":"levelo://app?vid=205a1994-d98a-42ee-a2a9-7548fdcc1a21","ios":"levelo://app?vid=205a1994-d98a-42ee-a2a9-7548fdcc1a21"},"vehicle_type_id":"4","last_reported":1761131372,"current_range_meters":18000,"station_id":"","pricing_plan_id":"cebpf4jnsgd1na2vs0mg"},{"bike_id":"d9247930-f477-4727-872b-24c5b02f6614","system_id":"levelo_inurba_marseille","lat":43.27184,"lon":5.40981,"is_reserved":false,"is_disabled":false,"rental_uris":{"android":"levelo://app?vid=d9247930-f477-4727-872b-24c5b02f6614","ios":"levelo://app?vid=d9247930-f477-4727-872b-24c5b02f6614"},"vehicle_type_id":"4","last_reported":1761131372,"current_range_meters":18000,"station_id":"ce4bhl12rcd13ifvqgf0","pricing_plan_id":"cebpf4jnsgd1na2vs0mg"},{"bike_id":"1ecc769a-b3fa-49c2-a478-e889e54c474f","system_id":"levelo_inurba_marseille","lat":43.30161,"lon":5.38077,"is_reserved":false,"is_disabled":false,"rental_uris":{"android":"levelo://app?vid=1ecc769a-b3fa-49c2-a478-e889e54c474f","ios":"levelo://app?vid=1ecc769a-b3fa-49c2-a478-e889e54c474f"},"vehicle_type_id":"4","last_reported":1761131372,"current_range_meters":18800,"station_id":"ce4bgjp2rcd13ifvqbh0","pricing_plan_id":"cebpf4jnsgd1na2vs0mg"},{"bike_id":"5deb1481-0f0e-41e1-a1ba-0d8c0e934059","system_id":"levelo_inurba_marseille","lat":43.33599,"lon":5.41006,"is_reserved":false,"is_disabled":false,"rental_uris":{"android":"levelo://app?vid=5deb1481-0f0e-41e1-a1ba-0d8c0e934059","ios":"levelo://app?vid=5deb1481-0f0e-41e1-a1ba-0d8c0e934059"},"vehicle_type_id":"4","last_reported":1761131372,"current_range_meters":18800,"station_id":"ce4bhqh2rcd13ifvqhmg","pricing_plan_id":"cebpf4jnsgd1na2vs0mg"},{"bike_id":"4c2b5c5f-ac7a-43d4-a4ed-480a42d5e982","system_id":"levelo_inurba_marseille","lat":43.33925,"lon":5.39762,"is_reserved":false,"is_disabled":false,"rental_uris":{"android":"levelo://app?vid=4c2b5c5f-ac7a-43d4-a4ed-480a42d5e982","ios":"levelo://app?vid=4c2b5c5f-ac7a-43d4-a4ed-480a42d5e982"},"vehicle_type_id":"4","last_reported":1761131372,"current_range_meters":18800,"station_id":"","pricing_plan_id":"cebpf4jnsgd1na2vs0mg"},{"bike_id":"ac1cb474-c925-40d8-b4e4-efbb5f66921b","system_id":"levelo_inurba_marseille","lat":43.30576,"lon":5.39348,"is_reserved":false,"is_disabled":false,"rental_uris":{"android":"levelo://app?vid=ac1cb474-c925-40d8-b4e4-efbb5f66921b","ios":"levelo://app?vid=ac1cb474-c925-40d8-b4e4-efbb5f66921b"},"vehicle_type_id":"4","last_reported":1761131372,"current_range_meters":18800,"station_id":"ce4bh0p2rcd13ifvqd80","pricing_plan_id":"cebpf4jnsgd1na2vs0mg"},{"bike_id":"622a446d-7aa9-48f8-a28a-4bdb017917b6","system_id":"levelo_inurba_marseille","lat":43.30145,"lon":5.38096,"is_reserved":false,"is_disabled":false,"rental_uris":{"android":"levelo://app?vid=622a446d-7aa9-48f8-a28a-4bdb017917b6","ios":"levelo://app?vid=622a446d-7aa9-48f8-a28a-4bdb017917b6"},"vehicle_type_id":"4","last_reported":1761131372,"current_range_meters":18800,"station_id":"ce4bgjp2rcd13ifvqbh0","pricing_plan_id":"cebpf4jnsgd1na2vs0mg"},{"bike_id":"bda3ed1a-3199-4eb8-8229-577855d09dbb","system_id":"levelo_inurba_marseille","lat":43.3163,"lon":5.37876,"is_reserved":false,"is_disabled":false,"rental_uris":{"android":"levelo://app?vid=bda3ed1a-3199-4eb8-8229-577855d09dbb","ios":"levelo://app?vid=bda3ed1a-3199-4eb8-8229-577855d09dbb"},"vehicle_type_id":"4","last_reported":1761131372,"current_range_meters":18800,"station_id":"","pricing_plan_id":"cebpf4jnsgd1na2vs0mg"},{"bike_id":"89ddf3b0-93c7-40cc-958c-80c69f9edea9","system_id":"levelo_inurba_marseille","lat":43.30123,"lon":5.374187,"is_reserved":false,"is_disabled":false,"rental_uris":{"android":"levelo://app?vid=89ddf3b0-93c7-40cc-958c-80c69f9edea9","ios":"levelo://app?vid=89ddf3b0-93c7-40cc-958c-80c69f9edea9"},"vehicle_type_id":"4","last_reported":1761131372,"current_range_meters":18800,"station_id":"ce4bgs92rcd13ifvqcc0","pricing_plan_id":"cebpf4jnsgd1na2vs0mg"},{"bike_id":"09f2ac65-5a04-431a-a5cc-cb096a1f815f","system_id":"levelo_inurba_marseille","lat":43.29218,"lon":5.3605,"is_reserved":false,"is_disabled":true,"rental_uris":{"android":"levelo://app?vid=09f2ac65-5a04-431a-a5cc-cb096a1f815f","ios":"levelo://app?vid=09f2ac65-5a04-431a-a5cc-cb096a1f815f"},"vehicle_type_id":"4","last_reported":1761131372,"current_range_meters":18800,"station_id":"ce4bhbh2rcd13ifvqeqg","pricing_plan_id":"cebpf4jnsgd1na2vs0mg"},{"bike_id":"68e28d42-a1da-4da9-a776-cc1ad62abc7f","system_id":"levelo_inurba_marseille","lat":43.29981,"lon":5.37175,"is_reserved":false,"is_disabled":false,"rental_uris":{"android":"levelo://app?vid=68e28d42-a1da-4da9-a776-cc1ad62abc7f","ios":"levelo://app?vid=68e28d42-a1da-4da9-a776-cc1ad62abc7f"},"vehicle_type_id":"4","last_reported":1761131372,"current_range_meters":18800,"station_id":"ce4bgr92rcd13ifvqc7g","pricing_plan_id":"cebpf4jnsgd1na2vs0mg"},{"bike_id":"415179a7-2d88-422a-bebd-ab5d5bf72e3d","system_id":"levelo_inurba_marseille","lat":43.31991,"lon":5.38151,"is_reserved":false,"is_disabled":false,"rental_uris":{"android":"levelo://app?vid=415179a7-2d88-422a-bebd-ab5d5bf72e3d","ios":"levelo://app?vid=415179a7-2d88-422a-bebd-ab5d5bf72e3d"},"vehicle_type_id":"4","last_reported":1761131372,"current_range_meters":18800,"station_id":"ce4bhr12rcd13ifvqhpg","pricing_plan_id":"cebpf4jnsgd1na2vs0mg"},{"bike_id":"40c8ada7-5d3b-48c2-96ea-1a5877556543","system_id":"levelo_inurba_marseille","lat":43.293,"lon":5.371591,"is_reserved":false,"is_disabled":false,"rental_uris":{"android":"levelo://app?vid=40c8ada7-5d3b-48c2-96ea-1a5877556543","ios":"levelo://app?vid=40c8ada7-5d3b-48c2-96ea-1a5877556543"},"vehicle_type_id":"4","last_reported":1761131372,"current_range_meters":18800,"station_id":"ce4bgh92rcd13ifvqb40","pricing_plan_id":"cebpf4jnsgd1na2vs0mg"},{"bike_id":"55e90a26-98e4-4248-854f-c415996cafea","system_id":"levelo_inurba_marseille","lat":43.33769,"lon":5.37437,"is_reserved":false,"is_disabled":false,"rental_uris":{"android":"levelo://app?vid=55e90a26-98e4-4248-854f-c415996cafea","ios":"levelo://app?vid=55e90a26-98e4-4248-854f-c415996cafea"},"vehicle_type_id":"4","last_reported":1761131372,"current_range_meters":18800,"station_id":"","pricing_plan_id":"cebpf4jnsgd1na2vs0mg"},{"bike_id":"37a496e0-c5b1-4201-8ed8-5a117c58f04d","system_id":"levelo_inurba_marseille","lat":43.292757,"lon":5.368423,"is_reserved":false,"is_disabled":false,"rental_uris":{"android":"levelo://app?vid=37a496e0-c5b1-4201-8ed8-5a117c58f04d","ios":"levelo://app?vid=37a496e0-c5b1-4201-8ed8-5a117c58f04d"},"vehicle_type_id":"4","last_reported":1761131372,"current_range_meters":19200,"station_id":"ce4bhbp2rcd13ifvqesg","pricing_plan_id":"cebpf4jnsgd1na2vs0mg"},{"bike_id":"e8d5589c-46e6-4f16-98dc-f58df1da932e","system_id":"levelo_inurba_marseille","lat":43.27184,"lon":5.41009,"is_reserved":false,"is_disabled":false,"rental_uris":{"android":"levelo://app?vid=e8d5589c-46e6-4f16-98dc-f58df1da932e","ios":"levelo://app?vid=e8d5589c-46e6-4f16-98dc-f58df1da932e"},"vehicle_type_id":"4","last_reported":1761131372,"current_range_meters":19200,"station_id":"ce4bhl12rcd13ifvqgf0","pricing_plan_id":"cebpf4jnsgd1na2vs0mg"},{"bike_id":"2a22829e-2bd6-41ec-a3e5-ef826e7425d3","system_id":"levelo_inurba_marseille","lat":43.32101,"lon":5.36785,"is_reserved":false,"is_disabled":false,"rental_uris":{"android":"levelo://app?vid=2a22829e-2bd6-41ec-a3e5-ef826e7425d3","ios":"levelo://app?vid=2a22829e-2bd6-41ec-a3e5-ef826e7425d3"},"vehicle_type_id":"4","last_reported":1761131372,"current_range_meters":19200,"station_id":"ce4bhrh2rcd13ifvqhug","pricing_plan_id":"cebpf4jnsgd1na2vs0mg"},{"bike_id":"f27315e2-6979-4cab-b3d3-8c17d71ddc2c","system_id":"levelo_inurba_marseille","lat":43.28932,"lon":5.3664,"is_reserved":false,"is_disabled":false,"rental_uris":{"android":"levelo://app?vid=f27315e2-6979-4cab-b3d3-8c17d71ddc2c","ios":"levelo://app?vid=f27315e2-6979-4cab-b3d3-8c17d71ddc2c"},"vehicle_type_id":"4","last_reported":1761131372,"current_range_meters":19200,"station_id":"ce4bhap2rcd13ifvqek0","pricing_plan_id":"cebpf4jnsgd1na2vs0mg"},{"bike_id":"bc1ce556-4f70-40b2-a104-08b26a535c74","system_id":"levelo_inurba_marseille","lat":43.22564,"lon":5.41634,"is_reserved":false,"is_disabled":false,"rental_uris":{"android":"levelo://app?vid=bc1ce556-4f70-40b2-a104-08b26a535c74","ios":"levelo://app?vid=bc1ce556-4f70-40b2-a104-08b26a535c74"},"vehicle_type_id":"4","last_reported":1761131372,"current_range_meters":19200,"station_id":"st_d2o4gvlbi1j2169b742g","pricing_plan_id":"cebpf4jnsgd1na2vs0mg"},{"bike_id":"a7f831ab-ba4c-4b99-8fcb-e4d8f2bdf460","system_id":"levelo_inurba_marseille","lat":43.270575,"lon":5.402661,"is_reserved":false,"is_disabled":false,"rental_uris":{"android":"levelo://app?vid=a7f831ab-ba4c-4b99-8fcb-e4d8f2bdf460","ios":"levelo://app?vid=a7f831ab-ba4c-4b99-8fcb-e4d8f2bdf460"},"vehicle_type_id":"4","last_reported":1761131372,"current_range_meters":19200,"station_id":"ce4bhk92rcd13ifvqgc0","pricing_plan_id":"cebpf4jnsgd1na2vs0mg"},{"bike_id":"45431ed0-5d6b-4bf8-943f-8c84c27181f1","system_id":"levelo_inurba_marseille","lat":43.272107,"lon":5.391494,"is_reserved":false,"is_disabled":false,"rental_uris":{"android":"levelo://app?vid=45431ed0-5d6b-4bf8-943f-8c84c27181f1","ios":"levelo://app?vid=45431ed0-5d6b-4bf8-943f-8c84c27181f1"},"vehicle_type_id":"4","last_reported":1761131372,"current_range_meters":19200,"station_id":"ce4bhhp2rcd13ifvqfm0","pricing_plan_id":"cebpf4jnsgd1na2vs0mg"},{"bike_id":"900512a2-14c6-421d-969e-c3dc812fd854","system_id":"levelo_inurba_marseille","lat":43.290305,"lon":5.372418,"is_reserved":false,"is_disabled":false,"rental_uris":{"android":"levelo://app?vid=900512a2-14c6-421d-969e-c3dc812fd854","ios":"levelo://app?vid=900512a2-14c6-421d-969e-c3dc812fd854"},"vehicle_type_id":"4","last_reported":1761131372,"current_range_meters":19200,"station_id":"","pricing_plan_id":"cebpf4jnsgd1na2vs0mg"},{"bike_id":"e6904a4f-24d8-4b27-be2a-e444008d6e11","system_id":"levelo_inurba_marseille","lat":43.31169,"lon":5.38712,"is_reserved":false,"is_disabled":false,"rental_uris":{"android":"levelo://app?vid=e6904a4f-24d8-4b27-be2a-e444008d6e11","ios":"levelo://app?vid=e6904a4f-24d8-4b27-be2a-e444008d6e11"},"vehicle_type_id":"4","last_reported":1761131372,"current_range_meters":19600,"station_id":"ce4bgv12rcd13ifvqcp0","pricing_plan_id":"cebpf4jnsgd1na2vs0mg"},{"bike_id":"98ce260e-260a-4f8a-b4b9-bbddca235045","system_id":"levelo_inurba_marseille","lat":43.26398,"lon":5.39011,"is_reserved":false,"is_disabled":false,"rental_uris":{"android":"levelo://app?vid=98ce260e-260a-4f8a-b4b9-bbddca235045","ios":"levelo://app?vid=98ce260e-260a-4f8a-b4b9-bbddca235045"},"vehicle_type_id":"4","last_reported":1761131372,"current_range_meters":19600,"station_id":"","pricing_plan_id":"cebpf4jnsgd1na2vs0mg"},{"bike_id":"75eebb0f-2447-4bf8-b846-45b5b359059b","system_id":"levelo_inurba_marseille","lat":43.337572,"lon":5.374903,"is_reserved":false,"is_disabled":false,"rental_uris":{"android":"levelo://app?vid=75eebb0f-2447-4bf8-b846-45b5b359059b","ios":"levelo://app?vid=75eebb0f-2447-4bf8-b846-45b5b359059b"},"vehicle_type_id":"4","last_reported":1761131372,"current_range_meters":19600,"station_id":"","pricing_plan_id":"cebpf4jnsgd1na2vs0mg"},{"bike_id":"bdebbf59-ccf0-4a69-aeb1-75fee41bc20e","system_id":"levelo_inurba_marseille","lat":43.30428,"lon":5.38878,"is_reserved":false,"is_disabled":false,"rental_uris":{"android":"levelo://app?vid=bdebbf59-ccf0-4a69-aeb1-75fee41bc20e","ios":"levelo://app?vid=bdebbf59-ccf0-4a69-aeb1-75fee41bc20e"},"vehicle_type_id":"4","last_reported":1761131372,"current_range_meters":19600,"station_id":"ce4bgk12rcd13ifvqbi0","pricing_plan_id":"cebpf4jnsgd1na2vs0mg"},{"bike_id":"7a349396-ed9b-4d49-94bb-4381eca692da","system_id":"levelo_inurba_marseille","lat":43.28266,"lon":5.35057,"is_reserved":false,"is_disabled":false,"rental_uris":{"android":"levelo://app?vid=7a349396-ed9b-4d49-94bb-4381eca692da","ios":"levelo://app?vid=7a349396-ed9b-4d49-94bb-4381eca692da"},"vehicle_type_id":"4","last_reported":1761131372,"current_range_meters":19600,"station_id":"ce4bhbp2rcd13ifvqerg","pricing_plan_id":"cebpf4jnsgd1na2vs0mg"},{"bike_id":"5ef4a007-e3f0-4359-a6a3-866f19d0fd1a","system_id":"levelo_inurba_marseille","lat":43.31478,"lon":5.37305,"is_reserved":false,"is_disabled":false,"rental_uris":{"android":"levelo://app?vid=5ef4a007-e3f0-4359-a6a3-866f19d0fd1a","ios":"levelo://app?vid=5ef4a007-e3f0-4359-a6a3-866f19d0fd1a"},"vehicle_type_id":"4","last_reported":1761131372,"current_range_meters":19600,"station_id":"ce4bgt12rcd13ifvqcd0","pricing_plan_id":"cebpf4jnsgd1na2vs0mg"},{"bike_id":"692a999f-f646-43fe-b949-d58fd32447f4","system_id":"levelo_inurba_marseille","lat":43.3237,"lon":5.38876,"is_reserved":false,"is_disabled":false,"rental_uris":{"android":"levelo://app?vid=692a999f-f646-43fe-b949-d58fd32447f4","ios":"levelo://app?vid=692a999f-f646-43fe-b949-d58fd32447f4"},"vehicle_type_id":"4","last_reported":1761131372,"current_range_meters":19600,"station_id":"ce4bhqp2rcd13ifvqhog","pricing_plan_id":"cebpf4jnsgd1na2vs0mg"},{"bike_id":"13ffca06-ecc4-46ee-aa82-6818647126c8","system_id":"levelo_inurba_marseille","lat":43.29898,"lon":5.43663,"is_reserved":false,"is_disabled":false,"rental_uris":{"android":"levelo://app?vid=13ffca06-ecc4-46ee-aa82-6818647126c8","ios":"levelo://app?vid=13ffca06-ecc4-46ee-aa82-6818647126c8"},"vehicle_type_id":"4","last_reported":1761131372,"current_range_meters":19600,"station_id":"ce4bhpp2rcd13ifvqhfg","pricing_plan_id":"cebpf4jnsgd1na2vs0mg"},{"bike_id":"b2b8f365-8a29-4956-a60f-d66262a717ca","system_id":"levelo_inurba_marseille","lat":43.304905,"lon":5.41116,"is_reserved":false,"is_disabled":false,"rental_uris":{"android":"levelo://app?vid=b2b8f365-8a29-4956-a60f-d66262a717ca","ios":"levelo://app?vid=b2b8f365-8a29-4956-a60f-d66262a717ca"},"vehicle_type_id":"4","last_reported":1761131372,"current_range_meters":19600,"station_id":"ce4bhop2rcd13ifvqh8g","pricing_plan_id":"cebpf4jnsgd1na2vs0mg"},{"bike_id":"b4676494-b7ab-46e4-8431-7318f4db2766","system_id":"levelo_inurba_marseille","lat":43.30574,"lon":5.39359,"is_reserved":false,"is_disabled":false,"rental_uris":{"android":"levelo://app?vid=b4676494-b7ab-46e4-8431-7318f4db2766","ios":"levelo://app?vid=b4676494-b7ab-46e4-8431-7318f4db2766"},"vehicle_type_id":"4","last_reported":1761131372,"current_range_meters":19600,"station_id":"ce4bh0p2rcd13ifvqd80","pricing_plan_id":"cebpf4jnsgd1na2vs0mg"},{"bike_id":"f96a7626-86a5-47ef-adf5-28feb0b7f0ac","system_id":"levelo_inurba_marseille","lat":43.2721,"lon":5.39172,"is_reserved":false,"is_disabled":false,"rental_uris":{"android":"levelo://app?vid=f96a7626-86a5-47ef-adf5-28feb0b7f0ac","ios":"levelo://app?vid=f96a7626-86a5-47ef-adf5-28feb0b7f0ac"},"vehicle_type_id":"4","last_reported":1761131372,"current_range_meters":19600,"station_id":"","pricing_plan_id":"cebpf4jnsgd1na2vs0mg"},{"bike_id":"6eb9cec2-9853-41d7-ad07-81e478775a6f","system_id":"levelo_inurba_marseille","lat":43.317147,"lon":5.424003,"is_reserved":false,"is_disabled":false,"rental_uris":{"android":"levelo://app?vid=6eb9cec2-9853-41d7-ad07-81e478775a6f","ios":"levelo://app?vid=6eb9cec2-9853-41d7-ad07-81e478775a6f"},"vehicle_type_id":"4","last_reported":1761131372,"current_range_meters":20000,"station_id":"ce4bhp92rcd13ifvqhbg","pricing_plan_id":"cebpf4jnsgd1na2vs0mg"},{"bike_id":"7e29b7b2-0f9f-45d3-8c19-2b59c104f08b","system_id":"levelo_inurba_marseille","lat":43.3031,"lon":5.369,"is_reserved":false,"is_disabled":false,"rental_uris":{"android":"levelo://app?vid=7e29b7b2-0f9f-45d3-8c19-2b59c104f08b","ios":"levelo://app?vid=7e29b7b2-0f9f-45d3-8c19-2b59c104f08b"},"vehicle_type_id":"4","last_reported":1761131372,"current_range_meters":20000,"station_id":"ce4bgqh2rcd13ifvqc5g","pricing_plan_id":"cebpf4jnsgd1na2vs0mg"},{"bike_id":"12434305-3d47-4567-aa89-5719774005fe","system_id":"levelo_inurba_marseille","lat":43.29203,"lon":5.39314,"is_reserved":false,"is_disabled":false,"rental_uris":{"android":"levelo://app?vid=12434305-3d47-4567-aa89-5719774005fe","ios":"levelo://app?vid=12434305-3d47-4567-aa89-5719774005fe"},"vehicle_type_id":"4","last_reported":1761131372,"current_range_meters":20000,"station_id":"ce4bh192rcd13ifvqdd0","pricing_plan_id":"cebpf4jnsgd1na2vs0mg"},{"bike_id":"954002ef-8069-4a73-9af2-4a86737c08e2","system_id":"levelo_inurba_marseille","lat":43.28156,"lon":5.4266,"is_reserved":false,"is_disabled":false,"rental_uris":{"android":"levelo://app?vid=954002ef-8069-4a73-9af2-4a86737c08e2","ios":"levelo://app?vid=954002ef-8069-4a73-9af2-4a86737c08e2"},"vehicle_type_id":"4","last_reported":1761131372,"current_range_meters":20000,"station_id":"ce4bhnh2rcd13ifvqgug","pricing_plan_id":"cebpf4jnsgd1na2vs0mg"},{"bike_id":"265ffbc0-e60e-4406-8810-87e0abc2b983","system_id":"levelo_inurba_marseille","lat":43.23965,"lon":5.3661,"is_reserved":false,"is_disabled":false,"rental_uris":{"android":"levelo://app?vid=265ffbc0-e60e-4406-8810-87e0abc2b983","ios":"levelo://app?vid=265ffbc0-e60e-4406-8810-87e0abc2b983"},"vehicle_type_id":"4","last_reported":1761131372,"current_range_meters":20000,"station_id":"ce4bhi12rcd13ifvqfp0","pricing_plan_id":"cebpf4jnsgd1na2vs0mg"},{"bike_id":"27acfebf-8743-48f0-8474-f5519d36a2a6","system_id":"levelo_inurba_marseille","lat":43.30132,"lon":5.38793,"is_reserved":false,"is_disabled":false,"rental_uris":{"android":"levelo://app?vid=27acfebf-8743-48f0-8474-f5519d36a2a6","ios":"levelo://app?vid=27acfebf-8743-48f0-8474-f5519d36a2a6"},"vehicle_type_id":"4","last_reported":1761131372,"current_range_meters":20000,"station_id":"ce4bghh2rcd13ifvqb60","pricing_plan_id":"cebpf4jnsgd1na2vs0mg"},{"bike_id":"4de5a3a5-3b6e-4ce7-8372-1db61e216cbe","system_id":"levelo_inurba_marseille","lat":43.2463,"lon":5.43137,"is_reserved":false,"is_disabled":false,"rental_uris":{"android":"levelo://app?vid=4de5a3a5-3b6e-4ce7-8372-1db61e216cbe","ios":"levelo://app?vid=4de5a3a5-3b6e-4ce7-8372-1db61e216cbe"},"vehicle_type_id":"4","last_reported":1761131372,"current_range_meters":20000,"station_id":"st_d2m6c4gdas8pm72e190g","pricing_plan_id":"cebpf4jnsgd1na2vs0mg"},{"bike_id":"035ca1d7-233f-4f69-9569-4f3393764361","system_id":"levelo_inurba_marseille","lat":43.30842,"lon":5.37324,"is_reserved":false,"is_disabled":false,"rental_uris":{"android":"levelo://app?vid=035ca1d7-233f-4f69-9569-4f3393764361","ios":"levelo://app?vid=035ca1d7-233f-4f69-9569-4f3393764361"},"vehicle_type_id":"4","last_reported":1761131372,"current_range_meters":20400,"station_id":"","pricing_plan_id":"cebpf4jnsgd1na2vs0mg"},{"bike_id":"88b2962d-442b-480d-a54f-7ba286a29a00","system_id":"levelo_inurba_marseille","lat":43.3122,"lon":5.36854,"is_reserved":false,"is_disabled":false,"rental_uris":{"android":"levelo://app?vid=88b2962d-442b-480d-a54f-7ba286a29a00","ios":"levelo://app?vid=88b2962d-442b-480d-a54f-7ba286a29a00"},"vehicle_type_id":"4","last_reported":1761131372,"current_range_meters":20400,"station_id":"ce4bgl92rcd13ifvqbq0","pricing_plan_id":"cebpf4jnsgd1na2vs0mg"},{"bike_id":"8bcacd78-80de-4026-af75-b37ebe3030fe","system_id":"levelo_inurba_marseille","lat":43.334756,"lon":5.404255,"is_reserved":false,"is_disabled":false,"rental_uris":{"android":"levelo://app?vid=8bcacd78-80de-4026-af75-b37ebe3030fe","ios":"levelo://app?vid=8bcacd78-80de-4026-af75-b37ebe3030fe"},"vehicle_type_id":"4","last_reported":1761131372,"current_range_meters":20400,"station_id":"","pricing_plan_id":"cebpf4jnsgd1na2vs0mg"},{"bike_id":"4a10b3f1-7c71-434e-ab61-bd41edbc35e0","system_id":"levelo_inurba_marseille","lat":43.30214,"lon":5.39469,"is_reserved":false,"is_disabled":false,"rental_uris":{"android":"levelo://app?vid=4a10b3f1-7c71-434e-ab61-bd41edbc35e0","ios":"levelo://app?vid=4a10b3f1-7c71-434e-ab61-bd41edbc35e0"},"vehicle_type_id":"4","last_reported":1761131372,"current_range_meters":20400,"station_id":"ce4bh0p2rcd13ifvqd70","pricing_plan_id":"cebpf4jnsgd1na2vs0mg"},{"bike_id":"e437460d-805d-4c07-9b55-237013e207ed","system_id":"levelo_inurba_marseille","lat":43.307962,"lon":5.381422,"is_reserved":false,"is_disabled":true,"rental_uris":{"android":"levelo://app?vid=e437460d-805d-4c07-9b55-237013e207ed","ios":"levelo://app?vid=e437460d-805d-4c07-9b55-237013e207ed"},"vehicle_type_id":"4","last_reported":1761131372,"current_range_meters":20800,"station_id":"ce4bgt12rcd13ifvqce0","pricing_plan_id":"cebpf4jnsgd1na2vs0mg"},{"bike_id":"48b84716-1dc4-4e68-8b3f-28fa080f39d3","system_id":"levelo_inurba_marseille","lat":43.292751,"lon":5.368366,"is_reserved":false,"is_disabled":false,"rental_uris":{"android":"levelo://app?vid=48b84716-1dc4-4e68-8b3f-28fa080f39d3","ios":"levelo://app?vid=48b84716-1dc4-4e68-8b3f-28fa080f39d3"},"vehicle_type_id":"4","last_reported":1761131372,"current_range_meters":20800,"station_id":"","pricing_plan_id":"cebpf4jnsgd1na2vs0mg"},{"bike_id":"1c68c671-88e6-4e75-bb18-0c15ab855fcf","system_id":"levelo_inurba_marseille","lat":43.297607,"lon":5.380947,"is_reserved":false,"is_disabled":false,"rental_uris":{"android":"levelo://app?vid=1c68c671-88e6-4e75-bb18-0c15ab855fcf","ios":"levelo://app?vid=1c68c671-88e6-4e75-bb18-0c15ab855fcf"},"vehicle_type_id":"4","last_reported":1761131372,"current_range_meters":20800,"station_id":"ce4bgi92rcd13ifvqb90","pricing_plan_id":"cebpf4jnsgd1na2vs0mg"},{"bike_id":"3f39f326-54eb-4aae-a58b-8646f373029d","system_id":"levelo_inurba_marseille","lat":43.24379,"lon":5.37041,"is_reserved":false,"is_disabled":false,"rental_uris":{"android":"levelo://app?vid=3f39f326-54eb-4aae-a58b-8646f373029d","ios":"levelo://app?vid=3f39f326-54eb-4aae-a58b-8646f373029d"},"vehicle_type_id":"4","last_reported":1761131372,"current_range_meters":20800,"station_id":"ce4bhhh2rcd13ifvqfk0","pricing_plan_id":"cebpf4jnsgd1na2vs0mg"},{"bike_id":"aeb01540-d548-468c-8ac1-190a45e8fc15","system_id":"levelo_inurba_marseille","lat":43.31649,"lon":5.37689,"is_reserved":false,"is_disabled":false,"rental_uris":{"android":"levelo://app?vid=aeb01540-d548-468c-8ac1-190a45e8fc15","ios":"levelo://app?vid=aeb01540-d548-468c-8ac1-190a45e8fc15"},"vehicle_type_id":"4","last_reported":1761131372,"current_range_meters":20800,"station_id":"","pricing_plan_id":"cebpf4jnsgd1na2vs0mg"},{"bike_id":"43bf8499-e555-4b7c-a90c-be03bb7492ee","system_id":"levelo_inurba_marseille","lat":43.30888,"lon":5.39644,"is_reserved":false,"is_disabled":false,"rental_uris":{"android":"levelo://app?vid=43bf8499-e555-4b7c-a90c-be03bb7492ee","ios":"levelo://app?vid=43bf8499-e555-4b7c-a90c-be03bb7492ee"},"vehicle_type_id":"4","last_reported":1761131372,"current_range_meters":20800,"station_id":"ce4bh012rcd13ifvqcv0","pricing_plan_id":"cebpf4jnsgd1na2vs0mg"},{"bike_id":"0e385804-a011-4d85-8105-f0ff07d06671","system_id":"levelo_inurba_marseille","lat":43.29034,"lon":5.39961,"is_reserved":false,"is_disabled":false,"rental_uris":{"android":"levelo://app?vid=0e385804-a011-4d85-8105-f0ff07d06671","ios":"levelo://app?vid=0e385804-a011-4d85-8105-f0ff07d06671"},"vehicle_type_id":"4","last_reported":1761131372,"current_range_meters":20800,"station_id":"ce4bh392rcd13ifvqdm0","pricing_plan_id":"cebpf4jnsgd1na2vs0mg"},{"bike_id":"52305c3a-5a42-443f-bfa8-c655e5c2474d","system_id":"levelo_inurba_marseille","lat":43.255729,"lon":5.382394,"is_reserved":false,"is_disabled":false,"rental_uris":{"android":"levelo://app?vid=52305c3a-5a42-443f-bfa8-c655e5c2474d","ios":"levelo://app?vid=52305c3a-5a42-443f-bfa8-c655e5c2474d"},"vehicle_type_id":"4","last_reported":1761131372,"current_range_meters":20800,"station_id":"ce4bhih2rcd13ifvqfs0","pricing_plan_id":"cebpf4jnsgd1na2vs0mg"},{"bike_id":"8b568fab-e273-49f6-bdca-e47680ec431f","system_id":"levelo_inurba_marseille","lat":43.337959,"lon":5.374369,"is_reserved":false,"is_disabled":false,"rental_uris":{"android":"levelo://app?vid=8b568fab-e273-49f6-bdca-e47680ec431f","ios":"levelo://app?vid=8b568fab-e273-49f6-bdca-e47680ec431f"},"vehicle_type_id":"4","last_reported":1761131372,"current_range_meters":21600,"station_id":"","pricing_plan_id":"cebpf4jnsgd1na2vs0mg"},{"bike_id":"75e6f0ab-4c7f-4730-9521-d888afd45035","system_id":"levelo_inurba_marseille","lat":43.29842,"lon":5.36273,"is_reserved":false,"is_disabled":false,"rental_uris":{"android":"levelo://app?vid=75e6f0ab-4c7f-4730-9521-d888afd45035","ios":"levelo://app?vid=75e6f0ab-4c7f-4730-9521-d888afd45035"},"vehicle_type_id":"4","last_reported":1761131372,"current_range_meters":21600,"station_id":"ce4bgpp2rcd13ifvqc3g","pricing_plan_id":"cebpf4jnsgd1na2vs0mg"},{"bike_id":"9a1972b5-72a6-4763-9884-2f966099622e","system_id":"levelo_inurba_marseille","lat":43.29966,"lon":5.37617,"is_reserved":false,"is_disabled":false,"rental_uris":{"android":"levelo://app?vid=9a1972b5-72a6-4763-9884-2f966099622e","ios":"levelo://app?vid=9a1972b5-72a6-4763-9884-2f966099622e"},"vehicle_type_id":"4","last_reported":1761131372,"current_range_meters":21600,"station_id":"","pricing_plan_id":"cebpf4jnsgd1na2vs0mg"},{"bike_id":"54cdc061-e074-4251-8abd-9b03fd571e33","system_id":"levelo_inurba_marseille","lat":43.28263,"lon":5.35058,"is_reserved":false,"is_disabled":false,"rental_uris":{"android":"levelo://app?vid=54cdc061-e074-4251-8abd-9b03fd571e33","ios":"levelo://app?vid=54cdc061-e074-4251-8abd-9b03fd571e33"},"vehicle_type_id":"4","last_reported":1761131372,"current_range_meters":21600,"station_id":"ce4bhbp2rcd13ifvqerg","pricing_plan_id":"cebpf4jnsgd1na2vs0mg"},{"bike_id":"745eb1d9-36e7-43e9-ab13-378f0c560a0c","system_id":"levelo_inurba_marseille","lat":43.33736,"lon":5.39185,"is_reserved":false,"is_disabled":true,"rental_uris":{"android":"levelo://app?vid=745eb1d9-36e7-43e9-ab13-378f0c560a0c","ios":"levelo://app?vid=745eb1d9-36e7-43e9-ab13-378f0c560a0c"},"vehicle_type_id":"4","last_reported":1761131372,"current_range_meters":21600,"station_id":"ce4bhr92rcd13ifvqhsg","pricing_plan_id":"cebpf4jnsgd1na2vs0mg"},{"bike_id":"68a0f30f-e5e8-409b-a397-b641b99fbadf","system_id":"levelo_inurba_marseille","lat":43.24377,"lon":5.37058,"is_reserved":false,"is_disabled":false,"rental_uris":{"android":"levelo://app?vid=68a0f30f-e5e8-409b-a397-b641b99fbadf","ios":"levelo://app?vid=68a0f30f-e5e8-409b-a397-b641b99fbadf"},"vehicle_type_id":"4","last_reported":1761131372,"current_range_meters":21600,"station_id":"ce4bhhh2rcd13ifvqfk0","pricing_plan_id":"cebpf4jnsgd1na2vs0mg"},{"bike_id":"f1767e8c-7fb7-4f51-b9bb-5ad11a10d1fc","system_id":"levelo_inurba_marseille","lat":43.315275,"lon":5.380351,"is_reserved":false,"is_disabled":false,"rental_uris":{"android":"levelo://app?vid=f1767e8c-7fb7-4f51-b9bb-5ad11a10d1fc","ios":"levelo://app?vid=f1767e8c-7fb7-4f51-b9bb-5ad11a10d1fc"},"vehicle_type_id":"4","last_reported":1761131372,"current_range_meters":21600,"station_id":"ce4bhsp2rcd13ifvqi50","pricing_plan_id":"cebpf4jnsgd1na2vs0mg"},{"bike_id":"bf0f7a4f-e52b-42f7-ae51-6f413f81d64f","system_id":"levelo_inurba_marseille","lat":43.26946,"lon":5.3863,"is_reserved":false,"is_disabled":false,"rental_uris":{"android":"levelo://app?vid=bf0f7a4f-e52b-42f7-ae51-6f413f81d64f","ios":"levelo://app?vid=bf0f7a4f-e52b-42f7-ae51-6f413f81d64f"},"vehicle_type_id":"4","last_reported":1761131372,"current_range_meters":21600,"station_id":"ce4bhh92rcd13ifvqfh0","pricing_plan_id":"cebpf4jnsgd1na2vs0mg"},{"bike_id":"2172ef7f-240b-4c72-bf8d-26c79cc1f73d","system_id":"levelo_inurba_marseille","lat":43.29899,"lon":5.43675,"is_reserved":false,"is_disabled":false,"rental_uris":{"android":"levelo://app?vid=2172ef7f-240b-4c72-bf8d-26c79cc1f73d","ios":"levelo://app?vid=2172ef7f-240b-4c72-bf8d-26c79cc1f73d"},"vehicle_type_id":"4","last_reported":1761131372,"current_range_meters":22000,"station_id":"ce4bhpp2rcd13ifvqhfg","pricing_plan_id":"cebpf4jnsgd1na2vs0mg"},{"bike_id":"6b556355-5407-4c5a-bd48-e76fbf070edc","system_id":"levelo_inurba_marseille","lat":43.276764,"lon":5.388704,"is_reserved":false,"is_disabled":false,"rental_uris":{"android":"levelo://app?vid=6b556355-5407-4c5a-bd48-e76fbf070edc","ios":"levelo://app?vid=6b556355-5407-4c5a-bd48-e76fbf070edc"},"vehicle_type_id":"4","last_reported":1761131372,"current_range_meters":22000,"station_id":"ce4bhi12rcd13ifvqfo0","pricing_plan_id":"cebpf4jnsgd1na2vs0mg"},{"bike_id":"183518c2-0452-4615-a905-0c311a008b56","system_id":"levelo_inurba_marseille","lat":43.24073,"lon":5.37761,"is_reserved":false,"is_disabled":false,"rental_uris":{"android":"levelo://app?vid=183518c2-0452-4615-a905-0c311a008b56","ios":"levelo://app?vid=183518c2-0452-4615-a905-0c311a008b56"},"vehicle_type_id":"4","last_reported":1761131372,"current_range_meters":22000,"station_id":"ce4bhnp2rcd13ifvqgvg","pricing_plan_id":"cebpf4jnsgd1na2vs0mg"},{"bike_id":"d77c236b-4ef9-4da4-a053-8c85ea370247","system_id":"levelo_inurba_marseille","lat":43.28001,"lon":5.41667,"is_reserved":false,"is_disabled":false,"rental_uris":{"android":"levelo://app?vid=d77c236b-4ef9-4da4-a053-8c85ea370247","ios":"levelo://app?vid=d77c236b-4ef9-4da4-a053-8c85ea370247"},"vehicle_type_id":"4","last_reported":1761131372,"current_range_meters":22000,"station_id":"ce4bho12rcd13ifvqh1g","pricing_plan_id":"cebpf4jnsgd1na2vs0mg"},{"bike_id":"bdcd4dfa-7e63-495d-a24e-17b0a60bf1f9","system_id":"levelo_inurba_marseille","lat":43.2887,"lon":5.4253,"is_reserved":false,"is_disabled":false,"rental_uris":{"android":"levelo://app?vid=bdcd4dfa-7e63-495d-a24e-17b0a60bf1f9","ios":"levelo://app?vid=bdcd4dfa-7e63-495d-a24e-17b0a60bf1f9"},"vehicle_type_id":"4","last_reported":1761131372,"current_range_meters":22400,"station_id":"st_d3b462108ojc7389ooeg","pricing_plan_id":"cebpf4jnsgd1na2vs0mg"},{"bike_id":"6e62cf1c-40f3-4230-ba3a-611416a731d6","system_id":"levelo_inurba_marseille","lat":43.2119,"lon":5.35083,"is_reserved":false,"is_disabled":false,"rental_uris":{"android":"levelo://app?vid=6e62cf1c-40f3-4230-ba3a-611416a731d6","ios":"levelo://app?vid=6e62cf1c-40f3-4230-ba3a-611416a731d6"},"vehicle_type_id":"4","last_reported":1761131372,"current_range_meters":22400,"station_id":"","pricing_plan_id":"cebpf4jnsgd1na2vs0mg"},{"bike_id":"e605eccd-559c-4bb6-b6e7-2ce4d2470c06","system_id":"levelo_inurba_marseille","lat":43.289187,"lon":5.384085,"is_reserved":false,"is_disabled":false,"rental_uris":{"android":"levelo://app?vid=e605eccd-559c-4bb6-b6e7-2ce4d2470c06","ios":"levelo://app?vid=e605eccd-559c-4bb6-b6e7-2ce4d2470c06"},"vehicle_type_id":"4","last_reported":1761131372,"current_range_meters":22400,"station_id":"ce4bh612rcd13ifvqe6g","pricing_plan_id":"cebpf4jnsgd1na2vs0mg"},{"bike_id":"f05f1499-2581-4d57-b54c-03f6765f35a0","system_id":"levelo_inurba_marseille","lat":43.259517,"lon":5.408754,"is_reserved":false,"is_disabled":false,"rental_uris":{"android":"levelo://app?vid=f05f1499-2581-4d57-b54c-03f6765f35a0","ios":"levelo://app?vid=f05f1499-2581-4d57-b54c-03f6765f35a0"},"vehicle_type_id":"4","last_reported":1761131372,"current_range_meters":22400,"station_id":"ce4bhm92rcd13ifvqglg","pricing_plan_id":"cebpf4jnsgd1na2vs0mg"},{"bike_id":"05bf7cd0-8691-44c7-a67e-2e6b83b6f455","system_id":"levelo_inurba_marseille","lat":43.24074,"lon":5.37748,"is_reserved":false,"is_disabled":false,"rental_uris":{"android":"levelo://app?vid=05bf7cd0-8691-44c7-a67e-2e6b83b6f455","ios":"levelo://app?vid=05bf7cd0-8691-44c7-a67e-2e6b83b6f455"},"vehicle_type_id":"4","last_reported":1761131372,"current_range_meters":22400,"station_id":"ce4bhnp2rcd13ifvqgvg","pricing_plan_id":"cebpf4jnsgd1na2vs0mg"},{"bike_id":"e23c4a17-dfcb-413c-be43-5b7cd11a96bf","system_id":"levelo_inurba_marseille","lat":43.29601,"lon":5.37733,"is_reserved":false,"is_disabled":false,"rental_uris":{"android":"levelo://app?vid=e23c4a17-dfcb-413c-be43-5b7cd11a96bf","ios":"levelo://app?vid=e23c4a17-dfcb-413c-be43-5b7cd11a96bf"},"vehicle_type_id":"4","last_reported":1761131372,"current_range_meters":22400,"station_id":"ce4bgi92rcd13ifvqb90","pricing_plan_id":"cebpf4jnsgd1na2vs0mg"},{"bike_id":"8201230d-fe32-4dd8-8338-df36780c2462","system_id":"levelo_inurba_marseille","lat":43.29163,"lon":5.37166,"is_reserved":false,"is_disabled":false,"rental_uris":{"android":"levelo://app?vid=8201230d-fe32-4dd8-8338-df36780c2462","ios":"levelo://app?vid=8201230d-fe32-4dd8-8338-df36780c2462"},"vehicle_type_id":"4","last_reported":1761131372,"current_range_meters":22400,"station_id":"ce4bha92rcd13ifvqeh0","pricing_plan_id":"cebpf4jnsgd1na2vs0mg"},{"bike_id":"34d1b1b8-ba69-48f2-9700-702f52292dfa","system_id":"levelo_inurba_marseille","lat":43.272099,"lon":5.39186,"is_reserved":false,"is_disabled":false,"rental_uris":{"android":"levelo://app?vid=34d1b1b8-ba69-48f2-9700-702f52292dfa","ios":"levelo://app?vid=34d1b1b8-ba69-48f2-9700-702f52292dfa"},"vehicle_type_id":"4","last_reported":1761131372,"current_range_meters":22400,"station_id":"ce4bhhp2rcd13ifvqfm0","pricing_plan_id":"cebpf4jnsgd1na2vs0mg"},{"bike_id":"d9ecb998-ceaa-4a39-8aba-9f0e44069447","system_id":"levelo_inurba_marseille","lat":43.32147,"lon":5.38731,"is_reserved":false,"is_disabled":false,"rental_uris":{"android":"levelo://app?vid=d9ecb998-ceaa-4a39-8aba-9f0e44069447","ios":"levelo://app?vid=d9ecb998-ceaa-4a39-8aba-9f0e44069447"},"vehicle_type_id":"4","last_reported":1761131372,"current_range_meters":22400,"station_id":"","pricing_plan_id":"cebpf4jnsgd1na2vs0mg"},{"bike_id":"8da1ab0a-99cf-4f57-855d-a40a02fd45b1","system_id":"levelo_inurba_marseille","lat":43.24387,"lon":5.37059,"is_reserved":false,"is_disabled":false,"rental_uris":{"android":"levelo://app?vid=8da1ab0a-99cf-4f57-855d-a40a02fd45b1","ios":"levelo://app?vid=8da1ab0a-99cf-4f57-855d-a40a02fd45b1"},"vehicle_type_id":"4","last_reported":1761131372,"current_range_meters":22800,"station_id":"ce4bhhh2rcd13ifvqfk0","pricing_plan_id":"cebpf4jnsgd1na2vs0mg"},{"bike_id":"6552118e-9997-496d-8ae3-3aae82824535","system_id":"levelo_inurba_marseille","lat":43.32246,"lon":5.38357,"is_reserved":false,"is_disabled":false,"rental_uris":{"android":"levelo://app?vid=6552118e-9997-496d-8ae3-3aae82824535","ios":"levelo://app?vid=6552118e-9997-496d-8ae3-3aae82824535"},"vehicle_type_id":"4","last_reported":1761131372,"current_range_meters":22800,"station_id":"","pricing_plan_id":"cebpf4jnsgd1na2vs0mg"},{"bike_id":"078081c6-88c0-4f2d-a619-261bfa8b66b2","system_id":"levelo_inurba_marseille","lat":43.29819,"lon":5.4389,"is_reserved":false,"is_disabled":false,"rental_uris":{"android":"levelo://app?vid=078081c6-88c0-4f2d-a619-261bfa8b66b2","ios":"levelo://app?vid=078081c6-88c0-4f2d-a619-261bfa8b66b2"},"vehicle_type_id":"4","last_reported":1761131372,"current_range_meters":22800,"station_id":"","pricing_plan_id":"cebpf4jnsgd1na2vs0mg"},{"bike_id":"a7fd0c3f-d3e9-4961-a78e-1b374ed3958c","system_id":"levelo_inurba_marseille","lat":43.31986,"lon":5.38139,"is_reserved":false,"is_disabled":false,"rental_uris":{"android":"levelo://app?vid=a7fd0c3f-d3e9-4961-a78e-1b374ed3958c","ios":"levelo://app?vid=a7fd0c3f-d3e9-4961-a78e-1b374ed3958c"},"vehicle_type_id":"4","last_reported":1761131372,"current_range_meters":22800,"station_id":"ce4bhr12rcd13ifvqhpg","pricing_plan_id":"cebpf4jnsgd1na2vs0mg"},{"bike_id":"001ede03-b7a7-4aa5-b2fe-f238c71c1998","system_id":"levelo_inurba_marseille","lat":43.29953,"lon":5.38083,"is_reserved":false,"is_disabled":false,"rental_uris":{"android":"levelo://app?vid=001ede03-b7a7-4aa5-b2fe-f238c71c1998","ios":"levelo://app?vid=001ede03-b7a7-4aa5-b2fe-f238c71c1998"},"vehicle_type_id":"4","last_reported":1761131372,"current_range_meters":23200,"station_id":"ce4bgj12rcd13ifvqbc0","pricing_plan_id":"cebpf4jnsgd1na2vs0mg"},{"bike_id":"44d97044-a329-4653-a3d4-fbb8b3d6dde1","system_id":"levelo_inurba_marseille","lat":43.30184,"lon":5.3662,"is_reserved":false,"is_disabled":false,"rental_uris":{"android":"levelo://app?vid=44d97044-a329-4653-a3d4-fbb8b3d6dde1","ios":"levelo://app?vid=44d97044-a329-4653-a3d4-fbb8b3d6dde1"},"vehicle_type_id":"4","last_reported":1761131372,"current_range_meters":23200,"station_id":"ce4bgrh2rcd13ifvqc8g","pricing_plan_id":"cebpf4jnsgd1na2vs0mg"},{"bike_id":"a3247f72-5216-48ff-b93d-09571791035f","system_id":"levelo_inurba_marseille","lat":43.29263,"lon":5.37612,"is_reserved":false,"is_disabled":false,"rental_uris":{"android":"levelo://app?vid=a3247f72-5216-48ff-b93d-09571791035f","ios":"levelo://app?vid=a3247f72-5216-48ff-b93d-09571791035f"},"vehicle_type_id":"4","last_reported":1761131372,"current_range_meters":23200,"station_id":"ce4bgi12rcd13ifvqb80","pricing_plan_id":"cebpf4jnsgd1na2vs0mg"},{"bike_id":"92252fc1-93a0-4ae4-b949-a209ed21b9e5","system_id":"levelo_inurba_marseille","lat":43.29516,"lon":5.37503,"is_reserved":false,"is_disabled":false,"rental_uris":{"android":"levelo://app?vid=92252fc1-93a0-4ae4-b949-a209ed21b9e5","ios":"levelo://app?vid=92252fc1-93a0-4ae4-b949-a209ed21b9e5"},"vehicle_type_id":"4","last_reported":1761131372,"current_range_meters":23200,"station_id":"ce4bgkp2rcd13ifvqbmg","pricing_plan_id":"cebpf4jnsgd1na2vs0mg"},{"bike_id":"f8c755d7-1bb8-4fcd-bb3f-74aeb49951cc","system_id":"levelo_inurba_marseille","lat":43.31381,"lon":5.379,"is_reserved":false,"is_disabled":false,"rental_uris":{"android":"levelo://app?vid=f8c755d7-1bb8-4fcd-bb3f-74aeb49951cc","ios":"levelo://app?vid=f8c755d7-1bb8-4fcd-bb3f-74aeb49951cc"},"vehicle_type_id":"4","last_reported":1761131372,"current_range_meters":23200,"station_id":"","pricing_plan_id":"cebpf4jnsgd1na2vs0mg"},{"bike_id":"25510b45-08cd-431b-9096-a61c2284a027","system_id":"levelo_inurba_marseille","lat":43.31668,"lon":5.38242,"is_reserved":false,"is_disabled":false,"rental_uris":{"android":"levelo://app?vid=25510b45-08cd-431b-9096-a61c2284a027","ios":"levelo://app?vid=25510b45-08cd-431b-9096-a61c2284a027"},"vehicle_type_id":"4","last_reported":1761131372,"current_range_meters":23200,"station_id":"","pricing_plan_id":"cebpf4jnsgd1na2vs0mg"},{"bike_id":"8cfa8029-506e-488a-be42-8369657d35bc","system_id":"levelo_inurba_marseille","lat":43.30598,"lon":5.37217,"is_reserved":false,"is_disabled":false,"rental_uris":{"android":"levelo://app?vid=8cfa8029-506e-488a-be42-8369657d35bc","ios":"levelo://app?vid=8cfa8029-506e-488a-be42-8369657d35bc"},"vehicle_type_id":"4","last_reported":1761131372,"current_range_meters":24000,"station_id":"ce4bgqh2rcd13ifvqc4g","pricing_plan_id":"cebpf4jnsgd1na2vs0mg"},{"bike_id":"62f0a2f8-d352-4580-a096-e8ce56ffccdb","system_id":"levelo_inurba_marseille","lat":43.32109,"lon":5.36777,"is_reserved":false,"is_disabled":false,"rental_uris":{"android":"levelo://app?vid=62f0a2f8-d352-4580-a096-e8ce56ffccdb","ios":"levelo://app?vid=62f0a2f8-d352-4580-a096-e8ce56ffccdb"},"vehicle_type_id":"4","last_reported":1761131372,"current_range_meters":24000,"station_id":"ce4bhrh2rcd13ifvqhug","pricing_plan_id":"cebpf4jnsgd1na2vs0mg"},{"bike_id":"75552eb5-38a2-43ca-9291-cacb859b6f73","system_id":"levelo_inurba_marseille","lat":43.284215,"lon":5.349847,"is_reserved":false,"is_disabled":false,"rental_uris":{"android":"levelo://app?vid=75552eb5-38a2-43ca-9291-cacb859b6f73","ios":"levelo://app?vid=75552eb5-38a2-43ca-9291-cacb859b6f73"},"vehicle_type_id":"4","last_reported":1761131372,"current_range_meters":24000,"station_id":"","pricing_plan_id":"cebpf4jnsgd1na2vs0mg"},{"bike_id":"381b1ff9-d30d-44a9-a9c8-0fb14fc52a69","system_id":"levelo_inurba_marseille","lat":43.24068,"lon":5.377744,"is_reserved":false,"is_disabled":false,"rental_uris":{"android":"levelo://app?vid=381b1ff9-d30d-44a9-a9c8-0fb14fc52a69","ios":"levelo://app?vid=381b1ff9-d30d-44a9-a9c8-0fb14fc52a69"},"vehicle_type_id":"4","last_reported":1761131372,"current_range_meters":24000,"station_id":"ce4bhnp2rcd13ifvqgvg","pricing_plan_id":"cebpf4jnsgd1na2vs0mg"},{"bike_id":"1441ddb6-7787-444c-b631-9f66ac1aa090","system_id":"levelo_inurba_marseille","lat":43.30529,"lon":5.36708,"is_reserved":false,"is_disabled":false,"rental_uris":{"android":"levelo://app?vid=1441ddb6-7787-444c-b631-9f66ac1aa090","ios":"levelo://app?vid=1441ddb6-7787-444c-b631-9f66ac1aa090"},"vehicle_type_id":"4","last_reported":1761131372,"current_range_meters":24000,"station_id":"ce4bgrp2rcd13ifvqc9g","pricing_plan_id":"cebpf4jnsgd1na2vs0mg"},{"bike_id":"2cd81037-3f76-464f-886c-e8714d61d459","system_id":"levelo_inurba_marseille","lat":43.23181,"lon":5.35551,"is_reserved":false,"is_disabled":false,"rental_uris":{"android":"levelo://app?vid=2cd81037-3f76-464f-886c-e8714d61d459","ios":"levelo://app?vid=2cd81037-3f76-464f-886c-e8714d61d459"},"vehicle_type_id":"4","last_reported":1761131372,"current_range_meters":24000,"station_id":"ce4bhu92rcd13ifvqi70","pricing_plan_id":"cebpf4jnsgd1na2vs0mg"},{"bike_id":"44934b58-2d9d-4ef4-b5c0-6908e9f26afc","system_id":"levelo_inurba_marseille","lat":43.27673,"lon":5.38884,"is_reserved":false,"is_disabled":false,"rental_uris":{"android":"levelo://app?vid=44934b58-2d9d-4ef4-b5c0-6908e9f26afc","ios":"levelo://app?vid=44934b58-2d9d-4ef4-b5c0-6908e9f26afc"},"vehicle_type_id":"4","last_reported":1761131372,"current_range_meters":24000,"station_id":"ce4bhi12rcd13ifvqfo0","pricing_plan_id":"cebpf4jnsgd1na2vs0mg"},{"bike_id":"4802ba20-476b-434c-a59d-010a392475bc","system_id":"levelo_inurba_marseille","lat":43.30924,"lon":5.40145,"is_reserved":false,"is_disabled":false,"rental_uris":{"android":"levelo://app?vid=4802ba20-476b-434c-a59d-010a392475bc","ios":"levelo://app?vid=4802ba20-476b-434c-a59d-010a392475bc"},"vehicle_type_id":"4","last_reported":1761131372,"current_range_meters":24000,"station_id":"ce4bgvp2rcd13ifvqct0","pricing_plan_id":"cebpf4jnsgd1na2vs0mg"},{"bike_id":"05686769-44b4-41f5-8ec8-dc413c3915c8","system_id":"levelo_inurba_marseille","lat":43.295688,"lon":5.375164,"is_reserved":false,"is_disabled":false,"rental_uris":{"android":"levelo://app?vid=05686769-44b4-41f5-8ec8-dc413c3915c8","ios":"levelo://app?vid=05686769-44b4-41f5-8ec8-dc413c3915c8"},"vehicle_type_id":"4","last_reported":1761131372,"current_range_meters":24400,"station_id":"ce4bgh92rcd13ifvqb50","pricing_plan_id":"cebpf4jnsgd1na2vs0mg"},{"bike_id":"8be4a333-f5bb-42fd-8011-297a35af0437","system_id":"levelo_inurba_marseille","lat":43.29019,"lon":5.356171,"is_reserved":false,"is_disabled":false,"rental_uris":{"android":"levelo://app?vid=8be4a333-f5bb-42fd-8011-297a35af0437","ios":"levelo://app?vid=8be4a333-f5bb-42fd-8011-297a35af0437"},"vehicle_type_id":"4","last_reported":1761131372,"current_range_meters":24400,"station_id":"ce4bhb92rcd13ifvqen0","pricing_plan_id":"cebpf4jnsgd1na2vs0mg"},{"bike_id":"126f647f-d8ee-4f5c-94b1-97dad1f1c820","system_id":"levelo_inurba_marseille","lat":43.29532,"lon":5.38539,"is_reserved":false,"is_disabled":false,"rental_uris":{"android":"levelo://app?vid=126f647f-d8ee-4f5c-94b1-97dad1f1c820","ios":"levelo://app?vid=126f647f-d8ee-4f5c-94b1-97dad1f1c820"},"vehicle_type_id":"4","last_reported":1761131372,"current_range_meters":24400,"station_id":"ce4bgih2rcd13ifvqba0","pricing_plan_id":"cebpf4jnsgd1na2vs0mg"},{"bike_id":"f67e1d10-c355-4f06-957b-a3a84c53a158","system_id":"levelo_inurba_marseille","lat":43.29959,"lon":5.38502,"is_reserved":false,"is_disabled":false,"rental_uris":{"android":"levelo://app?vid=f67e1d10-c355-4f06-957b-a3a84c53a158","ios":"levelo://app?vid=f67e1d10-c355-4f06-957b-a3a84c53a158"},"vehicle_type_id":"4","last_reported":1761131372,"current_range_meters":24400,"station_id":"ce4bgj92rcd13ifvqbd0","pricing_plan_id":"cebpf4jnsgd1na2vs0mg"},{"bike_id":"6a035d1a-0e38-4849-9dbd-b7dd4ca5e28d","system_id":"levelo_inurba_marseille","lat":43.29572,"lon":5.37519,"is_reserved":false,"is_disabled":false,"rental_uris":{"android":"levelo://app?vid=6a035d1a-0e38-4849-9dbd-b7dd4ca5e28d","ios":"levelo://app?vid=6a035d1a-0e38-4849-9dbd-b7dd4ca5e28d"},"vehicle_type_id":"4","last_reported":1761131372,"current_range_meters":24400,"station_id":"ce4bgh92rcd13ifvqb50","pricing_plan_id":"cebpf4jnsgd1na2vs0mg"},{"bike_id":"c2cabc0c-4664-4276-a94d-427e0e120e01","system_id":"levelo_inurba_marseille","lat":43.25718,"lon":5.411108,"is_reserved":false,"is_disabled":false,"rental_uris":{"android":"levelo://app?vid=c2cabc0c-4664-4276-a94d-427e0e120e01","ios":"levelo://app?vid=c2cabc0c-4664-4276-a94d-427e0e120e01"},"vehicle_type_id":"4","last_reported":1761131372,"current_range_meters":24400,"station_id":"ce4bhkp2rcd13ifvqgd0","pricing_plan_id":"cebpf4jnsgd1na2vs0mg"},{"bike_id":"ca85340e-93d2-44a0-b582-b0bcb9b1beb5","system_id":"levelo_inurba_marseille","lat":43.22921,"lon":5.3536,"is_reserved":false,"is_disabled":false,"rental_uris":{"android":"levelo://app?vid=ca85340e-93d2-44a0-b582-b0bcb9b1beb5","ios":"levelo://app?vid=ca85340e-93d2-44a0-b582-b0bcb9b1beb5"},"vehicle_type_id":"4","last_reported":1761131372,"current_range_meters":24400,"station_id":"cpo3532slgdg3j2ikp40","pricing_plan_id":"cebpf4jnsgd1na2vs0mg"},