{"last_updated":1729804103,"ttl":60,"version":"2.2","data":{"bikes":[{"bike_id":"22ff754d-6181-4120-bc43-5033a05cdc3b","system_id":"levelo_inurba_marseille","lat":43.31075,"lon":5.38351,"is_reserved":false,"is_disabled":false,"rental_uris":{"android":"levelo://app?vid=22ff754d-6181-4120-bc43-5033a05cdc3b","ios":"levelo://app?vid=22ff754d-6181-4120-bc43-5033a05cdc3b"},"vehicle_type_id":"4","last_reported":1729804103,"current_range_meters":38800,"station_id":"ce4bgv92rcd13ifvqcr0","pricing_plan_id":"cebpf4jnsgd1na2vs0mg"},{"bike_id":"1568e98d-3e80-4d3a-913a-84af01bba11e","system_id":"levelo_inurba_marseille","lat":43.28155,"lon":5.42639,"is_reserved":false,"is_disabled":false,"rental_uris":{"android":"levelo://app?vid=1568e98d-3e80-4d3a-913a-84af01bba11e","ios":"levelo://app?vid=1568e98d-3e80-4d3a-913a-84af01bba11e"},"vehicle_type_id":"4","last_reported":1729804103,"current_range_meters":36800,"station_id":"ce4bhnh2rcd13ifvqgug","pricing_plan_id":"cebpf4jnsgd1na2vs0mg"},{"bike_id":"d23bbd4b-7066-40e8-b2c7-f39cfac6ae26","system_id":"levelo_inurba_marseille","lat":43.28461,"lon":5.39206,"is_reserved":false,"is_disabled":false,"rental_uris":{"android":"levelo://app?vid=d23bbd4b-7066-40e8-b2c7-f39cfac6ae26","ios":"levelo://app?vid=d23bbd4b-7066-40e8-b2c7-f39cfac6ae26"},"vehicle_type_id":"4","last_reported":1729804103,"current_range_meters":3600,"station_id":"ce4bhoh2rcd13ifvqh5g","pricing_plan_id":"cebpf4jnsgd1na2vs0mg"},{"bike_id":"064ccb88-8157-4941-bf9a-b75d073e532b","system_id":"levelo_inurba_marseille","lat":43.30152,"lon":5.38779,"is_reserved":false,"is_disabled":false,"rental_uris":{"android":"levelo://app?vid=064ccb88-8157-4941-bf9a-b75d073e532b","ios":"levelo://app?vid=064ccb88-8157-4941-bf9a-b75d073e532b"},"vehicle_type_id":"4","last_reported":1729804103,"current_range_meters":38000,"station_id":"ce4bghh2rcd13ifvqb60","pricing_plan_id":"cebpf4jnsgd1na2vs0mg"},{"bike_id":"02b88303-f07a-410b-8e09-9fbc37dda972","system_id":"levelo_inurba_marseille","lat":43.31082,"lon":5.3835,"is_reserved":false,"is_disabled":false,"rental_uris":{"android":"levelo://app?vid=02b88303-f07a-410b-8e09-9fbc37dda972","ios":"levelo://app?vid=02b88303-f07a-410b-8e09-9fbc37dda972"},"vehicle_type_id":"4","last_reported":1729804103,"current_range_meters":38800,"station_id":"ce4bgv92rcd13ifvqcr0","pricing_plan_id":"cebpf4jnsgd1na2vs0mg"},{"bike_id":"12aee72b-9391-4d13-a5aa-62d9956cd653","system_id":"levelo_inurba_marseille","lat":43.23959,"lon":5.36642,"is_reserved":false,"is_disabled":false,"rental_uris":{"android":"levelo://app?vid=12aee72b-9391-4d13-a5aa-62d9956cd653","ios":"levelo://app?vid=12aee72b-9391-4d13-a5aa-62d9956cd653"},"vehicle_type_id":"4","last_reported":1729804103,"current_range_meters":24000,"station_id":"ce4bhi12rcd13ifvqfp0","pricing_plan_id":"cebpf4jnsgd1na2vs0mg"},{"bike_id":"5134f3b1-3ef2-40bd-bb7b-0664f2444bbd","system_id":"levelo_inurba_marseille","lat":43.3203,"lon":5.41563,"is_reserved":false,"is_disabled":false,"rental_uris":{"android":"levelo://app?vid=5134f3b1-3ef2-40bd-bb7b-0664f2444bbd","ios":"levelo://app?vid=5134f3b1-3ef2-40bd-bb7b-0664f2444bbd"},"vehicle_type_id":"4","last_reported":1729804103,"current_range_meters":38800,"station_id":"ce4bhq92rcd13ifvqhkg","pricing_plan_id":"cebpf4jnsgd1na2vs0mg"},{"bike_id":"b127b2b4-729c-4a0b-820c-f99fb01ed4db","system_id":"levelo_inurba_marseille","lat":43.2418,"lon":5.39718,"is_reserved":false,"is_disabled":false,"rental_uris":{"android":"levelo://app?vid=b127b2b4-729c-4a0b-820c-f99fb01ed4db","ios":"levelo://app?vid=b127b2b4-729c-4a0b-820c-f99fb01ed4db"},"vehicle_type_id":"4","last_reported":1729804103,"current_range_meters":8000,"station_id":"ce4bhn12rcd13ifvqgpg","pricing_plan_id":"cebpf4jnsgd1na2vs0mg"},{"bike_id":"4abb4c2a-a499-4e21-b342-2b61ecbf116c","system_id":"levelo_inurba_marseille","lat":43.29785,"lon":5.39357,"is_reserved":false,"is_disabled":false,"rental_uris":{"android":"levelo://app?vid=4abb4c2a-a499-4e21-b342-2b61ecbf116c","ios":"levelo://app?vid=4abb4c2a-a499-4e21-b342-2b61ecbf116c"},"vehicle_type_id":"4","last_reported":1729804103,"current_range_meters":8800,"station_id":"chh1huq6cuj3fo74tm60","pricing_plan_id":"cebpf4jnsgd1na2vs0mg"},{"bike_id":"2935a762-c10b-49ed-8ef8-e08fa8b0b521","system_id":"levelo_inurba_marseille","lat":43.2438,"lon":5.37057,"is_reserved":false,"is_disabled":false,"rental_uris":{"android":"levelo://app?vid=2935a762-c10b-49ed-8ef8-e08fa8b0b521","ios":"levelo://app?vid=2935a762-c10b-49ed-8ef8-e08fa8b0b521"},"vehicle_type_id":"4","last_reported":1729804103,"current_range_meters":38800,"station_id":"ce4bhhh2rcd13ifvqfk0","pricing_plan_id":"cebpf4jnsgd1na2vs0mg"},{"bike_id":"20888618-6881-4c27-aa8c-a551ea39dbb8","system_id":"levelo_inurba_marseille","lat":43.28434,"lon":5.34986,"is_reserved":false,"is_disabled":false,"rental_uris":{"android":"levelo://app?vid=20888618-6881-4c27-aa8c-a551ea39dbb8","ios":"levelo://app?vid=20888618-6881-4c27-aa8c-a551ea39dbb8"},"vehicle_type_id":"4","last_reported":1729804103,"current_range_meters":19200,"station_id":"ce4bhbh2rcd13ifvqepg","pricing_plan_id":"cebpf4jnsgd1na2vs0mg"},{"bike_id":"36b9388d-6567-430c-be09-be6e36d68e42","system_id":"levelo_inurba_marseille","lat":43.29422,"lon":5.38623,"is_reserved":false,"is_disabled":false,"rental_uris":{"android":"levelo://app?vid=36b9388d-6567-430c-be09-be6e36d68e42","ios":"levelo://app?vid=36b9388d-6567-430c-be09-be6e36d68e42"},"vehicle_type_id":"4","last_reported":1729804103,"current_range_meters":38800,"station_id":"ce4bh2h2rcd13ifvqdh0","pricing_plan_id":"cebpf4jnsgd1na2vs0mg"},{"bike_id":"5a3601a7-f341-4a63-b239-f01a0206fbdc","system_id":"levelo_inurba_marseille","lat":43.28704,"lon":5.39979,"is_reserved":false,"is_disabled":false,"rental_uris":{"android":"levelo://app?vid=5a3601a7-f341-4a63-b239-f01a0206fbdc","ios":"levelo://app?vid=5a3601a7-f341-4a63-b239-f01a0206fbdc"},"vehicle_type_id":"4","last_reported":1729804103,"current_range_meters":30800,"station_id":"ce4bho92rcd13ifvqh3g","pricing_plan_id":"cebpf4jnsgd1na2vs0mg"},{"bike_id":"7a39ac62-f73e-405f-baad-436efacf2521","system_id":"levelo_inurba_marseille","lat":43.27078,"lon":5.4227,"is_reserved":false,"is_disabled":false,"rental_uris":{"android":"levelo://app?vid=7a39ac62-f73e-405f-baad-436efacf2521","ios":"levelo://app?vid=7a39ac62-f73e-405f-baad-436efacf2521"},"vehicle_type_id":"4","last_reported":1729804103,"current_range_meters":24800,"station_id":"ce4bhk92rcd13ifvqgb0","pricing_plan_id":"cebpf4jnsgd1na2vs0mg"},{"bike_id":"b8237023-21d2-497b-8d08-d240b7843302","system_id":"levelo_inurba_marseille","lat":43.28464,"lon":5.38416,"is_reserved":false,"is_disabled":false,"rental_uris":{"android":"levelo://app?vid=b8237023-21d2-497b-8d08-d240b7843302","ios":"levelo://app?vid=b8237023-21d2-497b-8d08-d240b7843302"},"vehicle_type_id":"4","last_reported":1729804103,"current_range_meters":38800,"station_id":"ce4bh512rcd13ifvqe3g","pricing_plan_id":"cebpf4jnsgd1na2vs0mg"},{"bike_id":"e130cf78-8420-42ef-935c-589ad91611cf","system_id":"levelo_inurba_marseille","lat":43.3266,"lon":5.40996,"is_reserved":false,"is_disabled":false,"rental_uris":{"android":"levelo://app?vid=e130cf78-8420-42ef-935c-589ad91611cf","ios":"levelo://app?vid=e130cf78-8420-42ef-935c-589ad91611cf"},"vehicle_type_id":"4","last_reported":1729804103,"current_range_meters":32000,"station_id":"ce4bhpp2rcd13ifvqhgg","pricing_plan_id":"cebpf4jnsgd1na2vs0mg"},{"bike_id":"83b93c0d-fd1e-413e-9772-9048be31d163","system_id":"levelo_inurba_marseille","lat":43.31707,"lon":5.37665,"is_reserved":false,"is_disabled":false,"rental_uris":{"android":"levelo://app?vid=83b93c0d-fd1e-413e-9772-9048be31d163","ios":"levelo://app?vid=83b93c0d-fd1e-413e-9772-9048be31d163"},"vehicle_type_id":"4","last_reported":1729804103,"current_range_meters":3200,"station_id":"","pricing_plan_id":"cebpf4jnsgd1na2vs0mg"},{"bike_id":"bcc264de-4c38-4bd2-8b06-87c029701ae4","system_id":"levelo_inurba_marseille","lat":43.30612,"lon":5.37225,"is_reserved":false,"is_disabled":false,"rental_uris":{"android":"levelo://app?vid=bcc264de-4c38-4bd2-8b06-87c029701ae4","ios":"levelo://app?vid=bcc264de-4c38-4bd2-8b06-87c029701ae4"},"vehicle_type_id":"4","last_reported":1729804103,"current_range_meters":18800,"station_id":"ce4bgqh2rcd13ifvqc4g","pricing_plan_id":"cebpf4jnsgd1na2vs0mg"},{"bike_id":"199178e9-cff7-44d0-aa78-edab9c52e715","system_id":"levelo_inurba_marseille","lat":43.293793,"lon":5.370043,"is_reserved":false,"is_disabled":false,"rental_uris":{"android":"levelo://app?vid=199178e9-cff7-44d0-aa78-edab9c52e715","ios":"levelo://app?vid=199178e9-cff7-44d0-aa78-edab9c52e715"},"vehicle_type_id":"4","last_reported":1729804103,"current_range_meters":35200,"station_id":"ce4bhg92rcd13ifvqf90","pricing_plan_id":"cebpf4jnsgd1na2vs0mg"},{"bike_id":"123bba5e-f5a9-4d52-bf87-981f8dbc6f9b","system_id":"levelo_inurba_marseille","lat":43.28704,"lon":5.39986,"is_reserved":false,"is_disabled":false,"rental_uris":{"android":"levelo://app?vid=123bba5e-f5a9-4d52-bf87-981f8dbc6f9b","ios":"levelo://app?vid=123bba5e-f5a9-4d52-bf87-981f8dbc6f9b"},"vehicle_type_id":"4","last_reported":1729804103,"current_range_meters":16800,"station_id":"ce4bho92rcd13ifvqh3g","pricing_plan_id":"cebpf4jnsgd1na2vs0mg"},{"bike_id":"4d5896ad-1ee6-4df5-98d9-f5f3e172f5c1","system_id":"levelo_inurba_marseille","lat":43.2721,"lon":5.39177,"is_reserved":false,"is_disabled":false,"rental_uris":{"android":"levelo://app?vid=4d5896ad-1ee6-4df5-98d9-f5f3e172f5c1","ios":"levelo://app?vid=4d5896ad-1ee6-4df5-98d9-f5f3e172f5c1"},"vehicle_type_id":"4","last_reported":1729804103,"current_range_meters":32800,"station_id":"ce4bhhp2rcd13ifvqfm0","pricing_plan_id":"cebpf4jnsgd1na2vs0mg"},{"bike_id":"a403109a-a529-4531-bd03-6cff561f8a03","system_id":"levelo_inurba_marseille","lat":43.29298,"lon":5.37174,"is_reserved":false,"is_disabled":false,"rental_uris":{"android":"levelo://app?vid=a403109a-a529-4531-bd03-6cff561f8a03","ios":"levelo://app?vid=a403109a-a529-4531-bd03-6cff561f8a03"},"vehicle_type_id":"4","last_reported":1729804103,"current_range_meters":28800,"station_id":"ce4bgh92rcd13ifvqb40","pricing_plan_id":"cebpf4jnsgd1na2vs0mg"},{"bike_id":"b14469e7-14d7-470d-b35b-6eeab8810b5f","system_id":"levelo_inurba_marseille","lat":43.27058,"lon":5.40265,"is_reserved":false,"is_disabled":false,"rental_uris":{"android":"levelo://app?vid=b14469e7-14d7-470d-b35b-6eeab8810b5f","ios":"levelo://app?vid=b14469e7-14d7-470d-b35b-6eeab8810b5f"},"vehicle_type_id":"4","last_reported":1729804103,"current_range_meters":18000,"station_id":"ce4bhk92rcd13ifvqgc0","pricing_plan_id":"cebpf4jnsgd1na2vs0mg"},{"bike_id":"58ddb80b-166e-4e4e-83db-b9284e31a595","system_id":"levelo_inurba_marseille","lat":43.24185,"lon":5.39732,"is_reserved":false,"is_disabled":false,"rental_uris":{"android":"levelo://app?vid=58ddb80b-166e-4e4e-83db-b9284e31a595","ios":"levelo://app?vid=58ddb80b-166e-4e4e-83db-b9284e31a595"},"vehicle_type_id":"4","last_reported":1729804103,"current_range_meters":38800,"station_id":"ce4bhn12rcd13ifvqgpg","pricing_plan_id":"cebpf4jnsgd1na2vs0mg"},{"bike_id":"bf97eae4-8695-45a6-8087-7f8c48b0b7a5","system_id":"levelo_inurba_marseille","lat":43.28717,"lon":5.37388,"is_reserved":false,"is_disabled":false,"rental_uris":{"android":"levelo://app?vid=bf97eae4-8695-45a6-8087-7f8c48b0b7a5","ios":"levelo://app?vid=bf97eae4-8695-45a6-8087-7f8c48b0b7a5"},"vehicle_type_id":"4","last_reported":1729804103,"current_range_meters":33600,"station_id":"ce4bh3p2rcd13ifvqdq0","pricing_plan_id":"cebpf4jnsgd1na2vs0mg"},{"bike_id":"c699bfea-a87d-4871-997b-6c02b39db11e","system_id":"levelo_inurba_marseille","lat":43.290833,"lon":5.377907,"is_reserved":false,"is_disabled":false,"rental_uris":{"android":"levelo://app?vid=c699bfea-a87d-4871-997b-6c02b39db11e","ios":"levelo://app?vid=c699bfea-a87d-4871-997b-6c02b39db11e"},"vehicle_type_id":"4","last_reported":1729804103,"current_range_meters":16000,"station_id":"","pricing_plan_id":"cebpf4jnsgd1na2vs0mg"},{"bike_id":"46e85f9c-1bad-4940-8580-20c0eeba5600","system_id":"levelo_inurba_marseille","lat":43.32377,"lon":5.40614,"is_reserved":false,"is_disabled":false,"rental_uris":{"android":"levelo://app?vid=46e85f9c-1bad-4940-8580-20c0eeba5600","ios":"levelo://app?vid=46e85f9c-1bad-4940-8580-20c0eeba5600"},"vehicle_type_id":"4","last_reported":1729804103,"current_range_meters":39200,"station_id":"ce4bhq92rcd13ifvqhjg","pricing_plan_id":"cebpf4jnsgd1na2vs0mg"},{"bike_id":"ce3eef46-b9e3-41dc-9130-106cb5f09144","system_id":"levelo_inurba_marseille","lat":43.24668,"lon":5.38902,"is_reserved":false,"is_disabled":false,"rental_uris":{"android":"levelo://app?vid=ce3eef46-b9e3-41dc-9130-106cb5f09144","ios":"levelo://app?vid=ce3eef46-b9e3-41dc-9130-106cb5f09144"},"vehicle_type_id":"4","last_reported":1729804103,"current_range_meters":38800,"station_id":"ce4bhg12rcd13ifvqf60","pricing_plan_id":"cebpf4jnsgd1na2vs0mg"},{"bike_id":"c52d12be-84a7-4a5c-b424-7828dfe263f6","system_id":"levelo_inurba_marseille","lat":43.28677,"lon":5.36351,"is_reserved":false,"is_disabled":false,"rental_uris":{"android":"levelo://app?vid=c52d12be-84a7-4a5c-b424-7828dfe263f6","ios":"levelo://app?vid=c52d12be-84a7-4a5c-b424-7828dfe263f6"},"vehicle_type_id":"4","last_reported":1729804103,"current_range_meters":20800,"station_id":"ce4bhah2rcd13ifvqej0","pricing_plan_id":"cebpf4jnsgd1na2vs0mg"},{"bike_id":"db4563b7-60a1-4569-b885-83129a5856ac","system_id":"levelo_inurba_marseille","lat":43.26949,"lon":5.39318,"is_reserved":false,"is_disabled":false,"rental_uris":{"android":"levelo://app?vid=db4563b7-60a1-4569-b885-83129a5856ac","ios":"levelo://app?vid=db4563b7-60a1-4569-b885-83129a5856ac"},"vehicle_type_id":"4","last_reported":1729804103,"current_range_meters":16000,"station_id":"","pricing_plan_id":"cebpf4jnsgd1na2vs0mg"},{"bike_id":"f7dbe046-50a3-4ebb-a77d-f05bf689f8c4","system_id":"levelo_inurba_marseille","lat":43.2985,"lon":5.36268,"is_reserved":false,"is_disabled":false,"rental_uris":{"android":"levelo://app?vid=f7dbe046-50a3-4ebb-a77d-f05bf689f8c4","ios":"levelo://app?vid=f7dbe046-50a3-4ebb-a77d-f05bf689f8c4"},"vehicle_type_id":"4","last_reported":1729804103,"current_range_meters":37600,"station_id":"ce4bgpp2rcd13ifvqc3g","pricing_plan_id":"cebpf4jnsgd1na2vs0mg"},{"bike_id":"97ce6431-cdfe-4c86-8575-534875aed7f5","system_id":"levelo_inurba_marseille","lat":43.3053,"lon":5.36659,"is_reserved":false,"is_disabled":false,"rental_uris":{"android":"levelo://app?vid=97ce6431-cdfe-4c86-8575-534875aed7f5","ios":"levelo://app?vid=97ce6431-cdfe-4c86-8575-534875aed7f5"},"vehicle_type_id":"4","last_reported":1729804103,"current_range_meters":5600,"station_id":"","pricing_plan_id":"cebpf4jnsgd1na2vs0mg"},{"bike_id":"4d217311-81f7-41c2-94f3-1a941de93f8e","system_id":"levelo_inurba_marseille","lat":43.28279,"lon":5.35051,"is_reserved":false,"is_disabled":false,"rental_uris":{"android":"levelo://app?vid=4d217311-81f7-41c2-94f3-1a941de93f8e","ios":"levelo://app?vid=4d217311-81f7-41c2-94f3-1a941de93f8e"},"vehicle_type_id":"4","last_reported":1729804103,"current_range_meters":38800,"station_id":"ce4bhbp2rcd13ifvqerg","pricing_plan_id":"cebpf4jnsgd1na2vs0mg"},{"bike_id":"ae543776-75ee-42a8-a677-3e246bf772ec","system_id":"levelo_inurba_marseille","lat":43.31726,"lon":5.43709,"is_reserved":false,"is_disabled":false,"rental_uris":{"android":"levelo://app?vid=ae543776-75ee-42a8-a677-3e246bf772ec","ios":"levelo://app?vid=ae543776-75ee-42a8-a677-3e246bf772ec"},"vehicle_type_id":"4","last_reported":1729804103,"current_range_meters":6800,"station_id":"ce4bhp92rcd13ifvqhcg","pricing_plan_id":"cebpf4jnsgd1na2vs0mg"},{"bike_id":"ab70e7fa-07d0-4cae-9176-ecad8d5f33d9","system_id":"levelo_inurba_marseille","lat":43.28707,"lon":5.37385,"is_reserved":false,"is_disabled":false,"rental_uris":{"android":"levelo://app?vid=ab70e7fa-07d0-4cae-9176-ecad8d5f33d9","ios":"levelo://app?vid=ab70e7fa-07d0-4cae-9176-ecad8d5f33d9"},"vehicle_type_id":"4","last_reported":1729804103,"current_range_meters":30800,"station_id":"ce4bh3p2rcd13ifvqdq0","pricing_plan_id":"cebpf4jnsgd1na2vs0mg"},{"bike_id":"334e9050-29c3-43a0-b2bb-4fc7f06bf291","system_id":"levelo_inurba_marseille","lat":43.2465,"lon":5.38894,"is_reserved":false,"is_disabled":false,"rental_uris":{"android":"levelo://app?vid=334e9050-29c3-43a0-b2bb-4fc7f06bf291","ios":"levelo://app?vid=334e9050-29c3-43a0-b2bb-4fc7f06bf291"},"vehicle_type_id":"4","last_reported":1729804103,"current_range_meters":37600,"station_id":"ce4bhg12rcd13ifvqf60","pricing_plan_id":"cebpf4jnsgd1na2vs0mg"},{"bike_id":"3416557b-1536-448a-ac57-bb27af24b942","system_id":"levelo_inurba_marseille","lat":43.33735,"lon":5.3918,"is_reserved":false,"is_disabled":false,"rental_uris":{"android":"levelo://app?vid=3416557b-1536-448a-ac57-bb27af24b942","ios":"levelo://app?vid=3416557b-1536-448a-ac57-bb27af24b942"},"vehicle_type_id":"4","last_reported":1729804103,"current_range_meters":18800,"station_id":"ce4bhr92rcd13ifvqhsg","pricing_plan_id":"cebpf4jnsgd1na2vs0mg"},{"bike_id":"c70dc1e7-d574-49de-90da-08570e8dcf3b","system_id":"levelo_inurba_marseille","lat":43.29534,"lon":5.38539,"is_reserved":false,"is_disabled":false,"rental_uris":{"android":"levelo://app?vid=c70dc1e7-d574-49de-90da-08570e8dcf3b","ios":"levelo://app?vid=c70dc1e7-d574-49de-90da-08570e8dcf3b"},"vehicle_type_id":"4","last_reported":1729804103,"current_range_meters":38800,"station_id":"ce4bgih2rcd13ifvqba0","pricing_plan_id":"cebpf4jnsgd1na2vs0mg"},{"bike_id":"c47ee947-2909-41a5-bbe0-603cbb5c8694","system_id":"levelo_inurba_marseille","lat":43.27965,"lon":5.41035,"is_reserved":false,"is_disabled":false,"rental_uris":{"android":"levelo://app?vid=c47ee947-2909-41a5-bbe0-603cbb5c8694","ios":"levelo://app?vid=c47ee947-2909-41a5-bbe0-603cbb5c8694"},"vehicle_type_id":"4","last_reported":1729804103,"current_range_meters":16000,"station_id":"ce4bhnp2rcd13ifvqh0g","pricing_plan_id":"cebpf4jnsgd1na2vs0mg"},{"bike_id":"8486fe9d-9ef0-4e60-ba73-6eb6a17c52a8","system_id":"levelo_inurba_marseille","lat":43.31565,"lon":5.40561,"is_reserved":false,"is_disabled":false,"rental_uris":{"android":"levelo://app?vid=8486fe9d-9ef0-4e60-ba73-6eb6a17c52a8","ios":"levelo://app?vid=8486fe9d-9ef0-4e60-ba73-6eb6a17c52a8"},"vehicle_type_id":"4","last_reported":1729804103,"current_range_meters":12000,"station_id":"","pricing_plan_id":"cebpf4jnsgd1na2vs0mg"},{"bike_id":"172208e9-70cd-4b52-b8b5-db9312e32f6a","system_id":"levelo_inurba_marseille","lat":43.24542,"lon":5.39509,"is_reserved":false,"is_disabled":false,"rental_uris":{"android":"levelo://app?vid=172208e9-70cd-4b52-b8b5-db9312e32f6a","ios":"levelo://app?vid=172208e9-70cd-4b52-b8b5-db9312e32f6a"},"vehicle_type_id":"4","last_reported":1729804103,"current_range_meters":28400,"station_id":"ce4bhlp2rcd13ifvqgjg","pricing_plan_id":"cebpf4jnsgd1na2vs0mg"},{"bike_id":"dda4a36c-79b5-42cc-bd67-2abe044c6bd4","system_id":"levelo_inurba_marseille","lat":43.28611,"lon":5.35135,"is_reserved":false,"is_disabled":false,"rental_uris":{"android":"levelo://app?vid=dda4a36c-79b5-42cc-bd67-2abe044c6bd4","ios":"levelo://app?vid=dda4a36c-79b5-42cc-bd67-2abe044c6bd4"},"vehicle_type_id":"4","last_reported":1729804103,"current_range_meters":38400,"station_id":"ce4bhch2rcd13ifvqeug","pricing_plan_id":"cebpf4jnsgd1na2vs0mg"},{"bike_id":"5c9ca1bc-bff1-43d6-a60c-0d21fe59a63d","system_id":"levelo_inurba_marseille","lat":43.31075,"lon":5.38338,"is_reserved":false,"is_disabled":false,"rental_uris":{"android":"levelo://app?vid=5c9ca1bc-bff1-43d6-a60c-0d21fe59a63d","ios":"levelo://app?vid=5c9ca1bc-bff1-43d6-a60c-0d21fe59a63d"},"vehicle_type_id":"4","last_reported":1729804103,"current_range_meters":33600,"station_id":"ce4bgv92rcd13ifvqcr0","pricing_plan_id":"cebpf4jnsgd1na2vs0mg"},{"bike_id":"2d340adc-7931-4303-b33f-2307f5eafe68","system_id":"levelo_inurba_marseille","lat":43.26789,"lon":5.39413,"is_reserved":false,"is_disabled":false,"rental_uris":{"android":"levelo://app?vid=2d340adc-7931-4303-b33f-2307f5eafe68","ios":"levelo://app?vid=2d340adc-7931-4303-b33f-2307f5eafe68"},"vehicle_type_id":"4","last_reported":1729804103,"current_range_meters":37600,"station_id":"ce4bhh12rcd13ifvqfg0","pricing_plan_id":"cebpf4jnsgd1na2vs0mg"},{"bike_id":"19ce95ff-4cb9-489d-88e8-f0dd6c1bac5d","system_id":"levelo_inurba_marseille","lat":43.24184,"lon":5.39746,"is_reserved":false,"is_disabled":false,"rental_uris":{"android":"levelo://app?vid=19ce95ff-4cb9-489d-88e8-f0dd6c1bac5d","ios":"levelo://app?vid=19ce95ff-4cb9-489d-88e8-f0dd6c1bac5d"},"vehicle_type_id":"4","last_reported":1729804103,"current_range_meters":16400,"station_id":"ce4bhn12rcd13ifvqgpg","pricing_plan_id":"cebpf4jnsgd1na2vs0mg"},{"bike_id":"fad363c3-3336-4f35-8faf-c0b08767fecc","system_id":"levelo_inurba_marseille","lat":43.27624,"lon":5.36117,"is_reserved":false,"is_disabled":false,"rental_uris":{"android":"levelo://app?vid=fad363c3-3336-4f35-8faf-c0b08767fecc","ios":"levelo://app?vid=fad363c3-3336-4f35-8faf-c0b08767fecc"},"vehicle_type_id":"4","last_reported":1729804103,"current_range_meters":30000,"station_id":"ce4bgj92rcd13ifvqbe0","pricing_plan_id":"cebpf4jnsgd1na2vs0mg"},{"bike_id":"8a81d8aa-b8e8-4d59-8aec-731c562b08c0","system_id":"levelo_inurba_marseille","lat":43.24546,"lon":5.39525,"is_reserved":false,"is_disabled":false,"rental_uris":{"android":"levelo://app?vid=8a81d8aa-b8e8-4d59-8aec-731c562b08c0","ios":"levelo://app?vid=8a81d8aa-b8e8-4d59-8aec-731c562b08c0"},"vehicle_type_id":"4","last_reported":1729804103,"current_range_meters":37600,"station_id":"ce4bhlp2rcd13ifvqgjg","pricing_plan_id":"cebpf4jnsgd1na2vs0mg"},{"bike_id":"29b25be5-2292-4af8-b85e-04f4a7e72e17","system_id":"levelo_inurba_marseille","lat":43.23184,"lon":5.39986,"is_reserved":false,"is_disabled":false,"rental_uris":{"android":"levelo://app?vid=29b25be5-2292-4af8-b85e-04f4a7e72e17","ios":"levelo://app?vid=29b25be5-2292-4af8-b85e-04f4a7e72e17"},"vehicle_type_id":"4","last_reported":1729804103,"current_range_meters":13600,"station_id":"ce4bhn12rcd13ifvqgqg","pricing_plan_id":"cebpf4jnsgd1na2vs0mg"},{"bike_id":"ad4b7dae-9347-49e1-a51f-a079e349242d","system_id":"levelo_inurba_marseille","lat":43.29224,"lon":5.36053,"is_reserved":false,"is_disabled":false,"rental_uris":{"android":"levelo://app?vid=ad4b7dae-9347-49e1-a51f-a079e349242d","ios":"levelo://app?vid=ad4b7dae-9347-49e1-a51f-a079e349242d"},"vehicle_type_id":"4","last_reported":1729804103,"current_range_meters":27200,"station_id":"ce4bhbh2rcd13ifvqeqg","pricing_plan_id":"cebpf4jnsgd1na2vs0mg"},{"bike_id":"b5db9d88-0699-44c3-b53c-11af6517e201","system_id":"levelo_inurba_marseille","lat":43.29871,"lon":5.39725,"is_reserved":false,"is_disabled":false,"rental_uris":{"android":"levelo://app?vid=b5db9d88-0699-44c3-b53c-11af6517e201","ios":"levelo://app?vid=b5db9d88-0699-44c3-b53c-11af6517e201"},"vehicle_type_id":"4","last_reported":1729804103,"current_range_meters":16800,"station_id":"ce4bh0h2rcd13ifvqd50","pricing_plan_id":"cebpf4jnsgd1na2vs0mg"},{"bike_id":"e99b668b-6834-4832-8aab-9b650a016312","system_id":"levelo_inurba_marseille","lat":43.26951,"lon":5.4025,"is_reserved":false,"is_disabled":false,"rental_uris":{"android":"levelo://app?vid=e99b668b-6834-4832-8aab-9b650a016312","ios":"levelo://app?vid=e99b668b-6834-4832-8aab-9b650a016312"},"vehicle_type_id":"4","last_reported":1729804103,"current_range_meters":14400,"station_id":"cjm6bp8fraef2m0cb0m0","pricing_plan_id":"cebpf4jnsgd1na2vs0mg"},{"bike_id":"933557ef-e951-4c8f-adab-063805190575","system_id":"levelo_inurba_marseille","lat":43.27496,"lon":5.42449,"is_reserved":false,"is_disabled":false,"rental_uris":{"android":"levelo://app?vid=933557ef-e951-4c8f-adab-063805190575","ios":"levelo://app?vid=933557ef-e951-4c8f-adab-063805190575"},"vehicle_type_id":"4","last_reported":1729804103,"current_range_meters":25600,"station_id":"ce4bhn92rcd13ifvqgrg","pricing_plan_id":"cebpf4jnsgd1na2vs0mg"},{"bike_id":"b5092dab-0958-4b93-8d9d-8a9df626b28c","system_id":"levelo_inurba_marseille","lat":43.25735,"lon":5.41112,"is_reserved":false,"is_disabled":false,"rental_uris":{"android":"levelo://app?vid=b5092dab-0958-4b93-8d9d-8a9df626b28c","ios":"levelo://app?vid=b5092dab-0958-4b93-8d9d-8a9df626b28c"},"vehicle_type_id":"4","last_reported":1729804103,"current_range_meters":17600,"station_id":"ce4bhkp2rcd13ifvqgd0","pricing_plan_id":"cebpf4jnsgd1na2vs0mg"},{"bike_id":"588d9fda-2b5f-423c-a040-b5ef24351dea","system_id":"levelo_inurba_marseille","lat":43.26037,"lon":5.3755,"is_reserved":false,"is_disabled":false,"rental_uris":{"android":"levelo://app?vid=588d9fda-2b5f-423c-a040-b5ef24351dea","ios":"levelo://app?vid=588d9fda-2b5f-423c-a040-b5ef24351dea"},"vehicle_type_id":"4","last_reported":1729804103,"current_range_meters":30800,"station_id":"ce4bhgh2rcd13ifvqfa0","pricing_plan_id":"cebpf4jnsgd1na2vs0mg"},{"bike_id":"fe4d6041-9d03-40f9-8eee-ad7869b3bd13","system_id":"levelo_inurba_marseille","lat":43.28488,"lon":5.38418,"is_reserved":false,"is_disabled":false,"rental_uris":{"android":"levelo://app?vid=fe4d6041-9d03-40f9-8eee-ad7869b3bd13","ios":"levelo://app?vid=fe4d6041-9d03-40f9-8eee-ad7869b3bd13"},"vehicle_type_id":"4","last_reported":1729804103,"current_range_meters":38800,"station_id":"ce4bh512rcd13ifvqe3g","pricing_plan_id":"cebpf4jnsgd1na2vs0mg"},{"bike_id":"797c7c2f-8e5b-4da8-a3dc-43bae184c07f","system_id":"levelo_inurba_marseille","lat":43.29004,"lon":5.35608,"is_reserved":false,"is_disabled":false,"rental_uris":{"android":"levelo://app?vid=797c7c2f-8e5b-4da8-a3dc-43bae184c07f","ios":"levelo://app?vid=797c7c2f-8e5b-4da8-a3dc-43bae184c07f"},"vehicle_type_id":"4","last_reported":1729804103,"current_range_meters":8000,"station_id":"ce4bhb92rcd13ifvqen0","pricing_plan_id":"cebpf4jnsgd1na2vs0mg"},{"bike_id":"be8fbca4-3dcd-4e0e-96d2-8c570f59713c","system_id":"levelo_inurba_marseille","lat":43.32496,"lon":5.36568,"is_reserved":false,"is_disabled":false,"rental_uris":{"android":"levelo://app?vid=be8fbca4-3dcd-4e0e-96d2-8c570f59713c","ios":"levelo://app?vid=be8fbca4-3dcd-4e0e-96d2-8c570f59713c"},"vehicle_type_id":"4","last_reported":1729804103,"current_range_meters":23200,"station_id":"ce4bhs12rcd13ifvqhvg","pricing_plan_id":"cebpf4jnsgd1na2vs0mg"},{"bike_id":"553dcc50-e52f-4538-8960-4f7e465fd85d","system_id":"levelo_inurba_marseille","lat":43.30907,"lon":5.36843,"is_reserved":false,"is_disabled":false,"rental_uris":{"android":"levelo://app?vid=553dcc50-e52f-4538-8960-4f7e465fd85d","ios":"levelo://app?vid=553dcc50-e52f-4538-8960-4f7e465fd85d"},"vehicle_type_id":"4","last_reported":1729804103,"current_range_meters":12800,"station_id":"ce4bgn92rcd13ifvqbvg","pricing_plan_id":"cebpf4jnsgd1na2vs0mg"},{"bike_id":"2c83906e-34b2-4de1-a842-6d257980343c","system_id":"levelo_inurba_marseille","lat":43.32355,"lon":5.38885,"is_reserved":false,"is_disabled":false,"rental_uris":{"android":"levelo://app?vid=2c83906e-34b2-4de1-a842-6d257980343c","ios":"levelo://app?vid=2c83906e-34b2-4de1-a842-6d257980343c"},"vehicle_type_id":"4","last_reported":1729804103,"current_range_meters":16800,"station_id":"ce4bhqp2rcd13ifvqhog","pricing_plan_id":"cebpf4jnsgd1na2vs0mg"},{"bike_id":"f6a0b76a-a003-4830-9be9-66274ad91ac1","system_id":"levelo_inurba_marseille","lat":43.2803,"lon":5.36942,"is_reserved":false,"is_disabled":false,"rental_uris":{"android":"levelo://app?vid=f6a0b76a-a003-4830-9be9-66274ad91ac1","ios":"levelo://app?vid=f6a0b76a-a003-4830-9be9-66274ad91ac1"},"vehicle_type_id":"4","last_reported":1729804103,"current_range_meters":28800,"station_id":"ce4bha12rcd13ifvqef0","pricing_plan_id":"cebpf4jnsgd1na2vs0mg"},{"bike_id":"0598bd07-3bee-4d92-93d6-6c1fccfbde94","system_id":"levelo_inurba_marseille","lat":43.286987,"lon":5.373812,"is_reserved":false,"is_disabled":false,"rental_uris":{"android":"levelo://app?vid=0598bd07-3bee-4d92-93d6-6c1fccfbde94","ios":"levelo://app?vid=0598bd07-3bee-4d92-93d6-6c1fccfbde94"},"vehicle_type_id":"4","last_reported":1729804103,"current_range_meters":30800,"station_id":"ce4bh3p2rcd13ifvqdq0","pricing_plan_id":"cebpf4jnsgd1na2vs0mg"},{"bike_id":"a41d3bb8-558d-4841-8839-04a68cf59693","system_id":"levelo_inurba_marseille","lat":43.2926,"lon":5.40908,"is_reserved":false,"is_disabled":false,"rental_uris":{"android":"levelo://app?vid=a41d3bb8-558d-4841-8839-04a68cf59693","ios":"levelo://app?vid=a41d3bb8-558d-4841-8839-04a68cf59693"},"vehicle_type_id":"4","last_reported":1729804103,"current_range_meters":13600,"station_id":"ce4bh192rcd13ifvqdc0","pricing_plan_id":"cebpf4jnsgd1na2vs0mg"},{"bike_id":"1b95b40c-622e-4262-aedf-502366ac096f","system_id":"levelo_inurba_marseille","lat":43.2842,"lon":5.37511,"is_reserved":false,"is_disabled":false,"rental_uris":{"android":"levelo://app?vid=1b95b40c-622e-4262-aedf-502366ac096f","ios":"levelo://app?vid=1b95b40c-622e-4262-aedf-502366ac096f"},"vehicle_type_id":"4","last_reported":1729804103,"current_range_meters":4400,"station_id":"ce4bh412rcd13ifvqds0","pricing_plan_id":"cebpf4jnsgd1na2vs0mg"},{"bike_id":"87ebe34b-a6a0-4a0e-8406-5523611e8f5f","system_id":"levelo_inurba_marseille","lat":43.284397,"lon":5.391942,"is_reserved":false,"is_disabled":false,"rental_uris":{"android":"levelo://app?vid=87ebe34b-a6a0-4a0e-8406-5523611e8f5f","ios":"levelo://app?vid=87ebe34b-a6a0-4a0e-8406-5523611e8f5f"},"vehicle_type_id":"4","last_reported":1729804103,"current_range_meters":38400,"station_id":"ce4bhoh2rcd13ifvqh5g","pricing_plan_id":"cebpf4jnsgd1na2vs0mg"},{"bike_id":"c3e18176-e81d-4aa1-8a56-868d9d37a194","system_id":"levelo_inurba_marseille","lat":43.3172,"lon":5.37741,"is_reserved":false,"is_disabled":false,"rental_uris":{"android":"levelo://app?vid=c3e18176-e81d-4aa1-8a56-868d9d37a194","ios":"levelo://app?vid=c3e18176-e81d-4aa1-8a56-868d9d37a194"},"vehicle_type_id":"4","last_reported":1729804103,"current_range_meters":38000,"station_id":"ce4bgth2rcd13ifvqch0","pricing_plan_id":"cebpf4jnsgd1na2vs0mg"},{"bike_id":"70d78abf-97dd-4b84-9d48-1abe981bdd92","system_id":"levelo_inurba_marseille","lat":43.29872,"lon":5.39724,"is_reserved":false,"is_disabled":false,"rental_uris":{"android":"levelo://app?vid=70d78abf-97dd-4b84-9d48-1abe981bdd92","ios":"levelo://app?vid=70d78abf-97dd-4b84-9d48-1abe981bdd92"},"vehicle_type_id":"4","last_reported":1729804103,"current_range_meters":17600,"station_id":"ce4bh0h2rcd13ifvqd50","pricing_plan_id":"cebpf4jnsgd1na2vs0mg"},{"bike_id":"405ff4c5-9944-404b-b6ae-6ae137886c6a","system_id":"levelo_inurba_marseille","lat":43.31321,"lon":5.39689,"is_reserved":false,"is_disabled":false,"rental_uris":{"android":"levelo://app?vid=405ff4c5-9944-404b-b6ae-6ae137886c6a","ios":"levelo://app?vid=405ff4c5-9944-404b-b6ae-6ae137886c6a"},"vehicle_type_id":"4","last_reported":1729804103,"current_range_meters":29600,"station_id":"ce4bgvp2rcd13ifvqcu0","pricing_plan_id":"cebpf4jnsgd1na2vs0mg"},{"bike_id":"b7ede183-fd1c-46a7-a969-50064f84af11","system_id":"levelo_inurba_marseille","lat":43.29217,"lon":5.38746,"is_reserved":false,"is_disabled":false,"rental_uris":{"android":"levelo://app?vid=b7ede183-fd1c-46a7-a969-50064f84af11","ios":"levelo://app?vid=b7ede183-fd1c-46a7-a969-50064f84af11"},"vehicle_type_id":"4","last_reported":1729804103,"current_range_meters":6400,"station_id":"ce4bh392rcd13ifvqdl0","pricing_plan_id":"cebpf4jnsgd1na2vs0mg"},{"bike_id":"a678a84f-0550-4240-b17d-5b7a54ed58a5","system_id":"levelo_inurba_marseille","lat":43.27818,"lon":5.40707,"is_reserved":false,"is_disabled":false,"rental_uris":{"android":"levelo://app?vid=a678a84f-0550-4240-b17d-5b7a54ed58a5","ios":"levelo://app?vid=a678a84f-0550-4240-b17d-5b7a54ed58a5"},"vehicle_type_id":"4","last_reported":1729804103,"current_range_meters":26000,"station_id":"ce4bhnh2rcd13ifvqgtg","pricing_plan_id":"cebpf4jnsgd1na2vs0mg"},{"bike_id":"75335f89-2788-4881-9ca0-e4126ecbdc14","system_id":"levelo_inurba_marseille","lat":43.28042,"lon":5.36946,"is_reserved":false,"is_disabled":false,"rental_uris":{"android":"levelo://app?vid=75335f89-2788-4881-9ca0-e4126ecbdc14","ios":"levelo://app?vid=75335f89-2788-4881-9ca0-e4126ecbdc14"},"vehicle_type_id":"4","last_reported":1729804103,"current_range_meters":30800,"station_id":"ce4bha12rcd13ifvqef0","pricing_plan_id":"cebpf4jnsgd1na2vs0mg"},{"bike_id":"e0b5d96e-a9a7-4858-aac7-c793dbfb134c","system_id":"levelo_inurba_marseille","lat":43.29796,"lon":5.38107,"is_reserved":false,"is_disabled":false,"rental_uris":{"android":"levelo://app?vid=e0b5d96e-a9a7-4858-aac7-c793dbfb134c","ios":"levelo://app?vid=e0b5d96e-a9a7-4858-aac7-c793dbfb134c"},"vehicle_type_id":"4","last_reported":1729804103,"current_range_meters":38000,"station_id":"ce4bgip2rcd13ifvqbb0","pricing_plan_id":"cebpf4jnsgd1na2vs0mg"},{"bike_id":"1e5ebc58-345c-4df7-a882-f10636133dc0","system_id":"levelo_inurba_marseille","lat":43.28715,"lon":5.37395,"is_reserved":false,"is_disabled":false,"rental_uris":{"android":"levelo://app?vid=1e5ebc58-345c-4df7-a882-f10636133dc0","ios":"levelo://app?vid=1e5ebc58-345c-4df7-a882-f10636133dc0"},"vehicle_type_id":"4","last_reported":1729804103,"current_range_meters":30400,"station_id":"ce4bh3p2rcd13ifvqdq0","pricing_plan_id":"cebpf4jnsgd1na2vs0mg"},{"bike_id":"08008794-bb04-48f0-9908-2654e5a03c29","system_id":"levelo_inurba_marseille","lat":43.28444,"lon":5.39206,"is_reserved":false,"is_disabled":false,"rental_uris":{"android":"levelo://app?vid=08008794-bb04-48f0-9908-2654e5a03c29","ios":"levelo://app?vid=08008794-bb04-48f0-9908-2654e5a03c29"},"vehicle_type_id":"4","last_reported":1729804103,"current_range_meters":9600,"station_id":"ce4bhoh2rcd13ifvqh5g","pricing_plan_id":"cebpf4jnsgd1na2vs0mg"},{"bike_id":"99de67a5-21b2-46bc-9c8e-59e22dacab68","system_id":"levelo_inurba_marseille","lat":43.28846,"lon":5.35844,"is_reserved":false,"is_disabled":false,"rental_uris":{"android":"levelo://app?vid=99de67a5-21b2-46bc-9c8e-59e22dacab68","ios":"levelo://app?vid=99de67a5-21b2-46bc-9c8e-59e22dacab68"},"vehicle_type_id":"4","last_reported":1729804103,"current_range_meters":35200,"station_id":"ce4bhb12rcd13ifvqem0","pricing_plan_id":"cebpf4jnsgd1na2vs0mg"},{"bike_id":"f8c6f1bc-ea44-4ab8-b33c-f75f82cb071b","system_id":"levelo_inurba_marseille","lat":43.23185,"lon":5.39986,"is_reserved":false,"is_disabled":false,"rental_uris":{"android":"levelo://app?vid=f8c6f1bc-ea44-4ab8-b33c-f75f82cb071b","ios":"levelo://app?vid=f8c6f1bc-ea44-4ab8-b33c-f75f82cb071b"},"vehicle_type_id":"4","last_reported":1729804103,"current_range_meters":4400,"station_id":"ce4bhn12rcd13ifvqgqg","pricing_plan_id":"cebpf4jnsgd1na2vs0mg"},{"bike_id":"18ebda10-9cc5-4e55-88ad-663561fb1d9e","system_id":"levelo_inurba_marseille","lat":43.29528,"lon":5.39038,"is_reserved":false,"is_disabled":false,"rental_uris":{"android":"levelo://app?vid=18ebda10-9cc5-4e55-88ad-663561fb1d9e","ios":"levelo://app?vid=18ebda10-9cc5-4e55-88ad-663561fb1d9e"},"vehicle_type_id":"4","last_reported":1729804103,"current_range_meters":28800,"station_id":"ce4bh3p2rcd13ifvqdp0","pricing_plan_id":"cebpf4jnsgd1na2vs0mg"},{"bike_id":"75bca06e-60b0-4ca9-a9d8-9958fb814d65","system_id":"levelo_inurba_marseille","lat":43.29301,"lon":5.37178,"is_reserved":false,"is_disabled":false,"rental_uris":{"android":"levelo://app?vid=75bca06e-60b0-4ca9-a9d8-9958fb814d65","ios":"levelo://app?vid=75bca06e-60b0-4ca9-a9d8-9958fb814d65"},"vehicle_type_id":"4","last_reported":1729804103,"current_range_meters":38800,"station_id":"ce4bgh92rcd13ifvqb40","pricing_plan_id":"cebpf4jnsgd1na2vs0mg"},{"bike_id":"f805f0b2-f854-4c5d-91e5-3e78c0e397f8","system_id":"levelo_inurba_marseille","lat":43.29566,"lon":5.39958,"is_reserved":false,"is_disabled":false,"rental_uris":{"android":"levelo://app?vid=f805f0b2-f854-4c5d-91e5-3e78c0e397f8","ios":"levelo://app?vid=f805f0b2-f854-4c5d-91e5-3e78c0e397f8"},"vehicle_type_id":"4","last_reported":1729804103,"current_range_meters":18800,"station_id":"ce4bh312rcd13ifvqdj0","pricing_plan_id":"cebpf4jnsgd1na2vs0mg"},{"bike_id":"c0980280-6ae3-4491-a0ae-8a60f645c403","system_id":"levelo_inurba_marseille","lat":43.26941,"lon":5.3892,"is_reserved":false,"is_disabled":false,"rental_uris":{"android":"levelo://app?vid=c0980280-6ae3-4491-a0ae-8a60f645c403","ios":"levelo://app?vid=c0980280-6ae3-4491-a0ae-8a60f645c403"},"vehicle_type_id":"4","last_reported":1729804103,"current_range_meters":37600,"station_id":"ce4bhhh2rcd13ifvqfl0","pricing_plan_id":"cebpf4jnsgd1na2vs0mg"},{"bike_id":"8e1f71d6-3914-41b4-b57f-9c27760fbc00","system_id":"levelo_inurba_marseille","lat":43.29201,"lon":5.35801,"is_reserved":false,"is_disabled":false,"rental_uris":{"android":"levelo://app?vid=8e1f71d6-3914-41b4-b57f-9c27760fbc00","ios":"levelo://app?vid=8e1f71d6-3914-41b4-b57f-9c27760fbc00"},"vehicle_type_id":"4","last_reported":1729804103,"current_range_meters":10800,"station_id":"ce4bhb12rcd13ifvqel0","pricing_plan_id":"cebpf4jnsgd1na2vs0mg"},{"bike_id":"d2b1bdf2-4357-4fe1-9310-b780934b2159","system_id":"levelo_inurba_marseille","lat":43.32033,"lon":5.41559,"is_reserved":false,"is_disabled":false,"rental_uris":{"android":"levelo://app?vid=d2b1bdf2-4357-4fe1-9310-b780934b2159","ios":"levelo://app?vid=d2b1bdf2-4357-4fe1-9310-b780934b2159"},"vehicle_type_id":"4","last_reported":1729804103,"current_range_meters":38800,"station_id":"ce4bhq92rcd13ifvqhkg","pricing_plan_id":"cebpf4jnsgd1na2vs0mg"},{"bike_id":"08cb58f7-5914-4b8e-a368-a37e73be17c6","system_id":"levelo_inurba_marseille","lat":43.28272,"lon":5.35074,"is_reserved":false,"is_disabled":false,"rental_uris":{"android":"levelo://app?vid=08cb58f7-5914-4b8e-a368-a37e73be17c6","ios":"levelo://app?vid=08cb58f7-5914-4b8e-a368-a37e73be17c6"},"vehicle_type_id":"4","last_reported":1729804103,"current_range_meters":38000,"station_id":"ce4bhbp2rcd13ifvqerg","pricing_plan_id":"cebpf4jnsgd1na2vs0mg"},{"bike_id":"86b01cae-e8a8-4061-a15e-f28daeed7cfc","system_id":"levelo_inurba_marseille","lat":43.2792,"lon":5.39585,"is_reserved":false,"is_disabled":false,"rental_uris":{"android":"levelo://app?vid=86b01cae-e8a8-4061-a15e-f28daeed7cfc","ios":"levelo://app?vid=86b01cae-e8a8-4061-a15e-f28daeed7cfc"},"vehicle_type_id":"4","last_reported":1729804103,"current_range_meters":10000,"station_id":"ce4bhf92rcd13ifvqf40","pricing_plan_id":"cebpf4jnsgd1na2vs0mg"},{"bike_id":"35c900ea-bcde-4585-b36a-ab80096409f6","system_id":"levelo_inurba_marseille","lat":43.24085,"lon":5.37749,"is_reserved":false,"is_disabled":false,"rental_uris":{"android":"levelo://app?vid=35c900ea-bcde-4585-b36a-ab80096409f6","ios":"levelo://app?vid=35c900ea-bcde-4585-b36a-ab80096409f6"},"vehicle_type_id":"4","last_reported":1729804103,"current_range_meters":10000,"station_id":"ce4bhnp2rcd13ifvqgvg","pricing_plan_id":"cebpf4jnsgd1na2vs0mg"},{"bike_id":"e8fb18d9-3dc4-481f-aa6a-be41126a152c","system_id":"levelo_inurba_marseille","lat":43.27994,"lon":5.40026,"is_reserved":false,"is_disabled":false,"rental_uris":{"android":"levelo://app?vid=e8fb18d9-3dc4-481f-aa6a-be41126a152c","ios":"levelo://app?vid=e8fb18d9-3dc4-481f-aa6a-be41126a152c"},"vehicle_type_id":"4","last_reported":1729804103,"current_range_meters":30000,"station_id":"ce4bho92rcd13ifvqh4g","pricing_plan_id":"cebpf4jnsgd1na2vs0mg"},{"bike_id":"4468208d-a0a9-4302-976f-4b7d3cc8f418","system_id":"levelo_inurba_marseille","lat":43.26199,"lon":5.37918,"is_reserved":false,"is_disabled":false,"rental_uris":{"android":"levelo://app?vid=4468208d-a0a9-4302-976f-4b7d3cc8f418","ios":"levelo://app?vid=4468208d-a0a9-4302-976f-4b7d3cc8f418"},"vehicle_type_id":"4","last_reported":1729804103,"current_range_meters":32800,"station_id":"ce4bhjp2rcd13ifvqg90","pricing_plan_id":"cebpf4jnsgd1na2vs0mg"},{"bike_id":"9b28e6e0-fbf9-48d5-8513-6fd463626cb9","system_id":"levelo_inurba_marseille","lat":43.29004,"lon":5.35608,"is_reserved":false,"is_disabled":false,"rental_uris":{"android":"levelo://app?vid=9b28e6e0-fbf9-48d5-8513-6fd463626cb9","ios":"levelo://app?vid=9b28e6e0-fbf9-48d5-8513-6fd463626cb9"},"vehicle_type_id":"4","last_reported":1729804103,"current_range_meters":26800,"station_id":"ce4bhb92rcd13ifvqen0","pricing_plan_id":"cebpf4jnsgd1na2vs0mg"},{"bike_id":"601dcf34-956b-4b1a-a80a-994561222bfd","system_id":"levelo_inurba_marseille","lat":43.25494,"lon":5.37648,"is_reserved":false,"is_disabled":false,"rental_uris":{"android":"levelo://app?vid=601dcf34-956b-4b1a-a80a-994561222bfd","ios":"levelo://app?vid=601dcf34-956b-4b1a-a80a-994561222bfd"},"vehicle_type_id":"4","last_reported":1729804103,"current_range_meters":32000,"station_id":"ce4bhh12rcd13ifvqff0","pricing_plan_id":"cebpf4jnsgd1na2vs0mg"},{"bike_id":"0dc6c991-de4d-4979-b1b5-5633677338e1","system_id":"levelo_inurba_marseille","lat":43.30915,"lon":5.36846,"is_reserved":false,"is_disabled":false,"rental_uris":{"android":"levelo://app?vid=0dc6c991-de4d-4979-b1b5-5633677338e1","ios":"levelo://app?vid=0dc6c991-de4d-4979-b1b5-5633677338e1"},"vehicle_type_id":"4","last_reported":1729804103,"current_range_meters":38800,"station_id":"ce4bgn92rcd13ifvqbvg","pricing_plan_id":"cebpf4jnsgd1na2vs0mg"},{"bike_id":"062af97d-c391-4f60-a36b-ffd19c80733b","system_id":"levelo_inurba_marseille","lat":43.29538,"lon":5.38533,"is_reserved":false,"is_disabled":false,"rental_uris":{"android":"levelo://app?vid=062af97d-c391-4f60-a36b-ffd19c80733b","ios":"levelo://app?vid=062af97d-c391-4f60-a36b-ffd19c80733b"},"vehicle_type_id":"4","last_reported":1729804103,"current_range_meters":38800,"station_id":"ce4bgih2rcd13ifvqba0","pricing_plan_id":"cebpf4jnsgd1na2vs0mg"},{"bike_id":"5a02a034-a804-4105-b433-0b345da9bc26","system_id":"levelo_inurba_marseille","lat":43.30133,"lon":5.3986,"is_reserved":false,"is_disabled":false,"rental_uris":{"android":"levelo://app?vid=5a02a034-a804-4105-b433-0b345da9bc26","ios":"levelo://app?vid=5a02a034-a804-4105-b433-0b345da9bc26"},"vehicle_type_id":"4","last_reported":1729804103,"current_range_meters":34000,"station_id":"ce4bh0h2rcd13ifvqd40","pricing_plan_id":"cebpf4jnsgd1na2vs0mg"},{"bike_id":"21dbfbe9-6bea-402d-9b21-2fa25d9f6a5a","system_id":"levelo_inurba_marseille","lat":43.2721,"lon":5.39182,"is_reserved":false,"is_disabled":false,"rental_uris":{"android":"levelo://app?vid=21dbfbe9-6bea-402d-9b21-2fa25d9f6a5a","ios":"levelo://app?vid=21dbfbe9-6bea-402d-9b21-2fa25d9f6a5a"},"vehicle_type_id":"4","last_reported":1729804103,"current_range_meters":1600,"station_id":"ce4bhhp2rcd13ifvqfm0","pricing_plan_id":"cebpf4jnsgd1na2vs0mg"},{"bike_id":"0f3449bb-3bd0-4cfd-88af-5d53ec3e0714","system_id":"levelo_inurba_marseille","lat":43.31328,"lon":5.39691,"is_reserved":false,"is_disabled":false,"rental_uris":{"android":"levelo://app?vid=0f3449bb-3bd0-4cfd-88af-5d53ec3e0714","ios":"levelo://app?vid=0f3449bb-3bd0-4cfd-88af-5d53ec3e0714"},"vehicle_type_id":"4","last_reported":1729804103,"current_range_meters":30000,"station_id":"ce4bgvp2rcd13ifvqcu0","pricing_plan_id":"cebpf4jnsgd1na2vs0mg"},{"bike_id":"4d4a7de4-b295-4ae6-a548-4081541b3c73","system_id":"levelo_inurba_marseille","lat":43.28499,"lon":5.38573,"is_reserved":false,"is_disabled":false,"rental_uris":{"android":"levelo://app?vid=4d4a7de4-b295-4ae6-a548-4081541b3c73","ios":"levelo://app?vid=4d4a7de4-b295-4ae6-a548-4081541b3c73"},"vehicle_type_id":"4","last_reported":1729804103,"current_range_meters":38800,"station_id":"ce4bh8p2rcd13ifvqeb0","pricing_plan_id":"cebpf4jnsgd1na2vs0mg"},{"bike_id":"272e819b-db19-4571-879f-b4d908cbfc64","system_id":"levelo_inurba_marseille","lat":43.28898,"lon":5.36093,"is_reserved":false,"is_disabled":false,"rental_uris":{"android":"levelo://app?vid=272e819b-db19-4571-879f-b4d908cbfc64","ios":"levelo://app?vid=272e819b-db19-4571-879f-b4d908cbfc64"},"vehicle_type_id":"4","last_reported":1729804103,"current_range_meters":22000,"station_id":"","pricing_plan_id":"cebpf4jnsgd1na2vs0mg"},{"bike_id":"dda10266-8510-44af-990b-393e41f71b13","system_id":"levelo_inurba_marseille","lat":43.2849,"lon":5.38559,"is_reserved":false,"is_disabled":false,"rental_uris":{"android":"levelo://app?vid=dda10266-8510-44af-990b-393e41f71b13","ios":"levelo://app?vid=dda10266-8510-44af-990b-393e41f71b13"},"vehicle_type_id":"4","last_reported":1729804103,"current_range_meters":36000,"station_id":"ce4bh8p2rcd13ifvqeb0","pricing_plan_id":"cebpf4jnsgd1na2vs0mg"},{"bike_id":"d2964dcf-2ca0-4e8f-ad12-68f06243f6c8","system_id":"levelo_inurba_marseille","lat":43.29006,"lon":5.35603,"is_reserved":false,"is_disabled":false,"rental_uris":{"android":"levelo://app?vid=d2964dcf-2ca0-4e8f-ad12-68f06243f6c8","ios":"levelo://app?vid=d2964dcf-2ca0-4e8f-ad12-68f06243f6c8"},"vehicle_type_id":"4","last_reported":1729804103,"current_range_meters":3600,"station_id":"ce4bhb92rcd13ifvqen0","pricing_plan_id":"cebpf4jnsgd1na2vs0mg"},{"bike_id":"856d115a-8f1b-4d78-a4f5-e6563030d0a3","system_id":"levelo_inurba_marseille","lat":43.23961,"lon":5.36632,"is_reserved":false,"is_disabled":false,"rental_uris":{"android":"levelo://app?vid=856d115a-8f1b-4d78-a4f5-e6563030d0a3","ios":"levelo://app?vid=856d115a-8f1b-4d78-a4f5-e6563030d0a3"},"vehicle_type_id":"4","last_reported":1729804103,"current_range_meters":36800,"station_id":"ce4bhi12rcd13ifvqfp0","pricing_plan_id":"cebpf4jnsgd1na2vs0mg"},{"bike_id":"f5320a39-d764-4ea2-b92f-2e33b9a08e50","system_id":"levelo_inurba_marseille","lat":43.30351,"lon":5.4187,"is_reserved":false,"is_disabled":false,"rental_uris":{"android":"levelo://app?vid=f5320a39-d764-4ea2-b92f-2e33b9a08e50","ios":"levelo://app?vid=f5320a39-d764-4ea2-b92f-2e33b9a08e50"},"vehicle_type_id":"4","last_reported":1729804103,"current_range_meters":35600,"station_id":"ce4bhop2rcd13ifvqh7g","pricing_plan_id":"cebpf4jnsgd1na2vs0mg"},{"bike_id":"97ec9672-eea4-4d9a-8a25-013f09b65b94","system_id":"levelo_inurba_marseille","lat":43.25582,"lon":5.38235,"is_reserved":false,"is_disabled":false,"rental_uris":{"android":"levelo://app?vid=97ec9672-eea4-4d9a-8a25-013f09b65b94","ios":"levelo://app?vid=97ec9672-eea4-4d9a-8a25-013f09b65b94"},"vehicle_type_id":"4","last_reported":1729804103,"current_range_meters":6000,"station_id":"ce4bhih2rcd13ifvqfs0","pricing_plan_id":"cebpf4jnsgd1na2vs0mg"},{"bike_id":"1c94711f-6e8d-4080-84e2-4aabc2656ca2","system_id":"levelo_inurba_marseille","lat":43.31339,"lon":5.39698,"is_reserved":false,"is_disabled":false,"rental_uris":{"android":"levelo://app?vid=1c94711f-6e8d-4080-84e2-4aabc2656ca2","ios":"levelo://app?vid=1c94711f-6e8d-4080-84e2-4aabc2656ca2"},"vehicle_type_id":"4","last_reported":1729804103,"current_range_meters":38800,"station_id":"ce4bgvp2rcd13ifvqcu0","pricing_plan_id":"cebpf4jnsgd1na2vs0mg"},{"bike_id":"bebd8251-2a0e-424a-a2c9-94c8dedde414","system_id":"levelo_inurba_marseille","lat":43.28454,"lon":5.3919,"is_reserved":false,"is_disabled":false,"rental_uris":{"android":"levelo://app?vid=bebd8251-2a0e-424a-a2c9-94c8dedde414","ios":"levelo://app?vid=bebd8251-2a0e-424a-a2c9-94c8dedde414"},"vehicle_type_id":"4","last_reported":1729804103,"current_range_meters":13600,"station_id":"ce4bhoh2rcd13ifvqh5g","pricing_plan_id":"cebpf4jnsgd1na2vs0mg"},{"bike_id":"d98edb90-f987-4b39-b2f6-d8a7dec947e4","system_id":"levelo_inurba_marseille","lat":43.30299,"lon":5.39214,"is_reserved":false,"is_disabled":false,"rental_uris":{"android":"levelo://app?vid=d98edb90-f987-4b39-b2f6-d8a7dec947e4","ios":"levelo://app?vid=d98edb90-f987-4b39-b2f6-d8a7dec947e4"},"vehicle_type_id":"4","last_reported":1729804103,"current_range_meters":7200,"station_id":"ce4bgkh2rcd13ifvqbk0","pricing_plan_id":"cebpf4jnsgd1na2vs0mg"},{"bike_id":"9186ad6f-a65f-46c8-892a-f1dc3026d6ea","system_id":"levelo_inurba_marseille","lat":43.28104,"lon":5.37839,"is_reserved":false,"is_disabled":false,"rental_uris":{"android":"levelo://app?vid=9186ad6f-a65f-46c8-892a-f1dc3026d6ea","ios":"levelo://app?vid=9186ad6f-a65f-46c8-892a-f1dc3026d6ea"},"vehicle_type_id":"4","last_reported":1729804103,"current_range_meters":27200,"station_id":"ce4bha12rcd13ifvqee0","pricing_plan_id":"cebpf4jnsgd1na2vs0mg"},{"bike_id":"07a4dd6a-7a9b-4c2e-af37-7bc6a487b496","system_id":"levelo_inurba_marseille","lat":43.31119,"lon":5.37774,"is_reserved":false,"is_disabled":false,"rental_uris":{"android":"levelo://app?vid=07a4dd6a-7a9b-4c2e-af37-7bc6a487b496","ios":"levelo://app?vid=07a4dd6a-7a9b-4c2e-af37-7bc6a487b496"},"vehicle_type_id":"4","last_reported":1729804103,"current_range_meters":17600,"station_id":"ce4bgt92rcd13ifvqcg0","pricing_plan_id":"cebpf4jnsgd1na2vs0mg"},{"bike_id":"ab15f957-1cff-41c4-9218-cbf90a4a7a9e","system_id":"levelo_inurba_marseille","lat":43.28374,"lon":5.38637,"is_reserved":false,"is_disabled":false,"rental_uris":{"android":"levelo://app?vid=ab15f957-1cff-41c4-9218-cbf90a4a7a9e","ios":"levelo://app?vid=ab15f957-1cff-41c4-9218-cbf90a4a7a9e"},"vehicle_type_id":"4","last_reported":1729804103,"current_range_meters":32800,"station_id":"ce4bh492rcd13ifvqdvg","pricing_plan_id":"cebpf4jnsgd1na2vs0mg"},{"bike_id":"9eb3d7cd-3843-4544-8c5a-925c3c870df4","system_id":"levelo_inurba_marseille","lat":43.29605,"lon":5.38101,"is_reserved":false,"is_disabled":false,"rental_uris":{"android":"levelo://app?vid=9eb3d7cd-3843-4544-8c5a-925c3c870df4","ios":"levelo://app?vid=9eb3d7cd-3843-4544-8c5a-925c3c870df4"},"vehicle_type_id":"4","last_reported":1729804103,"current_range_meters":6400,"station_id":"ce4bgl12rcd13ifvqbo0","pricing_plan_id":"cebpf4jnsgd1na2vs0mg"},{"bike_id":"aab848b2-16c1-47f2-96ca-991a72d8d00c","system_id":"levelo_inurba_marseille","lat":43.29206,"lon":5.39321,"is_reserved":false,"is_disabled":false,"rental_uris":{"android":"levelo://app?vid=aab848b2-16c1-47f2-96ca-991a72d8d00c","ios":"levelo://app?vid=aab848b2-16c1-47f2-96ca-991a72d8d00c"},"vehicle_type_id":"4","last_reported":1729804103,"current_range_meters":21600,"station_id":"ce4bh192rcd13ifvqdd0","pricing_plan_id":"cebpf4jnsgd1na2vs0mg"},{"bike_id":"9c980766-3696-42be-8e1a-d22fb6edb5c5","system_id":"levelo_inurba_marseille","lat":43.30665,"lon":5.38184,"is_reserved":false,"is_disabled":false,"rental_uris":{"android":"levelo://app?vid=9c980766-3696-42be-8e1a-d22fb6edb5c5","ios":"levelo://app?vid=9c980766-3696-42be-8e1a-d22fb6edb5c5"},"vehicle_type_id":"4","last_reported":1729804103,"current_range_meters":27200,"station_id":"","pricing_plan_id":"cebpf4jnsgd1na2vs0mg"},{"bike_id":"533cee33-1b4a-44e2-adb6-9c6026c882ce","system_id":"levelo_inurba_marseille","lat":43.29045,"lon":5.39958,"is_reserved":false,"is_disabled":false,"rental_uris":{"android":"levelo://app?vid=533cee33-1b4a-44e2-adb6-9c6026c882ce","ios":"levelo://app?vid=533cee33-1b4a-44e2-adb6-9c6026c882ce"},"vehicle_type_id":"4","last_reported":1729804103,"current_range_meters":28400,"station_id":"ce4bh392rcd13ifvqdm0","pricing_plan_id":"cebpf4jnsgd1na2vs0mg"},{"bike_id":"6fd4971a-db3f-4826-9ddf-71b29c3b9231","system_id":"levelo_inurba_marseille","lat":43.27818,"lon":5.4071,"is_reserved":false,"is_disabled":false,"rental_uris":{"android":"levelo://app?vid=6fd4971a-db3f-4826-9ddf-71b29c3b9231","ios":"levelo://app?vid=6fd4971a-db3f-4826-9ddf-71b29c3b9231"},"vehicle_type_id":"4","last_reported":1729804103,"current_range_meters":18000,"station_id":"ce4bhnh2rcd13ifvqgtg","pricing_plan_id":"cebpf4jnsgd1na2vs0mg"},{"bike_id":"52f0e4a5-d535-4f96-b297-18be6815ac33","system_id":"levelo_inurba_marseille","lat":43.337211,"lon":5.391905,"is_reserved":false,"is_disabled":false,"rental_uris":{"android":"levelo://app?vid=52f0e4a5-d535-4f96-b297-18be6815ac33","ios":"levelo://app?vid=52f0e4a5-d535-4f96-b297-18be6815ac33"},"vehicle_type_id":"4","last_reported":1729804103,"current_range_meters":39200,"station_id":"ce4bhr92rcd13ifvqhsg","pricing_plan_id":"cebpf4jnsgd1na2vs0mg"},{"bike_id":"754334dc-7c77-42cd-ae7c-2bd7ea4eeedc","system_id":"levelo_inurba_marseille","lat":43.25097,"lon":5.39515,"is_reserved":false,"is_disabled":false,"rental_uris":{"android":"levelo://app?vid=754334dc-7c77-42cd-ae7c-2bd7ea4eeedc","ios":"levelo://app?vid=754334dc-7c77-42cd-ae7c-2bd7ea4eeedc"},"vehicle_type_id":"4","last_reported":1729804103,"current_range_meters":32000,"station_id":"ce4bhm12rcd13ifvqgkg","pricing_plan_id":"cebpf4jnsgd1na2vs0mg"},{"bike_id":"ddc9d34a-3a18-4656-afac-2c40e00335c6","system_id":"levelo_inurba_marseille","lat":43.26488,"lon":5.39557,"is_reserved":false,"is_disabled":false,"rental_uris":{"android":"levelo://app?vid=ddc9d34a-3a18-4656-afac-2c40e00335c6","ios":"levelo://app?vid=ddc9d34a-3a18-4656-afac-2c40e00335c6"},"vehicle_type_id":"4","last_reported":1729804103,"current_range_meters":16400,"station_id":"ce4bhi12rcd13ifvqfq0","pricing_plan_id":"cebpf4jnsgd1na2vs0mg"},{"bike_id":"d37cba89-3fc3-4358-bb6c-e8615b9a7d88","system_id":"levelo_inurba_marseille","lat":43.26554,"lon":5.37286,"is_reserved":false,"is_disabled":false,"rental_uris":{"android":"levelo://app?vid=d37cba89-3fc3-4358-bb6c-e8615b9a7d88","ios":"levelo://app?vid=d37cba89-3fc3-4358-bb6c-e8615b9a7d88"},"vehicle_type_id":"4","last_reported":1729804103,"current_range_meters":32800,"station_id":"ce4bhg12rcd13ifvqf70","pricing_plan_id":"cebpf4jnsgd1na2vs0mg"},{"bike_id":"9037cf40-4cd2-48a0-924f-d2172f0fabb6","system_id":"levelo_inurba_marseille","lat":43.2942,"lon":5.3861,"is_reserved":false,"is_disabled":false,"rental_uris":{"android":"levelo://app?vid=9037cf40-4cd2-48a0-924f-d2172f0fabb6","ios":"levelo://app?vid=9037cf40-4cd2-48a0-924f-d2172f0fabb6"},"vehicle_type_id":"4","last_reported":1729804103,"current_range_meters":31200,"station_id":"ce4bh2h2rcd13ifvqdh0","pricing_plan_id":"cebpf4jnsgd1na2vs0mg"},{"bike_id":"468ad6cc-f9dc-49ae-bd8e-640c0182f146","system_id":"levelo_inurba_marseille","lat":43.2953,"lon":5.38534,"is_reserved":false,"is_disabled":false,"rental_uris":{"android":"levelo://app?vid=468ad6cc-f9dc-49ae-bd8e-640c0182f146","ios":"levelo://app?vid=468ad6cc-f9dc-49ae-bd8e-640c0182f146"},"vehicle_type_id":"4","last_reported":1729804103,"current_range_meters":12400,"station_id":"ce4bgih2rcd13ifvqba0","pricing_plan_id":"cebpf4jnsgd1na2vs0mg"},{"bike_id":"99bb2094-88fa-42cc-a5cf-b8426df07a9f","system_id":"levelo_inurba_marseille","lat":43.28461,"lon":5.35885,"is_reserved":false,"is_disabled":false,"rental_uris":{"android":"levelo://app?vid=99bb2094-88fa-42cc-a5cf-b8426df07a9f","ios":"levelo://app?vid=99bb2094-88fa-42cc-a5cf-b8426df07a9f"},"vehicle_type_id":"4","last_reported":1729804103,"current_range_meters":6000,"station_id":"ce4bhah2rcd13ifvqei0","pricing_plan_id":"cebpf4jnsgd1na2vs0mg"},{"bike_id":"0de09ea7-d428-4e7c-8971-f54aa3edc19b","system_id":"levelo_inurba_marseille","lat":43.29876,"lon":5.3973,"is_reserved":false,"is_disabled":false,"rental_uris":{"android":"levelo://app?vid=0de09ea7-d428-4e7c-8971-f54aa3edc19b","ios":"levelo://app?vid=0de09ea7-d428-4e7c-8971-f54aa3edc19b"},"vehicle_type_id":"4","last_reported":1729804103,"current_range_meters":38400,"station_id":"ce4bh0h2rcd13ifvqd50","pricing_plan_id":"cebpf4jnsgd1na2vs0mg"},{"bike_id":"221e5552-19db-448a-a918-2b8bb19e6034","system_id":"levelo_inurba_marseille","lat":43.27175,"lon":5.40996,"is_reserved":false,"is_disabled":false,"rental_uris":{"android":"levelo://app?vid=221e5552-19db-448a-a918-2b8bb19e6034","ios":"levelo://app?vid=221e5552-19db-448a-a918-2b8bb19e6034"},"vehicle_type_id":"4","last_reported":1729804103,"current_range_meters":22800,"station_id":"ce4bhl12rcd13ifvqgf0","pricing_plan_id":"cebpf4jnsgd1na2vs0mg"},{"bike_id":"feda9bc1-b886-4640-ad92-201ddc16513e","system_id":"levelo_inurba_marseille","lat":43.32292,"lon":5.38263,"is_reserved":false,"is_disabled":false,"rental_uris":{"android":"levelo://app?vid=feda9bc1-b886-4640-ad92-201ddc16513e","ios":"levelo://app?vid=feda9bc1-b886-4640-ad92-201ddc16513e"},"vehicle_type_id":"4","last_reported":1729804103,"current_range_meters":38800,"station_id":"ce4bhr12rcd13ifvqhqg","pricing_plan_id":"cebpf4jnsgd1na2vs0mg"},{"bike_id":"23fb4691-645c-46c3-83cf-1c54445797c5","system_id":"levelo_inurba_marseille","lat":43.27175,"lon":5.40995,"is_reserved":false,"is_disabled":false,"rental_uris":{"android":"levelo://app?vid=23fb4691-645c-46c3-83cf-1c54445797c5","ios":"levelo://app?vid=23fb4691-645c-46c3-83cf-1c54445797c5"},"vehicle_type_id":"4","last_reported":1729804103,"current_range_meters":32000,"station_id":"ce4bhl12rcd13ifvqgf0","pricing_plan_id":"cebpf4jnsgd1na2vs0mg"},{"bike_id":"ed44a23e-0265-42c6-be61-e59899756a3b","system_id":"levelo_inurba_marseille","lat":43.30458,"lon":5.37882,"is_reserved":false,"is_disabled":false,"rental_uris":{"android":"levelo://app?vid=ed44a23e-0265-42c6-be61-e59899756a3b","ios":"levelo://app?vid=ed44a23e-0265-42c6-be61-e59899756a3b"},"vehicle_type_id":"4","last_reported":1729804103,"current_range_meters":36800,"station_id":"ce4bgup2rcd13ifvqcn0","pricing_plan_id":"cebpf4jnsgd1na2vs0mg"},{"bike_id":"b36ccac8-e472-4aad-b5bc-d18c421c5d3c","system_id":"levelo_inurba_marseille","lat":43.30319,"lon":5.36901,"is_reserved":false,"is_disabled":false,"rental_uris":{"android":"levelo://app?vid=b36ccac8-e472-4aad-b5bc-d18c421c5d3c","ios":"levelo://app?vid=b36ccac8-e472-4aad-b5bc-d18c421c5d3c"},"vehicle_type_id":"4","last_reported":1729804103,"current_range_meters":38800,"station_id":"ce4bgqh2rcd13ifvqc5g","pricing_plan_id":"cebpf4jnsgd1na2vs0mg"},{"bike_id":"7a86b841-3807-4574-ba92-5397b4d1c9ad","system_id":"levelo_inurba_marseille","lat":43.30796,"lon":5.38158,"is_reserved":false,"is_disabled":false,"rental_uris":{"android":"levelo://app?vid=7a86b841-3807-4574-ba92-5397b4d1c9ad","ios":"levelo://app?vid=7a86b841-3807-4574-ba92-5397b4d1c9ad"},"vehicle_type_id":"4","last_reported":1729804103,"current_range_meters":26000,"station_id":"ce4bgt12rcd13ifvqce0","pricing_plan_id":"cebpf4jnsgd1na2vs0mg"},{"bike_id":"479c609a-968f-4219-9060-83b448734e72","system_id":"levelo_inurba_marseille","lat":43.29423,"lon":5.38612,"is_reserved":false,"is_disabled":false,"rental_uris":{"android":"levelo://app?vid=479c609a-968f-4219-9060-83b448734e72","ios":"levelo://app?vid=479c609a-968f-4219-9060-83b448734e72"},"vehicle_type_id":"4","last_reported":1729804103,"current_range_meters":38800,"station_id":"ce4bh2h2rcd13ifvqdh0","pricing_plan_id":"cebpf4jnsgd1na2vs0mg"},{"bike_id":"8868fcb3-96df-4263-9338-577d1c0797d2","system_id":"levelo_inurba_marseille","lat":43.29631,"lon":5.40584,"is_reserved":false,"is_disabled":false,"rental_uris":{"android":"levelo://app?vid=8868fcb3-96df-4263-9338-577d1c0797d2","ios":"levelo://app?vid=8868fcb3-96df-4263-9338-577d1c0797d2"},"vehicle_type_id":"4","last_reported":1729804103,"current_range_meters":37600,"station_id":"ce4bh0h2rcd13ifvqd60","pricing_plan_id":"cebpf4jnsgd1na2vs0mg"},{"bike_id":"ea2726c6-5b31-4984-a9f4-a0fa939a1e8d","system_id":"levelo_inurba_marseille","lat":43.293976,"lon":5.386607,"is_reserved":false,"is_disabled":false,"rental_uris":{"android":"levelo://app?vid=ea2726c6-5b31-4984-a9f4-a0fa939a1e8d","ios":"levelo://app?vid=ea2726c6-5b31-4984-a9f4-a0fa939a1e8d"},"vehicle_type_id":"4","last_reported":1729804103,"current_range_meters":37600,"station_id":"ce4bh2h2rcd13ifvqdh0","pricing_plan_id":"cebpf4jnsgd1na2vs0mg"},{"bike_id":"ed7871e6-6d36-4ef6-add3-59511b26fb6a","system_id":"levelo_inurba_marseille","lat":43.27962,"lon":5.41034,"is_reserved":false,"is_disabled":false,"rental_uris":{"android":"levelo://app?vid=ed7871e6-6d36-4ef6-add3-59511b26fb6a","ios":"levelo://app?vid=ed7871e6-6d36-4ef6-add3-59511b26fb6a"},"vehicle_type_id":"4","last_reported":1729804103,"current_range_meters":38800,"station_id":"ce4bhnp2rcd13ifvqh0g","pricing_plan_id":"cebpf4jnsgd1na2vs0mg"},{"bike_id":"f7b10335-b1e5-44c4-8462-74872a620f0c","system_id":"levelo_inurba_marseille","lat":43.28475,"lon":5.38425,"is_reserved":false,"is_disabled":false,"rental_uris":{"android":"levelo://app?vid=f7b10335-b1e5-44c4-8462-74872a620f0c","ios":"levelo://app?vid=f7b10335-b1e5-44c4-8462-74872a620f0c"},"vehicle_type_id":"4","last_reported":1729804103,"current_range_meters":9200,"station_id":"ce4bh512rcd13ifvqe3g","pricing_plan_id":"cebpf4jnsgd1na2vs0mg"},{"bike_id":"7691659f-eea1-4b4d-8db5-2728fcde3a23","system_id":"levelo_inurba_marseille","lat":43.3059,"lon":5.37485,"is_reserved":false,"is_disabled":false,"rental_uris":{"android":"levelo://app?vid=7691659f-eea1-4b4d-8db5-2728fcde3a23","ios":"levelo://app?vid=7691659f-eea1-4b4d-8db5-2728fcde3a23"},"vehicle_type_id":"4","last_reported":1729804103,"current_range_meters":27200,"station_id":"ce4bhr12rcd13ifvqhqg","pricing_plan_id":"cebpf4jnsgd1na2vs0mg"},{"bike_id":"91479232-2ac0-4400-bb25-e592d9faa594","system_id":"levelo_inurba_marseille","lat":43.28054,"lon":5.39708,"is_reserved":false,"is_disabled":false,"rental_uris":{"android":"levelo://app?vid=91479232-2ac0-4400-bb25-e592d9faa594","ios":"levelo://app?vid=91479232-2ac0-4400-bb25-e592d9faa594"},"vehicle_type_id":"4","last_reported":1729804103,"current_range_meters":32000,"station_id":"ce4bho12rcd13ifvqh2g","pricing_plan_id":"cebpf4jnsgd1na2vs0mg"},{"bike_id":"b3c5c80d-fb10-447a-a7ae-9e83cf2e8853","system_id":"levelo_inurba_marseille","lat":43.279565,"lon":5.410403,"is_reserved":false,"is_disabled":false,"rental_uris":{"android":"levelo://app?vid=b3c5c80d-fb10-447a-a7ae-9e83cf2e8853","ios":"levelo://app?vid=b3c5c80d-fb10-447a-a7ae-9e83cf2e8853"},"vehicle_type_id":"4","last_reported":1729804103,"current_range_meters":28000,"station_id":"ce4bhnp2rcd13ifvqh0g","pricing_plan_id":"cebpf4jnsgd1na2vs0mg"},{"bike_id":"02578664-e44d-44a9-8726-802680ea0dbf","system_id":"levelo_inurba_marseille","lat":43.25086,"lon":5.3952,"is_reserved":false,"is_disabled":false,"rental_uris":{"android":"levelo://app?vid=02578664-e44d-44a9-8726-802680ea0dbf","ios":"levelo://app?vid=02578664-e44d-44a9-8726-802680ea0dbf"},"vehicle_type_id":"4","last_reported":1729804103,"current_range_meters":38800,"station_id":"ce4bhm12rcd13ifvqgkg","pricing_plan_id":"cebpf4jnsgd1na2vs0mg"},{"bike_id":"d9bd67b1-0c85-4cf7-bec8-f00414e9e126","system_id":"levelo_inurba_marseille","lat":43.25871,"lon":5.39895,"is_reserved":false,"is_disabled":false,"rental_uris":{"android":"levelo://app?vid=d9bd67b1-0c85-4cf7-bec8-f00414e9e126","ios":"levelo://app?vid=d9bd67b1-0c85-4cf7-bec8-f00414e9e126"},"vehicle_type_id":"4","last_reported":1729804103,"current_range_meters":38800,"station_id":"ce4bhl92rcd13ifvqghg","pricing_plan_id":"cebpf4jnsgd1na2vs0mg"},{"bike_id":"c5fdd51e-bd68-4e04-98c1-0ab5b1dc801f","system_id":"levelo_inurba_marseille","lat":43.24806,"lon":5.37456,"is_reserved":false,"is_disabled":false,"rental_uris":{"android":"levelo://app?vid=c5fdd51e-bd68-4e04-98c1-0ab5b1dc801f","ios":"levelo://app?vid=c5fdd51e-bd68-4e04-98c1-0ab5b1dc801f"},"vehicle_type_id":"4","last_reported":1729804103,"current_range_meters":17600,"station_id":"ce4bhgh2rcd13ifvqfb0","pricing_plan_id":"cebpf4jnsgd1na2vs0mg"},{"bike_id":"59519303-478b-4b2d-a90c-6f27e032214e","system_id":"levelo_inurba_marseille","lat":43.31283,"lon":5.4017,"is_reserved":false,"is_disabled":false,"rental_uris":{"android":"levelo://app?vid=59519303-478b-4b2d-a90c-6f27e032214e","ios":"levelo://app?vid=59519303-478b-4b2d-a90c-6f27e032214e"},"vehicle_type_id":"4","last_reported":1729804103,"current_range_meters":38800,"station_id":"ce4bh092rcd13ifvqd30","pricing_plan_id":"cebpf4jnsgd1na2vs0mg"},{"bike_id":"f6725a65-3f44-453e-9350-d809f9d15454","system_id":"levelo_inurba_marseille","lat":43.29424,"lon":5.38616,"is_reserved":false,"is_disabled":false,"rental_uris":{"android":"levelo://app?vid=f6725a65-3f44-453e-9350-d809f9d15454","ios":"levelo://app?vid=f6725a65-3f44-453e-9350-d809f9d15454"},"vehicle_type_id":"4","last_reported":1729804103,"current_range_meters":16400,"station_id":"ce4bh2h2rcd13ifvqdh0","pricing_plan_id":"cebpf4jnsgd1na2vs0mg"},{"bike_id":"69aff970-6d41-4a17-af1e-a03538c5667f","system_id":"levelo_inurba_marseille","lat":43.24073,"lon":5.37765,"is_reserved":false,"is_disabled":false,"rental_uris":{"android":"levelo://app?vid=69aff970-6d41-4a17-af1e-a03538c5667f","ios":"levelo://app?vid=69aff970-6d41-4a17-af1e-a03538c5667f"},"vehicle_type_id":"4","last_reported":1729804103,"current_range_meters":36800,"station_id":"ce4bhnp2rcd13ifvqgvg","pricing_plan_id":"cebpf4jnsgd1na2vs0mg"},{"bike_id":"3e8fc805-2db5-4f99-829d-6f9d84dcaf72","system_id":"levelo_inurba_marseille","lat":43.25503,"lon":5.37651,"is_reserved":false,"is_disabled":false,"rental_uris":{"android":"levelo://app?vid=3e8fc805-2db5-4f99-829d-6f9d84dcaf72","ios":"levelo://app?vid=3e8fc805-2db5-4f99-829d-6f9d84dcaf72"},"vehicle_type_id":"4","last_reported":1729804103,"current_range_meters":34000,"station_id":"ce4bhh12rcd13ifvqff0","pricing_plan_id":"cebpf4jnsgd1na2vs0mg"},{"bike_id":"adb6c389-ce43-47b4-807d-369c494bed23","system_id":"levelo_inurba_marseille","lat":43.30806,"lon":5.38153,"is_reserved":false,"is_disabled":false,"rental_uris":{"android":"levelo://app?vid=adb6c389-ce43-47b4-807d-369c494bed23","ios":"levelo://app?vid=adb6c389-ce43-47b4-807d-369c494bed23"},"vehicle_type_id":"4","last_reported":1729804103,"current_range_meters":31200,"station_id":"ce4bgt12rcd13ifvqce0","pricing_plan_id":"cebpf4jnsgd1na2vs0mg"},{"bike_id":"c7a2d2dc-21e7-4995-be3c-480889eb3dfc","system_id":"levelo_inurba_marseille","lat":43.255,"lon":5.37645,"is_reserved":false,"is_disabled":false,"rental_uris":{"android":"levelo://app?vid=c7a2d2dc-21e7-4995-be3c-480889eb3dfc","ios":"levelo://app?vid=c7a2d2dc-21e7-4995-be3c-480889eb3dfc"},"vehicle_type_id":"4","last_reported":1729804103,"current_range_meters":9600,"station_id":"ce4bhh12rcd13ifvqff0","pricing_plan_id":"cebpf4jnsgd1na2vs0mg"},{"bike_id":"66f020ae-5526-4ad0-8af9-6a968240ac52","system_id":"levelo_inurba_marseille","lat":43.324809,"lon":5.365808,"is_reserved":false,"is_disabled":false,"rental_uris":{"android":"levelo://app?vid=66f020ae-5526-4ad0-8af9-6a968240ac52","ios":"levelo://app?vid=66f020ae-5526-4ad0-8af9-6a968240ac52"},"vehicle_type_id":"4","last_reported":1729804103,"current_range_meters":38800,"station_id":"ce4bhs12rcd13ifvqhvg","pricing_plan_id":"cebpf4jnsgd1na2vs0mg"},{"bike_id":"63c9eba0-6c7c-4c00-a179-677b5fc07378","system_id":"levelo_inurba_marseille","lat":43.24072,"lon":5.37747,"is_reserved":false,"is_disabled":false,"rental_uris":{"android":"levelo://app?vid=63c9eba0-6c7c-4c00-a179-677b5fc07378","ios":"levelo://app?vid=63c9eba0-6c7c-4c00-a179-677b5fc07378"},"vehicle_type_id":"4","last_reported":1729804103,"current_range_meters":36400,"station_id":"ce4bhnp2rcd13ifvqgvg","pricing_plan_id":"cebpf4jnsgd1na2vs0mg"},{"bike_id":"97ec344c-b798-43c2-b569-284527c7dc58","system_id":"levelo_inurba_marseille","lat":43.32488,"lon":5.36499,"is_reserved":false,"is_disabled":false,"rental_uris":{"android":"levelo://app?vid=97ec344c-b798-43c2-b569-284527c7dc58","ios":"levelo://app?vid=97ec344c-b798-43c2-b569-284527c7dc58"},"vehicle_type_id":"4","last_reported":1729804103,"current_range_meters":6000,"station_id":"ce4bhs12rcd13ifvqhvg","pricing_plan_id":"cebpf4jnsgd1na2vs0mg"},{"bike_id":"d897818e-a5c8-4458-9452-797090737b17","system_id":"levelo_inurba_marseille","lat":43.28155,"lon":5.42639,"is_reserved":false,"is_disabled":false,"rental_uris":{"android":"levelo://app?vid=d897818e-a5c8-4458-9452-797090737b17","ios":"levelo://app?vid=d897818e-a5c8-4458-9452-797090737b17"},"vehicle_type_id":"4","last_reported":1729804103,"current_range_meters":38800,"station_id":"ce4bhnh2rcd13ifvqgug","pricing_plan_id":"cebpf4jnsgd1na2vs0mg"},{"bike_id":"64304cc7-d71a-48f6-bbfd-1dc94814936a","system_id":"levelo_inurba_marseille","lat":43.29992,"lon":5.37176,"is_reserved":false,"is_disabled":false,"rental_uris":{"android":"levelo://app?vid=64304cc7-d71a-48f6-bbfd-1dc94814936a","ios":"levelo://app?vid=64304cc7-d71a-48f6-bbfd-1dc94814936a"},"vehicle_type_id":"4","last_reported":1729804103,"current_range_meters":6800,"station_id":"ce4bgr92rcd13ifvqc7g","pricing_plan_id":"cebpf4jnsgd1na2vs0mg"},{"bike_id":"f5d2ca1e-0ed9-4331-bede-16b76d88db90","system_id":"levelo_inurba_marseille","lat":43.3361,"lon":5.41023,"is_reserved":false,"is_disabled":false,"rental_uris":{"android":"levelo://app?vid=f5d2ca1e-0ed9-4331-bede-16b76d88db90","ios":"levelo://app?vid=f5d2ca1e-0ed9-4331-bede-16b76d88db90"},"vehicle_type_id":"4","last_reported":1729804103,"current_range_meters":38800,"station_id":"ce4bhqh2rcd13ifvqhmg","pricing_plan_id":"cebpf4jnsgd1na2vs0mg"},{"bike_id":"fe80c4c5-b946-4e64-8970-ebe5ece9df34","system_id":"levelo_inurba_marseille","lat":43.239672,"lon":5.366232,"is_reserved":false,"is_disabled":false,"rental_uris":{"android":"levelo://app?vid=fe80c4c5-b946-4e64-8970-ebe5ece9df34","ios":"levelo://app?vid=fe80c4c5-b946-4e64-8970-ebe5ece9df34"},"vehicle_type_id":"4","last_reported":1729804103,"current_range_meters":33600,"station_id":"ce4bhi12rcd13ifvqfp0","pricing_plan_id":"cebpf4jnsgd1na2vs0mg"},{"bike_id":"2c0aa87e-fa2f-4098-84f4-7aa1c8a5f9ba","system_id":"levelo_inurba_marseille","lat":43.29841,"lon":5.36267,"is_reserved":false,"is_disabled":false,"rental_uris":{"android":"levelo://app?vid=2c0aa87e-fa2f-4098-84f4-7aa1c8a5f9ba","ios":"levelo://app?vid=2c0aa87e-fa2f-4098-84f4-7aa1c8a5f9ba"},"vehicle_type_id":"4","last_reported":1729804103,"current_range_meters":38000,"station_id":"ce4bgpp2rcd13ifvqc3g","pricing_plan_id":"cebpf4jnsgd1na2vs0mg"},{"bike_id":"a886a5f1-49b3-4a8d-8591-567825939b8c","system_id":"levelo_inurba_marseille","lat":43.27998,"lon":5.4002,"is_reserved":false,"is_disabled":false,"rental_uris":{"android":"levelo://app?vid=a886a5f1-49b3-4a8d-8591-567825939b8c","ios":"levelo://app?vid=a886a5f1-49b3-4a8d-8591-567825939b8c"},"vehicle_type_id":"4","last_reported":1729804103,"current_range_meters":31200,"station_id":"ce4bho92rcd13ifvqh4g","pricing_plan_id":"cebpf4jnsgd1na2vs0mg"},{"bike_id":"0bc90dc2-cf8c-457e-a6aa-9b91de95f992","system_id":"levelo_inurba_marseille","lat":43.22766,"lon":5.41577,"is_reserved":false,"is_disabled":false,"rental_uris":{"android":"levelo://app?vid=0bc90dc2-cf8c-457e-a6aa-9b91de95f992","ios":"levelo://app?vid=0bc90dc2-cf8c-457e-a6aa-9b91de95f992"},"vehicle_type_id":"4","last_reported":1729804103,"current_range_meters":30800,"station_id":"","pricing_plan_id":"cebpf4jnsgd1na2vs0mg"},{"bike_id":"082e2a0f-744d-4193-aa51-84d41e9426e8","system_id":"levelo_inurba_marseille","lat":43.31372,"lon":5.38485,"is_reserved":false,"is_disabled":false,"rental_uris":{"android":"levelo://app?vid=082e2a0f-744d-4193-aa51-84d41e9426e8","ios":"levelo://app?vid=082e2a0f-744d-4193-aa51-84d41e9426e8"},"vehicle_type_id":"4","last_reported":1729804103,"current_range_meters":7200,"station_id":"ce4bgt92rcd13ifvqcf0","pricing_plan_id":"cebpf4jnsgd1na2vs0mg"},{"bike_id":"e70c176b-c6eb-4b78-a35a-4c41e41b0ea7","system_id":"levelo_inurba_marseille","lat":43.29312,"lon":5.37181,"is_reserved":false,"is_disabled":false,"rental_uris":{"android":"levelo://app?vid=e70c176b-c6eb-4b78-a35a-4c41e41b0ea7","ios":"levelo://app?vid=e70c176b-c6eb-4b78-a35a-4c41e41b0ea7"},"vehicle_type_id":"4","last_reported":1729804103,"current_range_meters":30000,"station_id":"ce4bgh92rcd13ifvqb40","pricing_plan_id":"cebpf4jnsgd1na2vs0mg"},{"bike_id":"28709b84-b83d-46ed-8adb-237970d4384b","system_id":"levelo_inurba_marseille","lat":43.32369,"lon":5.38887,"is_reserved":false,"is_disabled":false,"rental_uris":{"android":"levelo://app?vid=28709b84-b83d-46ed-8adb-237970d4384b","ios":"levelo://app?vid=28709b84-b83d-46ed-8adb-237970d4384b"},"vehicle_type_id":"4","last_reported":1729804103,"current_range_meters":29600,"station_id":"ce4bhqp2rcd13ifvqhog","pricing_plan_id":"cebpf4jnsgd1na2vs0mg"},{"bike_id":"49fb16d2-6117-4fe1-9256-68ae1d341abd","system_id":"levelo_inurba_marseille","lat":43.28154,"lon":5.42649,"is_reserved":false,"is_disabled":false,"rental_uris":{"android":"levelo://app?vid=49fb16d2-6117-4fe1-9256-68ae1d341abd","ios":"levelo://app?vid=49fb16d2-6117-4fe1-9256-68ae1d341abd"},"vehicle_type_id":"4","last_reported":1729804103,"current_range_meters":23200,"station_id":"ce4bhnh2rcd13ifvqgug","pricing_plan_id":"cebpf4jnsgd1na2vs0mg"},{"bike_id":"a2473142-94f8-49f6-a40b-21cfc06b5795","system_id":"levelo_inurba_marseille","lat":43.26212,"lon":5.37927,"is_reserved":false,"is_disabled":false,"rental_uris":{"android":"levelo://app?vid=a2473142-94f8-49f6-a40b-21cfc06b5795","ios":"levelo://app?vid=a2473142-94f8-49f6-a40b-21cfc06b5795"},"vehicle_type_id":"4","last_reported":1729804103,"current_range_meters":33200,"station_id":"ce4bhjp2rcd13ifvqg90","pricing_plan_id":"cebpf4jnsgd1na2vs0mg"},{"bike_id":"97016870-edf0-4ee6-8329-29a4610e4f6d","system_id":"levelo_inurba_marseille","lat":43.29424,"lon":5.38621,"is_reserved":false,"is_disabled":false,"rental_uris":{"android":"levelo://app?vid=97016870-edf0-4ee6-8329-29a4610e4f6d","ios":"levelo://app?vid=97016870-edf0-4ee6-8329-29a4610e4f6d"},"vehicle_type_id":"4","last_reported":1729804103,"current_range_meters":14000,"station_id":"ce4bh2h2rcd13ifvqdh0","pricing_plan_id":"cebpf4jnsgd1na2vs0mg"},{"bike_id":"3d814bc8-7cde-42dc-be31-b3ae59f20bd8","system_id":"levelo_inurba_marseille","lat":43.30812,"lon":5.39633,"is_reserved":false,"is_disabled":false,"rental_uris":{"android":"levelo://app?vid=3d814bc8-7cde-42dc-be31-b3ae59f20bd8","ios":"levelo://app?vid=3d814bc8-7cde-42dc-be31-b3ae59f20bd8"},"vehicle_type_id":"4","last_reported":1729804103,"current_range_meters":32000,"station_id":"","pricing_plan_id":"cebpf4jnsgd1na2vs0mg"},{"bike_id":"17d26440-6a79-44d0-9a59-4938b86a1f94","system_id":"levelo_inurba_marseille","lat":43.30418,"lon":5.41288,"is_reserved":false,"is_disabled":false,"rental_uris":{"android":"levelo://app?vid=17d26440-6a79-44d0-9a59-4938b86a1f94","ios":"levelo://app?vid=17d26440-6a79-44d0-9a59-4938b86a1f94"},"vehicle_type_id":"4","last_reported":1729804103,"current_range_meters":38800,"station_id":"ce4bhop2rcd13ifvqh8g","pricing_plan_id":"cebpf4jnsgd1na2vs0mg"},{"bike_id":"b6e5dac2-9b52-485f-b66b-c2ea8fb78c37","system_id":"levelo_inurba_marseille","lat":43.29424,"lon":5.38621,"is_reserved":false,"is_disabled":false,"rental_uris":{"android":"levelo://app?vid=b6e5dac2-9b52-485f-b66b-c2ea8fb78c37","ios":"levelo://app?vid=b6e5dac2-9b52-485f-b66b-c2ea8fb78c37"},"vehicle_type_id":"4","last_reported":1729804103,"current_range_meters":38400,"station_id":"ce4bh2h2rcd13ifvqdh0","pricing_plan_id":"cebpf4jnsgd1na2vs0mg"},{"bike_id":"bd5f543b-631a-4779-84a7-4fc8f4e3e413","system_id":"levelo_inurba_marseille","lat":43.26556,"lon":5.3728,"is_reserved":false,"is_disabled":false,"rental_uris":{"android":"levelo://app?vid=bd5f543b-631a-4779-84a7-4fc8f4e3e413","ios":"levelo://app?vid=bd5f543b-631a-4779-84a7-4fc8f4e3e413"},"vehicle_type_id":"4","last_reported":1729804103,"current_range_meters":6000,"station_id":"ce4bhg12rcd13ifvqf70","pricing_plan_id":"cebpf4jnsgd1na2vs0mg"},{"bike_id":"39b402ac-4a50-4ab1-9bf5-5bc680f6c2cf","system_id":"levelo_inurba_marseille","lat":43.28723,"lon":5.37939,"is_reserved":false,"is_disabled":false,"rental_uris":{"android":"levelo://app?vid=39b402ac-4a50-4ab1-9bf5-5bc680f6c2cf","ios":"levelo://app?vid=39b402ac-4a50-4ab1-9bf5-5bc680f6c2cf"},"vehicle_type_id":"4","last_reported":1729804103,"current_range_meters":2000,"station_id":"ce4bh9p2rcd13ifvqec0","pricing_plan_id":"cebpf4jnsgd1na2vs0mg"},{"bike_id":"356044bf-0c96-4402-90d6-c5c73e94d11c","system_id":"levelo_inurba_marseille","lat":43.2927,"lon":5.38444,"is_reserved":false,"is_disabled":false,"rental_uris":{"android":"levelo://app?vid=356044bf-0c96-4402-90d6-c5c73e94d11c","ios":"levelo://app?vid=356044bf-0c96-4402-90d6-c5c73e94d11c"},"vehicle_type_id":"4","last_reported":1729804103,"current_range_meters":26000,"station_id":"ce4bh692rcd13ifvqea0","pricing_plan_id":"cebpf4jnsgd1na2vs0mg"},{"bike_id":"bfc9c85d-34bf-4429-900f-759b9b780caf","system_id":"levelo_inurba_marseille","lat":43.28006,"lon":5.40005,"is_reserved":false,"is_disabled":false,"rental_uris":{"android":"levelo://app?vid=bfc9c85d-34bf-4429-900f-759b9b780caf","ios":"levelo://app?vid=bfc9c85d-34bf-4429-900f-759b9b780caf"},"vehicle_type_id":"4","last_reported":1729804103,"current_range_meters":38800,"station_id":"ce4bho92rcd13ifvqh4g","pricing_plan_id":"cebpf4jnsgd1na2vs0mg"},{"bike_id":"36856ec2-b80b-4ae8-abff-10088c18f7e8","system_id":"levelo_inurba_marseille","lat":43.24167,"lon":5.36398,"is_reserved":false,"is_disabled":false,"rental_uris":{"android":"levelo://app?vid=36856ec2-b80b-4ae8-abff-10088c18f7e8","ios":"levelo://app?vid=36856ec2-b80b-4ae8-abff-10088c18f7e8"},"vehicle_type_id":"4","last_reported":1729804103,"current_range_meters":38800,"station_id":"cpo36qri1sfpv3e86is0","pricing_plan_id":"cebpf4jnsgd1na2vs0mg"},{"bike_id":"d9ebfa44-9372-4017-a5c5-721a24441e7f","system_id":"levelo_inurba_marseille","lat":43.28349,"lon":5.38112,"is_reserved":false,"is_disabled":false,"rental_uris":{"android":"levelo://app?vid=d9ebfa44-9372-4017-a5c5-721a24441e7f","ios":"levelo://app?vid=d9ebfa44-9372-4017-a5c5-721a24441e7f"},"vehicle_type_id":"4","last_reported":1729804103,"current_range_meters":34000,"station_id":"ce4bh412rcd13ifvqdr0","pricing_plan_id":"cebpf4jnsgd1na2vs0mg"},{"bike_id":"97fd9a62-963c-450c-b76b-36e48aba6ce1","system_id":"levelo_inurba_marseille","lat":43.30892,"lon":5.39646,"is_reserved":false,"is_disabled":false,"rental_uris":{"android":"levelo://app?vid=97fd9a62-963c-450c-b76b-36e48aba6ce1","ios":"levelo://app?vid=97fd9a62-963c-450c-b76b-36e48aba6ce1"},"vehicle_type_id":"4","last_reported":1729804103,"current_range_meters":30000,"station_id":"ce4bh012rcd13ifvqcv0","pricing_plan_id":"cebpf4jnsgd1na2vs0mg"},{"bike_id":"79aa6d1e-cc6a-4105-91b5-13648ff11554","system_id":"levelo_inurba_marseille","lat":43.29264,"lon":5.38435,"is_reserved":false,"is_disabled":false,"rental_uris":{"android":"levelo://app?vid=79aa6d1e-cc6a-4105-91b5-13648ff11554","ios":"levelo://app?vid=79aa6d1e-cc6a-4105-91b5-13648ff11554"},"vehicle_type_id":"4","last_reported":1729804103,"current_range_meters":14000,"station_id":"ce4bh692rcd13ifvqea0","pricing_plan_id":"cebpf4jnsgd1na2vs0mg"},{"bike_id":"b3bdd056-bfea-46fe-b113-3460c5612cb7","system_id":"levelo_inurba_marseille","lat":43.2871,"lon":5.37388,"is_reserved":false,"is_disabled":false,"rental_uris":{"android":"levelo://app?vid=b3bdd056-bfea-46fe-b113-3460c5612cb7","ios":"levelo://app?vid=b3bdd056-bfea-46fe-b113-3460c5612cb7"},"vehicle_type_id":"4","last_reported":1729804103,"current_range_meters":36000,"station_id":"ce4bh3p2rcd13ifvqdq0","pricing_plan_id":"cebpf4jnsgd1na2vs0mg"},{"bike_id":"031c5151-6166-4e35-88c9-9b4ea040f799","system_id":"levelo_inurba_marseille","lat":43.30806,"lon":5.38144,"is_reserved":false,"is_disabled":false,"rental_uris":{"android":"levelo://app?vid=031c5151-6166-4e35-88c9-9b4ea040f799","ios":"levelo://app?vid=031c5151-6166-4e35-88c9-9b4ea040f799"},"vehicle_type_id":"4","last_reported":1729804103,"current_range_meters":24400,"station_id":"ce4bgt12rcd13ifvqce0","pricing_plan_id":"cebpf4jnsgd1na2vs0mg"},{"bike_id":"f4dc4e17-a54c-412d-8878-21b75345987c","system_id":"levelo_inurba_marseille","lat":43.309462,"lon":5.390158,"is_reserved":false,"is_disabled":false,"rental_uris":{"android":"levelo://app?vid=f4dc4e17-a54c-412d-8878-21b75345987c","ios":"levelo://app?vid=f4dc4e17-a54c-412d-8878-21b75345987c"},"vehicle_type_id":"4","last_reported":1729804103,"current_range_meters":6000,"station_id":"ce4bh0p2rcd13ifvqd80","pricing_plan_id":"cebpf4jnsgd1na2vs0mg"},{"bike_id":"365a5e76-e012-4983-b8a9-1a07480bde83","system_id":"levelo_inurba_marseille","lat":43.23191,"lon":5.35541,"is_reserved":false,"is_disabled":false,"rental_uris":{"android":"levelo://app?vid=365a5e76-e012-4983-b8a9-1a07480bde83","ios":"levelo://app?vid=365a5e76-e012-4983-b8a9-1a07480bde83"},"vehicle_type_id":"4","last_reported":1729804103,"current_range_meters":38800,"station_id":"ce4bhu92rcd13ifvqi70","pricing_plan_id":"cebpf4jnsgd1na2vs0mg"},{"bike_id":"17db3456-39ff-4575-a128-41332cbb0918","system_id":"levelo_inurba_marseille","lat":43.29872,"lon":5.3973,"is_reserved":false,"is_disabled":false,"rental_uris":{"android":"levelo://app?vid=17db3456-39ff-4575-a128-41332cbb0918","ios":"levelo://app?vid=17db3456-39ff-4575-a128-41332cbb0918"},"vehicle_type_id":"4","last_reported":1729804103,"current_range_meters":32800,"station_id":"ce4bh0h2rcd13ifvqd50","pricing_plan_id":"cebpf4jnsgd1na2vs0mg"},{"bike_id":"35e0991a-43e1-4c65-b377-1810a9616825","system_id":"levelo_inurba_marseille","lat":43.29529,"lon":5.38543,"is_reserved":false,"is_disabled":false,"rental_uris":{"android":"levelo://app?vid=35e0991a-43e1-4c65-b377-1810a9616825","ios":"levelo://app?vid=35e0991a-43e1-4c65-b377-1810a9616825"},"vehicle_type_id":"4","last_reported":1729804103,"current_range_meters":2000,"station_id":"ce4bgih2rcd13ifvqba0","pricing_plan_id":"cebpf4jnsgd1na2vs0mg"},{"bike_id":"6a79141b-22c2-4f73-9d7a-ee7148ee1bbf","system_id":"levelo_inurba_marseille","lat":43.24541,"lon":5.39517,"is_reserved":false,"is_disabled":false,"rental_uris":{"android":"levelo://app?vid=6a79141b-22c2-4f73-9d7a-ee7148ee1bbf","ios":"levelo://app?vid=6a79141b-22c2-4f73-9d7a-ee7148ee1bbf"},"vehicle_type_id":"4","last_reported":1729804103,"current_range_meters":38800,"station_id":"ce4bhlp2rcd13ifvqgjg","pricing_plan_id":"cebpf4jnsgd1na2vs0mg"},{"bike_id":"f417ea0d-341b-4a25-83f2-2b2d63ff817d","system_id":"levelo_inurba_marseille","lat":43.2841,"lon":5.37508,"is_reserved":false,"is_disabled":false,"rental_uris":{"android":"levelo://app?vid=f417ea0d-341b-4a25-83f2-2b2d63ff817d","ios":"levelo://app?vid=f417ea0d-341b-4a25-83f2-2b2d63ff817d"},"vehicle_type_id":"4","last_reported":1729804103,"current_range_meters":33600,"station_id":"ce4bh412rcd13ifvqds0","pricing_plan_id":"cebpf4jnsgd1na2vs0mg"},{"bike_id":"0dc3aa5c-4a13-49b4-9f58-9749e27ca2d0","system_id":"levelo_inurba_marseille","lat":43.27209,"lon":5.39188,"is_reserved":false,"is_disabled":false,"rental_uris":{"android":"levelo://app?vid=0dc3aa5c-4a13-49b4-9f58-9749e27ca2d0","ios":"levelo://app?vid=0dc3aa5c-4a13-49b4-9f58-9749e27ca2d0"},"vehicle_type_id":"4","last_reported":1729804103,"current_range_meters":19200,"station_id":"ce4bhhp2rcd13ifvqfm0","pricing_plan_id":"cebpf4jnsgd1na2vs0mg"},{"bike_id":"96b7fa33-9265-49c9-ad4c-7158c70bf481","system_id":"levelo_inurba_marseille","lat":43.31075,"lon":5.38341,"is_reserved":false,"is_disabled":false,"rental_uris":{"android":"levelo://app?vid=96b7fa33-9265-49c9-ad4c-7158c70bf481","ios":"levelo://app?vid=96b7fa33-9265-49c9-ad4c-7158c70bf481"},"vehicle_type_id":"4","last_reported":1729804103,"current_range_meters":3200,"station_id":"ce4bgv92rcd13ifvqcr0","pricing_plan_id":"cebpf4jnsgd1na2vs0mg"},{"bike_id":"d4c3f55d-fd45-4f78-9f7c-d19fe141e9b6","system_id":"levelo_inurba_marseille","lat":43.31058,"lon":5.40107,"is_reserved":false,"is_disabled":false,"rental_uris":{"android":"levelo://app?vid=d4c3f55d-fd45-4f78-9f7c-d19fe141e9b6","ios":"levelo://app?vid=d4c3f55d-fd45-4f78-9f7c-d19fe141e9b6"},"vehicle_type_id":"4","last_reported":1729804103,"current_range_meters":34000,"station_id":"ce4bhpp2rcd13ifvqhfg","pricing_plan_id":"cebpf4jnsgd1na2vs0mg"},{"bike_id":"62ae50a7-cff4-47ff-8401-e110f2bc4992","system_id":"levelo_inurba_marseille","lat":43.309435,"lon":5.390233,"is_reserved":false,"is_disabled":false,"rental_uris":{"android":"levelo://app?vid=62ae50a7-cff4-47ff-8401-e110f2bc4992","ios":"levelo://app?vid=62ae50a7-cff4-47ff-8401-e110f2bc4992"},"vehicle_type_id":"4","last_reported":1729804103,"current_range_meters":8800,"station_id":"ce4bhq12rcd13ifvqhig","pricing_plan_id":"cebpf4jnsgd1na2vs0mg"},{"bike_id":"e329f342-bebb-46cf-802e-487eede4ef5e","system_id":"levelo_inurba_marseille","lat":43.27563,"lon":5.38424,"is_reserved":false,"is_disabled":false,"rental_uris":{"android":"levelo://app?vid=e329f342-bebb-46cf-802e-487eede4ef5e","ios":"levelo://app?vid=e329f342-bebb-46cf-802e-487eede4ef5e"},"vehicle_type_id":"4","last_reported":1729804103,"current_range_meters":38400,"station_id":"ce4bhh92rcd13ifvqfi0","pricing_plan_id":"cebpf4jnsgd1na2vs0mg"},{"bike_id":"3ec8f797-b457-4b3e-8189-7d11d80a06b2","system_id":"levelo_inurba_marseille","lat":43.27617,"lon":5.36108,"is_reserved":false,"is_disabled":false,"rental_uris":{"android":"levelo://app?vid=3ec8f797-b457-4b3e-8189-7d11d80a06b2","ios":"levelo://app?vid=3ec8f797-b457-4b3e-8189-7d11d80a06b2"},"vehicle_type_id":"4","last_reported":1729804103,"current_range_meters":18000,"station_id":"ce4bgj92rcd13ifvqbe0","pricing_plan_id":"cebpf4jnsgd1na2vs0mg"},{"bike_id":"bd0fb11c-81e7-45db-a3bb-7471afbb37a6","system_id":"levelo_inurba_marseille","lat":43.30535,"lon":5.38421,"is_reserved":false,"is_disabled":false,"rental_uris":{"android":"levelo://app?vid=bd0fb11c-81e7-45db-a3bb-7471afbb37a6","ios":"levelo://app?vid=bd0fb11c-81e7-45db-a3bb-7471afbb37a6"},"vehicle_type_id":"4","last_reported":1729804103,"current_range_meters":36800,"station_id":"ce4bgg92rcd13ifvqb30","pricing_plan_id":"cebpf4jnsgd1na2vs0mg"},{"bike_id":"70893557-cc44-4001-9b68-e4f04b3694ad","system_id":"levelo_inurba_marseille","lat":43.28668,"lon":5.36353,"is_reserved":false,"is_disabled":false,"rental_uris":{"android":"levelo://app?vid=70893557-cc44-4001-9b68-e4f04b3694ad","ios":"levelo://app?vid=70893557-cc44-4001-9b68-e4f04b3694ad"},"vehicle_type_id":"4","last_reported":1729804103,"current_range_meters":35600,"station_id":"ce4bhah2rcd13ifvqej0","pricing_plan_id":"cebpf4jnsgd1na2vs0mg"},{"bike_id":"35c908c5-30cc-4b0d-90d5-b0081efedb9b","system_id":"levelo_inurba_marseille","lat":43.26556,"lon":5.37284,"is_reserved":false,"is_disabled":false,"rental_uris":{"android":"levelo://app?vid=35c908c5-30cc-4b0d-90d5-b0081efedb9b","ios":"levelo://app?vid=35c908c5-30cc-4b0d-90d5-b0081efedb9b"},"vehicle_type_id":"4","last_reported":1729804103,"current_range_meters":4400,"station_id":"ce4bhg12rcd13ifvqf70","pricing_plan_id":"cebpf4jnsgd1na2vs0mg"},{"bike_id":"9aa99984-3aab-4a38-a014-145c49eab468","system_id":"levelo_inurba_marseille","lat":43.24649,"lon":5.38891,"is_reserved":false,"is_disabled":false,"rental_uris":{"android":"levelo://app?vid=9aa99984-3aab-4a38-a014-145c49eab468","ios":"levelo://app?vid=9aa99984-3aab-4a38-a014-145c49eab468"},"vehicle_type_id":"4","last_reported":1729804103,"current_range_meters":17200,"station_id":"ce4bhg12rcd13ifvqf60","pricing_plan_id":"cebpf4jnsgd1na2vs0mg"},{"bike_id":"40ddc5b2-9f50-4dc0-93f3-8a7717761f5c","system_id":"levelo_inurba_marseille","lat":43.2932,"lon":5.45477,"is_reserved":false,"is_disabled":false,"rental_uris":{"android":"levelo://app?vid=40ddc5b2-9f50-4dc0-93f3-8a7717761f5c","ios":"levelo://app?vid=40ddc5b2-9f50-4dc0-93f3-8a7717761f5c"},"vehicle_type_id":"4","last_reported":1729804103,"current_range_meters":28400,"station_id":"","pricing_plan_id":"cebpf4jnsgd1na2vs0mg"},{"bike_id":"9c78078a-7e8b-4511-8541-a6915ed7654b","system_id":"levelo_inurba_marseille","lat":43.29532,"lon":5.38537,"is_reserved":false,"is_disabled":false,"rental_uris":{"android":"levelo://app?vid=9c78078a-7e8b-4511-8541-a6915ed7654b","ios":"levelo://app?vid=9c78078a-7e8b-4511-8541-a6915ed7654b"},"vehicle_type_id":"4","last_reported":1729804103,"current_range_meters":20400,"station_id":"ce4bgih2rcd13ifvqba0","pricing_plan_id":"cebpf4jnsgd1na2vs0mg"},{"bike_id":"15a2e371-395c-448c-9530-38c5a0a141a6","system_id":"levelo_inurba_marseille","lat":43.29213,"lon":5.39327,"is_reserved":false,"is_disabled":false,"rental_uris":{"android":"levelo://app?vid=15a2e371-395c-448c-9530-38c5a0a141a6","ios":"levelo://app?vid=15a2e371-395c-448c-9530-38c5a0a141a6"},"vehicle_type_id":"4","last_reported":1729804103,"current_range_meters":34800,"station_id":"ce4bh192rcd13ifvqdd0","pricing_plan_id":"cebpf4jnsgd1na2vs0mg"},{"bike_id":"7c1e729b-7c6a-4f7f-87cd-db2dd498acc3","system_id":"levelo_inurba_marseille","lat":43.25933,"lon":5.40899,"is_reserved":false,"is_disabled":false,"rental_uris":{"android":"levelo://app?vid=7c1e729b-7c6a-4f7f-87cd-db2dd498acc3","ios":"levelo://app?vid=7c1e729b-7c6a-4f7f-87cd-db2dd498acc3"},"vehicle_type_id":"4","last_reported":1729804103,"current_range_meters":25200,"station_id":"ce4bhm92rcd13ifvqglg","pricing_plan_id":"cebpf4jnsgd1na2vs0mg"},{"bike_id":"bb99c686-b07c-4af0-8837-e709a8664290","system_id":"levelo_inurba_marseille","lat":43.31073,"lon":5.38354,"is_reserved":false,"is_disabled":false,"rental_uris":{"android":"levelo://app?vid=bb99c686-b07c-4af0-8837-e709a8664290","ios":"levelo://app?vid=bb99c686-b07c-4af0-8837-e709a8664290"},"vehicle_type_id":"4","last_reported":1729804103,"current_range_meters":34000,"station_id":"ce4bgv92rcd13ifvqcr0","pricing_plan_id":"cebpf4jnsgd1na2vs0mg"},{"bike_id":"534c4532-53f4-4e3a-b75c-ff40e4b469a9","system_id":"levelo_inurba_marseille","lat":43.25826,"lon":5.39428,"is_reserved":false,"is_disabled":false,"rental_uris":{"android":"levelo://app?vid=534c4532-53f4-4e3a-b75c-ff40e4b469a9","ios":"levelo://app?vid=534c4532-53f4-4e3a-b75c-ff40e4b469a9"},"vehicle_type_id":"4","last_reported":1729804103,"current_range_meters":11200,"station_id":"ce4bhip2rcd13ifvqft0","pricing_plan_id":"cebpf4jnsgd1na2vs0mg"},{"bike_id":"906eeca1-2b61-43bd-94b9-463c51b44767","system_id":"levelo_inurba_marseille","lat":43.23962,"lon":5.36638,"is_reserved":false,"is_disabled":false,"rental_uris":{"android":"levelo://app?vid=906eeca1-2b61-43bd-94b9-463c51b44767","ios":"levelo://app?vid=906eeca1-2b61-43bd-94b9-463c51b44767"},"vehicle_type_id":"4","last_reported":1729804103,"current_range_meters":26000,"station_id":"ce4bhi12rcd13ifvqfp0","pricing_plan_id":"cebpf4jnsgd1na2vs0mg"},{"bike_id":"f79e61b3-2466-4684-8b40-d66eead92754","system_id":"levelo_inurba_marseille","lat":43.29057,"lon":5.35914,"is_reserved":false,"is_disabled":false,"rental_uris":{"android":"levelo://app?vid=f79e61b3-2466-4684-8b40-d66eead92754","ios":"levelo://app?vid=f79e61b3-2466-4684-8b40-d66eead92754"},"vehicle_type_id":"4","last_reported":1729804103,"current_range_meters":8400,"station_id":"ce4bha92rcd13ifvqeg0","pricing_plan_id":"cebpf4jnsgd1na2vs0mg"},{"bike_id":"6e4d3e9f-d3ed-4f55-bde4-00adeb62c5b6","system_id":"levelo_inurba_marseille","lat":43.29084,"lon":5.38105,"is_reserved":false,"is_disabled":false,"rental_uris":{"android":"levelo://app?vid=6e4d3e9f-d3ed-4f55-bde4-00adeb62c5b6","ios":"levelo://app?vid=6e4d3e9f-d3ed-4f55-bde4-00adeb62c5b6"},"vehicle_type_id":"4","last_reported":1729804103,"current_range_meters":13600,"station_id":"ce4bh512rcd13ifvqe2g","pricing_plan_id":"cebpf4jnsgd1na2vs0mg"},{"bike_id":"965d1955-52ce-47ab-b910-726d3a5f88fe","system_id":"levelo_inurba_marseille","lat":43.309177,"lon":5.368423,"is_reserved":false,"is_disabled":false,"rental_uris":{"android":"levelo://app?vid=965d1955-52ce-47ab-b910-726d3a5f88fe","ios":"levelo://app?vid=965d1955-52ce-47ab-b910-726d3a5f88fe"},"vehicle_type_id":"4","last_reported":1729804103,"current_range_meters":38800,"station_id":"ce4bgn92rcd13ifvqbvg","pricing_plan_id":"cebpf4jnsgd1na2vs0mg"},{"bike_id":"6787cd29-a3eb-4712-94aa-19427ce6ab9f","system_id":"levelo_inurba_marseille","lat":43.28106,"lon":5.37838,"is_reserved":false,"is_disabled":false,"rental_uris":{"android":"levelo://app?vid=6787cd29-a3eb-4712-94aa-19427ce6ab9f","ios":"levelo://app?vid=6787cd29-a3eb-4712-94aa-19427ce6ab9f"},"vehicle_type_id":"4","last_reported":1729804103,"current_range_meters":28000,"station_id":"ce4bha12rcd13ifvqee0","pricing_plan_id":"cebpf4jnsgd1na2vs0mg"},{"bike_id":"e328d23e-e0f4-4fc2-ba7c-6e30e6dab58e","system_id":"levelo_inurba_marseille","lat":43.290894,"lon":5.38128,"is_reserved":false,"is_disabled":false,"rental_uris":{"android":"levelo://app?vid=e328d23e-e0f4-4fc2-ba7c-6e30e6dab58e","ios":"levelo://app?vid=e328d23e-e0f4-4fc2-ba7c-6e30e6dab58e"},"vehicle_type_id":"4","last_reported":1729804103,"current_range_meters":9200,"station_id":"ce4bh512rcd13ifvqe2g","pricing_plan_id":"cebpf4jnsgd1na2vs0mg"},{"bike_id":"64b170f8-2500-48ef-96a3-25f7c0707542","system_id":"levelo_inurba_marseille","lat":43.337444,"lon":5.374475,"is_reserved":false,"is_disabled":false,"rental_uris":{"android":"levelo://app?vid=64b170f8-2500-48ef-96a3-25f7c0707542","ios":"levelo://app?vid=64b170f8-2500-48ef-96a3-25f7c0707542"},"vehicle_type_id":"4","last_reported":1729804103,"current_range_meters":5600,"station_id":"","pricing_plan_id":"cebpf4jnsgd1na2vs0mg"},{"bike_id":"4f409860-e0f7-4877-99ee-a24fed7f0e97","system_id":"levelo_inurba_marseille","lat":43.2781,"lon":5.40718,"is_reserved":false,"is_disabled":false,"rental_uris":{"android":"levelo://app?vid=4f409860-e0f7-4877-99ee-a24fed7f0e97","ios":"levelo://app?vid=4f409860-e0f7-4877-99ee-a24fed7f0e97"},"vehicle_type_id":"4","last_reported":1729804103,"current_range_meters":35600,"station_id":"ce4bhnh2rcd13ifvqgtg","pricing_plan_id":"cebpf4jnsgd1na2vs0mg"},{"bike_id":"8629bbd2-c025-4a07-8726-3ba170e6f41e","system_id":"levelo_inurba_marseille","lat":43.29254,"lon":5.40913,"is_reserved":false,"is_disabled":false,"rental_uris":{"android":"levelo://app?vid=8629bbd2-c025-4a07-8726-3ba170e6f41e","ios":"levelo://app?vid=8629bbd2-c025-4a07-8726-3ba170e6f41e"},"vehicle_type_id":"4","last_reported":1729804103,"current_range_meters":32400,"station_id":"ce4bh192rcd13ifvqdc0","pricing_plan_id":"cebpf4jnsgd1na2vs0mg"},{"bike_id":"1287b539-f1e9-401d-8c14-602f30e7566f","system_id":"levelo_inurba_marseille","lat":43.29309,"lon":5.37173,"is_reserved":false,"is_disabled":false,"rental_uris":{"android":"levelo://app?vid=1287b539-f1e9-401d-8c14-602f30e7566f","ios":"levelo://app?vid=1287b539-f1e9-401d-8c14-602f30e7566f"},"vehicle_type_id":"4","last_reported":1729804103,"current_range_meters":32000,"station_id":"ce4bgh92rcd13ifvqb40","pricing_plan_id":"cebpf4jnsgd1na2vs0mg"},{"bike_id":"2b51b7bd-446d-4776-a439-fffcad3cea47","system_id":"levelo_inurba_marseille","lat":43.25825,"lon":5.39432,"is_reserved":false,"is_disabled":false,"rental_uris":{"android":"levelo://app?vid=2b51b7bd-446d-4776-a439-fffcad3cea47","ios":"levelo://app?vid=2b51b7bd-446d-4776-a439-fffcad3cea47"},"vehicle_type_id":"4","last_reported":1729804103,"current_range_meters":27600,"station_id":"ce4bhip2rcd13ifvqft0","pricing_plan_id":"cebpf4jnsgd1na2vs0mg"},{"bike_id":"6495eafb-d28d-4be1-b6a0-e608338d71c0","system_id":"levelo_inurba_marseille","lat":43.24998,"lon":5.38927,"is_reserved":false,"is_disabled":false,"rental_uris":{"android":"levelo://app?vid=6495eafb-d28d-4be1-b6a0-e608338d71c0","ios":"levelo://app?vid=6495eafb-d28d-4be1-b6a0-e608338d71c0"},"vehicle_type_id":"4","last_reported":1729804103,"current_range_meters":27200,"station_id":"ce4bhgp2rcd13ifvqfd0","pricing_plan_id":"cebpf4jnsgd1na2vs0mg"},{"bike_id":"b37a0ae1-907f-412d-8e1a-06a9de441401","system_id":"levelo_inurba_marseille","lat":43.25085,"lon":5.39526,"is_reserved":false,"is_disabled":false,"rental_uris":{"android":"levelo://app?vid=b37a0ae1-907f-412d-8e1a-06a9de441401","ios":"levelo://app?vid=b37a0ae1-907f-412d-8e1a-06a9de441401"},"vehicle_type_id":"4","last_reported":1729804103,"current_range_meters":26000,"station_id":"ce4bhm12rcd13ifvqgkg","pricing_plan_id":"cebpf4jnsgd1na2vs0mg"},{"bike_id":"a5623f03-5a79-42ab-814c-4232167456b1","system_id":"levelo_inurba_marseille","lat":43.30296,"lon":5.38478,"is_reserved":false,"is_disabled":false,"rental_uris":{"android":"levelo://app?vid=a5623f03-5a79-42ab-814c-4232167456b1","ios":"levelo://app?vid=a5623f03-5a79-42ab-814c-4232167456b1"},"vehicle_type_id":"4","last_reported":1729804103,"current_range_meters":28400,"station_id":"","pricing_plan_id":"cebpf4jnsgd1na2vs0mg"},{"bike_id":"afcebe5d-45a3-43a4-95c9-1c63bd19e250","system_id":"levelo_inurba_marseille","lat":43.32041,"lon":5.41548,"is_reserved":false,"is_disabled":false,"rental_uris":{"android":"levelo://app?vid=afcebe5d-45a3-43a4-95c9-1c63bd19e250","ios":"levelo://app?vid=afcebe5d-45a3-43a4-95c9-1c63bd19e250"},"vehicle_type_id":"4","last_reported":1729804103,"current_range_meters":17600,"station_id":"ce4bhq92rcd13ifvqhkg","pricing_plan_id":"cebpf4jnsgd1na2vs0mg"},{"bike_id":"2e2c084b-c98b-474e-b098-f5034cf9fb09","system_id":"levelo_inurba_marseille","lat":43.29919,"lon":5.37474,"is_reserved":false,"is_disabled":false,"rental_uris":{"android":"levelo://app?vid=2e2c084b-c98b-474e-b098-f5034cf9fb09","ios":"levelo://app?vid=2e2c084b-c98b-474e-b098-f5034cf9fb09"},"vehicle_type_id":"4","last_reported":1729804103,"current_range_meters":10000,"station_id":"ce4bgjh2rcd13ifvqbg0","pricing_plan_id":"cebpf4jnsgd1na2vs0mg"},{"bike_id":"29c9755e-baac-434a-a2d0-632c080455fa","system_id":"levelo_inurba_marseille","lat":43.30929,"lon":5.40141,"is_reserved":false,"is_disabled":false,"rental_uris":{"android":"levelo://app?vid=29c9755e-baac-434a-a2d0-632c080455fa","ios":"levelo://app?vid=29c9755e-baac-434a-a2d0-632c080455fa"},"vehicle_type_id":"4","last_reported":1729804103,"current_range_meters":38800,"station_id":"ce4bgvp2rcd13ifvqct0","pricing_plan_id":"cebpf4jnsgd1na2vs0mg"},{"bike_id":"442bc617-0461-460a-af58-22bd9f0e4ded","system_id":"levelo_inurba_marseille","lat":43.29211,"lon":5.39328,"is_reserved":false,"is_disabled":false,"rental_uris":{"android":"levelo://app?vid=442bc617-0461-460a-af58-22bd9f0e4ded","ios":"levelo://app?vid=442bc617-0461-460a-af58-22bd9f0e4ded"},"vehicle_type_id":"4","last_reported":1729804103,"current_range_meters":11200,"station_id":"ce4bh192rcd13ifvqdd0","pricing_plan_id":"cebpf4jnsgd1na2vs0mg"},{"bike_id":"c24ada35-0a32-4f6b-938e-16c735e4ea3e","system_id":"levelo_inurba_marseille","lat":43.31726,"lon":5.4371,"is_reserved":false,"is_disabled":false,"rental_uris":{"android":"levelo://app?vid=c24ada35-0a32-4f6b-938e-16c735e4ea3e","ios":"levelo://app?vid=c24ada35-0a32-4f6b-938e-16c735e4ea3e"},"vehicle_type_id":"4","last_reported":1729804103,"current_range_meters":10000,"station_id":"ce4bhp92rcd13ifvqhcg","pricing_plan_id":"cebpf4jnsgd1na2vs0mg"},{"bike_id":"967def27-0e75-4ffe-9eaa-feca107845d1","system_id":"levelo_inurba_marseille","lat":43.28936,"lon":5.36635,"is_reserved":false,"is_disabled":false,"rental_uris":{"android":"levelo://app?vid=967def27-0e75-4ffe-9eaa-feca107845d1","ios":"levelo://app?vid=967def27-0e75-4ffe-9eaa-feca107845d1"},"vehicle_type_id":"4","last_reported":1729804103,"current_range_meters":38800,"station_id":"ce4bhap2rcd13ifvqek0","pricing_plan_id":"cebpf4jnsgd1na2vs0mg"},{"bike_id":"50bccee2-4b29-4fe2-b47a-c98e6db7670d","system_id":"levelo_inurba_marseille","lat":43.29596,"lon":5.38102,"is_reserved":false,"is_disabled":false,"rental_uris":{"android":"levelo://app?vid=50bccee2-4b29-4fe2-b47a-c98e6db7670d","ios":"levelo://app?vid=50bccee2-4b29-4fe2-b47a-c98e6db7670d"},"vehicle_type_id":"4","last_reported":1729804103,"current_range_meters":9200,"station_id":"ce4bgl12rcd13ifvqbo0","pricing_plan_id":"cebpf4jnsgd1na2vs0mg"},{"bike_id":"c013d0dc-fb80-477a-a207-766744138875","system_id":"levelo_inurba_marseille","lat":43.27992,"lon":5.40021,"is_reserved":false,"is_disabled":false,"rental_uris":{"android":"levelo://app?vid=c013d0dc-fb80-477a-a207-766744138875","ios":"levelo://app?vid=c013d0dc-fb80-477a-a207-766744138875"},"vehicle_type_id":"4","last_reported":1729804103,"current_range_meters":38800,"station_id":"ce4bho92rcd13ifvqh4g","pricing_plan_id":"cebpf4jnsgd1na2vs0mg"},{"bike_id":"e77a9ea7-dde3-4d04-b2ea-529be0385146","system_id":"levelo_inurba_marseille","lat":43.27212,"lon":5.39189,"is_reserved":false,"is_disabled":false,"rental_uris":{"android":"levelo://app?vid=e77a9ea7-dde3-4d04-b2ea-529be0385146","ios":"levelo://app?vid=e77a9ea7-dde3-4d04-b2ea-529be0385146"},"vehicle_type_id":"4","last_reported":1729804103,"current_range_meters":39200,"station_id":"ce4bhhp2rcd13ifvqfm0","pricing_plan_id":"cebpf4jnsgd1na2vs0mg"},{"bike_id":"5b0ed149-216b-4e99-8a6f-dc5b21c58792","system_id":"levelo_inurba_marseille","lat":43.29877,"lon":5.38912,"is_reserved":false,"is_disabled":false,"rental_uris":{"android":"levelo://app?vid=5b0ed149-216b-4e99-8a6f-dc5b21c58792","ios":"levelo://app?vid=5b0ed149-216b-4e99-8a6f-dc5b21c58792"},"vehicle_type_id":"4","last_reported":1729804103,"current_range_meters":37600,"station_id":"ce4bh392rcd13ifvqdl0","pricing_plan_id":"cebpf4jnsgd1na2vs0mg"},{"bike_id":"22f55c1a-1dfb-48a8-8e1a-b1164f4003e8","system_id":"levelo_inurba_marseille","lat":43.2872,"lon":5.37927,"is_reserved":false,"is_disabled":false,"rental_uris":{"android":"levelo://app?vid=22f55c1a-1dfb-48a8-8e1a-b1164f4003e8","ios":"levelo://app?vid=22f55c1a-1dfb-48a8-8e1a-b1164f4003e8"},"vehicle_type_id":"4","last_reported":1729804103,"current_range_meters":39200,"station_id":"ce4bh9p2rcd13ifvqec0","pricing_plan_id":"cebpf4jnsgd1na2vs0mg"},{"bike_id":"258c7858-8bc9-4172-9b44-b4648d1946e5","system_id":"levelo_inurba_marseille","lat":43.30303,"lon":5.39218,"is_reserved":false,"is_disabled":false,"rental_uris":{"android":"levelo://app?vid=258c7858-8bc9-4172-9b44-b4648d1946e5","ios":"levelo://app?vid=258c7858-8bc9-4172-9b44-b4648d1946e5"},"vehicle_type_id":"4","last_reported":1729804103,"current_range_meters":24800,"station_id":"ce4bgkh2rcd13ifvqbk0","pricing_plan_id":"cebpf4jnsgd1na2vs0mg"},