{"last_updated":1747084141,"ttl":60,"version":"2.2","data":{"bikes":[{"bike_id":"c0b9fd4f-e181-46ce-b0bf-f5119973334f","system_id":"levelo_inurba_marseille","lat":43.33771,"lon":5.37424,"is_reserved":false,"is_disabled":false,"rental_uris":{"android":"levelo://app?vid=c0b9fd4f-e181-46ce-b0bf-f5119973334f","ios":"levelo://app?vid=c0b9fd4f-e181-46ce-b0bf-f5119973334f"},"vehicle_type_id":"4","last_reported":1747084141,"current_range_meters":26800,"station_id":"","pricing_plan_id":"cebpf4jnsgd1na2vs0mg"},{"bike_id":"229001d2-7627-43e0-aeea-2d75580fd339","system_id":"levelo_inurba_marseille","lat":43.33769,"lon":5.37457,"is_reserved":false,"is_disabled":true,"rental_uris":{"android":"levelo://app?vid=229001d2-7627-43e0-aeea-2d75580fd339","ios":"levelo://app?vid=229001d2-7627-43e0-aeea-2d75580fd339"},"vehicle_type_id":"4","last_reported":1747084141,"current_range_meters":0,"station_id":"","pricing_plan_id":"cebpf4jnsgd1na2vs0mg"},{"bike_id":"828418bc-b6f3-4668-865d-c3a8b014b129","system_id":"levelo_inurba_marseille","lat":43.337723,"lon":5.374691,"is_reserved":false,"is_disabled":true,"rental_uris":{"android":"levelo://app?vid=828418bc-b6f3-4668-865d-c3a8b014b129","ios":"levelo://app?vid=828418bc-b6f3-4668-865d-c3a8b014b129"},"vehicle_type_id":"4","last_reported":1747084141,"current_range_meters":0,"station_id":"","pricing_plan_id":"cebpf4jnsgd1na2vs0mg"},{"bike_id":"792567c6-0442-4011-aff0-9c05e25deb48","system_id":"levelo_inurba_marseille","lat":43.2806,"lon":5.442,"is_reserved":false,"is_disabled":true,"rental_uris":{"android":"levelo://app?vid=792567c6-0442-4011-aff0-9c05e25deb48","ios":"levelo://app?vid=792567c6-0442-4011-aff0-9c05e25deb48"},"vehicle_type_id":"4","last_reported":1747084141,"current_range_meters":0,"station_id":"","pricing_plan_id":"cebpf4jnsgd1na2vs0mg"},{"bike_id":"7c164b10-b3f7-464e-b45d-a48aac5ca1f3","system_id":"levelo_inurba_marseille","lat":43.30668,"lon":5.40064,"is_reserved":false,"is_disabled":true,"rental_uris":{"android":"levelo://app?vid=7c164b10-b3f7-464e-b45d-a48aac5ca1f3","ios":"levelo://app?vid=7c164b10-b3f7-464e-b45d-a48aac5ca1f3"},"vehicle_type_id":"4","last_reported":1747084141,"current_range_meters":0,"station_id":"ce4bh112rcd13ifvqda0","pricing_plan_id":"cebpf4jnsgd1na2vs0mg"},{"bike_id":"d020dbd6-56f3-46f3-96c3-9a073768576d","system_id":"levelo_inurba_marseille","lat":43.26231,"lon":5.40451,"is_reserved":false,"is_disabled":true,"rental_uris":{"android":"levelo://app?vid=d020dbd6-56f3-46f3-96c3-9a073768576d","ios":"levelo://app?vid=d020dbd6-56f3-46f3-96c3-9a073768576d"},"vehicle_type_id":"4","last_reported":1747084141,"current_range_meters":0,"station_id":"ce4bhmh2rcd13ifvqgmg","pricing_plan_id":"cebpf4jnsgd1na2vs0mg"},{"bike_id":"b82fa79d-ba0f-48d1-a101-c4dac4b7de4e","system_id":"levelo_inurba_marseille","lat":43.2991,"lon":5.43683,"is_reserved":false,"is_disabled":true,"rental_uris":{"android":"levelo://app?vid=b82fa79d-ba0f-48d1-a101-c4dac4b7de4e","ios":"levelo://app?vid=b82fa79d-ba0f-48d1-a101-c4dac4b7de4e"},"vehicle_type_id":"4","last_reported":1747084141,"current_range_meters":0,"station_id":"ce4bhpp2rcd13ifvqhfg","pricing_plan_id":"cebpf4jnsgd1na2vs0mg"},{"bike_id":"07269f3f-9fb3-45e8-9b39-4105415a8c0c","system_id":"levelo_inurba_marseille","lat":43.21199,"lon":5.3506,"is_reserved":false,"is_disabled":true,"rental_uris":{"android":"levelo://app?vid=07269f3f-9fb3-45e8-9b39-4105415a8c0c","ios":"levelo://app?vid=07269f3f-9fb3-45e8-9b39-4105415a8c0c"},"vehicle_type_id":"4","last_reported":1747084141,"current_range_meters":0,"station_id":"st_cvj6sg6p6f1abm77japg","pricing_plan_id":"cebpf4jnsgd1na2vs0mg"},{"bike_id":"5af64732-df9d-4abc-bab9-ed19e2e31a08","system_id":"levelo_inurba_marseille","lat":43.27959,"lon":5.38737,"is_reserved":false,"is_disabled":true,"rental_uris":{"android":"levelo://app?vid=5af64732-df9d-4abc-bab9-ed19e2e31a08","ios":"levelo://app?vid=5af64732-df9d-4abc-bab9-ed19e2e31a08"},"vehicle_type_id":"4","last_reported":1747084141,"current_range_meters":800,"station_id":"ce4bhg12rcd13ifvqf80","pricing_plan_id":"cebpf4jnsgd1na2vs0mg"},{"bike_id":"2d789099-a508-4f13-9b86-cbba56b0c5b7","system_id":"levelo_inurba_marseille","lat":43.26572,"lon":5.3901,"is_reserved":false,"is_disabled":true,"rental_uris":{"android":"levelo://app?vid=2d789099-a508-4f13-9b86-cbba56b0c5b7","ios":"levelo://app?vid=2d789099-a508-4f13-9b86-cbba56b0c5b7"},"vehicle_type_id":"4","last_reported":1747084141,"current_range_meters":1600,"station_id":"ce4bhe12rcd13ifvqf30","pricing_plan_id":"cebpf4jnsgd1na2vs0mg"},{"bike_id":"8713ea68-2d18-4f02-b58b-17c62786319e","system_id":"levelo_inurba_marseille","lat":43.32333,"lon":5.40621,"is_reserved":false,"is_disabled":true,"rental_uris":{"android":"levelo://app?vid=8713ea68-2d18-4f02-b58b-17c62786319e","ios":"levelo://app?vid=8713ea68-2d18-4f02-b58b-17c62786319e"},"vehicle_type_id":"4","last_reported":1747084141,"current_range_meters":1600,"station_id":"ce4bhq92rcd13ifvqhjg","pricing_plan_id":"cebpf4jnsgd1na2vs0mg"},{"bike_id":"25684216-a3fc-4916-8e05-9505382e4ab5","system_id":"levelo_inurba_marseille","lat":43.27395,"lon":5.3902,"is_reserved":false,"is_disabled":false,"rental_uris":{"android":"levelo://app?vid=25684216-a3fc-4916-8e05-9505382e4ab5","ios":"levelo://app?vid=25684216-a3fc-4916-8e05-9505382e4ab5"},"vehicle_type_id":"4","last_reported":1747084141,"current_range_meters":2800,"station_id":"","pricing_plan_id":"cebpf4jnsgd1na2vs0mg"},{"bike_id":"a0920cd3-75e0-4245-895a-992ad88ad8a7","system_id":"levelo_inurba_marseille","lat":43.28431,"lon":5.4104,"is_reserved":false,"is_disabled":false,"rental_uris":{"android":"levelo://app?vid=a0920cd3-75e0-4245-895a-992ad88ad8a7","ios":"levelo://app?vid=a0920cd3-75e0-4245-895a-992ad88ad8a7"},"vehicle_type_id":"4","last_reported":1747084141,"current_range_meters":2800,"station_id":"","pricing_plan_id":"cebpf4jnsgd1na2vs0mg"},{"bike_id":"813a6ebf-fbf7-410e-a6b3-ba52b90391fe","system_id":"levelo_inurba_marseille","lat":43.29032,"lon":5.39963,"is_reserved":false,"is_disabled":false,"rental_uris":{"android":"levelo://app?vid=813a6ebf-fbf7-410e-a6b3-ba52b90391fe","ios":"levelo://app?vid=813a6ebf-fbf7-410e-a6b3-ba52b90391fe"},"vehicle_type_id":"4","last_reported":1747084141,"current_range_meters":2800,"station_id":"ce4bh392rcd13ifvqdm0","pricing_plan_id":"cebpf4jnsgd1na2vs0mg"},{"bike_id":"b6218e06-656a-4299-a0ae-4e0c46b259be","system_id":"levelo_inurba_marseille","lat":43.27938,"lon":5.41048,"is_reserved":false,"is_disabled":false,"rental_uris":{"android":"levelo://app?vid=b6218e06-656a-4299-a0ae-4e0c46b259be","ios":"levelo://app?vid=b6218e06-656a-4299-a0ae-4e0c46b259be"},"vehicle_type_id":"4","last_reported":1747084141,"current_range_meters":2800,"station_id":"ce4bhnp2rcd13ifvqh0g","pricing_plan_id":"cebpf4jnsgd1na2vs0mg"},{"bike_id":"c3dac3b6-7abd-455e-a427-144e3e8b65d7","system_id":"levelo_inurba_marseille","lat":43.28846,"lon":5.393242,"is_reserved":false,"is_disabled":false,"rental_uris":{"android":"levelo://app?vid=c3dac3b6-7abd-455e-a427-144e3e8b65d7","ios":"levelo://app?vid=c3dac3b6-7abd-455e-a427-144e3e8b65d7"},"vehicle_type_id":"4","last_reported":1747084141,"current_range_meters":3200,"station_id":"ce4bh2p2rcd13ifvqdi0","pricing_plan_id":"cebpf4jnsgd1na2vs0mg"},{"bike_id":"fc2577e7-1497-425b-9d4f-ab8d7dc843c6","system_id":"levelo_inurba_marseille","lat":43.33771,"lon":5.37485,"is_reserved":false,"is_disabled":false,"rental_uris":{"android":"levelo://app?vid=fc2577e7-1497-425b-9d4f-ab8d7dc843c6","ios":"levelo://app?vid=fc2577e7-1497-425b-9d4f-ab8d7dc843c6"},"vehicle_type_id":"4","last_reported":1747084141,"current_range_meters":4000,"station_id":"","pricing_plan_id":"cebpf4jnsgd1na2vs0mg"},{"bike_id":"b1b8c807-8597-4a9c-bbcd-a2746fd63865","system_id":"levelo_inurba_marseille","lat":43.252814,"lon":5.399206,"is_reserved":false,"is_disabled":false,"rental_uris":{"android":"levelo://app?vid=b1b8c807-8597-4a9c-bbcd-a2746fd63865","ios":"levelo://app?vid=b1b8c807-8597-4a9c-bbcd-a2746fd63865"},"vehicle_type_id":"4","last_reported":1747084141,"current_range_meters":4400,"station_id":"","pricing_plan_id":"cebpf4jnsgd1na2vs0mg"},{"bike_id":"38999989-b618-4b74-9f51-6c080a9e600f","system_id":"levelo_inurba_marseille","lat":43.28982,"lon":5.3783,"is_reserved":false,"is_disabled":false,"rental_uris":{"android":"levelo://app?vid=38999989-b618-4b74-9f51-6c080a9e600f","ios":"levelo://app?vid=38999989-b618-4b74-9f51-6c080a9e600f"},"vehicle_type_id":"4","last_reported":1747084141,"current_range_meters":4400,"station_id":"ce4bh9p2rcd13ifvqed0","pricing_plan_id":"cebpf4jnsgd1na2vs0mg"},{"bike_id":"0fedde00-40eb-40d2-8fc2-e61ecce46b7b","system_id":"levelo_inurba_marseille","lat":43.28315,"lon":5.43213,"is_reserved":false,"is_disabled":false,"rental_uris":{"android":"levelo://app?vid=0fedde00-40eb-40d2-8fc2-e61ecce46b7b","ios":"levelo://app?vid=0fedde00-40eb-40d2-8fc2-e61ecce46b7b"},"vehicle_type_id":"4","last_reported":1747084141,"current_range_meters":4800,"station_id":"","pricing_plan_id":"cebpf4jnsgd1na2vs0mg"},{"bike_id":"8d3f0072-11c5-4a63-8a10-ef44205facce","system_id":"levelo_inurba_marseille","lat":43.2656,"lon":5.38987,"is_reserved":false,"is_disabled":false,"rental_uris":{"android":"levelo://app?vid=8d3f0072-11c5-4a63-8a10-ef44205facce","ios":"levelo://app?vid=8d3f0072-11c5-4a63-8a10-ef44205facce"},"vehicle_type_id":"4","last_reported":1747084141,"current_range_meters":4800,"station_id":"ce4bhe12rcd13ifvqf30","pricing_plan_id":"cebpf4jnsgd1na2vs0mg"},{"bike_id":"1838afde-afc3-4eda-8678-62b4dcd0e305","system_id":"levelo_inurba_marseille","lat":43.24076,"lon":5.37754,"is_reserved":false,"is_disabled":false,"rental_uris":{"android":"levelo://app?vid=1838afde-afc3-4eda-8678-62b4dcd0e305","ios":"levelo://app?vid=1838afde-afc3-4eda-8678-62b4dcd0e305"},"vehicle_type_id":"4","last_reported":1747084141,"current_range_meters":4800,"station_id":"ce4bhnp2rcd13ifvqgvg","pricing_plan_id":"cebpf4jnsgd1na2vs0mg"},{"bike_id":"3ae1cd74-71fb-47ba-ac9b-3b9bc8cd8449","system_id":"levelo_inurba_marseille","lat":43.21759,"lon":5.34595,"is_reserved":false,"is_disabled":false,"rental_uris":{"android":"levelo://app?vid=3ae1cd74-71fb-47ba-ac9b-3b9bc8cd8449","ios":"levelo://app?vid=3ae1cd74-71fb-47ba-ac9b-3b9bc8cd8449"},"vehicle_type_id":"4","last_reported":1747084141,"current_range_meters":4800,"station_id":"st_cvj6r9ubvosntc0bgbag","pricing_plan_id":"cebpf4jnsgd1na2vs0mg"},{"bike_id":"cb4aa7f8-5e58-4103-827e-f5aa7f653469","system_id":"levelo_inurba_marseille","lat":43.23201,"lon":5.3555,"is_reserved":false,"is_disabled":false,"rental_uris":{"android":"levelo://app?vid=cb4aa7f8-5e58-4103-827e-f5aa7f653469","ios":"levelo://app?vid=cb4aa7f8-5e58-4103-827e-f5aa7f653469"},"vehicle_type_id":"4","last_reported":1747084141,"current_range_meters":5600,"station_id":"ce4bhu92rcd13ifvqi70","pricing_plan_id":"cebpf4jnsgd1na2vs0mg"},{"bike_id":"ae301357-347a-4795-882d-3bb40e8cb6a4","system_id":"levelo_inurba_marseille","lat":43.24674,"lon":5.38159,"is_reserved":false,"is_disabled":false,"rental_uris":{"android":"levelo://app?vid=ae301357-347a-4795-882d-3bb40e8cb6a4","ios":"levelo://app?vid=ae301357-347a-4795-882d-3bb40e8cb6a4"},"vehicle_type_id":"4","last_reported":1747084141,"current_range_meters":6000,"station_id":"ce4bhih2rcd13ifvqfr0","pricing_plan_id":"cebpf4jnsgd1na2vs0mg"},{"bike_id":"83a81ffb-3d1c-4122-a406-60b114a380fc","system_id":"levelo_inurba_marseille","lat":43.21203,"lon":5.35057,"is_reserved":false,"is_disabled":false,"rental_uris":{"android":"levelo://app?vid=83a81ffb-3d1c-4122-a406-60b114a380fc","ios":"levelo://app?vid=83a81ffb-3d1c-4122-a406-60b114a380fc"},"vehicle_type_id":"4","last_reported":1747084141,"current_range_meters":6000,"station_id":"st_cvj6sg6p6f1abm77japg","pricing_plan_id":"cebpf4jnsgd1na2vs0mg"},{"bike_id":"37de1aed-1149-4673-8960-0c1e46b86a56","system_id":"levelo_inurba_marseille","lat":43.32003,"lon":5.38125,"is_reserved":false,"is_disabled":false,"rental_uris":{"android":"levelo://app?vid=37de1aed-1149-4673-8960-0c1e46b86a56","ios":"levelo://app?vid=37de1aed-1149-4673-8960-0c1e46b86a56"},"vehicle_type_id":"4","last_reported":1747084141,"current_range_meters":6400,"station_id":"ce4bhr12rcd13ifvqhpg","pricing_plan_id":"cebpf4jnsgd1na2vs0mg"},{"bike_id":"5f9b62df-1db7-4452-8caf-5538e3287ca8","system_id":"levelo_inurba_marseille","lat":43.29349,"lon":5.42798,"is_reserved":false,"is_disabled":false,"rental_uris":{"android":"levelo://app?vid=5f9b62df-1db7-4452-8caf-5538e3287ca8","ios":"levelo://app?vid=5f9b62df-1db7-4452-8caf-5538e3287ca8"},"vehicle_type_id":"4","last_reported":1747084141,"current_range_meters":6800,"station_id":"","pricing_plan_id":"cebpf4jnsgd1na2vs0mg"},{"bike_id":"79f767b1-523b-4188-996e-cfe61a261e86","system_id":"levelo_inurba_marseille","lat":43.2418,"lon":5.397296,"is_reserved":false,"is_disabled":false,"rental_uris":{"android":"levelo://app?vid=79f767b1-523b-4188-996e-cfe61a261e86","ios":"levelo://app?vid=79f767b1-523b-4188-996e-cfe61a261e86"},"vehicle_type_id":"4","last_reported":1747084141,"current_range_meters":6800,"station_id":"ce4bhn12rcd13ifvqgpg","pricing_plan_id":"cebpf4jnsgd1na2vs0mg"},{"bike_id":"864ce70f-1098-4973-90a9-d5c9b927170c","system_id":"levelo_inurba_marseille","lat":43.30383,"lon":5.42467,"is_reserved":false,"is_disabled":false,"rental_uris":{"android":"levelo://app?vid=864ce70f-1098-4973-90a9-d5c9b927170c","ios":"levelo://app?vid=864ce70f-1098-4973-90a9-d5c9b927170c"},"vehicle_type_id":"4","last_reported":1747084141,"current_range_meters":7200,"station_id":"ce4bhoh2rcd13ifvqh6g","pricing_plan_id":"cebpf4jnsgd1na2vs0mg"},{"bike_id":"6e5c91eb-f4c3-4748-8248-e56e7fa8d9e4","system_id":"levelo_inurba_marseille","lat":43.323647,"lon":5.388812,"is_reserved":false,"is_disabled":false,"rental_uris":{"android":"levelo://app?vid=6e5c91eb-f4c3-4748-8248-e56e7fa8d9e4","ios":"levelo://app?vid=6e5c91eb-f4c3-4748-8248-e56e7fa8d9e4"},"vehicle_type_id":"4","last_reported":1747084141,"current_range_meters":7200,"station_id":"ce4bhqp2rcd13ifvqhog","pricing_plan_id":"cebpf4jnsgd1na2vs0mg"},{"bike_id":"c166edd6-904a-4bc0-bde0-4462b8738864","system_id":"levelo_inurba_marseille","lat":43.24169,"lon":5.36395,"is_reserved":false,"is_disabled":false,"rental_uris":{"android":"levelo://app?vid=c166edd6-904a-4bc0-bde0-4462b8738864","ios":"levelo://app?vid=c166edd6-904a-4bc0-bde0-4462b8738864"},"vehicle_type_id":"4","last_reported":1747084141,"current_range_meters":7200,"station_id":"cpo36qri1sfpv3e86is0","pricing_plan_id":"cebpf4jnsgd1na2vs0mg"},{"bike_id":"b0ac8040-90e0-41ee-a2e3-e5462910fefc","system_id":"levelo_inurba_marseille","lat":43.27541,"lon":5.41284,"is_reserved":false,"is_disabled":false,"rental_uris":{"android":"levelo://app?vid=b0ac8040-90e0-41ee-a2e3-e5462910fefc","ios":"levelo://app?vid=b0ac8040-90e0-41ee-a2e3-e5462910fefc"},"vehicle_type_id":"4","last_reported":1747084141,"current_range_meters":8000,"station_id":"","pricing_plan_id":"cebpf4jnsgd1na2vs0mg"},{"bike_id":"4a4a3043-8f0c-4ed4-bf24-1989e773885f","system_id":"levelo_inurba_marseille","lat":43.27182,"lon":5.39158,"is_reserved":false,"is_disabled":false,"rental_uris":{"android":"levelo://app?vid=4a4a3043-8f0c-4ed4-bf24-1989e773885f","ios":"levelo://app?vid=4a4a3043-8f0c-4ed4-bf24-1989e773885f"},"vehicle_type_id":"4","last_reported":1747084141,"current_range_meters":8000,"station_id":"ce4bhhp2rcd13ifvqfm0","pricing_plan_id":"cebpf4jnsgd1na2vs0mg"},{"bike_id":"4193b3ff-7911-46cf-aafe-21c4ebe7fd24","system_id":"levelo_inurba_marseille","lat":43.231832,"lon":5.399894,"is_reserved":false,"is_disabled":false,"rental_uris":{"android":"levelo://app?vid=4193b3ff-7911-46cf-aafe-21c4ebe7fd24","ios":"levelo://app?vid=4193b3ff-7911-46cf-aafe-21c4ebe7fd24"},"vehicle_type_id":"4","last_reported":1747084141,"current_range_meters":8000,"station_id":"ce4bhn12rcd13ifvqgqg","pricing_plan_id":"cebpf4jnsgd1na2vs0mg"},{"bike_id":"8cad80b9-40f1-4238-b3c2-e7e97d51aeba","system_id":"levelo_inurba_marseille","lat":43.323648,"lon":5.38893,"is_reserved":false,"is_disabled":false,"rental_uris":{"android":"levelo://app?vid=8cad80b9-40f1-4238-b3c2-e7e97d51aeba","ios":"levelo://app?vid=8cad80b9-40f1-4238-b3c2-e7e97d51aeba"},"vehicle_type_id":"4","last_reported":1747084141,"current_range_meters":8000,"station_id":"ce4bhqp2rcd13ifvqhog","pricing_plan_id":"cebpf4jnsgd1na2vs0mg"},{"bike_id":"d6defe93-e44a-481d-a104-e0a4d7584d2f","system_id":"levelo_inurba_marseille","lat":43.31328,"lon":5.39696,"is_reserved":false,"is_disabled":false,"rental_uris":{"android":"levelo://app?vid=d6defe93-e44a-481d-a104-e0a4d7584d2f","ios":"levelo://app?vid=d6defe93-e44a-481d-a104-e0a4d7584d2f"},"vehicle_type_id":"4","last_reported":1747084141,"current_range_meters":8400,"station_id":"ce4bgvp2rcd13ifvqcu0","pricing_plan_id":"cebpf4jnsgd1na2vs0mg"},{"bike_id":"b2e8f874-de9c-484f-9976-af989bbdd976","system_id":"levelo_inurba_marseille","lat":43.3063,"lon":5.4009,"is_reserved":false,"is_disabled":false,"rental_uris":{"android":"levelo://app?vid=b2e8f874-de9c-484f-9976-af989bbdd976","ios":"levelo://app?vid=b2e8f874-de9c-484f-9976-af989bbdd976"},"vehicle_type_id":"4","last_reported":1747084141,"current_range_meters":8400,"station_id":"ce4bh112rcd13ifvqda0","pricing_plan_id":"cebpf4jnsgd1na2vs0mg"},{"bike_id":"a6f76d4d-3bf3-4601-9711-d2be4511763e","system_id":"levelo_inurba_marseille","lat":43.306553,"lon":5.400804,"is_reserved":false,"is_disabled":false,"rental_uris":{"android":"levelo://app?vid=a6f76d4d-3bf3-4601-9711-d2be4511763e","ios":"levelo://app?vid=a6f76d4d-3bf3-4601-9711-d2be4511763e"},"vehicle_type_id":"4","last_reported":1747084141,"current_range_meters":8400,"station_id":"ce4bh112rcd13ifvqda0","pricing_plan_id":"cebpf4jnsgd1na2vs0mg"},{"bike_id":"1a770ac8-f695-431f-b034-edb44b90e1f9","system_id":"levelo_inurba_marseille","lat":43.28567,"lon":5.39488,"is_reserved":false,"is_disabled":false,"rental_uris":{"android":"levelo://app?vid=1a770ac8-f695-431f-b034-edb44b90e1f9","ios":"levelo://app?vid=1a770ac8-f695-431f-b034-edb44b90e1f9"},"vehicle_type_id":"4","last_reported":1747084141,"current_range_meters":8400,"station_id":"ce4bh292rcd13ifvqdg0","pricing_plan_id":"cebpf4jnsgd1na2vs0mg"},{"bike_id":"0e210330-81d8-4bdc-b3e8-704707c3c308","system_id":"levelo_inurba_marseille","lat":43.25495,"lon":5.37652,"is_reserved":false,"is_disabled":false,"rental_uris":{"android":"levelo://app?vid=0e210330-81d8-4bdc-b3e8-704707c3c308","ios":"levelo://app?vid=0e210330-81d8-4bdc-b3e8-704707c3c308"},"vehicle_type_id":"4","last_reported":1747084141,"current_range_meters":8400,"station_id":"ce4bhh12rcd13ifvqff0","pricing_plan_id":"cebpf4jnsgd1na2vs0mg"},{"bike_id":"671f1f53-8d82-4ed4-ade1-f1720e0973b5","system_id":"levelo_inurba_marseille","lat":43.28157,"lon":5.42625,"is_reserved":false,"is_disabled":false,"rental_uris":{"android":"levelo://app?vid=671f1f53-8d82-4ed4-ade1-f1720e0973b5","ios":"levelo://app?vid=671f1f53-8d82-4ed4-ade1-f1720e0973b5"},"vehicle_type_id":"4","last_reported":1747084141,"current_range_meters":8400,"station_id":"ce4bhnh2rcd13ifvqgug","pricing_plan_id":"cebpf4jnsgd1na2vs0mg"},{"bike_id":"de4a530f-3b17-41b9-bd98-d22e64d46bdc","system_id":"levelo_inurba_marseille","lat":43.321156,"lon":5.367866,"is_reserved":false,"is_disabled":false,"rental_uris":{"android":"levelo://app?vid=de4a530f-3b17-41b9-bd98-d22e64d46bdc","ios":"levelo://app?vid=de4a530f-3b17-41b9-bd98-d22e64d46bdc"},"vehicle_type_id":"4","last_reported":1747084141,"current_range_meters":8400,"station_id":"ce4bhrh2rcd13ifvqhug","pricing_plan_id":"cebpf4jnsgd1na2vs0mg"},{"bike_id":"5648f3cd-51f0-444a-96d0-90720f4f9a85","system_id":"levelo_inurba_marseille","lat":43.31363,"lon":5.38484,"is_reserved":false,"is_disabled":false,"rental_uris":{"android":"levelo://app?vid=5648f3cd-51f0-444a-96d0-90720f4f9a85","ios":"levelo://app?vid=5648f3cd-51f0-444a-96d0-90720f4f9a85"},"vehicle_type_id":"4","last_reported":1747084141,"current_range_meters":8800,"station_id":"ce4bgt92rcd13ifvqcf0","pricing_plan_id":"cebpf4jnsgd1na2vs0mg"},{"bike_id":"c45660a4-2a75-4fe5-babc-ce5f32b31b47","system_id":"levelo_inurba_marseille","lat":43.30937,"lon":5.40139,"is_reserved":false,"is_disabled":false,"rental_uris":{"android":"levelo://app?vid=c45660a4-2a75-4fe5-babc-ce5f32b31b47","ios":"levelo://app?vid=c45660a4-2a75-4fe5-babc-ce5f32b31b47"},"vehicle_type_id":"4","last_reported":1747084141,"current_range_meters":8800,"station_id":"ce4bgvp2rcd13ifvqct0","pricing_plan_id":"cebpf4jnsgd1na2vs0mg"},{"bike_id":"cf119389-8c06-4449-a205-2b18fbb577ee","system_id":"levelo_inurba_marseille","lat":43.31712,"lon":5.40426,"is_reserved":false,"is_disabled":false,"rental_uris":{"android":"levelo://app?vid=cf119389-8c06-4449-a205-2b18fbb577ee","ios":"levelo://app?vid=cf119389-8c06-4449-a205-2b18fbb577ee"},"vehicle_type_id":"4","last_reported":1747084141,"current_range_meters":8800,"station_id":"ce4bh012rcd13ifvqd00","pricing_plan_id":"cebpf4jnsgd1na2vs0mg"},{"bike_id":"b3d7a4d3-78a5-43a0-9843-e302414df266","system_id":"levelo_inurba_marseille","lat":43.2791,"lon":5.39577,"is_reserved":false,"is_disabled":false,"rental_uris":{"android":"levelo://app?vid=b3d7a4d3-78a5-43a0-9843-e302414df266","ios":"levelo://app?vid=b3d7a4d3-78a5-43a0-9843-e302414df266"},"vehicle_type_id":"4","last_reported":1747084141,"current_range_meters":8800,"station_id":"ce4bhf92rcd13ifvqf40","pricing_plan_id":"cebpf4jnsgd1na2vs0mg"},{"bike_id":"8ce91680-622d-4148-97dc-73ab09d9ec28","system_id":"levelo_inurba_marseille","lat":43.24545,"lon":5.3952,"is_reserved":false,"is_disabled":false,"rental_uris":{"android":"levelo://app?vid=8ce91680-622d-4148-97dc-73ab09d9ec28","ios":"levelo://app?vid=8ce91680-622d-4148-97dc-73ab09d9ec28"},"vehicle_type_id":"4","last_reported":1747084141,"current_range_meters":8800,"station_id":"ce4bhlp2rcd13ifvqgjg","pricing_plan_id":"cebpf4jnsgd1na2vs0mg"},{"bike_id":"decd7b5f-cddf-4dc2-a45b-9dd01f4b7747","system_id":"levelo_inurba_marseille","lat":43.24177,"lon":5.39729,"is_reserved":false,"is_disabled":false,"rental_uris":{"android":"levelo://app?vid=decd7b5f-cddf-4dc2-a45b-9dd01f4b7747","ios":"levelo://app?vid=decd7b5f-cddf-4dc2-a45b-9dd01f4b7747"},"vehicle_type_id":"4","last_reported":1747084141,"current_range_meters":8800,"station_id":"ce4bhn12rcd13ifvqgpg","pricing_plan_id":"cebpf4jnsgd1na2vs0mg"},{"bike_id":"c39ffec0-bf54-4b94-892c-11b3ef277137","system_id":"levelo_inurba_marseille","lat":43.23181,"lon":5.39979,"is_reserved":false,"is_disabled":false,"rental_uris":{"android":"levelo://app?vid=c39ffec0-bf54-4b94-892c-11b3ef277137","ios":"levelo://app?vid=c39ffec0-bf54-4b94-892c-11b3ef277137"},"vehicle_type_id":"4","last_reported":1747084141,"current_range_meters":8800,"station_id":"ce4bhn12rcd13ifvqgqg","pricing_plan_id":"cebpf4jnsgd1na2vs0mg"},{"bike_id":"024ce6bb-8f98-443d-a5bf-66093b7961bb","system_id":"levelo_inurba_marseille","lat":43.2872,"lon":5.39981,"is_reserved":false,"is_disabled":false,"rental_uris":{"android":"levelo://app?vid=024ce6bb-8f98-443d-a5bf-66093b7961bb","ios":"levelo://app?vid=024ce6bb-8f98-443d-a5bf-66093b7961bb"},"vehicle_type_id":"4","last_reported":1747084141,"current_range_meters":8800,"station_id":"ce4bho92rcd13ifvqh3g","pricing_plan_id":"cebpf4jnsgd1na2vs0mg"},{"bike_id":"c5eb53b8-783c-4568-bc58-af7e2dd00aa0","system_id":"levelo_inurba_marseille","lat":43.32352,"lon":5.36742,"is_reserved":false,"is_disabled":false,"rental_uris":{"android":"levelo://app?vid=c5eb53b8-783c-4568-bc58-af7e2dd00aa0","ios":"levelo://app?vid=c5eb53b8-783c-4568-bc58-af7e2dd00aa0"},"vehicle_type_id":"4","last_reported":1747084141,"current_range_meters":8800,"station_id":"ce4bhsh2rcd13ifvqi2g","pricing_plan_id":"cebpf4jnsgd1na2vs0mg"},{"bike_id":"8b3eac21-bb1f-4170-9c40-95292bcf13c4","system_id":"levelo_inurba_marseille","lat":43.31686,"lon":5.40468,"is_reserved":false,"is_disabled":false,"rental_uris":{"android":"levelo://app?vid=8b3eac21-bb1f-4170-9c40-95292bcf13c4","ios":"levelo://app?vid=8b3eac21-bb1f-4170-9c40-95292bcf13c4"},"vehicle_type_id":"4","last_reported":1747084141,"current_range_meters":9200,"station_id":"ce4bh012rcd13ifvqd00","pricing_plan_id":"cebpf4jnsgd1na2vs0mg"},{"bike_id":"8f22a717-4ce8-42f7-9922-ecd69d0f4e5e","system_id":"levelo_inurba_marseille","lat":43.29254,"lon":5.40907,"is_reserved":false,"is_disabled":false,"rental_uris":{"android":"levelo://app?vid=8f22a717-4ce8-42f7-9922-ecd69d0f4e5e","ios":"levelo://app?vid=8f22a717-4ce8-42f7-9922-ecd69d0f4e5e"},"vehicle_type_id":"4","last_reported":1747084141,"current_range_meters":9200,"station_id":"ce4bh192rcd13ifvqdc0","pricing_plan_id":"cebpf4jnsgd1na2vs0mg"},{"bike_id":"e0b16578-b75c-49a0-be9b-59a4685629b7","system_id":"levelo_inurba_marseille","lat":43.28148,"lon":5.42634,"is_reserved":false,"is_disabled":false,"rental_uris":{"android":"levelo://app?vid=e0b16578-b75c-49a0-be9b-59a4685629b7","ios":"levelo://app?vid=e0b16578-b75c-49a0-be9b-59a4685629b7"},"vehicle_type_id":"4","last_reported":1747084141,"current_range_meters":9200,"station_id":"ce4bhnh2rcd13ifvqgug","pricing_plan_id":"cebpf4jnsgd1na2vs0mg"},{"bike_id":"b49c1e48-4bbf-4fd1-bf90-fe88ef997d43","system_id":"levelo_inurba_marseille","lat":43.30924,"lon":5.40144,"is_reserved":false,"is_disabled":false,"rental_uris":{"android":"levelo://app?vid=b49c1e48-4bbf-4fd1-bf90-fe88ef997d43","ios":"levelo://app?vid=b49c1e48-4bbf-4fd1-bf90-fe88ef997d43"},"vehicle_type_id":"4","last_reported":1747084141,"current_range_meters":9600,"station_id":"ce4bgvp2rcd13ifvqct0","pricing_plan_id":"cebpf4jnsgd1na2vs0mg"},{"bike_id":"2ee4d910-0ee1-4bc5-86c8-c77afad12b4f","system_id":"levelo_inurba_marseille","lat":43.321096,"lon":5.367724,"is_reserved":false,"is_disabled":false,"rental_uris":{"android":"levelo://app?vid=2ee4d910-0ee1-4bc5-86c8-c77afad12b4f","ios":"levelo://app?vid=2ee4d910-0ee1-4bc5-86c8-c77afad12b4f"},"vehicle_type_id":"4","last_reported":1747084141,"current_range_meters":9600,"station_id":"ce4bhrh2rcd13ifvqhug","pricing_plan_id":"cebpf4jnsgd1na2vs0mg"},{"bike_id":"37947ea2-4144-498b-9773-6d6e7497365c","system_id":"levelo_inurba_marseille","lat":43.31482,"lon":5.37308,"is_reserved":false,"is_disabled":false,"rental_uris":{"android":"levelo://app?vid=37947ea2-4144-498b-9773-6d6e7497365c","ios":"levelo://app?vid=37947ea2-4144-498b-9773-6d6e7497365c"},"vehicle_type_id":"4","last_reported":1747084141,"current_range_meters":10000,"station_id":"ce4bgt12rcd13ifvqcd0","pricing_plan_id":"cebpf4jnsgd1na2vs0mg"},{"bike_id":"04641abb-fe02-49ce-bcc8-72c9cbcad829","system_id":"levelo_inurba_marseille","lat":43.28852,"lon":5.39323,"is_reserved":false,"is_disabled":false,"rental_uris":{"android":"levelo://app?vid=04641abb-fe02-49ce-bcc8-72c9cbcad829","ios":"levelo://app?vid=04641abb-fe02-49ce-bcc8-72c9cbcad829"},"vehicle_type_id":"4","last_reported":1747084141,"current_range_meters":10000,"station_id":"ce4bh2p2rcd13ifvqdi0","pricing_plan_id":"cebpf4jnsgd1na2vs0mg"},{"bike_id":"a439c417-a336-45da-adc8-50442959e8dc","system_id":"levelo_inurba_marseille","lat":43.295202,"lon":5.390252,"is_reserved":false,"is_disabled":false,"rental_uris":{"android":"levelo://app?vid=a439c417-a336-45da-adc8-50442959e8dc","ios":"levelo://app?vid=a439c417-a336-45da-adc8-50442959e8dc"},"vehicle_type_id":"4","last_reported":1747084141,"current_range_meters":10000,"station_id":"ce4bh3p2rcd13ifvqdp0","pricing_plan_id":"cebpf4jnsgd1na2vs0mg"},{"bike_id":"acca8498-5f9b-48da-a0fd-34e73dfe9abc","system_id":"levelo_inurba_marseille","lat":43.284021,"lon":5.375307,"is_reserved":false,"is_disabled":false,"rental_uris":{"android":"levelo://app?vid=acca8498-5f9b-48da-a0fd-34e73dfe9abc","ios":"levelo://app?vid=acca8498-5f9b-48da-a0fd-34e73dfe9abc"},"vehicle_type_id":"4","last_reported":1747084141,"current_range_meters":10000,"station_id":"ce4bh412rcd13ifvqds0","pricing_plan_id":"cebpf4jnsgd1na2vs0mg"},{"bike_id":"0a8bb0eb-e18a-4601-8b9c-10cedd4593aa","system_id":"levelo_inurba_marseille","lat":43.25115,"lon":5.40321,"is_reserved":false,"is_disabled":false,"rental_uris":{"android":"levelo://app?vid=0a8bb0eb-e18a-4601-8b9c-10cedd4593aa","ios":"levelo://app?vid=0a8bb0eb-e18a-4601-8b9c-10cedd4593aa"},"vehicle_type_id":"4","last_reported":1747084141,"current_range_meters":10000,"station_id":"ce4bhlh2rcd13ifvqgig","pricing_plan_id":"cebpf4jnsgd1na2vs0mg"},{"bike_id":"a07af238-1d5a-492e-88df-35771675e17b","system_id":"levelo_inurba_marseille","lat":43.287,"lon":5.37383,"is_reserved":false,"is_disabled":false,"rental_uris":{"android":"levelo://app?vid=a07af238-1d5a-492e-88df-35771675e17b","ios":"levelo://app?vid=a07af238-1d5a-492e-88df-35771675e17b"},"vehicle_type_id":"4","last_reported":1747084141,"current_range_meters":10800,"station_id":"ce4bh3p2rcd13ifvqdq0","pricing_plan_id":"cebpf4jnsgd1na2vs0mg"},{"bike_id":"09667552-604c-472f-b05c-2be0e1fd2bf4","system_id":"levelo_inurba_marseille","lat":43.28011,"lon":5.36913,"is_reserved":false,"is_disabled":false,"rental_uris":{"android":"levelo://app?vid=09667552-604c-472f-b05c-2be0e1fd2bf4","ios":"levelo://app?vid=09667552-604c-472f-b05c-2be0e1fd2bf4"},"vehicle_type_id":"4","last_reported":1747084141,"current_range_meters":10800,"station_id":"ce4bha12rcd13ifvqef0","pricing_plan_id":"cebpf4jnsgd1na2vs0mg"},{"bike_id":"84daf3e2-01ed-48ee-8b76-11525731e098","system_id":"levelo_inurba_marseille","lat":43.31323,"lon":5.39691,"is_reserved":false,"is_disabled":false,"rental_uris":{"android":"levelo://app?vid=84daf3e2-01ed-48ee-8b76-11525731e098","ios":"levelo://app?vid=84daf3e2-01ed-48ee-8b76-11525731e098"},"vehicle_type_id":"4","last_reported":1747084141,"current_range_meters":11200,"station_id":"ce4bgvp2rcd13ifvqcu0","pricing_plan_id":"cebpf4jnsgd1na2vs0mg"},{"bike_id":"41da10f9-c4df-4a4d-81d7-007f46c00b73","system_id":"levelo_inurba_marseille","lat":43.23198,"lon":5.39981,"is_reserved":false,"is_disabled":false,"rental_uris":{"android":"levelo://app?vid=41da10f9-c4df-4a4d-81d7-007f46c00b73","ios":"levelo://app?vid=41da10f9-c4df-4a4d-81d7-007f46c00b73"},"vehicle_type_id":"4","last_reported":1747084141,"current_range_meters":11200,"station_id":"ce4bhn12rcd13ifvqgqg","pricing_plan_id":"cebpf4jnsgd1na2vs0mg"},{"bike_id":"3d8eff64-3568-4b32-b8e0-e6710e6b904b","system_id":"levelo_inurba_marseille","lat":43.330683,"lon":5.408203,"is_reserved":false,"is_disabled":false,"rental_uris":{"android":"levelo://app?vid=3d8eff64-3568-4b32-b8e0-e6710e6b904b","ios":"levelo://app?vid=3d8eff64-3568-4b32-b8e0-e6710e6b904b"},"vehicle_type_id":"4","last_reported":1747084141,"current_range_meters":12400,"station_id":"","pricing_plan_id":"cebpf4jnsgd1na2vs0mg"},{"bike_id":"0e89a721-196d-4572-b905-e39e1dafff7a","system_id":"levelo_inurba_marseille","lat":43.32116,"lon":5.36773,"is_reserved":false,"is_disabled":false,"rental_uris":{"android":"levelo://app?vid=0e89a721-196d-4572-b905-e39e1dafff7a","ios":"levelo://app?vid=0e89a721-196d-4572-b905-e39e1dafff7a"},"vehicle_type_id":"4","last_reported":1747084141,"current_range_meters":12400,"station_id":"ce4bhrh2rcd13ifvqhug","pricing_plan_id":"cebpf4jnsgd1na2vs0mg"},{"bike_id":"3bc82939-abcb-468f-afaf-ed8fa3e3693e","system_id":"levelo_inurba_marseille","lat":43.287236,"lon":5.360872,"is_reserved":false,"is_disabled":false,"rental_uris":{"android":"levelo://app?vid=3bc82939-abcb-468f-afaf-ed8fa3e3693e","ios":"levelo://app?vid=3bc82939-abcb-468f-afaf-ed8fa3e3693e"},"vehicle_type_id":"4","last_reported":1747084141,"current_range_meters":12400,"station_id":"cki0cbj6b192h4jlfktg","pricing_plan_id":"cebpf4jnsgd1na2vs0mg"},{"bike_id":"53786682-85f6-4326-82eb-181e03c1803a","system_id":"levelo_inurba_marseille","lat":43.22937,"lon":5.35377,"is_reserved":false,"is_disabled":false,"rental_uris":{"android":"levelo://app?vid=53786682-85f6-4326-82eb-181e03c1803a","ios":"levelo://app?vid=53786682-85f6-4326-82eb-181e03c1803a"},"vehicle_type_id":"4","last_reported":1747084141,"current_range_meters":12400,"station_id":"cpo3532slgdg3j2ikp40","pricing_plan_id":"cebpf4jnsgd1na2vs0mg"},{"bike_id":"89c550d1-b31b-49dc-bb41-cd52ba1ad9f2","system_id":"levelo_inurba_marseille","lat":43.24167,"lon":5.364087,"is_reserved":false,"is_disabled":false,"rental_uris":{"android":"levelo://app?vid=89c550d1-b31b-49dc-bb41-cd52ba1ad9f2","ios":"levelo://app?vid=89c550d1-b31b-49dc-bb41-cd52ba1ad9f2"},"vehicle_type_id":"4","last_reported":1747084141,"current_range_meters":12400,"station_id":"cpo36qri1sfpv3e86is0","pricing_plan_id":"cebpf4jnsgd1na2vs0mg"},{"bike_id":"b95a3da1-d84f-4349-bc15-21030c7174b6","system_id":"levelo_inurba_marseille","lat":43.292788,"lon":5.401205,"is_reserved":false,"is_disabled":false,"rental_uris":{"android":"levelo://app?vid=b95a3da1-d84f-4349-bc15-21030c7174b6","ios":"levelo://app?vid=b95a3da1-d84f-4349-bc15-21030c7174b6"},"vehicle_type_id":"4","last_reported":1747084141,"current_range_meters":12800,"station_id":"ce4bh312rcd13ifvqdk0","pricing_plan_id":"cebpf4jnsgd1na2vs0mg"},{"bike_id":"60cfea43-65dd-49c5-be74-cbe13c14c76d","system_id":"levelo_inurba_marseille","lat":43.28461,"lon":5.35886,"is_reserved":false,"is_disabled":false,"rental_uris":{"android":"levelo://app?vid=60cfea43-65dd-49c5-be74-cbe13c14c76d","ios":"levelo://app?vid=60cfea43-65dd-49c5-be74-cbe13c14c76d"},"vehicle_type_id":"4","last_reported":1747084141,"current_range_meters":12800,"station_id":"ce4bhah2rcd13ifvqei0","pricing_plan_id":"cebpf4jnsgd1na2vs0mg"},{"bike_id":"d9b91c76-9420-4248-9ccc-54ae67080ef3","system_id":"levelo_inurba_marseille","lat":43.31072,"lon":5.38354,"is_reserved":false,"is_disabled":false,"rental_uris":{"android":"levelo://app?vid=d9b91c76-9420-4248-9ccc-54ae67080ef3","ios":"levelo://app?vid=d9b91c76-9420-4248-9ccc-54ae67080ef3"},"vehicle_type_id":"4","last_reported":1747084141,"current_range_meters":13600,"station_id":"ce4bgv92rcd13ifvqcr0","pricing_plan_id":"cebpf4jnsgd1na2vs0mg"},{"bike_id":"7bb08f9a-53e9-4e23-b3f6-68c52ff07449","system_id":"levelo_inurba_marseille","lat":43.30883,"lon":5.39632,"is_reserved":false,"is_disabled":false,"rental_uris":{"android":"levelo://app?vid=7bb08f9a-53e9-4e23-b3f6-68c52ff07449","ios":"levelo://app?vid=7bb08f9a-53e9-4e23-b3f6-68c52ff07449"},"vehicle_type_id":"4","last_reported":1747084141,"current_range_meters":13600,"station_id":"ce4bh012rcd13ifvqcv0","pricing_plan_id":"cebpf4jnsgd1na2vs0mg"},{"bike_id":"0bca0979-0463-48af-8682-370acc5d34f8","system_id":"levelo_inurba_marseille","lat":43.30883,"lon":5.3964,"is_reserved":false,"is_disabled":false,"rental_uris":{"android":"levelo://app?vid=0bca0979-0463-48af-8682-370acc5d34f8","ios":"levelo://app?vid=0bca0979-0463-48af-8682-370acc5d34f8"},"vehicle_type_id":"4","last_reported":1747084141,"current_range_meters":13600,"station_id":"ce4bh012rcd13ifvqcv0","pricing_plan_id":"cebpf4jnsgd1na2vs0mg"},{"bike_id":"07ffb19d-b501-4ad9-83bb-dd78a1a6b6a4","system_id":"levelo_inurba_marseille","lat":43.30092,"lon":5.39085,"is_reserved":false,"is_disabled":false,"rental_uris":{"android":"levelo://app?vid=07ffb19d-b501-4ad9-83bb-dd78a1a6b6a4","ios":"levelo://app?vid=07ffb19d-b501-4ad9-83bb-dd78a1a6b6a4"},"vehicle_type_id":"4","last_reported":1747084141,"current_range_meters":13600,"station_id":"ce4bh192rcd13ifvqdb0","pricing_plan_id":"cebpf4jnsgd1na2vs0mg"},{"bike_id":"5737a013-6028-40ac-a49e-9b8b77ce7e64","system_id":"levelo_inurba_marseille","lat":43.29276,"lon":5.40113,"is_reserved":false,"is_disabled":false,"rental_uris":{"android":"levelo://app?vid=5737a013-6028-40ac-a49e-9b8b77ce7e64","ios":"levelo://app?vid=5737a013-6028-40ac-a49e-9b8b77ce7e64"},"vehicle_type_id":"4","last_reported":1747084141,"current_range_meters":13600,"station_id":"ce4bh312rcd13ifvqdk0","pricing_plan_id":"cebpf4jnsgd1na2vs0mg"},{"bike_id":"4acebf5d-90de-4f34-bd54-e2958ed913ff","system_id":"levelo_inurba_marseille","lat":43.29286,"lon":5.40131,"is_reserved":false,"is_disabled":false,"rental_uris":{"android":"levelo://app?vid=4acebf5d-90de-4f34-bd54-e2958ed913ff","ios":"levelo://app?vid=4acebf5d-90de-4f34-bd54-e2958ed913ff"},"vehicle_type_id":"4","last_reported":1747084141,"current_range_meters":13600,"station_id":"ce4bh312rcd13ifvqdk0","pricing_plan_id":"cebpf4jnsgd1na2vs0mg"},{"bike_id":"315c9aa5-cd9f-4a60-8ba2-a8f8830c3824","system_id":"levelo_inurba_marseille","lat":43.32355,"lon":5.40625,"is_reserved":false,"is_disabled":false,"rental_uris":{"android":"levelo://app?vid=315c9aa5-cd9f-4a60-8ba2-a8f8830c3824","ios":"levelo://app?vid=315c9aa5-cd9f-4a60-8ba2-a8f8830c3824"},"vehicle_type_id":"4","last_reported":1747084141,"current_range_meters":13600,"station_id":"ce4bhq92rcd13ifvqhjg","pricing_plan_id":"cebpf4jnsgd1na2vs0mg"},{"bike_id":"c899402d-15b4-4bd3-b79a-4ecbfbf73aa2","system_id":"levelo_inurba_marseille","lat":43.29866,"lon":5.39745,"is_reserved":false,"is_disabled":false,"rental_uris":{"android":"levelo://app?vid=c899402d-15b4-4bd3-b79a-4ecbfbf73aa2","ios":"levelo://app?vid=c899402d-15b4-4bd3-b79a-4ecbfbf73aa2"},"vehicle_type_id":"4","last_reported":1747084141,"current_range_meters":14000,"station_id":"ce4bh0h2rcd13ifvqd50","pricing_plan_id":"cebpf4jnsgd1na2vs0mg"},{"bike_id":"7dd23b04-e01a-4802-ba75-c88e8a8178ae","system_id":"levelo_inurba_marseille","lat":43.29793,"lon":5.39338,"is_reserved":false,"is_disabled":false,"rental_uris":{"android":"levelo://app?vid=7dd23b04-e01a-4802-ba75-c88e8a8178ae","ios":"levelo://app?vid=7dd23b04-e01a-4802-ba75-c88e8a8178ae"},"vehicle_type_id":"4","last_reported":1747084141,"current_range_meters":14000,"station_id":"chh1huq6cuj3fo74tm60","pricing_plan_id":"cebpf4jnsgd1na2vs0mg"},{"bike_id":"50587aa9-8676-420a-89bb-849b5c5c8519","system_id":"levelo_inurba_marseille","lat":43.30299,"lon":5.39211,"is_reserved":false,"is_disabled":false,"rental_uris":{"android":"levelo://app?vid=50587aa9-8676-420a-89bb-849b5c5c8519","ios":"levelo://app?vid=50587aa9-8676-420a-89bb-849b5c5c8519"},"vehicle_type_id":"4","last_reported":1747084141,"current_range_meters":14400,"station_id":"ce4bgkh2rcd13ifvqbk0","pricing_plan_id":"cebpf4jnsgd1na2vs0mg"},{"bike_id":"b29cd197-f0d5-40a7-a1a8-cdcae63d1eb7","system_id":"levelo_inurba_marseille","lat":43.30939,"lon":5.4017,"is_reserved":false,"is_disabled":false,"rental_uris":{"android":"levelo://app?vid=b29cd197-f0d5-40a7-a1a8-cdcae63d1eb7","ios":"levelo://app?vid=b29cd197-f0d5-40a7-a1a8-cdcae63d1eb7"},"vehicle_type_id":"4","last_reported":1747084141,"current_range_meters":14400,"station_id":"ce4bgvp2rcd13ifvqct0","pricing_plan_id":"cebpf4jnsgd1na2vs0mg"},{"bike_id":"5d74da64-aee9-4cd3-bda2-ef1538e35940","system_id":"levelo_inurba_marseille","lat":43.30136,"lon":5.38768,"is_reserved":false,"is_disabled":false,"rental_uris":{"android":"levelo://app?vid=5d74da64-aee9-4cd3-bda2-ef1538e35940","ios":"levelo://app?vid=5d74da64-aee9-4cd3-bda2-ef1538e35940"},"vehicle_type_id":"4","last_reported":1747084141,"current_range_meters":14800,"station_id":"ce4bghh2rcd13ifvqb60","pricing_plan_id":"cebpf4jnsgd1na2vs0mg"},{"bike_id":"7c71500b-711a-4e1c-8429-c14fd1c6aa78","system_id":"levelo_inurba_marseille","lat":43.28843,"lon":5.39312,"is_reserved":false,"is_disabled":false,"rental_uris":{"android":"levelo://app?vid=7c71500b-711a-4e1c-8429-c14fd1c6aa78","ios":"levelo://app?vid=7c71500b-711a-4e1c-8429-c14fd1c6aa78"},"vehicle_type_id":"4","last_reported":1747084141,"current_range_meters":14800,"station_id":"ce4bh2p2rcd13ifvqdi0","pricing_plan_id":"cebpf4jnsgd1na2vs0mg"},{"bike_id":"ad300670-c1e8-4eb8-b4cf-758bbb5e605b","system_id":"levelo_inurba_marseille","lat":43.28722,"lon":5.37943,"is_reserved":false,"is_disabled":false,"rental_uris":{"android":"levelo://app?vid=ad300670-c1e8-4eb8-b4cf-758bbb5e605b","ios":"levelo://app?vid=ad300670-c1e8-4eb8-b4cf-758bbb5e605b"},"vehicle_type_id":"4","last_reported":1747084141,"current_range_meters":14800,"station_id":"ce4bh9p2rcd13ifvqec0","pricing_plan_id":"cebpf4jnsgd1na2vs0mg"},{"bike_id":"47b1ce4e-3c75-4834-95e3-d116cd860e48","system_id":"levelo_inurba_marseille","lat":43.258208,"lon":5.394422,"is_reserved":false,"is_disabled":false,"rental_uris":{"android":"levelo://app?vid=47b1ce4e-3c75-4834-95e3-d116cd860e48","ios":"levelo://app?vid=47b1ce4e-3c75-4834-95e3-d116cd860e48"},"vehicle_type_id":"4","last_reported":1747084141,"current_range_meters":14800,"station_id":"ce4bhip2rcd13ifvqft0","pricing_plan_id":"cebpf4jnsgd1na2vs0mg"},{"bike_id":"dc8472a8-1e0e-48c9-8d42-8e60b4ffb2cb","system_id":"levelo_inurba_marseille","lat":43.28696,"lon":5.36347,"is_reserved":false,"is_disabled":false,"rental_uris":{"android":"levelo://app?vid=dc8472a8-1e0e-48c9-8d42-8e60b4ffb2cb","ios":"levelo://app?vid=dc8472a8-1e0e-48c9-8d42-8e60b4ffb2cb"},"vehicle_type_id":"4","last_reported":1747084141,"current_range_meters":15200,"station_id":"ce4bhah2rcd13ifvqej0","pricing_plan_id":"cebpf4jnsgd1na2vs0mg"},{"bike_id":"8acf2063-92cb-4014-9618-27961b9bd647","system_id":"levelo_inurba_marseille","lat":43.27182,"lon":5.40988,"is_reserved":false,"is_disabled":false,"rental_uris":{"android":"levelo://app?vid=8acf2063-92cb-4014-9618-27961b9bd647","ios":"levelo://app?vid=8acf2063-92cb-4014-9618-27961b9bd647"},"vehicle_type_id":"4","last_reported":1747084141,"current_range_meters":15200,"station_id":"ce4bhl12rcd13ifvqgf0","pricing_plan_id":"cebpf4jnsgd1na2vs0mg"},{"bike_id":"a16a5225-a9f3-4574-93f1-917416829b59","system_id":"levelo_inurba_marseille","lat":43.25123,"lon":5.40321,"is_reserved":false,"is_disabled":false,"rental_uris":{"android":"levelo://app?vid=a16a5225-a9f3-4574-93f1-917416829b59","ios":"levelo://app?vid=a16a5225-a9f3-4574-93f1-917416829b59"},"vehicle_type_id":"4","last_reported":1747084141,"current_range_meters":15200,"station_id":"ce4bhlh2rcd13ifvqgig","pricing_plan_id":"cebpf4jnsgd1na2vs0mg"},{"bike_id":"b0cd3a5a-9b74-463b-b163-f8b7f838fc39","system_id":"levelo_inurba_marseille","lat":43.24091,"lon":5.37743,"is_reserved":false,"is_disabled":false,"rental_uris":{"android":"levelo://app?vid=b0cd3a5a-9b74-463b-b163-f8b7f838fc39","ios":"levelo://app?vid=b0cd3a5a-9b74-463b-b163-f8b7f838fc39"},"vehicle_type_id":"4","last_reported":1747084141,"current_range_meters":15200,"station_id":"ce4bhnp2rcd13ifvqgvg","pricing_plan_id":"cebpf4jnsgd1na2vs0mg"},{"bike_id":"e6ad97f1-b73e-46fd-a80f-360ecb6587de","system_id":"levelo_inurba_marseille","lat":43.28001,"lon":5.40014,"is_reserved":false,"is_disabled":false,"rental_uris":{"android":"levelo://app?vid=e6ad97f1-b73e-46fd-a80f-360ecb6587de","ios":"levelo://app?vid=e6ad97f1-b73e-46fd-a80f-360ecb6587de"},"vehicle_type_id":"4","last_reported":1747084141,"current_range_meters":15200,"station_id":"ce4bho92rcd13ifvqh4g","pricing_plan_id":"cebpf4jnsgd1na2vs0mg"},{"bike_id":"c1071164-2841-45b5-8016-56ee1adcf364","system_id":"levelo_inurba_marseille","lat":43.30139,"lon":5.37415,"is_reserved":false,"is_disabled":false,"rental_uris":{"android":"levelo://app?vid=c1071164-2841-45b5-8016-56ee1adcf364","ios":"levelo://app?vid=c1071164-2841-45b5-8016-56ee1adcf364"},"vehicle_type_id":"4","last_reported":1747084141,"current_range_meters":16000,"station_id":"ce4bgs92rcd13ifvqcc0","pricing_plan_id":"cebpf4jnsgd1na2vs0mg"},{"bike_id":"de95d53c-a8d8-42e2-bf5c-cb50d31548c5","system_id":"levelo_inurba_marseille","lat":43.28111,"lon":5.37839,"is_reserved":false,"is_disabled":false,"rental_uris":{"android":"levelo://app?vid=de95d53c-a8d8-42e2-bf5c-cb50d31548c5","ios":"levelo://app?vid=de95d53c-a8d8-42e2-bf5c-cb50d31548c5"},"vehicle_type_id":"4","last_reported":1747084141,"current_range_meters":16000,"station_id":"ce4bha12rcd13ifvqee0","pricing_plan_id":"cebpf4jnsgd1na2vs0mg"},{"bike_id":"39dbaf81-bc49-42f6-96c5-50b162f92bd5","system_id":"levelo_inurba_marseille","lat":43.28459,"lon":5.35888,"is_reserved":false,"is_disabled":false,"rental_uris":{"android":"levelo://app?vid=39dbaf81-bc49-42f6-96c5-50b162f92bd5","ios":"levelo://app?vid=39dbaf81-bc49-42f6-96c5-50b162f92bd5"},"vehicle_type_id":"4","last_reported":1747084141,"current_range_meters":16000,"station_id":"ce4bhah2rcd13ifvqei0","pricing_plan_id":"cebpf4jnsgd1na2vs0mg"},{"bike_id":"25f3094b-544c-4eea-9975-18983fc48b50","system_id":"levelo_inurba_marseille","lat":43.27175,"lon":5.40992,"is_reserved":false,"is_disabled":false,"rental_uris":{"android":"levelo://app?vid=25f3094b-544c-4eea-9975-18983fc48b50","ios":"levelo://app?vid=25f3094b-544c-4eea-9975-18983fc48b50"},"vehicle_type_id":"4","last_reported":1747084141,"current_range_meters":16000,"station_id":"ce4bhl12rcd13ifvqgf0","pricing_plan_id":"cebpf4jnsgd1na2vs0mg"},{"bike_id":"7cbe2c1e-547b-4cac-8534-f8686f887179","system_id":"levelo_inurba_marseille","lat":43.30931,"lon":5.40141,"is_reserved":false,"is_disabled":false,"rental_uris":{"android":"levelo://app?vid=7cbe2c1e-547b-4cac-8534-f8686f887179","ios":"levelo://app?vid=7cbe2c1e-547b-4cac-8534-f8686f887179"},"vehicle_type_id":"4","last_reported":1747084141,"current_range_meters":16400,"station_id":"ce4bgvp2rcd13ifvqct0","pricing_plan_id":"cebpf4jnsgd1na2vs0mg"},{"bike_id":"fda46159-6355-4236-a085-60a24fc1c842","system_id":"levelo_inurba_marseille","lat":43.29549,"lon":5.42279,"is_reserved":false,"is_disabled":false,"rental_uris":{"android":"levelo://app?vid=fda46159-6355-4236-a085-60a24fc1c842","ios":"levelo://app?vid=fda46159-6355-4236-a085-60a24fc1c842"},"vehicle_type_id":"4","last_reported":1747084141,"current_range_meters":16400,"station_id":"ce4bhph2rcd13ifvqhdg","pricing_plan_id":"cebpf4jnsgd1na2vs0mg"},{"bike_id":"86689108-8b6c-425a-98ae-946b288cf2c2","system_id":"levelo_inurba_marseille","lat":43.28478,"lon":5.35896,"is_reserved":false,"is_disabled":false,"rental_uris":{"android":"levelo://app?vid=86689108-8b6c-425a-98ae-946b288cf2c2","ios":"levelo://app?vid=86689108-8b6c-425a-98ae-946b288cf2c2"},"vehicle_type_id":"4","last_reported":1747084141,"current_range_meters":17200,"station_id":"ce4bhah2rcd13ifvqei0","pricing_plan_id":"cebpf4jnsgd1na2vs0mg"},{"bike_id":"aaf1bb4b-f3d6-45cc-8e77-e5d0c945415a","system_id":"levelo_inurba_marseille","lat":43.26226,"lon":5.40449,"is_reserved":false,"is_disabled":false,"rental_uris":{"android":"levelo://app?vid=aaf1bb4b-f3d6-45cc-8e77-e5d0c945415a","ios":"levelo://app?vid=aaf1bb4b-f3d6-45cc-8e77-e5d0c945415a"},"vehicle_type_id":"4","last_reported":1747084141,"current_range_meters":17200,"station_id":"ce4bhmh2rcd13ifvqgmg","pricing_plan_id":"cebpf4jnsgd1na2vs0mg"},{"bike_id":"520f07fc-e2a5-442e-bcdc-caa8376efe3e","system_id":"levelo_inurba_marseille","lat":43.3169,"lon":5.40429,"is_reserved":false,"is_disabled":false,"rental_uris":{"android":"levelo://app?vid=520f07fc-e2a5-442e-bcdc-caa8376efe3e","ios":"levelo://app?vid=520f07fc-e2a5-442e-bcdc-caa8376efe3e"},"vehicle_type_id":"4","last_reported":1747084141,"current_range_meters":17600,"station_id":"ce4bh012rcd13ifvqd00","pricing_plan_id":"cebpf4jnsgd1na2vs0mg"},{"bike_id":"337ef7e8-467e-4f05-96c1-cf8489ead9eb","system_id":"levelo_inurba_marseille","lat":43.288443,"lon":5.393143,"is_reserved":false,"is_disabled":false,"rental_uris":{"android":"levelo://app?vid=337ef7e8-467e-4f05-96c1-cf8489ead9eb","ios":"levelo://app?vid=337ef7e8-467e-4f05-96c1-cf8489ead9eb"},"vehicle_type_id":"4","last_reported":1747084141,"current_range_meters":17600,"station_id":"ce4bh2p2rcd13ifvqdi0","pricing_plan_id":"cebpf4jnsgd1na2vs0mg"},{"bike_id":"fae984ea-baa1-40d3-87db-13e18435c50b","system_id":"levelo_inurba_marseille","lat":43.294522,"lon":5.397587,"is_reserved":false,"is_disabled":false,"rental_uris":{"android":"levelo://app?vid=fae984ea-baa1-40d3-87db-13e18435c50b","ios":"levelo://app?vid=fae984ea-baa1-40d3-87db-13e18435c50b"},"vehicle_type_id":"4","last_reported":1747084141,"current_range_meters":17600,"station_id":"ce4bh3h2rcd13ifvqdo0","pricing_plan_id":"cebpf4jnsgd1na2vs0mg"},{"bike_id":"5ed6891a-4747-4680-a606-698f44b742e8","system_id":"levelo_inurba_marseille","lat":43.30642,"lon":5.40095,"is_reserved":false,"is_disabled":false,"rental_uris":{"android":"levelo://app?vid=5ed6891a-4747-4680-a606-698f44b742e8","ios":"levelo://app?vid=5ed6891a-4747-4680-a606-698f44b742e8"},"vehicle_type_id":"4","last_reported":1747084141,"current_range_meters":18000,"station_id":"ce4bh112rcd13ifvqda0","pricing_plan_id":"cebpf4jnsgd1na2vs0mg"},{"bike_id":"73108da5-d7e4-4311-b370-e61de23d4b69","system_id":"levelo_inurba_marseille","lat":43.24547,"lon":5.39521,"is_reserved":false,"is_disabled":false,"rental_uris":{"android":"levelo://app?vid=73108da5-d7e4-4311-b370-e61de23d4b69","ios":"levelo://app?vid=73108da5-d7e4-4311-b370-e61de23d4b69"},"vehicle_type_id":"4","last_reported":1747084141,"current_range_meters":18000,"station_id":"ce4bhlp2rcd13ifvqgjg","pricing_plan_id":"cebpf4jnsgd1na2vs0mg"},{"bike_id":"73b925a4-d8dc-4fba-aa27-407fbb0adf5a","system_id":"levelo_inurba_marseille","lat":43.31706,"lon":5.37754,"is_reserved":false,"is_disabled":false,"rental_uris":{"android":"levelo://app?vid=73b925a4-d8dc-4fba-aa27-407fbb0adf5a","ios":"levelo://app?vid=73b925a4-d8dc-4fba-aa27-407fbb0adf5a"},"vehicle_type_id":"4","last_reported":1747084141,"current_range_meters":18800,"station_id":"ce4bgth2rcd13ifvqch0","pricing_plan_id":"cebpf4jnsgd1na2vs0mg"},{"bike_id":"7425e78c-d0a6-4263-a719-a516c50f7642","system_id":"levelo_inurba_marseille","lat":43.30935,"lon":5.40141,"is_reserved":false,"is_disabled":false,"rental_uris":{"android":"levelo://app?vid=7425e78c-d0a6-4263-a719-a516c50f7642","ios":"levelo://app?vid=7425e78c-d0a6-4263-a719-a516c50f7642"},"vehicle_type_id":"4","last_reported":1747084141,"current_range_meters":18800,"station_id":"ce4bgvp2rcd13ifvqct0","pricing_plan_id":"cebpf4jnsgd1na2vs0mg"},{"bike_id":"849551c5-240b-48cd-88b2-3e23f9d3b406","system_id":"levelo_inurba_marseille","lat":43.284105,"lon":5.375121,"is_reserved":false,"is_disabled":false,"rental_uris":{"android":"levelo://app?vid=849551c5-240b-48cd-88b2-3e23f9d3b406","ios":"levelo://app?vid=849551c5-240b-48cd-88b2-3e23f9d3b406"},"vehicle_type_id":"4","last_reported":1747084141,"current_range_meters":18800,"station_id":"ce4bh412rcd13ifvqds0","pricing_plan_id":"cebpf4jnsgd1na2vs0mg"},{"bike_id":"71dcef97-5ca8-4f84-8ca3-ae96d0a35658","system_id":"levelo_inurba_marseille","lat":43.28766,"lon":5.37914,"is_reserved":false,"is_disabled":false,"rental_uris":{"android":"levelo://app?vid=71dcef97-5ca8-4f84-8ca3-ae96d0a35658","ios":"levelo://app?vid=71dcef97-5ca8-4f84-8ca3-ae96d0a35658"},"vehicle_type_id":"4","last_reported":1747084141,"current_range_meters":18800,"station_id":"ce4bh9p2rcd13ifvqec0","pricing_plan_id":"cebpf4jnsgd1na2vs0mg"},{"bike_id":"a9402a6c-1e6e-4ba2-9008-7b0aceb5aadf","system_id":"levelo_inurba_marseille","lat":43.2846,"lon":5.35879,"is_reserved":false,"is_disabled":false,"rental_uris":{"android":"levelo://app?vid=a9402a6c-1e6e-4ba2-9008-7b0aceb5aadf","ios":"levelo://app?vid=a9402a6c-1e6e-4ba2-9008-7b0aceb5aadf"},"vehicle_type_id":"4","last_reported":1747084141,"current_range_meters":18800,"station_id":"ce4bhah2rcd13ifvqei0","pricing_plan_id":"cebpf4jnsgd1na2vs0mg"},{"bike_id":"e2b7593a-dbbc-4a30-b5c1-ee286ff2c1a1","system_id":"levelo_inurba_marseille","lat":43.24681,"lon":5.38154,"is_reserved":false,"is_disabled":false,"rental_uris":{"android":"levelo://app?vid=e2b7593a-dbbc-4a30-b5c1-ee286ff2c1a1","ios":"levelo://app?vid=e2b7593a-dbbc-4a30-b5c1-ee286ff2c1a1"},"vehicle_type_id":"4","last_reported":1747084141,"current_range_meters":18800,"station_id":"ce4bhih2rcd13ifvqfr0","pricing_plan_id":"cebpf4jnsgd1na2vs0mg"},{"bike_id":"0f6c80c2-b8a3-44ea-a63f-3c74b3ab6dc1","system_id":"levelo_inurba_marseille","lat":43.27838,"lon":5.39207,"is_reserved":false,"is_disabled":false,"rental_uris":{"android":"levelo://app?vid=0f6c80c2-b8a3-44ea-a63f-3c74b3ab6dc1","ios":"levelo://app?vid=0f6c80c2-b8a3-44ea-a63f-3c74b3ab6dc1"},"vehicle_type_id":"4","last_reported":1747084141,"current_range_meters":18800,"station_id":"ce4bhjp2rcd13ifvqga0","pricing_plan_id":"cebpf4jnsgd1na2vs0mg"},{"bike_id":"b10eb417-38c8-4ba1-beaa-8d184d5cc491","system_id":"levelo_inurba_marseille","lat":43.25896,"lon":5.39901,"is_reserved":false,"is_disabled":false,"rental_uris":{"android":"levelo://app?vid=b10eb417-38c8-4ba1-beaa-8d184d5cc491","ios":"levelo://app?vid=b10eb417-38c8-4ba1-beaa-8d184d5cc491"},"vehicle_type_id":"4","last_reported":1747084141,"current_range_meters":18800,"station_id":"ce4bhl92rcd13ifvqghg","pricing_plan_id":"cebpf4jnsgd1na2vs0mg"},{"bike_id":"ae2670a2-585e-4081-a3e0-8ca36e005485","system_id":"levelo_inurba_marseille","lat":43.24081,"lon":5.37747,"is_reserved":false,"is_disabled":false,"rental_uris":{"android":"levelo://app?vid=ae2670a2-585e-4081-a3e0-8ca36e005485","ios":"levelo://app?vid=ae2670a2-585e-4081-a3e0-8ca36e005485"},"vehicle_type_id":"4","last_reported":1747084141,"current_range_meters":18800,"station_id":"ce4bhnp2rcd13ifvqgvg","pricing_plan_id":"cebpf4jnsgd1na2vs0mg"},{"bike_id":"79bb0198-c0e7-4a4d-971f-338c22111321","system_id":"levelo_inurba_marseille","lat":43.30638,"lon":5.40063,"is_reserved":false,"is_disabled":false,"rental_uris":{"android":"levelo://app?vid=79bb0198-c0e7-4a4d-971f-338c22111321","ios":"levelo://app?vid=79bb0198-c0e7-4a4d-971f-338c22111321"},"vehicle_type_id":"4","last_reported":1747084141,"current_range_meters":19200,"station_id":"ce4bh112rcd13ifvqda0","pricing_plan_id":"cebpf4jnsgd1na2vs0mg"},{"bike_id":"6612848c-309d-4d62-ac1d-f61c33129268","system_id":"levelo_inurba_marseille","lat":43.30643,"lon":5.40063,"is_reserved":false,"is_disabled":false,"rental_uris":{"android":"levelo://app?vid=6612848c-309d-4d62-ac1d-f61c33129268","ios":"levelo://app?vid=6612848c-309d-4d62-ac1d-f61c33129268"},"vehicle_type_id":"4","last_reported":1747084141,"current_range_meters":19200,"station_id":"ce4bh112rcd13ifvqda0","pricing_plan_id":"cebpf4jnsgd1na2vs0mg"},{"bike_id":"ded468cc-6fd5-4e33-9369-ab95d82b1318","system_id":"levelo_inurba_marseille","lat":43.28455,"lon":5.35884,"is_reserved":false,"is_disabled":false,"rental_uris":{"android":"levelo://app?vid=ded468cc-6fd5-4e33-9369-ab95d82b1318","ios":"levelo://app?vid=ded468cc-6fd5-4e33-9369-ab95d82b1318"},"vehicle_type_id":"4","last_reported":1747084141,"current_range_meters":19200,"station_id":"ce4bhah2rcd13ifvqei0","pricing_plan_id":"cebpf4jnsgd1na2vs0mg"},{"bike_id":"2b02467a-5ffd-42c5-bd01-79712910f637","system_id":"levelo_inurba_marseille","lat":43.28153,"lon":5.4264,"is_reserved":false,"is_disabled":false,"rental_uris":{"android":"levelo://app?vid=2b02467a-5ffd-42c5-bd01-79712910f637","ios":"levelo://app?vid=2b02467a-5ffd-42c5-bd01-79712910f637"},"vehicle_type_id":"4","last_reported":1747084141,"current_range_meters":19200,"station_id":"ce4bhnh2rcd13ifvqgug","pricing_plan_id":"cebpf4jnsgd1na2vs0mg"},{"bike_id":"63fb28b9-258e-4580-8e31-1efaa0aeb238","system_id":"levelo_inurba_marseille","lat":43.28077,"lon":5.39652,"is_reserved":false,"is_disabled":false,"rental_uris":{"android":"levelo://app?vid=63fb28b9-258e-4580-8e31-1efaa0aeb238","ios":"levelo://app?vid=63fb28b9-258e-4580-8e31-1efaa0aeb238"},"vehicle_type_id":"4","last_reported":1747084141,"current_range_meters":19200,"station_id":"ce4bho12rcd13ifvqh2g","pricing_plan_id":"cebpf4jnsgd1na2vs0mg"},{"bike_id":"d3629d0d-f9f7-4570-810d-0dd85a0d69b8","system_id":"levelo_inurba_marseille","lat":43.30806,"lon":5.38138,"is_reserved":false,"is_disabled":false,"rental_uris":{"android":"levelo://app?vid=d3629d0d-f9f7-4570-810d-0dd85a0d69b8","ios":"levelo://app?vid=d3629d0d-f9f7-4570-810d-0dd85a0d69b8"},"vehicle_type_id":"4","last_reported":1747084141,"current_range_meters":19600,"station_id":"ce4bgt12rcd13ifvqce0","pricing_plan_id":"cebpf4jnsgd1na2vs0mg"},{"bike_id":"39a6bd1f-7072-469f-8856-342cea40130d","system_id":"levelo_inurba_marseille","lat":43.24642,"lon":5.38898,"is_reserved":false,"is_disabled":false,"rental_uris":{"android":"levelo://app?vid=39a6bd1f-7072-469f-8856-342cea40130d","ios":"levelo://app?vid=39a6bd1f-7072-469f-8856-342cea40130d"},"vehicle_type_id":"4","last_reported":1747084141,"current_range_meters":19600,"station_id":"ce4bhg12rcd13ifvqf60","pricing_plan_id":"cebpf4jnsgd1na2vs0mg"},{"bike_id":"07f30e49-06ca-4af7-b039-0a349f1ecd38","system_id":"levelo_inurba_marseille","lat":43.29252,"lon":5.40903,"is_reserved":false,"is_disabled":false,"rental_uris":{"android":"levelo://app?vid=07f30e49-06ca-4af7-b039-0a349f1ecd38","ios":"levelo://app?vid=07f30e49-06ca-4af7-b039-0a349f1ecd38"},"vehicle_type_id":"4","last_reported":1747084141,"current_range_meters":20000,"station_id":"","pricing_plan_id":"cebpf4jnsgd1na2vs0mg"},{"bike_id":"acc5833a-6427-49df-a603-fbea78aca361","system_id":"levelo_inurba_marseille","lat":43.30926,"lon":5.40157,"is_reserved":false,"is_disabled":false,"rental_uris":{"android":"levelo://app?vid=acc5833a-6427-49df-a603-fbea78aca361","ios":"levelo://app?vid=acc5833a-6427-49df-a603-fbea78aca361"},"vehicle_type_id":"4","last_reported":1747084141,"current_range_meters":20000,"station_id":"ce4bgvp2rcd13ifvqct0","pricing_plan_id":"cebpf4jnsgd1na2vs0mg"},{"bike_id":"8f226f63-1a42-406a-aed4-0e11d042d950","system_id":"levelo_inurba_marseille","lat":43.271743,"lon":5.409883,"is_reserved":false,"is_disabled":false,"rental_uris":{"android":"levelo://app?vid=8f226f63-1a42-406a-aed4-0e11d042d950","ios":"levelo://app?vid=8f226f63-1a42-406a-aed4-0e11d042d950"},"vehicle_type_id":"4","last_reported":1747084141,"current_range_meters":20000,"station_id":"ce4bhl12rcd13ifvqgf0","pricing_plan_id":"cebpf4jnsgd1na2vs0mg"},{"bike_id":"59bd68ff-a61f-444d-9496-d2f88e27ccd4","system_id":"levelo_inurba_marseille","lat":43.287008,"lon":5.39974,"is_reserved":false,"is_disabled":false,"rental_uris":{"android":"levelo://app?vid=59bd68ff-a61f-444d-9496-d2f88e27ccd4","ios":"levelo://app?vid=59bd68ff-a61f-444d-9496-d2f88e27ccd4"},"vehicle_type_id":"4","last_reported":1747084141,"current_range_meters":20000,"station_id":"ce4bho92rcd13ifvqh3g","pricing_plan_id":"cebpf4jnsgd1na2vs0mg"},{"bike_id":"c1234833-9229-4e89-b9fe-8e9717a034dd","system_id":"levelo_inurba_marseille","lat":43.32369,"lon":5.38884,"is_reserved":false,"is_disabled":false,"rental_uris":{"android":"levelo://app?vid=c1234833-9229-4e89-b9fe-8e9717a034dd","ios":"levelo://app?vid=c1234833-9229-4e89-b9fe-8e9717a034dd"},"vehicle_type_id":"4","last_reported":1747084141,"current_range_meters":20000,"station_id":"ce4bhqp2rcd13ifvqhog","pricing_plan_id":"cebpf4jnsgd1na2vs0mg"},{"bike_id":"9d76660f-c284-49a2-8765-48337aa51471","system_id":"levelo_inurba_marseille","lat":43.32102,"lon":5.36779,"is_reserved":false,"is_disabled":false,"rental_uris":{"android":"levelo://app?vid=9d76660f-c284-49a2-8765-48337aa51471","ios":"levelo://app?vid=9d76660f-c284-49a2-8765-48337aa51471"},"vehicle_type_id":"4","last_reported":1747084141,"current_range_meters":20000,"station_id":"ce4bhrh2rcd13ifvqhug","pricing_plan_id":"cebpf4jnsgd1na2vs0mg"},{"bike_id":"6eb0004f-6ee3-4804-97a0-f050ea148c7b","system_id":"levelo_inurba_marseille","lat":43.29797,"lon":5.39351,"is_reserved":false,"is_disabled":false,"rental_uris":{"android":"levelo://app?vid=6eb0004f-6ee3-4804-97a0-f050ea148c7b","ios":"levelo://app?vid=6eb0004f-6ee3-4804-97a0-f050ea148c7b"},"vehicle_type_id":"4","last_reported":1747084141,"current_range_meters":20000,"station_id":"chh1huq6cuj3fo74tm60","pricing_plan_id":"cebpf4jnsgd1na2vs0mg"},{"bike_id":"0c893fb7-8626-4706-85bf-f404b871dea5","system_id":"levelo_inurba_marseille","lat":43.28137,"lon":5.445804,"is_reserved":false,"is_disabled":false,"rental_uris":{"android":"levelo://app?vid=0c893fb7-8626-4706-85bf-f404b871dea5","ios":"levelo://app?vid=0c893fb7-8626-4706-85bf-f404b871dea5"},"vehicle_type_id":"4","last_reported":1747084141,"current_range_meters":20400,"station_id":"","pricing_plan_id":"cebpf4jnsgd1na2vs0mg"},{"bike_id":"002ef7fa-f707-40e5-9c86-0629335eaaf5","system_id":"levelo_inurba_marseille","lat":43.3088,"lon":5.39624,"is_reserved":false,"is_disabled":false,"rental_uris":{"android":"levelo://app?vid=002ef7fa-f707-40e5-9c86-0629335eaaf5","ios":"levelo://app?vid=002ef7fa-f707-40e5-9c86-0629335eaaf5"},"vehicle_type_id":"4","last_reported":1747084141,"current_range_meters":20400,"station_id":"ce4bh012rcd13ifvqcv0","pricing_plan_id":"cebpf4jnsgd1na2vs0mg"},{"bike_id":"50838afa-4db6-4810-a427-67691cd7c935","system_id":"levelo_inurba_marseille","lat":43.27924,"lon":5.39571,"is_reserved":false,"is_disabled":false,"rental_uris":{"android":"levelo://app?vid=50838afa-4db6-4810-a427-67691cd7c935","ios":"levelo://app?vid=50838afa-4db6-4810-a427-67691cd7c935"},"vehicle_type_id":"4","last_reported":1747084141,"current_range_meters":20400,"station_id":"ce4bhf92rcd13ifvqf40","pricing_plan_id":"cebpf4jnsgd1na2vs0mg"},{"bike_id":"f37ade65-3032-4bd0-bb71-67b6dc3c7b33","system_id":"levelo_inurba_marseille","lat":43.308833,"lon":5.396425,"is_reserved":false,"is_disabled":false,"rental_uris":{"android":"levelo://app?vid=f37ade65-3032-4bd0-bb71-67b6dc3c7b33","ios":"levelo://app?vid=f37ade65-3032-4bd0-bb71-67b6dc3c7b33"},"vehicle_type_id":"4","last_reported":1747084141,"current_range_meters":20800,"station_id":"ce4bh012rcd13ifvqcv0","pricing_plan_id":"cebpf4jnsgd1na2vs0mg"},{"bike_id":"1095b252-790e-4155-ab4e-86136a24d6fc","system_id":"levelo_inurba_marseille","lat":43.2847,"lon":5.35881,"is_reserved":false,"is_disabled":false,"rental_uris":{"android":"levelo://app?vid=1095b252-790e-4155-ab4e-86136a24d6fc","ios":"levelo://app?vid=1095b252-790e-4155-ab4e-86136a24d6fc"},"vehicle_type_id":"4","last_reported":1747084141,"current_range_meters":20800,"station_id":"ce4bhah2rcd13ifvqei0","pricing_plan_id":"cebpf4jnsgd1na2vs0mg"},{"bike_id":"e83dcaca-181c-4b02-bf44-8d4da8809b5b","system_id":"levelo_inurba_marseille","lat":43.31722,"lon":5.43675,"is_reserved":false,"is_disabled":false,"rental_uris":{"android":"levelo://app?vid=e83dcaca-181c-4b02-bf44-8d4da8809b5b","ios":"levelo://app?vid=e83dcaca-181c-4b02-bf44-8d4da8809b5b"},"vehicle_type_id":"4","last_reported":1747084141,"current_range_meters":20800,"station_id":"ce4bhp92rcd13ifvqhcg","pricing_plan_id":"cebpf4jnsgd1na2vs0mg"},{"bike_id":"83e32c55-e90e-4c5f-80a2-9f7433e1877f","system_id":"levelo_inurba_marseille","lat":43.31368,"lon":5.385,"is_reserved":false,"is_disabled":false,"rental_uris":{"android":"levelo://app?vid=83e32c55-e90e-4c5f-80a2-9f7433e1877f","ios":"levelo://app?vid=83e32c55-e90e-4c5f-80a2-9f7433e1877f"},"vehicle_type_id":"4","last_reported":1747084141,"current_range_meters":21600,"station_id":"ce4bgt92rcd13ifvqcf0","pricing_plan_id":"cebpf4jnsgd1na2vs0mg"},{"bike_id":"581a76c6-406f-436c-80cf-424046378536","system_id":"levelo_inurba_marseille","lat":43.23139,"lon":5.43708,"is_reserved":false,"is_disabled":false,"rental_uris":{"android":"levelo://app?vid=581a76c6-406f-436c-80cf-424046378536","ios":"levelo://app?vid=581a76c6-406f-436c-80cf-424046378536"},"vehicle_type_id":"4","last_reported":1747084141,"current_range_meters":21600,"station_id":"ce4bhmp2rcd13ifvqgog","pricing_plan_id":"cebpf4jnsgd1na2vs0mg"},{"bike_id":"7cc0af47-2436-44b2-8dd6-dcb30ee3a080","system_id":"levelo_inurba_marseille","lat":43.30524,"lon":5.36708,"is_reserved":false,"is_disabled":false,"rental_uris":{"android":"levelo://app?vid=7cc0af47-2436-44b2-8dd6-dcb30ee3a080","ios":"levelo://app?vid=7cc0af47-2436-44b2-8dd6-dcb30ee3a080"},"vehicle_type_id":"4","last_reported":1747084141,"current_range_meters":22000,"station_id":"ce4bgrp2rcd13ifvqc9g","pricing_plan_id":"cebpf4jnsgd1na2vs0mg"},{"bike_id":"d72719ec-6d7b-4f82-8b79-2d86a6f7b21e","system_id":"levelo_inurba_marseille","lat":43.29884,"lon":5.39734,"is_reserved":false,"is_disabled":false,"rental_uris":{"android":"levelo://app?vid=d72719ec-6d7b-4f82-8b79-2d86a6f7b21e","ios":"levelo://app?vid=d72719ec-6d7b-4f82-8b79-2d86a6f7b21e"},"vehicle_type_id":"4","last_reported":1747084141,"current_range_meters":22000,"station_id":"ce4bh0h2rcd13ifvqd50","pricing_plan_id":"cebpf4jnsgd1na2vs0mg"},{"bike_id":"738ccbd0-322a-4090-af48-ca924339ed00","system_id":"levelo_inurba_marseille","lat":43.29885,"lon":5.38912,"is_reserved":false,"is_disabled":false,"rental_uris":{"android":"levelo://app?vid=738ccbd0-322a-4090-af48-ca924339ed00","ios":"levelo://app?vid=738ccbd0-322a-4090-af48-ca924339ed00"},"vehicle_type_id":"4","last_reported":1747084141,"current_range_meters":22000,"station_id":"ce4bh392rcd13ifvqdl0","pricing_plan_id":"cebpf4jnsgd1na2vs0mg"},{"bike_id":"0c636178-8025-443a-881d-ec35507d7129","system_id":"levelo_inurba_marseille","lat":43.24547,"lon":5.39522,"is_reserved":false,"is_disabled":false,"rental_uris":{"android":"levelo://app?vid=0c636178-8025-443a-881d-ec35507d7129","ios":"levelo://app?vid=0c636178-8025-443a-881d-ec35507d7129"},"vehicle_type_id":"4","last_reported":1747084141,"current_range_meters":22000,"station_id":"ce4bhlp2rcd13ifvqgjg","pricing_plan_id":"cebpf4jnsgd1na2vs0mg"},{"bike_id":"e58b354a-180a-4f47-a257-dd18dab1246e","system_id":"levelo_inurba_marseille","lat":43.28706,"lon":5.39995,"is_reserved":false,"is_disabled":false,"rental_uris":{"android":"levelo://app?vid=e58b354a-180a-4f47-a257-dd18dab1246e","ios":"levelo://app?vid=e58b354a-180a-4f47-a257-dd18dab1246e"},"vehicle_type_id":"4","last_reported":1747084141,"current_range_meters":22000,"station_id":"ce4bho92rcd13ifvqh3g","pricing_plan_id":"cebpf4jnsgd1na2vs0mg"},{"bike_id":"ce28c63a-0d7f-4da4-aa7d-552e5cb7b3a1","system_id":"levelo_inurba_marseille","lat":43.28445,"lon":5.392,"is_reserved":false,"is_disabled":false,"rental_uris":{"android":"levelo://app?vid=ce28c63a-0d7f-4da4-aa7d-552e5cb7b3a1","ios":"levelo://app?vid=ce28c63a-0d7f-4da4-aa7d-552e5cb7b3a1"},"vehicle_type_id":"4","last_reported":1747084141,"current_range_meters":22000,"station_id":"ce4bhoh2rcd13ifvqh5g","pricing_plan_id":"cebpf4jnsgd1na2vs0mg"},{"bike_id":"acb6b414-995c-4bdc-8183-f4e88fa561f1","system_id":"levelo_inurba_marseille","lat":43.28933,"lon":5.36635,"is_reserved":false,"is_disabled":false,"rental_uris":{"android":"levelo://app?vid=acb6b414-995c-4bdc-8183-f4e88fa561f1","ios":"levelo://app?vid=acb6b414-995c-4bdc-8183-f4e88fa561f1"},"vehicle_type_id":"4","last_reported":1747084141,"current_range_meters":22400,"station_id":"ce4bhap2rcd13ifvqek0","pricing_plan_id":"cebpf4jnsgd1na2vs0mg"},{"bike_id":"b3f60074-3db8-4e2f-8370-d4cb8f01441b","system_id":"levelo_inurba_marseille","lat":43.28573,"lon":5.3949,"is_reserved":false,"is_disabled":false,"rental_uris":{"android":"levelo://app?vid=b3f60074-3db8-4e2f-8370-d4cb8f01441b","ios":"levelo://app?vid=b3f60074-3db8-4e2f-8370-d4cb8f01441b"},"vehicle_type_id":"4","last_reported":1747084141,"current_range_meters":22800,"station_id":"ce4bh292rcd13ifvqdg0","pricing_plan_id":"cebpf4jnsgd1na2vs0mg"},{"bike_id":"2ff0b4b8-1f57-4c9e-9739-250c3de2266e","system_id":"levelo_inurba_marseille","lat":43.264899,"lon":5.395412,"is_reserved":false,"is_disabled":false,"rental_uris":{"android":"levelo://app?vid=2ff0b4b8-1f57-4c9e-9739-250c3de2266e","ios":"levelo://app?vid=2ff0b4b8-1f57-4c9e-9739-250c3de2266e"},"vehicle_type_id":"4","last_reported":1747084141,"current_range_meters":22800,"station_id":"ce4bhi12rcd13ifvqfq0","pricing_plan_id":"cebpf4jnsgd1na2vs0mg"},{"bike_id":"84951397-69e9-4cc4-a9b3-8bac0d4c150d","system_id":"levelo_inurba_marseille","lat":43.30378,"lon":5.42487,"is_reserved":false,"is_disabled":false,"rental_uris":{"android":"levelo://app?vid=84951397-69e9-4cc4-a9b3-8bac0d4c150d","ios":"levelo://app?vid=84951397-69e9-4cc4-a9b3-8bac0d4c150d"},"vehicle_type_id":"4","last_reported":1747084141,"current_range_meters":22800,"station_id":"ce4bhoh2rcd13ifvqh6g","pricing_plan_id":"cebpf4jnsgd1na2vs0mg"},{"bike_id":"6629abb3-92b5-44fe-981d-b4c97f7fe281","system_id":"levelo_inurba_marseille","lat":43.29619,"lon":5.37156,"is_reserved":false,"is_disabled":false,"rental_uris":{"android":"levelo://app?vid=6629abb3-92b5-44fe-981d-b4c97f7fe281","ios":"levelo://app?vid=6629abb3-92b5-44fe-981d-b4c97f7fe281"},"vehicle_type_id":"4","last_reported":1747084141,"current_range_meters":23200,"station_id":"ce4bgnh2rcd13ifvqc0g","pricing_plan_id":"cebpf4jnsgd1na2vs0mg"},{"bike_id":"122d19df-7ece-499b-be36-5b90e232caeb","system_id":"levelo_inurba_marseille","lat":43.30937,"lon":5.40135,"is_reserved":false,"is_disabled":false,"rental_uris":{"android":"levelo://app?vid=122d19df-7ece-499b-be36-5b90e232caeb","ios":"levelo://app?vid=122d19df-7ece-499b-be36-5b90e232caeb"},"vehicle_type_id":"4","last_reported":1747084141,"current_range_meters":23200,"station_id":"ce4bgvp2rcd13ifvqct0","pricing_plan_id":"cebpf4jnsgd1na2vs0mg"},{"bike_id":"2a8d6c84-f97c-47ac-97e8-b5252d886c6b","system_id":"levelo_inurba_marseille","lat":43.30638,"lon":5.40066,"is_reserved":false,"is_disabled":false,"rental_uris":{"android":"levelo://app?vid=2a8d6c84-f97c-47ac-97e8-b5252d886c6b","ios":"levelo://app?vid=2a8d6c84-f97c-47ac-97e8-b5252d886c6b"},"vehicle_type_id":"4","last_reported":1747084141,"current_range_meters":23200,"station_id":"ce4bh112rcd13ifvqda0","pricing_plan_id":"cebpf4jnsgd1na2vs0mg"},{"bike_id":"4e8a8b94-334e-47e1-8ace-00d56e09f1b9","system_id":"levelo_inurba_marseille","lat":43.310779,"lon":5.383493,"is_reserved":false,"is_disabled":false,"rental_uris":{"android":"levelo://app?vid=4e8a8b94-334e-47e1-8ace-00d56e09f1b9","ios":"levelo://app?vid=4e8a8b94-334e-47e1-8ace-00d56e09f1b9"},"vehicle_type_id":"4","last_reported":1747084141,"current_range_meters":23200,"station_id":"ce4bh392rcd13ifvqdl0","pricing_plan_id":"cebpf4jnsgd1na2vs0mg"},{"bike_id":"a6613d3f-10bf-4275-a3fe-2d2c08b0abd0","system_id":"levelo_inurba_marseille","lat":43.246524,"lon":5.388995,"is_reserved":false,"is_disabled":false,"rental_uris":{"android":"levelo://app?vid=a6613d3f-10bf-4275-a3fe-2d2c08b0abd0","ios":"levelo://app?vid=a6613d3f-10bf-4275-a3fe-2d2c08b0abd0"},"vehicle_type_id":"4","last_reported":1747084141,"current_range_meters":23200,"station_id":"ce4bhg12rcd13ifvqf60","pricing_plan_id":"cebpf4jnsgd1na2vs0mg"},{"bike_id":"50430f31-2a9a-48c3-8b6e-472d8b4d5616","system_id":"levelo_inurba_marseille","lat":43.2783,"lon":5.39207,"is_reserved":false,"is_disabled":false,"rental_uris":{"android":"levelo://app?vid=50430f31-2a9a-48c3-8b6e-472d8b4d5616","ios":"levelo://app?vid=50430f31-2a9a-48c3-8b6e-472d8b4d5616"},"vehicle_type_id":"4","last_reported":1747084141,"current_range_meters":23200,"station_id":"ce4bhjp2rcd13ifvqga0","pricing_plan_id":"cebpf4jnsgd1na2vs0mg"},{"bike_id":"746d6870-f129-46ea-9cce-9733ae5747f5","system_id":"levelo_inurba_marseille","lat":43.24178,"lon":5.39714,"is_reserved":false,"is_disabled":false,"rental_uris":{"android":"levelo://app?vid=746d6870-f129-46ea-9cce-9733ae5747f5","ios":"levelo://app?vid=746d6870-f129-46ea-9cce-9733ae5747f5"},"vehicle_type_id":"4","last_reported":1747084141,"current_range_meters":23200,"station_id":"ce4bhn12rcd13ifvqgpg","pricing_plan_id":"cebpf4jnsgd1na2vs0mg"},{"bike_id":"f8c427b6-afc7-4633-b31f-d4c2ead9df8e","system_id":"levelo_inurba_marseille","lat":43.2948,"lon":5.374798,"is_reserved":false,"is_disabled":false,"rental_uris":{"android":"levelo://app?vid=f8c427b6-afc7-4633-b31f-d4c2ead9df8e","ios":"levelo://app?vid=f8c427b6-afc7-4633-b31f-d4c2ead9df8e"},"vehicle_type_id":"4","last_reported":1747084141,"current_range_meters":24000,"station_id":"","pricing_plan_id":"cebpf4jnsgd1na2vs0mg"},{"bike_id":"2e9a1bb6-b9ff-4e0b-be40-2437411ffe1f","system_id":"levelo_inurba_marseille","lat":43.30639,"lon":5.40079,"is_reserved":false,"is_disabled":false,"rental_uris":{"android":"levelo://app?vid=2e9a1bb6-b9ff-4e0b-be40-2437411ffe1f","ios":"levelo://app?vid=2e9a1bb6-b9ff-4e0b-be40-2437411ffe1f"},"vehicle_type_id":"4","last_reported":1747084141,"current_range_meters":24000,"station_id":"ce4bh112rcd13ifvqda0","pricing_plan_id":"cebpf4jnsgd1na2vs0mg"},{"bike_id":"2b738d9b-5c87-4067-857e-2dded64f5263","system_id":"levelo_inurba_marseille","lat":43.29523,"lon":5.39042,"is_reserved":false,"is_disabled":false,"rental_uris":{"android":"levelo://app?vid=2b738d9b-5c87-4067-857e-2dded64f5263","ios":"levelo://app?vid=2b738d9b-5c87-4067-857e-2dded64f5263"},"vehicle_type_id":"4","last_reported":1747084141,"current_range_meters":24000,"station_id":"ce4bh3p2rcd13ifvqdp0","pricing_plan_id":"cebpf4jnsgd1na2vs0mg"},{"bike_id":"312cf0fa-89c7-41e2-ab6c-83d3c271172c","system_id":"levelo_inurba_marseille","lat":43.31695,"lon":5.40459,"is_reserved":false,"is_disabled":false,"rental_uris":{"android":"levelo://app?vid=312cf0fa-89c7-41e2-ab6c-83d3c271172c","ios":"levelo://app?vid=312cf0fa-89c7-41e2-ab6c-83d3c271172c"},"vehicle_type_id":"4","last_reported":1747084141,"current_range_meters":24400,"station_id":"ce4bh012rcd13ifvqd00","pricing_plan_id":"cebpf4jnsgd1na2vs0mg"},{"bike_id":"ff20595a-62f3-4fb0-898a-c71b3125ccf1","system_id":"levelo_inurba_marseille","lat":43.29529,"lon":5.39407,"is_reserved":false,"is_disabled":false,"rental_uris":{"android":"levelo://app?vid=ff20595a-62f3-4fb0-898a-c71b3125ccf1","ios":"levelo://app?vid=ff20595a-62f3-4fb0-898a-c71b3125ccf1"},"vehicle_type_id":"4","last_reported":1747084141,"current_range_meters":24400,"station_id":"ce4bh292rcd13ifvqdf0","pricing_plan_id":"cebpf4jnsgd1na2vs0mg"},{"bike_id":"714ac0b7-9ff9-470c-9f06-94d1a40b2624","system_id":"levelo_inurba_marseille","lat":43.2952,"lon":5.39412,"is_reserved":false,"is_disabled":false,"rental_uris":{"android":"levelo://app?vid=714ac0b7-9ff9-470c-9f06-94d1a40b2624","ios":"levelo://app?vid=714ac0b7-9ff9-470c-9f06-94d1a40b2624"},"vehicle_type_id":"4","last_reported":1747084141,"current_range_meters":24400,"station_id":"ce4bh292rcd13ifvqdf0","pricing_plan_id":"cebpf4jnsgd1na2vs0mg"},{"bike_id":"14974396-773a-4225-b2c9-f2fca04895a5","system_id":"levelo_inurba_marseille","lat":43.28458,"lon":5.35876,"is_reserved":false,"is_disabled":false,"rental_uris":{"android":"levelo://app?vid=14974396-773a-4225-b2c9-f2fca04895a5","ios":"levelo://app?vid=14974396-773a-4225-b2c9-f2fca04895a5"},"vehicle_type_id":"4","last_reported":1747084141,"current_range_meters":24400,"station_id":"ce4bhah2rcd13ifvqei0","pricing_plan_id":"cebpf4jnsgd1na2vs0mg"},{"bike_id":"1da0eeca-6e59-40b8-a976-b9e38a336ed5","system_id":"levelo_inurba_marseille","lat":43.243904,"lon":5.370545,"is_reserved":false,"is_disabled":false,"rental_uris":{"android":"levelo://app?vid=1da0eeca-6e59-40b8-a976-b9e38a336ed5","ios":"levelo://app?vid=1da0eeca-6e59-40b8-a976-b9e38a336ed5"},"vehicle_type_id":"4","last_reported":1747084141,"current_range_meters":24400,"station_id":"ce4bhhh2rcd13ifvqfk0","pricing_plan_id":"cebpf4jnsgd1na2vs0mg"},{"bike_id":"14e1760a-e172-409d-bb8e-421c803ef4f2","system_id":"levelo_inurba_marseille","lat":43.23175,"lon":5.39974,"is_reserved":false,"is_disabled":false,"rental_uris":{"android":"levelo://app?vid=14e1760a-e172-409d-bb8e-421c803ef4f2","ios":"levelo://app?vid=14e1760a-e172-409d-bb8e-421c803ef4f2"},"vehicle_type_id":"4","last_reported":1747084141,"current_range_meters":24400,"station_id":"ce4bhn12rcd13ifvqgqg","pricing_plan_id":"cebpf4jnsgd1na2vs0mg"},{"bike_id":"b963eb7d-609a-45f1-bafd-6ea623ae7fbf","system_id":"levelo_inurba_marseille","lat":43.28156,"lon":5.42635,"is_reserved":false,"is_disabled":false,"rental_uris":{"android":"levelo://app?vid=b963eb7d-609a-45f1-bafd-6ea623ae7fbf","ios":"levelo://app?vid=b963eb7d-609a-45f1-bafd-6ea623ae7fbf"},"vehicle_type_id":"4","last_reported":1747084141,"current_range_meters":24400,"station_id":"ce4bhnh2rcd13ifvqgug","pricing_plan_id":"cebpf4jnsgd1na2vs0mg"},{"bike_id":"24dea86b-f038-4b9a-989c-82db780e5bdc","system_id":"levelo_inurba_marseille","lat":43.28001,"lon":5.41657,"is_reserved":false,"is_disabled":false,"rental_uris":{"android":"levelo://app?vid=24dea86b-f038-4b9a-989c-82db780e5bdc","ios":"levelo://app?vid=24dea86b-f038-4b9a-989c-82db780e5bdc"},"vehicle_type_id":"4","last_reported":1747084141,"current_range_meters":24400,"station_id":"ce4bho12rcd13ifvqh1g","pricing_plan_id":"cebpf4jnsgd1na2vs0mg"},{"bike_id":"53c2c5b1-547e-454a-9252-c33846187b27","system_id":"levelo_inurba_marseille","lat":43.3234,"lon":5.40622,"is_reserved":false,"is_disabled":false,"rental_uris":{"android":"levelo://app?vid=53c2c5b1-547e-454a-9252-c33846187b27","ios":"levelo://app?vid=53c2c5b1-547e-454a-9252-c33846187b27"},"vehicle_type_id":"4","last_reported":1747084141,"current_range_meters":24400,"station_id":"ce4bhq92rcd13ifvqhjg","pricing_plan_id":"cebpf4jnsgd1na2vs0mg"},{"bike_id":"ff8e17fb-9d3b-431b-a82a-cf10aaf6e8b3","system_id":"levelo_inurba_marseille","lat":43.297876,"lon":5.393481,"is_reserved":false,"is_disabled":false,"rental_uris":{"android":"levelo://app?vid=ff8e17fb-9d3b-431b-a82a-cf10aaf6e8b3","ios":"levelo://app?vid=ff8e17fb-9d3b-431b-a82a-cf10aaf6e8b3"},"vehicle_type_id":"4","last_reported":1747084141,"current_range_meters":24400,"station_id":"chh1huq6cuj3fo74tm60","pricing_plan_id":"cebpf4jnsgd1na2vs0mg"},{"bike_id":"5647a91f-31a6-41fb-82bb-83893a94fc73","system_id":"levelo_inurba_marseille","lat":43.21202,"lon":5.35056,"is_reserved":false,"is_disabled":false,"rental_uris":{"android":"levelo://app?vid=5647a91f-31a6-41fb-82bb-83893a94fc73","ios":"levelo://app?vid=5647a91f-31a6-41fb-82bb-83893a94fc73"},"vehicle_type_id":"4","last_reported":1747084141,"current_range_meters":24400,"station_id":"st_cvj6sg6p6f1abm77japg","pricing_plan_id":"cebpf4jnsgd1na2vs0mg"},{"bike_id":"6e6c15df-a003-4bec-81b0-4426b4e5ddf5","system_id":"levelo_inurba_marseille","lat":43.30939,"lon":5.40142,"is_reserved":false,"is_disabled":false,"rental_uris":{"android":"levelo://app?vid=6e6c15df-a003-4bec-81b0-4426b4e5ddf5","ios":"levelo://app?vid=6e6c15df-a003-4bec-81b0-4426b4e5ddf5"},"vehicle_type_id":"4","last_reported":1747084141,"current_range_meters":24800,"station_id":"ce4bgvp2rcd13ifvqct0","pricing_plan_id":"cebpf4jnsgd1na2vs0mg"},{"bike_id":"42a87d09-2752-4ffe-952d-d97641d46755","system_id":"levelo_inurba_marseille","lat":43.30634,"lon":5.40073,"is_reserved":false,"is_disabled":false,"rental_uris":{"android":"levelo://app?vid=42a87d09-2752-4ffe-952d-d97641d46755","ios":"levelo://app?vid=42a87d09-2752-4ffe-952d-d97641d46755"},"vehicle_type_id":"4","last_reported":1747084141,"current_range_meters":24800,"station_id":"ce4bh112rcd13ifvqda0","pricing_plan_id":"cebpf4jnsgd1na2vs0mg"},{"bike_id":"6a823f1a-6318-4c59-8ef1-0310574389dd","system_id":"levelo_inurba_marseille","lat":43.29539,"lon":5.39923,"is_reserved":false,"is_disabled":false,"rental_uris":{"android":"levelo://app?vid=6a823f1a-6318-4c59-8ef1-0310574389dd","ios":"levelo://app?vid=6a823f1a-6318-4c59-8ef1-0310574389dd"},"vehicle_type_id":"4","last_reported":1747084141,"current_range_meters":24800,"station_id":"ce4bh312rcd13ifvqdj0","pricing_plan_id":"cebpf4jnsgd1na2vs0mg"},{"bike_id":"d6827c15-a9b9-471d-a8db-15e4478d7960","system_id":"levelo_inurba_marseille","lat":43.28697,"lon":5.37387,"is_reserved":false,"is_disabled":false,"rental_uris":{"android":"levelo://app?vid=d6827c15-a9b9-471d-a8db-15e4478d7960","ios":"levelo://app?vid=d6827c15-a9b9-471d-a8db-15e4478d7960"},"vehicle_type_id":"4","last_reported":1747084141,"current_range_meters":24800,"station_id":"ce4bh3p2rcd13ifvqdq0","pricing_plan_id":"cebpf4jnsgd1na2vs0mg"},{"bike_id":"3ea93f15-db04-4894-a901-ee3874ff2ab2","system_id":"levelo_inurba_marseille","lat":43.28372,"lon":5.38101,"is_reserved":false,"is_disabled":false,"rental_uris":{"android":"levelo://app?vid=3ea93f15-db04-4894-a901-ee3874ff2ab2","ios":"levelo://app?vid=3ea93f15-db04-4894-a901-ee3874ff2ab2"},"vehicle_type_id":"4","last_reported":1747084141,"current_range_meters":24800,"station_id":"ce4bh412rcd13ifvqdr0","pricing_plan_id":"cebpf4jnsgd1na2vs0mg"},{"bike_id":"cb96eaf3-8768-4c04-9199-aba6a66a7042","system_id":"levelo_inurba_marseille","lat":43.27896,"lon":5.37999,"is_reserved":false,"is_disabled":false,"rental_uris":{"android":"levelo://app?vid=cb96eaf3-8768-4c04-9199-aba6a66a7042","ios":"levelo://app?vid=cb96eaf3-8768-4c04-9199-aba6a66a7042"},"vehicle_type_id":"4","last_reported":1747084141,"current_range_meters":24800,"station_id":"ce4bhf92rcd13ifvqf50","pricing_plan_id":"cebpf4jnsgd1na2vs0mg"},{"bike_id":"114436b1-1309-4afd-9c34-70ed085ad0fa","system_id":"levelo_inurba_marseille","lat":43.27207,"lon":5.39179,"is_reserved":false,"is_disabled":false,"rental_uris":{"android":"levelo://app?vid=114436b1-1309-4afd-9c34-70ed085ad0fa","ios":"levelo://app?vid=114436b1-1309-4afd-9c34-70ed085ad0fa"},"vehicle_type_id":"4","last_reported":1747084141,"current_range_meters":24800,"station_id":"ce4bhhp2rcd13ifvqfm0","pricing_plan_id":"cebpf4jnsgd1na2vs0mg"},{"bike_id":"e092ae03-a47d-4d8f-be26-741bbe889f98","system_id":"levelo_inurba_marseille","lat":43.25083,"lon":5.39518,"is_reserved":false,"is_disabled":false,"rental_uris":{"android":"levelo://app?vid=e092ae03-a47d-4d8f-be26-741bbe889f98","ios":"levelo://app?vid=e092ae03-a47d-4d8f-be26-741bbe889f98"},"vehicle_type_id":"4","last_reported":1747084141,"current_range_meters":24800,"station_id":"ce4bhm12rcd13ifvqgkg","pricing_plan_id":"cebpf4jnsgd1na2vs0mg"},{"bike_id":"a55a8e89-7507-44c1-8a58-75c7621a3117","system_id":"levelo_inurba_marseille","lat":43.24061,"lon":5.37766,"is_reserved":false,"is_disabled":false,"rental_uris":{"android":"levelo://app?vid=a55a8e89-7507-44c1-8a58-75c7621a3117","ios":"levelo://app?vid=a55a8e89-7507-44c1-8a58-75c7621a3117"},"vehicle_type_id":"4","last_reported":1747084141,"current_range_meters":24800,"station_id":"ce4bhnp2rcd13ifvqgvg","pricing_plan_id":"cebpf4jnsgd1na2vs0mg"},{"bike_id":"af250bf1-9940-4e84-9989-8978c946967d","system_id":"levelo_inurba_marseille","lat":43.28569,"lon":5.39492,"is_reserved":false,"is_disabled":false,"rental_uris":{"android":"levelo://app?vid=af250bf1-9940-4e84-9989-8978c946967d","ios":"levelo://app?vid=af250bf1-9940-4e84-9989-8978c946967d"},"vehicle_type_id":"4","last_reported":1747084141,"current_range_meters":25200,"station_id":"ce4bh292rcd13ifvqdg0","pricing_plan_id":"cebpf4jnsgd1na2vs0mg"},{"bike_id":"909763f2-ad07-42f6-9c11-e3788326a499","system_id":"levelo_inurba_marseille","lat":43.28353,"lon":5.38113,"is_reserved":false,"is_disabled":false,"rental_uris":{"android":"levelo://app?vid=909763f2-ad07-42f6-9c11-e3788326a499","ios":"levelo://app?vid=909763f2-ad07-42f6-9c11-e3788326a499"},"vehicle_type_id":"4","last_reported":1747084141,"current_range_meters":25200,"station_id":"ce4bh412rcd13ifvqdr0","pricing_plan_id":"cebpf4jnsgd1na2vs0mg"},{"bike_id":"fbe1a290-f52f-439e-b97c-04f5045931d7","system_id":"levelo_inurba_marseille","lat":43.281493,"lon":5.426637,"is_reserved":false,"is_disabled":false,"rental_uris":{"android":"levelo://app?vid=fbe1a290-f52f-439e-b97c-04f5045931d7","ios":"levelo://app?vid=fbe1a290-f52f-439e-b97c-04f5045931d7"},"vehicle_type_id":"4","last_reported":1747084141,"current_range_meters":25200,"station_id":"ce4bhnh2rcd13ifvqgug","pricing_plan_id":"cebpf4jnsgd1na2vs0mg"},{"bike_id":"aa9a901d-2a7e-41ed-97e8-9ff553b5fe0f","system_id":"levelo_inurba_marseille","lat":43.306474,"lon":5.400738,"is_reserved":false,"is_disabled":false,"rental_uris":{"android":"levelo://app?vid=aa9a901d-2a7e-41ed-97e8-9ff553b5fe0f","ios":"levelo://app?vid=aa9a901d-2a7e-41ed-97e8-9ff553b5fe0f"},"vehicle_type_id":"4","last_reported":1747084141,"current_range_meters":25600,"station_id":"ce4bh112rcd13ifvqda0","pricing_plan_id":"cebpf4jnsgd1na2vs0mg"},{"bike_id":"1b3caa6b-1873-4d26-95bd-f8c4e3d210a2","system_id":"levelo_inurba_marseille","lat":43.29532,"lon":5.39034,"is_reserved":false,"is_disabled":false,"rental_uris":{"android":"levelo://app?vid=1b3caa6b-1873-4d26-95bd-f8c4e3d210a2","ios":"levelo://app?vid=1b3caa6b-1873-4d26-95bd-f8c4e3d210a2"},"vehicle_type_id":"4","last_reported":1747084141,"current_range_meters":25600,"station_id":"ce4bh3p2rcd13ifvqdp0","pricing_plan_id":"cebpf4jnsgd1na2vs0mg"},{"bike_id":"d87791ac-08e3-4274-a601-857a0e7a67a0","system_id":"levelo_inurba_marseille","lat":43.28475,"lon":5.35874,"is_reserved":false,"is_disabled":false,"rental_uris":{"android":"levelo://app?vid=d87791ac-08e3-4274-a601-857a0e7a67a0","ios":"levelo://app?vid=d87791ac-08e3-4274-a601-857a0e7a67a0"},"vehicle_type_id":"4","last_reported":1747084141,"current_range_meters":25600,"station_id":"ce4bhah2rcd13ifvqei0","pricing_plan_id":"cebpf4jnsgd1na2vs0mg"},{"bike_id":"16c90ec2-a9ab-474b-a6cc-537d7a36e582","system_id":"levelo_inurba_marseille","lat":43.24996,"lon":5.38926,"is_reserved":false,"is_disabled":false,"rental_uris":{"android":"levelo://app?vid=16c90ec2-a9ab-474b-a6cc-537d7a36e582","ios":"levelo://app?vid=16c90ec2-a9ab-474b-a6cc-537d7a36e582"},"vehicle_type_id":"4","last_reported":1747084141,"current_range_meters":25600,"station_id":"ce4bhgp2rcd13ifvqfd0","pricing_plan_id":"cebpf4jnsgd1na2vs0mg"},{"bike_id":"ebcc075d-08ea-4ae7-94ec-4c5085349efc","system_id":"levelo_inurba_marseille","lat":43.31886,"lon":5.40733,"is_reserved":false,"is_disabled":false,"rental_uris":{"android":"levelo://app?vid=ebcc075d-08ea-4ae7-94ec-4c5085349efc","ios":"levelo://app?vid=ebcc075d-08ea-4ae7-94ec-4c5085349efc"},"vehicle_type_id":"4","last_reported":1747084141,"current_range_meters":25600,"station_id":"ce4bhq12rcd13ifvqhig","pricing_plan_id":"cebpf4jnsgd1na2vs0mg"},{"bike_id":"8deafdb0-b72e-42a8-9144-f28ecef9389d","system_id":"levelo_inurba_marseille","lat":43.321145,"lon":5.367757,"is_reserved":false,"is_disabled":false,"rental_uris":{"android":"levelo://app?vid=8deafdb0-b72e-42a8-9144-f28ecef9389d","ios":"levelo://app?vid=8deafdb0-b72e-42a8-9144-f28ecef9389d"},"vehicle_type_id":"4","last_reported":1747084141,"current_range_meters":25600,"station_id":"ce4bhrh2rcd13ifvqhug","pricing_plan_id":"cebpf4jnsgd1na2vs0mg"},{"bike_id":"05cf6086-9201-4785-b47b-101f3186bfd0","system_id":"levelo_inurba_marseille","lat":43.337444,"lon":5.374475,"is_reserved":false,"is_disabled":false,"rental_uris":{"android":"levelo://app?vid=05cf6086-9201-4785-b47b-101f3186bfd0","ios":"levelo://app?vid=05cf6086-9201-4785-b47b-101f3186bfd0"},"vehicle_type_id":"4","last_reported":1747084141,"current_range_meters":26000,"station_id":"","pricing_plan_id":"cebpf4jnsgd1na2vs0mg"},{"bike_id":"7affee8a-ab3f-4a5a-9d31-297d05c8aa7b","system_id":"levelo_inurba_marseille","lat":43.30638,"lon":5.4006,"is_reserved":false,"is_disabled":false,"rental_uris":{"android":"levelo://app?vid=7affee8a-ab3f-4a5a-9d31-297d05c8aa7b","ios":"levelo://app?vid=7affee8a-ab3f-4a5a-9d31-297d05c8aa7b"},"vehicle_type_id":"4","last_reported":1747084141,"current_range_meters":26000,"station_id":"ce4bh112rcd13ifvqda0","pricing_plan_id":"cebpf4jnsgd1na2vs0mg"},{"bike_id":"92abf798-2905-44c1-b033-325bc4595caa","system_id":"levelo_inurba_marseille","lat":43.26576,"lon":5.39026,"is_reserved":false,"is_disabled":false,"rental_uris":{"android":"levelo://app?vid=92abf798-2905-44c1-b033-325bc4595caa","ios":"levelo://app?vid=92abf798-2905-44c1-b033-325bc4595caa"},"vehicle_type_id":"4","last_reported":1747084141,"current_range_meters":26000,"station_id":"ce4bhe12rcd13ifvqf30","pricing_plan_id":"cebpf4jnsgd1na2vs0mg"},{"bike_id":"3d45f2ba-4e3c-40df-b4a4-a2b336cde2b3","system_id":"levelo_inurba_marseille","lat":43.335999,"lon":5.410434,"is_reserved":false,"is_disabled":false,"rental_uris":{"android":"levelo://app?vid=3d45f2ba-4e3c-40df-b4a4-a2b336cde2b3","ios":"levelo://app?vid=3d45f2ba-4e3c-40df-b4a4-a2b336cde2b3"},"vehicle_type_id":"4","last_reported":1747084141,"current_range_meters":26000,"station_id":"ce4bhqh2rcd13ifvqhmg","pricing_plan_id":"cebpf4jnsgd1na2vs0mg"},{"bike_id":"18556955-6e5e-44de-8de6-34b971734618","system_id":"levelo_inurba_marseille","lat":43.32128,"lon":5.36739,"is_reserved":false,"is_disabled":false,"rental_uris":{"android":"levelo://app?vid=18556955-6e5e-44de-8de6-34b971734618","ios":"levelo://app?vid=18556955-6e5e-44de-8de6-34b971734618"},"vehicle_type_id":"4","last_reported":1747084141,"current_range_meters":26000,"station_id":"ce4bhrh2rcd13ifvqhug","pricing_plan_id":"cebpf4jnsgd1na2vs0mg"},{"bike_id":"3a1f0fae-a0e3-4554-bcb9-93661a7ec662","system_id":"levelo_inurba_marseille","lat":43.30598,"lon":5.37217,"is_reserved":false,"is_disabled":false,"rental_uris":{"android":"levelo://app?vid=3a1f0fae-a0e3-4554-bcb9-93661a7ec662","ios":"levelo://app?vid=3a1f0fae-a0e3-4554-bcb9-93661a7ec662"},"vehicle_type_id":"4","last_reported":1747084141,"current_range_meters":26800,"station_id":"ce4bgqh2rcd13ifvqc4g","pricing_plan_id":"cebpf4jnsgd1na2vs0mg"},{"bike_id":"77057332-57f5-40ff-9e96-18201c6e9282","system_id":"levelo_inurba_marseille","lat":43.29885,"lon":5.39753,"is_reserved":false,"is_disabled":false,"rental_uris":{"android":"levelo://app?vid=77057332-57f5-40ff-9e96-18201c6e9282","ios":"levelo://app?vid=77057332-57f5-40ff-9e96-18201c6e9282"},"vehicle_type_id":"4","last_reported":1747084141,"current_range_meters":26800,"station_id":"ce4bh0h2rcd13ifvqd50","pricing_plan_id":"cebpf4jnsgd1na2vs0mg"},{"bike_id":"db4b6369-301e-4314-aa55-997a3dee4ece","system_id":"levelo_inurba_marseille","lat":43.29263,"lon":5.40905,"is_reserved":false,"is_disabled":false,"rental_uris":{"android":"levelo://app?vid=db4b6369-301e-4314-aa55-997a3dee4ece","ios":"levelo://app?vid=db4b6369-301e-4314-aa55-997a3dee4ece"},"vehicle_type_id":"4","last_reported":1747084141,"current_range_meters":26800,"station_id":"ce4bh192rcd13ifvqdc0","pricing_plan_id":"cebpf4jnsgd1na2vs0mg"},{"bike_id":"e0c98606-9d74-411e-979e-ba241d6d1672","system_id":"levelo_inurba_marseille","lat":43.28934,"lon":5.36634,"is_reserved":false,"is_disabled":false,"rental_uris":{"android":"levelo://app?vid=e0c98606-9d74-411e-979e-ba241d6d1672","ios":"levelo://app?vid=e0c98606-9d74-411e-979e-ba241d6d1672"},"vehicle_type_id":"4","last_reported":1747084141,"current_range_meters":26800,"station_id":"ce4bhap2rcd13ifvqek0","pricing_plan_id":"cebpf4jnsgd1na2vs0mg"},{"bike_id":"1c47d7c2-cc94-4856-b2b7-149a7d35dcfb","system_id":"levelo_inurba_marseille","lat":43.321124,"lon":5.367687,"is_reserved":false,"is_disabled":false,"rental_uris":{"android":"levelo://app?vid=1c47d7c2-cc94-4856-b2b7-149a7d35dcfb","ios":"levelo://app?vid=1c47d7c2-cc94-4856-b2b7-149a7d35dcfb"},"vehicle_type_id":"4","last_reported":1747084141,"current_range_meters":26800,"station_id":"ce4bhrh2rcd13ifvqhug","pricing_plan_id":"cebpf4jnsgd1na2vs0mg"},{"bike_id":"64824209-6cba-4c12-875a-1502c403c27a","system_id":"levelo_inurba_marseille","lat":43.21191,"lon":5.35082,"is_reserved":false,"is_disabled":false,"rental_uris":{"android":"levelo://app?vid=64824209-6cba-4c12-875a-1502c403c27a","ios":"levelo://app?vid=64824209-6cba-4c12-875a-1502c403c27a"},"vehicle_type_id":"4","last_reported":1747084141,"current_range_meters":26800,"station_id":"st_cvj6sg6p6f1abm77japg","pricing_plan_id":"cebpf4jnsgd1na2vs0mg"},{"bike_id":"456a5f23-42f8-4274-94a5-ce186549a6e0","system_id":"levelo_inurba_marseille","lat":43.30256,"lon":5.40067,"is_reserved":false,"is_disabled":false,"rental_uris":{"android":"levelo://app?vid=456a5f23-42f8-4274-94a5-ce186549a6e0","ios":"levelo://app?vid=456a5f23-42f8-4274-94a5-ce186549a6e0"},"vehicle_type_id":"4","last_reported":1747084141,"current_range_meters":27200,"station_id":"ce4bgvh2rcd13ifvqcs0","pricing_plan_id":"cebpf4jnsgd1na2vs0mg"},{"bike_id":"4c7e96ca-fe51-4c09-80d5-67f96169d049","system_id":"levelo_inurba_marseille","lat":43.3131,"lon":5.39705,"is_reserved":false,"is_disabled":false,"rental_uris":{"android":"levelo://app?vid=4c7e96ca-fe51-4c09-80d5-67f96169d049","ios":"levelo://app?vid=4c7e96ca-fe51-4c09-80d5-67f96169d049"},"vehicle_type_id":"4","last_reported":1747084141,"current_range_meters":27200,"station_id":"ce4bgvp2rcd13ifvqcu0","pricing_plan_id":"cebpf4jnsgd1na2vs0mg"},{"bike_id":"5ec26f90-8dd6-447d-b560-18c3f69a73f3","system_id":"levelo_inurba_marseille","lat":43.28451,"lon":5.35895,"is_reserved":false,"is_disabled":false,"rental_uris":{"android":"levelo://app?vid=5ec26f90-8dd6-447d-b560-18c3f69a73f3","ios":"levelo://app?vid=5ec26f90-8dd6-447d-b560-18c3f69a73f3"},"vehicle_type_id":"4","last_reported":1747084141,"current_range_meters":27200,"station_id":"ce4bhah2rcd13ifvqei0","pricing_plan_id":"cebpf4jnsgd1na2vs0mg"},{"bike_id":"154784ec-ebf8-4ba4-a35d-14e18c2a74b4","system_id":"levelo_inurba_marseille","lat":43.24383,"lon":5.37051,"is_reserved":false,"is_disabled":false,"rental_uris":{"android":"levelo://app?vid=154784ec-ebf8-4ba4-a35d-14e18c2a74b4","ios":"levelo://app?vid=154784ec-ebf8-4ba4-a35d-14e18c2a74b4"},"vehicle_type_id":"4","last_reported":1747084141,"current_range_meters":27200,"station_id":"ce4bhhh2rcd13ifvqfk0","pricing_plan_id":"cebpf4jnsgd1na2vs0mg"},{"bike_id":"e20c0ab0-90ea-460e-bcc0-e5fa98547380","system_id":"levelo_inurba_marseille","lat":43.31712,"lon":5.43706,"is_reserved":false,"is_disabled":false,"rental_uris":{"android":"levelo://app?vid=e20c0ab0-90ea-460e-bcc0-e5fa98547380","ios":"levelo://app?vid=e20c0ab0-90ea-460e-bcc0-e5fa98547380"},"vehicle_type_id":"4","last_reported":1747084141,"current_range_meters":27200,"station_id":"ce4bhp92rcd13ifvqhcg","pricing_plan_id":"cebpf4jnsgd1na2vs0mg"},{"bike_id":"18918667-04c1-4731-a302-59dce07b02bc","system_id":"levelo_inurba_marseille","lat":43.30806,"lon":5.43515,"is_reserved":false,"is_disabled":false,"rental_uris":{"android":"levelo://app?vid=18918667-04c1-4731-a302-59dce07b02bc","ios":"levelo://app?vid=18918667-04c1-4731-a302-59dce07b02bc"},"vehicle_type_id":"4","last_reported":1747084141,"current_range_meters":27200,"station_id":"ce4bhph2rcd13ifvqheg","pricing_plan_id":"cebpf4jnsgd1na2vs0mg"},{"bike_id":"74a15b04-ef97-4f48-b216-fba2e91ebede","system_id":"levelo_inurba_marseille","lat":43.29193,"lon":5.39358,"is_reserved":false,"is_disabled":false,"rental_uris":{"android":"levelo://app?vid=74a15b04-ef97-4f48-b216-fba2e91ebede","ios":"levelo://app?vid=74a15b04-ef97-4f48-b216-fba2e91ebede"},"vehicle_type_id":"4","last_reported":1747084141,"current_range_meters":27600,"station_id":"","pricing_plan_id":"cebpf4jnsgd1na2vs0mg"},{"bike_id":"d4c612a6-28e3-4d31-84a4-e9b6b3a754ad","system_id":"levelo_inurba_marseille","lat":43.30179,"lon":5.3661,"is_reserved":false,"is_disabled":false,"rental_uris":{"android":"levelo://app?vid=d4c612a6-28e3-4d31-84a4-e9b6b3a754ad","ios":"levelo://app?vid=d4c612a6-28e3-4d31-84a4-e9b6b3a754ad"},"vehicle_type_id":"4","last_reported":1747084141,"current_range_meters":27600,"station_id":"ce4bgrh2rcd13ifvqc8g","pricing_plan_id":"cebpf4jnsgd1na2vs0mg"},{"bike_id":"4d1360bc-c1e4-4928-9a43-13c25871c98a","system_id":"levelo_inurba_marseille","lat":43.29892,"lon":5.39754,"is_reserved":false,"is_disabled":false,"rental_uris":{"android":"levelo://app?vid=4d1360bc-c1e4-4928-9a43-13c25871c98a","ios":"levelo://app?vid=4d1360bc-c1e4-4928-9a43-13c25871c98a"},"vehicle_type_id":"4","last_reported":1747084141,"current_range_meters":27600,"station_id":"ce4bh0h2rcd13ifvqd50","pricing_plan_id":"cebpf4jnsgd1na2vs0mg"},{"bike_id":"fbf34a0c-1425-4ed0-bcbf-586c750a60ea","system_id":"levelo_inurba_marseille","lat":43.30625,"lon":5.40069,"is_reserved":false,"is_disabled":false,"rental_uris":{"android":"levelo://app?vid=fbf34a0c-1425-4ed0-bcbf-586c750a60ea","ios":"levelo://app?vid=fbf34a0c-1425-4ed0-bcbf-586c750a60ea"},"vehicle_type_id":"4","last_reported":1747084141,"current_range_meters":27600,"station_id":"ce4bh112rcd13ifvqda0","pricing_plan_id":"cebpf4jnsgd1na2vs0mg"},{"bike_id":"11608808-3cff-4357-b243-53a57562fec9","system_id":"levelo_inurba_marseille","lat":43.29253,"lon":5.409023,"is_reserved":false,"is_disabled":false,"rental_uris":{"android":"levelo://app?vid=11608808-3cff-4357-b243-53a57562fec9","ios":"levelo://app?vid=11608808-3cff-4357-b243-53a57562fec9"},"vehicle_type_id":"4","last_reported":1747084141,"current_range_meters":27600,"station_id":"ce4bh192rcd13ifvqdc0","pricing_plan_id":"cebpf4jnsgd1na2vs0mg"},{"bike_id":"f8da8926-d635-4db5-951a-cf21d28bd1c1","system_id":"levelo_inurba_marseille","lat":43.29871,"lon":5.38909,"is_reserved":false,"is_disabled":false,"rental_uris":{"android":"levelo://app?vid=f8da8926-d635-4db5-951a-cf21d28bd1c1","ios":"levelo://app?vid=f8da8926-d635-4db5-951a-cf21d28bd1c1"},"vehicle_type_id":"4","last_reported":1747084141,"current_range_meters":27600,"station_id":"ce4bh392rcd13ifvqdl0","pricing_plan_id":"cebpf4jnsgd1na2vs0mg"},{"bike_id":"f11f9b69-c91a-4815-a4b9-bd4303c6b6ee","system_id":"levelo_inurba_marseille","lat":43.28696,"lon":5.37384,"is_reserved":false,"is_disabled":false,"rental_uris":{"android":"levelo://app?vid=f11f9b69-c91a-4815-a4b9-bd4303c6b6ee","ios":"levelo://app?vid=f11f9b69-c91a-4815-a4b9-bd4303c6b6ee"},"vehicle_type_id":"4","last_reported":1747084141,"current_range_meters":27600,"station_id":"ce4bh3p2rcd13ifvqdq0","pricing_plan_id":"cebpf4jnsgd1na2vs0mg"},{"bike_id":"aff59215-4672-4944-b0ea-6dfd44ce1fa8","system_id":"levelo_inurba_marseille","lat":43.28356,"lon":5.38091,"is_reserved":false,"is_disabled":false,"rental_uris":{"android":"levelo://app?vid=aff59215-4672-4944-b0ea-6dfd44ce1fa8","ios":"levelo://app?vid=aff59215-4672-4944-b0ea-6dfd44ce1fa8"},"vehicle_type_id":"4","last_reported":1747084141,"current_range_meters":27600,"station_id":"ce4bh412rcd13ifvqdr0","pricing_plan_id":"cebpf4jnsgd1na2vs0mg"},{"bike_id":"fd4deb85-4aaa-41b7-a13b-726a2e9bc763","system_id":"levelo_inurba_marseille","lat":43.2609,"lon":5.39376,"is_reserved":false,"is_disabled":false,"rental_uris":{"android":"levelo://app?vid=fd4deb85-4aaa-41b7-a13b-726a2e9bc763","ios":"levelo://app?vid=fd4deb85-4aaa-41b7-a13b-726a2e9bc763"},"vehicle_type_id":"4","last_reported":1747084141,"current_range_meters":27600,"station_id":"ce4bhh92rcd13ifvqfj0","pricing_plan_id":"cebpf4jnsgd1na2vs0mg"},{"bike_id":"074545cc-39c8-4852-bc40-79cf812156a7","system_id":"levelo_inurba_marseille","lat":43.28161,"lon":5.42641,"is_reserved":false,"is_disabled":false,"rental_uris":{"android":"levelo://app?vid=074545cc-39c8-4852-bc40-79cf812156a7","ios":"levelo://app?vid=074545cc-39c8-4852-bc40-79cf812156a7"},"vehicle_type_id":"4","last_reported":1747084141,"current_range_meters":27600,"station_id":"ce4bhnh2rcd13ifvqgug","pricing_plan_id":"cebpf4jnsgd1na2vs0mg"},{"bike_id":"0765b4d0-2a11-48f1-9aa4-e74022b8fc02","system_id":"levelo_inurba_marseille","lat":43.31094,"lon":5.42428,"is_reserved":false,"is_disabled":false,"rental_uris":{"android":"levelo://app?vid=0765b4d0-2a11-48f1-9aa4-e74022b8fc02","ios":"levelo://app?vid=0765b4d0-2a11-48f1-9aa4-e74022b8fc02"},"vehicle_type_id":"4","last_reported":1747084141,"current_range_meters":27600,"station_id":"ce4bhp92rcd13ifvqhag","pricing_plan_id":"cebpf4jnsgd1na2vs0mg"},{"bike_id":"d0d57b1e-193c-4f21-9118-f46e78552955","system_id":"levelo_inurba_marseille","lat":43.33013,"lon":5.39016,"is_reserved":false,"is_disabled":false,"rental_uris":{"android":"levelo://app?vid=d0d57b1e-193c-4f21-9118-f46e78552955","ios":"levelo://app?vid=d0d57b1e-193c-4f21-9118-f46e78552955"},"vehicle_type_id":"4","last_reported":1747084141,"current_range_meters":27600,"station_id":"ce4bhr92rcd13ifvqhrg","pricing_plan_id":"cebpf4jnsgd1na2vs0mg"},{"bike_id":"9377c43b-18a9-4f62-9d57-c53d9e2cc649","system_id":"levelo_inurba_marseille","lat":43.30894,"lon":5.37189,"is_reserved":false,"is_disabled":false,"rental_uris":{"android":"levelo://app?vid=9377c43b-18a9-4f62-9d57-c53d9e2cc649","ios":"levelo://app?vid=9377c43b-18a9-4f62-9d57-c53d9e2cc649"},"vehicle_type_id":"4","last_reported":1747084141,"current_range_meters":28000,"station_id":"ce4bguh2rcd13ifvqckg","pricing_plan_id":"cebpf4jnsgd1na2vs0mg"},{"bike_id":"34a8fed5-c725-4bae-82b7-82798aa859df","system_id":"levelo_inurba_marseille","lat":43.311751,"lon":5.387356,"is_reserved":false,"is_disabled":false,"rental_uris":{"android":"levelo://app?vid=34a8fed5-c725-4bae-82b7-82798aa859df","ios":"levelo://app?vid=34a8fed5-c725-4bae-82b7-82798aa859df"},"vehicle_type_id":"4","last_reported":1747084141,"current_range_meters":28000,"station_id":"ce4bgv12rcd13ifvqcp0","pricing_plan_id":"cebpf4jnsgd1na2vs0mg"},{"bike_id":"cbff5c33-d1ea-45fe-8212-0f2e4ea0e285","system_id":"levelo_inurba_marseille","lat":43.3133,"lon":5.39689,"is_reserved":false,"is_disabled":false,"rental_uris":{"android":"levelo://app?vid=cbff5c33-d1ea-45fe-8212-0f2e4ea0e285","ios":"levelo://app?vid=cbff5c33-d1ea-45fe-8212-0f2e4ea0e285"},"vehicle_type_id":"4","last_reported":1747084141,"current_range_meters":28000,"station_id":"ce4bgvp2rcd13ifvqcu0","pricing_plan_id":"cebpf4jnsgd1na2vs0mg"},{"bike_id":"fb972eb0-2a12-4020-b11c-7bea274384fa","system_id":"levelo_inurba_marseille","lat":43.30583,"lon":5.39347,"is_reserved":false,"is_disabled":false,"rental_uris":{"android":"levelo://app?vid=fb972eb0-2a12-4020-b11c-7bea274384fa","ios":"levelo://app?vid=fb972eb0-2a12-4020-b11c-7bea274384fa"},"vehicle_type_id":"4","last_reported":1747084141,"current_range_meters":28000,"station_id":"ce4bh0p2rcd13ifvqd80","pricing_plan_id":"cebpf4jnsgd1na2vs0mg"},