{"last_updated":1737673718,"ttl":60,"version":"2.2","data":{"bikes":[{"bike_id":"71025e83-daff-40eb-8f70-b8e1fc9300fb","system_id":"levelo_inurba_marseille","lat":43.22923,"lon":5.3539,"is_reserved":false,"is_disabled":false,"rental_uris":{"android":"levelo://app?vid=71025e83-daff-40eb-8f70-b8e1fc9300fb","ios":"levelo://app?vid=71025e83-daff-40eb-8f70-b8e1fc9300fb"},"vehicle_type_id":"4","last_reported":1737673718,"current_range_meters":38000,"station_id":"cpo3532slgdg3j2ikp40","pricing_plan_id":"cebpf4jnsgd1na2vs0mg"},{"bike_id":"10bc401f-3887-44dc-a9ac-580507b30748","system_id":"levelo_inurba_marseille","lat":43.28449,"lon":5.35889,"is_reserved":false,"is_disabled":false,"rental_uris":{"android":"levelo://app?vid=10bc401f-3887-44dc-a9ac-580507b30748","ios":"levelo://app?vid=10bc401f-3887-44dc-a9ac-580507b30748"},"vehicle_type_id":"4","last_reported":1737673718,"current_range_meters":32800,"station_id":"ce4bhah2rcd13ifvqei0","pricing_plan_id":"cebpf4jnsgd1na2vs0mg"},{"bike_id":"9c7eaa63-fad9-42a1-ac6c-648c1755a7f5","system_id":"levelo_inurba_marseille","lat":43.30075,"lon":5.37294,"is_reserved":false,"is_disabled":false,"rental_uris":{"android":"levelo://app?vid=9c7eaa63-fad9-42a1-ac6c-648c1755a7f5","ios":"levelo://app?vid=9c7eaa63-fad9-42a1-ac6c-648c1755a7f5"},"vehicle_type_id":"4","last_reported":1737673718,"current_range_meters":34000,"station_id":"","pricing_plan_id":"cebpf4jnsgd1na2vs0mg"},{"bike_id":"eccf0d1b-bc05-4442-912e-9450590b779a","system_id":"levelo_inurba_marseille","lat":43.32002,"lon":5.38097,"is_reserved":false,"is_disabled":false,"rental_uris":{"android":"levelo://app?vid=eccf0d1b-bc05-4442-912e-9450590b779a","ios":"levelo://app?vid=eccf0d1b-bc05-4442-912e-9450590b779a"},"vehicle_type_id":"4","last_reported":1737673718,"current_range_meters":16400,"station_id":"","pricing_plan_id":"cebpf4jnsgd1na2vs0mg"},{"bike_id":"bb837106-5fe6-4c19-83c9-a4ca3cad7964","system_id":"levelo_inurba_marseille","lat":43.29249,"lon":5.36089,"is_reserved":false,"is_disabled":false,"rental_uris":{"android":"levelo://app?vid=bb837106-5fe6-4c19-83c9-a4ca3cad7964","ios":"levelo://app?vid=bb837106-5fe6-4c19-83c9-a4ca3cad7964"},"vehicle_type_id":"4","last_reported":1737673718,"current_range_meters":24400,"station_id":"ce4bhbh2rcd13ifvqeqg","pricing_plan_id":"cebpf4jnsgd1na2vs0mg"},{"bike_id":"095316ea-421f-4437-9a4e-da54ce664166","system_id":"levelo_inurba_marseille","lat":43.28085,"lon":5.37917,"is_reserved":false,"is_disabled":false,"rental_uris":{"android":"levelo://app?vid=095316ea-421f-4437-9a4e-da54ce664166","ios":"levelo://app?vid=095316ea-421f-4437-9a4e-da54ce664166"},"vehicle_type_id":"4","last_reported":1737673718,"current_range_meters":30000,"station_id":"ce4bha12rcd13ifvqee0","pricing_plan_id":"cebpf4jnsgd1na2vs0mg"},{"bike_id":"ef8b265c-0230-4cc5-b1c1-c914a6a4d51e","system_id":"levelo_inurba_marseille","lat":43.29283,"lon":5.40909,"is_reserved":false,"is_disabled":false,"rental_uris":{"android":"levelo://app?vid=ef8b265c-0230-4cc5-b1c1-c914a6a4d51e","ios":"levelo://app?vid=ef8b265c-0230-4cc5-b1c1-c914a6a4d51e"},"vehicle_type_id":"4","last_reported":1737673718,"current_range_meters":26800,"station_id":"ce4bh192rcd13ifvqdc0","pricing_plan_id":"cebpf4jnsgd1na2vs0mg"},{"bike_id":"d5e872fd-88ad-4d26-bf6b-08aaaf1253ee","system_id":"levelo_inurba_marseille","lat":43.28452,"lon":5.35886,"is_reserved":false,"is_disabled":false,"rental_uris":{"android":"levelo://app?vid=d5e872fd-88ad-4d26-bf6b-08aaaf1253ee","ios":"levelo://app?vid=d5e872fd-88ad-4d26-bf6b-08aaaf1253ee"},"vehicle_type_id":"4","last_reported":1737673718,"current_range_meters":17200,"station_id":"ce4bhah2rcd13ifvqei0","pricing_plan_id":"cebpf4jnsgd1na2vs0mg"},{"bike_id":"9cc0c7ef-0803-47e3-9731-691efc00014c","system_id":"levelo_inurba_marseille","lat":43.24812,"lon":5.37445,"is_reserved":false,"is_disabled":false,"rental_uris":{"android":"levelo://app?vid=9cc0c7ef-0803-47e3-9731-691efc00014c","ios":"levelo://app?vid=9cc0c7ef-0803-47e3-9731-691efc00014c"},"vehicle_type_id":"4","last_reported":1737673718,"current_range_meters":7200,"station_id":"ce4bhgh2rcd13ifvqfb0","pricing_plan_id":"cebpf4jnsgd1na2vs0mg"},{"bike_id":"b5cb07e6-6ffd-4db4-8954-0084503b2aef","system_id":"levelo_inurba_marseille","lat":43.33003,"lon":5.39009,"is_reserved":false,"is_disabled":false,"rental_uris":{"android":"levelo://app?vid=b5cb07e6-6ffd-4db4-8954-0084503b2aef","ios":"levelo://app?vid=b5cb07e6-6ffd-4db4-8954-0084503b2aef"},"vehicle_type_id":"4","last_reported":1737673718,"current_range_meters":38800,"station_id":"ce4bhr92rcd13ifvqhrg","pricing_plan_id":"cebpf4jnsgd1na2vs0mg"},{"bike_id":"c71bbc0d-9aef-4e5d-8186-791e46cd2b58","system_id":"levelo_inurba_marseille","lat":43.26221,"lon":5.3745,"is_reserved":false,"is_disabled":true,"rental_uris":{"android":"levelo://app?vid=c71bbc0d-9aef-4e5d-8186-791e46cd2b58","ios":"levelo://app?vid=c71bbc0d-9aef-4e5d-8186-791e46cd2b58"},"vehicle_type_id":"4","last_reported":1737673718,"current_range_meters":36800,"station_id":"ce4bhgp2rcd13ifvqfc0","pricing_plan_id":"cebpf4jnsgd1na2vs0mg"},{"bike_id":"4a081956-cbf5-4d73-bd8f-6f5096af4df8","system_id":"levelo_inurba_marseille","lat":43.248014,"lon":5.374507,"is_reserved":false,"is_disabled":false,"rental_uris":{"android":"levelo://app?vid=4a081956-cbf5-4d73-bd8f-6f5096af4df8","ios":"levelo://app?vid=4a081956-cbf5-4d73-bd8f-6f5096af4df8"},"vehicle_type_id":"4","last_reported":1737673718,"current_range_meters":38000,"station_id":"ce4bhgh2rcd13ifvqfb0","pricing_plan_id":"cebpf4jnsgd1na2vs0mg"},{"bike_id":"fa235921-264c-45fa-9486-36940e44284c","system_id":"levelo_inurba_marseille","lat":43.25578,"lon":5.38252,"is_reserved":false,"is_disabled":false,"rental_uris":{"android":"levelo://app?vid=fa235921-264c-45fa-9486-36940e44284c","ios":"levelo://app?vid=fa235921-264c-45fa-9486-36940e44284c"},"vehicle_type_id":"4","last_reported":1737673718,"current_range_meters":25200,"station_id":"ce4bhih2rcd13ifvqfs0","pricing_plan_id":"cebpf4jnsgd1na2vs0mg"},{"bike_id":"169ecae1-c3c7-456b-beb7-b62287b76c83","system_id":"levelo_inurba_marseille","lat":43.31356,"lon":5.39731,"is_reserved":false,"is_disabled":false,"rental_uris":{"android":"levelo://app?vid=169ecae1-c3c7-456b-beb7-b62287b76c83","ios":"levelo://app?vid=169ecae1-c3c7-456b-beb7-b62287b76c83"},"vehicle_type_id":"4","last_reported":1737673718,"current_range_meters":9600,"station_id":"ce4bgvp2rcd13ifvqcu0","pricing_plan_id":"cebpf4jnsgd1na2vs0mg"},{"bike_id":"1a092bf7-35e4-40a3-a6a3-f4c3e6f23ce6","system_id":"levelo_inurba_marseille","lat":43.282655,"lon":5.350654,"is_reserved":false,"is_disabled":false,"rental_uris":{"android":"levelo://app?vid=1a092bf7-35e4-40a3-a6a3-f4c3e6f23ce6","ios":"levelo://app?vid=1a092bf7-35e4-40a3-a6a3-f4c3e6f23ce6"},"vehicle_type_id":"4","last_reported":1737673718,"current_range_meters":21600,"station_id":"ce4bhbp2rcd13ifvqerg","pricing_plan_id":"cebpf4jnsgd1na2vs0mg"},{"bike_id":"2bdb348d-ebfc-4fd5-a8f6-4500a8748716","system_id":"levelo_inurba_marseille","lat":43.29052,"lon":5.35933,"is_reserved":false,"is_disabled":false,"rental_uris":{"android":"levelo://app?vid=2bdb348d-ebfc-4fd5-a8f6-4500a8748716","ios":"levelo://app?vid=2bdb348d-ebfc-4fd5-a8f6-4500a8748716"},"vehicle_type_id":"4","last_reported":1737673718,"current_range_meters":39200,"station_id":"ce4bha92rcd13ifvqeg0","pricing_plan_id":"cebpf4jnsgd1na2vs0mg"},{"bike_id":"e21a3a38-0931-49da-bd00-54e3f3f67b09","system_id":"levelo_inurba_marseille","lat":43.30655,"lon":5.40077,"is_reserved":false,"is_disabled":false,"rental_uris":{"android":"levelo://app?vid=e21a3a38-0931-49da-bd00-54e3f3f67b09","ios":"levelo://app?vid=e21a3a38-0931-49da-bd00-54e3f3f67b09"},"vehicle_type_id":"4","last_reported":1737673718,"current_range_meters":15200,"station_id":"ce4bh112rcd13ifvqda0","pricing_plan_id":"cebpf4jnsgd1na2vs0mg"},{"bike_id":"1472ea52-8fc9-449d-8cdc-fb5de31126e2","system_id":"levelo_inurba_marseille","lat":43.32479,"lon":5.36569,"is_reserved":false,"is_disabled":false,"rental_uris":{"android":"levelo://app?vid=1472ea52-8fc9-449d-8cdc-fb5de31126e2","ios":"levelo://app?vid=1472ea52-8fc9-449d-8cdc-fb5de31126e2"},"vehicle_type_id":"4","last_reported":1737673718,"current_range_meters":30400,"station_id":"ce4bhs12rcd13ifvqhvg","pricing_plan_id":"cebpf4jnsgd1na2vs0mg"},{"bike_id":"ba173b37-2ceb-44d1-bb38-40842354bce6","system_id":"levelo_inurba_marseille","lat":43.28939,"lon":5.36391,"is_reserved":false,"is_disabled":false,"rental_uris":{"android":"levelo://app?vid=ba173b37-2ceb-44d1-bb38-40842354bce6","ios":"levelo://app?vid=ba173b37-2ceb-44d1-bb38-40842354bce6"},"vehicle_type_id":"4","last_reported":1737673718,"current_range_meters":19200,"station_id":"ce4bhc92rcd13ifvqetg","pricing_plan_id":"cebpf4jnsgd1na2vs0mg"},{"bike_id":"fb25aff4-7712-412a-885d-4665f45586cc","system_id":"levelo_inurba_marseille","lat":43.24685,"lon":5.38164,"is_reserved":false,"is_disabled":false,"rental_uris":{"android":"levelo://app?vid=fb25aff4-7712-412a-885d-4665f45586cc","ios":"levelo://app?vid=fb25aff4-7712-412a-885d-4665f45586cc"},"vehicle_type_id":"4","last_reported":1737673718,"current_range_meters":39200,"station_id":"ce4bhih2rcd13ifvqfr0","pricing_plan_id":"cebpf4jnsgd1na2vs0mg"},{"bike_id":"d9a09493-5d02-45d9-9344-23d1c14dd216","system_id":"levelo_inurba_marseille","lat":43.29569,"lon":5.39979,"is_reserved":false,"is_disabled":false,"rental_uris":{"android":"levelo://app?vid=d9a09493-5d02-45d9-9344-23d1c14dd216","ios":"levelo://app?vid=d9a09493-5d02-45d9-9344-23d1c14dd216"},"vehicle_type_id":"4","last_reported":1737673718,"current_range_meters":32400,"station_id":"ce4bh312rcd13ifvqdj0","pricing_plan_id":"cebpf4jnsgd1na2vs0mg"},{"bike_id":"9d529299-51ae-467e-b33e-bc4a3c9c50db","system_id":"levelo_inurba_marseille","lat":43.30596,"lon":5.39352,"is_reserved":false,"is_disabled":false,"rental_uris":{"android":"levelo://app?vid=9d529299-51ae-467e-b33e-bc4a3c9c50db","ios":"levelo://app?vid=9d529299-51ae-467e-b33e-bc4a3c9c50db"},"vehicle_type_id":"4","last_reported":1737673718,"current_range_meters":20800,"station_id":"ce4bh0p2rcd13ifvqd80","pricing_plan_id":"cebpf4jnsgd1na2vs0mg"},{"bike_id":"545d0c7e-8955-4a7d-89ad-8eb345691954","system_id":"levelo_inurba_marseille","lat":43.26206,"lon":5.37444,"is_reserved":false,"is_disabled":false,"rental_uris":{"android":"levelo://app?vid=545d0c7e-8955-4a7d-89ad-8eb345691954","ios":"levelo://app?vid=545d0c7e-8955-4a7d-89ad-8eb345691954"},"vehicle_type_id":"4","last_reported":1737673718,"current_range_meters":6000,"station_id":"ce4bhgp2rcd13ifvqfc0","pricing_plan_id":"cebpf4jnsgd1na2vs0mg"},{"bike_id":"8306911c-1b49-4f25-b658-2afe8ce20858","system_id":"levelo_inurba_marseille","lat":43.284591,"lon":5.358884,"is_reserved":false,"is_disabled":false,"rental_uris":{"android":"levelo://app?vid=8306911c-1b49-4f25-b658-2afe8ce20858","ios":"levelo://app?vid=8306911c-1b49-4f25-b658-2afe8ce20858"},"vehicle_type_id":"4","last_reported":1737673718,"current_range_meters":30400,"station_id":"ce4bhah2rcd13ifvqei0","pricing_plan_id":"cebpf4jnsgd1na2vs0mg"},{"bike_id":"5ab3e1f2-7151-43c7-b2fc-70daf0c89688","system_id":"levelo_inurba_marseille","lat":43.28347,"lon":5.38107,"is_reserved":false,"is_disabled":false,"rental_uris":{"android":"levelo://app?vid=5ab3e1f2-7151-43c7-b2fc-70daf0c89688","ios":"levelo://app?vid=5ab3e1f2-7151-43c7-b2fc-70daf0c89688"},"vehicle_type_id":"4","last_reported":1737673718,"current_range_meters":38000,"station_id":"ce4bh412rcd13ifvqdr0","pricing_plan_id":"cebpf4jnsgd1na2vs0mg"},{"bike_id":"0aaa049d-0f24-4e97-8f12-c04bc7a90c66","system_id":"levelo_inurba_marseille","lat":43.30864,"lon":5.3963,"is_reserved":false,"is_disabled":true,"rental_uris":{"android":"levelo://app?vid=0aaa049d-0f24-4e97-8f12-c04bc7a90c66","ios":"levelo://app?vid=0aaa049d-0f24-4e97-8f12-c04bc7a90c66"},"vehicle_type_id":"4","last_reported":1737673718,"current_range_meters":0,"station_id":"ce4bh012rcd13ifvqcv0","pricing_plan_id":"cebpf4jnsgd1na2vs0mg"},{"bike_id":"1a87f163-95aa-44fd-b2d0-ded4d159ad4c","system_id":"levelo_inurba_marseille","lat":43.29535,"lon":5.39051,"is_reserved":false,"is_disabled":false,"rental_uris":{"android":"levelo://app?vid=1a87f163-95aa-44fd-b2d0-ded4d159ad4c","ios":"levelo://app?vid=1a87f163-95aa-44fd-b2d0-ded4d159ad4c"},"vehicle_type_id":"4","last_reported":1737673718,"current_range_meters":38800,"station_id":"ce4bh3p2rcd13ifvqdp0","pricing_plan_id":"cebpf4jnsgd1na2vs0mg"},{"bike_id":"803a7190-7cb1-4647-887b-4d3816a74552","system_id":"levelo_inurba_marseille","lat":43.28707,"lon":5.39988,"is_reserved":false,"is_disabled":false,"rental_uris":{"android":"levelo://app?vid=803a7190-7cb1-4647-887b-4d3816a74552","ios":"levelo://app?vid=803a7190-7cb1-4647-887b-4d3816a74552"},"vehicle_type_id":"4","last_reported":1737673718,"current_range_meters":14400,"station_id":"ce4bho92rcd13ifvqh3g","pricing_plan_id":"cebpf4jnsgd1na2vs0mg"},{"bike_id":"644e1c08-c502-4c85-94d4-d4a064391ff0","system_id":"levelo_inurba_marseille","lat":43.31293,"lon":5.38728,"is_reserved":false,"is_disabled":false,"rental_uris":{"android":"levelo://app?vid=644e1c08-c502-4c85-94d4-d4a064391ff0","ios":"levelo://app?vid=644e1c08-c502-4c85-94d4-d4a064391ff0"},"vehicle_type_id":"4","last_reported":1737673718,"current_range_meters":6800,"station_id":"","pricing_plan_id":"cebpf4jnsgd1na2vs0mg"},{"bike_id":"60d6bd6c-3c1e-4ed7-aea1-57024152bec1","system_id":"levelo_inurba_marseille","lat":43.29794,"lon":5.40406,"is_reserved":false,"is_disabled":false,"rental_uris":{"android":"levelo://app?vid=60d6bd6c-3c1e-4ed7-aea1-57024152bec1","ios":"levelo://app?vid=60d6bd6c-3c1e-4ed7-aea1-57024152bec1"},"vehicle_type_id":"4","last_reported":1737673718,"current_range_meters":38800,"station_id":"ce4bh112rcd13ifvqd90","pricing_plan_id":"cebpf4jnsgd1na2vs0mg"},{"bike_id":"553e4976-b27f-47dc-8e32-f79d8de69447","system_id":"levelo_inurba_marseille","lat":43.28999,"lon":5.35566,"is_reserved":false,"is_disabled":false,"rental_uris":{"android":"levelo://app?vid=553e4976-b27f-47dc-8e32-f79d8de69447","ios":"levelo://app?vid=553e4976-b27f-47dc-8e32-f79d8de69447"},"vehicle_type_id":"4","last_reported":1737673718,"current_range_meters":38800,"station_id":"ce4bhb92rcd13ifvqen0","pricing_plan_id":"cebpf4jnsgd1na2vs0mg"},{"bike_id":"f661d58f-2e40-447b-b91e-4edb47052daf","system_id":"levelo_inurba_marseille","lat":43.30595,"lon":5.37224,"is_reserved":false,"is_disabled":false,"rental_uris":{"android":"levelo://app?vid=f661d58f-2e40-447b-b91e-4edb47052daf","ios":"levelo://app?vid=f661d58f-2e40-447b-b91e-4edb47052daf"},"vehicle_type_id":"4","last_reported":1737673718,"current_range_meters":29600,"station_id":"ce4bgqh2rcd13ifvqc4g","pricing_plan_id":"cebpf4jnsgd1na2vs0mg"},{"bike_id":"25cbbd9d-d7e5-4227-b21a-32aaa818c92b","system_id":"levelo_inurba_marseille","lat":43.2873,"lon":5.36111,"is_reserved":false,"is_disabled":false,"rental_uris":{"android":"levelo://app?vid=25cbbd9d-d7e5-4227-b21a-32aaa818c92b","ios":"levelo://app?vid=25cbbd9d-d7e5-4227-b21a-32aaa818c92b"},"vehicle_type_id":"4","last_reported":1737673718,"current_range_meters":6000,"station_id":"cki0cbj6b192h4jlfktg","pricing_plan_id":"cebpf4jnsgd1na2vs0mg"},{"bike_id":"820d236e-1578-4ddc-b946-1dd3b5ad3eb4","system_id":"levelo_inurba_marseille","lat":43.30908,"lon":5.39614,"is_reserved":false,"is_disabled":false,"rental_uris":{"android":"levelo://app?vid=820d236e-1578-4ddc-b946-1dd3b5ad3eb4","ios":"levelo://app?vid=820d236e-1578-4ddc-b946-1dd3b5ad3eb4"},"vehicle_type_id":"4","last_reported":1737673718,"current_range_meters":38800,"station_id":"ce4bh012rcd13ifvqcv0","pricing_plan_id":"cebpf4jnsgd1na2vs0mg"},{"bike_id":"651de9ba-34f8-4bea-93ad-15a01c05be45","system_id":"levelo_inurba_marseille","lat":43.32114,"lon":5.36768,"is_reserved":false,"is_disabled":false,"rental_uris":{"android":"levelo://app?vid=651de9ba-34f8-4bea-93ad-15a01c05be45","ios":"levelo://app?vid=651de9ba-34f8-4bea-93ad-15a01c05be45"},"vehicle_type_id":"4","last_reported":1737673718,"current_range_meters":33600,"station_id":"ce4bhrh2rcd13ifvqhug","pricing_plan_id":"cebpf4jnsgd1na2vs0mg"},{"bike_id":"9983c692-ad14-4a2d-9f5b-6df58b403e15","system_id":"levelo_inurba_marseille","lat":43.28852,"lon":5.39303,"is_reserved":false,"is_disabled":false,"rental_uris":{"android":"levelo://app?vid=9983c692-ad14-4a2d-9f5b-6df58b403e15","ios":"levelo://app?vid=9983c692-ad14-4a2d-9f5b-6df58b403e15"},"vehicle_type_id":"4","last_reported":1737673718,"current_range_meters":11600,"station_id":"ce4bh2p2rcd13ifvqdi0","pricing_plan_id":"cebpf4jnsgd1na2vs0mg"},{"bike_id":"242a4a41-99fe-407c-8b8e-ca2ef30691e7","system_id":"levelo_inurba_marseille","lat":43.29535,"lon":5.39051,"is_reserved":false,"is_disabled":false,"rental_uris":{"android":"levelo://app?vid=242a4a41-99fe-407c-8b8e-ca2ef30691e7","ios":"levelo://app?vid=242a4a41-99fe-407c-8b8e-ca2ef30691e7"},"vehicle_type_id":"4","last_reported":1737673718,"current_range_meters":6800,"station_id":"ce4bh3p2rcd13ifvqdp0","pricing_plan_id":"cebpf4jnsgd1na2vs0mg"},{"bike_id":"929a5008-aa77-4c8e-9054-d1d614d01382","system_id":"levelo_inurba_marseille","lat":43.31152,"lon":5.38726,"is_reserved":false,"is_disabled":false,"rental_uris":{"android":"levelo://app?vid=929a5008-aa77-4c8e-9054-d1d614d01382","ios":"levelo://app?vid=929a5008-aa77-4c8e-9054-d1d614d01382"},"vehicle_type_id":"4","last_reported":1737673718,"current_range_meters":30400,"station_id":"ce4bgv12rcd13ifvqcp0","pricing_plan_id":"cebpf4jnsgd1na2vs0mg"},{"bike_id":"1fbcfb52-8929-4f0c-a9d8-51ffbe3630c4","system_id":"levelo_inurba_marseille","lat":43.31325,"lon":5.39694,"is_reserved":false,"is_disabled":false,"rental_uris":{"android":"levelo://app?vid=1fbcfb52-8929-4f0c-a9d8-51ffbe3630c4","ios":"levelo://app?vid=1fbcfb52-8929-4f0c-a9d8-51ffbe3630c4"},"vehicle_type_id":"4","last_reported":1737673718,"current_range_meters":32400,"station_id":"ce4bgvp2rcd13ifvqcu0","pricing_plan_id":"cebpf4jnsgd1na2vs0mg"},{"bike_id":"545ed6e3-0d7c-44d7-afc3-19d942ccdead","system_id":"levelo_inurba_marseille","lat":43.282638,"lon":5.350785,"is_reserved":false,"is_disabled":false,"rental_uris":{"android":"levelo://app?vid=545ed6e3-0d7c-44d7-afc3-19d942ccdead","ios":"levelo://app?vid=545ed6e3-0d7c-44d7-afc3-19d942ccdead"},"vehicle_type_id":"4","last_reported":1737673718,"current_range_meters":25200,"station_id":"ce4bhbp2rcd13ifvqerg","pricing_plan_id":"cebpf4jnsgd1na2vs0mg"},{"bike_id":"0af6d497-19c9-433b-9557-19fa7238658c","system_id":"levelo_inurba_marseille","lat":43.27951,"lon":5.38709,"is_reserved":false,"is_disabled":true,"rental_uris":{"android":"levelo://app?vid=0af6d497-19c9-433b-9557-19fa7238658c","ios":"levelo://app?vid=0af6d497-19c9-433b-9557-19fa7238658c"},"vehicle_type_id":"4","last_reported":1737673718,"current_range_meters":37600,"station_id":"ce4bhg12rcd13ifvqf80","pricing_plan_id":"cebpf4jnsgd1na2vs0mg"},{"bike_id":"de20accc-6af8-4084-b9d0-4b5a517d8a91","system_id":"levelo_inurba_marseille","lat":43.33031,"lon":5.39049,"is_reserved":false,"is_disabled":false,"rental_uris":{"android":"levelo://app?vid=de20accc-6af8-4084-b9d0-4b5a517d8a91","ios":"levelo://app?vid=de20accc-6af8-4084-b9d0-4b5a517d8a91"},"vehicle_type_id":"4","last_reported":1737673718,"current_range_meters":38800,"station_id":"ce4bhr92rcd13ifvqhrg","pricing_plan_id":"cebpf4jnsgd1na2vs0mg"},{"bike_id":"bfc7c4c8-160f-422f-88d7-f1006cae57bb","system_id":"levelo_inurba_marseille","lat":43.31108,"lon":5.37738,"is_reserved":false,"is_disabled":false,"rental_uris":{"android":"levelo://app?vid=bfc7c4c8-160f-422f-88d7-f1006cae57bb","ios":"levelo://app?vid=bfc7c4c8-160f-422f-88d7-f1006cae57bb"},"vehicle_type_id":"4","last_reported":1737673718,"current_range_meters":9600,"station_id":"ce4bgt92rcd13ifvqcg0","pricing_plan_id":"cebpf4jnsgd1na2vs0mg"},{"bike_id":"a97bd20e-fb6e-42d8-8c93-7c1bb4f2b31d","system_id":"levelo_inurba_marseille","lat":43.30921,"lon":5.4016,"is_reserved":false,"is_disabled":false,"rental_uris":{"android":"levelo://app?vid=a97bd20e-fb6e-42d8-8c93-7c1bb4f2b31d","ios":"levelo://app?vid=a97bd20e-fb6e-42d8-8c93-7c1bb4f2b31d"},"vehicle_type_id":"4","last_reported":1737673718,"current_range_meters":20800,"station_id":"ce4bgvp2rcd13ifvqct0","pricing_plan_id":"cebpf4jnsgd1na2vs0mg"},{"bike_id":"cddfddb2-750c-4eb5-81cb-d5e65f4765d7","system_id":"levelo_inurba_marseille","lat":43.247044,"lon":5.424588,"is_reserved":false,"is_disabled":true,"rental_uris":{"android":"levelo://app?vid=cddfddb2-750c-4eb5-81cb-d5e65f4765d7","ios":"levelo://app?vid=cddfddb2-750c-4eb5-81cb-d5e65f4765d7"},"vehicle_type_id":"4","last_reported":1737673718,"current_range_meters":0,"station_id":"","pricing_plan_id":"cebpf4jnsgd1na2vs0mg"},{"bike_id":"bbdfc660-e997-4a11-9591-bbb56c89be46","system_id":"levelo_inurba_marseille","lat":43.33029,"lon":5.39045,"is_reserved":false,"is_disabled":false,"rental_uris":{"android":"levelo://app?vid=bbdfc660-e997-4a11-9591-bbb56c89be46","ios":"levelo://app?vid=bbdfc660-e997-4a11-9591-bbb56c89be46"},"vehicle_type_id":"4","last_reported":1737673718,"current_range_meters":36400,"station_id":"ce4bhr92rcd13ifvqhrg","pricing_plan_id":"cebpf4jnsgd1na2vs0mg"},{"bike_id":"5e75dd30-ab3b-44d3-8dcb-cb5fd4a0eb65","system_id":"levelo_inurba_marseille","lat":43.246449,"lon":5.388885,"is_reserved":false,"is_disabled":false,"rental_uris":{"android":"levelo://app?vid=5e75dd30-ab3b-44d3-8dcb-cb5fd4a0eb65","ios":"levelo://app?vid=5e75dd30-ab3b-44d3-8dcb-cb5fd4a0eb65"},"vehicle_type_id":"4","last_reported":1737673718,"current_range_meters":36800,"station_id":"ce4bhg12rcd13ifvqf60","pricing_plan_id":"cebpf4jnsgd1na2vs0mg"},{"bike_id":"676733c9-fe1d-42d8-bf38-dc5bea0c803b","system_id":"levelo_inurba_marseille","lat":43.3171,"lon":5.37749,"is_reserved":false,"is_disabled":false,"rental_uris":{"android":"levelo://app?vid=676733c9-fe1d-42d8-bf38-dc5bea0c803b","ios":"levelo://app?vid=676733c9-fe1d-42d8-bf38-dc5bea0c803b"},"vehicle_type_id":"4","last_reported":1737673718,"current_range_meters":36400,"station_id":"ce4bgth2rcd13ifvqch0","pricing_plan_id":"cebpf4jnsgd1na2vs0mg"},{"bike_id":"b82a8ee9-b7f6-4bbf-a3f0-fec2dc7b2b9f","system_id":"levelo_inurba_marseille","lat":43.30236,"lon":5.40084,"is_reserved":false,"is_disabled":false,"rental_uris":{"android":"levelo://app?vid=b82a8ee9-b7f6-4bbf-a3f0-fec2dc7b2b9f","ios":"levelo://app?vid=b82a8ee9-b7f6-4bbf-a3f0-fec2dc7b2b9f"},"vehicle_type_id":"4","last_reported":1737673718,"current_range_meters":38800,"station_id":"ce4bgvh2rcd13ifvqcs0","pricing_plan_id":"cebpf4jnsgd1na2vs0mg"},{"bike_id":"1f4cc9a1-a6f1-42ee-8f62-d3fd1b2849a6","system_id":"levelo_inurba_marseille","lat":43.23193,"lon":5.39987,"is_reserved":false,"is_disabled":false,"rental_uris":{"android":"levelo://app?vid=1f4cc9a1-a6f1-42ee-8f62-d3fd1b2849a6","ios":"levelo://app?vid=1f4cc9a1-a6f1-42ee-8f62-d3fd1b2849a6"},"vehicle_type_id":"4","last_reported":1737673718,"current_range_meters":6800,"station_id":"ce4bhn12rcd13ifvqgqg","pricing_plan_id":"cebpf4jnsgd1na2vs0mg"},{"bike_id":"821b3960-6089-4a10-b2bd-4157d4f3a896","system_id":"levelo_inurba_marseille","lat":43.28152,"lon":5.4265,"is_reserved":false,"is_disabled":false,"rental_uris":{"android":"levelo://app?vid=821b3960-6089-4a10-b2bd-4157d4f3a896","ios":"levelo://app?vid=821b3960-6089-4a10-b2bd-4157d4f3a896"},"vehicle_type_id":"4","last_reported":1737673718,"current_range_meters":10800,"station_id":"ce4bhnh2rcd13ifvqgug","pricing_plan_id":"cebpf4jnsgd1na2vs0mg"},{"bike_id":"77a12100-d260-4f7f-997e-94d8d05bfd42","system_id":"levelo_inurba_marseille","lat":43.28039,"lon":5.36947,"is_reserved":false,"is_disabled":false,"rental_uris":{"android":"levelo://app?vid=77a12100-d260-4f7f-997e-94d8d05bfd42","ios":"levelo://app?vid=77a12100-d260-4f7f-997e-94d8d05bfd42"},"vehicle_type_id":"4","last_reported":1737673718,"current_range_meters":11200,"station_id":"ce4bha12rcd13ifvqef0","pricing_plan_id":"cebpf4jnsgd1na2vs0mg"},{"bike_id":"9838cc78-2b53-49d3-ae13-82df62c4fd64","system_id":"levelo_inurba_marseille","lat":43.2842,"lon":5.40931,"is_reserved":false,"is_disabled":false,"rental_uris":{"android":"levelo://app?vid=9838cc78-2b53-49d3-ae13-82df62c4fd64","ios":"levelo://app?vid=9838cc78-2b53-49d3-ae13-82df62c4fd64"},"vehicle_type_id":"4","last_reported":1737673718,"current_range_meters":4000,"station_id":"","pricing_plan_id":"cebpf4jnsgd1na2vs0mg"},{"bike_id":"a81743b4-f809-4627-8f93-363bc6194b52","system_id":"levelo_inurba_marseille","lat":43.30674,"lon":5.40085,"is_reserved":false,"is_disabled":false,"rental_uris":{"android":"levelo://app?vid=a81743b4-f809-4627-8f93-363bc6194b52","ios":"levelo://app?vid=a81743b4-f809-4627-8f93-363bc6194b52"},"vehicle_type_id":"4","last_reported":1737673718,"current_range_meters":38800,"station_id":"ce4bh112rcd13ifvqda0","pricing_plan_id":"cebpf4jnsgd1na2vs0mg"},{"bike_id":"d9d67e50-ff60-4024-bb97-06b4cc192a7e","system_id":"levelo_inurba_marseille","lat":43.30226,"lon":5.37529,"is_reserved":false,"is_disabled":true,"rental_uris":{"android":"levelo://app?vid=d9d67e50-ff60-4024-bb97-06b4cc192a7e","ios":"levelo://app?vid=d9d67e50-ff60-4024-bb97-06b4cc192a7e"},"vehicle_type_id":"4","last_reported":1737673718,"current_range_meters":38000,"station_id":"","pricing_plan_id":"cebpf4jnsgd1na2vs0mg"},{"bike_id":"73d834fb-e5b5-46db-8e60-2e0f290ea695","system_id":"levelo_inurba_marseille","lat":43.29512,"lon":5.39037,"is_reserved":false,"is_disabled":false,"rental_uris":{"android":"levelo://app?vid=73d834fb-e5b5-46db-8e60-2e0f290ea695","ios":"levelo://app?vid=73d834fb-e5b5-46db-8e60-2e0f290ea695"},"vehicle_type_id":"4","last_reported":1737673718,"current_range_meters":38400,"station_id":"ce4bh3p2rcd13ifvqdp0","pricing_plan_id":"cebpf4jnsgd1na2vs0mg"},{"bike_id":"1cd34acd-7820-4884-9d33-5f477e633809","system_id":"levelo_inurba_marseille","lat":43.32344,"lon":5.40617,"is_reserved":false,"is_disabled":false,"rental_uris":{"android":"levelo://app?vid=1cd34acd-7820-4884-9d33-5f477e633809","ios":"levelo://app?vid=1cd34acd-7820-4884-9d33-5f477e633809"},"vehicle_type_id":"4","last_reported":1737673718,"current_range_meters":38800,"station_id":"ce4bhq92rcd13ifvqhjg","pricing_plan_id":"cebpf4jnsgd1na2vs0mg"},{"bike_id":"bf096a89-ee72-4f37-85bd-7b3cf9f0cb41","system_id":"levelo_inurba_marseille","lat":43.31938,"lon":5.37871,"is_reserved":false,"is_disabled":false,"rental_uris":{"android":"levelo://app?vid=bf096a89-ee72-4f37-85bd-7b3cf9f0cb41","ios":"levelo://app?vid=bf096a89-ee72-4f37-85bd-7b3cf9f0cb41"},"vehicle_type_id":"4","last_reported":1737673718,"current_range_meters":36800,"station_id":"","pricing_plan_id":"cebpf4jnsgd1na2vs0mg"},{"bike_id":"81a1ee1f-b7a3-487f-abfc-c81babfe5d0a","system_id":"levelo_inurba_marseille","lat":43.23196,"lon":5.39996,"is_reserved":false,"is_disabled":false,"rental_uris":{"android":"levelo://app?vid=81a1ee1f-b7a3-487f-abfc-c81babfe5d0a","ios":"levelo://app?vid=81a1ee1f-b7a3-487f-abfc-c81babfe5d0a"},"vehicle_type_id":"4","last_reported":1737673718,"current_range_meters":7200,"station_id":"ce4bhn12rcd13ifvqgqg","pricing_plan_id":"cebpf4jnsgd1na2vs0mg"},{"bike_id":"3dfe1bd8-4d86-4892-a7a7-e22d89828c1f","system_id":"levelo_inurba_marseille","lat":43.29275,"lon":5.40168,"is_reserved":false,"is_disabled":true,"rental_uris":{"android":"levelo://app?vid=3dfe1bd8-4d86-4892-a7a7-e22d89828c1f","ios":"levelo://app?vid=3dfe1bd8-4d86-4892-a7a7-e22d89828c1f"},"vehicle_type_id":"4","last_reported":1737673718,"current_range_meters":1200,"station_id":"ce4bh312rcd13ifvqdk0","pricing_plan_id":"cebpf4jnsgd1na2vs0mg"},{"bike_id":"634d56c1-a2c0-4178-97ec-f77ccc52b51c","system_id":"levelo_inurba_marseille","lat":43.23178,"lon":5.40026,"is_reserved":false,"is_disabled":false,"rental_uris":{"android":"levelo://app?vid=634d56c1-a2c0-4178-97ec-f77ccc52b51c","ios":"levelo://app?vid=634d56c1-a2c0-4178-97ec-f77ccc52b51c"},"vehicle_type_id":"4","last_reported":1737673718,"current_range_meters":34000,"station_id":"ce4bhn12rcd13ifvqgqg","pricing_plan_id":"cebpf4jnsgd1na2vs0mg"},{"bike_id":"7da2dc43-ec86-444b-b170-22e5a144ea03","system_id":"levelo_inurba_marseille","lat":43.28567,"lon":5.39496,"is_reserved":false,"is_disabled":false,"rental_uris":{"android":"levelo://app?vid=7da2dc43-ec86-444b-b170-22e5a144ea03","ios":"levelo://app?vid=7da2dc43-ec86-444b-b170-22e5a144ea03"},"vehicle_type_id":"4","last_reported":1737673718,"current_range_meters":39200,"station_id":"ce4bh292rcd13ifvqdg0","pricing_plan_id":"cebpf4jnsgd1na2vs0mg"},{"bike_id":"7a2298db-3181-4dc6-9dc2-6c0b4192a1ea","system_id":"levelo_inurba_marseille","lat":43.31305,"lon":5.40175,"is_reserved":false,"is_disabled":false,"rental_uris":{"android":"levelo://app?vid=7a2298db-3181-4dc6-9dc2-6c0b4192a1ea","ios":"levelo://app?vid=7a2298db-3181-4dc6-9dc2-6c0b4192a1ea"},"vehicle_type_id":"4","last_reported":1737673718,"current_range_meters":5600,"station_id":"ce4bh092rcd13ifvqd30","pricing_plan_id":"cebpf4jnsgd1na2vs0mg"},{"bike_id":"df8c43c7-a91e-44ad-ac9b-073dcc3138f1","system_id":"levelo_inurba_marseille","lat":43.31271,"lon":5.40169,"is_reserved":false,"is_disabled":false,"rental_uris":{"android":"levelo://app?vid=df8c43c7-a91e-44ad-ac9b-073dcc3138f1","ios":"levelo://app?vid=df8c43c7-a91e-44ad-ac9b-073dcc3138f1"},"vehicle_type_id":"4","last_reported":1737673718,"current_range_meters":26800,"station_id":"ce4bh092rcd13ifvqd30","pricing_plan_id":"cebpf4jnsgd1na2vs0mg"},{"bike_id":"11af7151-cc28-4301-8f2f-3050d9fc8d9c","system_id":"levelo_inurba_marseille","lat":43.26949,"lon":5.38622,"is_reserved":false,"is_disabled":false,"rental_uris":{"android":"levelo://app?vid=11af7151-cc28-4301-8f2f-3050d9fc8d9c","ios":"levelo://app?vid=11af7151-cc28-4301-8f2f-3050d9fc8d9c"},"vehicle_type_id":"4","last_reported":1737673718,"current_range_meters":39200,"station_id":"ce4bhh92rcd13ifvqfh0","pricing_plan_id":"cebpf4jnsgd1na2vs0mg"},{"bike_id":"1eda1911-cf75-473e-a1cb-875255a8e555","system_id":"levelo_inurba_marseille","lat":43.2973,"lon":5.36594,"is_reserved":false,"is_disabled":false,"rental_uris":{"android":"levelo://app?vid=1eda1911-cf75-473e-a1cb-875255a8e555","ios":"levelo://app?vid=1eda1911-cf75-473e-a1cb-875255a8e555"},"vehicle_type_id":"4","last_reported":1737673718,"current_range_meters":32000,"station_id":"ce4bgn12rcd13ifvqbt0","pricing_plan_id":"cebpf4jnsgd1na2vs0mg"},{"bike_id":"a79c1454-a618-4883-baba-55f13f06650c","system_id":"levelo_inurba_marseille","lat":43.30643,"lon":5.40077,"is_reserved":false,"is_disabled":false,"rental_uris":{"android":"levelo://app?vid=a79c1454-a618-4883-baba-55f13f06650c","ios":"levelo://app?vid=a79c1454-a618-4883-baba-55f13f06650c"},"vehicle_type_id":"4","last_reported":1737673718,"current_range_meters":33600,"station_id":"ce4bh112rcd13ifvqda0","pricing_plan_id":"cebpf4jnsgd1na2vs0mg"},{"bike_id":"bf232eb6-ff63-4ac8-9eb0-5e3d769ec9cd","system_id":"levelo_inurba_marseille","lat":43.31364,"lon":5.36697,"is_reserved":false,"is_disabled":false,"rental_uris":{"android":"levelo://app?vid=bf232eb6-ff63-4ac8-9eb0-5e3d769ec9cd","ios":"levelo://app?vid=bf232eb6-ff63-4ac8-9eb0-5e3d769ec9cd"},"vehicle_type_id":"4","last_reported":1737673718,"current_range_meters":35200,"station_id":"ce4bgr92rcd13ifvqc6g","pricing_plan_id":"cebpf4jnsgd1na2vs0mg"},{"bike_id":"1f9e9dd7-f28f-4cb0-aff0-74dd18ed4c57","system_id":"levelo_inurba_marseille","lat":43.23975,"lon":5.36658,"is_reserved":false,"is_disabled":false,"rental_uris":{"android":"levelo://app?vid=1f9e9dd7-f28f-4cb0-aff0-74dd18ed4c57","ios":"levelo://app?vid=1f9e9dd7-f28f-4cb0-aff0-74dd18ed4c57"},"vehicle_type_id":"4","last_reported":1737673718,"current_range_meters":10800,"station_id":"ce4bhi12rcd13ifvqfp0","pricing_plan_id":"cebpf4jnsgd1na2vs0mg"},{"bike_id":"c07daaab-5cd3-4726-b9af-478660773ad5","system_id":"levelo_inurba_marseille","lat":43.30676,"lon":5.4009,"is_reserved":false,"is_disabled":false,"rental_uris":{"android":"levelo://app?vid=c07daaab-5cd3-4726-b9af-478660773ad5","ios":"levelo://app?vid=c07daaab-5cd3-4726-b9af-478660773ad5"},"vehicle_type_id":"4","last_reported":1737673718,"current_range_meters":36000,"station_id":"ce4bh112rcd13ifvqda0","pricing_plan_id":"cebpf4jnsgd1na2vs0mg"},{"bike_id":"58e04e08-346e-461f-85c7-12eadb78d927","system_id":"levelo_inurba_marseille","lat":43.31332,"lon":5.39691,"is_reserved":false,"is_disabled":false,"rental_uris":{"android":"levelo://app?vid=58e04e08-346e-461f-85c7-12eadb78d927","ios":"levelo://app?vid=58e04e08-346e-461f-85c7-12eadb78d927"},"vehicle_type_id":"4","last_reported":1737673718,"current_range_meters":38800,"station_id":"ce4bgvp2rcd13ifvqcu0","pricing_plan_id":"cebpf4jnsgd1na2vs0mg"},{"bike_id":"536484ed-d967-41c5-8f88-22ed70378acb","system_id":"levelo_inurba_marseille","lat":43.27498,"lon":5.39757,"is_reserved":false,"is_disabled":false,"rental_uris":{"android":"levelo://app?vid=536484ed-d967-41c5-8f88-22ed70378acb","ios":"levelo://app?vid=536484ed-d967-41c5-8f88-22ed70378acb"},"vehicle_type_id":"4","last_reported":1737673718,"current_range_meters":7200,"station_id":"","pricing_plan_id":"cebpf4jnsgd1na2vs0mg"},{"bike_id":"e3f96e7a-23eb-45fe-9920-f6ed2a39d29c","system_id":"levelo_inurba_marseille","lat":43.31326,"lon":5.39695,"is_reserved":false,"is_disabled":false,"rental_uris":{"android":"levelo://app?vid=e3f96e7a-23eb-45fe-9920-f6ed2a39d29c","ios":"levelo://app?vid=e3f96e7a-23eb-45fe-9920-f6ed2a39d29c"},"vehicle_type_id":"4","last_reported":1737673718,"current_range_meters":29600,"station_id":"ce4bgvp2rcd13ifvqcu0","pricing_plan_id":"cebpf4jnsgd1na2vs0mg"},{"bike_id":"a48a1d35-3f13-45af-a2ef-e29bf30d3d17","system_id":"levelo_inurba_marseille","lat":43.3083,"lon":5.43521,"is_reserved":false,"is_disabled":false,"rental_uris":{"android":"levelo://app?vid=a48a1d35-3f13-45af-a2ef-e29bf30d3d17","ios":"levelo://app?vid=a48a1d35-3f13-45af-a2ef-e29bf30d3d17"},"vehicle_type_id":"4","last_reported":1737673718,"current_range_meters":9200,"station_id":"ce4bhph2rcd13ifvqheg","pricing_plan_id":"cebpf4jnsgd1na2vs0mg"},{"bike_id":"309b423d-9d42-4aea-a43d-8b122f8fbe5a","system_id":"levelo_inurba_marseille","lat":43.28942,"lon":5.36641,"is_reserved":false,"is_disabled":false,"rental_uris":{"android":"levelo://app?vid=309b423d-9d42-4aea-a43d-8b122f8fbe5a","ios":"levelo://app?vid=309b423d-9d42-4aea-a43d-8b122f8fbe5a"},"vehicle_type_id":"4","last_reported":1737673718,"current_range_meters":37600,"station_id":"ce4bhap2rcd13ifvqek0","pricing_plan_id":"cebpf4jnsgd1na2vs0mg"},{"bike_id":"050bd42b-0fa4-4ea3-8a02-3c1196960ece","system_id":"levelo_inurba_marseille","lat":43.31654,"lon":5.3737,"is_reserved":false,"is_disabled":false,"rental_uris":{"android":"levelo://app?vid=050bd42b-0fa4-4ea3-8a02-3c1196960ece","ios":"levelo://app?vid=050bd42b-0fa4-4ea3-8a02-3c1196960ece"},"vehicle_type_id":"4","last_reported":1737673718,"current_range_meters":25600,"station_id":"","pricing_plan_id":"cebpf4jnsgd1na2vs0mg"},{"bike_id":"4de417ca-a2c4-4c35-8f92-84f19975fa1b","system_id":"levelo_inurba_marseille","lat":43.25717,"lon":5.4111,"is_reserved":false,"is_disabled":false,"rental_uris":{"android":"levelo://app?vid=4de417ca-a2c4-4c35-8f92-84f19975fa1b","ios":"levelo://app?vid=4de417ca-a2c4-4c35-8f92-84f19975fa1b"},"vehicle_type_id":"4","last_reported":1737673718,"current_range_meters":38000,"station_id":"ce4bhkp2rcd13ifvqgd0","pricing_plan_id":"cebpf4jnsgd1na2vs0mg"},{"bike_id":"0ad149d9-6e33-405d-aa3c-5e42e0c0ed7d","system_id":"levelo_inurba_marseille","lat":43.28149,"lon":5.42626,"is_reserved":false,"is_disabled":true,"rental_uris":{"android":"levelo://app?vid=0ad149d9-6e33-405d-aa3c-5e42e0c0ed7d","ios":"levelo://app?vid=0ad149d9-6e33-405d-aa3c-5e42e0c0ed7d"},"vehicle_type_id":"4","last_reported":1737673718,"current_range_meters":800,"station_id":"ce4bhnh2rcd13ifvqgug","pricing_plan_id":"cebpf4jnsgd1na2vs0mg"},{"bike_id":"2f4fa984-4c44-4974-abb6-1d4b539de1f0","system_id":"levelo_inurba_marseille","lat":43.28686,"lon":5.38664,"is_reserved":false,"is_disabled":true,"rental_uris":{"android":"levelo://app?vid=2f4fa984-4c44-4974-abb6-1d4b539de1f0","ios":"levelo://app?vid=2f4fa984-4c44-4974-abb6-1d4b539de1f0"},"vehicle_type_id":"4","last_reported":1737673718,"current_range_meters":34800,"station_id":"ce4bh492rcd13ifvqdug","pricing_plan_id":"cebpf4jnsgd1na2vs0mg"},{"bike_id":"347dd29e-9a9e-4a37-8ddd-6e2050aaff03","system_id":"levelo_inurba_marseille","lat":43.33732,"lon":5.39186,"is_reserved":false,"is_disabled":false,"rental_uris":{"android":"levelo://app?vid=347dd29e-9a9e-4a37-8ddd-6e2050aaff03","ios":"levelo://app?vid=347dd29e-9a9e-4a37-8ddd-6e2050aaff03"},"vehicle_type_id":"4","last_reported":1737673718,"current_range_meters":38800,"station_id":"ce4bhr92rcd13ifvqhsg","pricing_plan_id":"cebpf4jnsgd1na2vs0mg"},{"bike_id":"e171ea3d-34a7-4bed-9418-eb3dcd6fd5da","system_id":"levelo_inurba_marseille","lat":43.30164,"lon":5.38096,"is_reserved":false,"is_disabled":true,"rental_uris":{"android":"levelo://app?vid=e171ea3d-34a7-4bed-9418-eb3dcd6fd5da","ios":"levelo://app?vid=e171ea3d-34a7-4bed-9418-eb3dcd6fd5da"},"vehicle_type_id":"4","last_reported":1737673718,"current_range_meters":0,"station_id":"ce4bgjp2rcd13ifvqbh0","pricing_plan_id":"cebpf4jnsgd1na2vs0mg"},{"bike_id":"69ae49c8-dae4-483c-a6fa-9d4961c23e96","system_id":"levelo_inurba_marseille","lat":43.25827,"lon":5.39423,"is_reserved":false,"is_disabled":false,"rental_uris":{"android":"levelo://app?vid=69ae49c8-dae4-483c-a6fa-9d4961c23e96","ios":"levelo://app?vid=69ae49c8-dae4-483c-a6fa-9d4961c23e96"},"vehicle_type_id":"4","last_reported":1737673718,"current_range_meters":24400,"station_id":"ce4bhip2rcd13ifvqft0","pricing_plan_id":"cebpf4jnsgd1na2vs0mg"},{"bike_id":"33bdb648-9d21-4884-aef8-a671389b4fbb","system_id":"levelo_inurba_marseille","lat":43.29263,"lon":5.36833,"is_reserved":false,"is_disabled":false,"rental_uris":{"android":"levelo://app?vid=33bdb648-9d21-4884-aef8-a671389b4fbb","ios":"levelo://app?vid=33bdb648-9d21-4884-aef8-a671389b4fbb"},"vehicle_type_id":"4","last_reported":1737673718,"current_range_meters":38800,"station_id":"ce4bhbp2rcd13ifvqesg","pricing_plan_id":"cebpf4jnsgd1na2vs0mg"},{"bike_id":"a71d48fb-0e6d-4ab5-aa6d-78375a31d0e8","system_id":"levelo_inurba_marseille","lat":43.28728,"lon":5.36084,"is_reserved":false,"is_disabled":false,"rental_uris":{"android":"levelo://app?vid=a71d48fb-0e6d-4ab5-aa6d-78375a31d0e8","ios":"levelo://app?vid=a71d48fb-0e6d-4ab5-aa6d-78375a31d0e8"},"vehicle_type_id":"4","last_reported":1737673718,"current_range_meters":18800,"station_id":"cki0cbj6b192h4jlfktg","pricing_plan_id":"cebpf4jnsgd1na2vs0mg"},{"bike_id":"0f29d1f4-f2e5-4e89-bd55-62e38b10dc53","system_id":"levelo_inurba_marseille","lat":43.28269,"lon":5.35075,"is_reserved":false,"is_disabled":false,"rental_uris":{"android":"levelo://app?vid=0f29d1f4-f2e5-4e89-bd55-62e38b10dc53","ios":"levelo://app?vid=0f29d1f4-f2e5-4e89-bd55-62e38b10dc53"},"vehicle_type_id":"4","last_reported":1737673718,"current_range_meters":9200,"station_id":"ce4bhbp2rcd13ifvqerg","pricing_plan_id":"cebpf4jnsgd1na2vs0mg"},{"bike_id":"7a3566c1-6a8b-4504-b323-59be69feed6d","system_id":"levelo_inurba_marseille","lat":43.31124,"lon":5.3777,"is_reserved":false,"is_disabled":false,"rental_uris":{"android":"levelo://app?vid=7a3566c1-6a8b-4504-b323-59be69feed6d","ios":"levelo://app?vid=7a3566c1-6a8b-4504-b323-59be69feed6d"},"vehicle_type_id":"4","last_reported":1737673718,"current_range_meters":27600,"station_id":"ce4bgt92rcd13ifvqcg0","pricing_plan_id":"cebpf4jnsgd1na2vs0mg"},{"bike_id":"90b8a1b1-ad54-458d-9362-f5197bbdf048","system_id":"levelo_inurba_marseille","lat":43.22933,"lon":5.35388,"is_reserved":false,"is_disabled":false,"rental_uris":{"android":"levelo://app?vid=90b8a1b1-ad54-458d-9362-f5197bbdf048","ios":"levelo://app?vid=90b8a1b1-ad54-458d-9362-f5197bbdf048"},"vehicle_type_id":"4","last_reported":1737673718,"current_range_meters":38800,"station_id":"cpo3532slgdg3j2ikp40","pricing_plan_id":"cebpf4jnsgd1na2vs0mg"},{"bike_id":"a75f5e55-2434-4577-aea6-4fb68eba1fa4","system_id":"levelo_inurba_marseille","lat":43.2469,"lon":5.38148,"is_reserved":false,"is_disabled":false,"rental_uris":{"android":"levelo://app?vid=a75f5e55-2434-4577-aea6-4fb68eba1fa4","ios":"levelo://app?vid=a75f5e55-2434-4577-aea6-4fb68eba1fa4"},"vehicle_type_id":"4","last_reported":1737673718,"current_range_meters":38400,"station_id":"ce4bhih2rcd13ifvqfr0","pricing_plan_id":"cebpf4jnsgd1na2vs0mg"},{"bike_id":"f8c6f012-709c-4d1f-9969-bb54cb3e2705","system_id":"levelo_inurba_marseille","lat":43.31119,"lon":5.37789,"is_reserved":false,"is_disabled":false,"rental_uris":{"android":"levelo://app?vid=f8c6f012-709c-4d1f-9969-bb54cb3e2705","ios":"levelo://app?vid=f8c6f012-709c-4d1f-9969-bb54cb3e2705"},"vehicle_type_id":"4","last_reported":1737673718,"current_range_meters":33200,"station_id":"ce4bgt92rcd13ifvqcg0","pricing_plan_id":"cebpf4jnsgd1na2vs0mg"},{"bike_id":"42b6bd41-39ad-43e0-8aa0-3ac177fb760e","system_id":"levelo_inurba_marseille","lat":43.29424,"lon":5.39745,"is_reserved":false,"is_disabled":false,"rental_uris":{"android":"levelo://app?vid=42b6bd41-39ad-43e0-8aa0-3ac177fb760e","ios":"levelo://app?vid=42b6bd41-39ad-43e0-8aa0-3ac177fb760e"},"vehicle_type_id":"4","last_reported":1737673718,"current_range_meters":30400,"station_id":"ce4bh3h2rcd13ifvqdo0","pricing_plan_id":"cebpf4jnsgd1na2vs0mg"},{"bike_id":"a929ed86-053f-4de2-9be5-63650dda8f79","system_id":"levelo_inurba_marseille","lat":43.32544,"lon":5.41436,"is_reserved":false,"is_disabled":false,"rental_uris":{"android":"levelo://app?vid=a929ed86-053f-4de2-9be5-63650dda8f79","ios":"levelo://app?vid=a929ed86-053f-4de2-9be5-63650dda8f79"},"vehicle_type_id":"4","last_reported":1737673718,"current_range_meters":36800,"station_id":"ce4bhq12rcd13ifvqhhg","pricing_plan_id":"cebpf4jnsgd1na2vs0mg"},{"bike_id":"62069f6c-3dd9-4b79-9f44-941214b1a57f","system_id":"levelo_inurba_marseille","lat":43.29953,"lon":5.36541,"is_reserved":false,"is_disabled":false,"rental_uris":{"android":"levelo://app?vid=62069f6c-3dd9-4b79-9f44-941214b1a57f","ios":"levelo://app?vid=62069f6c-3dd9-4b79-9f44-941214b1a57f"},"vehicle_type_id":"4","last_reported":1737673718,"current_range_meters":38800,"station_id":"ce4bgm92rcd13ifvqbr0","pricing_plan_id":"cebpf4jnsgd1na2vs0mg"},{"bike_id":"1c521484-0b29-41a9-9bd2-15ebb17b6cb5","system_id":"levelo_inurba_marseille","lat":43.27637,"lon":5.36133,"is_reserved":false,"is_disabled":false,"rental_uris":{"android":"levelo://app?vid=1c521484-0b29-41a9-9bd2-15ebb17b6cb5","ios":"levelo://app?vid=1c521484-0b29-41a9-9bd2-15ebb17b6cb5"},"vehicle_type_id":"4","last_reported":1737673718,"current_range_meters":38800,"station_id":"ce4bgj92rcd13ifvqbe0","pricing_plan_id":"cebpf4jnsgd1na2vs0mg"},{"bike_id":"ce90fea6-ff2a-4d0b-bd4f-45ced0acf4c0","system_id":"levelo_inurba_marseille","lat":43.3239,"lon":5.36722,"is_reserved":false,"is_disabled":false,"rental_uris":{"android":"levelo://app?vid=ce90fea6-ff2a-4d0b-bd4f-45ced0acf4c0","ios":"levelo://app?vid=ce90fea6-ff2a-4d0b-bd4f-45ced0acf4c0"},"vehicle_type_id":"4","last_reported":1737673718,"current_range_meters":9600,"station_id":"ce4bhsh2rcd13ifvqi2g","pricing_plan_id":"cebpf4jnsgd1na2vs0mg"},{"bike_id":"6a138139-3d91-48e3-a712-79103a837cbd","system_id":"levelo_inurba_marseille","lat":43.275745,"lon":5.384215,"is_reserved":false,"is_disabled":false,"rental_uris":{"android":"levelo://app?vid=6a138139-3d91-48e3-a712-79103a837cbd","ios":"levelo://app?vid=6a138139-3d91-48e3-a712-79103a837cbd"},"vehicle_type_id":"4","last_reported":1737673718,"current_range_meters":20400,"station_id":"ce4bhh92rcd13ifvqfi0","pricing_plan_id":"cebpf4jnsgd1na2vs0mg"},{"bike_id":"ab13439f-1c4b-4b83-ac72-9f4e6d1f64cb","system_id":"levelo_inurba_marseille","lat":43.31267,"lon":5.37974,"is_reserved":false,"is_disabled":true,"rental_uris":{"android":"levelo://app?vid=ab13439f-1c4b-4b83-ac72-9f4e6d1f64cb","ios":"levelo://app?vid=ab13439f-1c4b-4b83-ac72-9f4e6d1f64cb"},"vehicle_type_id":"4","last_reported":1737673718,"current_range_meters":8800,"station_id":"","pricing_plan_id":"cebpf4jnsgd1na2vs0mg"},{"bike_id":"02394dc5-85af-47df-a8e1-31c154c9e2cc","system_id":"levelo_inurba_marseille","lat":43.23179,"lon":5.39997,"is_reserved":false,"is_disabled":false,"rental_uris":{"android":"levelo://app?vid=02394dc5-85af-47df-a8e1-31c154c9e2cc","ios":"levelo://app?vid=02394dc5-85af-47df-a8e1-31c154c9e2cc"},"vehicle_type_id":"4","last_reported":1737673718,"current_range_meters":36400,"station_id":"ce4bhn12rcd13ifvqgqg","pricing_plan_id":"cebpf4jnsgd1na2vs0mg"},{"bike_id":"48555a19-9927-46f2-ab55-dddb364d57a8","system_id":"levelo_inurba_marseille","lat":43.28725,"lon":5.36136,"is_reserved":false,"is_disabled":false,"rental_uris":{"android":"levelo://app?vid=48555a19-9927-46f2-ab55-dddb364d57a8","ios":"levelo://app?vid=48555a19-9927-46f2-ab55-dddb364d57a8"},"vehicle_type_id":"4","last_reported":1737673718,"current_range_meters":33600,"station_id":"cki0cbj6b192h4jlfktg","pricing_plan_id":"cebpf4jnsgd1na2vs0mg"},{"bike_id":"f727cadd-b012-439d-9f69-5c90e77b0085","system_id":"levelo_inurba_marseille","lat":43.31778,"lon":5.39019,"is_reserved":false,"is_disabled":false,"rental_uris":{"android":"levelo://app?vid=f727cadd-b012-439d-9f69-5c90e77b0085","ios":"levelo://app?vid=f727cadd-b012-439d-9f69-5c90e77b0085"},"vehicle_type_id":"4","last_reported":1737673718,"current_range_meters":10000,"station_id":"ce4bhqp2rcd13ifvqhng","pricing_plan_id":"cebpf4jnsgd1na2vs0mg"},{"bike_id":"78a7056f-66ba-4cf8-a93c-c355545189bd","system_id":"levelo_inurba_marseille","lat":43.30949,"lon":5.39039,"is_reserved":false,"is_disabled":false,"rental_uris":{"android":"levelo://app?vid=78a7056f-66ba-4cf8-a93c-c355545189bd","ios":"levelo://app?vid=78a7056f-66ba-4cf8-a93c-c355545189bd"},"vehicle_type_id":"4","last_reported":1737673718,"current_range_meters":17200,"station_id":"ce4bgup2rcd13ifvqco0","pricing_plan_id":"cebpf4jnsgd1na2vs0mg"},{"bike_id":"2825fd6c-bf20-4dc1-b613-1bf2bcd1213d","system_id":"levelo_inurba_marseille","lat":43.31377,"lon":5.38495,"is_reserved":false,"is_disabled":false,"rental_uris":{"android":"levelo://app?vid=2825fd6c-bf20-4dc1-b613-1bf2bcd1213d","ios":"levelo://app?vid=2825fd6c-bf20-4dc1-b613-1bf2bcd1213d"},"vehicle_type_id":"4","last_reported":1737673718,"current_range_meters":29600,"station_id":"ce4bgt92rcd13ifvqcf0","pricing_plan_id":"cebpf4jnsgd1na2vs0mg"},{"bike_id":"78b03264-0c2d-45b5-9b0a-cf7cc454c0c6","system_id":"levelo_inurba_marseille","lat":43.32481,"lon":5.36566,"is_reserved":false,"is_disabled":false,"rental_uris":{"android":"levelo://app?vid=78b03264-0c2d-45b5-9b0a-cf7cc454c0c6","ios":"levelo://app?vid=78b03264-0c2d-45b5-9b0a-cf7cc454c0c6"},"vehicle_type_id":"4","last_reported":1737673718,"current_range_meters":3200,"station_id":"ce4bhs12rcd13ifvqhvg","pricing_plan_id":"cebpf4jnsgd1na2vs0mg"},{"bike_id":"852c4b2c-ff0b-4349-b1ad-8f4566913b6c","system_id":"levelo_inurba_marseille","lat":43.29731,"lon":5.37651,"is_reserved":false,"is_disabled":true,"rental_uris":{"android":"levelo://app?vid=852c4b2c-ff0b-4349-b1ad-8f4566913b6c","ios":"levelo://app?vid=852c4b2c-ff0b-4349-b1ad-8f4566913b6c"},"vehicle_type_id":"4","last_reported":1737673718,"current_range_meters":0,"station_id":"ce4bgkh2rcd13ifvqbl0","pricing_plan_id":"cebpf4jnsgd1na2vs0mg"},{"bike_id":"78fdab03-275f-4f4e-89ae-49e9a29fa9c1","system_id":"levelo_inurba_marseille","lat":43.24221,"lon":5.3977,"is_reserved":false,"is_disabled":false,"rental_uris":{"android":"levelo://app?vid=78fdab03-275f-4f4e-89ae-49e9a29fa9c1","ios":"levelo://app?vid=78fdab03-275f-4f4e-89ae-49e9a29fa9c1"},"vehicle_type_id":"4","last_reported":1737673718,"current_range_meters":12800,"station_id":"ce4bhn12rcd13ifvqgpg","pricing_plan_id":"cebpf4jnsgd1na2vs0mg"},{"bike_id":"1e1afe17-2cd3-47e7-be31-b7bd53e50a97","system_id":"levelo_inurba_marseille","lat":43.28714,"lon":5.37931,"is_reserved":false,"is_disabled":false,"rental_uris":{"android":"levelo://app?vid=1e1afe17-2cd3-47e7-be31-b7bd53e50a97","ios":"levelo://app?vid=1e1afe17-2cd3-47e7-be31-b7bd53e50a97"},"vehicle_type_id":"4","last_reported":1737673718,"current_range_meters":38000,"station_id":"ce4bh9p2rcd13ifvqec0","pricing_plan_id":"cebpf4jnsgd1na2vs0mg"},{"bike_id":"a6589423-f81d-43db-8547-4d93d0a4d5b1","system_id":"levelo_inurba_marseille","lat":43.30962,"lon":5.4014,"is_reserved":false,"is_disabled":false,"rental_uris":{"android":"levelo://app?vid=a6589423-f81d-43db-8547-4d93d0a4d5b1","ios":"levelo://app?vid=a6589423-f81d-43db-8547-4d93d0a4d5b1"},"vehicle_type_id":"4","last_reported":1737673718,"current_range_meters":38000,"station_id":"ce4bgvp2rcd13ifvqct0","pricing_plan_id":"cebpf4jnsgd1na2vs0mg"},{"bike_id":"d9116d70-9fe4-4bfa-813f-a05c0ef23908","system_id":"levelo_inurba_marseille","lat":43.28562,"lon":5.39507,"is_reserved":false,"is_disabled":false,"rental_uris":{"android":"levelo://app?vid=d9116d70-9fe4-4bfa-813f-a05c0ef23908","ios":"levelo://app?vid=d9116d70-9fe4-4bfa-813f-a05c0ef23908"},"vehicle_type_id":"4","last_reported":1737673718,"current_range_meters":38800,"station_id":"ce4bh292rcd13ifvqdg0","pricing_plan_id":"cebpf4jnsgd1na2vs0mg"},{"bike_id":"ce8f1cb6-0493-4046-a4eb-2ab4d191046d","system_id":"levelo_inurba_marseille","lat":43.32365,"lon":5.3891,"is_reserved":false,"is_disabled":false,"rental_uris":{"android":"levelo://app?vid=ce8f1cb6-0493-4046-a4eb-2ab4d191046d","ios":"levelo://app?vid=ce8f1cb6-0493-4046-a4eb-2ab4d191046d"},"vehicle_type_id":"4","last_reported":1737673718,"current_range_meters":38400,"station_id":"ce4bhqp2rcd13ifvqhog","pricing_plan_id":"cebpf4jnsgd1na2vs0mg"},{"bike_id":"ee89b6e2-23cc-4264-9831-ca60870e078c","system_id":"levelo_inurba_marseille","lat":43.27991,"lon":5.40035,"is_reserved":false,"is_disabled":false,"rental_uris":{"android":"levelo://app?vid=ee89b6e2-23cc-4264-9831-ca60870e078c","ios":"levelo://app?vid=ee89b6e2-23cc-4264-9831-ca60870e078c"},"vehicle_type_id":"4","last_reported":1737673718,"current_range_meters":38800,"station_id":"ce4bho92rcd13ifvqh4g","pricing_plan_id":"cebpf4jnsgd1na2vs0mg"},{"bike_id":"d90fa84e-7c68-41a7-ad7b-dfeefc6268f3","system_id":"levelo_inurba_marseille","lat":43.30336,"lon":5.39215,"is_reserved":false,"is_disabled":true,"rental_uris":{"android":"levelo://app?vid=d90fa84e-7c68-41a7-ad7b-dfeefc6268f3","ios":"levelo://app?vid=d90fa84e-7c68-41a7-ad7b-dfeefc6268f3"},"vehicle_type_id":"4","last_reported":1737673718,"current_range_meters":0,"station_id":"ce4bgkh2rcd13ifvqbk0","pricing_plan_id":"cebpf4jnsgd1na2vs0mg"},{"bike_id":"91a93a6a-90c2-4b55-8bfa-a5975747e452","system_id":"levelo_inurba_marseille","lat":43.231897,"lon":5.39974,"is_reserved":false,"is_disabled":false,"rental_uris":{"android":"levelo://app?vid=91a93a6a-90c2-4b55-8bfa-a5975747e452","ios":"levelo://app?vid=91a93a6a-90c2-4b55-8bfa-a5975747e452"},"vehicle_type_id":"4","last_reported":1737673718,"current_range_meters":25200,"station_id":"ce4bhn12rcd13ifvqgqg","pricing_plan_id":"cebpf4jnsgd1na2vs0mg"},{"bike_id":"2cb3939e-3858-4226-8ce4-9fed48bdfb03","system_id":"levelo_inurba_marseille","lat":43.31116,"lon":5.37787,"is_reserved":false,"is_disabled":false,"rental_uris":{"android":"levelo://app?vid=2cb3939e-3858-4226-8ce4-9fed48bdfb03","ios":"levelo://app?vid=2cb3939e-3858-4226-8ce4-9fed48bdfb03"},"vehicle_type_id":"4","last_reported":1737673718,"current_range_meters":25200,"station_id":"ce4bgt92rcd13ifvqcg0","pricing_plan_id":"cebpf4jnsgd1na2vs0mg"},{"bike_id":"1cf55402-87c5-435d-85af-2c6c0e9ef152","system_id":"levelo_inurba_marseille","lat":43.32466,"lon":5.36591,"is_reserved":false,"is_disabled":false,"rental_uris":{"android":"levelo://app?vid=1cf55402-87c5-435d-85af-2c6c0e9ef152","ios":"levelo://app?vid=1cf55402-87c5-435d-85af-2c6c0e9ef152"},"vehicle_type_id":"4","last_reported":1737673718,"current_range_meters":38800,"station_id":"ce4bhs12rcd13ifvqhvg","pricing_plan_id":"cebpf4jnsgd1na2vs0mg"},{"bike_id":"85c4b304-0a15-4fc1-b75d-cfc16b5afe60","system_id":"levelo_inurba_marseille","lat":43.22947,"lon":5.35393,"is_reserved":false,"is_disabled":false,"rental_uris":{"android":"levelo://app?vid=85c4b304-0a15-4fc1-b75d-cfc16b5afe60","ios":"levelo://app?vid=85c4b304-0a15-4fc1-b75d-cfc16b5afe60"},"vehicle_type_id":"4","last_reported":1737673718,"current_range_meters":38800,"station_id":"cpo3532slgdg3j2ikp40","pricing_plan_id":"cebpf4jnsgd1na2vs0mg"},{"bike_id":"7dbd870c-35db-4747-93b3-1458b7be2914","system_id":"levelo_inurba_marseille","lat":43.30881,"lon":5.39655,"is_reserved":false,"is_disabled":false,"rental_uris":{"android":"levelo://app?vid=7dbd870c-35db-4747-93b3-1458b7be2914","ios":"levelo://app?vid=7dbd870c-35db-4747-93b3-1458b7be2914"},"vehicle_type_id":"4","last_reported":1737673718,"current_range_meters":14400,"station_id":"ce4bh012rcd13ifvqcv0","pricing_plan_id":"cebpf4jnsgd1na2vs0mg"},{"bike_id":"f7f20ea8-ac89-40b3-bd17-c73f31722701","system_id":"levelo_inurba_marseille","lat":43.29895,"lon":5.43657,"is_reserved":false,"is_disabled":false,"rental_uris":{"android":"levelo://app?vid=f7f20ea8-ac89-40b3-bd17-c73f31722701","ios":"levelo://app?vid=f7f20ea8-ac89-40b3-bd17-c73f31722701"},"vehicle_type_id":"4","last_reported":1737673718,"current_range_meters":38800,"station_id":"ce4bhpp2rcd13ifvqhfg","pricing_plan_id":"cebpf4jnsgd1na2vs0mg"},{"bike_id":"0e553e26-2ebb-4e33-ac27-ae31df0f1b3c","system_id":"levelo_inurba_marseille","lat":43.29791,"lon":5.39362,"is_reserved":false,"is_disabled":false,"rental_uris":{"android":"levelo://app?vid=0e553e26-2ebb-4e33-ac27-ae31df0f1b3c","ios":"levelo://app?vid=0e553e26-2ebb-4e33-ac27-ae31df0f1b3c"},"vehicle_type_id":"4","last_reported":1737673718,"current_range_meters":39200,"station_id":"chh1huq6cuj3fo74tm60","pricing_plan_id":"cebpf4jnsgd1na2vs0mg"},{"bike_id":"c8441dd0-957c-452a-b2dd-91f0aa7ea639","system_id":"levelo_inurba_marseille","lat":43.3106,"lon":5.38365,"is_reserved":false,"is_disabled":false,"rental_uris":{"android":"levelo://app?vid=c8441dd0-957c-452a-b2dd-91f0aa7ea639","ios":"levelo://app?vid=c8441dd0-957c-452a-b2dd-91f0aa7ea639"},"vehicle_type_id":"4","last_reported":1737673718,"current_range_meters":9200,"station_id":"ce4bgv92rcd13ifvqcr0","pricing_plan_id":"cebpf4jnsgd1na2vs0mg"},{"bike_id":"57ce499e-d4f7-4b47-be4a-ba8113d200a0","system_id":"levelo_inurba_marseille","lat":43.27995,"lon":5.41616,"is_reserved":false,"is_disabled":false,"rental_uris":{"android":"levelo://app?vid=57ce499e-d4f7-4b47-be4a-ba8113d200a0","ios":"levelo://app?vid=57ce499e-d4f7-4b47-be4a-ba8113d200a0"},"vehicle_type_id":"4","last_reported":1737673718,"current_range_meters":37600,"station_id":"ce4bho12rcd13ifvqh1g","pricing_plan_id":"cebpf4jnsgd1na2vs0mg"},{"bike_id":"599afb41-b8cd-484a-8674-cf40b4cd7f0e","system_id":"levelo_inurba_marseille","lat":43.28,"lon":5.40053,"is_reserved":false,"is_disabled":false,"rental_uris":{"android":"levelo://app?vid=599afb41-b8cd-484a-8674-cf40b4cd7f0e","ios":"levelo://app?vid=599afb41-b8cd-484a-8674-cf40b4cd7f0e"},"vehicle_type_id":"4","last_reported":1737673718,"current_range_meters":39200,"station_id":"ce4bho92rcd13ifvqh4g","pricing_plan_id":"cebpf4jnsgd1na2vs0mg"},{"bike_id":"2a9b189e-7a98-44c5-a378-7702209d6cd8","system_id":"levelo_inurba_marseille","lat":43.25727,"lon":5.41118,"is_reserved":false,"is_disabled":false,"rental_uris":{"android":"levelo://app?vid=2a9b189e-7a98-44c5-a378-7702209d6cd8","ios":"levelo://app?vid=2a9b189e-7a98-44c5-a378-7702209d6cd8"},"vehicle_type_id":"4","last_reported":1737673718,"current_range_meters":38800,"station_id":"ce4bhkp2rcd13ifvqgd0","pricing_plan_id":"cebpf4jnsgd1na2vs0mg"},{"bike_id":"b85a6b72-aac2-4a2b-98d9-b6bbd2bc9c99","system_id":"levelo_inurba_marseille","lat":43.30447,"lon":5.39755,"is_reserved":false,"is_disabled":false,"rental_uris":{"android":"levelo://app?vid=b85a6b72-aac2-4a2b-98d9-b6bbd2bc9c99","ios":"levelo://app?vid=b85a6b72-aac2-4a2b-98d9-b6bbd2bc9c99"},"vehicle_type_id":"4","last_reported":1737673718,"current_range_meters":16800,"station_id":"ce4bh092rcd13ifvqd20","pricing_plan_id":"cebpf4jnsgd1na2vs0mg"},{"bike_id":"5313c709-9144-4842-8043-5a78449adbeb","system_id":"levelo_inurba_marseille","lat":43.3024,"lon":5.39462,"is_reserved":false,"is_disabled":false,"rental_uris":{"android":"levelo://app?vid=5313c709-9144-4842-8043-5a78449adbeb","ios":"levelo://app?vid=5313c709-9144-4842-8043-5a78449adbeb"},"vehicle_type_id":"4","last_reported":1737673718,"current_range_meters":39200,"station_id":"ce4bh0p2rcd13ifvqd70","pricing_plan_id":"cebpf4jnsgd1na2vs0mg"},{"bike_id":"7a55f28a-5a5b-4ca4-9825-dee123c17d08","system_id":"levelo_inurba_marseille","lat":43.32127,"lon":5.36785,"is_reserved":false,"is_disabled":false,"rental_uris":{"android":"levelo://app?vid=7a55f28a-5a5b-4ca4-9825-dee123c17d08","ios":"levelo://app?vid=7a55f28a-5a5b-4ca4-9825-dee123c17d08"},"vehicle_type_id":"4","last_reported":1737673718,"current_range_meters":38400,"station_id":"ce4bhrh2rcd13ifvqhug","pricing_plan_id":"cebpf4jnsgd1na2vs0mg"},{"bike_id":"89a10f52-54c0-4dd3-bbe4-12fe195fccb6","system_id":"levelo_inurba_marseille","lat":43.23958,"lon":5.36648,"is_reserved":false,"is_disabled":false,"rental_uris":{"android":"levelo://app?vid=89a10f52-54c0-4dd3-bbe4-12fe195fccb6","ios":"levelo://app?vid=89a10f52-54c0-4dd3-bbe4-12fe195fccb6"},"vehicle_type_id":"4","last_reported":1737673718,"current_range_meters":16400,"station_id":"ce4bhi12rcd13ifvqfp0","pricing_plan_id":"cebpf4jnsgd1na2vs0mg"},{"bike_id":"95eb5782-f129-4048-839b-b75fb484b557","system_id":"levelo_inurba_marseille","lat":43.25108,"lon":5.40336,"is_reserved":false,"is_disabled":false,"rental_uris":{"android":"levelo://app?vid=95eb5782-f129-4048-839b-b75fb484b557","ios":"levelo://app?vid=95eb5782-f129-4048-839b-b75fb484b557"},"vehicle_type_id":"4","last_reported":1737673718,"current_range_meters":36000,"station_id":"ce4bhlh2rcd13ifvqgig","pricing_plan_id":"cebpf4jnsgd1na2vs0mg"},{"bike_id":"a6889195-fae0-432b-8461-f68180197b6f","system_id":"levelo_inurba_marseille","lat":43.288525,"lon":5.393248,"is_reserved":false,"is_disabled":false,"rental_uris":{"android":"levelo://app?vid=a6889195-fae0-432b-8461-f68180197b6f","ios":"levelo://app?vid=a6889195-fae0-432b-8461-f68180197b6f"},"vehicle_type_id":"4","last_reported":1737673718,"current_range_meters":38400,"station_id":"ce4bh2p2rcd13ifvqdi0","pricing_plan_id":"cebpf4jnsgd1na2vs0mg"},{"bike_id":"553fb1e9-2cc4-4af4-b989-6ce7ea1c8a84","system_id":"levelo_inurba_marseille","lat":43.284597,"lon":5.358933,"is_reserved":false,"is_disabled":false,"rental_uris":{"android":"levelo://app?vid=553fb1e9-2cc4-4af4-b989-6ce7ea1c8a84","ios":"levelo://app?vid=553fb1e9-2cc4-4af4-b989-6ce7ea1c8a84"},"vehicle_type_id":"4","last_reported":1737673718,"current_range_meters":38800,"station_id":"ce4bhah2rcd13ifvqei0","pricing_plan_id":"cebpf4jnsgd1na2vs0mg"},{"bike_id":"7ae57d4a-987c-4a94-bf67-7089b41c8d83","system_id":"levelo_inurba_marseille","lat":43.27626,"lon":5.36145,"is_reserved":false,"is_disabled":false,"rental_uris":{"android":"levelo://app?vid=7ae57d4a-987c-4a94-bf67-7089b41c8d83","ios":"levelo://app?vid=7ae57d4a-987c-4a94-bf67-7089b41c8d83"},"vehicle_type_id":"4","last_reported":1737673718,"current_range_meters":38800,"station_id":"ce4bgj92rcd13ifvqbe0","pricing_plan_id":"cebpf4jnsgd1na2vs0mg"},{"bike_id":"30179832-5a65-44ae-a5a5-1af37f487ed1","system_id":"levelo_inurba_marseille","lat":43.3152,"lon":5.37304,"is_reserved":false,"is_disabled":false,"rental_uris":{"android":"levelo://app?vid=30179832-5a65-44ae-a5a5-1af37f487ed1","ios":"levelo://app?vid=30179832-5a65-44ae-a5a5-1af37f487ed1"},"vehicle_type_id":"4","last_reported":1737673718,"current_range_meters":38800,"station_id":"ce4bgt12rcd13ifvqcd0","pricing_plan_id":"cebpf4jnsgd1na2vs0mg"},{"bike_id":"acc9e968-42f2-443f-bb58-cd32856c66f2","system_id":"levelo_inurba_marseille","lat":43.28416,"lon":5.37532,"is_reserved":false,"is_disabled":false,"rental_uris":{"android":"levelo://app?vid=acc9e968-42f2-443f-bb58-cd32856c66f2","ios":"levelo://app?vid=acc9e968-42f2-443f-bb58-cd32856c66f2"},"vehicle_type_id":"4","last_reported":1737673718,"current_range_meters":27600,"station_id":"ce4bh412rcd13ifvqds0","pricing_plan_id":"cebpf4jnsgd1na2vs0mg"},{"bike_id":"f1b19ba9-1aee-4f83-a0b6-487206541ea1","system_id":"levelo_inurba_marseille","lat":43.30946,"lon":5.39038,"is_reserved":false,"is_disabled":false,"rental_uris":{"android":"levelo://app?vid=f1b19ba9-1aee-4f83-a0b6-487206541ea1","ios":"levelo://app?vid=f1b19ba9-1aee-4f83-a0b6-487206541ea1"},"vehicle_type_id":"4","last_reported":1737673718,"current_range_meters":38800,"station_id":"ce4bgup2rcd13ifvqco0","pricing_plan_id":"cebpf4jnsgd1na2vs0mg"},{"bike_id":"df8b68b0-a61c-401e-bc1c-616ed6cec7e0","system_id":"levelo_inurba_marseille","lat":43.26947,"lon":5.38626,"is_reserved":false,"is_disabled":true,"rental_uris":{"android":"levelo://app?vid=df8b68b0-a61c-401e-bc1c-616ed6cec7e0","ios":"levelo://app?vid=df8b68b0-a61c-401e-bc1c-616ed6cec7e0"},"vehicle_type_id":"4","last_reported":1737673718,"current_range_meters":38800,"station_id":"ce4bhh92rcd13ifvqfh0","pricing_plan_id":"cebpf4jnsgd1na2vs0mg"},{"bike_id":"35614ed7-a0df-4792-bca2-a1978fcd9fab","system_id":"levelo_inurba_marseille","lat":43.30793,"lon":5.43532,"is_reserved":false,"is_disabled":false,"rental_uris":{"android":"levelo://app?vid=35614ed7-a0df-4792-bca2-a1978fcd9fab","ios":"levelo://app?vid=35614ed7-a0df-4792-bca2-a1978fcd9fab"},"vehicle_type_id":"4","last_reported":1737673718,"current_range_meters":38800,"station_id":"ce4bhph2rcd13ifvqheg","pricing_plan_id":"cebpf4jnsgd1na2vs0mg"},{"bike_id":"59330309-df9a-48c4-9235-796da7a2782d","system_id":"levelo_inurba_marseille","lat":43.30817,"lon":5.43516,"is_reserved":false,"is_disabled":false,"rental_uris":{"android":"levelo://app?vid=59330309-df9a-48c4-9235-796da7a2782d","ios":"levelo://app?vid=59330309-df9a-48c4-9235-796da7a2782d"},"vehicle_type_id":"4","last_reported":1737673718,"current_range_meters":38800,"station_id":"ce4bhph2rcd13ifvqheg","pricing_plan_id":"cebpf4jnsgd1na2vs0mg"},{"bike_id":"990d1058-776b-4b2d-8bec-7e949b9a7cbb","system_id":"levelo_inurba_marseille","lat":43.30682,"lon":5.40093,"is_reserved":false,"is_disabled":false,"rental_uris":{"android":"levelo://app?vid=990d1058-776b-4b2d-8bec-7e949b9a7cbb","ios":"levelo://app?vid=990d1058-776b-4b2d-8bec-7e949b9a7cbb"},"vehicle_type_id":"4","last_reported":1737673718,"current_range_meters":8000,"station_id":"ce4bh112rcd13ifvqda0","pricing_plan_id":"cebpf4jnsgd1na2vs0mg"},{"bike_id":"8661b5e3-5c50-41b5-9990-f6cea7332865","system_id":"levelo_inurba_marseille","lat":43.29182,"lon":5.358,"is_reserved":false,"is_disabled":false,"rental_uris":{"android":"levelo://app?vid=8661b5e3-5c50-41b5-9990-f6cea7332865","ios":"levelo://app?vid=8661b5e3-5c50-41b5-9990-f6cea7332865"},"vehicle_type_id":"4","last_reported":1737673718,"current_range_meters":38400,"station_id":"ce4bhb12rcd13ifvqel0","pricing_plan_id":"cebpf4jnsgd1na2vs0mg"},{"bike_id":"2aac9c14-b263-466b-9815-8bb257965f42","system_id":"levelo_inurba_marseille","lat":43.30889,"lon":5.37196,"is_reserved":false,"is_disabled":false,"rental_uris":{"android":"levelo://app?vid=2aac9c14-b263-466b-9815-8bb257965f42","ios":"levelo://app?vid=2aac9c14-b263-466b-9815-8bb257965f42"},"vehicle_type_id":"4","last_reported":1737673718,"current_range_meters":30400,"station_id":"ce4bguh2rcd13ifvqckg","pricing_plan_id":"cebpf4jnsgd1na2vs0mg"},{"bike_id":"5e0169dd-cfb6-4345-b9e5-59ab64e75e4d","system_id":"levelo_inurba_marseille","lat":43.32293,"lon":5.38247,"is_reserved":false,"is_disabled":false,"rental_uris":{"android":"levelo://app?vid=5e0169dd-cfb6-4345-b9e5-59ab64e75e4d","ios":"levelo://app?vid=5e0169dd-cfb6-4345-b9e5-59ab64e75e4d"},"vehicle_type_id":"4","last_reported":1737673718,"current_range_meters":38800,"station_id":"ce4bhr12rcd13ifvqhqg","pricing_plan_id":"cebpf4jnsgd1na2vs0mg"},{"bike_id":"bf49bae2-9c26-4641-9558-b17e1f3df312","system_id":"levelo_inurba_marseille","lat":43.23189,"lon":5.3998,"is_reserved":false,"is_disabled":false,"rental_uris":{"android":"levelo://app?vid=bf49bae2-9c26-4641-9558-b17e1f3df312","ios":"levelo://app?vid=bf49bae2-9c26-4641-9558-b17e1f3df312"},"vehicle_type_id":"4","last_reported":1737673718,"current_range_meters":38800,"station_id":"ce4bhn12rcd13ifvqgqg","pricing_plan_id":"cebpf4jnsgd1na2vs0mg"},{"bike_id":"96bd9e64-ec79-445f-af92-f8aeeeeb8575","system_id":"levelo_inurba_marseille","lat":43.28427,"lon":5.37545,"is_reserved":false,"is_disabled":false,"rental_uris":{"android":"levelo://app?vid=96bd9e64-ec79-445f-af92-f8aeeeeb8575","ios":"levelo://app?vid=96bd9e64-ec79-445f-af92-f8aeeeeb8575"},"vehicle_type_id":"4","last_reported":1737673718,"current_range_meters":9200,"station_id":"ce4bh412rcd13ifvqds0","pricing_plan_id":"cebpf4jnsgd1na2vs0mg"},{"bike_id":"48cba4dc-b9e7-46eb-8c75-2173ea699cdd","system_id":"levelo_inurba_marseille","lat":43.2856,"lon":5.39504,"is_reserved":false,"is_disabled":false,"rental_uris":{"android":"levelo://app?vid=48cba4dc-b9e7-46eb-8c75-2173ea699cdd","ios":"levelo://app?vid=48cba4dc-b9e7-46eb-8c75-2173ea699cdd"},"vehicle_type_id":"4","last_reported":1737673718,"current_range_meters":8800,"station_id":"ce4bh292rcd13ifvqdg0","pricing_plan_id":"cebpf4jnsgd1na2vs0mg"},{"bike_id":"5d6541b6-e1d6-4ea5-ae79-89252b517ba2","system_id":"levelo_inurba_marseille","lat":43.29268,"lon":5.40117,"is_reserved":false,"is_disabled":false,"rental_uris":{"android":"levelo://app?vid=5d6541b6-e1d6-4ea5-ae79-89252b517ba2","ios":"levelo://app?vid=5d6541b6-e1d6-4ea5-ae79-89252b517ba2"},"vehicle_type_id":"4","last_reported":1737673718,"current_range_meters":36000,"station_id":"ce4bh312rcd13ifvqdk0","pricing_plan_id":"cebpf4jnsgd1na2vs0mg"},{"bike_id":"eb3ca7ae-a1ea-4fc7-908d-1a734718f0d6","system_id":"levelo_inurba_marseille","lat":43.284161,"lon":5.37516,"is_reserved":false,"is_disabled":false,"rental_uris":{"android":"levelo://app?vid=eb3ca7ae-a1ea-4fc7-908d-1a734718f0d6","ios":"levelo://app?vid=eb3ca7ae-a1ea-4fc7-908d-1a734718f0d6"},"vehicle_type_id":"4","last_reported":1737673718,"current_range_meters":9600,"station_id":"ce4bh412rcd13ifvqds0","pricing_plan_id":"cebpf4jnsgd1na2vs0mg"},{"bike_id":"0835fdee-96cd-4bac-a68b-50000a930abe","system_id":"levelo_inurba_marseille","lat":43.29864,"lon":5.36288,"is_reserved":false,"is_disabled":false,"rental_uris":{"android":"levelo://app?vid=0835fdee-96cd-4bac-a68b-50000a930abe","ios":"levelo://app?vid=0835fdee-96cd-4bac-a68b-50000a930abe"},"vehicle_type_id":"4","last_reported":1737673718,"current_range_meters":38400,"station_id":"ce4bgpp2rcd13ifvqc3g","pricing_plan_id":"cebpf4jnsgd1na2vs0mg"},{"bike_id":"61e72528-5de1-4c6b-b1a4-02485f947e82","system_id":"levelo_inurba_marseille","lat":43.30895,"lon":5.39675,"is_reserved":false,"is_disabled":false,"rental_uris":{"android":"levelo://app?vid=61e72528-5de1-4c6b-b1a4-02485f947e82","ios":"levelo://app?vid=61e72528-5de1-4c6b-b1a4-02485f947e82"},"vehicle_type_id":"4","last_reported":1737673718,"current_range_meters":37600,"station_id":"ce4bh012rcd13ifvqcv0","pricing_plan_id":"cebpf4jnsgd1na2vs0mg"},{"bike_id":"730a19d7-8638-4500-9d66-b33219f24537","system_id":"levelo_inurba_marseille","lat":43.30799,"lon":5.43534,"is_reserved":false,"is_disabled":false,"rental_uris":{"android":"levelo://app?vid=730a19d7-8638-4500-9d66-b33219f24537","ios":"levelo://app?vid=730a19d7-8638-4500-9d66-b33219f24537"},"vehicle_type_id":"4","last_reported":1737673718,"current_range_meters":24400,"station_id":"ce4bhph2rcd13ifvqheg","pricing_plan_id":"cebpf4jnsgd1na2vs0mg"},{"bike_id":"e180b0db-f4ca-4317-9649-e916b5fa28cc","system_id":"levelo_inurba_marseille","lat":43.29033,"lon":5.35925,"is_reserved":false,"is_disabled":false,"rental_uris":{"android":"levelo://app?vid=e180b0db-f4ca-4317-9649-e916b5fa28cc","ios":"levelo://app?vid=e180b0db-f4ca-4317-9649-e916b5fa28cc"},"vehicle_type_id":"4","last_reported":1737673718,"current_range_meters":28000,"station_id":"ce4bha92rcd13ifvqeg0","pricing_plan_id":"cebpf4jnsgd1na2vs0mg"},{"bike_id":"f2a423d2-541a-4d27-98b1-bbdc8f11174c","system_id":"levelo_inurba_marseille","lat":43.30603,"lon":5.3935,"is_reserved":false,"is_disabled":false,"rental_uris":{"android":"levelo://app?vid=f2a423d2-541a-4d27-98b1-bbdc8f11174c","ios":"levelo://app?vid=f2a423d2-541a-4d27-98b1-bbdc8f11174c"},"vehicle_type_id":"4","last_reported":1737673718,"current_range_meters":38000,"station_id":"ce4bh0p2rcd13ifvqd80","pricing_plan_id":"cebpf4jnsgd1na2vs0mg"},{"bike_id":"90562b19-8802-4e76-a682-f90dad6ec469","system_id":"levelo_inurba_marseille","lat":43.29552,"lon":5.3856,"is_reserved":false,"is_disabled":true,"rental_uris":{"android":"levelo://app?vid=90562b19-8802-4e76-a682-f90dad6ec469","ios":"levelo://app?vid=90562b19-8802-4e76-a682-f90dad6ec469"},"vehicle_type_id":"4","last_reported":1737673718,"current_range_meters":0,"station_id":"ce4bgih2rcd13ifvqba0","pricing_plan_id":"cebpf4jnsgd1na2vs0mg"},{"bike_id":"9863b7f9-4316-4322-9f6c-3cc66b0448e2","system_id":"levelo_inurba_marseille","lat":43.279439,"lon":5.389008,"is_reserved":false,"is_disabled":true,"rental_uris":{"android":"levelo://app?vid=9863b7f9-4316-4322-9f6c-3cc66b0448e2","ios":"levelo://app?vid=9863b7f9-4316-4322-9f6c-3cc66b0448e2"},"vehicle_type_id":"4","last_reported":1737673718,"current_range_meters":22800,"station_id":"","pricing_plan_id":"cebpf4jnsgd1na2vs0mg"},{"bike_id":"4f941221-8603-4861-be77-745234c6becc","system_id":"levelo_inurba_marseille","lat":43.23189,"lon":5.39987,"is_reserved":false,"is_disabled":false,"rental_uris":{"android":"levelo://app?vid=4f941221-8603-4861-be77-745234c6becc","ios":"levelo://app?vid=4f941221-8603-4861-be77-745234c6becc"},"vehicle_type_id":"4","last_reported":1737673718,"current_range_meters":27600,"station_id":"ce4bhn12rcd13ifvqgqg","pricing_plan_id":"cebpf4jnsgd1na2vs0mg"},{"bike_id":"ab927040-bfc3-4782-b1b3-ffbf9d71bc34","system_id":"levelo_inurba_marseille","lat":43.26691,"lon":5.38275,"is_reserved":false,"is_disabled":true,"rental_uris":{"android":"levelo://app?vid=ab927040-bfc3-4782-b1b3-ffbf9d71bc34","ios":"levelo://app?vid=ab927040-bfc3-4782-b1b3-ffbf9d71bc34"},"vehicle_type_id":"4","last_reported":1737673718,"current_range_meters":38800,"station_id":"ce4bhg92rcd13ifvqf90","pricing_plan_id":"cebpf4jnsgd1na2vs0mg"},{"bike_id":"4b2e5d0d-85a8-4331-8ba7-b3ba8a3e8183","system_id":"levelo_inurba_marseille","lat":43.30886,"lon":5.39662,"is_reserved":false,"is_disabled":false,"rental_uris":{"android":"levelo://app?vid=4b2e5d0d-85a8-4331-8ba7-b3ba8a3e8183","ios":"levelo://app?vid=4b2e5d0d-85a8-4331-8ba7-b3ba8a3e8183"},"vehicle_type_id":"4","last_reported":1737673718,"current_range_meters":24800,"station_id":"ce4bh012rcd13ifvqcv0","pricing_plan_id":"cebpf4jnsgd1na2vs0mg"},{"bike_id":"4f5324e4-4921-49ab-8713-0ebe7437aba1","system_id":"levelo_inurba_marseille","lat":43.28682,"lon":5.37413,"is_reserved":false,"is_disabled":false,"rental_uris":{"android":"levelo://app?vid=4f5324e4-4921-49ab-8713-0ebe7437aba1","ios":"levelo://app?vid=4f5324e4-4921-49ab-8713-0ebe7437aba1"},"vehicle_type_id":"4","last_reported":1737673718,"current_range_meters":9600,"station_id":"ce4bh3p2rcd13ifvqdq0","pricing_plan_id":"cebpf4jnsgd1na2vs0mg"},{"bike_id":"e11d5e25-e272-47e7-bd8a-065bf108edeb","system_id":"levelo_inurba_marseille","lat":43.29263,"lon":5.38424,"is_reserved":false,"is_disabled":true,"rental_uris":{"android":"levelo://app?vid=e11d5e25-e272-47e7-bd8a-065bf108edeb","ios":"levelo://app?vid=e11d5e25-e272-47e7-bd8a-065bf108edeb"},"vehicle_type_id":"4","last_reported":1737673718,"current_range_meters":16800,"station_id":"ce4bh692rcd13ifvqea0","pricing_plan_id":"cebpf4jnsgd1na2vs0mg"},{"bike_id":"e3da0c61-152e-4b90-a420-82400cdfe415","system_id":"levelo_inurba_marseille","lat":43.2892,"lon":5.35888,"is_reserved":false,"is_disabled":false,"rental_uris":{"android":"levelo://app?vid=e3da0c61-152e-4b90-a420-82400cdfe415","ios":"levelo://app?vid=e3da0c61-152e-4b90-a420-82400cdfe415"},"vehicle_type_id":"4","last_reported":1737673718,"current_range_meters":24400,"station_id":"ce4bhb12rcd13ifvqem0","pricing_plan_id":"cebpf4jnsgd1na2vs0mg"},{"bike_id":"4f5f5256-4484-429c-92dc-c790881aa830","system_id":"levelo_inurba_marseille","lat":43.250863,"lon":5.395147,"is_reserved":false,"is_disabled":false,"rental_uris":{"android":"levelo://app?vid=4f5f5256-4484-429c-92dc-c790881aa830","ios":"levelo://app?vid=4f5f5256-4484-429c-92dc-c790881aa830"},"vehicle_type_id":"4","last_reported":1737673718,"current_range_meters":8000,"station_id":"ce4bhm12rcd13ifvqgkg","pricing_plan_id":"cebpf4jnsgd1na2vs0mg"},{"bike_id":"e81a3384-ee44-4d8a-8034-16f42f490d5a","system_id":"levelo_inurba_marseille","lat":43.311183,"lon":5.37768,"is_reserved":false,"is_disabled":false,"rental_uris":{"android":"levelo://app?vid=e81a3384-ee44-4d8a-8034-16f42f490d5a","ios":"levelo://app?vid=e81a3384-ee44-4d8a-8034-16f42f490d5a"},"vehicle_type_id":"4","last_reported":1737673718,"current_range_meters":8000,"station_id":"ce4bgt92rcd13ifvqcg0","pricing_plan_id":"cebpf4jnsgd1na2vs0mg"},{"bike_id":"4dd035c2-8bfe-47d6-9f60-337813e84467","system_id":"levelo_inurba_marseille","lat":43.31106,"lon":5.3838,"is_reserved":false,"is_disabled":false,"rental_uris":{"android":"levelo://app?vid=4dd035c2-8bfe-47d6-9f60-337813e84467","ios":"levelo://app?vid=4dd035c2-8bfe-47d6-9f60-337813e84467"},"vehicle_type_id":"4","last_reported":1737673718,"current_range_meters":32800,"station_id":"ce4bgv92rcd13ifvqcr0","pricing_plan_id":"cebpf4jnsgd1na2vs0mg"},{"bike_id":"89755512-a191-4337-a2e9-b7f75b594ae4","system_id":"levelo_inurba_marseille","lat":43.29823,"lon":5.39355,"is_reserved":false,"is_disabled":false,"rental_uris":{"android":"levelo://app?vid=89755512-a191-4337-a2e9-b7f75b594ae4","ios":"levelo://app?vid=89755512-a191-4337-a2e9-b7f75b594ae4"},"vehicle_type_id":"4","last_reported":1737673718,"current_range_meters":38800,"station_id":"chh1huq6cuj3fo74tm60","pricing_plan_id":"cebpf4jnsgd1na2vs0mg"},{"bike_id":"3c2e08d8-61dc-48d1-a5b2-8e18420ecf7c","system_id":"levelo_inurba_marseille","lat":43.303,"lon":5.37689,"is_reserved":false,"is_disabled":true,"rental_uris":{"android":"levelo://app?vid=3c2e08d8-61dc-48d1-a5b2-8e18420ecf7c","ios":"levelo://app?vid=3c2e08d8-61dc-48d1-a5b2-8e18420ecf7c"},"vehicle_type_id":"4","last_reported":1737673718,"current_range_meters":0,"station_id":"ce4bguh2rcd13ifvqcj0","pricing_plan_id":"cebpf4jnsgd1na2vs0mg"},{"bike_id":"de0b815b-0972-42a1-b5c0-b465f84342ac","system_id":"levelo_inurba_marseille","lat":43.23961,"lon":5.36643,"is_reserved":false,"is_disabled":false,"rental_uris":{"android":"levelo://app?vid=de0b815b-0972-42a1-b5c0-b465f84342ac","ios":"levelo://app?vid=de0b815b-0972-42a1-b5c0-b465f84342ac"},"vehicle_type_id":"4","last_reported":1737673718,"current_range_meters":27600,"station_id":"ce4bhi12rcd13ifvqfp0","pricing_plan_id":"cebpf4jnsgd1na2vs0mg"},{"bike_id":"88c68bd3-ae6d-44f9-8c55-92579b0843ad","system_id":"levelo_inurba_marseille","lat":43.32022,"lon":5.38188,"is_reserved":false,"is_disabled":false,"rental_uris":{"android":"levelo://app?vid=88c68bd3-ae6d-44f9-8c55-92579b0843ad","ios":"levelo://app?vid=88c68bd3-ae6d-44f9-8c55-92579b0843ad"},"vehicle_type_id":"4","last_reported":1737673718,"current_range_meters":38800,"station_id":"ce4bhr12rcd13ifvqhpg","pricing_plan_id":"cebpf4jnsgd1na2vs0mg"},{"bike_id":"4f55d06d-86a5-4457-9f9b-0d66dd972c6a","system_id":"levelo_inurba_marseille","lat":43.25001,"lon":5.38907,"is_reserved":false,"is_disabled":false,"rental_uris":{"android":"levelo://app?vid=4f55d06d-86a5-4457-9f9b-0d66dd972c6a","ios":"levelo://app?vid=4f55d06d-86a5-4457-9f9b-0d66dd972c6a"},"vehicle_type_id":"4","last_reported":1737673718,"current_range_meters":25600,"station_id":"ce4bhgp2rcd13ifvqfd0","pricing_plan_id":"cebpf4jnsgd1na2vs0mg"},{"bike_id":"7f1953fa-e75d-4180-817f-fad6975a8888","system_id":"levelo_inurba_marseille","lat":43.28459,"lon":5.35877,"is_reserved":false,"is_disabled":false,"rental_uris":{"android":"levelo://app?vid=7f1953fa-e75d-4180-817f-fad6975a8888","ios":"levelo://app?vid=7f1953fa-e75d-4180-817f-fad6975a8888"},"vehicle_type_id":"4","last_reported":1737673718,"current_range_meters":24400,"station_id":"ce4bhah2rcd13ifvqei0","pricing_plan_id":"cebpf4jnsgd1na2vs0mg"},{"bike_id":"b1ad8785-7662-4e91-8fb4-75c4cccca7cd","system_id":"levelo_inurba_marseille","lat":43.30733,"lon":5.37632,"is_reserved":false,"is_disabled":false,"rental_uris":{"android":"levelo://app?vid=b1ad8785-7662-4e91-8fb4-75c4cccca7cd","ios":"levelo://app?vid=b1ad8785-7662-4e91-8fb4-75c4cccca7cd"},"vehicle_type_id":"4","last_reported":1737673718,"current_range_meters":36800,"station_id":"ce4bgv92rcd13ifvqcq0","pricing_plan_id":"cebpf4jnsgd1na2vs0mg"},{"bike_id":"53b4d0d2-1b7e-46d0-a241-fdc99cdf5a94","system_id":"levelo_inurba_marseille","lat":43.29309,"lon":5.40926,"is_reserved":false,"is_disabled":false,"rental_uris":{"android":"levelo://app?vid=53b4d0d2-1b7e-46d0-a241-fdc99cdf5a94","ios":"levelo://app?vid=53b4d0d2-1b7e-46d0-a241-fdc99cdf5a94"},"vehicle_type_id":"4","last_reported":1737673718,"current_range_meters":11600,"station_id":"","pricing_plan_id":"cebpf4jnsgd1na2vs0mg"},{"bike_id":"e8e3328c-c400-4d7f-abab-6dd462c7dcf5","system_id":"levelo_inurba_marseille","lat":43.29526,"lon":5.39052,"is_reserved":false,"is_disabled":false,"rental_uris":{"android":"levelo://app?vid=e8e3328c-c400-4d7f-abab-6dd462c7dcf5","ios":"levelo://app?vid=e8e3328c-c400-4d7f-abab-6dd462c7dcf5"},"vehicle_type_id":"4","last_reported":1737673718,"current_range_meters":38800,"station_id":"ce4bh3p2rcd13ifvqdp0","pricing_plan_id":"cebpf4jnsgd1na2vs0mg"},{"bike_id":"be48aa8d-21b2-4ab9-89b3-9ea8a82b40a8","system_id":"levelo_inurba_marseille","lat":43.27934,"lon":5.41052,"is_reserved":false,"is_disabled":false,"rental_uris":{"android":"levelo://app?vid=be48aa8d-21b2-4ab9-89b3-9ea8a82b40a8","ios":"levelo://app?vid=be48aa8d-21b2-4ab9-89b3-9ea8a82b40a8"},"vehicle_type_id":"4","last_reported":1737673718,"current_range_meters":38800,"station_id":"ce4bhnp2rcd13ifvqh0g","pricing_plan_id":"cebpf4jnsgd1na2vs0mg"},{"bike_id":"2d90fad4-f4df-46d5-8f34-efc44e9ef7d7","system_id":"levelo_inurba_marseille","lat":43.312685,"lon":5.401749,"is_reserved":false,"is_disabled":false,"rental_uris":{"android":"levelo://app?vid=2d90fad4-f4df-46d5-8f34-efc44e9ef7d7","ios":"levelo://app?vid=2d90fad4-f4df-46d5-8f34-efc44e9ef7d7"},"vehicle_type_id":"4","last_reported":1737673718,"current_range_meters":19200,"station_id":"ce4bh092rcd13ifvqd30","pricing_plan_id":"cebpf4jnsgd1na2vs0mg"},{"bike_id":"7c78a755-c7f5-4f07-a96b-621451d47948","system_id":"levelo_inurba_marseille","lat":43.29913,"lon":5.43681,"is_reserved":false,"is_disabled":false,"rental_uris":{"android":"levelo://app?vid=7c78a755-c7f5-4f07-a96b-621451d47948","ios":"levelo://app?vid=7c78a755-c7f5-4f07-a96b-621451d47948"},"vehicle_type_id":"4","last_reported":1737673718,"current_range_meters":9600,"station_id":"ce4bhpp2rcd13ifvqhfg","pricing_plan_id":"cebpf4jnsgd1na2vs0mg"},{"bike_id":"08526b01-9c98-4341-a5b6-6a58388706b4","system_id":"levelo_inurba_marseille","lat":43.29739,"lon":5.36621,"is_reserved":false,"is_disabled":false,"rental_uris":{"android":"levelo://app?vid=08526b01-9c98-4341-a5b6-6a58388706b4","ios":"levelo://app?vid=08526b01-9c98-4341-a5b6-6a58388706b4"},"vehicle_type_id":"4","last_reported":1737673718,"current_range_meters":18000,"station_id":"ce4bgn12rcd13ifvqbt0","pricing_plan_id":"cebpf4jnsgd1na2vs0mg"},{"bike_id":"7610bd40-27eb-48ba-8532-89715990a4fa","system_id":"levelo_inurba_marseille","lat":43.29287,"lon":5.40951,"is_reserved":false,"is_disabled":false,"rental_uris":{"android":"levelo://app?vid=7610bd40-27eb-48ba-8532-89715990a4fa","ios":"levelo://app?vid=7610bd40-27eb-48ba-8532-89715990a4fa"},"vehicle_type_id":"4","last_reported":1737673718,"current_range_meters":3600,"station_id":"ce4bh192rcd13ifvqdc0","pricing_plan_id":"cebpf4jnsgd1na2vs0mg"},{"bike_id":"52e3375d-f2b1-471c-bdfe-8428c026fbdc","system_id":"levelo_inurba_marseille","lat":43.29303,"lon":5.38474,"is_reserved":false,"is_disabled":true,"rental_uris":{"android":"levelo://app?vid=52e3375d-f2b1-471c-bdfe-8428c026fbdc","ios":"levelo://app?vid=52e3375d-f2b1-471c-bdfe-8428c026fbdc"},"vehicle_type_id":"4","last_reported":1737673718,"current_range_meters":38800,"station_id":"","pricing_plan_id":"cebpf4jnsgd1na2vs0mg"},{"bike_id":"b01fce57-63c8-454c-9252-5518a237155b","system_id":"levelo_inurba_marseille","lat":43.23201,"lon":5.39972,"is_reserved":false,"is_disabled":false,"rental_uris":{"android":"levelo://app?vid=b01fce57-63c8-454c-9252-5518a237155b","ios":"levelo://app?vid=b01fce57-63c8-454c-9252-5518a237155b"},"vehicle_type_id":"4","last_reported":1737673718,"current_range_meters":18000,"station_id":"ce4bhn12rcd13ifvqgqg","pricing_plan_id":"cebpf4jnsgd1na2vs0mg"},{"bike_id":"9c45686f-f590-453b-ac55-f16438195cf9","system_id":"levelo_inurba_marseille","lat":43.28421,"lon":5.37522,"is_reserved":false,"is_disabled":false,"rental_uris":{"android":"levelo://app?vid=9c45686f-f590-453b-ac55-f16438195cf9","ios":"levelo://app?vid=9c45686f-f590-453b-ac55-f16438195cf9"},"vehicle_type_id":"4","last_reported":1737673718,"current_range_meters":6800,"station_id":"ce4bh412rcd13ifvqds0","pricing_plan_id":"cebpf4jnsgd1na2vs0mg"},{"bike_id":"cd1680d3-9e89-4add-921b-b8e7af2be884","system_id":"levelo_inurba_marseille","lat":43.27991,"lon":5.40033,"is_reserved":false,"is_disabled":false,"rental_uris":{"android":"levelo://app?vid=cd1680d3-9e89-4add-921b-b8e7af2be884","ios":"levelo://app?vid=cd1680d3-9e89-4add-921b-b8e7af2be884"},"vehicle_type_id":"4","last_reported":1737673718,"current_range_meters":30400,"station_id":"ce4bho92rcd13ifvqh4g","pricing_plan_id":"cebpf4jnsgd1na2vs0mg"},{"bike_id":"be81e2f7-9a8e-4339-b1b5-551a0a5db6fc","system_id":"levelo_inurba_marseille","lat":43.231933,"lon":5.399897,"is_reserved":false,"is_disabled":false,"rental_uris":{"android":"levelo://app?vid=be81e2f7-9a8e-4339-b1b5-551a0a5db6fc","ios":"levelo://app?vid=be81e2f7-9a8e-4339-b1b5-551a0a5db6fc"},"vehicle_type_id":"4","last_reported":1737673718,"current_range_meters":29600,"station_id":"ce4bhn12rcd13ifvqgqg","pricing_plan_id":"cebpf4jnsgd1na2vs0mg"},{"bike_id":"e834d110-9757-4aa5-8921-77cbfa7c7c6e","system_id":"levelo_inurba_marseille","lat":43.28564,"lon":5.39502,"is_reserved":false,"is_disabled":true,"rental_uris":{"android":"levelo://app?vid=e834d110-9757-4aa5-8921-77cbfa7c7c6e","ios":"levelo://app?vid=e834d110-9757-4aa5-8921-77cbfa7c7c6e"},"vehicle_type_id":"4","last_reported":1737673718,"current_range_meters":38400,"station_id":"ce4bh292rcd13ifvqdg0","pricing_plan_id":"cebpf4jnsgd1na2vs0mg"},{"bike_id":"6fb05643-ee64-4b0a-8020-4ca9de6b3966","system_id":"levelo_inurba_marseille","lat":43.295,"lon":5.394,"is_reserved":false,"is_disabled":false,"rental_uris":{"android":"levelo://app?vid=6fb05643-ee64-4b0a-8020-4ca9de6b3966","ios":"levelo://app?vid=6fb05643-ee64-4b0a-8020-4ca9de6b3966"},"vehicle_type_id":"4","last_reported":1737673718,"current_range_meters":39200,"station_id":"ce4bh292rcd13ifvqdf0","pricing_plan_id":"cebpf4jnsgd1na2vs0mg"},{"bike_id":"7291e108-5d0f-436f-8ab9-9bc10cda3fc5","system_id":"levelo_inurba_marseille","lat":43.290548,"lon":5.359158,"is_reserved":false,"is_disabled":false,"rental_uris":{"android":"levelo://app?vid=7291e108-5d0f-436f-8ab9-9bc10cda3fc5","ios":"levelo://app?vid=7291e108-5d0f-436f-8ab9-9bc10cda3fc5"},"vehicle_type_id":"4","last_reported":1737673718,"current_range_meters":38000,"station_id":"ce4bha92rcd13ifvqeg0","pricing_plan_id":"cebpf4jnsgd1na2vs0mg"},{"bike_id":"08beca7f-e350-4b4a-bee1-4dcf0c95853f","system_id":"levelo_inurba_marseille","lat":43.30269,"lon":5.40026,"is_reserved":false,"is_disabled":false,"rental_uris":{"android":"levelo://app?vid=08beca7f-e350-4b4a-bee1-4dcf0c95853f","ios":"levelo://app?vid=08beca7f-e350-4b4a-bee1-4dcf0c95853f"},"vehicle_type_id":"4","last_reported":1737673718,"current_range_meters":38800,"station_id":"ce4bgvh2rcd13ifvqcs0","pricing_plan_id":"cebpf4jnsgd1na2vs0mg"},{"bike_id":"8091da5a-cc04-462d-bb09-ae380ca5e4ce","system_id":"levelo_inurba_marseille","lat":43.23183,"lon":5.39979,"is_reserved":false,"is_disabled":false,"rental_uris":{"android":"levelo://app?vid=8091da5a-cc04-462d-bb09-ae380ca5e4ce","ios":"levelo://app?vid=8091da5a-cc04-462d-bb09-ae380ca5e4ce"},"vehicle_type_id":"4","last_reported":1737673718,"current_range_meters":9200,"station_id":"ce4bhn12rcd13ifvqgqg","pricing_plan_id":"cebpf4jnsgd1na2vs0mg"},{"bike_id":"a33b274c-21ae-4303-b7be-9ae00bb12c0a","system_id":"levelo_inurba_marseille","lat":43.29313,"lon":5.40159,"is_reserved":false,"is_disabled":false,"rental_uris":{"android":"levelo://app?vid=a33b274c-21ae-4303-b7be-9ae00bb12c0a","ios":"levelo://app?vid=a33b274c-21ae-4303-b7be-9ae00bb12c0a"},"vehicle_type_id":"4","last_reported":1737673718,"current_range_meters":8400,"station_id":"ce4bh312rcd13ifvqdk0","pricing_plan_id":"cebpf4jnsgd1na2vs0mg"},{"bike_id":"bb0d6a47-36d5-4d38-9ea0-8de29b3c251a","system_id":"levelo_inurba_marseille","lat":43.31133,"lon":5.37747,"is_reserved":false,"is_disabled":false,"rental_uris":{"android":"levelo://app?vid=bb0d6a47-36d5-4d38-9ea0-8de29b3c251a","ios":"levelo://app?vid=bb0d6a47-36d5-4d38-9ea0-8de29b3c251a"},"vehicle_type_id":"4","last_reported":1737673718,"current_range_meters":39200,"station_id":"ce4bgt92rcd13ifvqcg0","pricing_plan_id":"cebpf4jnsgd1na2vs0mg"},{"bike_id":"7e916c70-1472-4e6d-89ea-6d1e635df53b","system_id":"levelo_inurba_marseille","lat":43.27804,"lon":5.40705,"is_reserved":false,"is_disabled":false,"rental_uris":{"android":"levelo://app?vid=7e916c70-1472-4e6d-89ea-6d1e635df53b","ios":"levelo://app?vid=7e916c70-1472-4e6d-89ea-6d1e635df53b"},"vehicle_type_id":"4","last_reported":1737673718,"current_range_meters":37600,"station_id":"ce4bhnh2rcd13ifvqgtg","pricing_plan_id":"cebpf4jnsgd1na2vs0mg"},{"bike_id":"72428ff6-b760-4407-bd52-28cdb9f11441","system_id":"levelo_inurba_marseille","lat":43.27371,"lon":5.3625,"is_reserved":false,"is_disabled":false,"rental_uris":{"android":"levelo://app?vid=72428ff6-b760-4407-bd52-28cdb9f11441","ios":"levelo://app?vid=72428ff6-b760-4407-bd52-28cdb9f11441"},"vehicle_type_id":"4","last_reported":1737673718,"current_range_meters":20800,"station_id":"ce4bhbh2rcd13ifvqeo0","pricing_plan_id":"cebpf4jnsgd1na2vs0mg"},{"bike_id":"51b693ec-6376-489f-b989-9f78de29a1f3","system_id":"levelo_inurba_marseille","lat":43.24167,"lon":5.36416,"is_reserved":false,"is_disabled":false,"rental_uris":{"android":"levelo://app?vid=51b693ec-6376-489f-b989-9f78de29a1f3","ios":"levelo://app?vid=51b693ec-6376-489f-b989-9f78de29a1f3"},"vehicle_type_id":"4","last_reported":1737673718,"current_range_meters":20000,"station_id":"cpo36qri1sfpv3e86is0","pricing_plan_id":"cebpf4jnsgd1na2vs0mg"},{"bike_id":"145191d5-f39c-46b8-b037-c8e765df34c6","system_id":"levelo_inurba_marseille","lat":43.29022,"lon":5.39973,"is_reserved":false,"is_disabled":false,"rental_uris":{"android":"levelo://app?vid=145191d5-f39c-46b8-b037-c8e765df34c6","ios":"levelo://app?vid=145191d5-f39c-46b8-b037-c8e765df34c6"},"vehicle_type_id":"4","last_reported":1737673718,"current_range_meters":35200,"station_id":"ce4bh392rcd13ifvqdm0","pricing_plan_id":"cebpf4jnsgd1na2vs0mg"},{"bike_id":"13ff516e-16cf-4543-8540-9030b8b296b4","system_id":"levelo_inurba_marseille","lat":43.23205,"lon":5.35619,"is_reserved":false,"is_disabled":false,"rental_uris":{"android":"levelo://app?vid=13ff516e-16cf-4543-8540-9030b8b296b4","ios":"levelo://app?vid=13ff516e-16cf-4543-8540-9030b8b296b4"},"vehicle_type_id":"4","last_reported":1737673718,"current_range_meters":27600,"station_id":"ce4bhu92rcd13ifvqi70","pricing_plan_id":"cebpf4jnsgd1na2vs0mg"},{"bike_id":"59fc33a9-dd29-48f5-bd39-d87f80d80550","system_id":"levelo_inurba_marseille","lat":43.30451,"lon":5.39747,"is_reserved":false,"is_disabled":false,"rental_uris":{"android":"levelo://app?vid=59fc33a9-dd29-48f5-bd39-d87f80d80550","ios":"levelo://app?vid=59fc33a9-dd29-48f5-bd39-d87f80d80550"},"vehicle_type_id":"4","last_reported":1737673718,"current_range_meters":14400,"station_id":"ce4bh092rcd13ifvqd20","pricing_plan_id":"cebpf4jnsgd1na2vs0mg"},{"bike_id":"382b1d8c-119f-472b-8efe-763a8ffd1020","system_id":"levelo_inurba_marseille","lat":43.27948,"lon":5.41056,"is_reserved":false,"is_disabled":false,"rental_uris":{"android":"levelo://app?vid=382b1d8c-119f-472b-8efe-763a8ffd1020","ios":"levelo://app?vid=382b1d8c-119f-472b-8efe-763a8ffd1020"},"vehicle_type_id":"4","last_reported":1737673718,"current_range_meters":38800,"station_id":"ce4bhnp2rcd13ifvqh0g","pricing_plan_id":"cebpf4jnsgd1na2vs0mg"},{"bike_id":"bd1ae243-006e-47c8-9898-bbe0b7356432","system_id":"levelo_inurba_marseille","lat":43.33022,"lon":5.39046,"is_reserved":false,"is_disabled":true,"rental_uris":{"android":"levelo://app?vid=bd1ae243-006e-47c8-9898-bbe0b7356432","ios":"levelo://app?vid=bd1ae243-006e-47c8-9898-bbe0b7356432"},"vehicle_type_id":"4","last_reported":1737673718,"current_range_meters":0,"station_id":"ce4bhr92rcd13ifvqhrg","pricing_plan_id":"cebpf4jnsgd1na2vs0mg"},{"bike_id":"8a151ccc-edf6-40ab-a6a3-42b4ac96f698","system_id":"levelo_inurba_marseille","lat":43.28275,"lon":5.35075,"is_reserved":false,"is_disabled":true,"rental_uris":{"android":"levelo://app?vid=8a151ccc-edf6-40ab-a6a3-42b4ac96f698","ios":"levelo://app?vid=8a151ccc-edf6-40ab-a6a3-42b4ac96f698"},"vehicle_type_id":"4","last_reported":1737673718,"current_range_meters":26000,"station_id":"ce4bhbp2rcd13ifvqerg","pricing_plan_id":"cebpf4jnsgd1na2vs0mg"},{"bike_id":"5971ad5e-a484-4d3d-bdf2-2b149d5328ab","system_id":"levelo_inurba_marseille","lat":43.29044,"lon":5.39969,"is_reserved":false,"is_disabled":false,"rental_uris":{"android":"levelo://app?vid=5971ad5e-a484-4d3d-bdf2-2b149d5328ab","ios":"levelo://app?vid=5971ad5e-a484-4d3d-bdf2-2b149d5328ab"},"vehicle_type_id":"4","last_reported":1737673718,"current_range_meters":36400,"station_id":"ce4bh392rcd13ifvqdm0","pricing_plan_id":"cebpf4jnsgd1na2vs0mg"},{"bike_id":"7f0b73c5-af9a-4c10-9ae6-a4a4e527bef1","system_id":"levelo_inurba_marseille","lat":43.25574,"lon":5.38242,"is_reserved":false,"is_disabled":false,"rental_uris":{"android":"levelo://app?vid=7f0b73c5-af9a-4c10-9ae6-a4a4e527bef1","ios":"levelo://app?vid=7f0b73c5-af9a-4c10-9ae6-a4a4e527bef1"},"vehicle_type_id":"4","last_reported":1737673718,"current_range_meters":27200,"station_id":"ce4bhih2rcd13ifvqfs0","pricing_plan_id":"cebpf4jnsgd1na2vs0mg"},{"bike_id":"6c55b5b0-9255-4b50-8d73-33b8cb858c0e","system_id":"levelo_inurba_marseille","lat":43.30936,"lon":5.40145,"is_reserved":false,"is_disabled":false,"rental_uris":{"android":"levelo://app?vid=6c55b5b0-9255-4b50-8d73-33b8cb858c0e","ios":"levelo://app?vid=6c55b5b0-9255-4b50-8d73-33b8cb858c0e"},"vehicle_type_id":"4","last_reported":1737673718,"current_range_meters":22400,"station_id":"ce4bgvp2rcd13ifvqct0","pricing_plan_id":"cebpf4jnsgd1na2vs0mg"},{"bike_id":"5cefcaef-c8d0-426e-85a3-d6a61a1b5e27","system_id":"levelo_inurba_marseille","lat":43.278183,"lon":5.40714,"is_reserved":false,"is_disabled":false,"rental_uris":{"android":"levelo://app?vid=5cefcaef-c8d0-426e-85a3-d6a61a1b5e27","ios":"levelo://app?vid=5cefcaef-c8d0-426e-85a3-d6a61a1b5e27"},"vehicle_type_id":"4","last_reported":1737673718,"current_range_meters":36400,"station_id":"ce4bhnh2rcd13ifvqgtg","pricing_plan_id":"cebpf4jnsgd1na2vs0mg"},{"bike_id":"5ba89a38-2294-4a3f-a884-84d53abdc93f","system_id":"levelo_inurba_marseille","lat":43.30881,"lon":5.39654,"is_reserved":false,"is_disabled":false,"rental_uris":{"android":"levelo://app?vid=5ba89a38-2294-4a3f-a884-84d53abdc93f","ios":"levelo://app?vid=5ba89a38-2294-4a3f-a884-84d53abdc93f"},"vehicle_type_id":"4","last_reported":1737673718,"current_range_meters":36000,"station_id":"ce4bh012rcd13ifvqcv0","pricing_plan_id":"cebpf4jnsgd1na2vs0mg"},{"bike_id":"150cca3c-21c2-4891-8055-ecdeff4dd74b","system_id":"levelo_inurba_marseille","lat":43.29627,"lon":5.37731,"is_reserved":false,"is_disabled":false,"rental_uris":{"android":"levelo://app?vid=150cca3c-21c2-4891-8055-ecdeff4dd74b","ios":"levelo://app?vid=150cca3c-21c2-4891-8055-ecdeff4dd74b"},"vehicle_type_id":"4","last_reported":1737673718,"current_range_meters":38800,"station_id":"ce4bgi92rcd13ifvqb90","pricing_plan_id":"cebpf4jnsgd1na2vs0mg"},{"bike_id":"a7a5e5ac-a8ef-4955-b1ae-1d314c428a63","system_id":"levelo_inurba_marseille","lat":43.317139,"lon":5.377564,"is_reserved":false,"is_disabled":false,"rental_uris":{"android":"levelo://app?vid=a7a5e5ac-a8ef-4955-b1ae-1d314c428a63","ios":"levelo://app?vid=a7a5e5ac-a8ef-4955-b1ae-1d314c428a63"},"vehicle_type_id":"4","last_reported":1737673718,"current_range_meters":39200,"station_id":"ce4bgth2rcd13ifvqch0","pricing_plan_id":"cebpf4jnsgd1na2vs0mg"},{"bike_id":"caa30493-616a-4890-af9b-1f4a106c82f0","system_id":"levelo_inurba_marseille","lat":43.31023,"lon":5.40263,"is_reserved":false,"is_disabled":false,"rental_uris":{"android":"levelo://app?vid=caa30493-616a-4890-af9b-1f4a106c82f0","ios":"levelo://app?vid=caa30493-616a-4890-af9b-1f4a106c82f0"},"vehicle_type_id":"4","last_reported":1737673718,"current_range_meters":20000,"station_id":"","pricing_plan_id":"cebpf4jnsgd1na2vs0mg"},{"bike_id":"f4e747ed-e2d8-43b6-83e7-4a1141131a2f","system_id":"levelo_inurba_marseille","lat":43.27905,"lon":5.38014,"is_reserved":false,"is_disabled":false,"rental_uris":{"android":"levelo://app?vid=f4e747ed-e2d8-43b6-83e7-4a1141131a2f","ios":"levelo://app?vid=f4e747ed-e2d8-43b6-83e7-4a1141131a2f"},"vehicle_type_id":"4","last_reported":1737673718,"current_range_meters":32000,"station_id":"ce4bhf92rcd13ifvqf50","pricing_plan_id":"cebpf4jnsgd1na2vs0mg"},{"bike_id":"19d887ae-ab27-4a38-b7c2-f64dc5349e85","system_id":"levelo_inurba_marseille","lat":43.28649,"lon":5.39579,"is_reserved":false,"is_disabled":false,"rental_uris":{"android":"levelo://app?vid=19d887ae-ab27-4a38-b7c2-f64dc5349e85","ios":"levelo://app?vid=19d887ae-ab27-4a38-b7c2-f64dc5349e85"},"vehicle_type_id":"4","last_reported":1737673718,"current_range_meters":36800,"station_id":"ce4bh292rcd13ifvqdg0","pricing_plan_id":"cebpf4jnsgd1na2vs0mg"},{"bike_id":"8cec88b6-5987-4fdd-a71c-a36410e8b4a8","system_id":"levelo_inurba_marseille","lat":43.30922,"lon":5.40153,"is_reserved":false,"is_disabled":false,"rental_uris":{"android":"levelo://app?vid=8cec88b6-5987-4fdd-a71c-a36410e8b4a8","ios":"levelo://app?vid=8cec88b6-5987-4fdd-a71c-a36410e8b4a8"},"vehicle_type_id":"4","last_reported":1737673718,"current_range_meters":11200,"station_id":"ce4bgvp2rcd13ifvqct0","pricing_plan_id":"cebpf4jnsgd1na2vs0mg"},{"bike_id":"421d447e-f137-48f8-b50a-3cef6ba73d00","system_id":"levelo_inurba_marseille","lat":43.32348,"lon":5.36742,"is_reserved":false,"is_disabled":false,"rental_uris":{"android":"levelo://app?vid=421d447e-f137-48f8-b50a-3cef6ba73d00","ios":"levelo://app?vid=421d447e-f137-48f8-b50a-3cef6ba73d00"},"vehicle_type_id":"4","last_reported":1737673718,"current_range_meters":12000,"station_id":"ce4bhsh2rcd13ifvqi2g","pricing_plan_id":"cebpf4jnsgd1na2vs0mg"},{"bike_id":"75208fea-e4c3-48f8-b6e1-d73e822fb61e","system_id":"levelo_inurba_marseille","lat":43.28274,"lon":5.35084,"is_reserved":false,"is_disabled":false,"rental_uris":{"android":"levelo://app?vid=75208fea-e4c3-48f8-b6e1-d73e822fb61e","ios":"levelo://app?vid=75208fea-e4c3-48f8-b6e1-d73e822fb61e"},"vehicle_type_id":"4","last_reported":1737673718,"current_range_meters":8400,"station_id":"ce4bhbp2rcd13ifvqerg","pricing_plan_id":"cebpf4jnsgd1na2vs0mg"},{"bike_id":"4384d240-dc41-4658-97ee-153ff9a044f8","system_id":"levelo_inurba_marseille","lat":43.30902,"lon":5.3966,"is_reserved":false,"is_disabled":false,"rental_uris":{"android":"levelo://app?vid=4384d240-dc41-4658-97ee-153ff9a044f8","ios":"levelo://app?vid=4384d240-dc41-4658-97ee-153ff9a044f8"},"vehicle_type_id":"4","last_reported":1737673718,"current_range_meters":5600,"station_id":"ce4bh012rcd13ifvqcv0","pricing_plan_id":"cebpf4jnsgd1na2vs0mg"},{"bike_id":"f38f63fd-8f6f-4b91-9c49-8b65f256ffe9","system_id":"levelo_inurba_marseille","lat":43.29901,"lon":5.36316,"is_reserved":false,"is_disabled":true,"rental_uris":{"android":"levelo://app?vid=f38f63fd-8f6f-4b91-9c49-8b65f256ffe9","ios":"levelo://app?vid=f38f63fd-8f6f-4b91-9c49-8b65f256ffe9"},"vehicle_type_id":"4","last_reported":1737673718,"current_range_meters":38000,"station_id":"","pricing_plan_id":"cebpf4jnsgd1na2vs0mg"},{"bike_id":"f78360e8-7068-4642-b875-4cd7f8f281ec","system_id":"levelo_inurba_marseille","lat":43.29191,"lon":5.35794,"is_reserved":false,"is_disabled":false,"rental_uris":{"android":"levelo://app?vid=f78360e8-7068-4642-b875-4cd7f8f281ec","ios":"levelo://app?vid=f78360e8-7068-4642-b875-4cd7f8f281ec"},"vehicle_type_id":"4","last_reported":1737673718,"current_range_meters":28400,"station_id":"ce4bhb12rcd13ifvqel0","pricing_plan_id":"cebpf4jnsgd1na2vs0mg"},{"bike_id":"75495e7c-20bd-4569-84c6-35df34ab244d","system_id":"levelo_inurba_marseille","lat":43.29896,"lon":5.4368,"is_reserved":false,"is_disabled":true,"rental_uris":{"android":"levelo://app?vid=75495e7c-20bd-4569-84c6-35df34ab244d","ios":"levelo://app?vid=75495e7c-20bd-4569-84c6-35df34ab244d"},"vehicle_type_id":"4","last_reported":1737673718,"current_range_meters":1200,"station_id":"ce4bhpp2rcd13ifvqhfg","pricing_plan_id":"cebpf4jnsgd1na2vs0mg"},{"bike_id":"954b0541-3978-4c85-ab09-b536a1c2e3bf","system_id":"levelo_inurba_marseille","lat":43.2843,"lon":5.3919,"is_reserved":false,"is_disabled":false,"rental_uris":{"android":"levelo://app?vid=954b0541-3978-4c85-ab09-b536a1c2e3bf","ios":"levelo://app?vid=954b0541-3978-4c85-ab09-b536a1c2e3bf"},"vehicle_type_id":"4","last_reported":1737673718,"current_range_meters":38000,"station_id":"ce4bhoh2rcd13ifvqh5g","pricing_plan_id":"cebpf4jnsgd1na2vs0mg"},{"bike_id":"5c6dd2ff-5977-45ea-9ab6-79ed70b4ade5","system_id":"levelo_inurba_marseille","lat":43.294176,"lon":5.385994,"is_reserved":false,"is_disabled":true,"rental_uris":{"android":"levelo://app?vid=5c6dd2ff-5977-45ea-9ab6-79ed70b4ade5","ios":"levelo://app?vid=5c6dd2ff-5977-45ea-9ab6-79ed70b4ade5"},"vehicle_type_id":"4","last_reported":1737673718,"current_range_meters":5600,"station_id":"ce4bh2h2rcd13ifvqdh0","pricing_plan_id":"cebpf4jnsgd1na2vs0mg"},{"bike_id":"2693e099-578a-4462-b03c-cb6a658dc0f3","system_id":"levelo_inurba_marseille","lat":43.299,"lon":5.43655,"is_reserved":false,"is_disabled":false,"rental_uris":{"android":"levelo://app?vid=2693e099-578a-4462-b03c-cb6a658dc0f3","ios":"levelo://app?vid=2693e099-578a-4462-b03c-cb6a658dc0f3"},"vehicle_type_id":"4","last_reported":1737673718,"current_range_meters":38800,"station_id":"ce4bhpp2rcd13ifvqhfg","pricing_plan_id":"cebpf4jnsgd1na2vs0mg"},{"bike_id":"f15a3926-03ea-4c4b-9f1b-6e7324acfe94","system_id":"levelo_inurba_marseille","lat":43.28752,"lon":5.37711,"is_reserved":false,"is_disabled":true,"rental_uris":{"android":"levelo://app?vid=f15a3926-03ea-4c4b-9f1b-6e7324acfe94","ios":"levelo://app?vid=f15a3926-03ea-4c4b-9f1b-6e7324acfe94"},"vehicle_type_id":"4","last_reported":1737673718,"current_range_meters":8800,"station_id":"","pricing_plan_id":"cebpf4jnsgd1na2vs0mg"},{"bike_id":"952f2716-3580-4e73-8439-e26a960aea39","system_id":"levelo_inurba_marseille","lat":43.25823,"lon":5.39445,"is_reserved":false,"is_disabled":false,"rental_uris":{"android":"levelo://app?vid=952f2716-3580-4e73-8439-e26a960aea39","ios":"levelo://app?vid=952f2716-3580-4e73-8439-e26a960aea39"},"vehicle_type_id":"4","last_reported":1737673718,"current_range_meters":38400,"station_id":"ce4bhip2rcd13ifvqft0","pricing_plan_id":"cebpf4jnsgd1na2vs0mg"},{"bike_id":"a56f2924-b886-4ce9-8044-10d731e10f15","system_id":"levelo_inurba_marseille","lat":43.28407,"lon":5.37522,"is_reserved":false,"is_disabled":false,"rental_uris":{"android":"levelo://app?vid=a56f2924-b886-4ce9-8044-10d731e10f15","ios":"levelo://app?vid=a56f2924-b886-4ce9-8044-10d731e10f15"},"vehicle_type_id":"4","last_reported":1737673718,"current_range_meters":38800,"station_id":"ce4bh412rcd13ifvqds0","pricing_plan_id":"cebpf4jnsgd1na2vs0mg"},{"bike_id":"0683b8fa-bf66-4a85-b23f-305b1ef8e2c5","system_id":"levelo_inurba_marseille","lat":43.29899,"lon":5.43673,"is_reserved":false,"is_disabled":false,"rental_uris":{"android":"levelo://app?vid=0683b8fa-bf66-4a85-b23f-305b1ef8e2c5","ios":"levelo://app?vid=0683b8fa-bf66-4a85-b23f-305b1ef8e2c5"},"vehicle_type_id":"4","last_reported":1737673718,"current_range_meters":11600,"station_id":"ce4bhpp2rcd13ifvqhfg","pricing_plan_id":"cebpf4jnsgd1na2vs0mg"},