{"last_updated":1686949535,"ttl":30,"version":"2.2","data":{"bikes":[{"bike_id":"a38c9a88-cf27-4207-82e1-f9067c1e7d6e","system_id":"levelo_inurba_marseille","lat":43.314811,"lon":5.373103,"is_reserved":false,"is_disabled":false,"rental_uris":{"android":"levelo://app?vid=a38c9a88-cf27-4207-82e1-f9067c1e7d6e","ios":"levelo://app?vid=a38c9a88-cf27-4207-82e1-f9067c1e7d6e"},"vehicle_type_id":"4","last_reported":1686949536,"current_range_meters":5200,"station_id":"ce4bgt12rcd13ifvqcd0","pricing_plan_id":"free"},{"bike_id":"e817c7fe-56aa-45e5-ab4a-119e64343889","system_id":"levelo_inurba_marseille","lat":43.308606,"lon":5.372099,"is_reserved":false,"is_disabled":false,"rental_uris":{"android":"levelo://app?vid=e817c7fe-56aa-45e5-ab4a-119e64343889","ios":"levelo://app?vid=e817c7fe-56aa-45e5-ab4a-119e64343889"},"vehicle_type_id":"4","last_reported":1686949536,"current_range_meters":22800,"station_id":"ce4bguh2rcd13ifvqckg","pricing_plan_id":"free"},{"bike_id":"fa449f53-17e4-4a16-813b-341c4d89b798","system_id":"levelo_inurba_marseille","lat":43.30543,"lon":5.36529,"is_reserved":false,"is_disabled":false,"rental_uris":{"android":"levelo://app?vid=fa449f53-17e4-4a16-813b-341c4d89b798","ios":"levelo://app?vid=fa449f53-17e4-4a16-813b-341c4d89b798"},"vehicle_type_id":"4","last_reported":1686949536,"current_range_meters":10400,"station_id":"","pricing_plan_id":"free"},{"bike_id":"c0943b7b-1dc0-4ebc-9158-a230ab2ebeeb","system_id":"levelo_inurba_marseille","lat":43.305989,"lon":5.37225,"is_reserved":false,"is_disabled":false,"rental_uris":{"android":"levelo://app?vid=c0943b7b-1dc0-4ebc-9158-a230ab2ebeeb","ios":"levelo://app?vid=c0943b7b-1dc0-4ebc-9158-a230ab2ebeeb"},"vehicle_type_id":"4","last_reported":1686949536,"current_range_meters":27200,"station_id":"ce4bgqh2rcd13ifvqc4g","pricing_plan_id":"free"},{"bike_id":"fe74b69d-bf5d-4d06-a73d-7276091019cb","system_id":"levelo_inurba_marseille","lat":43.305989,"lon":5.37225,"is_reserved":false,"is_disabled":false,"rental_uris":{"android":"levelo://app?vid=fe74b69d-bf5d-4d06-a73d-7276091019cb","ios":"levelo://app?vid=fe74b69d-bf5d-4d06-a73d-7276091019cb"},"vehicle_type_id":"4","last_reported":1686949536,"current_range_meters":14000,"station_id":"ce4bgqh2rcd13ifvqc4g","pricing_plan_id":"free"},{"bike_id":"624c5491-4ac8-494c-8181-8be972b4c7a7","system_id":"levelo_inurba_marseille","lat":43.305989,"lon":5.37225,"is_reserved":false,"is_disabled":false,"rental_uris":{"android":"levelo://app?vid=624c5491-4ac8-494c-8181-8be972b4c7a7","ios":"levelo://app?vid=624c5491-4ac8-494c-8181-8be972b4c7a7"},"vehicle_type_id":"4","last_reported":1686949536,"current_range_meters":24400,"station_id":"ce4bgqh2rcd13ifvqc4g","pricing_plan_id":"free"},{"bike_id":"a3395326-95e8-4988-8f9f-ff182158b634","system_id":"levelo_inurba_marseille","lat":43.305989,"lon":5.37225,"is_reserved":false,"is_disabled":false,"rental_uris":{"android":"levelo://app?vid=a3395326-95e8-4988-8f9f-ff182158b634","ios":"levelo://app?vid=a3395326-95e8-4988-8f9f-ff182158b634"},"vehicle_type_id":"4","last_reported":1686949536,"current_range_meters":12000,"station_id":"ce4bgqh2rcd13ifvqc4g","pricing_plan_id":"free"},{"bike_id":"09941c8e-d9e9-4d84-87eb-77d4dbb68a64","system_id":"levelo_inurba_marseille","lat":43.317075,"lon":5.377367,"is_reserved":false,"is_disabled":false,"rental_uris":{"android":"levelo://app?vid=09941c8e-d9e9-4d84-87eb-77d4dbb68a64","ios":"levelo://app?vid=09941c8e-d9e9-4d84-87eb-77d4dbb68a64"},"vehicle_type_id":"4","last_reported":1686949536,"current_range_meters":8400,"station_id":"ce4bgth2rcd13ifvqch0","pricing_plan_id":"free"},{"bike_id":"2424216c-0462-4ad0-b127-d0366c91b61c","system_id":"levelo_inurba_marseille","lat":43.317075,"lon":5.377367,"is_reserved":false,"is_disabled":false,"rental_uris":{"android":"levelo://app?vid=2424216c-0462-4ad0-b127-d0366c91b61c","ios":"levelo://app?vid=2424216c-0462-4ad0-b127-d0366c91b61c"},"vehicle_type_id":"4","last_reported":1686949536,"current_range_meters":30400,"station_id":"ce4bgth2rcd13ifvqch0","pricing_plan_id":"free"},{"bike_id":"ce73f4af-8f74-45b6-a910-a10cb8e5efa6","system_id":"levelo_inurba_marseille","lat":43.303046,"lon":5.368981,"is_reserved":false,"is_disabled":false,"rental_uris":{"android":"levelo://app?vid=ce73f4af-8f74-45b6-a910-a10cb8e5efa6","ios":"levelo://app?vid=ce73f4af-8f74-45b6-a910-a10cb8e5efa6"},"vehicle_type_id":"4","last_reported":1686949536,"current_range_meters":26800,"station_id":"ce4bgqh2rcd13ifvqc5g","pricing_plan_id":"free"},{"bike_id":"46bb3f47-908b-4b9e-9d58-bbeb1fffa81a","system_id":"levelo_inurba_marseille","lat":43.315293,"lon":5.380349,"is_reserved":false,"is_disabled":false,"rental_uris":{"android":"levelo://app?vid=46bb3f47-908b-4b9e-9d58-bbeb1fffa81a","ios":"levelo://app?vid=46bb3f47-908b-4b9e-9d58-bbeb1fffa81a"},"vehicle_type_id":"4","last_reported":1686949536,"current_range_meters":14800,"station_id":"ce4bhsp2rcd13ifvqi50","pricing_plan_id":"free"},{"bike_id":"ae33307b-fcd5-479b-9ae1-9002ed226c6e","system_id":"levelo_inurba_marseille","lat":43.308012,"lon":5.381511,"is_reserved":false,"is_disabled":false,"rental_uris":{"android":"levelo://app?vid=ae33307b-fcd5-479b-9ae1-9002ed226c6e","ios":"levelo://app?vid=ae33307b-fcd5-479b-9ae1-9002ed226c6e"},"vehicle_type_id":"4","last_reported":1686949536,"current_range_meters":13600,"station_id":"ce4bgt12rcd13ifvqce0","pricing_plan_id":"free"},{"bike_id":"fc4a69da-5dee-4c68-8631-20ee11bc487b","system_id":"levelo_inurba_marseille","lat":43.304606,"lon":5.379026,"is_reserved":false,"is_disabled":false,"rental_uris":{"android":"levelo://app?vid=fc4a69da-5dee-4c68-8631-20ee11bc487b","ios":"levelo://app?vid=fc4a69da-5dee-4c68-8631-20ee11bc487b"},"vehicle_type_id":"4","last_reported":1686949536,"current_range_meters":30000,"station_id":"ce4bgup2rcd13ifvqcn0","pricing_plan_id":"free"},{"bike_id":"43fc693e-f2a9-4aec-8fd9-d094bb02cb70","system_id":"levelo_inurba_marseille","lat":43.304606,"lon":5.379026,"is_reserved":false,"is_disabled":false,"rental_uris":{"android":"levelo://app?vid=43fc693e-f2a9-4aec-8fd9-d094bb02cb70","ios":"levelo://app?vid=43fc693e-f2a9-4aec-8fd9-d094bb02cb70"},"vehicle_type_id":"4","last_reported":1686949536,"current_range_meters":24000,"station_id":"ce4bgup2rcd13ifvqcn0","pricing_plan_id":"free"},{"bike_id":"32827146-2d6b-4fb1-b00e-6b2f535ca544","system_id":"levelo_inurba_marseille","lat":43.30494,"lon":5.37972,"is_reserved":false,"is_disabled":false,"rental_uris":{"android":"levelo://app?vid=32827146-2d6b-4fb1-b00e-6b2f535ca544","ios":"levelo://app?vid=32827146-2d6b-4fb1-b00e-6b2f535ca544"},"vehicle_type_id":"4","last_reported":1686949536,"current_range_meters":31200,"station_id":"","pricing_plan_id":"free"},{"bike_id":"e213dc4b-c21c-4ef9-b9f4-75e462224550","system_id":"levelo_inurba_marseille","lat":43.302784,"lon":5.377158,"is_reserved":false,"is_disabled":false,"rental_uris":{"android":"levelo://app?vid=e213dc4b-c21c-4ef9-b9f4-75e462224550","ios":"levelo://app?vid=e213dc4b-c21c-4ef9-b9f4-75e462224550"},"vehicle_type_id":"4","last_reported":1686949536,"current_range_meters":9200,"station_id":"ce4bguh2rcd13ifvqcj0","pricing_plan_id":"free"},{"bike_id":"35c2b480-e69a-4543-9412-895f27c2a34e","system_id":"levelo_inurba_marseille","lat":43.319935,"lon":5.381699,"is_reserved":false,"is_disabled":false,"rental_uris":{"android":"levelo://app?vid=35c2b480-e69a-4543-9412-895f27c2a34e","ios":"levelo://app?vid=35c2b480-e69a-4543-9412-895f27c2a34e"},"vehicle_type_id":"4","last_reported":1686949536,"current_range_meters":5600,"station_id":"ce4bhr12rcd13ifvqhpg","pricing_plan_id":"free"},{"bike_id":"8d9d5263-de87-473b-bac5-6a426a005a84","system_id":"levelo_inurba_marseille","lat":43.313571,"lon":5.384829,"is_reserved":false,"is_disabled":false,"rental_uris":{"android":"levelo://app?vid=8d9d5263-de87-473b-bac5-6a426a005a84","ios":"levelo://app?vid=8d9d5263-de87-473b-bac5-6a426a005a84"},"vehicle_type_id":"4","last_reported":1686949536,"current_range_meters":21600,"station_id":"ce4bgt92rcd13ifvqcf0","pricing_plan_id":"free"},{"bike_id":"4be3dee9-0a87-4edc-9ee6-a8fa4f420efa","system_id":"levelo_inurba_marseille","lat":43.299389,"lon":5.365534,"is_reserved":false,"is_disabled":false,"rental_uris":{"android":"levelo://app?vid=4be3dee9-0a87-4edc-9ee6-a8fa4f420efa","ios":"levelo://app?vid=4be3dee9-0a87-4edc-9ee6-a8fa4f420efa"},"vehicle_type_id":"4","last_reported":1686949536,"current_range_meters":24400,"station_id":"","pricing_plan_id":"free"},{"bike_id":"330412da-b9eb-49fa-9ba0-9288ee9ddd31","system_id":"levelo_inurba_marseille","lat":43.30055,"lon":5.37522,"is_reserved":false,"is_disabled":false,"rental_uris":{"android":"levelo://app?vid=330412da-b9eb-49fa-9ba0-9288ee9ddd31","ios":"levelo://app?vid=330412da-b9eb-49fa-9ba0-9288ee9ddd31"},"vehicle_type_id":"4","last_reported":1686949536,"current_range_meters":22000,"station_id":"","pricing_plan_id":"free"},{"bike_id":"176f4894-d7fc-460e-aa5d-7c8c1e206dc3","system_id":"levelo_inurba_marseille","lat":43.297163,"lon":5.365866,"is_reserved":false,"is_disabled":false,"rental_uris":{"android":"levelo://app?vid=176f4894-d7fc-460e-aa5d-7c8c1e206dc3","ios":"levelo://app?vid=176f4894-d7fc-460e-aa5d-7c8c1e206dc3"},"vehicle_type_id":"4","last_reported":1686949536,"current_range_meters":19200,"station_id":"ce4bgn12rcd13ifvqbt0","pricing_plan_id":"free"},{"bike_id":"88d0330c-5bb0-4a19-9b65-d4683b42e015","system_id":"levelo_inurba_marseille","lat":43.29683,"lon":5.36046,"is_reserved":false,"is_disabled":false,"rental_uris":{"android":"levelo://app?vid=88d0330c-5bb0-4a19-9b65-d4683b42e015","ios":"levelo://app?vid=88d0330c-5bb0-4a19-9b65-d4683b42e015"},"vehicle_type_id":"4","last_reported":1686949536,"current_range_meters":9200,"station_id":"ce4bgpp2rcd13ifvqc3g","pricing_plan_id":"free"},{"bike_id":"24f41ca5-b432-4feb-a0c8-a15026b97306","system_id":"levelo_inurba_marseille","lat":43.296131,"lon":5.370773,"is_reserved":false,"is_disabled":false,"rental_uris":{"android":"levelo://app?vid=24f41ca5-b432-4feb-a0c8-a15026b97306","ios":"levelo://app?vid=24f41ca5-b432-4feb-a0c8-a15026b97306"},"vehicle_type_id":"4","last_reported":1686949536,"current_range_meters":18400,"station_id":"ce4bgnh2rcd13ifvqc0g","pricing_plan_id":"free"},{"bike_id":"cda08bbd-287b-467f-a7b2-49b51ae6bc44","system_id":"levelo_inurba_marseille","lat":43.299028,"lon":5.381509,"is_reserved":false,"is_disabled":false,"rental_uris":{"android":"levelo://app?vid=cda08bbd-287b-467f-a7b2-49b51ae6bc44","ios":"levelo://app?vid=cda08bbd-287b-467f-a7b2-49b51ae6bc44"},"vehicle_type_id":"4","last_reported":1686949536,"current_range_meters":11600,"station_id":"ce4bgj12rcd13ifvqbc0","pricing_plan_id":"free"},{"bike_id":"689e4b7f-d77d-4741-a2b7-9ee371dbddcd","system_id":"levelo_inurba_marseille","lat":43.299028,"lon":5.381509,"is_reserved":false,"is_disabled":false,"rental_uris":{"android":"levelo://app?vid=689e4b7f-d77d-4741-a2b7-9ee371dbddcd","ios":"levelo://app?vid=689e4b7f-d77d-4741-a2b7-9ee371dbddcd"},"vehicle_type_id":"4","last_reported":1686949536,"current_range_meters":21200,"station_id":"ce4bgj12rcd13ifvqbc0","pricing_plan_id":"free"},{"bike_id":"09946cde-97ac-407f-9339-bcaab406567a","system_id":"levelo_inurba_marseille","lat":43.296921,"lon":5.376579,"is_reserved":false,"is_disabled":false,"rental_uris":{"android":"levelo://app?vid=09946cde-97ac-407f-9339-bcaab406567a","ios":"levelo://app?vid=09946cde-97ac-407f-9339-bcaab406567a"},"vehicle_type_id":"4","last_reported":1686949536,"current_range_meters":7200,"station_id":"ce4bgkh2rcd13ifvqbl0","pricing_plan_id":"free"},{"bike_id":"f0d398ba-5fbd-40a2-8eb4-3daf2a765a19","system_id":"levelo_inurba_marseille","lat":43.31756,"lon":5.39015,"is_reserved":false,"is_disabled":false,"rental_uris":{"android":"levelo://app?vid=f0d398ba-5fbd-40a2-8eb4-3daf2a765a19","ios":"levelo://app?vid=f0d398ba-5fbd-40a2-8eb4-3daf2a765a19"},"vehicle_type_id":"4","last_reported":1686949536,"current_range_meters":27600,"station_id":"ce4bhqp2rcd13ifvqhng","pricing_plan_id":"free"},{"bike_id":"250c8a96-8498-4211-b8f3-1b00a8d1fbaf","system_id":"levelo_inurba_marseille","lat":43.296477,"lon":5.37768,"is_reserved":false,"is_disabled":false,"rental_uris":{"android":"levelo://app?vid=250c8a96-8498-4211-b8f3-1b00a8d1fbaf","ios":"levelo://app?vid=250c8a96-8498-4211-b8f3-1b00a8d1fbaf"},"vehicle_type_id":"4","last_reported":1686949536,"current_range_meters":19200,"station_id":"","pricing_plan_id":"free"},{"bike_id":"5a2be942-eb74-4d02-b446-be02a784316f","system_id":"levelo_inurba_marseille","lat":43.32367,"lon":5.388836,"is_reserved":false,"is_disabled":false,"rental_uris":{"android":"levelo://app?vid=5a2be942-eb74-4d02-b446-be02a784316f","ios":"levelo://app?vid=5a2be942-eb74-4d02-b446-be02a784316f"},"vehicle_type_id":"4","last_reported":1686949536,"current_range_meters":5600,"station_id":"ce4bhqp2rcd13ifvqhog","pricing_plan_id":"free"},{"bike_id":"2c9ad911-25e0-4222-8751-d809dfadd582","system_id":"levelo_inurba_marseille","lat":43.32367,"lon":5.388836,"is_reserved":false,"is_disabled":false,"rental_uris":{"android":"levelo://app?vid=2c9ad911-25e0-4222-8751-d809dfadd582","ios":"levelo://app?vid=2c9ad911-25e0-4222-8751-d809dfadd582"},"vehicle_type_id":"4","last_reported":1686949536,"current_range_meters":29200,"station_id":"ce4bhqp2rcd13ifvqhog","pricing_plan_id":"free"},{"bike_id":"4e4ada0f-35fd-4753-9468-ed6564a42d3a","system_id":"levelo_inurba_marseille","lat":43.32367,"lon":5.388836,"is_reserved":false,"is_disabled":false,"rental_uris":{"android":"levelo://app?vid=4e4ada0f-35fd-4753-9468-ed6564a42d3a","ios":"levelo://app?vid=4e4ada0f-35fd-4753-9468-ed6564a42d3a"},"vehicle_type_id":"4","last_reported":1686949536,"current_range_meters":23200,"station_id":"ce4bhqp2rcd13ifvqhog","pricing_plan_id":"free"},{"bike_id":"6563fc8f-37de-404e-be9b-a296b574b350","system_id":"levelo_inurba_marseille","lat":43.32367,"lon":5.388836,"is_reserved":false,"is_disabled":false,"rental_uris":{"android":"levelo://app?vid=6563fc8f-37de-404e-be9b-a296b574b350","ios":"levelo://app?vid=6563fc8f-37de-404e-be9b-a296b574b350"},"vehicle_type_id":"4","last_reported":1686949536,"current_range_meters":8400,"station_id":"ce4bhqp2rcd13ifvqhog","pricing_plan_id":"free"},{"bike_id":"77124164-932e-4430-941e-59bb3116e348","system_id":"levelo_inurba_marseille","lat":43.29601,"lon":5.381084,"is_reserved":false,"is_disabled":false,"rental_uris":{"android":"levelo://app?vid=77124164-932e-4430-941e-59bb3116e348","ios":"levelo://app?vid=77124164-932e-4430-941e-59bb3116e348"},"vehicle_type_id":"4","last_reported":1686949536,"current_range_meters":9600,"station_id":"ce4bgl12rcd13ifvqbo0","pricing_plan_id":"free"},{"bike_id":"cac50005-6c53-4a42-8791-7d5674b5422c","system_id":"levelo_inurba_marseille","lat":43.29601,"lon":5.381084,"is_reserved":false,"is_disabled":false,"rental_uris":{"android":"levelo://app?vid=cac50005-6c53-4a42-8791-7d5674b5422c","ios":"levelo://app?vid=cac50005-6c53-4a42-8791-7d5674b5422c"},"vehicle_type_id":"4","last_reported":1686949536,"current_range_meters":400,"station_id":"ce4bgl12rcd13ifvqbo0","pricing_plan_id":"free"},{"bike_id":"6a262f0e-f14a-4b8c-a27e-1f19206efa3b","system_id":"levelo_inurba_marseille","lat":43.31432,"lon":5.39376,"is_reserved":false,"is_disabled":false,"rental_uris":{"android":"levelo://app?vid=6a262f0e-f14a-4b8c-a27e-1f19206efa3b","ios":"levelo://app?vid=6a262f0e-f14a-4b8c-a27e-1f19206efa3b"},"vehicle_type_id":"4","last_reported":1686949536,"current_range_meters":27200,"station_id":"","pricing_plan_id":"free"},{"bike_id":"759323b3-bcb9-475f-b8ef-1b359341b3e2","system_id":"levelo_inurba_marseille","lat":43.2931,"lon":5.37464,"is_reserved":false,"is_disabled":false,"rental_uris":{"android":"levelo://app?vid=759323b3-bcb9-475f-b8ef-1b359341b3e2","ios":"levelo://app?vid=759323b3-bcb9-475f-b8ef-1b359341b3e2"},"vehicle_type_id":"4","last_reported":1686949536,"current_range_meters":0,"station_id":"ce4bgi12rcd13ifvqb70","pricing_plan_id":"free"},{"bike_id":"edd27ecf-5e8a-44a0-82e6-021137b2b9de","system_id":"levelo_inurba_marseille","lat":43.293,"lon":5.35678,"is_reserved":false,"is_disabled":false,"rental_uris":{"android":"levelo://app?vid=edd27ecf-5e8a-44a0-82e6-021137b2b9de","ios":"levelo://app?vid=edd27ecf-5e8a-44a0-82e6-021137b2b9de"},"vehicle_type_id":"4","last_reported":1686949536,"current_range_meters":4400,"station_id":"","pricing_plan_id":"free"},{"bike_id":"a006463d-b0e8-4d22-8cca-22a0943a5902","system_id":"levelo_inurba_marseille","lat":43.291994,"lon":5.357886,"is_reserved":false,"is_disabled":false,"rental_uris":{"android":"levelo://app?vid=a006463d-b0e8-4d22-8cca-22a0943a5902","ios":"levelo://app?vid=a006463d-b0e8-4d22-8cca-22a0943a5902"},"vehicle_type_id":"4","last_reported":1686949536,"current_range_meters":9600,"station_id":"ce4bhb12rcd13ifvqel0","pricing_plan_id":"free"},{"bike_id":"eec9743f-fce6-4a6f-bb45-5a4a7d109958","system_id":"levelo_inurba_marseille","lat":43.309038,"lon":5.396546,"is_reserved":false,"is_disabled":false,"rental_uris":{"android":"levelo://app?vid=eec9743f-fce6-4a6f-bb45-5a4a7d109958","ios":"levelo://app?vid=eec9743f-fce6-4a6f-bb45-5a4a7d109958"},"vehicle_type_id":"4","last_reported":1686949536,"current_range_meters":2400,"station_id":"ce4bh012rcd13ifvqcv0","pricing_plan_id":"free"},{"bike_id":"a599d736-91d5-4137-981e-54cbfaa30792","system_id":"levelo_inurba_marseille","lat":43.309038,"lon":5.396546,"is_reserved":false,"is_disabled":false,"rental_uris":{"android":"levelo://app?vid=a599d736-91d5-4137-981e-54cbfaa30792","ios":"levelo://app?vid=a599d736-91d5-4137-981e-54cbfaa30792"},"vehicle_type_id":"4","last_reported":1686949536,"current_range_meters":0,"station_id":"ce4bh012rcd13ifvqcv0","pricing_plan_id":"free"},{"bike_id":"130dcd6f-9271-49e5-afc3-8d33cf5cdb78","system_id":"levelo_inurba_marseille","lat":43.309038,"lon":5.396546,"is_reserved":false,"is_disabled":false,"rental_uris":{"android":"levelo://app?vid=130dcd6f-9271-49e5-afc3-8d33cf5cdb78","ios":"levelo://app?vid=130dcd6f-9271-49e5-afc3-8d33cf5cdb78"},"vehicle_type_id":"4","last_reported":1686949536,"current_range_meters":8800,"station_id":"ce4bh012rcd13ifvqcv0","pricing_plan_id":"free"},{"bike_id":"e8f2e7c2-7158-4644-b639-7fae6a41ad14","system_id":"levelo_inurba_marseille","lat":43.294162,"lon":5.386292,"is_reserved":false,"is_disabled":false,"rental_uris":{"android":"levelo://app?vid=e8f2e7c2-7158-4644-b639-7fae6a41ad14","ios":"levelo://app?vid=e8f2e7c2-7158-4644-b639-7fae6a41ad14"},"vehicle_type_id":"4","last_reported":1686949536,"current_range_meters":0,"station_id":"ce4bh2h2rcd13ifvqdh0","pricing_plan_id":"free"},{"bike_id":"d8fa76e8-69ea-4286-bd3a-0135edfb363e","system_id":"levelo_inurba_marseille","lat":43.3298,"lon":5.38889,"is_reserved":false,"is_disabled":false,"rental_uris":{"android":"levelo://app?vid=d8fa76e8-69ea-4286-bd3a-0135edfb363e","ios":"levelo://app?vid=d8fa76e8-69ea-4286-bd3a-0135edfb363e"},"vehicle_type_id":"4","last_reported":1686949536,"current_range_meters":29600,"station_id":"","pricing_plan_id":"free"},{"bike_id":"38eb09af-7166-42b9-865e-84246929498f","system_id":"levelo_inurba_marseille","lat":43.29267,"lon":5.38495,"is_reserved":false,"is_disabled":false,"rental_uris":{"android":"levelo://app?vid=38eb09af-7166-42b9-865e-84246929498f","ios":"levelo://app?vid=38eb09af-7166-42b9-865e-84246929498f"},"vehicle_type_id":"4","last_reported":1686949536,"current_range_meters":31600,"station_id":"","pricing_plan_id":"free"},{"bike_id":"efd9ad73-20e4-48a8-9273-d79e81729f94","system_id":"levelo_inurba_marseille","lat":43.33044,"lon":5.3892,"is_reserved":false,"is_disabled":false,"rental_uris":{"android":"levelo://app?vid=efd9ad73-20e4-48a8-9273-d79e81729f94","ios":"levelo://app?vid=efd9ad73-20e4-48a8-9273-d79e81729f94"},"vehicle_type_id":"4","last_reported":1686949536,"current_range_meters":3200,"station_id":"ce4bhr92rcd13ifvqhrg","pricing_plan_id":"free"},{"bike_id":"74c2d00a-8cf6-45f0-a4e2-9ea7d1d1546e","system_id":"levelo_inurba_marseille","lat":43.289743,"lon":5.378304,"is_reserved":false,"is_disabled":false,"rental_uris":{"android":"levelo://app?vid=74c2d00a-8cf6-45f0-a4e2-9ea7d1d1546e","ios":"levelo://app?vid=74c2d00a-8cf6-45f0-a4e2-9ea7d1d1546e"},"vehicle_type_id":"4","last_reported":1686949536,"current_range_meters":400,"station_id":"ce4bh9p2rcd13ifvqed0","pricing_plan_id":"free"},{"bike_id":"c0fb8083-e02d-4dec-b1b9-fa095e6c5b75","system_id":"levelo_inurba_marseille","lat":43.337396,"lon":5.374526,"is_reserved":false,"is_disabled":false,"rental_uris":{"android":"levelo://app?vid=c0fb8083-e02d-4dec-b1b9-fa095e6c5b75","ios":"levelo://app?vid=c0fb8083-e02d-4dec-b1b9-fa095e6c5b75"},"vehicle_type_id":"4","last_reported":1686949536,"current_range_meters":0,"station_id":"ce4bhp92rcd13ifvqhag","pricing_plan_id":"free"},{"bike_id":"8fa40bcb-39c5-4837-99d4-194f1e67dba5","system_id":"levelo_inurba_marseille","lat":43.30642,"lon":5.401031,"is_reserved":false,"is_disabled":false,"rental_uris":{"android":"levelo://app?vid=8fa40bcb-39c5-4837-99d4-194f1e67dba5","ios":"levelo://app?vid=8fa40bcb-39c5-4837-99d4-194f1e67dba5"},"vehicle_type_id":"4","last_reported":1686949536,"current_range_meters":8000,"station_id":"ce4bh112rcd13ifvqda0","pricing_plan_id":"free"},{"bike_id":"d5e6bd0f-c204-4df0-a839-e4ec2e2e56d8","system_id":"levelo_inurba_marseille","lat":43.309371,"lon":5.401449,"is_reserved":false,"is_disabled":false,"rental_uris":{"android":"levelo://app?vid=d5e6bd0f-c204-4df0-a839-e4ec2e2e56d8","ios":"levelo://app?vid=d5e6bd0f-c204-4df0-a839-e4ec2e2e56d8"},"vehicle_type_id":"4","last_reported":1686949536,"current_range_meters":26800,"station_id":"ce4bgvp2rcd13ifvqct0","pricing_plan_id":"free"},{"bike_id":"59e19c08-013e-42cb-b8cf-7722895e8b82","system_id":"levelo_inurba_marseille","lat":43.30642,"lon":5.401031,"is_reserved":false,"is_disabled":false,"rental_uris":{"android":"levelo://app?vid=59e19c08-013e-42cb-b8cf-7722895e8b82","ios":"levelo://app?vid=59e19c08-013e-42cb-b8cf-7722895e8b82"},"vehicle_type_id":"4","last_reported":1686949536,"current_range_meters":22000,"station_id":"ce4bh112rcd13ifvqda0","pricing_plan_id":"free"},{"bike_id":"43d0f1aa-766d-4272-a1ec-0a079ae79e08","system_id":"levelo_inurba_marseille","lat":43.30649,"lon":5.40103,"is_reserved":false,"is_disabled":false,"rental_uris":{"android":"levelo://app?vid=43d0f1aa-766d-4272-a1ec-0a079ae79e08","ios":"levelo://app?vid=43d0f1aa-766d-4272-a1ec-0a079ae79e08"},"vehicle_type_id":"4","last_reported":1686949536,"current_range_meters":19200,"station_id":"ce4bh112rcd13ifvqda0","pricing_plan_id":"free"},{"bike_id":"e81869eb-0b4c-4318-ab4f-96b6ea0d45f1","system_id":"levelo_inurba_marseille","lat":43.30135,"lon":5.39865,"is_reserved":false,"is_disabled":false,"rental_uris":{"android":"levelo://app?vid=e81869eb-0b4c-4318-ab4f-96b6ea0d45f1","ios":"levelo://app?vid=e81869eb-0b4c-4318-ab4f-96b6ea0d45f1"},"vehicle_type_id":"4","last_reported":1686949536,"current_range_meters":17200,"station_id":"","pricing_plan_id":"free"},{"bike_id":"b5e704ee-ea0d-4102-9419-838d388cad39","system_id":"levelo_inurba_marseille","lat":43.29537,"lon":5.39409,"is_reserved":false,"is_disabled":false,"rental_uris":{"android":"levelo://app?vid=b5e704ee-ea0d-4102-9419-838d388cad39","ios":"levelo://app?vid=b5e704ee-ea0d-4102-9419-838d388cad39"},"vehicle_type_id":"4","last_reported":1686949536,"current_range_meters":18800,"station_id":"ce4bh292rcd13ifvqdf0","pricing_plan_id":"free"},{"bike_id":"80ef62d5-89e0-4e18-8f88-0f9c97d89cb6","system_id":"levelo_inurba_marseille","lat":43.29522,"lon":5.39407,"is_reserved":false,"is_disabled":false,"rental_uris":{"android":"levelo://app?vid=80ef62d5-89e0-4e18-8f88-0f9c97d89cb6","ios":"levelo://app?vid=80ef62d5-89e0-4e18-8f88-0f9c97d89cb6"},"vehicle_type_id":"4","last_reported":1686949536,"current_range_meters":13200,"station_id":"","pricing_plan_id":"free"},{"bike_id":"a7bc0bd5-84bf-4ddf-9586-17eea4f31e91","system_id":"levelo_inurba_marseille","lat":43.295194,"lon":5.39397,"is_reserved":false,"is_disabled":false,"rental_uris":{"android":"levelo://app?vid=a7bc0bd5-84bf-4ddf-9586-17eea4f31e91","ios":"levelo://app?vid=a7bc0bd5-84bf-4ddf-9586-17eea4f31e91"},"vehicle_type_id":"4","last_reported":1686949536,"current_range_meters":12400,"station_id":"ce4bh292rcd13ifvqdf0","pricing_plan_id":"free"},{"bike_id":"387be765-4d8a-4d6b-95da-6f6e3159c8cd","system_id":"levelo_inurba_marseille","lat":43.302759,"lon":5.400793,"is_reserved":false,"is_disabled":false,"rental_uris":{"android":"levelo://app?vid=387be765-4d8a-4d6b-95da-6f6e3159c8cd","ios":"levelo://app?vid=387be765-4d8a-4d6b-95da-6f6e3159c8cd"},"vehicle_type_id":"4","last_reported":1686949536,"current_range_meters":18400,"station_id":"ce4bgvh2rcd13ifvqcs0","pricing_plan_id":"free"},{"bike_id":"5ca1bb72-5270-4e91-bbc3-02f86f7c1739","system_id":"levelo_inurba_marseille","lat":43.290345,"lon":5.38646,"is_reserved":false,"is_disabled":false,"rental_uris":{"android":"levelo://app?vid=5ca1bb72-5270-4e91-bbc3-02f86f7c1739","ios":"levelo://app?vid=5ca1bb72-5270-4e91-bbc3-02f86f7c1739"},"vehicle_type_id":"4","last_reported":1686949536,"current_range_meters":18400,"station_id":"ce4bh4p2rcd13ifvqe0g","pricing_plan_id":"free"},{"bike_id":"ed8eb08e-965e-419c-8bb0-cde95fb0f3ef","system_id":"levelo_inurba_marseille","lat":43.290345,"lon":5.38646,"is_reserved":false,"is_disabled":false,"rental_uris":{"android":"levelo://app?vid=ed8eb08e-965e-419c-8bb0-cde95fb0f3ef","ios":"levelo://app?vid=ed8eb08e-965e-419c-8bb0-cde95fb0f3ef"},"vehicle_type_id":"4","last_reported":1686949536,"current_range_meters":2000,"station_id":"ce4bh4p2rcd13ifvqe0g","pricing_plan_id":"free"},{"bike_id":"59feefab-b009-48ee-a27c-625e3d0f3000","system_id":"levelo_inurba_marseille","lat":43.287184,"lon":5.37937,"is_reserved":false,"is_disabled":false,"rental_uris":{"android":"levelo://app?vid=59feefab-b009-48ee-a27c-625e3d0f3000","ios":"levelo://app?vid=59feefab-b009-48ee-a27c-625e3d0f3000"},"vehicle_type_id":"4","last_reported":1686949536,"current_range_meters":12400,"station_id":"ce4bh9p2rcd13ifvqec0","pricing_plan_id":"free"},{"bike_id":"b0dba032-03a3-4000-98cd-f647f9584167","system_id":"levelo_inurba_marseille","lat":43.316517,"lon":5.404375,"is_reserved":false,"is_disabled":false,"rental_uris":{"android":"levelo://app?vid=b0dba032-03a3-4000-98cd-f647f9584167","ios":"levelo://app?vid=b0dba032-03a3-4000-98cd-f647f9584167"},"vehicle_type_id":"4","last_reported":1686949536,"current_range_meters":2000,"station_id":"ce4bh012rcd13ifvqd00","pricing_plan_id":"free"},{"bike_id":"cef5cdce-dc4b-4d3a-8808-65cdfca7f04d","system_id":"levelo_inurba_marseille","lat":43.28912,"lon":5.38752,"is_reserved":false,"is_disabled":false,"rental_uris":{"android":"levelo://app?vid=cef5cdce-dc4b-4d3a-8808-65cdfca7f04d","ios":"levelo://app?vid=cef5cdce-dc4b-4d3a-8808-65cdfca7f04d"},"vehicle_type_id":"4","last_reported":1686949536,"current_range_meters":0,"station_id":"","pricing_plan_id":"free"},{"bike_id":"881cce5a-f957-433d-b040-4e6f7ef207b0","system_id":"levelo_inurba_marseille","lat":43.28416,"lon":5.3752,"is_reserved":false,"is_disabled":false,"rental_uris":{"android":"levelo://app?vid=881cce5a-f957-433d-b040-4e6f7ef207b0","ios":"levelo://app?vid=881cce5a-f957-433d-b040-4e6f7ef207b0"},"vehicle_type_id":"4","last_reported":1686949536,"current_range_meters":0,"station_id":"","pricing_plan_id":"free"},{"bike_id":"c828a357-ef0b-4069-bf6d-ac4357d90db5","system_id":"levelo_inurba_marseille","lat":43.295713,"lon":5.399639,"is_reserved":false,"is_disabled":false,"rental_uris":{"android":"levelo://app?vid=c828a357-ef0b-4069-bf6d-ac4357d90db5","ios":"levelo://app?vid=c828a357-ef0b-4069-bf6d-ac4357d90db5"},"vehicle_type_id":"4","last_reported":1686949536,"current_range_meters":22800,"station_id":"ce4bh312rcd13ifvqdj0","pricing_plan_id":"free"},{"bike_id":"51494e56-156f-4279-babe-926933f9a031","system_id":"levelo_inurba_marseille","lat":43.286595,"lon":5.386795,"is_reserved":false,"is_disabled":false,"rental_uris":{"android":"levelo://app?vid=51494e56-156f-4279-babe-926933f9a031","ios":"levelo://app?vid=51494e56-156f-4279-babe-926933f9a031"},"vehicle_type_id":"4","last_reported":1686949536,"current_range_meters":12800,"station_id":"ce4bh492rcd13ifvqdug","pricing_plan_id":"free"},{"bike_id":"9fb84332-a076-421f-875c-5e1e3099f138","system_id":"levelo_inurba_marseille","lat":43.286595,"lon":5.386795,"is_reserved":false,"is_disabled":false,"rental_uris":{"android":"levelo://app?vid=9fb84332-a076-421f-875c-5e1e3099f138","ios":"levelo://app?vid=9fb84332-a076-421f-875c-5e1e3099f138"},"vehicle_type_id":"4","last_reported":1686949536,"current_range_meters":30400,"station_id":"ce4bh492rcd13ifvqdug","pricing_plan_id":"free"},{"bike_id":"16e5fedd-6e86-436a-a0a2-72c7cd60a6ea","system_id":"levelo_inurba_marseille","lat":43.323464,"lon":5.406297,"is_reserved":false,"is_disabled":false,"rental_uris":{"android":"levelo://app?vid=16e5fedd-6e86-436a-a0a2-72c7cd60a6ea","ios":"levelo://app?vid=16e5fedd-6e86-436a-a0a2-72c7cd60a6ea"},"vehicle_type_id":"4","last_reported":1686949536,"current_range_meters":31200,"station_id":"ce4bhq92rcd13ifvqhjg","pricing_plan_id":"free"},{"bike_id":"1e7406fe-d3e3-4e99-95e0-9e84b9e69524","system_id":"levelo_inurba_marseille","lat":43.323464,"lon":5.406297,"is_reserved":false,"is_disabled":false,"rental_uris":{"android":"levelo://app?vid=1e7406fe-d3e3-4e99-95e0-9e84b9e69524","ios":"levelo://app?vid=1e7406fe-d3e3-4e99-95e0-9e84b9e69524"},"vehicle_type_id":"4","last_reported":1686949536,"current_range_meters":12400,"station_id":"ce4bhq92rcd13ifvqhjg","pricing_plan_id":"free"},{"bike_id":"00b4d942-d645-4a17-a320-9c02b5ecca68","system_id":"levelo_inurba_marseille","lat":43.288501,"lon":5.393087,"is_reserved":false,"is_disabled":false,"rental_uris":{"android":"levelo://app?vid=00b4d942-d645-4a17-a320-9c02b5ecca68","ios":"levelo://app?vid=00b4d942-d645-4a17-a320-9c02b5ecca68"},"vehicle_type_id":"4","last_reported":1686949536,"current_range_meters":28400,"station_id":"ce4bh2p2rcd13ifvqdi0","pricing_plan_id":"free"},{"bike_id":"e2c3a0aa-7f22-492a-a04d-15e355466059","system_id":"levelo_inurba_marseille","lat":43.32879,"lon":5.40534,"is_reserved":false,"is_disabled":false,"rental_uris":{"android":"levelo://app?vid=e2c3a0aa-7f22-492a-a04d-15e355466059","ios":"levelo://app?vid=e2c3a0aa-7f22-492a-a04d-15e355466059"},"vehicle_type_id":"4","last_reported":1686949536,"current_range_meters":11600,"station_id":"","pricing_plan_id":"free"},{"bike_id":"b2b1df9c-a90c-48f3-a52f-e8cdebe826c6","system_id":"levelo_inurba_marseille","lat":43.283502,"lon":5.386471,"is_reserved":false,"is_disabled":false,"rental_uris":{"android":"levelo://app?vid=b2b1df9c-a90c-48f3-a52f-e8cdebe826c6","ios":"levelo://app?vid=b2b1df9c-a90c-48f3-a52f-e8cdebe826c6"},"vehicle_type_id":"4","last_reported":1686949536,"current_range_meters":25600,"station_id":"ce4bh492rcd13ifvqdvg","pricing_plan_id":"free"},{"bike_id":"d220f8d8-e572-4f52-a127-b3ec63862db1","system_id":"levelo_inurba_marseille","lat":43.282744,"lon":5.350533,"is_reserved":false,"is_disabled":false,"rental_uris":{"android":"levelo://app?vid=d220f8d8-e572-4f52-a127-b3ec63862db1","ios":"levelo://app?vid=d220f8d8-e572-4f52-a127-b3ec63862db1"},"vehicle_type_id":"4","last_reported":1686949536,"current_range_meters":24000,"station_id":"ce4bhbp2rcd13ifvqerg","pricing_plan_id":"free"},{"bike_id":"a0422df3-c931-4e36-8510-92f8ff7870df","system_id":"levelo_inurba_marseille","lat":43.280382,"lon":5.369291,"is_reserved":false,"is_disabled":false,"rental_uris":{"android":"levelo://app?vid=a0422df3-c931-4e36-8510-92f8ff7870df","ios":"levelo://app?vid=a0422df3-c931-4e36-8510-92f8ff7870df"},"vehicle_type_id":"4","last_reported":1686949536,"current_range_meters":5600,"station_id":"ce4bha12rcd13ifvqef0","pricing_plan_id":"free"},{"bike_id":"f2cc7047-b9a7-46b8-a7ab-7405466122ec","system_id":"levelo_inurba_marseille","lat":43.28104,"lon":5.37836,"is_reserved":false,"is_disabled":false,"rental_uris":{"android":"levelo://app?vid=f2cc7047-b9a7-46b8-a7ab-7405466122ec","ios":"levelo://app?vid=f2cc7047-b9a7-46b8-a7ab-7405466122ec"},"vehicle_type_id":"4","last_reported":1686949536,"current_range_meters":6800,"station_id":"ce4bha12rcd13ifvqee0","pricing_plan_id":"free"},{"bike_id":"9dbae541-f064-488b-a98b-fd7ceb77cc79","system_id":"levelo_inurba_marseille","lat":43.281044,"lon":5.378308,"is_reserved":false,"is_disabled":false,"rental_uris":{"android":"levelo://app?vid=9dbae541-f064-488b-a98b-fd7ceb77cc79","ios":"levelo://app?vid=9dbae541-f064-488b-a98b-fd7ceb77cc79"},"vehicle_type_id":"4","last_reported":1686949536,"current_range_meters":16000,"station_id":"ce4bha12rcd13ifvqee0","pricing_plan_id":"free"},{"bike_id":"13619278-1640-46f8-b139-26c25727e077","system_id":"levelo_inurba_marseille","lat":43.28118,"lon":5.38201,"is_reserved":false,"is_disabled":false,"rental_uris":{"android":"levelo://app?vid=13619278-1640-46f8-b139-26c25727e077","ios":"levelo://app?vid=13619278-1640-46f8-b139-26c25727e077"},"vehicle_type_id":"4","last_reported":1686949536,"current_range_meters":0,"station_id":"","pricing_plan_id":"free"},{"bike_id":"7a04a0f7-b5ee-4baf-90c0-1b24512321f6","system_id":"levelo_inurba_marseille","lat":43.28434,"lon":5.39194,"is_reserved":false,"is_disabled":false,"rental_uris":{"android":"levelo://app?vid=7a04a0f7-b5ee-4baf-90c0-1b24512321f6","ios":"levelo://app?vid=7a04a0f7-b5ee-4baf-90c0-1b24512321f6"},"vehicle_type_id":"4","last_reported":1686949536,"current_range_meters":1200,"station_id":"ce4bhoh2rcd13ifvqh5g","pricing_plan_id":"free"},{"bike_id":"337243b7-4009-4783-8f47-4c0321e1798d","system_id":"levelo_inurba_marseille","lat":43.304188,"lon":5.412904,"is_reserved":false,"is_disabled":false,"rental_uris":{"android":"levelo://app?vid=337243b7-4009-4783-8f47-4c0321e1798d","ios":"levelo://app?vid=337243b7-4009-4783-8f47-4c0321e1798d"},"vehicle_type_id":"4","last_reported":1686949536,"current_range_meters":5200,"station_id":"ce4bhop2rcd13ifvqh8g","pricing_plan_id":"free"},{"bike_id":"f824fc8e-b47a-4b55-aa01-ca3a0b403a1b","system_id":"levelo_inurba_marseille","lat":43.304188,"lon":5.412904,"is_reserved":false,"is_disabled":false,"rental_uris":{"android":"levelo://app?vid=f824fc8e-b47a-4b55-aa01-ca3a0b403a1b","ios":"levelo://app?vid=f824fc8e-b47a-4b55-aa01-ca3a0b403a1b"},"vehicle_type_id":"4","last_reported":1686949536,"current_range_meters":3200,"station_id":"ce4bhop2rcd13ifvqh8g","pricing_plan_id":"free"},{"bike_id":"a7e13de3-02ea-4981-af89-3d1a1eedfaa3","system_id":"levelo_inurba_marseille","lat":43.287154,"lon":5.399979,"is_reserved":false,"is_disabled":false,"rental_uris":{"android":"levelo://app?vid=a7e13de3-02ea-4981-af89-3d1a1eedfaa3","ios":"levelo://app?vid=a7e13de3-02ea-4981-af89-3d1a1eedfaa3"},"vehicle_type_id":"4","last_reported":1686949536,"current_range_meters":18400,"station_id":"ce4bho92rcd13ifvqh3g","pricing_plan_id":"free"},{"bike_id":"c76aadc7-fc94-4100-9612-7029c9a96191","system_id":"levelo_inurba_marseille","lat":43.287154,"lon":5.399979,"is_reserved":false,"is_disabled":false,"rental_uris":{"android":"levelo://app?vid=c76aadc7-fc94-4100-9612-7029c9a96191","ios":"levelo://app?vid=c76aadc7-fc94-4100-9612-7029c9a96191"},"vehicle_type_id":"4","last_reported":1686949536,"current_range_meters":16800,"station_id":"ce4bho92rcd13ifvqh3g","pricing_plan_id":"free"},{"bike_id":"f4284412-d244-4b59-9ba2-f09fd4dec283","system_id":"levelo_inurba_marseille","lat":43.279742,"lon":5.38744,"is_reserved":false,"is_disabled":false,"rental_uris":{"android":"levelo://app?vid=f4284412-d244-4b59-9ba2-f09fd4dec283","ios":"levelo://app?vid=f4284412-d244-4b59-9ba2-f09fd4dec283"},"vehicle_type_id":"4","last_reported":1686949536,"current_range_meters":1600,"station_id":"ce4bhg12rcd13ifvqf80","pricing_plan_id":"free"},{"bike_id":"93fda244-ad3a-4eac-8648-6ad60cca4c09","system_id":"levelo_inurba_marseille","lat":43.279742,"lon":5.38744,"is_reserved":false,"is_disabled":false,"rental_uris":{"android":"levelo://app?vid=93fda244-ad3a-4eac-8648-6ad60cca4c09","ios":"levelo://app?vid=93fda244-ad3a-4eac-8648-6ad60cca4c09"},"vehicle_type_id":"4","last_reported":1686949536,"current_range_meters":2000,"station_id":"ce4bhg12rcd13ifvqf80","pricing_plan_id":"free"},{"bike_id":"3f5ac565-c8a5-42dd-b980-eeb59bac77e9","system_id":"levelo_inurba_marseille","lat":43.27962,"lon":5.38735,"is_reserved":false,"is_disabled":false,"rental_uris":{"android":"levelo://app?vid=3f5ac565-c8a5-42dd-b980-eeb59bac77e9","ios":"levelo://app?vid=3f5ac565-c8a5-42dd-b980-eeb59bac77e9"},"vehicle_type_id":"4","last_reported":1686949536,"current_range_meters":9200,"station_id":"ce4bhg12rcd13ifvqf80","pricing_plan_id":"free"},{"bike_id":"ff645af7-8761-44d6-9eb0-aba80eed23b5","system_id":"levelo_inurba_marseille","lat":43.325233,"lon":5.414318,"is_reserved":false,"is_disabled":false,"rental_uris":{"android":"levelo://app?vid=ff645af7-8761-44d6-9eb0-aba80eed23b5","ios":"levelo://app?vid=ff645af7-8761-44d6-9eb0-aba80eed23b5"},"vehicle_type_id":"4","last_reported":1686949536,"current_range_meters":23200,"station_id":"ce4bhq12rcd13ifvqhhg","pricing_plan_id":"free"},{"bike_id":"6d1bbe17-ca62-4b09-9155-47eff896e3e5","system_id":"levelo_inurba_marseille","lat":43.28079,"lon":5.3966,"is_reserved":false,"is_disabled":false,"rental_uris":{"android":"levelo://app?vid=6d1bbe17-ca62-4b09-9155-47eff896e3e5","ios":"levelo://app?vid=6d1bbe17-ca62-4b09-9155-47eff896e3e5"},"vehicle_type_id":"4","last_reported":1686949536,"current_range_meters":24000,"station_id":"ce4bho12rcd13ifvqh2g","pricing_plan_id":"free"},{"bike_id":"f7d9f712-bbd9-495f-a8cd-04412595407a","system_id":"levelo_inurba_marseille","lat":43.3035,"lon":5.41879,"is_reserved":false,"is_disabled":false,"rental_uris":{"android":"levelo://app?vid=f7d9f712-bbd9-495f-a8cd-04412595407a","ios":"levelo://app?vid=f7d9f712-bbd9-495f-a8cd-04412595407a"},"vehicle_type_id":"4","last_reported":1686949536,"current_range_meters":24000,"station_id":"","pricing_plan_id":"free"},{"bike_id":"fddded41-1f18-46e6-9307-6083692dee9b","system_id":"levelo_inurba_marseille","lat":43.33612,"lon":5.410321,"is_reserved":false,"is_disabled":false,"rental_uris":{"android":"levelo://app?vid=fddded41-1f18-46e6-9307-6083692dee9b","ios":"levelo://app?vid=fddded41-1f18-46e6-9307-6083692dee9b"},"vehicle_type_id":"4","last_reported":1686949536,"current_range_meters":4400,"station_id":"ce4bhqh2rcd13ifvqhmg","pricing_plan_id":"free"},{"bike_id":"8053fe6a-893c-43a2-a961-687f372fa40a","system_id":"levelo_inurba_marseille","lat":43.278401,"lon":5.392152,"is_reserved":false,"is_disabled":false,"rental_uris":{"android":"levelo://app?vid=8053fe6a-893c-43a2-a961-687f372fa40a","ios":"levelo://app?vid=8053fe6a-893c-43a2-a961-687f372fa40a"},"vehicle_type_id":"4","last_reported":1686949536,"current_range_meters":31200,"station_id":"ce4bhjp2rcd13ifvqga0","pricing_plan_id":"free"},{"bike_id":"381c6f25-c7b9-447c-aec6-a5592aac017e","system_id":"levelo_inurba_marseille","lat":43.278399,"lon":5.392139,"is_reserved":false,"is_disabled":false,"rental_uris":{"android":"levelo://app?vid=381c6f25-c7b9-447c-aec6-a5592aac017e","ios":"levelo://app?vid=381c6f25-c7b9-447c-aec6-a5592aac017e"},"vehicle_type_id":"4","last_reported":1686949536,"current_range_meters":30400,"station_id":"ce4bhjp2rcd13ifvqga0","pricing_plan_id":"free"},{"bike_id":"c9a58cb1-73dd-4294-8881-af8c21e92dd4","system_id":"levelo_inurba_marseille","lat":43.275625,"lon":5.384392,"is_reserved":false,"is_disabled":false,"rental_uris":{"android":"levelo://app?vid=c9a58cb1-73dd-4294-8881-af8c21e92dd4","ios":"levelo://app?vid=c9a58cb1-73dd-4294-8881-af8c21e92dd4"},"vehicle_type_id":"4","last_reported":1686949536,"current_range_meters":28000,"station_id":"ce4bhh92rcd13ifvqfi0","pricing_plan_id":"free"},{"bike_id":"4925872a-8876-4fab-add7-ee78e4afe9c7","system_id":"levelo_inurba_marseille","lat":43.275625,"lon":5.384392,"is_reserved":false,"is_disabled":false,"rental_uris":{"android":"levelo://app?vid=4925872a-8876-4fab-add7-ee78e4afe9c7","ios":"levelo://app?vid=4925872a-8876-4fab-add7-ee78e4afe9c7"},"vehicle_type_id":"4","last_reported":1686949536,"current_range_meters":3600,"station_id":"ce4bhh92rcd13ifvqfi0","pricing_plan_id":"free"},{"bike_id":"2263c6d7-b228-48c7-92b5-a8d61ec6c431","system_id":"levelo_inurba_marseille","lat":43.317121,"lon":5.423936,"is_reserved":false,"is_disabled":false,"rental_uris":{"android":"levelo://app?vid=2263c6d7-b228-48c7-92b5-a8d61ec6c431","ios":"levelo://app?vid=2263c6d7-b228-48c7-92b5-a8d61ec6c431"},"vehicle_type_id":"4","last_reported":1686949536,"current_range_meters":6800,"station_id":"ce4bhp92rcd13ifvqhbg","pricing_plan_id":"free"},{"bike_id":"f82c4e0b-ce86-4de4-962b-f266d6ba506e","system_id":"levelo_inurba_marseille","lat":43.273125,"lon":5.390731,"is_reserved":false,"is_disabled":false,"rental_uris":{"android":"levelo://app?vid=f82c4e0b-ce86-4de4-962b-f266d6ba506e","ios":"levelo://app?vid=f82c4e0b-ce86-4de4-962b-f266d6ba506e"},"vehicle_type_id":"4","last_reported":1686949536,"current_range_meters":26400,"station_id":"ce4bhgp2rcd13ifvqfe0","pricing_plan_id":"free"},{"bike_id":"d3b6aa1a-7b82-4b3f-8931-04f2498866ee","system_id":"levelo_inurba_marseille","lat":43.273129,"lon":5.390725,"is_reserved":false,"is_disabled":false,"rental_uris":{"android":"levelo://app?vid=d3b6aa1a-7b82-4b3f-8931-04f2498866ee","ios":"levelo://app?vid=d3b6aa1a-7b82-4b3f-8931-04f2498866ee"},"vehicle_type_id":"4","last_reported":1686949536,"current_range_meters":6000,"station_id":"ce4bhgp2rcd13ifvqfe0","pricing_plan_id":"free"},{"bike_id":"05a9fda1-b0da-47f7-a42b-db84a66eda7f","system_id":"levelo_inurba_marseille","lat":43.272116,"lon":5.391747,"is_reserved":false,"is_disabled":false,"rental_uris":{"android":"levelo://app?vid=05a9fda1-b0da-47f7-a42b-db84a66eda7f","ios":"levelo://app?vid=05a9fda1-b0da-47f7-a42b-db84a66eda7f"},"vehicle_type_id":"4","last_reported":1686949536,"current_range_meters":25600,"station_id":"ce4bhhp2rcd13ifvqfm0","pricing_plan_id":"free"},{"bike_id":"bc47fd2f-a6ad-4f56-87ee-017cc9d14968","system_id":"levelo_inurba_marseille","lat":43.272118,"lon":5.391758,"is_reserved":false,"is_disabled":false,"rental_uris":{"android":"levelo://app?vid=bc47fd2f-a6ad-4f56-87ee-017cc9d14968","ios":"levelo://app?vid=bc47fd2f-a6ad-4f56-87ee-017cc9d14968"},"vehicle_type_id":"4","last_reported":1686949536,"current_range_meters":9200,"station_id":"ce4bhhp2rcd13ifvqfm0","pricing_plan_id":"free"},{"bike_id":"729a3cb8-7493-445a-8281-c6863ebefa5e","system_id":"levelo_inurba_marseille","lat":43.278128,"lon":5.407195,"is_reserved":false,"is_disabled":false,"rental_uris":{"android":"levelo://app?vid=729a3cb8-7493-445a-8281-c6863ebefa5e","ios":"levelo://app?vid=729a3cb8-7493-445a-8281-c6863ebefa5e"},"vehicle_type_id":"4","last_reported":1686949536,"current_range_meters":25200,"station_id":"ce4bhnh2rcd13ifvqgtg","pricing_plan_id":"free"},{"bike_id":"ea3d545c-5c93-4cfc-8baa-0fcbd4bedd4f","system_id":"levelo_inurba_marseille","lat":43.26937,"lon":5.38603,"is_reserved":false,"is_disabled":false,"rental_uris":{"android":"levelo://app?vid=ea3d545c-5c93-4cfc-8baa-0fcbd4bedd4f","ios":"levelo://app?vid=ea3d545c-5c93-4cfc-8baa-0fcbd4bedd4f"},"vehicle_type_id":"4","last_reported":1686949536,"current_range_meters":2000,"station_id":"","pricing_plan_id":"free"},{"bike_id":"08ef1fb7-7b5e-4fd7-84db-b6da78b62b54","system_id":"levelo_inurba_marseille","lat":43.26681,"lon":5.382694,"is_reserved":false,"is_disabled":false,"rental_uris":{"android":"levelo://app?vid=08ef1fb7-7b5e-4fd7-84db-b6da78b62b54","ios":"levelo://app?vid=08ef1fb7-7b5e-4fd7-84db-b6da78b62b54"},"vehicle_type_id":"4","last_reported":1686949536,"current_range_meters":0,"station_id":"ce4bhg92rcd13ifvqf90","pricing_plan_id":"free"},{"bike_id":"6275aaca-a354-407f-be44-df40f2969d44","system_id":"levelo_inurba_marseille","lat":43.26681,"lon":5.382694,"is_reserved":false,"is_disabled":false,"rental_uris":{"android":"levelo://app?vid=6275aaca-a354-407f-be44-df40f2969d44","ios":"levelo://app?vid=6275aaca-a354-407f-be44-df40f2969d44"},"vehicle_type_id":"4","last_reported":1686949536,"current_range_meters":32000,"station_id":"ce4bhg92rcd13ifvqf90","pricing_plan_id":"free"},{"bike_id":"cfba2fbe-9ed5-423f-b411-8d6c38451715","system_id":"levelo_inurba_marseille","lat":43.26681,"lon":5.382694,"is_reserved":false,"is_disabled":false,"rental_uris":{"android":"levelo://app?vid=cfba2fbe-9ed5-423f-b411-8d6c38451715","ios":"levelo://app?vid=cfba2fbe-9ed5-423f-b411-8d6c38451715"},"vehicle_type_id":"4","last_reported":1686949536,"current_range_meters":31200,"station_id":"ce4bhg92rcd13ifvqf90","pricing_plan_id":"free"},{"bike_id":"f9faa961-245b-46e7-90ec-88b1e3973349","system_id":"levelo_inurba_marseille","lat":43.26681,"lon":5.382694,"is_reserved":false,"is_disabled":false,"rental_uris":{"android":"levelo://app?vid=f9faa961-245b-46e7-90ec-88b1e3973349","ios":"levelo://app?vid=f9faa961-245b-46e7-90ec-88b1e3973349"},"vehicle_type_id":"4","last_reported":1686949536,"current_range_meters":26400,"station_id":"ce4bhg92rcd13ifvqf90","pricing_plan_id":"free"},{"bike_id":"204eebd6-1904-4ab1-93fc-f375b6e9f3c3","system_id":"levelo_inurba_marseille","lat":43.26681,"lon":5.382694,"is_reserved":false,"is_disabled":false,"rental_uris":{"android":"levelo://app?vid=204eebd6-1904-4ab1-93fc-f375b6e9f3c3","ios":"levelo://app?vid=204eebd6-1904-4ab1-93fc-f375b6e9f3c3"},"vehicle_type_id":"4","last_reported":1686949536,"current_range_meters":0,"station_id":"ce4bhg92rcd13ifvqf90","pricing_plan_id":"free"},{"bike_id":"389f7b04-7b13-4b27-8efe-380706882d36","system_id":"levelo_inurba_marseille","lat":43.26681,"lon":5.382694,"is_reserved":false,"is_disabled":false,"rental_uris":{"android":"levelo://app?vid=389f7b04-7b13-4b27-8efe-380706882d36","ios":"levelo://app?vid=389f7b04-7b13-4b27-8efe-380706882d36"},"vehicle_type_id":"4","last_reported":1686949536,"current_range_meters":0,"station_id":"ce4bhg92rcd13ifvqf90","pricing_plan_id":"free"},{"bike_id":"3c36f439-1a24-48f8-ab55-e1c693333192","system_id":"levelo_inurba_marseille","lat":43.26681,"lon":5.38268,"is_reserved":false,"is_disabled":false,"rental_uris":{"android":"levelo://app?vid=3c36f439-1a24-48f8-ab55-e1c693333192","ios":"levelo://app?vid=3c36f439-1a24-48f8-ab55-e1c693333192"},"vehicle_type_id":"4","last_reported":1686949536,"current_range_meters":800,"station_id":"ce4bhg92rcd13ifvqf90","pricing_plan_id":"free"},{"bike_id":"f99fd54c-4e12-4eee-8394-00b6c5a087ff","system_id":"levelo_inurba_marseille","lat":43.26681,"lon":5.382694,"is_reserved":false,"is_disabled":false,"rental_uris":{"android":"levelo://app?vid=f99fd54c-4e12-4eee-8394-00b6c5a087ff","ios":"levelo://app?vid=f99fd54c-4e12-4eee-8394-00b6c5a087ff"},"vehicle_type_id":"4","last_reported":1686949536,"current_range_meters":800,"station_id":"ce4bhg92rcd13ifvqf90","pricing_plan_id":"free"},{"bike_id":"3a1899ec-954d-4c88-81cb-89694f5fa295","system_id":"levelo_inurba_marseille","lat":43.26681,"lon":5.382694,"is_reserved":false,"is_disabled":false,"rental_uris":{"android":"levelo://app?vid=3a1899ec-954d-4c88-81cb-89694f5fa295","ios":"levelo://app?vid=3a1899ec-954d-4c88-81cb-89694f5fa295"},"vehicle_type_id":"4","last_reported":1686949536,"current_range_meters":0,"station_id":"ce4bhg92rcd13ifvqf90","pricing_plan_id":"free"},{"bike_id":"eb7a36c3-494a-40f9-b9be-63bd093a931a","system_id":"levelo_inurba_marseille","lat":43.26681,"lon":5.382694,"is_reserved":false,"is_disabled":false,"rental_uris":{"android":"levelo://app?vid=eb7a36c3-494a-40f9-b9be-63bd093a931a","ios":"levelo://app?vid=eb7a36c3-494a-40f9-b9be-63bd093a931a"},"vehicle_type_id":"4","last_reported":1686949536,"current_range_meters":0,"station_id":"ce4bhg92rcd13ifvqf90","pricing_plan_id":"free"},{"bike_id":"37b10c00-d9ae-418d-9ffe-8e7815afc661","system_id":"levelo_inurba_marseille","lat":43.26681,"lon":5.382694,"is_reserved":false,"is_disabled":false,"rental_uris":{"android":"levelo://app?vid=37b10c00-d9ae-418d-9ffe-8e7815afc661","ios":"levelo://app?vid=37b10c00-d9ae-418d-9ffe-8e7815afc661"},"vehicle_type_id":"4","last_reported":1686949536,"current_range_meters":11200,"station_id":"ce4bhg92rcd13ifvqf90","pricing_plan_id":"free"},{"bike_id":"81858f26-88c9-4408-b3fb-24f4c2b358d1","system_id":"levelo_inurba_marseille","lat":43.26681,"lon":5.382694,"is_reserved":false,"is_disabled":false,"rental_uris":{"android":"levelo://app?vid=81858f26-88c9-4408-b3fb-24f4c2b358d1","ios":"levelo://app?vid=81858f26-88c9-4408-b3fb-24f4c2b358d1"},"vehicle_type_id":"4","last_reported":1686949536,"current_range_meters":0,"station_id":"ce4bhg92rcd13ifvqf90","pricing_plan_id":"free"},{"bike_id":"0ffac27f-ccb5-4966-a6f4-845b0efa243e","system_id":"levelo_inurba_marseille","lat":43.2668,"lon":5.38274,"is_reserved":false,"is_disabled":false,"rental_uris":{"android":"levelo://app?vid=0ffac27f-ccb5-4966-a6f4-845b0efa243e","ios":"levelo://app?vid=0ffac27f-ccb5-4966-a6f4-845b0efa243e"},"vehicle_type_id":"4","last_reported":1686949536,"current_range_meters":10400,"station_id":"ce4bhg92rcd13ifvqf90","pricing_plan_id":"free"},{"bike_id":"bac8311f-df6e-4238-a48d-8802458ec24b","system_id":"levelo_inurba_marseille","lat":43.26681,"lon":5.382694,"is_reserved":false,"is_disabled":false,"rental_uris":{"android":"levelo://app?vid=bac8311f-df6e-4238-a48d-8802458ec24b","ios":"levelo://app?vid=bac8311f-df6e-4238-a48d-8802458ec24b"},"vehicle_type_id":"4","last_reported":1686949536,"current_range_meters":5200,"station_id":"ce4bhg92rcd13ifvqf90","pricing_plan_id":"free"},{"bike_id":"7a68e153-9dde-4036-89e2-a88db74712b1","system_id":"levelo_inurba_marseille","lat":43.26681,"lon":5.382694,"is_reserved":false,"is_disabled":false,"rental_uris":{"android":"levelo://app?vid=7a68e153-9dde-4036-89e2-a88db74712b1","ios":"levelo://app?vid=7a68e153-9dde-4036-89e2-a88db74712b1"},"vehicle_type_id":"4","last_reported":1686949536,"current_range_meters":10400,"station_id":"ce4bhg92rcd13ifvqf90","pricing_plan_id":"free"},{"bike_id":"45fd3b3e-60cc-485d-9e79-70c5523b4573","system_id":"levelo_inurba_marseille","lat":43.26681,"lon":5.382694,"is_reserved":false,"is_disabled":false,"rental_uris":{"android":"levelo://app?vid=45fd3b3e-60cc-485d-9e79-70c5523b4573","ios":"levelo://app?vid=45fd3b3e-60cc-485d-9e79-70c5523b4573"},"vehicle_type_id":"4","last_reported":1686949536,"current_range_meters":22800,"station_id":"ce4bhg92rcd13ifvqf90","pricing_plan_id":"free"},{"bike_id":"131412c0-90cc-45ab-bdac-a4f2b3a3bc1e","system_id":"levelo_inurba_marseille","lat":43.26681,"lon":5.382694,"is_reserved":false,"is_disabled":false,"rental_uris":{"android":"levelo://app?vid=131412c0-90cc-45ab-bdac-a4f2b3a3bc1e","ios":"levelo://app?vid=131412c0-90cc-45ab-bdac-a4f2b3a3bc1e"},"vehicle_type_id":"4","last_reported":1686949536,"current_range_meters":31600,"station_id":"ce4bhg92rcd13ifvqf90","pricing_plan_id":"free"},{"bike_id":"0b4e239d-4dc6-466a-848e-70ae3b1ff6a5","system_id":"levelo_inurba_marseille","lat":43.27996,"lon":5.416624,"is_reserved":false,"is_disabled":false,"rental_uris":{"android":"levelo://app?vid=0b4e239d-4dc6-466a-848e-70ae3b1ff6a5","ios":"levelo://app?vid=0b4e239d-4dc6-466a-848e-70ae3b1ff6a5"},"vehicle_type_id":"4","last_reported":1686949536,"current_range_meters":800,"station_id":"ce4bho12rcd13ifvqh1g","pricing_plan_id":"free"},{"bike_id":"a6069b6e-10b8-4ac5-b0d1-088dbe436208","system_id":"levelo_inurba_marseille","lat":43.267966,"lon":5.393976,"is_reserved":false,"is_disabled":false,"rental_uris":{"android":"levelo://app?vid=a6069b6e-10b8-4ac5-b0d1-088dbe436208","ios":"levelo://app?vid=a6069b6e-10b8-4ac5-b0d1-088dbe436208"},"vehicle_type_id":"4","last_reported":1686949536,"current_range_meters":0,"station_id":"ce4bhh12rcd13ifvqfg0","pricing_plan_id":"free"},{"bike_id":"3987290e-fd4b-4f2b-81c0-57fca98f9cde","system_id":"levelo_inurba_marseille","lat":43.267966,"lon":5.393976,"is_reserved":false,"is_disabled":false,"rental_uris":{"android":"levelo://app?vid=3987290e-fd4b-4f2b-81c0-57fca98f9cde","ios":"levelo://app?vid=3987290e-fd4b-4f2b-81c0-57fca98f9cde"},"vehicle_type_id":"4","last_reported":1686949536,"current_range_meters":31200,"station_id":"ce4bhh12rcd13ifvqfg0","pricing_plan_id":"free"},{"bike_id":"28531303-4372-4d97-8724-e9ba193a4f39","system_id":"levelo_inurba_marseille","lat":43.26198,"lon":5.37442,"is_reserved":false,"is_disabled":false,"rental_uris":{"android":"levelo://app?vid=28531303-4372-4d97-8724-e9ba193a4f39","ios":"levelo://app?vid=28531303-4372-4d97-8724-e9ba193a4f39"},"vehicle_type_id":"4","last_reported":1686949536,"current_range_meters":20000,"station_id":"ce4bhgp2rcd13ifvqfc0","pricing_plan_id":"free"},{"bike_id":"da435ee8-620d-461d-a1c6-31933af99e41","system_id":"levelo_inurba_marseille","lat":43.26194,"lon":5.37439,"is_reserved":false,"is_disabled":false,"rental_uris":{"android":"levelo://app?vid=da435ee8-620d-461d-a1c6-31933af99e41","ios":"levelo://app?vid=da435ee8-620d-461d-a1c6-31933af99e41"},"vehicle_type_id":"4","last_reported":1686949536,"current_range_meters":31200,"station_id":"ce4bhgp2rcd13ifvqfc0","pricing_plan_id":"free"},{"bike_id":"ecb467ef-28fb-4bda-8562-b4e0894c5071","system_id":"levelo_inurba_marseille","lat":43.261782,"lon":5.374515,"is_reserved":false,"is_disabled":false,"rental_uris":{"android":"levelo://app?vid=ecb467ef-28fb-4bda-8562-b4e0894c5071","ios":"levelo://app?vid=ecb467ef-28fb-4bda-8562-b4e0894c5071"},"vehicle_type_id":"4","last_reported":1686949536,"current_range_meters":28000,"station_id":"ce4bhgp2rcd13ifvqfc0","pricing_plan_id":"free"},{"bike_id":"a6eada5c-3fdb-4331-8b4c-c721f57a1e61","system_id":"levelo_inurba_marseille","lat":43.261782,"lon":5.374515,"is_reserved":false,"is_disabled":false,"rental_uris":{"android":"levelo://app?vid=a6eada5c-3fdb-4331-8b4c-c721f57a1e61","ios":"levelo://app?vid=a6eada5c-3fdb-4331-8b4c-c721f57a1e61"},"vehicle_type_id":"4","last_reported":1686949536,"current_range_meters":16000,"station_id":"ce4bhgp2rcd13ifvqfc0","pricing_plan_id":"free"},{"bike_id":"17a2b9e3-31a2-4e3c-a536-85cc0d488cb9","system_id":"levelo_inurba_marseille","lat":43.261782,"lon":5.374515,"is_reserved":false,"is_disabled":false,"rental_uris":{"android":"levelo://app?vid=17a2b9e3-31a2-4e3c-a536-85cc0d488cb9","ios":"levelo://app?vid=17a2b9e3-31a2-4e3c-a536-85cc0d488cb9"},"vehicle_type_id":"4","last_reported":1686949536,"current_range_meters":21200,"station_id":"ce4bhgp2rcd13ifvqfc0","pricing_plan_id":"free"},{"bike_id":"f1eac7d1-ea64-454f-9832-b3545f392542","system_id":"levelo_inurba_marseille","lat":43.261782,"lon":5.374515,"is_reserved":false,"is_disabled":false,"rental_uris":{"android":"levelo://app?vid=f1eac7d1-ea64-454f-9832-b3545f392542","ios":"levelo://app?vid=f1eac7d1-ea64-454f-9832-b3545f392542"},"vehicle_type_id":"4","last_reported":1686949536,"current_range_meters":1200,"station_id":"ce4bhgp2rcd13ifvqfc0","pricing_plan_id":"free"},{"bike_id":"ab2676ce-d711-43c0-97fd-c681e837a8c9","system_id":"levelo_inurba_marseille","lat":43.26191,"lon":5.3744,"is_reserved":false,"is_disabled":false,"rental_uris":{"android":"levelo://app?vid=ab2676ce-d711-43c0-97fd-c681e837a8c9","ios":"levelo://app?vid=ab2676ce-d711-43c0-97fd-c681e837a8c9"},"vehicle_type_id":"4","last_reported":1686949536,"current_range_meters":31200,"station_id":"ce4bhgp2rcd13ifvqfc0","pricing_plan_id":"free"},{"bike_id":"ca221fa1-2749-4c7c-b3ea-9efcb97c6bb0","system_id":"levelo_inurba_marseille","lat":43.261782,"lon":5.374515,"is_reserved":false,"is_disabled":false,"rental_uris":{"android":"levelo://app?vid=ca221fa1-2749-4c7c-b3ea-9efcb97c6bb0","ios":"levelo://app?vid=ca221fa1-2749-4c7c-b3ea-9efcb97c6bb0"},"vehicle_type_id":"4","last_reported":1686949536,"current_range_meters":17600,"station_id":"ce4bhgp2rcd13ifvqfc0","pricing_plan_id":"free"},{"bike_id":"5d020109-d82e-46c7-833d-91efcc493f2b","system_id":"levelo_inurba_marseille","lat":43.261782,"lon":5.374515,"is_reserved":false,"is_disabled":false,"rental_uris":{"android":"levelo://app?vid=5d020109-d82e-46c7-833d-91efcc493f2b","ios":"levelo://app?vid=5d020109-d82e-46c7-833d-91efcc493f2b"},"vehicle_type_id":"4","last_reported":1686949536,"current_range_meters":17200,"station_id":"ce4bhgp2rcd13ifvqfc0","pricing_plan_id":"free"},{"bike_id":"f70faa1c-2188-4217-8fca-21ff6606deee","system_id":"levelo_inurba_marseille","lat":43.261782,"lon":5.374515,"is_reserved":false,"is_disabled":false,"rental_uris":{"android":"levelo://app?vid=f70faa1c-2188-4217-8fca-21ff6606deee","ios":"levelo://app?vid=f70faa1c-2188-4217-8fca-21ff6606deee"},"vehicle_type_id":"4","last_reported":1686949536,"current_range_meters":20000,"station_id":"ce4bhgp2rcd13ifvqfc0","pricing_plan_id":"free"},{"bike_id":"973e2679-d5b8-41f4-8b25-a2cd79a9df94","system_id":"levelo_inurba_marseille","lat":43.261782,"lon":5.374515,"is_reserved":false,"is_disabled":false,"rental_uris":{"android":"levelo://app?vid=973e2679-d5b8-41f4-8b25-a2cd79a9df94","ios":"levelo://app?vid=973e2679-d5b8-41f4-8b25-a2cd79a9df94"},"vehicle_type_id":"4","last_reported":1686949536,"current_range_meters":31200,"station_id":"ce4bhgp2rcd13ifvqfc0","pricing_plan_id":"free"},{"bike_id":"32ae8ee1-44a5-4693-a912-f9e1881222c7","system_id":"levelo_inurba_marseille","lat":43.26189,"lon":5.37437,"is_reserved":false,"is_disabled":false,"rental_uris":{"android":"levelo://app?vid=32ae8ee1-44a5-4693-a912-f9e1881222c7","ios":"levelo://app?vid=32ae8ee1-44a5-4693-a912-f9e1881222c7"},"vehicle_type_id":"4","last_reported":1686949536,"current_range_meters":30800,"station_id":"ce4bhgp2rcd13ifvqfc0","pricing_plan_id":"free"},{"bike_id":"5261a6d9-be5b-435a-a1e3-465f082f3151","system_id":"levelo_inurba_marseille","lat":43.26189,"lon":5.37441,"is_reserved":false,"is_disabled":false,"rental_uris":{"android":"levelo://app?vid=5261a6d9-be5b-435a-a1e3-465f082f3151","ios":"levelo://app?vid=5261a6d9-be5b-435a-a1e3-465f082f3151"},"vehicle_type_id":"4","last_reported":1686949536,"current_range_meters":20400,"station_id":"ce4bhgp2rcd13ifvqfc0","pricing_plan_id":"free"},{"bike_id":"0011c012-5f08-4eff-8733-a240351feb84","system_id":"levelo_inurba_marseille","lat":43.26188,"lon":5.37437,"is_reserved":false,"is_disabled":false,"rental_uris":{"android":"levelo://app?vid=0011c012-5f08-4eff-8733-a240351feb84","ios":"levelo://app?vid=0011c012-5f08-4eff-8733-a240351feb84"},"vehicle_type_id":"4","last_reported":1686949536,"current_range_meters":19200,"station_id":"ce4bhgp2rcd13ifvqfc0","pricing_plan_id":"free"},{"bike_id":"ffde5c0a-63a5-49a3-a1e7-2ade6ce3d4bf","system_id":"levelo_inurba_marseille","lat":43.261782,"lon":5.374515,"is_reserved":false,"is_disabled":false,"rental_uris":{"android":"levelo://app?vid=ffde5c0a-63a5-49a3-a1e7-2ade6ce3d4bf","ios":"levelo://app?vid=ffde5c0a-63a5-49a3-a1e7-2ade6ce3d4bf"},"vehicle_type_id":"4","last_reported":1686949536,"current_range_meters":31200,"station_id":"ce4bhgp2rcd13ifvqfc0","pricing_plan_id":"free"},{"bike_id":"d4dd31c7-0ed8-48db-9484-218012c5c450","system_id":"levelo_inurba_marseille","lat":43.26187,"lon":5.37441,"is_reserved":false,"is_disabled":false,"rental_uris":{"android":"levelo://app?vid=d4dd31c7-0ed8-48db-9484-218012c5c450","ios":"levelo://app?vid=d4dd31c7-0ed8-48db-9484-218012c5c450"},"vehicle_type_id":"4","last_reported":1686949536,"current_range_meters":30800,"station_id":"ce4bhgp2rcd13ifvqfc0","pricing_plan_id":"free"},{"bike_id":"d8f0ac81-3597-4bb0-8c48-b36cb9978646","system_id":"levelo_inurba_marseille","lat":43.26186,"lon":5.37444,"is_reserved":false,"is_disabled":false,"rental_uris":{"android":"levelo://app?vid=d8f0ac81-3597-4bb0-8c48-b36cb9978646","ios":"levelo://app?vid=d8f0ac81-3597-4bb0-8c48-b36cb9978646"},"vehicle_type_id":"4","last_reported":1686949536,"current_range_meters":31200,"station_id":"ce4bhgp2rcd13ifvqfc0","pricing_plan_id":"free"},{"bike_id":"010e5509-af87-4434-8d70-109f255c2cf7","system_id":"levelo_inurba_marseille","lat":43.26186,"lon":5.37448,"is_reserved":false,"is_disabled":false,"rental_uris":{"android":"levelo://app?vid=010e5509-af87-4434-8d70-109f255c2cf7","ios":"levelo://app?vid=010e5509-af87-4434-8d70-109f255c2cf7"},"vehicle_type_id":"4","last_reported":1686949536,"current_range_meters":31200,"station_id":"ce4bhgp2rcd13ifvqfc0","pricing_plan_id":"free"},{"bike_id":"1c8733a1-ad21-4284-a65b-6f6b8dda187d","system_id":"levelo_inurba_marseille","lat":43.26185,"lon":5.37444,"is_reserved":false,"is_disabled":false,"rental_uris":{"android":"levelo://app?vid=1c8733a1-ad21-4284-a65b-6f6b8dda187d","ios":"levelo://app?vid=1c8733a1-ad21-4284-a65b-6f6b8dda187d"},"vehicle_type_id":"4","last_reported":1686949536,"current_range_meters":15600,"station_id":"ce4bhgp2rcd13ifvqfc0","pricing_plan_id":"free"},{"bike_id":"2b57445f-58fd-4b38-a842-6a5af8b134c7","system_id":"levelo_inurba_marseille","lat":43.26183,"lon":5.37436,"is_reserved":false,"is_disabled":false,"rental_uris":{"android":"levelo://app?vid=2b57445f-58fd-4b38-a842-6a5af8b134c7","ios":"levelo://app?vid=2b57445f-58fd-4b38-a842-6a5af8b134c7"},"vehicle_type_id":"4","last_reported":1686949536,"current_range_meters":31200,"station_id":"ce4bhgp2rcd13ifvqfc0","pricing_plan_id":"free"},{"bike_id":"8d5645b9-b578-4edb-ad06-2fd072378ef9","system_id":"levelo_inurba_marseille","lat":43.26183,"lon":5.37442,"is_reserved":false,"is_disabled":false,"rental_uris":{"android":"levelo://app?vid=8d5645b9-b578-4edb-ad06-2fd072378ef9","ios":"levelo://app?vid=8d5645b9-b578-4edb-ad06-2fd072378ef9"},"vehicle_type_id":"4","last_reported":1686949536,"current_range_meters":19200,"station_id":"","pricing_plan_id":"free"},{"bike_id":"f174c36b-b46d-4b4d-8e53-ea50f482a700","system_id":"levelo_inurba_marseille","lat":43.26183,"lon":5.37444,"is_reserved":false,"is_disabled":false,"rental_uris":{"android":"levelo://app?vid=f174c36b-b46d-4b4d-8e53-ea50f482a700","ios":"levelo://app?vid=f174c36b-b46d-4b4d-8e53-ea50f482a700"},"vehicle_type_id":"4","last_reported":1686949536,"current_range_meters":22000,"station_id":"ce4bhgp2rcd13ifvqfc0","pricing_plan_id":"free"},{"bike_id":"41ee0ba9-04c1-453c-bd70-60e266360227","system_id":"levelo_inurba_marseille","lat":43.26182,"lon":5.37445,"is_reserved":false,"is_disabled":false,"rental_uris":{"android":"levelo://app?vid=41ee0ba9-04c1-453c-bd70-60e266360227","ios":"levelo://app?vid=41ee0ba9-04c1-453c-bd70-60e266360227"},"vehicle_type_id":"4","last_reported":1686949536,"current_range_meters":0,"station_id":"ce4bhgp2rcd13ifvqfc0","pricing_plan_id":"free"},{"bike_id":"9ff1e7f5-4ff9-4e6b-b475-a94e6f94ed10","system_id":"levelo_inurba_marseille","lat":43.317104,"lon":5.436818,"is_reserved":false,"is_disabled":false,"rental_uris":{"android":"levelo://app?vid=9ff1e7f5-4ff9-4e6b-b475-a94e6f94ed10","ios":"levelo://app?vid=9ff1e7f5-4ff9-4e6b-b475-a94e6f94ed10"},"vehicle_type_id":"4","last_reported":1686949536,"current_range_meters":19200,"station_id":"ce4bhp92rcd13ifvqhcg","pricing_plan_id":"free"},{"bike_id":"6391ea03-bc0c-4216-886b-ec1a0bbd3963","system_id":"levelo_inurba_marseille","lat":43.317104,"lon":5.436818,"is_reserved":false,"is_disabled":false,"rental_uris":{"android":"levelo://app?vid=6391ea03-bc0c-4216-886b-ec1a0bbd3963","ios":"levelo://app?vid=6391ea03-bc0c-4216-886b-ec1a0bbd3963"},"vehicle_type_id":"4","last_reported":1686949536,"current_range_meters":12000,"station_id":"ce4bhp92rcd13ifvqhcg","pricing_plan_id":"free"},{"bike_id":"77530772-8f69-4892-92d0-d22941ccc740","system_id":"levelo_inurba_marseille","lat":43.26215,"lon":5.37922,"is_reserved":false,"is_disabled":false,"rental_uris":{"android":"levelo://app?vid=77530772-8f69-4892-92d0-d22941ccc740","ios":"levelo://app?vid=77530772-8f69-4892-92d0-d22941ccc740"},"vehicle_type_id":"4","last_reported":1686949536,"current_range_meters":4400,"station_id":"ce4bhjp2rcd13ifvqg90","pricing_plan_id":"free"},{"bike_id":"52aff03d-fd8d-409e-a466-e02f52a3179d","system_id":"levelo_inurba_marseille","lat":43.26212,"lon":5.37923,"is_reserved":false,"is_disabled":false,"rental_uris":{"android":"levelo://app?vid=52aff03d-fd8d-409e-a466-e02f52a3179d","ios":"levelo://app?vid=52aff03d-fd8d-409e-a466-e02f52a3179d"},"vehicle_type_id":"4","last_reported":1686949536,"current_range_meters":29200,"station_id":"ce4bhjp2rcd13ifvqg90","pricing_plan_id":"free"},{"bike_id":"de736fe5-a26a-49f8-9b10-7db3ba026eab","system_id":"levelo_inurba_marseille","lat":43.26212,"lon":5.37929,"is_reserved":false,"is_disabled":false,"rental_uris":{"android":"levelo://app?vid=de736fe5-a26a-49f8-9b10-7db3ba026eab","ios":"levelo://app?vid=de736fe5-a26a-49f8-9b10-7db3ba026eab"},"vehicle_type_id":"4","last_reported":1686949536,"current_range_meters":16400,"station_id":"ce4bhjp2rcd13ifvqg90","pricing_plan_id":"free"},{"bike_id":"a96c582b-35b2-4d08-9a57-27767101d206","system_id":"levelo_inurba_marseille","lat":43.2621,"lon":5.37923,"is_reserved":false,"is_disabled":false,"rental_uris":{"android":"levelo://app?vid=a96c582b-35b2-4d08-9a57-27767101d206","ios":"levelo://app?vid=a96c582b-35b2-4d08-9a57-27767101d206"},"vehicle_type_id":"4","last_reported":1686949536,"current_range_meters":13600,"station_id":"ce4bhjp2rcd13ifvqg90","pricing_plan_id":"free"},{"bike_id":"e46ab0ec-88c0-43db-8bd4-4a4e071aa25d","system_id":"levelo_inurba_marseille","lat":43.2621,"lon":5.37923,"is_reserved":false,"is_disabled":false,"rental_uris":{"android":"levelo://app?vid=e46ab0ec-88c0-43db-8bd4-4a4e071aa25d","ios":"levelo://app?vid=e46ab0ec-88c0-43db-8bd4-4a4e071aa25d"},"vehicle_type_id":"4","last_reported":1686949536,"current_range_meters":16800,"station_id":"ce4bhjp2rcd13ifvqg90","pricing_plan_id":"free"},{"bike_id":"6d1534cd-8426-4f59-8814-affd2b327db3","system_id":"levelo_inurba_marseille","lat":43.2621,"lon":5.37925,"is_reserved":false,"is_disabled":false,"rental_uris":{"android":"levelo://app?vid=6d1534cd-8426-4f59-8814-affd2b327db3","ios":"levelo://app?vid=6d1534cd-8426-4f59-8814-affd2b327db3"},"vehicle_type_id":"4","last_reported":1686949536,"current_range_meters":19200,"station_id":"ce4bhjp2rcd13ifvqg90","pricing_plan_id":"free"},{"bike_id":"c622a3d2-c0d0-4fed-a4ef-52de91303c57","system_id":"levelo_inurba_marseille","lat":43.2621,"lon":5.37926,"is_reserved":false,"is_disabled":false,"rental_uris":{"android":"levelo://app?vid=c622a3d2-c0d0-4fed-a4ef-52de91303c57","ios":"levelo://app?vid=c622a3d2-c0d0-4fed-a4ef-52de91303c57"},"vehicle_type_id":"4","last_reported":1686949536,"current_range_meters":6400,"station_id":"ce4bhjp2rcd13ifvqg90","pricing_plan_id":"free"},{"bike_id":"f9909835-627c-4078-ab97-e12422b8eb75","system_id":"levelo_inurba_marseille","lat":43.26209,"lon":5.37919,"is_reserved":false,"is_disabled":false,"rental_uris":{"android":"levelo://app?vid=f9909835-627c-4078-ab97-e12422b8eb75","ios":"levelo://app?vid=f9909835-627c-4078-ab97-e12422b8eb75"},"vehicle_type_id":"4","last_reported":1686949536,"current_range_meters":4400,"station_id":"ce4bhjp2rcd13ifvqg90","pricing_plan_id":"free"},{"bike_id":"cd6b46fc-36aa-450c-9866-15273c092f71","system_id":"levelo_inurba_marseille","lat":43.26202,"lon":5.379299,"is_reserved":false,"is_disabled":false,"rental_uris":{"android":"levelo://app?vid=cd6b46fc-36aa-450c-9866-15273c092f71","ios":"levelo://app?vid=cd6b46fc-36aa-450c-9866-15273c092f71"},"vehicle_type_id":"4","last_reported":1686949536,"current_range_meters":31200,"station_id":"ce4bhjp2rcd13ifvqg90","pricing_plan_id":"free"},{"bike_id":"b15816cc-e74c-4248-afc4-52d13181d055","system_id":"levelo_inurba_marseille","lat":43.26208,"lon":5.37929,"is_reserved":false,"is_disabled":false,"rental_uris":{"android":"levelo://app?vid=b15816cc-e74c-4248-afc4-52d13181d055","ios":"levelo://app?vid=b15816cc-e74c-4248-afc4-52d13181d055"},"vehicle_type_id":"4","last_reported":1686949536,"current_range_meters":1200,"station_id":"ce4bhjp2rcd13ifvqg90","pricing_plan_id":"free"},{"bike_id":"d11b2b8a-fc3f-4a6e-a031-fca57f2a6dbe","system_id":"levelo_inurba_marseille","lat":43.26202,"lon":5.379299,"is_reserved":false,"is_disabled":false,"rental_uris":{"android":"levelo://app?vid=d11b2b8a-fc3f-4a6e-a031-fca57f2a6dbe","ios":"levelo://app?vid=d11b2b8a-fc3f-4a6e-a031-fca57f2a6dbe"},"vehicle_type_id":"4","last_reported":1686949536,"current_range_meters":26000,"station_id":"ce4bhjp2rcd13ifvqg90","pricing_plan_id":"free"},{"bike_id":"9c45573d-7e2a-4e16-a7ba-cfe7257710aa","system_id":"levelo_inurba_marseille","lat":43.26206,"lon":5.37924,"is_reserved":false,"is_disabled":false,"rental_uris":{"android":"levelo://app?vid=9c45573d-7e2a-4e16-a7ba-cfe7257710aa","ios":"levelo://app?vid=9c45573d-7e2a-4e16-a7ba-cfe7257710aa"},"vehicle_type_id":"4","last_reported":1686949536,"current_range_meters":16400,"station_id":"ce4bhjp2rcd13ifvqg90","pricing_plan_id":"free"},{"bike_id":"45d2bc06-0e14-48ef-af8a-2f65edf72e83","system_id":"levelo_inurba_marseille","lat":43.26206,"lon":5.37924,"is_reserved":false,"is_disabled":false,"rental_uris":{"android":"levelo://app?vid=45d2bc06-0e14-48ef-af8a-2f65edf72e83","ios":"levelo://app?vid=45d2bc06-0e14-48ef-af8a-2f65edf72e83"},"vehicle_type_id":"4","last_reported":1686949536,"current_range_meters":25600,"station_id":"ce4bhjp2rcd13ifvqg90","pricing_plan_id":"free"},{"bike_id":"bc611118-a5ff-447c-b17d-7f25d1124891","system_id":"levelo_inurba_marseille","lat":43.26202,"lon":5.379299,"is_reserved":false,"is_disabled":false,"rental_uris":{"android":"levelo://app?vid=bc611118-a5ff-447c-b17d-7f25d1124891","ios":"levelo://app?vid=bc611118-a5ff-447c-b17d-7f25d1124891"},"vehicle_type_id":"4","last_reported":1686949536,"current_range_meters":31200,"station_id":"ce4bhjp2rcd13ifvqg90","pricing_plan_id":"free"},{"bike_id":"b4438a96-040d-4da3-8190-6e8427d21e32","system_id":"levelo_inurba_marseille","lat":43.26206,"lon":5.37927,"is_reserved":false,"is_disabled":false,"rental_uris":{"android":"levelo://app?vid=b4438a96-040d-4da3-8190-6e8427d21e32","ios":"levelo://app?vid=b4438a96-040d-4da3-8190-6e8427d21e32"},"vehicle_type_id":"4","last_reported":1686949536,"current_range_meters":8800,"station_id":"ce4bhjp2rcd13ifvqg90","pricing_plan_id":"free"},{"bike_id":"0b25b3e4-6ddd-44c8-a681-374109d388ec","system_id":"levelo_inurba_marseille","lat":43.26206,"lon":5.37929,"is_reserved":false,"is_disabled":false,"rental_uris":{"android":"levelo://app?vid=0b25b3e4-6ddd-44c8-a681-374109d388ec","ios":"levelo://app?vid=0b25b3e4-6ddd-44c8-a681-374109d388ec"},"vehicle_type_id":"4","last_reported":1686949536,"current_range_meters":19600,"station_id":"ce4bhjp2rcd13ifvqg90","pricing_plan_id":"free"},{"bike_id":"2ed7b7c2-8a07-4615-90fa-91057de4c68c","system_id":"levelo_inurba_marseille","lat":43.26202,"lon":5.379299,"is_reserved":false,"is_disabled":false,"rental_uris":{"android":"levelo://app?vid=2ed7b7c2-8a07-4615-90fa-91057de4c68c","ios":"levelo://app?vid=2ed7b7c2-8a07-4615-90fa-91057de4c68c"},"vehicle_type_id":"4","last_reported":1686949536,"current_range_meters":30800,"station_id":"ce4bhjp2rcd13ifvqg90","pricing_plan_id":"free"},{"bike_id":"c8eb0559-fc74-4432-89ca-60edd849ba8a","system_id":"levelo_inurba_marseille","lat":43.26206,"lon":5.37933,"is_reserved":false,"is_disabled":false,"rental_uris":{"android":"levelo://app?vid=c8eb0559-fc74-4432-89ca-60edd849ba8a","ios":"levelo://app?vid=c8eb0559-fc74-4432-89ca-60edd849ba8a"},"vehicle_type_id":"4","last_reported":1686949536,"current_range_meters":16000,"station_id":"ce4bhjp2rcd13ifvqg90","pricing_plan_id":"free"},{"bike_id":"6c9b2446-e41d-4f27-86ef-6b3d46ce64d4","system_id":"levelo_inurba_marseille","lat":43.26205,"lon":5.37926,"is_reserved":false,"is_disabled":false,"rental_uris":{"android":"levelo://app?vid=6c9b2446-e41d-4f27-86ef-6b3d46ce64d4","ios":"levelo://app?vid=6c9b2446-e41d-4f27-86ef-6b3d46ce64d4"},"vehicle_type_id":"4","last_reported":1686949536,"current_range_meters":31200,"station_id":"ce4bhjp2rcd13ifvqg90","pricing_plan_id":"free"},{"bike_id":"996200f4-0a4a-48d9-a4d2-3ebe89756dc9","system_id":"levelo_inurba_marseille","lat":43.26205,"lon":5.37926,"is_reserved":false,"is_disabled":false,"rental_uris":{"android":"levelo://app?vid=996200f4-0a4a-48d9-a4d2-3ebe89756dc9","ios":"levelo://app?vid=996200f4-0a4a-48d9-a4d2-3ebe89756dc9"},"vehicle_type_id":"4","last_reported":1686949536,"current_range_meters":9200,"station_id":"ce4bhjp2rcd13ifvqg90","pricing_plan_id":"free"},{"bike_id":"5cf44bf9-cc1b-4127-af93-5e8913e066fe","system_id":"levelo_inurba_marseille","lat":43.26205,"lon":5.37927,"is_reserved":false,"is_disabled":false,"rental_uris":{"android":"levelo://app?vid=5cf44bf9-cc1b-4127-af93-5e8913e066fe","ios":"levelo://app?vid=5cf44bf9-cc1b-4127-af93-5e8913e066fe"},"vehicle_type_id":"4","last_reported":1686949536,"current_range_meters":26000,"station_id":"ce4bhjp2rcd13ifvqg90","pricing_plan_id":"free"},{"bike_id":"9675edd2-e071-4555-8d25-6570bf35413c","system_id":"levelo_inurba_marseille","lat":43.26204,"lon":5.37923,"is_reserved":false,"is_disabled":false,"rental_uris":{"android":"levelo://app?vid=9675edd2-e071-4555-8d25-6570bf35413c","ios":"levelo://app?vid=9675edd2-e071-4555-8d25-6570bf35413c"},"vehicle_type_id":"4","last_reported":1686949536,"current_range_meters":11200,"station_id":"ce4bhjp2rcd13ifvqg90","pricing_plan_id":"free"},{"bike_id":"af87371b-abc9-4142-abfc-17410517b812","system_id":"levelo_inurba_marseille","lat":43.26204,"lon":5.37923,"is_reserved":false,"is_disabled":false,"rental_uris":{"android":"levelo://app?vid=af87371b-abc9-4142-abfc-17410517b812","ios":"levelo://app?vid=af87371b-abc9-4142-abfc-17410517b812"},"vehicle_type_id":"4","last_reported":1686949536,"current_range_meters":30000,"station_id":"ce4bhjp2rcd13ifvqg90","pricing_plan_id":"free"},{"bike_id":"78e411fd-aa0d-4f13-9a32-490d6825736e","system_id":"levelo_inurba_marseille","lat":43.26204,"lon":5.37924,"is_reserved":false,"is_disabled":false,"rental_uris":{"android":"levelo://app?vid=78e411fd-aa0d-4f13-9a32-490d6825736e","ios":"levelo://app?vid=78e411fd-aa0d-4f13-9a32-490d6825736e"},"vehicle_type_id":"4","last_reported":1686949536,"current_range_meters":26800,"station_id":"ce4bhjp2rcd13ifvqg90","pricing_plan_id":"free"},{"bike_id":"022b8a81-e07e-4f94-bdf1-f40e4a6d68a6","system_id":"levelo_inurba_marseille","lat":43.26204,"lon":5.37927,"is_reserved":false,"is_disabled":false,"rental_uris":{"android":"levelo://app?vid=022b8a81-e07e-4f94-bdf1-f40e4a6d68a6","ios":"levelo://app?vid=022b8a81-e07e-4f94-bdf1-f40e4a6d68a6"},"vehicle_type_id":"4","last_reported":1686949536,"current_range_meters":3600,"station_id":"ce4bhjp2rcd13ifvqg90","pricing_plan_id":"free"},{"bike_id":"8769e94a-eea4-4902-8a5d-5c7daf170bd9","system_id":"levelo_inurba_marseille","lat":43.26204,"lon":5.37927,"is_reserved":false,"is_disabled":false,"rental_uris":{"android":"levelo://app?vid=8769e94a-eea4-4902-8a5d-5c7daf170bd9","ios":"levelo://app?vid=8769e94a-eea4-4902-8a5d-5c7daf170bd9"},"vehicle_type_id":"4","last_reported":1686949536,"current_range_meters":7600,"station_id":"ce4bhjp2rcd13ifvqg90","pricing_plan_id":"free"},{"bike_id":"6e8d19a1-1e6b-44ed-ab7a-3d47883a6e8f","system_id":"levelo_inurba_marseille","lat":43.26204,"lon":5.37927,"is_reserved":false,"is_disabled":false,"rental_uris":{"android":"levelo://app?vid=6e8d19a1-1e6b-44ed-ab7a-3d47883a6e8f","ios":"levelo://app?vid=6e8d19a1-1e6b-44ed-ab7a-3d47883a6e8f"},"vehicle_type_id":"4","last_reported":1686949536,"current_range_meters":4800,"station_id":"ce4bhjp2rcd13ifvqg90","pricing_plan_id":"free"},{"bike_id":"daac0333-dbfc-48a5-8160-31833bb5fd7c","system_id":"levelo_inurba_marseille","lat":43.26204,"lon":5.37928,"is_reserved":false,"is_disabled":false,"rental_uris":{"android":"levelo://app?vid=daac0333-dbfc-48a5-8160-31833bb5fd7c","ios":"levelo://app?vid=daac0333-dbfc-48a5-8160-31833bb5fd7c"},"vehicle_type_id":"4","last_reported":1686949536,"current_range_meters":26400,"station_id":"ce4bhjp2rcd13ifvqg90","pricing_plan_id":"free"},{"bike_id":"7cb31352-5dd2-4392-86bc-b23964a6b79a","system_id":"levelo_inurba_marseille","lat":43.26202,"lon":5.379299,"is_reserved":false,"is_disabled":false,"rental_uris":{"android":"levelo://app?vid=7cb31352-5dd2-4392-86bc-b23964a6b79a","ios":"levelo://app?vid=7cb31352-5dd2-4392-86bc-b23964a6b79a"},"vehicle_type_id":"4","last_reported":1686949536,"current_range_meters":31200,"station_id":"ce4bhjp2rcd13ifvqg90","pricing_plan_id":"free"},{"bike_id":"ccec55c2-5e25-4a0d-ba89-4f1b42bdd650","system_id":"levelo_inurba_marseille","lat":43.26204,"lon":5.37929,"is_reserved":false,"is_disabled":false,"rental_uris":{"android":"levelo://app?vid=ccec55c2-5e25-4a0d-ba89-4f1b42bdd650","ios":"levelo://app?vid=ccec55c2-5e25-4a0d-ba89-4f1b42bdd650"},"vehicle_type_id":"4","last_reported":1686949536,"current_range_meters":2000,"station_id":"ce4bhjp2rcd13ifvqg90","pricing_plan_id":"free"},{"bike_id":"6fcd2756-ea57-4564-b4a6-a7b5b66c16b1","system_id":"levelo_inurba_marseille","lat":43.26204,"lon":5.3793,"is_reserved":false,"is_disabled":false,"rental_uris":{"android":"levelo://app?vid=6fcd2756-ea57-4564-b4a6-a7b5b66c16b1","ios":"levelo://app?vid=6fcd2756-ea57-4564-b4a6-a7b5b66c16b1"},"vehicle_type_id":"4","last_reported":1686949536,"current_range_meters":5200,"station_id":"ce4bhjp2rcd13ifvqg90","pricing_plan_id":"free"},{"bike_id":"1c50530b-b2e4-4b41-ae0c-282e246b3ee9","system_id":"levelo_inurba_marseille","lat":43.26203,"lon":5.37925,"is_reserved":false,"is_disabled":false,"rental_uris":{"android":"levelo://app?vid=1c50530b-b2e4-4b41-ae0c-282e246b3ee9","ios":"levelo://app?vid=1c50530b-b2e4-4b41-ae0c-282e246b3ee9"},"vehicle_type_id":"4","last_reported":1686949536,"current_range_meters":25600,"station_id":"ce4bhjp2rcd13ifvqg90","pricing_plan_id":"free"},{"bike_id":"135bfdc9-da53-4544-b54c-560caf8e77d1","system_id":"levelo_inurba_marseille","lat":43.26203,"lon":5.37928,"is_reserved":false,"is_disabled":false,"rental_uris":{"android":"levelo://app?vid=135bfdc9-da53-4544-b54c-560caf8e77d1","ios":"levelo://app?vid=135bfdc9-da53-4544-b54c-560caf8e77d1"},"vehicle_type_id":"4","last_reported":1686949536,"current_range_meters":18400,"station_id":"ce4bhjp2rcd13ifvqg90","pricing_plan_id":"free"},{"bike_id":"0e60e233-b07f-48cd-a83e-99e3950ea7ae","system_id":"levelo_inurba_marseille","lat":43.26202,"lon":5.379299,"is_reserved":false,"is_disabled":false,"rental_uris":{"android":"levelo://app?vid=0e60e233-b07f-48cd-a83e-99e3950ea7ae","ios":"levelo://app?vid=0e60e233-b07f-48cd-a83e-99e3950ea7ae"},"vehicle_type_id":"4","last_reported":1686949536,"current_range_meters":21200,"station_id":"ce4bhjp2rcd13ifvqg90","pricing_plan_id":"free"},{"bike_id":"1314fd1f-e069-4617-a027-826e7dc8f158","system_id":"levelo_inurba_marseille","lat":43.26202,"lon":5.379299,"is_reserved":false,"is_disabled":false,"rental_uris":{"android":"levelo://app?vid=1314fd1f-e069-4617-a027-826e7dc8f158","ios":"levelo://app?vid=1314fd1f-e069-4617-a027-826e7dc8f158"},"vehicle_type_id":"4","last_reported":1686949536,"current_range_meters":16800,"station_id":"ce4bhjp2rcd13ifvqg90","pricing_plan_id":"free"},{"bike_id":"e1894fdf-472f-4f37-9d84-c3c5b6bf4554","system_id":"levelo_inurba_marseille","lat":43.26203,"lon":5.37935,"is_reserved":false,"is_disabled":false,"rental_uris":{"android":"levelo://app?vid=e1894fdf-472f-4f37-9d84-c3c5b6bf4554","ios":"levelo://app?vid=e1894fdf-472f-4f37-9d84-c3c5b6bf4554"},"vehicle_type_id":"4","last_reported":1686949536,"current_range_meters":16000,"station_id":"ce4bhjp2rcd13ifvqg90","pricing_plan_id":"free"},{"bike_id":"b9765a6f-f3d2-4480-a13b-28e90420ca3e","system_id":"levelo_inurba_marseille","lat":43.26202,"lon":5.37933,"is_reserved":false,"is_disabled":false,"rental_uris":{"android":"levelo://app?vid=b9765a6f-f3d2-4480-a13b-28e90420ca3e","ios":"levelo://app?vid=b9765a6f-f3d2-4480-a13b-28e90420ca3e"},"vehicle_type_id":"4","last_reported":1686949536,"current_range_meters":31200,"station_id":"ce4bhjp2rcd13ifvqg90","pricing_plan_id":"free"},{"bike_id":"2a1b23f2-dabb-4511-ba16-c075d2484d5d","system_id":"levelo_inurba_marseille","lat":43.26202,"lon":5.379299,"is_reserved":false,"is_disabled":false,"rental_uris":{"android":"levelo://app?vid=2a1b23f2-dabb-4511-ba16-c075d2484d5d","ios":"levelo://app?vid=2a1b23f2-dabb-4511-ba16-c075d2484d5d"},"vehicle_type_id":"4","last_reported":1686949536,"current_range_meters":31200,"station_id":"ce4bhjp2rcd13ifvqg90","pricing_plan_id":"free"},{"bike_id":"02a89742-31a3-4ee4-a871-dc9c8ec9400b","system_id":"levelo_inurba_marseille","lat":43.26202,"lon":5.37935,"is_reserved":false,"is_disabled":false,"rental_uris":{"android":"levelo://app?vid=02a89742-31a3-4ee4-a871-dc9c8ec9400b","ios":"levelo://app?vid=02a89742-31a3-4ee4-a871-dc9c8ec9400b"},"vehicle_type_id":"4","last_reported":1686949536,"current_range_meters":8800,"station_id":"ce4bhjp2rcd13ifvqg90","pricing_plan_id":"free"},{"bike_id":"35d82cc6-3bc4-497f-a1c4-3baa921f4cd2","system_id":"levelo_inurba_marseille","lat":43.26201,"lon":5.3793,"is_reserved":false,"is_disabled":false,"rental_uris":{"android":"levelo://app?vid=35d82cc6-3bc4-497f-a1c4-3baa921f4cd2","ios":"levelo://app?vid=35d82cc6-3bc4-497f-a1c4-3baa921f4cd2"},"vehicle_type_id":"4","last_reported":1686949536,"current_range_meters":9200,"station_id":"ce4bhjp2rcd13ifvqg90","pricing_plan_id":"free"},{"bike_id":"ef5be7a3-ecb1-4133-940e-31397df5ec24","system_id":"levelo_inurba_marseille","lat":43.26201,"lon":5.37931,"is_reserved":false,"is_disabled":false,"rental_uris":{"android":"levelo://app?vid=ef5be7a3-ecb1-4133-940e-31397df5ec24","ios":"levelo://app?vid=ef5be7a3-ecb1-4133-940e-31397df5ec24"},"vehicle_type_id":"4","last_reported":1686949536,"current_range_meters":4800,"station_id":"ce4bhjp2rcd13ifvqg90","pricing_plan_id":"free"},{"bike_id":"5ddb55f6-3e92-4f9a-8e95-4d5880813dc9","system_id":"levelo_inurba_marseille","lat":43.26201,"lon":5.37933,"is_reserved":false,"is_disabled":false,"rental_uris":{"android":"levelo://app?vid=5ddb55f6-3e92-4f9a-8e95-4d5880813dc9","ios":"levelo://app?vid=5ddb55f6-3e92-4f9a-8e95-4d5880813dc9"},"vehicle_type_id":"4","last_reported":1686949536,"current_range_meters":31200,"station_id":"ce4bhjp2rcd13ifvqg90","pricing_plan_id":"free"},{"bike_id":"fea41673-a085-442a-92a0-90fd61618e6f","system_id":"levelo_inurba_marseille","lat":43.26201,"lon":5.37933,"is_reserved":false,"is_disabled":false,"rental_uris":{"android":"levelo://app?vid=fea41673-a085-442a-92a0-90fd61618e6f","ios":"levelo://app?vid=fea41673-a085-442a-92a0-90fd61618e6f"},"vehicle_type_id":"4","last_reported":1686949536,"current_range_meters":31200,"station_id":"ce4bhjp2rcd13ifvqg90","pricing_plan_id":"free"},{"bike_id":"d968640c-41ff-48e7-b790-82f7b592cd6f","system_id":"levelo_inurba_marseille","lat":43.26202,"lon":5.379299,"is_reserved":false,"is_disabled":false,"rental_uris":{"android":"levelo://app?vid=d968640c-41ff-48e7-b790-82f7b592cd6f","ios":"levelo://app?vid=d968640c-41ff-48e7-b790-82f7b592cd6f"},"vehicle_type_id":"4","last_reported":1686949536,"current_range_meters":14800,"station_id":"ce4bhjp2rcd13ifvqg90","pricing_plan_id":"free"},{"bike_id":"6867bdb6-91aa-49c3-b63c-816c0b897b04","system_id":"levelo_inurba_marseille","lat":43.262,"lon":5.3793,"is_reserved":false,"is_disabled":false,"rental_uris":{"android":"levelo://app?vid=6867bdb6-91aa-49c3-b63c-816c0b897b04","ios":"levelo://app?vid=6867bdb6-91aa-49c3-b63c-816c0b897b04"},"vehicle_type_id":"4","last_reported":1686949536,"current_range_meters":30400,"station_id":"ce4bhjp2rcd13ifvqg90","pricing_plan_id":"free"},{"bike_id":"ab612d6f-c5bd-41f7-af93-6b463582f745","system_id":"levelo_inurba_marseille","lat":43.262,"lon":5.37932,"is_reserved":false,"is_disabled":false,"rental_uris":{"android":"levelo://app?vid=ab612d6f-c5bd-41f7-af93-6b463582f745","ios":"levelo://app?vid=ab612d6f-c5bd-41f7-af93-6b463582f745"},"vehicle_type_id":"4","last_reported":1686949536,"current_range_meters":13200,"station_id":"ce4bhjp2rcd13ifvqg90","pricing_plan_id":"free"},{"bike_id":"e7c7d2ee-29f7-469c-bcea-af1164a0c4f4","system_id":"levelo_inurba_marseille","lat":43.26202,"lon":5.379299,"is_reserved":false,"is_disabled":false,"rental_uris":{"android":"levelo://app?vid=e7c7d2ee-29f7-469c-bcea-af1164a0c4f4","ios":"levelo://app?vid=e7c7d2ee-29f7-469c-bcea-af1164a0c4f4"},"vehicle_type_id":"4","last_reported":1686949536,"current_range_meters":28800,"station_id":"ce4bhjp2rcd13ifvqg90","pricing_plan_id":"free"},{"bike_id":"ffb9e2cd-e096-4cde-b0ee-feb81ef79d74","system_id":"levelo_inurba_marseille","lat":43.262,"lon":5.37933,"is_reserved":false,"is_disabled":false,"rental_uris":{"android":"levelo://app?vid=ffb9e2cd-e096-4cde-b0ee-feb81ef79d74","ios":"levelo://app?vid=ffb9e2cd-e096-4cde-b0ee-feb81ef79d74"},"vehicle_type_id":"4","last_reported":1686949536,"current_range_meters":9600,"station_id":"ce4bhjp2rcd13ifvqg90","pricing_plan_id":"free"},{"bike_id":"a43604cf-6338-465e-b30a-55c742f1264b","system_id":"levelo_inurba_marseille","lat":43.26202,"lon":5.379299,"is_reserved":false,"is_disabled":false,"rental_uris":{"android":"levelo://app?vid=a43604cf-6338-465e-b30a-55c742f1264b","ios":"levelo://app?vid=a43604cf-6338-465e-b30a-55c742f1264b"},"vehicle_type_id":"4","last_reported":1686949536,"current_range_meters":22000,"station_id":"ce4bhjp2rcd13ifvqg90","pricing_plan_id":"free"},{"bike_id":"0dd31d74-bc15-450b-a75c-4e20bc6576f8","system_id":"levelo_inurba_marseille","lat":43.26199,"lon":5.37929,"is_reserved":false,"is_disabled":false,"rental_uris":{"android":"levelo://app?vid=0dd31d74-bc15-450b-a75c-4e20bc6576f8","ios":"levelo://app?vid=0dd31d74-bc15-450b-a75c-4e20bc6576f8"},"vehicle_type_id":"4","last_reported":1686949536,"current_range_meters":22400,"station_id":"ce4bhjp2rcd13ifvqg90","pricing_plan_id":"free"},{"bike_id":"a0ec0c8d-8bd5-4563-8cda-d2699a6d39dc","system_id":"levelo_inurba_marseille","lat":43.267959,"lon":5.402685,"is_reserved":false,"is_disabled":false,"rental_uris":{"android":"levelo://app?vid=a0ec0c8d-8bd5-4563-8cda-d2699a6d39dc","ios":"levelo://app?vid=a0ec0c8d-8bd5-4563-8cda-d2699a6d39dc"},"vehicle_type_id":"4","last_reported":1686949536,"current_range_meters":12800,"station_id":"ce501612rcd8frsf0b60","pricing_plan_id":"free"},{"bike_id":"e572aed1-71e6-49ea-a174-5691c7cd1da6","system_id":"levelo_inurba_marseille","lat":43.26202,"lon":5.379299,"is_reserved":false,"is_disabled":false,"rental_uris":{"android":"levelo://app?vid=e572aed1-71e6-49ea-a174-5691c7cd1da6","ios":"levelo://app?vid=e572aed1-71e6-49ea-a174-5691c7cd1da6"},"vehicle_type_id":"4","last_reported":1686949536,"current_range_meters":30800,"station_id":"ce4bhjp2rcd13ifvqg90","pricing_plan_id":"free"},{"bike_id":"b52e203b-a3cd-44f4-97b3-a664966960fe","system_id":"levelo_inurba_marseille","lat":43.26198,"lon":5.37924,"is_reserved":false,"is_disabled":false,"rental_uris":{"android":"levelo://app?vid=b52e203b-a3cd-44f4-97b3-a664966960fe","ios":"levelo://app?vid=b52e203b-a3cd-44f4-97b3-a664966960fe"},"vehicle_type_id":"4","last_reported":1686949536,"current_range_meters":11600,"station_id":"ce4bhjp2rcd13ifvqg90","pricing_plan_id":"free"},{"bike_id":"6345dde2-8be5-4b14-b554-75b467131e9d","system_id":"levelo_inurba_marseille","lat":43.26202,"lon":5.379299,"is_reserved":false,"is_disabled":false,"rental_uris":{"android":"levelo://app?vid=6345dde2-8be5-4b14-b554-75b467131e9d","ios":"levelo://app?vid=6345dde2-8be5-4b14-b554-75b467131e9d"},"vehicle_type_id":"4","last_reported":1686949536,"current_range_meters":22000,"station_id":"ce4bhjp2rcd13ifvqg90","pricing_plan_id":"free"},{"bike_id":"31c5b254-f297-42e9-b3a2-5d9950d6898f","system_id":"levelo_inurba_marseille","lat":43.26197,"lon":5.37927,"is_reserved":false,"is_disabled":false,"rental_uris":{"android":"levelo://app?vid=31c5b254-f297-42e9-b3a2-5d9950d6898f","ios":"levelo://app?vid=31c5b254-f297-42e9-b3a2-5d9950d6898f"},"vehicle_type_id":"4","last_reported":1686949536,"current_range_meters":5600,"station_id":"ce4bhjp2rcd13ifvqg90","pricing_plan_id":"free"},{"bike_id":"1d6ad414-f440-435b-925f-80dabaa65f3a","system_id":"levelo_inurba_marseille","lat":43.271388,"lon":5.409269,"is_reserved":false,"is_disabled":false,"rental_uris":{"android":"levelo://app?vid=1d6ad414-f440-435b-925f-80dabaa65f3a","ios":"levelo://app?vid=1d6ad414-f440-435b-925f-80dabaa65f3a"},"vehicle_type_id":"4","last_reported":1686949536,"current_range_meters":2400,"station_id":"ce4bhl12rcd13ifvqgf0","pricing_plan_id":"free"},{"bike_id":"fcc791b7-d7d6-431e-9e36-c8438d7a6101","system_id":"levelo_inurba_marseille","lat":43.26202,"lon":5.379299,"is_reserved":false,"is_disabled":false,"rental_uris":{"android":"levelo://app?vid=fcc791b7-d7d6-431e-9e36-c8438d7a6101","ios":"levelo://app?vid=fcc791b7-d7d6-431e-9e36-c8438d7a6101"},"vehicle_type_id":"4","last_reported":1686949536,"current_range_meters":26800,"station_id":"ce4bhjp2rcd13ifvqg90","pricing_plan_id":"free"},{"bike_id":"5ac085d7-8649-4990-8085-b600b60eb0d3","system_id":"levelo_inurba_marseille","lat":43.26197,"lon":5.37929,"is_reserved":false,"is_disabled":false,"rental_uris":{"android":"levelo://app?vid=5ac085d7-8649-4990-8085-b600b60eb0d3","ios":"levelo://app?vid=5ac085d7-8649-4990-8085-b600b60eb0d3"},"vehicle_type_id":"4","last_reported":1686949536,"current_range_meters":19200,"station_id":"ce4bhjp2rcd13ifvqg90","pricing_plan_id":"free"},{"bike_id":"40a30b95-5688-45be-ac3d-11a6e4cadaac","system_id":"levelo_inurba_marseille","lat":43.26197,"lon":5.3793,"is_reserved":false,"is_disabled":false,"rental_uris":{"android":"levelo://app?vid=40a30b95-5688-45be-ac3d-11a6e4cadaac","ios":"levelo://app?vid=40a30b95-5688-45be-ac3d-11a6e4cadaac"},"vehicle_type_id":"4","last_reported":1686949536,"current_range_meters":31200,"station_id":"ce4bhjp2rcd13ifvqg90","pricing_plan_id":"free"},{"bike_id":"68339086-9a1e-40e3-b666-8b288940409f","system_id":"levelo_inurba_marseille","lat":43.26197,"lon":5.37933,"is_reserved":false,"is_disabled":false,"rental_uris":{"android":"levelo://app?vid=68339086-9a1e-40e3-b666-8b288940409f","ios":"levelo://app?vid=68339086-9a1e-40e3-b666-8b288940409f"},"vehicle_type_id":"4","last_reported":1686949536,"current_range_meters":18800,"station_id":"ce4bhjp2rcd13ifvqg90","pricing_plan_id":"free"},{"bike_id":"c1852bfd-6840-44ca-b507-a10564223d89","system_id":"levelo_inurba_marseille","lat":43.26194,"lon":5.37919,"is_reserved":false,"is_disabled":false,"rental_uris":{"android":"levelo://app?vid=c1852bfd-6840-44ca-b507-a10564223d89","ios":"levelo://app?vid=c1852bfd-6840-44ca-b507-a10564223d89"},"vehicle_type_id":"4","last_reported":1686949536,"current_range_meters":30800,"station_id":"ce4bhjp2rcd13ifvqg90","pricing_plan_id":"free"},{"bike_id":"a198524d-5d0a-4964-8c83-d650548fb399","system_id":"levelo_inurba_marseille","lat":43.267959,"lon":5.402685,"is_reserved":false,"is_disabled":false,"rental_uris":{"android":"levelo://app?vid=a198524d-5d0a-4964-8c83-d650548fb399","ios":"levelo://app?vid=a198524d-5d0a-4964-8c83-d650548fb399"},"vehicle_type_id":"4","last_reported":1686949536,"current_range_meters":19200,"station_id":"ce501612rcd8frsf0b60","pricing_plan_id":"free"},{"bike_id":"ecda948c-4e46-492c-8d6a-466ee3c57832","system_id":"levelo_inurba_marseille","lat":43.267959,"lon":5.402687,"is_reserved":false,"is_disabled":false,"rental_uris":{"android":"levelo://app?vid=ecda948c-4e46-492c-8d6a-466ee3c57832","ios":"levelo://app?vid=ecda948c-4e46-492c-8d6a-466ee3c57832"},"vehicle_type_id":"4","last_reported":1686949536,"current_range_meters":19200,"station_id":"ce501612rcd8frsf0b60","pricing_plan_id":"free"},{"bike_id":"71fea6fb-52fc-48a5-a2d7-29dc72612712","system_id":"levelo_inurba_marseille","lat":43.267959,"lon":5.402687,"is_reserved":false,"is_disabled":false,"rental_uris":{"android":"levelo://app?vid=71fea6fb-52fc-48a5-a2d7-29dc72612712","ios":"levelo://app?vid=71fea6fb-52fc-48a5-a2d7-29dc72612712"},"vehicle_type_id":"4","last_reported":1686949536,"current_range_meters":8800,"station_id":"ce501612rcd8frsf0b60","pricing_plan_id":"free"},{"bike_id":"93959831-27e0-41d6-b07c-4d9485ab4d93","system_id":"levelo_inurba_marseille","lat":43.298768,"lon":5.43643,"is_reserved":false,"is_disabled":false,"rental_uris":{"android":"levelo://app?vid=93959831-27e0-41d6-b07c-4d9485ab4d93","ios":"levelo://app?vid=93959831-27e0-41d6-b07c-4d9485ab4d93"},"vehicle_type_id":"4","last_reported":1686949536,"current_range_meters":30800,"station_id":"ce4bhpp2rcd13ifvqhfg","pricing_plan_id":"free"},{"bike_id":"66751729-f5ef-47d3-9dbd-baa1aa63ef8c","system_id":"levelo_inurba_marseille","lat":43.298768,"lon":5.43643,"is_reserved":false,"is_disabled":false,"rental_uris":{"android":"levelo://app?vid=66751729-f5ef-47d3-9dbd-baa1aa63ef8c","ios":"levelo://app?vid=66751729-f5ef-47d3-9dbd-baa1aa63ef8c"},"vehicle_type_id":"4","last_reported":1686949536,"current_range_meters":9200,"station_id":"ce4bhpp2rcd13ifvqhfg","pricing_plan_id":"free"},{"bike_id":"eff7ee77-40a3-49a2-a7bc-69cfb645b9b4","system_id":"levelo_inurba_marseille","lat":43.298768,"lon":5.43643,"is_reserved":false,"is_disabled":false,"rental_uris":{"android":"levelo://app?vid=eff7ee77-40a3-49a2-a7bc-69cfb645b9b4","ios":"levelo://app?vid=eff7ee77-40a3-49a2-a7bc-69cfb645b9b4"},"vehicle_type_id":"4","last_reported":1686949536,"current_range_meters":0,"station_id":"ce4bhpp2rcd13ifvqhfg","pricing_plan_id":"free"},{"bike_id":"fc6f6dd1-5daa-490a-b3ad-4f064d9c1cfe","system_id":"levelo_inurba_marseille","lat":43.260225,"lon":5.375455,"is_reserved":false,"is_disabled":false,"rental_uris":{"android":"levelo://app?vid=fc6f6dd1-5daa-490a-b3ad-4f064d9c1cfe","ios":"levelo://app?vid=fc6f6dd1-5daa-490a-b3ad-4f064d9c1cfe"},"vehicle_type_id":"4","last_reported":1686949536,"current_range_meters":31200,"station_id":"ce4bhgh2rcd13ifvqfa0","pricing_plan_id":"free"},{"bike_id":"a1d2bb86-1603-4271-8da0-0d18461887c5","system_id":"levelo_inurba_marseille","lat":43.26035,"lon":5.3755,"is_reserved":false,"is_disabled":false,"rental_uris":{"android":"levelo://app?vid=a1d2bb86-1603-4271-8da0-0d18461887c5","ios":"levelo://app?vid=a1d2bb86-1603-4271-8da0-0d18461887c5"},"vehicle_type_id":"4","last_reported":1686949536,"current_range_meters":5200,"station_id":"ce4bhgh2rcd13ifvqfa0","pricing_plan_id":"free"},{"bike_id":"61c90903-f473-40c2-9527-2f7fc5497beb","system_id":"levelo_inurba_marseille","lat":43.26031,"lon":5.37546,"is_reserved":false,"is_disabled":false,"rental_uris":{"android":"levelo://app?vid=61c90903-f473-40c2-9527-2f7fc5497beb","ios":"levelo://app?vid=61c90903-f473-40c2-9527-2f7fc5497beb"},"vehicle_type_id":"4","last_reported":1686949536,"current_range_meters":0,"station_id":"ce4bhgh2rcd13ifvqfa0","pricing_plan_id":"free"},{"bike_id":"86a91cfb-6e45-470b-9852-a55060b27fa0","system_id":"levelo_inurba_marseille","lat":43.2603,"lon":5.37554,"is_reserved":false,"is_disabled":false,"rental_uris":{"android":"levelo://app?vid=86a91cfb-6e45-470b-9852-a55060b27fa0","ios":"levelo://app?vid=86a91cfb-6e45-470b-9852-a55060b27fa0"},"vehicle_type_id":"4","last_reported":1686949536,"current_range_meters":0,"station_id":"ce4bhgh2rcd13ifvqfa0","pricing_plan_id":"free"},{"bike_id":"48fd9ed1-66eb-4144-bf27-60a2848eeffd","system_id":"levelo_inurba_marseille","lat":43.26029,"lon":5.37548,"is_reserved":false,"is_disabled":false,"rental_uris":{"android":"levelo://app?vid=48fd9ed1-66eb-4144-bf27-60a2848eeffd","ios":"levelo://app?vid=48fd9ed1-66eb-4144-bf27-60a2848eeffd"},"vehicle_type_id":"4","last_reported":1686949536,"current_range_meters":26800,"station_id":"ce4bhgh2rcd13ifvqfa0","pricing_plan_id":"free"},{"bike_id":"ede046a2-55f8-4514-8fd8-ec27aa884f4b","system_id":"levelo_inurba_marseille","lat":43.26028,"lon":5.37549,"is_reserved":false,"is_disabled":false,"rental_uris":{"android":"levelo://app?vid=ede046a2-55f8-4514-8fd8-ec27aa884f4b","ios":"levelo://app?vid=ede046a2-55f8-4514-8fd8-ec27aa884f4b"},"vehicle_type_id":"4","last_reported":1686949536,"current_range_meters":31200,"station_id":"ce4bhgh2rcd13ifvqfa0","pricing_plan_id":"free"},{"bike_id":"a54eab0a-876b-453c-bbe5-7b8fc8c8fa20","system_id":"levelo_inurba_marseille","lat":43.26027,"lon":5.37552,"is_reserved":false,"is_disabled":false,"rental_uris":{"android":"levelo://app?vid=a54eab0a-876b-453c-bbe5-7b8fc8c8fa20","ios":"levelo://app?vid=a54eab0a-876b-453c-bbe5-7b8fc8c8fa20"},"vehicle_type_id":"4","last_reported":1686949536,"current_range_meters":22800,"station_id":"ce4bhgh2rcd13ifvqfa0","pricing_plan_id":"free"},{"bike_id":"bdb08a92-19a1-4d8f-8a2d-aa3cbdb1dd31","system_id":"levelo_inurba_marseille","lat":43.26026,"lon":5.37545,"is_reserved":false,"is_disabled":false,"rental_uris":{"android":"levelo://app?vid=bdb08a92-19a1-4d8f-8a2d-aa3cbdb1dd31","ios":"levelo://app?vid=bdb08a92-19a1-4d8f-8a2d-aa3cbdb1dd31"},"vehicle_type_id":"4","last_reported":1686949536,"current_range_meters":31200,"station_id":"ce4bhgh2rcd13ifvqfa0","pricing_plan_id":"free"},{"bike_id":"af4a5e29-1bc3-425d-b9d9-0503aaef96ff","system_id":"levelo_inurba_marseille","lat":43.26024,"lon":5.37554,"is_reserved":false,"is_disabled":false,"rental_uris":{"android":"levelo://app?vid=af4a5e29-1bc3-425d-b9d9-0503aaef96ff","ios":"levelo://app?vid=af4a5e29-1bc3-425d-b9d9-0503aaef96ff"},"vehicle_type_id":"4","last_reported":1686949536,"current_range_meters":10000,"station_id":"ce4bhgh2rcd13ifvqfa0","pricing_plan_id":"free"},{"bike_id":"7e4e4f89-fab9-4e8a-9112-52798112a820","system_id":"levelo_inurba_marseille","lat":43.26023,"lon":5.37553,"is_reserved":false,"is_disabled":false,"rental_uris":{"android":"levelo://app?vid=7e4e4f89-fab9-4e8a-9112-52798112a820","ios":"levelo://app?vid=7e4e4f89-fab9-4e8a-9112-52798112a820"},"vehicle_type_id":"4","last_reported":1686949536,"current_range_meters":30800,"station_id":"ce4bhgh2rcd13ifvqfa0","pricing_plan_id":"free"},{"bike_id":"5329d6e3-027f-42ab-a933-e6e8ba33d6c1","system_id":"levelo_inurba_marseille","lat":43.26022,"lon":5.3755,"is_reserved":false,"is_disabled":false,"rental_uris":{"android":"levelo://app?vid=5329d6e3-027f-42ab-a933-e6e8ba33d6c1","ios":"levelo://app?vid=5329d6e3-027f-42ab-a933-e6e8ba33d6c1"},"vehicle_type_id":"4","last_reported":1686949536,"current_range_meters":31200,"station_id":"ce4bhgh2rcd13ifvqfa0","pricing_plan_id":"free"},{"bike_id":"bb886e93-87d8-4bb2-8125-2ea1916256b7","system_id":"levelo_inurba_marseille","lat":43.26022,"lon":5.37552,"is_reserved":false,"is_disabled":false,"rental_uris":{"android":"levelo://app?vid=bb886e93-87d8-4bb2-8125-2ea1916256b7","ios":"levelo://app?vid=bb886e93-87d8-4bb2-8125-2ea1916256b7"},"vehicle_type_id":"4","last_reported":1686949536,"current_range_meters":30800,"station_id":"ce4bhgh2rcd13ifvqfa0","pricing_plan_id":"free"},{"bike_id":"0f0e8bf8-9fd2-4f85-86ab-e68045c484c1","system_id":"levelo_inurba_marseille","lat":43.26022,"lon":5.37554,"is_reserved":false,"is_disabled":false,"rental_uris":{"android":"levelo://app?vid=0f0e8bf8-9fd2-4f85-86ab-e68045c484c1","ios":"levelo://app?vid=0f0e8bf8-9fd2-4f85-86ab-e68045c484c1"},"vehicle_type_id":"4","last_reported":1686949536,"current_range_meters":400,"station_id":"ce4bhgh2rcd13ifvqfa0","pricing_plan_id":"free"},{"bike_id":"a0aaf2b1-29ed-4e8e-9301-f01834aa9365","system_id":"levelo_inurba_marseille","lat":43.25706,"lon":5.3767,"is_reserved":false,"is_disabled":false,"rental_uris":{"android":"levelo://app?vid=a0aaf2b1-29ed-4e8e-9301-f01834aa9365","ios":"levelo://app?vid=a0aaf2b1-29ed-4e8e-9301-f01834aa9365"},"vehicle_type_id":"4","last_reported":1686949536,"current_range_meters":24400,"station_id":"","pricing_plan_id":"free"},{"bike_id":"6f86d618-2929-4a05-8847-3b16c14efad8","system_id":"levelo_inurba_marseille","lat":43.275028,"lon":5.424534,"is_reserved":false,"is_disabled":false,"rental_uris":{"android":"levelo://app?vid=6f86d618-2929-4a05-8847-3b16c14efad8","ios":"levelo://app?vid=6f86d618-2929-4a05-8847-3b16c14efad8"},"vehicle_type_id":"4","last_reported":1686949536,"current_range_meters":15200,"station_id":"ce4bhn92rcd13ifvqgrg","pricing_plan_id":"free"},{"bike_id":"e2e20208-f8a9-4473-85d2-aee08fd579ca","system_id":"levelo_inurba_marseille","lat":43.25585,"lon":5.38232,"is_reserved":false,"is_disabled":false,"rental_uris":{"android":"levelo://app?vid=e2e20208-f8a9-4473-85d2-aee08fd579ca","ios":"levelo://app?vid=e2e20208-f8a9-4473-85d2-aee08fd579ca"},"vehicle_type_id":"4","last_reported":1686949536,"current_range_meters":3200,"station_id":"ce4bhih2rcd13ifvqfs0","pricing_plan_id":"free"},{"bike_id":"be873d1f-ce3c-4087-8fe7-c30d86fd9c7b","system_id":"levelo_inurba_marseille","lat":43.25582,"lon":5.38235,"is_reserved":false,"is_disabled":false,"rental_uris":{"android":"levelo://app?vid=be873d1f-ce3c-4087-8fe7-c30d86fd9c7b","ios":"levelo://app?vid=be873d1f-ce3c-4087-8fe7-c30d86fd9c7b"},"vehicle_type_id":"4","last_reported":1686949536,"current_range_meters":20000,"station_id":"ce4bhih2rcd13ifvqfs0","pricing_plan_id":"free"},