{"last_updated":1767683905,"ttl":60,"version":"2.2","data":{"bikes":[{"bike_id":"3115bbd7-1c85-4603-a617-db0a037ecab5","system_id":"levelo_inurba_marseille","lat":43.29431,"lon":5.43223,"is_reserved":false,"is_disabled":false,"rental_uris":{"android":"levelo://app?vid=3115bbd7-1c85-4603-a617-db0a037ecab5","ios":"levelo://app?vid=3115bbd7-1c85-4603-a617-db0a037ecab5"},"vehicle_type_id":"4","last_reported":1767683905,"current_range_meters":2800,"station_id":"","pricing_plan_id":"cebpf4jnsgd1na2vs0mg"},{"bike_id":"3f8b91dc-4190-44ac-a53a-0db98b9d9ad9","system_id":"levelo_inurba_marseille","lat":43.2442,"lon":5.37053,"is_reserved":false,"is_disabled":false,"rental_uris":{"android":"levelo://app?vid=3f8b91dc-4190-44ac-a53a-0db98b9d9ad9","ios":"levelo://app?vid=3f8b91dc-4190-44ac-a53a-0db98b9d9ad9"},"vehicle_type_id":"4","last_reported":1767683905,"current_range_meters":2800,"station_id":"ce4bhhh2rcd13ifvqfk0","pricing_plan_id":"cebpf4jnsgd1na2vs0mg"},{"bike_id":"24cb2fb6-570a-4093-80a4-e6907d64487f","system_id":"levelo_inurba_marseille","lat":43.28206,"lon":5.39048,"is_reserved":false,"is_disabled":false,"rental_uris":{"android":"levelo://app?vid=24cb2fb6-570a-4093-80a4-e6907d64487f","ios":"levelo://app?vid=24cb2fb6-570a-4093-80a4-e6907d64487f"},"vehicle_type_id":"4","last_reported":1767683905,"current_range_meters":2800,"station_id":"ce4bhn92rcd13ifvqgsg","pricing_plan_id":"cebpf4jnsgd1na2vs0mg"},{"bike_id":"d859a0e5-1fff-48cd-96dd-a633efd7f338","system_id":"levelo_inurba_marseille","lat":43.30162,"lon":5.38086,"is_reserved":false,"is_disabled":false,"rental_uris":{"android":"levelo://app?vid=d859a0e5-1fff-48cd-96dd-a633efd7f338","ios":"levelo://app?vid=d859a0e5-1fff-48cd-96dd-a633efd7f338"},"vehicle_type_id":"4","last_reported":1767683905,"current_range_meters":2800,"station_id":"ce4bgjp2rcd13ifvqbh0","pricing_plan_id":"cebpf4jnsgd1na2vs0mg"},{"bike_id":"d1a8582c-3d84-4b4e-ace7-3ba06413c6cb","system_id":"levelo_inurba_marseille","lat":43.31225,"lon":5.36857,"is_reserved":false,"is_disabled":false,"rental_uris":{"android":"levelo://app?vid=d1a8582c-3d84-4b4e-ace7-3ba06413c6cb","ios":"levelo://app?vid=d1a8582c-3d84-4b4e-ace7-3ba06413c6cb"},"vehicle_type_id":"4","last_reported":1767683905,"current_range_meters":2800,"station_id":"ce4bgl92rcd13ifvqbq0","pricing_plan_id":"cebpf4jnsgd1na2vs0mg"},{"bike_id":"16869480-2001-4687-89dd-8895872e52a2","system_id":"levelo_inurba_marseille","lat":43.24672,"lon":5.3814,"is_reserved":false,"is_disabled":false,"rental_uris":{"android":"levelo://app?vid=16869480-2001-4687-89dd-8895872e52a2","ios":"levelo://app?vid=16869480-2001-4687-89dd-8895872e52a2"},"vehicle_type_id":"4","last_reported":1767683905,"current_range_meters":2800,"station_id":"ce4bhih2rcd13ifvqfr0","pricing_plan_id":"cebpf4jnsgd1na2vs0mg"},{"bike_id":"d7e9b3cd-0e21-4963-b080-616935652f79","system_id":"levelo_inurba_marseille","lat":43.290436,"lon":5.399617,"is_reserved":false,"is_disabled":false,"rental_uris":{"android":"levelo://app?vid=d7e9b3cd-0e21-4963-b080-616935652f79","ios":"levelo://app?vid=d7e9b3cd-0e21-4963-b080-616935652f79"},"vehicle_type_id":"4","last_reported":1767683905,"current_range_meters":2800,"station_id":"ce4bh3h2rcd13ifvqdn0","pricing_plan_id":"cebpf4jnsgd1na2vs0mg"},{"bike_id":"edbb502a-babb-4b56-b7b2-69e8e10c7c11","system_id":"levelo_inurba_marseille","lat":43.2852,"lon":5.48363,"is_reserved":false,"is_disabled":false,"rental_uris":{"android":"levelo://app?vid=edbb502a-babb-4b56-b7b2-69e8e10c7c11","ios":"levelo://app?vid=edbb502a-babb-4b56-b7b2-69e8e10c7c11"},"vehicle_type_id":"4","last_reported":1767683905,"current_range_meters":2800,"station_id":"","pricing_plan_id":"cebpf4jnsgd1na2vs0mg"},{"bike_id":"c48b8ab0-3aed-485b-9e87-5ea8f52478d4","system_id":"levelo_inurba_marseille","lat":43.31598,"lon":5.38392,"is_reserved":false,"is_disabled":false,"rental_uris":{"android":"levelo://app?vid=c48b8ab0-3aed-485b-9e87-5ea8f52478d4","ios":"levelo://app?vid=c48b8ab0-3aed-485b-9e87-5ea8f52478d4"},"vehicle_type_id":"4","last_reported":1767683905,"current_range_meters":2800,"station_id":"","pricing_plan_id":"cebpf4jnsgd1na2vs0mg"},{"bike_id":"527ca113-0d49-49b5-b4d1-125f41b8a927","system_id":"levelo_inurba_marseille","lat":43.25866,"lon":5.39897,"is_reserved":false,"is_disabled":false,"rental_uris":{"android":"levelo://app?vid=527ca113-0d49-49b5-b4d1-125f41b8a927","ios":"levelo://app?vid=527ca113-0d49-49b5-b4d1-125f41b8a927"},"vehicle_type_id":"4","last_reported":1767683905,"current_range_meters":2800,"station_id":"ce4bhl92rcd13ifvqghg","pricing_plan_id":"cebpf4jnsgd1na2vs0mg"},{"bike_id":"2972406d-51d8-45d2-9547-23c812d25ec7","system_id":"levelo_inurba_marseille","lat":43.31222,"lon":5.3686,"is_reserved":false,"is_disabled":false,"rental_uris":{"android":"levelo://app?vid=2972406d-51d8-45d2-9547-23c812d25ec7","ios":"levelo://app?vid=2972406d-51d8-45d2-9547-23c812d25ec7"},"vehicle_type_id":"4","last_reported":1767683905,"current_range_meters":2800,"station_id":"ce4bgl92rcd13ifvqbq0","pricing_plan_id":"cebpf4jnsgd1na2vs0mg"},{"bike_id":"9eb9f2a9-0def-423d-bc04-f48d9e280ab5","system_id":"levelo_inurba_marseille","lat":43.30537,"lon":5.36708,"is_reserved":false,"is_disabled":false,"rental_uris":{"android":"levelo://app?vid=9eb9f2a9-0def-423d-bc04-f48d9e280ab5","ios":"levelo://app?vid=9eb9f2a9-0def-423d-bc04-f48d9e280ab5"},"vehicle_type_id":"4","last_reported":1767683905,"current_range_meters":3200,"station_id":"ce4bgrp2rcd13ifvqc9g","pricing_plan_id":"cebpf4jnsgd1na2vs0mg"},{"bike_id":"ee777e48-7b1d-477a-8aa7-246572e50a4f","system_id":"levelo_inurba_marseille","lat":43.23782,"lon":5.36601,"is_reserved":false,"is_disabled":false,"rental_uris":{"android":"levelo://app?vid=ee777e48-7b1d-477a-8aa7-246572e50a4f","ios":"levelo://app?vid=ee777e48-7b1d-477a-8aa7-246572e50a4f"},"vehicle_type_id":"4","last_reported":1767683905,"current_range_meters":3200,"station_id":"st_d3nk18o9ro0c73en2l3g","pricing_plan_id":"cebpf4jnsgd1na2vs0mg"},{"bike_id":"89cdcc0f-6abe-433f-a6b7-588bb41bee1d","system_id":"levelo_inurba_marseille","lat":43.29052,"lon":5.37159,"is_reserved":false,"is_disabled":false,"rental_uris":{"android":"levelo://app?vid=89cdcc0f-6abe-433f-a6b7-588bb41bee1d","ios":"levelo://app?vid=89cdcc0f-6abe-433f-a6b7-588bb41bee1d"},"vehicle_type_id":"4","last_reported":1767683905,"current_range_meters":3200,"station_id":"ce4bh5p2rcd13ifvqe4g","pricing_plan_id":"cebpf4jnsgd1na2vs0mg"},{"bike_id":"6e875fde-8550-4fe2-912c-e45e05e6d717","system_id":"levelo_inurba_marseille","lat":43.26227,"lon":5.40444,"is_reserved":false,"is_disabled":false,"rental_uris":{"android":"levelo://app?vid=6e875fde-8550-4fe2-912c-e45e05e6d717","ios":"levelo://app?vid=6e875fde-8550-4fe2-912c-e45e05e6d717"},"vehicle_type_id":"4","last_reported":1767683905,"current_range_meters":3200,"station_id":"ce4bhmh2rcd13ifvqgmg","pricing_plan_id":"cebpf4jnsgd1na2vs0mg"},{"bike_id":"85e63a3c-0a42-4442-8bd8-e76297dfbb4f","system_id":"levelo_inurba_marseille","lat":43.2656,"lon":5.37288,"is_reserved":false,"is_disabled":false,"rental_uris":{"android":"levelo://app?vid=85e63a3c-0a42-4442-8bd8-e76297dfbb4f","ios":"levelo://app?vid=85e63a3c-0a42-4442-8bd8-e76297dfbb4f"},"vehicle_type_id":"4","last_reported":1767683905,"current_range_meters":3200,"station_id":"ce4bhg12rcd13ifvqf70","pricing_plan_id":"cebpf4jnsgd1na2vs0mg"},{"bike_id":"f3b4d634-902f-494f-ac75-5bbe54b9827c","system_id":"levelo_inurba_marseille","lat":43.293738,"lon":5.37856,"is_reserved":false,"is_disabled":false,"rental_uris":{"android":"levelo://app?vid=f3b4d634-902f-494f-ac75-5bbe54b9827c","ios":"levelo://app?vid=f3b4d634-902f-494f-ac75-5bbe54b9827c"},"vehicle_type_id":"4","last_reported":1767683905,"current_range_meters":3200,"station_id":"ce4bgjh2rcd13ifvqbf0","pricing_plan_id":"cebpf4jnsgd1na2vs0mg"},{"bike_id":"94631d93-b069-40b3-983b-fd97171222ce","system_id":"levelo_inurba_marseille","lat":43.279502,"lon":5.410498,"is_reserved":false,"is_disabled":false,"rental_uris":{"android":"levelo://app?vid=94631d93-b069-40b3-983b-fd97171222ce","ios":"levelo://app?vid=94631d93-b069-40b3-983b-fd97171222ce"},"vehicle_type_id":"4","last_reported":1767683905,"current_range_meters":3200,"station_id":"ce4bhnp2rcd13ifvqh0g","pricing_plan_id":"cebpf4jnsgd1na2vs0mg"},{"bike_id":"fd8f368a-790a-472f-8659-a02b635b9f3b","system_id":"levelo_inurba_marseille","lat":43.31065,"lon":5.37466,"is_reserved":false,"is_disabled":false,"rental_uris":{"android":"levelo://app?vid=fd8f368a-790a-472f-8659-a02b635b9f3b","ios":"levelo://app?vid=fd8f368a-790a-472f-8659-a02b635b9f3b"},"vehicle_type_id":"4","last_reported":1767683905,"current_range_meters":3200,"station_id":"","pricing_plan_id":"cebpf4jnsgd1na2vs0mg"},{"bike_id":"a37d40f7-6a7a-463a-8f5a-b25737a5a4f2","system_id":"levelo_inurba_marseille","lat":43.299,"lon":5.38004,"is_reserved":false,"is_disabled":false,"rental_uris":{"android":"levelo://app?vid=a37d40f7-6a7a-463a-8f5a-b25737a5a4f2","ios":"levelo://app?vid=a37d40f7-6a7a-463a-8f5a-b25737a5a4f2"},"vehicle_type_id":"4","last_reported":1767683905,"current_range_meters":3200,"station_id":"","pricing_plan_id":"cebpf4jnsgd1na2vs0mg"},{"bike_id":"ef84b82a-85f0-47bb-8d4d-bf6d28de5504","system_id":"levelo_inurba_marseille","lat":43.24544,"lon":5.3952,"is_reserved":false,"is_disabled":false,"rental_uris":{"android":"levelo://app?vid=ef84b82a-85f0-47bb-8d4d-bf6d28de5504","ios":"levelo://app?vid=ef84b82a-85f0-47bb-8d4d-bf6d28de5504"},"vehicle_type_id":"4","last_reported":1767683905,"current_range_meters":3200,"station_id":"ce4bhlp2rcd13ifvqgjg","pricing_plan_id":"cebpf4jnsgd1na2vs0mg"},{"bike_id":"09a7a8a9-448c-458d-9f09-8602d9d1807f","system_id":"levelo_inurba_marseille","lat":43.27976,"lon":5.38744,"is_reserved":false,"is_disabled":false,"rental_uris":{"android":"levelo://app?vid=09a7a8a9-448c-458d-9f09-8602d9d1807f","ios":"levelo://app?vid=09a7a8a9-448c-458d-9f09-8602d9d1807f"},"vehicle_type_id":"4","last_reported":1767683905,"current_range_meters":3200,"station_id":"ce4bhg12rcd13ifvqf80","pricing_plan_id":"cebpf4jnsgd1na2vs0mg"},{"bike_id":"88cc61a2-2d18-4a75-a097-88cb9cbaaddb","system_id":"levelo_inurba_marseille","lat":43.32102,"lon":5.36761,"is_reserved":false,"is_disabled":false,"rental_uris":{"android":"levelo://app?vid=88cc61a2-2d18-4a75-a097-88cb9cbaaddb","ios":"levelo://app?vid=88cc61a2-2d18-4a75-a097-88cb9cbaaddb"},"vehicle_type_id":"4","last_reported":1767683905,"current_range_meters":3200,"station_id":"ce4bhrh2rcd13ifvqhug","pricing_plan_id":"cebpf4jnsgd1na2vs0mg"},{"bike_id":"2437c1ee-c390-4f3b-9da0-f586af6f1afc","system_id":"levelo_inurba_marseille","lat":43.28159,"lon":5.42635,"is_reserved":false,"is_disabled":false,"rental_uris":{"android":"levelo://app?vid=2437c1ee-c390-4f3b-9da0-f586af6f1afc","ios":"levelo://app?vid=2437c1ee-c390-4f3b-9da0-f586af6f1afc"},"vehicle_type_id":"4","last_reported":1767683905,"current_range_meters":3200,"station_id":"ce4bhnh2rcd13ifvqgug","pricing_plan_id":"cebpf4jnsgd1na2vs0mg"},{"bike_id":"bbc52f9d-58c0-4a25-aafe-221d02bf47d5","system_id":"levelo_inurba_marseille","lat":43.31361,"lon":5.38487,"is_reserved":false,"is_disabled":false,"rental_uris":{"android":"levelo://app?vid=bbc52f9d-58c0-4a25-aafe-221d02bf47d5","ios":"levelo://app?vid=bbc52f9d-58c0-4a25-aafe-221d02bf47d5"},"vehicle_type_id":"4","last_reported":1767683905,"current_range_meters":3200,"station_id":"ce4bgt92rcd13ifvqcf0","pricing_plan_id":"cebpf4jnsgd1na2vs0mg"},{"bike_id":"5c208eb7-cfe0-4db6-8dff-e4e21273e139","system_id":"levelo_inurba_marseille","lat":43.26936,"lon":5.40233,"is_reserved":false,"is_disabled":false,"rental_uris":{"android":"levelo://app?vid=5c208eb7-cfe0-4db6-8dff-e4e21273e139","ios":"levelo://app?vid=5c208eb7-cfe0-4db6-8dff-e4e21273e139"},"vehicle_type_id":"4","last_reported":1767683905,"current_range_meters":3600,"station_id":"cjm6bp8fraef2m0cb0m0","pricing_plan_id":"cebpf4jnsgd1na2vs0mg"},{"bike_id":"e3aa32d8-6703-4bb5-89dd-c6404061fee0","system_id":"levelo_inurba_marseille","lat":43.31373,"lon":5.38037,"is_reserved":false,"is_disabled":false,"rental_uris":{"android":"levelo://app?vid=e3aa32d8-6703-4bb5-89dd-c6404061fee0","ios":"levelo://app?vid=e3aa32d8-6703-4bb5-89dd-c6404061fee0"},"vehicle_type_id":"4","last_reported":1767683905,"current_range_meters":3600,"station_id":"","pricing_plan_id":"cebpf4jnsgd1na2vs0mg"},{"bike_id":"55654a27-5cd8-4223-b844-2fc4c9f1600a","system_id":"levelo_inurba_marseille","lat":43.31371,"lon":5.37902,"is_reserved":false,"is_disabled":false,"rental_uris":{"android":"levelo://app?vid=55654a27-5cd8-4223-b844-2fc4c9f1600a","ios":"levelo://app?vid=55654a27-5cd8-4223-b844-2fc4c9f1600a"},"vehicle_type_id":"4","last_reported":1767683905,"current_range_meters":3600,"station_id":"","pricing_plan_id":"cebpf4jnsgd1na2vs0mg"},{"bike_id":"8776db07-49cf-462a-9954-d0b5c22ff390","system_id":"levelo_inurba_marseille","lat":43.30806,"lon":5.3814,"is_reserved":false,"is_disabled":false,"rental_uris":{"android":"levelo://app?vid=8776db07-49cf-462a-9954-d0b5c22ff390","ios":"levelo://app?vid=8776db07-49cf-462a-9954-d0b5c22ff390"},"vehicle_type_id":"4","last_reported":1767683905,"current_range_meters":3600,"station_id":"ce4bgt12rcd13ifvqce0","pricing_plan_id":"cebpf4jnsgd1na2vs0mg"},{"bike_id":"7409f8d2-dfa9-4964-9bc6-c3a46a1923df","system_id":"levelo_inurba_marseille","lat":43.27371,"lon":5.3625,"is_reserved":false,"is_disabled":false,"rental_uris":{"android":"levelo://app?vid=7409f8d2-dfa9-4964-9bc6-c3a46a1923df","ios":"levelo://app?vid=7409f8d2-dfa9-4964-9bc6-c3a46a1923df"},"vehicle_type_id":"4","last_reported":1767683905,"current_range_meters":3600,"station_id":"ce4bhbh2rcd13ifvqeo0","pricing_plan_id":"cebpf4jnsgd1na2vs0mg"},{"bike_id":"252f9439-b03c-4b8e-9d70-5c0de994fc9f","system_id":"levelo_inurba_marseille","lat":43.302502,"lon":5.400802,"is_reserved":false,"is_disabled":false,"rental_uris":{"android":"levelo://app?vid=252f9439-b03c-4b8e-9d70-5c0de994fc9f","ios":"levelo://app?vid=252f9439-b03c-4b8e-9d70-5c0de994fc9f"},"vehicle_type_id":"4","last_reported":1767683905,"current_range_meters":3600,"station_id":"ce4bgvh2rcd13ifvqcs0","pricing_plan_id":"cebpf4jnsgd1na2vs0mg"},{"bike_id":"6914d477-bcf8-41a3-9bc2-fb7bc286770f","system_id":"levelo_inurba_marseille","lat":43.30155,"lon":5.38076,"is_reserved":false,"is_disabled":false,"rental_uris":{"android":"levelo://app?vid=6914d477-bcf8-41a3-9bc2-fb7bc286770f","ios":"levelo://app?vid=6914d477-bcf8-41a3-9bc2-fb7bc286770f"},"vehicle_type_id":"4","last_reported":1767683905,"current_range_meters":3600,"station_id":"ce4bgjp2rcd13ifvqbh0","pricing_plan_id":"cebpf4jnsgd1na2vs0mg"},{"bike_id":"e85ee9b5-f42b-49c0-ae82-9060f3d9b986","system_id":"levelo_inurba_marseille","lat":43.29059,"lon":5.3997,"is_reserved":false,"is_disabled":false,"rental_uris":{"android":"levelo://app?vid=e85ee9b5-f42b-49c0-ae82-9060f3d9b986","ios":"levelo://app?vid=e85ee9b5-f42b-49c0-ae82-9060f3d9b986"},"vehicle_type_id":"4","last_reported":1767683905,"current_range_meters":3600,"station_id":"ce4bh392rcd13ifvqdm0","pricing_plan_id":"cebpf4jnsgd1na2vs0mg"},{"bike_id":"5c827fc7-5784-4786-aa73-f42f7218f09d","system_id":"levelo_inurba_marseille","lat":43.30028,"lon":5.38335,"is_reserved":false,"is_disabled":false,"rental_uris":{"android":"levelo://app?vid=5c827fc7-5784-4786-aa73-f42f7218f09d","ios":"levelo://app?vid=5c827fc7-5784-4786-aa73-f42f7218f09d"},"vehicle_type_id":"4","last_reported":1767683905,"current_range_meters":4000,"station_id":"ce4bhn12rcd13ifvqgpg","pricing_plan_id":"cebpf4jnsgd1na2vs0mg"},{"bike_id":"85f65327-244d-4e0f-989f-0ca631a03630","system_id":"levelo_inurba_marseille","lat":43.28162,"lon":5.42636,"is_reserved":false,"is_disabled":false,"rental_uris":{"android":"levelo://app?vid=85f65327-244d-4e0f-989f-0ca631a03630","ios":"levelo://app?vid=85f65327-244d-4e0f-989f-0ca631a03630"},"vehicle_type_id":"4","last_reported":1767683905,"current_range_meters":4000,"station_id":"ce4bhnh2rcd13ifvqgug","pricing_plan_id":"cebpf4jnsgd1na2vs0mg"},{"bike_id":"a346bc68-538a-4c08-a956-8c993271e9f9","system_id":"levelo_inurba_marseille","lat":43.31626,"lon":5.38444,"is_reserved":false,"is_disabled":false,"rental_uris":{"android":"levelo://app?vid=a346bc68-538a-4c08-a956-8c993271e9f9","ios":"levelo://app?vid=a346bc68-538a-4c08-a956-8c993271e9f9"},"vehicle_type_id":"4","last_reported":1767683905,"current_range_meters":4000,"station_id":"","pricing_plan_id":"cebpf4jnsgd1na2vs0mg"},{"bike_id":"eda2162e-547f-48cb-8c21-ee61809bbbb5","system_id":"levelo_inurba_marseille","lat":43.28492,"lon":5.38566,"is_reserved":false,"is_disabled":false,"rental_uris":{"android":"levelo://app?vid=eda2162e-547f-48cb-8c21-ee61809bbbb5","ios":"levelo://app?vid=eda2162e-547f-48cb-8c21-ee61809bbbb5"},"vehicle_type_id":"4","last_reported":1767683905,"current_range_meters":4000,"station_id":"ce4bh8p2rcd13ifvqeb0","pricing_plan_id":"cebpf4jnsgd1na2vs0mg"},{"bike_id":"a521f1e5-04a4-4f93-9ae1-8abfbfbd224d","system_id":"levelo_inurba_marseille","lat":43.30362,"lon":5.43064,"is_reserved":false,"is_disabled":false,"rental_uris":{"android":"levelo://app?vid=a521f1e5-04a4-4f93-9ae1-8abfbfbd224d","ios":"levelo://app?vid=a521f1e5-04a4-4f93-9ae1-8abfbfbd224d"},"vehicle_type_id":"4","last_reported":1767683905,"current_range_meters":4000,"station_id":"","pricing_plan_id":"cebpf4jnsgd1na2vs0mg"},{"bike_id":"5c752d77-7b25-48ba-99ef-9b278d0c9e59","system_id":"levelo_inurba_marseille","lat":43.2439,"lon":5.37034,"is_reserved":false,"is_disabled":false,"rental_uris":{"android":"levelo://app?vid=5c752d77-7b25-48ba-99ef-9b278d0c9e59","ios":"levelo://app?vid=5c752d77-7b25-48ba-99ef-9b278d0c9e59"},"vehicle_type_id":"4","last_reported":1767683905,"current_range_meters":4000,"station_id":"ce4bhhh2rcd13ifvqfk0","pricing_plan_id":"cebpf4jnsgd1na2vs0mg"},{"bike_id":"c5365846-c619-4f12-8c92-97c9f9725a15","system_id":"levelo_inurba_marseille","lat":43.29497,"lon":5.37921,"is_reserved":false,"is_disabled":false,"rental_uris":{"android":"levelo://app?vid=c5365846-c619-4f12-8c92-97c9f9725a15","ios":"levelo://app?vid=c5365846-c619-4f12-8c92-97c9f9725a15"},"vehicle_type_id":"4","last_reported":1767683905,"current_range_meters":4000,"station_id":"","pricing_plan_id":"cebpf4jnsgd1na2vs0mg"},{"bike_id":"801e0e40-fac2-4fbc-9636-b8eb982b0989","system_id":"levelo_inurba_marseille","lat":43.23952,"lon":5.36629,"is_reserved":false,"is_disabled":false,"rental_uris":{"android":"levelo://app?vid=801e0e40-fac2-4fbc-9636-b8eb982b0989","ios":"levelo://app?vid=801e0e40-fac2-4fbc-9636-b8eb982b0989"},"vehicle_type_id":"4","last_reported":1767683905,"current_range_meters":4400,"station_id":"ce4bhi12rcd13ifvqfp0","pricing_plan_id":"cebpf4jnsgd1na2vs0mg"},{"bike_id":"c50f9524-5196-4d03-a4e4-55d54285bbdb","system_id":"levelo_inurba_marseille","lat":43.29755,"lon":5.4277,"is_reserved":false,"is_disabled":false,"rental_uris":{"android":"levelo://app?vid=c50f9524-5196-4d03-a4e4-55d54285bbdb","ios":"levelo://app?vid=c50f9524-5196-4d03-a4e4-55d54285bbdb"},"vehicle_type_id":"4","last_reported":1767683905,"current_range_meters":4400,"station_id":"st_d3md5207bmas73dh9klg","pricing_plan_id":"cebpf4jnsgd1na2vs0mg"},{"bike_id":"767d4f87-9107-4fde-8de0-01e5d11b21c6","system_id":"levelo_inurba_marseille","lat":43.28492,"lon":5.38415,"is_reserved":false,"is_disabled":false,"rental_uris":{"android":"levelo://app?vid=767d4f87-9107-4fde-8de0-01e5d11b21c6","ios":"levelo://app?vid=767d4f87-9107-4fde-8de0-01e5d11b21c6"},"vehicle_type_id":"4","last_reported":1767683905,"current_range_meters":4400,"station_id":"ce4bh512rcd13ifvqe3g","pricing_plan_id":"cebpf4jnsgd1na2vs0mg"},{"bike_id":"7f0effc9-a455-4ad1-9f50-585d68dccc8b","system_id":"levelo_inurba_marseille","lat":43.28816,"lon":5.36395,"is_reserved":false,"is_disabled":false,"rental_uris":{"android":"levelo://app?vid=7f0effc9-a455-4ad1-9f50-585d68dccc8b","ios":"levelo://app?vid=7f0effc9-a455-4ad1-9f50-585d68dccc8b"},"vehicle_type_id":"4","last_reported":1767683905,"current_range_meters":4400,"station_id":"","pricing_plan_id":"cebpf4jnsgd1na2vs0mg"},{"bike_id":"78b11bb5-5700-4fb6-b0c1-d37e13475e71","system_id":"levelo_inurba_marseille","lat":43.29382,"lon":5.37851,"is_reserved":false,"is_disabled":false,"rental_uris":{"android":"levelo://app?vid=78b11bb5-5700-4fb6-b0c1-d37e13475e71","ios":"levelo://app?vid=78b11bb5-5700-4fb6-b0c1-d37e13475e71"},"vehicle_type_id":"4","last_reported":1767683905,"current_range_meters":4400,"station_id":"ce4bgjh2rcd13ifvqbf0","pricing_plan_id":"cebpf4jnsgd1na2vs0mg"},{"bike_id":"d19e7d8f-8d39-4e32-b60a-b3305948b30b","system_id":"levelo_inurba_marseille","lat":43.24165,"lon":5.36396,"is_reserved":false,"is_disabled":false,"rental_uris":{"android":"levelo://app?vid=d19e7d8f-8d39-4e32-b60a-b3305948b30b","ios":"levelo://app?vid=d19e7d8f-8d39-4e32-b60a-b3305948b30b"},"vehicle_type_id":"4","last_reported":1767683905,"current_range_meters":4400,"station_id":"cpo36qri1sfpv3e86is0","pricing_plan_id":"cebpf4jnsgd1na2vs0mg"},{"bike_id":"91376068-e04c-4276-87ec-946e1f8fa9dd","system_id":"levelo_inurba_marseille","lat":43.270892,"lon":5.40208,"is_reserved":false,"is_disabled":false,"rental_uris":{"android":"levelo://app?vid=91376068-e04c-4276-87ec-946e1f8fa9dd","ios":"levelo://app?vid=91376068-e04c-4276-87ec-946e1f8fa9dd"},"vehicle_type_id":"4","last_reported":1767683905,"current_range_meters":4400,"station_id":"ce4bhg92rcd13ifvqf90","pricing_plan_id":"cebpf4jnsgd1na2vs0mg"},{"bike_id":"577a8429-e907-45de-a0fc-b8c3d38163f6","system_id":"levelo_inurba_marseille","lat":43.27911,"lon":5.38258,"is_reserved":false,"is_disabled":false,"rental_uris":{"android":"levelo://app?vid=577a8429-e907-45de-a0fc-b8c3d38163f6","ios":"levelo://app?vid=577a8429-e907-45de-a0fc-b8c3d38163f6"},"vehicle_type_id":"4","last_reported":1767683905,"current_range_meters":4400,"station_id":"","pricing_plan_id":"cebpf4jnsgd1na2vs0mg"},{"bike_id":"506403bb-f5d1-4958-a710-37acfa7c195c","system_id":"levelo_inurba_marseille","lat":43.312475,"lon":5.381224,"is_reserved":false,"is_disabled":false,"rental_uris":{"android":"levelo://app?vid=506403bb-f5d1-4958-a710-37acfa7c195c","ios":"levelo://app?vid=506403bb-f5d1-4958-a710-37acfa7c195c"},"vehicle_type_id":"4","last_reported":1767683905,"current_range_meters":4400,"station_id":"","pricing_plan_id":"cebpf4jnsgd1na2vs0mg"},{"bike_id":"a7ddf1fe-a380-4005-be9c-254f57d4d0b0","system_id":"levelo_inurba_marseille","lat":43.337444,"lon":5.374475,"is_reserved":false,"is_disabled":true,"rental_uris":{"android":"levelo://app?vid=a7ddf1fe-a380-4005-be9c-254f57d4d0b0","ios":"levelo://app?vid=a7ddf1fe-a380-4005-be9c-254f57d4d0b0"},"vehicle_type_id":"4","last_reported":1767683905,"current_range_meters":4400,"station_id":"","pricing_plan_id":"cebpf4jnsgd1na2vs0mg"},{"bike_id":"8f3e537d-e514-408a-bb87-1ef66add8f2f","system_id":"levelo_inurba_marseille","lat":43.29233,"lon":5.36069,"is_reserved":false,"is_disabled":false,"rental_uris":{"android":"levelo://app?vid=8f3e537d-e514-408a-bb87-1ef66add8f2f","ios":"levelo://app?vid=8f3e537d-e514-408a-bb87-1ef66add8f2f"},"vehicle_type_id":"4","last_reported":1767683905,"current_range_meters":4400,"station_id":"ce4bhbh2rcd13ifvqeqg","pricing_plan_id":"cebpf4jnsgd1na2vs0mg"},{"bike_id":"bded8fdd-ec77-4f6c-ac80-640892e88778","system_id":"levelo_inurba_marseille","lat":43.27819,"lon":5.40707,"is_reserved":false,"is_disabled":false,"rental_uris":{"android":"levelo://app?vid=bded8fdd-ec77-4f6c-ac80-640892e88778","ios":"levelo://app?vid=bded8fdd-ec77-4f6c-ac80-640892e88778"},"vehicle_type_id":"4","last_reported":1767683905,"current_range_meters":4400,"station_id":"ce4bhnh2rcd13ifvqgtg","pricing_plan_id":"cebpf4jnsgd1na2vs0mg"},{"bike_id":"9a898d8c-cf91-4640-acfb-d3be64781fb9","system_id":"levelo_inurba_marseille","lat":43.284759,"lon":5.484058,"is_reserved":false,"is_disabled":false,"rental_uris":{"android":"levelo://app?vid=9a898d8c-cf91-4640-acfb-d3be64781fb9","ios":"levelo://app?vid=9a898d8c-cf91-4640-acfb-d3be64781fb9"},"vehicle_type_id":"4","last_reported":1767683905,"current_range_meters":4400,"station_id":"","pricing_plan_id":"cebpf4jnsgd1na2vs0mg"},{"bike_id":"ada5ea05-8b77-44e5-a332-b6a3ee4ffff9","system_id":"levelo_inurba_marseille","lat":43.2958,"lon":5.36743,"is_reserved":false,"is_disabled":false,"rental_uris":{"android":"levelo://app?vid=ada5ea05-8b77-44e5-a332-b6a3ee4ffff9","ios":"levelo://app?vid=ada5ea05-8b77-44e5-a332-b6a3ee4ffff9"},"vehicle_type_id":"4","last_reported":1767683905,"current_range_meters":4400,"station_id":"ce4bgph2rcd13ifvqc2g","pricing_plan_id":"cebpf4jnsgd1na2vs0mg"},{"bike_id":"dca9a712-a982-44b1-8cbd-17efb24372eb","system_id":"levelo_inurba_marseille","lat":43.30135,"lon":5.36657,"is_reserved":false,"is_disabled":false,"rental_uris":{"android":"levelo://app?vid=dca9a712-a982-44b1-8cbd-17efb24372eb","ios":"levelo://app?vid=dca9a712-a982-44b1-8cbd-17efb24372eb"},"vehicle_type_id":"4","last_reported":1767683905,"current_range_meters":4800,"station_id":"","pricing_plan_id":"cebpf4jnsgd1na2vs0mg"},{"bike_id":"803689f6-700f-46ea-893e-250f914f8390","system_id":"levelo_inurba_marseille","lat":43.302113,"lon":5.394605,"is_reserved":false,"is_disabled":false,"rental_uris":{"android":"levelo://app?vid=803689f6-700f-46ea-893e-250f914f8390","ios":"levelo://app?vid=803689f6-700f-46ea-893e-250f914f8390"},"vehicle_type_id":"4","last_reported":1767683905,"current_range_meters":4800,"station_id":"ce4bh0p2rcd13ifvqd70","pricing_plan_id":"cebpf4jnsgd1na2vs0mg"},{"bike_id":"624def88-3290-4b1b-8e34-827eb7187f9b","system_id":"levelo_inurba_marseille","lat":43.270664,"lon":5.422759,"is_reserved":false,"is_disabled":false,"rental_uris":{"android":"levelo://app?vid=624def88-3290-4b1b-8e34-827eb7187f9b","ios":"levelo://app?vid=624def88-3290-4b1b-8e34-827eb7187f9b"},"vehicle_type_id":"4","last_reported":1767683905,"current_range_meters":4800,"station_id":"ce4bhk92rcd13ifvqgb0","pricing_plan_id":"cebpf4jnsgd1na2vs0mg"},{"bike_id":"504c62db-8dc0-4d03-9c83-c1acce2e5fab","system_id":"levelo_inurba_marseille","lat":43.29147,"lon":5.37972,"is_reserved":false,"is_disabled":false,"rental_uris":{"android":"levelo://app?vid=504c62db-8dc0-4d03-9c83-c1acce2e5fab","ios":"levelo://app?vid=504c62db-8dc0-4d03-9c83-c1acce2e5fab"},"vehicle_type_id":"4","last_reported":1767683905,"current_range_meters":4800,"station_id":"","pricing_plan_id":"cebpf4jnsgd1na2vs0mg"},{"bike_id":"f05dcc8c-12de-4c84-ab0a-2aa2c5435220","system_id":"levelo_inurba_marseille","lat":43.2836,"lon":5.38623,"is_reserved":false,"is_disabled":false,"rental_uris":{"android":"levelo://app?vid=f05dcc8c-12de-4c84-ab0a-2aa2c5435220","ios":"levelo://app?vid=f05dcc8c-12de-4c84-ab0a-2aa2c5435220"},"vehicle_type_id":"4","last_reported":1767683905,"current_range_meters":4800,"station_id":"ce4bh492rcd13ifvqdvg","pricing_plan_id":"cebpf4jnsgd1na2vs0mg"},{"bike_id":"9b094b8c-f667-4088-ac1e-817281e9d57e","system_id":"levelo_inurba_marseille","lat":43.27491,"lon":5.42446,"is_reserved":false,"is_disabled":false,"rental_uris":{"android":"levelo://app?vid=9b094b8c-f667-4088-ac1e-817281e9d57e","ios":"levelo://app?vid=9b094b8c-f667-4088-ac1e-817281e9d57e"},"vehicle_type_id":"4","last_reported":1767683905,"current_range_meters":4800,"station_id":"ce4bhn92rcd13ifvqgrg","pricing_plan_id":"cebpf4jnsgd1na2vs0mg"},{"bike_id":"bd27684b-a597-44ac-bb17-1709572b496a","system_id":"levelo_inurba_marseille","lat":43.29375,"lon":5.37829,"is_reserved":false,"is_disabled":false,"rental_uris":{"android":"levelo://app?vid=bd27684b-a597-44ac-bb17-1709572b496a","ios":"levelo://app?vid=bd27684b-a597-44ac-bb17-1709572b496a"},"vehicle_type_id":"4","last_reported":1767683905,"current_range_meters":4800,"station_id":"ce4bgjh2rcd13ifvqbf0","pricing_plan_id":"cebpf4jnsgd1na2vs0mg"},{"bike_id":"49a70347-36ae-4442-a0c3-32c4ed4b4ff4","system_id":"levelo_inurba_marseille","lat":43.28856,"lon":5.42524,"is_reserved":false,"is_disabled":false,"rental_uris":{"android":"levelo://app?vid=49a70347-36ae-4442-a0c3-32c4ed4b4ff4","ios":"levelo://app?vid=49a70347-36ae-4442-a0c3-32c4ed4b4ff4"},"vehicle_type_id":"4","last_reported":1767683905,"current_range_meters":5600,"station_id":"st_d3b462108ojc7389ooeg","pricing_plan_id":"cebpf4jnsgd1na2vs0mg"},{"bike_id":"58aa433d-6523-48fb-83cc-9676ed151533","system_id":"levelo_inurba_marseille","lat":43.279158,"lon":5.395898,"is_reserved":false,"is_disabled":false,"rental_uris":{"android":"levelo://app?vid=58aa433d-6523-48fb-83cc-9676ed151533","ios":"levelo://app?vid=58aa433d-6523-48fb-83cc-9676ed151533"},"vehicle_type_id":"4","last_reported":1767683905,"current_range_meters":5600,"station_id":"ce4bhf92rcd13ifvqf40","pricing_plan_id":"cebpf4jnsgd1na2vs0mg"},{"bike_id":"0f7eefdf-8972-4dc8-89aa-952cc1944736","system_id":"levelo_inurba_marseille","lat":43.27813,"lon":5.407306,"is_reserved":false,"is_disabled":false,"rental_uris":{"android":"levelo://app?vid=0f7eefdf-8972-4dc8-89aa-952cc1944736","ios":"levelo://app?vid=0f7eefdf-8972-4dc8-89aa-952cc1944736"},"vehicle_type_id":"4","last_reported":1767683905,"current_range_meters":5600,"station_id":"ce4bhnh2rcd13ifvqgtg","pricing_plan_id":"cebpf4jnsgd1na2vs0mg"},{"bike_id":"9b6d4335-5c89-40cd-a57b-155467c3599f","system_id":"levelo_inurba_marseille","lat":43.28078,"lon":5.39649,"is_reserved":false,"is_disabled":false,"rental_uris":{"android":"levelo://app?vid=9b6d4335-5c89-40cd-a57b-155467c3599f","ios":"levelo://app?vid=9b6d4335-5c89-40cd-a57b-155467c3599f"},"vehicle_type_id":"4","last_reported":1767683905,"current_range_meters":5600,"station_id":"ce4bho12rcd13ifvqh2g","pricing_plan_id":"cebpf4jnsgd1na2vs0mg"},{"bike_id":"bf5aaa97-9258-436f-934d-edcef9bf7954","system_id":"levelo_inurba_marseille","lat":43.3169,"lon":5.39993,"is_reserved":false,"is_disabled":false,"rental_uris":{"android":"levelo://app?vid=bf5aaa97-9258-436f-934d-edcef9bf7954","ios":"levelo://app?vid=bf5aaa97-9258-436f-934d-edcef9bf7954"},"vehicle_type_id":"4","last_reported":1767683905,"current_range_meters":5600,"station_id":"","pricing_plan_id":"cebpf4jnsgd1na2vs0mg"},{"bike_id":"cfd96779-ac06-41e3-84f7-a5ca7fe9eaab","system_id":"levelo_inurba_marseille","lat":43.28472,"lon":5.48385,"is_reserved":false,"is_disabled":false,"rental_uris":{"android":"levelo://app?vid=cfd96779-ac06-41e3-84f7-a5ca7fe9eaab","ios":"levelo://app?vid=cfd96779-ac06-41e3-84f7-a5ca7fe9eaab"},"vehicle_type_id":"4","last_reported":1767683905,"current_range_meters":5600,"station_id":"","pricing_plan_id":"cebpf4jnsgd1na2vs0mg"},{"bike_id":"8c1916f3-9874-4eb0-8987-deefc3073e14","system_id":"levelo_inurba_marseille","lat":43.29104,"lon":5.38112,"is_reserved":false,"is_disabled":false,"rental_uris":{"android":"levelo://app?vid=8c1916f3-9874-4eb0-8987-deefc3073e14","ios":"levelo://app?vid=8c1916f3-9874-4eb0-8987-deefc3073e14"},"vehicle_type_id":"4","last_reported":1767683905,"current_range_meters":6000,"station_id":"ce4bh512rcd13ifvqe2g","pricing_plan_id":"cebpf4jnsgd1na2vs0mg"},{"bike_id":"2ad11e8b-6525-4219-97fa-e942c570f9bd","system_id":"levelo_inurba_marseille","lat":43.27041,"lon":5.38317,"is_reserved":false,"is_disabled":false,"rental_uris":{"android":"levelo://app?vid=2ad11e8b-6525-4219-97fa-e942c570f9bd","ios":"levelo://app?vid=2ad11e8b-6525-4219-97fa-e942c570f9bd"},"vehicle_type_id":"4","last_reported":1767683905,"current_range_meters":6000,"station_id":"st_d3n2fo6cfp8s73cte1j0","pricing_plan_id":"cebpf4jnsgd1na2vs0mg"},{"bike_id":"b0405c1f-3452-4f34-9f4d-79f9b8ddb38f","system_id":"levelo_inurba_marseille","lat":43.28487,"lon":5.38576,"is_reserved":false,"is_disabled":false,"rental_uris":{"android":"levelo://app?vid=b0405c1f-3452-4f34-9f4d-79f9b8ddb38f","ios":"levelo://app?vid=b0405c1f-3452-4f34-9f4d-79f9b8ddb38f"},"vehicle_type_id":"4","last_reported":1767683905,"current_range_meters":6000,"station_id":"ce4bh8p2rcd13ifvqeb0","pricing_plan_id":"cebpf4jnsgd1na2vs0mg"},{"bike_id":"e5080626-6fd3-465a-95fc-ffeeb81121ed","system_id":"levelo_inurba_marseille","lat":43.30594,"lon":5.36714,"is_reserved":false,"is_disabled":false,"rental_uris":{"android":"levelo://app?vid=e5080626-6fd3-465a-95fc-ffeeb81121ed","ios":"levelo://app?vid=e5080626-6fd3-465a-95fc-ffeeb81121ed"},"vehicle_type_id":"4","last_reported":1767683905,"current_range_meters":6000,"station_id":"","pricing_plan_id":"cebpf4jnsgd1na2vs0mg"},{"bike_id":"093f3379-cf7d-4260-b2a9-7ae528f92dcb","system_id":"levelo_inurba_marseille","lat":43.296177,"lon":5.377259,"is_reserved":false,"is_disabled":false,"rental_uris":{"android":"levelo://app?vid=093f3379-cf7d-4260-b2a9-7ae528f92dcb","ios":"levelo://app?vid=093f3379-cf7d-4260-b2a9-7ae528f92dcb"},"vehicle_type_id":"4","last_reported":1767683905,"current_range_meters":6000,"station_id":"ce4bgi92rcd13ifvqb90","pricing_plan_id":"cebpf4jnsgd1na2vs0mg"},{"bike_id":"f97c9d69-08f3-4e6e-837a-e318a0cb9742","system_id":"levelo_inurba_marseille","lat":43.29297,"lon":5.36828,"is_reserved":false,"is_disabled":false,"rental_uris":{"android":"levelo://app?vid=f97c9d69-08f3-4e6e-837a-e318a0cb9742","ios":"levelo://app?vid=f97c9d69-08f3-4e6e-837a-e318a0cb9742"},"vehicle_type_id":"4","last_reported":1767683905,"current_range_meters":6000,"station_id":"ce4bhbp2rcd13ifvqesg","pricing_plan_id":"cebpf4jnsgd1na2vs0mg"},{"bike_id":"0e918b68-9ad7-4fa7-a25b-8a5f660aa768","system_id":"levelo_inurba_marseille","lat":43.29173,"lon":5.37149,"is_reserved":false,"is_disabled":false,"rental_uris":{"android":"levelo://app?vid=0e918b68-9ad7-4fa7-a25b-8a5f660aa768","ios":"levelo://app?vid=0e918b68-9ad7-4fa7-a25b-8a5f660aa768"},"vehicle_type_id":"4","last_reported":1767683905,"current_range_meters":6000,"station_id":"ce4bha92rcd13ifvqeh0","pricing_plan_id":"cebpf4jnsgd1na2vs0mg"},{"bike_id":"86472776-251b-4fb5-b478-7af760895798","system_id":"levelo_inurba_marseille","lat":43.26228,"lon":5.38833,"is_reserved":false,"is_disabled":false,"rental_uris":{"android":"levelo://app?vid=86472776-251b-4fb5-b478-7af760895798","ios":"levelo://app?vid=86472776-251b-4fb5-b478-7af760895798"},"vehicle_type_id":"4","last_reported":1767683905,"current_range_meters":6000,"station_id":"","pricing_plan_id":"cebpf4jnsgd1na2vs0mg"},{"bike_id":"6d144e18-c317-45d2-a70f-5ce6eec5adda","system_id":"levelo_inurba_marseille","lat":43.26709,"lon":5.40216,"is_reserved":false,"is_disabled":false,"rental_uris":{"android":"levelo://app?vid=6d144e18-c317-45d2-a70f-5ce6eec5adda","ios":"levelo://app?vid=6d144e18-c317-45d2-a70f-5ce6eec5adda"},"vehicle_type_id":"4","last_reported":1767683905,"current_range_meters":6000,"station_id":"","pricing_plan_id":"cebpf4jnsgd1na2vs0mg"},{"bike_id":"19ae9f94-2604-4ea1-9b89-2cfef13f757c","system_id":"levelo_inurba_marseille","lat":43.253418,"lon":5.421636,"is_reserved":false,"is_disabled":false,"rental_uris":{"android":"levelo://app?vid=19ae9f94-2604-4ea1-9b89-2cfef13f757c","ios":"levelo://app?vid=19ae9f94-2604-4ea1-9b89-2cfef13f757c"},"vehicle_type_id":"4","last_reported":1767683905,"current_range_meters":6000,"station_id":"st_d2m65c5bi1j21697t3ng","pricing_plan_id":"cebpf4jnsgd1na2vs0mg"},{"bike_id":"8674a0fb-2929-4fee-a4ac-adb3c958d8ee","system_id":"levelo_inurba_marseille","lat":43.29212,"lon":5.36076,"is_reserved":false,"is_disabled":false,"rental_uris":{"android":"levelo://app?vid=8674a0fb-2929-4fee-a4ac-adb3c958d8ee","ios":"levelo://app?vid=8674a0fb-2929-4fee-a4ac-adb3c958d8ee"},"vehicle_type_id":"4","last_reported":1767683905,"current_range_meters":6000,"station_id":"ce4bhbh2rcd13ifvqeqg","pricing_plan_id":"cebpf4jnsgd1na2vs0mg"},{"bike_id":"e3a366e7-432a-4c86-8fda-c24791fb1ce5","system_id":"levelo_inurba_marseille","lat":43.29762,"lon":5.37759,"is_reserved":false,"is_disabled":false,"rental_uris":{"android":"levelo://app?vid=e3a366e7-432a-4c86-8fda-c24791fb1ce5","ios":"levelo://app?vid=e3a366e7-432a-4c86-8fda-c24791fb1ce5"},"vehicle_type_id":"4","last_reported":1767683905,"current_range_meters":6000,"station_id":"","pricing_plan_id":"cebpf4jnsgd1na2vs0mg"},{"bike_id":"8299be8b-6e8b-4ca4-ad90-3349d456df65","system_id":"levelo_inurba_marseille","lat":43.27195,"lon":5.40993,"is_reserved":false,"is_disabled":true,"rental_uris":{"android":"levelo://app?vid=8299be8b-6e8b-4ca4-ad90-3349d456df65","ios":"levelo://app?vid=8299be8b-6e8b-4ca4-ad90-3349d456df65"},"vehicle_type_id":"4","last_reported":1767683905,"current_range_meters":6000,"station_id":"ce4bhl12rcd13ifvqgf0","pricing_plan_id":"cebpf4jnsgd1na2vs0mg"},{"bike_id":"fde24df3-addb-4a7b-b0e7-f2e289c22e5d","system_id":"levelo_inurba_marseille","lat":43.310411,"lon":5.393744,"is_reserved":false,"is_disabled":false,"rental_uris":{"android":"levelo://app?vid=fde24df3-addb-4a7b-b0e7-f2e289c22e5d","ios":"levelo://app?vid=fde24df3-addb-4a7b-b0e7-f2e289c22e5d"},"vehicle_type_id":"4","last_reported":1767683905,"current_range_meters":6000,"station_id":"","pricing_plan_id":"cebpf4jnsgd1na2vs0mg"},{"bike_id":"531ba190-2d4e-4722-99ab-7185252e6433","system_id":"levelo_inurba_marseille","lat":43.22572,"lon":5.41614,"is_reserved":false,"is_disabled":false,"rental_uris":{"android":"levelo://app?vid=531ba190-2d4e-4722-99ab-7185252e6433","ios":"levelo://app?vid=531ba190-2d4e-4722-99ab-7185252e6433"},"vehicle_type_id":"4","last_reported":1767683905,"current_range_meters":6000,"station_id":"st_d2o4gvlbi1j2169b742g","pricing_plan_id":"cebpf4jnsgd1na2vs0mg"},{"bike_id":"0e56497d-2fdb-4797-b5b0-2fbc698bc20a","system_id":"levelo_inurba_marseille","lat":43.293735,"lon":5.378661,"is_reserved":false,"is_disabled":false,"rental_uris":{"android":"levelo://app?vid=0e56497d-2fdb-4797-b5b0-2fbc698bc20a","ios":"levelo://app?vid=0e56497d-2fdb-4797-b5b0-2fbc698bc20a"},"vehicle_type_id":"4","last_reported":1767683905,"current_range_meters":6000,"station_id":"ce4bgjh2rcd13ifvqbf0","pricing_plan_id":"cebpf4jnsgd1na2vs0mg"},{"bike_id":"a49ccc60-1c05-455f-b690-8b6829c4966b","system_id":"levelo_inurba_marseille","lat":43.24071,"lon":5.37759,"is_reserved":false,"is_disabled":false,"rental_uris":{"android":"levelo://app?vid=a49ccc60-1c05-455f-b690-8b6829c4966b","ios":"levelo://app?vid=a49ccc60-1c05-455f-b690-8b6829c4966b"},"vehicle_type_id":"4","last_reported":1767683905,"current_range_meters":6000,"station_id":"ce4bhnp2rcd13ifvqgvg","pricing_plan_id":"cebpf4jnsgd1na2vs0mg"},{"bike_id":"bd370c67-7ebd-4b98-b04e-decd496cefe6","system_id":"levelo_inurba_marseille","lat":43.301,"lon":5.39077,"is_reserved":false,"is_disabled":true,"rental_uris":{"android":"levelo://app?vid=bd370c67-7ebd-4b98-b04e-decd496cefe6","ios":"levelo://app?vid=bd370c67-7ebd-4b98-b04e-decd496cefe6"},"vehicle_type_id":"4","last_reported":1767683905,"current_range_meters":6400,"station_id":"ce4bh192rcd13ifvqdb0","pricing_plan_id":"cebpf4jnsgd1na2vs0mg"},{"bike_id":"ece91064-8675-490a-b853-1cfa2d016560","system_id":"levelo_inurba_marseille","lat":43.239605,"lon":5.366299,"is_reserved":false,"is_disabled":false,"rental_uris":{"android":"levelo://app?vid=ece91064-8675-490a-b853-1cfa2d016560","ios":"levelo://app?vid=ece91064-8675-490a-b853-1cfa2d016560"},"vehicle_type_id":"4","last_reported":1767683905,"current_range_meters":6400,"station_id":"ce4bhi12rcd13ifvqfp0","pricing_plan_id":"cebpf4jnsgd1na2vs0mg"},{"bike_id":"a414d67b-9afa-4a87-9fac-f67cdff12698","system_id":"levelo_inurba_marseille","lat":43.29451,"lon":5.37934,"is_reserved":false,"is_disabled":false,"rental_uris":{"android":"levelo://app?vid=a414d67b-9afa-4a87-9fac-f67cdff12698","ios":"levelo://app?vid=a414d67b-9afa-4a87-9fac-f67cdff12698"},"vehicle_type_id":"4","last_reported":1767683905,"current_range_meters":6400,"station_id":"","pricing_plan_id":"cebpf4jnsgd1na2vs0mg"},{"bike_id":"00da6500-68b4-4b45-be1f-48d675212bd1","system_id":"levelo_inurba_marseille","lat":43.30541,"lon":5.36528,"is_reserved":false,"is_disabled":false,"rental_uris":{"android":"levelo://app?vid=00da6500-68b4-4b45-be1f-48d675212bd1","ios":"levelo://app?vid=00da6500-68b4-4b45-be1f-48d675212bd1"},"vehicle_type_id":"4","last_reported":1767683905,"current_range_meters":6400,"station_id":"ce4bgs12rcd13ifvqcag","pricing_plan_id":"cebpf4jnsgd1na2vs0mg"},{"bike_id":"39bf0acd-4f70-47d3-a144-ba9f5f687ddd","system_id":"levelo_inurba_marseille","lat":43.2553,"lon":5.37648,"is_reserved":false,"is_disabled":false,"rental_uris":{"android":"levelo://app?vid=39bf0acd-4f70-47d3-a144-ba9f5f687ddd","ios":"levelo://app?vid=39bf0acd-4f70-47d3-a144-ba9f5f687ddd"},"vehicle_type_id":"4","last_reported":1767683905,"current_range_meters":6400,"station_id":"ce4bhh12rcd13ifvqff0","pricing_plan_id":"cebpf4jnsgd1na2vs0mg"},{"bike_id":"c1694b41-e18e-46a6-ad0f-1cad09925867","system_id":"levelo_inurba_marseille","lat":43.28865,"lon":5.42508,"is_reserved":false,"is_disabled":false,"rental_uris":{"android":"levelo://app?vid=c1694b41-e18e-46a6-ad0f-1cad09925867","ios":"levelo://app?vid=c1694b41-e18e-46a6-ad0f-1cad09925867"},"vehicle_type_id":"4","last_reported":1767683905,"current_range_meters":6400,"station_id":"st_d3b462108ojc7389ooeg","pricing_plan_id":"cebpf4jnsgd1na2vs0mg"},{"bike_id":"3644cd0f-608b-4f9d-b97f-3c7483afa80f","system_id":"levelo_inurba_marseille","lat":43.31488,"lon":5.37309,"is_reserved":false,"is_disabled":false,"rental_uris":{"android":"levelo://app?vid=3644cd0f-608b-4f9d-b97f-3c7483afa80f","ios":"levelo://app?vid=3644cd0f-608b-4f9d-b97f-3c7483afa80f"},"vehicle_type_id":"4","last_reported":1767683905,"current_range_meters":6400,"station_id":"ce4bgt12rcd13ifvqcd0","pricing_plan_id":"cebpf4jnsgd1na2vs0mg"},{"bike_id":"139e13a1-e72b-4a5d-ab11-5f421c44da57","system_id":"levelo_inurba_marseille","lat":43.30367,"lon":5.42513,"is_reserved":false,"is_disabled":false,"rental_uris":{"android":"levelo://app?vid=139e13a1-e72b-4a5d-ab11-5f421c44da57","ios":"levelo://app?vid=139e13a1-e72b-4a5d-ab11-5f421c44da57"},"vehicle_type_id":"4","last_reported":1767683905,"current_range_meters":6400,"station_id":"ce4bhoh2rcd13ifvqh6g","pricing_plan_id":"cebpf4jnsgd1na2vs0mg"},{"bike_id":"6f46e1b4-663e-4c43-9cc4-4c8a983f164f","system_id":"levelo_inurba_marseille","lat":43.23143,"lon":5.4372,"is_reserved":false,"is_disabled":false,"rental_uris":{"android":"levelo://app?vid=6f46e1b4-663e-4c43-9cc4-4c8a983f164f","ios":"levelo://app?vid=6f46e1b4-663e-4c43-9cc4-4c8a983f164f"},"vehicle_type_id":"4","last_reported":1767683905,"current_range_meters":6400,"station_id":"ce4bhmp2rcd13ifvqgog","pricing_plan_id":"cebpf4jnsgd1na2vs0mg"},{"bike_id":"aff7ede2-d3c6-4426-827e-a4ce14157f34","system_id":"levelo_inurba_marseille","lat":43.30765,"lon":5.38125,"is_reserved":false,"is_disabled":false,"rental_uris":{"android":"levelo://app?vid=aff7ede2-d3c6-4426-827e-a4ce14157f34","ios":"levelo://app?vid=aff7ede2-d3c6-4426-827e-a4ce14157f34"},"vehicle_type_id":"4","last_reported":1767683905,"current_range_meters":6400,"station_id":"ce4bgt12rcd13ifvqce0","pricing_plan_id":"cebpf4jnsgd1na2vs0mg"},{"bike_id":"28abf1e2-a38c-4481-b948-880e95850eb2","system_id":"levelo_inurba_marseille","lat":43.305516,"lon":5.367082,"is_reserved":false,"is_disabled":false,"rental_uris":{"android":"levelo://app?vid=28abf1e2-a38c-4481-b948-880e95850eb2","ios":"levelo://app?vid=28abf1e2-a38c-4481-b948-880e95850eb2"},"vehicle_type_id":"4","last_reported":1767683905,"current_range_meters":6400,"station_id":"ce4bgrp2rcd13ifvqc9g","pricing_plan_id":"cebpf4jnsgd1na2vs0mg"},{"bike_id":"8888b60a-8078-401c-9213-eda80077f961","system_id":"levelo_inurba_marseille","lat":43.28615,"lon":5.35125,"is_reserved":false,"is_disabled":false,"rental_uris":{"android":"levelo://app?vid=8888b60a-8078-401c-9213-eda80077f961","ios":"levelo://app?vid=8888b60a-8078-401c-9213-eda80077f961"},"vehicle_type_id":"4","last_reported":1767683905,"current_range_meters":6400,"station_id":"ce4bhch2rcd13ifvqeug","pricing_plan_id":"cebpf4jnsgd1na2vs0mg"},{"bike_id":"6b322d1c-13b4-4164-9464-e25ade04017e","system_id":"levelo_inurba_marseille","lat":43.3014,"lon":5.39892,"is_reserved":false,"is_disabled":false,"rental_uris":{"android":"levelo://app?vid=6b322d1c-13b4-4164-9464-e25ade04017e","ios":"levelo://app?vid=6b322d1c-13b4-4164-9464-e25ade04017e"},"vehicle_type_id":"4","last_reported":1767683905,"current_range_meters":6400,"station_id":"ce4bh0h2rcd13ifvqd40","pricing_plan_id":"cebpf4jnsgd1na2vs0mg"},{"bike_id":"6d191c0d-9688-47e2-a157-a57896f6da66","system_id":"levelo_inurba_marseille","lat":43.28724,"lon":5.37932,"is_reserved":false,"is_disabled":false,"rental_uris":{"android":"levelo://app?vid=6d191c0d-9688-47e2-a157-a57896f6da66","ios":"levelo://app?vid=6d191c0d-9688-47e2-a157-a57896f6da66"},"vehicle_type_id":"4","last_reported":1767683905,"current_range_meters":6400,"station_id":"ce4bh9p2rcd13ifvqec0","pricing_plan_id":"cebpf4jnsgd1na2vs0mg"},{"bike_id":"28fc6bcc-e465-48e9-ad1d-810f9d62680e","system_id":"levelo_inurba_marseille","lat":43.30324,"lon":5.3689,"is_reserved":false,"is_disabled":false,"rental_uris":{"android":"levelo://app?vid=28fc6bcc-e465-48e9-ad1d-810f9d62680e","ios":"levelo://app?vid=28fc6bcc-e465-48e9-ad1d-810f9d62680e"},"vehicle_type_id":"4","last_reported":1767683905,"current_range_meters":6400,"station_id":"ce4bgqh2rcd13ifvqc5g","pricing_plan_id":"cebpf4jnsgd1na2vs0mg"},{"bike_id":"e95ce2d0-07e6-408c-94e5-1989f12b6691","system_id":"levelo_inurba_marseille","lat":43.24394,"lon":5.37062,"is_reserved":false,"is_disabled":false,"rental_uris":{"android":"levelo://app?vid=e95ce2d0-07e6-408c-94e5-1989f12b6691","ios":"levelo://app?vid=e95ce2d0-07e6-408c-94e5-1989f12b6691"},"vehicle_type_id":"4","last_reported":1767683905,"current_range_meters":6400,"station_id":"ce4bhhh2rcd13ifvqfk0","pricing_plan_id":"cebpf4jnsgd1na2vs0mg"},{"bike_id":"88937819-b642-4576-806b-8ca13a84c8f9","system_id":"levelo_inurba_marseille","lat":43.28339,"lon":5.38092,"is_reserved":false,"is_disabled":false,"rental_uris":{"android":"levelo://app?vid=88937819-b642-4576-806b-8ca13a84c8f9","ios":"levelo://app?vid=88937819-b642-4576-806b-8ca13a84c8f9"},"vehicle_type_id":"4","last_reported":1767683905,"current_range_meters":6400,"station_id":"ce4bh412rcd13ifvqdr0","pricing_plan_id":"cebpf4jnsgd1na2vs0mg"},{"bike_id":"b7c232d3-ecfe-4bee-ab2a-846d323ca756","system_id":"levelo_inurba_marseille","lat":43.24956,"lon":5.40493,"is_reserved":false,"is_disabled":false,"rental_uris":{"android":"levelo://app?vid=b7c232d3-ecfe-4bee-ab2a-846d323ca756","ios":"levelo://app?vid=b7c232d3-ecfe-4bee-ab2a-846d323ca756"},"vehicle_type_id":"4","last_reported":1767683905,"current_range_meters":6400,"station_id":"st_d2ngiaodas8pm72gd1h0","pricing_plan_id":"cebpf4jnsgd1na2vs0mg"},{"bike_id":"00ebedf9-0c96-49ce-bb80-7f39d448d3e4","system_id":"levelo_inurba_marseille","lat":43.29189,"lon":5.35793,"is_reserved":false,"is_disabled":false,"rental_uris":{"android":"levelo://app?vid=00ebedf9-0c96-49ce-bb80-7f39d448d3e4","ios":"levelo://app?vid=00ebedf9-0c96-49ce-bb80-7f39d448d3e4"},"vehicle_type_id":"4","last_reported":1767683905,"current_range_meters":6400,"station_id":"ce4bhb12rcd13ifvqel0","pricing_plan_id":"cebpf4jnsgd1na2vs0mg"},{"bike_id":"6978fec3-7553-4c88-b8a0-53d7a29ef142","system_id":"levelo_inurba_marseille","lat":43.26271,"lon":5.39793,"is_reserved":false,"is_disabled":false,"rental_uris":{"android":"levelo://app?vid=6978fec3-7553-4c88-b8a0-53d7a29ef142","ios":"levelo://app?vid=6978fec3-7553-4c88-b8a0-53d7a29ef142"},"vehicle_type_id":"4","last_reported":1767683905,"current_range_meters":6400,"station_id":"","pricing_plan_id":"cebpf4jnsgd1na2vs0mg"},{"bike_id":"d63adab8-fe33-47d0-bef7-72b9f680ef30","system_id":"levelo_inurba_marseille","lat":43.28863,"lon":5.42503,"is_reserved":false,"is_disabled":false,"rental_uris":{"android":"levelo://app?vid=d63adab8-fe33-47d0-bef7-72b9f680ef30","ios":"levelo://app?vid=d63adab8-fe33-47d0-bef7-72b9f680ef30"},"vehicle_type_id":"4","last_reported":1767683905,"current_range_meters":6400,"station_id":"st_d3b462108ojc7389ooeg","pricing_plan_id":"cebpf4jnsgd1na2vs0mg"},{"bike_id":"2ea21baa-54b2-43da-8514-448faedbd310","system_id":"levelo_inurba_marseille","lat":43.30911,"lon":5.36851,"is_reserved":false,"is_disabled":false,"rental_uris":{"android":"levelo://app?vid=2ea21baa-54b2-43da-8514-448faedbd310","ios":"levelo://app?vid=2ea21baa-54b2-43da-8514-448faedbd310"},"vehicle_type_id":"4","last_reported":1767683905,"current_range_meters":6400,"station_id":"ce4bgn92rcd13ifvqbvg","pricing_plan_id":"cebpf4jnsgd1na2vs0mg"},{"bike_id":"da033954-77a4-4a42-af93-ddd0b90806cb","system_id":"levelo_inurba_marseille","lat":43.312731,"lon":5.37392,"is_reserved":false,"is_disabled":false,"rental_uris":{"android":"levelo://app?vid=da033954-77a4-4a42-af93-ddd0b90806cb","ios":"levelo://app?vid=da033954-77a4-4a42-af93-ddd0b90806cb"},"vehicle_type_id":"4","last_reported":1767683905,"current_range_meters":6800,"station_id":"","pricing_plan_id":"cebpf4jnsgd1na2vs0mg"},{"bike_id":"e867cfd9-2ba6-4f31-8058-f523db311fd5","system_id":"levelo_inurba_marseille","lat":43.2707,"lon":5.42278,"is_reserved":false,"is_disabled":false,"rental_uris":{"android":"levelo://app?vid=e867cfd9-2ba6-4f31-8058-f523db311fd5","ios":"levelo://app?vid=e867cfd9-2ba6-4f31-8058-f523db311fd5"},"vehicle_type_id":"4","last_reported":1767683905,"current_range_meters":6800,"station_id":"ce4bhk92rcd13ifvqgb0","pricing_plan_id":"cebpf4jnsgd1na2vs0mg"},{"bike_id":"b54e5aa3-f80c-415f-8398-f57ed95bfed2","system_id":"levelo_inurba_marseille","lat":43.22548,"lon":5.41626,"is_reserved":false,"is_disabled":false,"rental_uris":{"android":"levelo://app?vid=b54e5aa3-f80c-415f-8398-f57ed95bfed2","ios":"levelo://app?vid=b54e5aa3-f80c-415f-8398-f57ed95bfed2"},"vehicle_type_id":"4","last_reported":1767683905,"current_range_meters":6800,"station_id":"st_d2o4gvlbi1j2169b742g","pricing_plan_id":"cebpf4jnsgd1na2vs0mg"},{"bike_id":"f195a72e-e4f7-4129-808a-cab5b6257fad","system_id":"levelo_inurba_marseille","lat":43.21195,"lon":5.35072,"is_reserved":false,"is_disabled":false,"rental_uris":{"android":"levelo://app?vid=f195a72e-e4f7-4129-808a-cab5b6257fad","ios":"levelo://app?vid=f195a72e-e4f7-4129-808a-cab5b6257fad"},"vehicle_type_id":"4","last_reported":1767683905,"current_range_meters":6800,"station_id":"st_cvj6sg6p6f1abm77japg","pricing_plan_id":"cebpf4jnsgd1na2vs0mg"},{"bike_id":"e99ae78e-f27e-4d5f-a939-9d17f1de8fcf","system_id":"levelo_inurba_marseille","lat":43.305398,"lon":5.365613,"is_reserved":false,"is_disabled":false,"rental_uris":{"android":"levelo://app?vid=e99ae78e-f27e-4d5f-a939-9d17f1de8fcf","ios":"levelo://app?vid=e99ae78e-f27e-4d5f-a939-9d17f1de8fcf"},"vehicle_type_id":"4","last_reported":1767683905,"current_range_meters":6800,"station_id":"ce4bgs12rcd13ifvqcag","pricing_plan_id":"cebpf4jnsgd1na2vs0mg"},{"bike_id":"1e8f5205-973a-43e9-90dc-afde1e68dc83","system_id":"levelo_inurba_marseille","lat":43.31063,"lon":5.40069,"is_reserved":false,"is_disabled":false,"rental_uris":{"android":"levelo://app?vid=1e8f5205-973a-43e9-90dc-afde1e68dc83","ios":"levelo://app?vid=1e8f5205-973a-43e9-90dc-afde1e68dc83"},"vehicle_type_id":"4","last_reported":1767683905,"current_range_meters":6800,"station_id":"","pricing_plan_id":"cebpf4jnsgd1na2vs0mg"},{"bike_id":"d479a5e7-3cbe-4ebf-a3e1-182f6667dcef","system_id":"levelo_inurba_marseille","lat":43.24393,"lon":5.37071,"is_reserved":false,"is_disabled":false,"rental_uris":{"android":"levelo://app?vid=d479a5e7-3cbe-4ebf-a3e1-182f6667dcef","ios":"levelo://app?vid=d479a5e7-3cbe-4ebf-a3e1-182f6667dcef"},"vehicle_type_id":"4","last_reported":1767683905,"current_range_meters":6800,"station_id":"ce4bhhh2rcd13ifvqfk0","pricing_plan_id":"cebpf4jnsgd1na2vs0mg"},{"bike_id":"260e134e-07aa-4807-a9d1-94fcc7fc3b36","system_id":"levelo_inurba_marseille","lat":43.30467,"lon":5.37908,"is_reserved":false,"is_disabled":false,"rental_uris":{"android":"levelo://app?vid=260e134e-07aa-4807-a9d1-94fcc7fc3b36","ios":"levelo://app?vid=260e134e-07aa-4807-a9d1-94fcc7fc3b36"},"vehicle_type_id":"4","last_reported":1767683905,"current_range_meters":6800,"station_id":"ce4bgup2rcd13ifvqcn0","pricing_plan_id":"cebpf4jnsgd1na2vs0mg"},{"bike_id":"1ae92490-659a-4b31-9282-3be4a846553c","system_id":"levelo_inurba_marseille","lat":43.31705,"lon":5.39842,"is_reserved":false,"is_disabled":false,"rental_uris":{"android":"levelo://app?vid=1ae92490-659a-4b31-9282-3be4a846553c","ios":"levelo://app?vid=1ae92490-659a-4b31-9282-3be4a846553c"},"vehicle_type_id":"4","last_reported":1767683905,"current_range_meters":6800,"station_id":"","pricing_plan_id":"cebpf4jnsgd1na2vs0mg"},{"bike_id":"150aba92-ff82-4e7d-aa4f-4d9583997907","system_id":"levelo_inurba_marseille","lat":43.22934,"lon":5.35375,"is_reserved":false,"is_disabled":false,"rental_uris":{"android":"levelo://app?vid=150aba92-ff82-4e7d-aa4f-4d9583997907","ios":"levelo://app?vid=150aba92-ff82-4e7d-aa4f-4d9583997907"},"vehicle_type_id":"4","last_reported":1767683905,"current_range_meters":6800,"station_id":"cpo3532slgdg3j2ikp40","pricing_plan_id":"cebpf4jnsgd1na2vs0mg"},{"bike_id":"aaf8f526-d023-4b38-bf56-10367dc9309b","system_id":"levelo_inurba_marseille","lat":43.27983,"lon":5.41663,"is_reserved":false,"is_disabled":false,"rental_uris":{"android":"levelo://app?vid=aaf8f526-d023-4b38-bf56-10367dc9309b","ios":"levelo://app?vid=aaf8f526-d023-4b38-bf56-10367dc9309b"},"vehicle_type_id":"4","last_reported":1767683905,"current_range_meters":6800,"station_id":"ce4bho12rcd13ifvqh1g","pricing_plan_id":"cebpf4jnsgd1na2vs0mg"},{"bike_id":"e99dab34-17f6-423d-b33b-48ac939b33ed","system_id":"levelo_inurba_marseille","lat":43.23993,"lon":5.40721,"is_reserved":false,"is_disabled":false,"rental_uris":{"android":"levelo://app?vid=e99dab34-17f6-423d-b33b-48ac939b33ed","ios":"levelo://app?vid=e99dab34-17f6-423d-b33b-48ac939b33ed"},"vehicle_type_id":"4","last_reported":1767683905,"current_range_meters":6800,"station_id":"","pricing_plan_id":"cebpf4jnsgd1na2vs0mg"},{"bike_id":"fdaa8e3d-b497-493e-bb1a-595742eba8bb","system_id":"levelo_inurba_marseille","lat":43.23155,"lon":5.4371,"is_reserved":false,"is_disabled":false,"rental_uris":{"android":"levelo://app?vid=fdaa8e3d-b497-493e-bb1a-595742eba8bb","ios":"levelo://app?vid=fdaa8e3d-b497-493e-bb1a-595742eba8bb"},"vehicle_type_id":"4","last_reported":1767683905,"current_range_meters":6800,"station_id":"ce4bhmp2rcd13ifvqgog","pricing_plan_id":"cebpf4jnsgd1na2vs0mg"},{"bike_id":"7c66cd5b-1ea7-4bc0-8234-30b50d6f8f8b","system_id":"levelo_inurba_marseille","lat":43.33158,"lon":5.37685,"is_reserved":false,"is_disabled":false,"rental_uris":{"android":"levelo://app?vid=7c66cd5b-1ea7-4bc0-8234-30b50d6f8f8b","ios":"levelo://app?vid=7c66cd5b-1ea7-4bc0-8234-30b50d6f8f8b"},"vehicle_type_id":"4","last_reported":1767683905,"current_range_meters":6800,"station_id":"st_d46cu089ee8s73dldbu0","pricing_plan_id":"cebpf4jnsgd1na2vs0mg"},{"bike_id":"e684172b-ec09-41ca-b7fc-943b8d49c82b","system_id":"levelo_inurba_marseille","lat":43.2657,"lon":5.38994,"is_reserved":false,"is_disabled":false,"rental_uris":{"android":"levelo://app?vid=e684172b-ec09-41ca-b7fc-943b8d49c82b","ios":"levelo://app?vid=e684172b-ec09-41ca-b7fc-943b8d49c82b"},"vehicle_type_id":"4","last_reported":1767683905,"current_range_meters":6800,"station_id":"ce4bhe12rcd13ifvqf30","pricing_plan_id":"cebpf4jnsgd1na2vs0mg"},{"bike_id":"4f197866-80d3-4126-b564-260c9c967362","system_id":"levelo_inurba_marseille","lat":43.273357,"lon":5.390652,"is_reserved":false,"is_disabled":false,"rental_uris":{"android":"levelo://app?vid=4f197866-80d3-4126-b564-260c9c967362","ios":"levelo://app?vid=4f197866-80d3-4126-b564-260c9c967362"},"vehicle_type_id":"4","last_reported":1767683905,"current_range_meters":6800,"station_id":"ce4bhgp2rcd13ifvqfe0","pricing_plan_id":"cebpf4jnsgd1na2vs0mg"},{"bike_id":"53fbe8d7-5e1a-4a63-b3fe-3b66cff7b3ba","system_id":"levelo_inurba_marseille","lat":43.30187,"lon":5.36608,"is_reserved":false,"is_disabled":false,"rental_uris":{"android":"levelo://app?vid=53fbe8d7-5e1a-4a63-b3fe-3b66cff7b3ba","ios":"levelo://app?vid=53fbe8d7-5e1a-4a63-b3fe-3b66cff7b3ba"},"vehicle_type_id":"4","last_reported":1767683905,"current_range_meters":6800,"station_id":"ce4bgrh2rcd13ifvqc8g","pricing_plan_id":"cebpf4jnsgd1na2vs0mg"},{"bike_id":"a8cd7802-144d-4c11-af29-be2259acf14c","system_id":"levelo_inurba_marseille","lat":43.24362,"lon":5.37085,"is_reserved":false,"is_disabled":false,"rental_uris":{"android":"levelo://app?vid=a8cd7802-144d-4c11-af29-be2259acf14c","ios":"levelo://app?vid=a8cd7802-144d-4c11-af29-be2259acf14c"},"vehicle_type_id":"4","last_reported":1767683905,"current_range_meters":6800,"station_id":"","pricing_plan_id":"cebpf4jnsgd1na2vs0mg"},{"bike_id":"2690cc6b-fb54-4480-b8a5-920c6af52697","system_id":"levelo_inurba_marseille","lat":43.30964,"lon":5.39033,"is_reserved":false,"is_disabled":false,"rental_uris":{"android":"levelo://app?vid=2690cc6b-fb54-4480-b8a5-920c6af52697","ios":"levelo://app?vid=2690cc6b-fb54-4480-b8a5-920c6af52697"},"vehicle_type_id":"4","last_reported":1767683905,"current_range_meters":6800,"station_id":"ce4bgup2rcd13ifvqco0","pricing_plan_id":"cebpf4jnsgd1na2vs0mg"},{"bike_id":"08597d3b-78bf-4d1d-84e3-67cebc91408d","system_id":"levelo_inurba_marseille","lat":43.25582,"lon":5.38234,"is_reserved":false,"is_disabled":false,"rental_uris":{"android":"levelo://app?vid=08597d3b-78bf-4d1d-84e3-67cebc91408d","ios":"levelo://app?vid=08597d3b-78bf-4d1d-84e3-67cebc91408d"},"vehicle_type_id":"4","last_reported":1767683905,"current_range_meters":6800,"station_id":"ce4bhih2rcd13ifvqfs0","pricing_plan_id":"cebpf4jnsgd1na2vs0mg"},{"bike_id":"f6c65bf9-9b55-420c-ab59-94a8cddd9cc0","system_id":"levelo_inurba_marseille","lat":43.27497,"lon":5.42445,"is_reserved":false,"is_disabled":false,"rental_uris":{"android":"levelo://app?vid=f6c65bf9-9b55-420c-ab59-94a8cddd9cc0","ios":"levelo://app?vid=f6c65bf9-9b55-420c-ab59-94a8cddd9cc0"},"vehicle_type_id":"4","last_reported":1767683905,"current_range_meters":6800,"station_id":"ce4bhn92rcd13ifvqgrg","pricing_plan_id":"cebpf4jnsgd1na2vs0mg"},{"bike_id":"9c431483-b667-41bf-bf6e-9fc0326ca2d5","system_id":"levelo_inurba_marseille","lat":43.27052,"lon":5.40286,"is_reserved":false,"is_disabled":false,"rental_uris":{"android":"levelo://app?vid=9c431483-b667-41bf-bf6e-9fc0326ca2d5","ios":"levelo://app?vid=9c431483-b667-41bf-bf6e-9fc0326ca2d5"},"vehicle_type_id":"4","last_reported":1767683905,"current_range_meters":6800,"station_id":"ce4bhk92rcd13ifvqgc0","pricing_plan_id":"cebpf4jnsgd1na2vs0mg"},{"bike_id":"fc24e154-126f-487a-abd8-81f2874cd1b6","system_id":"levelo_inurba_marseille","lat":43.271828,"lon":5.409933,"is_reserved":false,"is_disabled":false,"rental_uris":{"android":"levelo://app?vid=fc24e154-126f-487a-abd8-81f2874cd1b6","ios":"levelo://app?vid=fc24e154-126f-487a-abd8-81f2874cd1b6"},"vehicle_type_id":"4","last_reported":1767683905,"current_range_meters":7200,"station_id":"ce4bhl12rcd13ifvqgf0","pricing_plan_id":"cebpf4jnsgd1na2vs0mg"},{"bike_id":"58327590-a8e0-4c00-9f2e-f934f6672946","system_id":"levelo_inurba_marseille","lat":43.2784,"lon":5.39205,"is_reserved":false,"is_disabled":false,"rental_uris":{"android":"levelo://app?vid=58327590-a8e0-4c00-9f2e-f934f6672946","ios":"levelo://app?vid=58327590-a8e0-4c00-9f2e-f934f6672946"},"vehicle_type_id":"4","last_reported":1767683905,"current_range_meters":7200,"station_id":"ce4bhjp2rcd13ifvqga0","pricing_plan_id":"cebpf4jnsgd1na2vs0mg"},{"bike_id":"363d24ec-7f56-48ba-afb4-d6a61684329e","system_id":"levelo_inurba_marseille","lat":43.30475,"lon":5.41039,"is_reserved":false,"is_disabled":false,"rental_uris":{"android":"levelo://app?vid=363d24ec-7f56-48ba-afb4-d6a61684329e","ios":"levelo://app?vid=363d24ec-7f56-48ba-afb4-d6a61684329e"},"vehicle_type_id":"4","last_reported":1767683905,"current_range_meters":7200,"station_id":"","pricing_plan_id":"cebpf4jnsgd1na2vs0mg"},{"bike_id":"a2705467-58d0-47d8-8aee-544b6d032199","system_id":"levelo_inurba_marseille","lat":43.24471,"lon":5.42524,"is_reserved":false,"is_disabled":false,"rental_uris":{"android":"levelo://app?vid=a2705467-58d0-47d8-8aee-544b6d032199","ios":"levelo://app?vid=a2705467-58d0-47d8-8aee-544b6d032199"},"vehicle_type_id":"4","last_reported":1767683905,"current_range_meters":7200,"station_id":"st_d4a3vfp97mjs738cd8kg","pricing_plan_id":"cebpf4jnsgd1na2vs0mg"},{"bike_id":"9c1f964b-63f3-482b-b8aa-946aa8840ac2","system_id":"levelo_inurba_marseille","lat":43.246343,"lon":5.431363,"is_reserved":false,"is_disabled":false,"rental_uris":{"android":"levelo://app?vid=9c1f964b-63f3-482b-b8aa-946aa8840ac2","ios":"levelo://app?vid=9c1f964b-63f3-482b-b8aa-946aa8840ac2"},"vehicle_type_id":"4","last_reported":1767683905,"current_range_meters":7200,"station_id":"st_d2m6c4gdas8pm72e190g","pricing_plan_id":"cebpf4jnsgd1na2vs0mg"},{"bike_id":"1a6e1c7c-9ed2-4166-8162-ade6bcac84e8","system_id":"levelo_inurba_marseille","lat":43.2396,"lon":5.36621,"is_reserved":false,"is_disabled":false,"rental_uris":{"android":"levelo://app?vid=1a6e1c7c-9ed2-4166-8162-ade6bcac84e8","ios":"levelo://app?vid=1a6e1c7c-9ed2-4166-8162-ade6bcac84e8"},"vehicle_type_id":"4","last_reported":1767683905,"current_range_meters":7200,"station_id":"ce4bhi12rcd13ifvqfp0","pricing_plan_id":"cebpf4jnsgd1na2vs0mg"},{"bike_id":"355c1d25-ff0d-43f2-abc7-da11db998286","system_id":"levelo_inurba_marseille","lat":43.23182,"lon":5.35558,"is_reserved":false,"is_disabled":false,"rental_uris":{"android":"levelo://app?vid=355c1d25-ff0d-43f2-abc7-da11db998286","ios":"levelo://app?vid=355c1d25-ff0d-43f2-abc7-da11db998286"},"vehicle_type_id":"4","last_reported":1767683905,"current_range_meters":7200,"station_id":"ce4bhu92rcd13ifvqi70","pricing_plan_id":"cebpf4jnsgd1na2vs0mg"},{"bike_id":"69b54c5e-99fd-4b4a-a8fa-07e156c09108","system_id":"levelo_inurba_marseille","lat":43.27947,"lon":5.41036,"is_reserved":false,"is_disabled":false,"rental_uris":{"android":"levelo://app?vid=69b54c5e-99fd-4b4a-a8fa-07e156c09108","ios":"levelo://app?vid=69b54c5e-99fd-4b4a-a8fa-07e156c09108"},"vehicle_type_id":"4","last_reported":1767683905,"current_range_meters":7200,"station_id":"ce4bhnp2rcd13ifvqh0g","pricing_plan_id":"cebpf4jnsgd1na2vs0mg"},{"bike_id":"2375141c-46f9-4ef6-890b-4fbb983a553c","system_id":"levelo_inurba_marseille","lat":43.2931,"lon":5.37189,"is_reserved":false,"is_disabled":false,"rental_uris":{"android":"levelo://app?vid=2375141c-46f9-4ef6-890b-4fbb983a553c","ios":"levelo://app?vid=2375141c-46f9-4ef6-890b-4fbb983a553c"},"vehicle_type_id":"4","last_reported":1767683905,"current_range_meters":7200,"station_id":"ce4bgh92rcd13ifvqb40","pricing_plan_id":"cebpf4jnsgd1na2vs0mg"},{"bike_id":"82866fe7-628d-412e-a722-bf250d7406b8","system_id":"levelo_inurba_marseille","lat":43.266881,"lon":5.382774,"is_reserved":false,"is_disabled":false,"rental_uris":{"android":"levelo://app?vid=82866fe7-628d-412e-a722-bf250d7406b8","ios":"levelo://app?vid=82866fe7-628d-412e-a722-bf250d7406b8"},"vehicle_type_id":"4","last_reported":1767683905,"current_range_meters":7200,"station_id":"ce4bhg92rcd13ifvqf90","pricing_plan_id":"cebpf4jnsgd1na2vs0mg"},{"bike_id":"525f5a24-4ff8-4acf-b3bc-8f489829e208","system_id":"levelo_inurba_marseille","lat":43.29042,"lon":5.39971,"is_reserved":false,"is_disabled":false,"rental_uris":{"android":"levelo://app?vid=525f5a24-4ff8-4acf-b3bc-8f489829e208","ios":"levelo://app?vid=525f5a24-4ff8-4acf-b3bc-8f489829e208"},"vehicle_type_id":"4","last_reported":1767683905,"current_range_meters":7200,"station_id":"ce4bh392rcd13ifvqdm0","pricing_plan_id":"cebpf4jnsgd1na2vs0mg"},{"bike_id":"09dd03c7-b8fd-46b8-99cd-062943175452","system_id":"levelo_inurba_marseille","lat":43.23194,"lon":5.35554,"is_reserved":false,"is_disabled":false,"rental_uris":{"android":"levelo://app?vid=09dd03c7-b8fd-46b8-99cd-062943175452","ios":"levelo://app?vid=09dd03c7-b8fd-46b8-99cd-062943175452"},"vehicle_type_id":"4","last_reported":1767683905,"current_range_meters":7200,"station_id":"ce4bhu92rcd13ifvqi70","pricing_plan_id":"cebpf4jnsgd1na2vs0mg"},{"bike_id":"9ffd8e4e-6671-4e68-b198-26c59cc5e3d1","system_id":"levelo_inurba_marseille","lat":43.32652,"lon":5.41944,"is_reserved":false,"is_disabled":false,"rental_uris":{"android":"levelo://app?vid=9ffd8e4e-6671-4e68-b198-26c59cc5e3d1","ios":"levelo://app?vid=9ffd8e4e-6671-4e68-b198-26c59cc5e3d1"},"vehicle_type_id":"4","last_reported":1767683905,"current_range_meters":7200,"station_id":"","pricing_plan_id":"cebpf4jnsgd1na2vs0mg"},{"bike_id":"5eb9d049-497c-49ad-9dab-0cd5459065b5","system_id":"levelo_inurba_marseille","lat":43.28463,"lon":5.38412,"is_reserved":false,"is_disabled":false,"rental_uris":{"android":"levelo://app?vid=5eb9d049-497c-49ad-9dab-0cd5459065b5","ios":"levelo://app?vid=5eb9d049-497c-49ad-9dab-0cd5459065b5"},"vehicle_type_id":"4","last_reported":1767683905,"current_range_meters":7200,"station_id":"ce4bh512rcd13ifvqe3g","pricing_plan_id":"cebpf4jnsgd1na2vs0mg"},{"bike_id":"61f49521-8b5c-4174-93f3-ac307392a905","system_id":"levelo_inurba_marseille","lat":43.31362,"lon":5.37166,"is_reserved":false,"is_disabled":false,"rental_uris":{"android":"levelo://app?vid=61f49521-8b5c-4174-93f3-ac307392a905","ios":"levelo://app?vid=61f49521-8b5c-4174-93f3-ac307392a905"},"vehicle_type_id":"4","last_reported":1767683905,"current_range_meters":7200,"station_id":"","pricing_plan_id":"cebpf4jnsgd1na2vs0mg"},{"bike_id":"5ea8c758-8d88-4a0d-8adf-3234df9934ae","system_id":"levelo_inurba_marseille","lat":43.29768,"lon":5.37762,"is_reserved":false,"is_disabled":false,"rental_uris":{"android":"levelo://app?vid=5ea8c758-8d88-4a0d-8adf-3234df9934ae","ios":"levelo://app?vid=5ea8c758-8d88-4a0d-8adf-3234df9934ae"},"vehicle_type_id":"4","last_reported":1767683905,"current_range_meters":7200,"station_id":"","pricing_plan_id":"cebpf4jnsgd1na2vs0mg"},{"bike_id":"d279c8f1-2aca-445d-9302-00d4fa05021b","system_id":"levelo_inurba_marseille","lat":43.31684,"lon":5.37434,"is_reserved":false,"is_disabled":false,"rental_uris":{"android":"levelo://app?vid=d279c8f1-2aca-445d-9302-00d4fa05021b","ios":"levelo://app?vid=d279c8f1-2aca-445d-9302-00d4fa05021b"},"vehicle_type_id":"4","last_reported":1767683905,"current_range_meters":7200,"station_id":"","pricing_plan_id":"cebpf4jnsgd1na2vs0mg"},{"bike_id":"3d8062de-4bd0-49c7-86a6-7bf3b5df4845","system_id":"levelo_inurba_marseille","lat":43.28478,"lon":5.48394,"is_reserved":false,"is_disabled":false,"rental_uris":{"android":"levelo://app?vid=3d8062de-4bd0-49c7-86a6-7bf3b5df4845","ios":"levelo://app?vid=3d8062de-4bd0-49c7-86a6-7bf3b5df4845"},"vehicle_type_id":"4","last_reported":1767683905,"current_range_meters":7200,"station_id":"","pricing_plan_id":"cebpf4jnsgd1na2vs0mg"},{"bike_id":"48cb5e65-0874-43c1-81b7-43be0bcb9709","system_id":"levelo_inurba_marseille","lat":43.2481,"lon":5.37451,"is_reserved":false,"is_disabled":false,"rental_uris":{"android":"levelo://app?vid=48cb5e65-0874-43c1-81b7-43be0bcb9709","ios":"levelo://app?vid=48cb5e65-0874-43c1-81b7-43be0bcb9709"},"vehicle_type_id":"4","last_reported":1767683905,"current_range_meters":7200,"station_id":"ce4bhgh2rcd13ifvqfb0","pricing_plan_id":"cebpf4jnsgd1na2vs0mg"},{"bike_id":"256d892c-80b7-4dcf-b490-44e1146ff28f","system_id":"levelo_inurba_marseille","lat":43.28528,"lon":5.44115,"is_reserved":false,"is_disabled":false,"rental_uris":{"android":"levelo://app?vid=256d892c-80b7-4dcf-b490-44e1146ff28f","ios":"levelo://app?vid=256d892c-80b7-4dcf-b490-44e1146ff28f"},"vehicle_type_id":"4","last_reported":1767683905,"current_range_meters":7200,"station_id":"st_d3j3df2ikq2c7380ej80","pricing_plan_id":"cebpf4jnsgd1na2vs0mg"},{"bike_id":"63cd53d7-b9e4-4b4e-9379-bf3843c04565","system_id":"levelo_inurba_marseille","lat":43.28538,"lon":5.44095,"is_reserved":false,"is_disabled":false,"rental_uris":{"android":"levelo://app?vid=63cd53d7-b9e4-4b4e-9379-bf3843c04565","ios":"levelo://app?vid=63cd53d7-b9e4-4b4e-9379-bf3843c04565"},"vehicle_type_id":"4","last_reported":1767683905,"current_range_meters":7200,"station_id":"st_d3j3df2ikq2c7380ej80","pricing_plan_id":"cebpf4jnsgd1na2vs0mg"},{"bike_id":"5d5497ef-b65a-4cae-8f60-cff9661679f2","system_id":"levelo_inurba_marseille","lat":43.28297,"lon":5.38909,"is_reserved":false,"is_disabled":false,"rental_uris":{"android":"levelo://app?vid=5d5497ef-b65a-4cae-8f60-cff9661679f2","ios":"levelo://app?vid=5d5497ef-b65a-4cae-8f60-cff9661679f2"},"vehicle_type_id":"4","last_reported":1767683905,"current_range_meters":7200,"station_id":"","pricing_plan_id":"cebpf4jnsgd1na2vs0mg"},{"bike_id":"7691ecae-e3bc-4c1e-bb4e-7b24a1d8adc3","system_id":"levelo_inurba_marseille","lat":43.239625,"lon":5.366247,"is_reserved":false,"is_disabled":false,"rental_uris":{"android":"levelo://app?vid=7691ecae-e3bc-4c1e-bb4e-7b24a1d8adc3","ios":"levelo://app?vid=7691ecae-e3bc-4c1e-bb4e-7b24a1d8adc3"},"vehicle_type_id":"4","last_reported":1767683905,"current_range_meters":7200,"station_id":"ce4bhi12rcd13ifvqfp0","pricing_plan_id":"cebpf4jnsgd1na2vs0mg"},{"bike_id":"8f968c9d-e057-45ea-898c-8595b6240a39","system_id":"levelo_inurba_marseille","lat":43.29733,"lon":5.37887,"is_reserved":false,"is_disabled":false,"rental_uris":{"android":"levelo://app?vid=8f968c9d-e057-45ea-898c-8595b6240a39","ios":"levelo://app?vid=8f968c9d-e057-45ea-898c-8595b6240a39"},"vehicle_type_id":"4","last_reported":1767683905,"current_range_meters":8000,"station_id":"","pricing_plan_id":"cebpf4jnsgd1na2vs0mg"},{"bike_id":"ca62b965-aa44-45f4-8af6-6631050856ac","system_id":"levelo_inurba_marseille","lat":43.28955,"lon":5.36374,"is_reserved":false,"is_disabled":false,"rental_uris":{"android":"levelo://app?vid=ca62b965-aa44-45f4-8af6-6631050856ac","ios":"levelo://app?vid=ca62b965-aa44-45f4-8af6-6631050856ac"},"vehicle_type_id":"4","last_reported":1767683905,"current_range_meters":8000,"station_id":"ce4bhc92rcd13ifvqetg","pricing_plan_id":"cebpf4jnsgd1na2vs0mg"},{"bike_id":"8b3ac315-2885-4111-ba33-ec1516cc1aa3","system_id":"levelo_inurba_marseille","lat":43.311689,"lon":5.387212,"is_reserved":false,"is_disabled":false,"rental_uris":{"android":"levelo://app?vid=8b3ac315-2885-4111-ba33-ec1516cc1aa3","ios":"levelo://app?vid=8b3ac315-2885-4111-ba33-ec1516cc1aa3"},"vehicle_type_id":"4","last_reported":1767683905,"current_range_meters":8000,"station_id":"ce4bgv12rcd13ifvqcp0","pricing_plan_id":"cebpf4jnsgd1na2vs0mg"},{"bike_id":"4935536b-bd9a-4a04-acc0-8338e8db4fa7","system_id":"levelo_inurba_marseille","lat":43.27817,"lon":5.4071,"is_reserved":false,"is_disabled":false,"rental_uris":{"android":"levelo://app?vid=4935536b-bd9a-4a04-acc0-8338e8db4fa7","ios":"levelo://app?vid=4935536b-bd9a-4a04-acc0-8338e8db4fa7"},"vehicle_type_id":"4","last_reported":1767683905,"current_range_meters":8000,"station_id":"ce4bhnh2rcd13ifvqgtg","pricing_plan_id":"cebpf4jnsgd1na2vs0mg"},{"bike_id":"a3598eba-2c45-4069-934f-7f420eaf7935","system_id":"levelo_inurba_marseille","lat":43.30153,"lon":5.38093,"is_reserved":false,"is_disabled":false,"rental_uris":{"android":"levelo://app?vid=a3598eba-2c45-4069-934f-7f420eaf7935","ios":"levelo://app?vid=a3598eba-2c45-4069-934f-7f420eaf7935"},"vehicle_type_id":"4","last_reported":1767683905,"current_range_meters":8000,"station_id":"ce4bgjp2rcd13ifvqbh0","pricing_plan_id":"cebpf4jnsgd1na2vs0mg"},{"bike_id":"44218762-0e32-42ac-a3fa-30e231a0b58c","system_id":"levelo_inurba_marseille","lat":43.2944,"lon":5.39745,"is_reserved":false,"is_disabled":false,"rental_uris":{"android":"levelo://app?vid=44218762-0e32-42ac-a3fa-30e231a0b58c","ios":"levelo://app?vid=44218762-0e32-42ac-a3fa-30e231a0b58c"},"vehicle_type_id":"4","last_reported":1767683905,"current_range_meters":8000,"station_id":"ce4bh3h2rcd13ifvqdo0","pricing_plan_id":"cebpf4jnsgd1na2vs0mg"},{"bike_id":"0e1237f5-c526-48aa-8d6e-d4762d4905eb","system_id":"levelo_inurba_marseille","lat":43.288834,"lon":5.425208,"is_reserved":false,"is_disabled":false,"rental_uris":{"android":"levelo://app?vid=0e1237f5-c526-48aa-8d6e-d4762d4905eb","ios":"levelo://app?vid=0e1237f5-c526-48aa-8d6e-d4762d4905eb"},"vehicle_type_id":"4","last_reported":1767683905,"current_range_meters":8000,"station_id":"st_d3b462108ojc7389ooeg","pricing_plan_id":"cebpf4jnsgd1na2vs0mg"},{"bike_id":"8c36c95e-44f9-4494-942c-e8a98d6f94b4","system_id":"levelo_inurba_marseille","lat":43.24657,"lon":5.43126,"is_reserved":false,"is_disabled":false,"rental_uris":{"android":"levelo://app?vid=8c36c95e-44f9-4494-942c-e8a98d6f94b4","ios":"levelo://app?vid=8c36c95e-44f9-4494-942c-e8a98d6f94b4"},"vehicle_type_id":"4","last_reported":1767683905,"current_range_meters":8000,"station_id":"st_d2m6c4gdas8pm72e190g","pricing_plan_id":"cebpf4jnsgd1na2vs0mg"},{"bike_id":"b3210e81-09d9-486e-b51e-83859801ecb9","system_id":"levelo_inurba_marseille","lat":43.24634,"lon":5.43126,"is_reserved":false,"is_disabled":false,"rental_uris":{"android":"levelo://app?vid=b3210e81-09d9-486e-b51e-83859801ecb9","ios":"levelo://app?vid=b3210e81-09d9-486e-b51e-83859801ecb9"},"vehicle_type_id":"4","last_reported":1767683905,"current_range_meters":8000,"station_id":"st_d2m6c4gdas8pm72e190g","pricing_plan_id":"cebpf4jnsgd1na2vs0mg"},{"bike_id":"40f2de2e-f0cb-4446-9f43-80012f17f8ce","system_id":"levelo_inurba_marseille","lat":43.323386,"lon":5.367266,"is_reserved":false,"is_disabled":false,"rental_uris":{"android":"levelo://app?vid=40f2de2e-f0cb-4446-9f43-80012f17f8ce","ios":"levelo://app?vid=40f2de2e-f0cb-4446-9f43-80012f17f8ce"},"vehicle_type_id":"4","last_reported":1767683905,"current_range_meters":8000,"station_id":"ce4bhsh2rcd13ifvqi2g","pricing_plan_id":"cebpf4jnsgd1na2vs0mg"},{"bike_id":"6b6d8f9f-6e00-4965-a447-66d7628c7986","system_id":"levelo_inurba_marseille","lat":43.25101,"lon":5.4033,"is_reserved":false,"is_disabled":false,"rental_uris":{"android":"levelo://app?vid=6b6d8f9f-6e00-4965-a447-66d7628c7986","ios":"levelo://app?vid=6b6d8f9f-6e00-4965-a447-66d7628c7986"},"vehicle_type_id":"4","last_reported":1767683905,"current_range_meters":8000,"station_id":"ce4bhlh2rcd13ifvqgig","pricing_plan_id":"cebpf4jnsgd1na2vs0mg"},{"bike_id":"00389c66-d10b-4f85-8b89-cd1629e9774d","system_id":"levelo_inurba_marseille","lat":43.31498,"lon":5.38633,"is_reserved":false,"is_disabled":false,"rental_uris":{"android":"levelo://app?vid=00389c66-d10b-4f85-8b89-cd1629e9774d","ios":"levelo://app?vid=00389c66-d10b-4f85-8b89-cd1629e9774d"},"vehicle_type_id":"4","last_reported":1767683905,"current_range_meters":8000,"station_id":"","pricing_plan_id":"cebpf4jnsgd1na2vs0mg"},{"bike_id":"2b6b5472-bf4d-4858-81ea-712597b78b9c","system_id":"levelo_inurba_marseille","lat":43.28936,"lon":5.39628,"is_reserved":false,"is_disabled":false,"rental_uris":{"android":"levelo://app?vid=2b6b5472-bf4d-4858-81ea-712597b78b9c","ios":"levelo://app?vid=2b6b5472-bf4d-4858-81ea-712597b78b9c"},"vehicle_type_id":"4","last_reported":1767683905,"current_range_meters":8000,"station_id":"ce4bh3h2rcd13ifvqdn0","pricing_plan_id":"cebpf4jnsgd1na2vs0mg"},{"bike_id":"3a8eae66-603b-4cc6-a47a-5e999d573fad","system_id":"levelo_inurba_marseille","lat":43.26995,"lon":5.387528,"is_reserved":false,"is_disabled":false,"rental_uris":{"android":"levelo://app?vid=3a8eae66-603b-4cc6-a47a-5e999d573fad","ios":"levelo://app?vid=3a8eae66-603b-4cc6-a47a-5e999d573fad"},"vehicle_type_id":"4","last_reported":1767683905,"current_range_meters":8000,"station_id":"","pricing_plan_id":"cebpf4jnsgd1na2vs0mg"},{"bike_id":"1c5b5173-4704-40bc-aefb-1abd7916d55b","system_id":"levelo_inurba_marseille","lat":43.29267,"lon":5.37645,"is_reserved":false,"is_disabled":false,"rental_uris":{"android":"levelo://app?vid=1c5b5173-4704-40bc-aefb-1abd7916d55b","ios":"levelo://app?vid=1c5b5173-4704-40bc-aefb-1abd7916d55b"},"vehicle_type_id":"4","last_reported":1767683905,"current_range_meters":8000,"station_id":"ce4bgi12rcd13ifvqb80","pricing_plan_id":"cebpf4jnsgd1na2vs0mg"},{"bike_id":"ff04a9ba-5d94-41f0-9290-c0816587f458","system_id":"levelo_inurba_marseille","lat":43.28485,"lon":5.38412,"is_reserved":false,"is_disabled":false,"rental_uris":{"android":"levelo://app?vid=ff04a9ba-5d94-41f0-9290-c0816587f458","ios":"levelo://app?vid=ff04a9ba-5d94-41f0-9290-c0816587f458"},"vehicle_type_id":"4","last_reported":1767683905,"current_range_meters":8000,"station_id":"ce4bh512rcd13ifvqe3g","pricing_plan_id":"cebpf4jnsgd1na2vs0mg"},{"bike_id":"feaa8378-fac9-460d-b058-b1573970eace","system_id":"levelo_inurba_marseille","lat":43.29927,"lon":5.38595,"is_reserved":false,"is_disabled":false,"rental_uris":{"android":"levelo://app?vid=feaa8378-fac9-460d-b058-b1573970eace","ios":"levelo://app?vid=feaa8378-fac9-460d-b058-b1573970eace"},"vehicle_type_id":"4","last_reported":1767683905,"current_range_meters":8000,"station_id":"","pricing_plan_id":"cebpf4jnsgd1na2vs0mg"},{"bike_id":"b0980a67-1a01-4ac3-8cf4-81a1cb81abd2","system_id":"levelo_inurba_marseille","lat":43.258218,"lon":5.394412,"is_reserved":false,"is_disabled":false,"rental_uris":{"android":"levelo://app?vid=b0980a67-1a01-4ac3-8cf4-81a1cb81abd2","ios":"levelo://app?vid=b0980a67-1a01-4ac3-8cf4-81a1cb81abd2"},"vehicle_type_id":"4","last_reported":1767683905,"current_range_meters":8000,"station_id":"ce4bhip2rcd13ifvqft0","pricing_plan_id":"cebpf4jnsgd1na2vs0mg"},{"bike_id":"49a51c2b-e6e9-4224-8a36-f6fcfb3bf9e7","system_id":"levelo_inurba_marseille","lat":43.284788,"lon":5.483891,"is_reserved":false,"is_disabled":false,"rental_uris":{"android":"levelo://app?vid=49a51c2b-e6e9-4224-8a36-f6fcfb3bf9e7","ios":"levelo://app?vid=49a51c2b-e6e9-4224-8a36-f6fcfb3bf9e7"},"vehicle_type_id":"4","last_reported":1767683905,"current_range_meters":8000,"station_id":"","pricing_plan_id":"cebpf4jnsgd1na2vs0mg"},{"bike_id":"be8ccbcb-7c43-4583-ac2b-bee9ec28701d","system_id":"levelo_inurba_marseille","lat":43.31754,"lon":5.39007,"is_reserved":false,"is_disabled":false,"rental_uris":{"android":"levelo://app?vid=be8ccbcb-7c43-4583-ac2b-bee9ec28701d","ios":"levelo://app?vid=be8ccbcb-7c43-4583-ac2b-bee9ec28701d"},"vehicle_type_id":"4","last_reported":1767683905,"current_range_meters":8000,"station_id":"ce4bhqp2rcd13ifvqhng","pricing_plan_id":"cebpf4jnsgd1na2vs0mg"},{"bike_id":"ea799b1e-5e7a-4cee-963d-d71dae566eda","system_id":"levelo_inurba_marseille","lat":43.28991,"lon":5.37838,"is_reserved":false,"is_disabled":false,"rental_uris":{"android":"levelo://app?vid=ea799b1e-5e7a-4cee-963d-d71dae566eda","ios":"levelo://app?vid=ea799b1e-5e7a-4cee-963d-d71dae566eda"},"vehicle_type_id":"4","last_reported":1767683905,"current_range_meters":8000,"station_id":"ce4bh9p2rcd13ifvqed0","pricing_plan_id":"cebpf4jnsgd1na2vs0mg"},{"bike_id":"186f2fa8-9d13-45c5-bc32-0ad3d6ed2a48","system_id":"levelo_inurba_marseille","lat":43.25341,"lon":5.42161,"is_reserved":false,"is_disabled":false,"rental_uris":{"android":"levelo://app?vid=186f2fa8-9d13-45c5-bc32-0ad3d6ed2a48","ios":"levelo://app?vid=186f2fa8-9d13-45c5-bc32-0ad3d6ed2a48"},"vehicle_type_id":"4","last_reported":1767683905,"current_range_meters":8000,"station_id":"st_d2m65c5bi1j21697t3ng","pricing_plan_id":"cebpf4jnsgd1na2vs0mg"},{"bike_id":"efa425c6-cbf6-4941-b4e5-f9d843f1f6fe","system_id":"levelo_inurba_marseille","lat":43.26945,"lon":5.40237,"is_reserved":false,"is_disabled":false,"rental_uris":{"android":"levelo://app?vid=efa425c6-cbf6-4941-b4e5-f9d843f1f6fe","ios":"levelo://app?vid=efa425c6-cbf6-4941-b4e5-f9d843f1f6fe"},"vehicle_type_id":"4","last_reported":1767683905,"current_range_meters":8000,"station_id":"cjm6bp8fraef2m0cb0m0","pricing_plan_id":"cebpf4jnsgd1na2vs0mg"},{"bike_id":"ce79b3e9-06fe-482f-b77f-0988d8c5d0f2","system_id":"levelo_inurba_marseille","lat":43.31488,"lon":5.37307,"is_reserved":false,"is_disabled":false,"rental_uris":{"android":"levelo://app?vid=ce79b3e9-06fe-482f-b77f-0988d8c5d0f2","ios":"levelo://app?vid=ce79b3e9-06fe-482f-b77f-0988d8c5d0f2"},"vehicle_type_id":"4","last_reported":1767683905,"current_range_meters":8000,"station_id":"ce4bgt12rcd13ifvqcd0","pricing_plan_id":"cebpf4jnsgd1na2vs0mg"},{"bike_id":"185a9e57-705a-4211-b642-4f93dd08ee85","system_id":"levelo_inurba_marseille","lat":43.28481,"lon":5.3856,"is_reserved":false,"is_disabled":false,"rental_uris":{"android":"levelo://app?vid=185a9e57-705a-4211-b642-4f93dd08ee85","ios":"levelo://app?vid=185a9e57-705a-4211-b642-4f93dd08ee85"},"vehicle_type_id":"4","last_reported":1767683905,"current_range_meters":8000,"station_id":"ce4bh8p2rcd13ifvqeb0","pricing_plan_id":"cebpf4jnsgd1na2vs0mg"},{"bike_id":"15146725-de08-4e0d-adeb-5883b023eca1","system_id":"levelo_inurba_marseille","lat":43.296001,"lon":5.36731,"is_reserved":false,"is_disabled":false,"rental_uris":{"android":"levelo://app?vid=15146725-de08-4e0d-adeb-5883b023eca1","ios":"levelo://app?vid=15146725-de08-4e0d-adeb-5883b023eca1"},"vehicle_type_id":"4","last_reported":1767683905,"current_range_meters":8400,"station_id":"ce4bgph2rcd13ifvqc2g","pricing_plan_id":"cebpf4jnsgd1na2vs0mg"},{"bike_id":"330d4ba7-c5f2-4d83-947c-8c0cc6747825","system_id":"levelo_inurba_marseille","lat":43.30547,"lon":5.3668,"is_reserved":false,"is_disabled":true,"rental_uris":{"android":"levelo://app?vid=330d4ba7-c5f2-4d83-947c-8c0cc6747825","ios":"levelo://app?vid=330d4ba7-c5f2-4d83-947c-8c0cc6747825"},"vehicle_type_id":"4","last_reported":1767683905,"current_range_meters":8400,"station_id":"ce4bgrp2rcd13ifvqc9g","pricing_plan_id":"cebpf4jnsgd1na2vs0mg"},{"bike_id":"787d7e25-1d4e-4b9b-9a41-18331fa60325","system_id":"levelo_inurba_marseille","lat":43.28268,"lon":5.35072,"is_reserved":false,"is_disabled":false,"rental_uris":{"android":"levelo://app?vid=787d7e25-1d4e-4b9b-9a41-18331fa60325","ios":"levelo://app?vid=787d7e25-1d4e-4b9b-9a41-18331fa60325"},"vehicle_type_id":"4","last_reported":1767683905,"current_range_meters":8400,"station_id":"ce4bhbp2rcd13ifvqerg","pricing_plan_id":"cebpf4jnsgd1na2vs0mg"},{"bike_id":"6362d2e9-b1aa-4dc0-b92d-936be0445a44","system_id":"levelo_inurba_marseille","lat":43.24818,"lon":5.37442,"is_reserved":false,"is_disabled":false,"rental_uris":{"android":"levelo://app?vid=6362d2e9-b1aa-4dc0-b92d-936be0445a44","ios":"levelo://app?vid=6362d2e9-b1aa-4dc0-b92d-936be0445a44"},"vehicle_type_id":"4","last_reported":1767683905,"current_range_meters":8400,"station_id":"ce4bhgh2rcd13ifvqfb0","pricing_plan_id":"cebpf4jnsgd1na2vs0mg"},{"bike_id":"08e7d044-a859-4a5a-90d4-366b263d7407","system_id":"levelo_inurba_marseille","lat":43.276836,"lon":5.420461,"is_reserved":false,"is_disabled":false,"rental_uris":{"android":"levelo://app?vid=08e7d044-a859-4a5a-90d4-366b263d7407","ios":"levelo://app?vid=08e7d044-a859-4a5a-90d4-366b263d7407"},"vehicle_type_id":"4","last_reported":1767683905,"current_range_meters":8400,"station_id":"","pricing_plan_id":"cebpf4jnsgd1na2vs0mg"},{"bike_id":"b67f4710-3d69-4d45-b21f-6b71ebaaeb7d","system_id":"levelo_inurba_marseille","lat":43.31351,"lon":5.36731,"is_reserved":false,"is_disabled":false,"rental_uris":{"android":"levelo://app?vid=b67f4710-3d69-4d45-b21f-6b71ebaaeb7d","ios":"levelo://app?vid=b67f4710-3d69-4d45-b21f-6b71ebaaeb7d"},"vehicle_type_id":"4","last_reported":1767683905,"current_range_meters":8400,"station_id":"ce4bgr92rcd13ifvqc6g","pricing_plan_id":"cebpf4jnsgd1na2vs0mg"},{"bike_id":"3e18d3c2-0e26-4ccd-8f3e-24c938dce9c0","system_id":"levelo_inurba_marseille","lat":43.28474,"lon":5.38577,"is_reserved":false,"is_disabled":false,"rental_uris":{"android":"levelo://app?vid=3e18d3c2-0e26-4ccd-8f3e-24c938dce9c0","ios":"levelo://app?vid=3e18d3c2-0e26-4ccd-8f3e-24c938dce9c0"},"vehicle_type_id":"4","last_reported":1767683905,"current_range_meters":8400,"station_id":"ce4bh8p2rcd13ifvqeb0","pricing_plan_id":"cebpf4jnsgd1na2vs0mg"},{"bike_id":"fbe615c7-395f-45e4-952e-5c258fb1b5f0","system_id":"levelo_inurba_marseille","lat":43.29002,"lon":5.35605,"is_reserved":false,"is_disabled":false,"rental_uris":{"android":"levelo://app?vid=fbe615c7-395f-45e4-952e-5c258fb1b5f0","ios":"levelo://app?vid=fbe615c7-395f-45e4-952e-5c258fb1b5f0"},"vehicle_type_id":"4","last_reported":1767683905,"current_range_meters":8400,"station_id":"ce4bhb92rcd13ifvqen0","pricing_plan_id":"cebpf4jnsgd1na2vs0mg"},{"bike_id":"0724d8ea-4b25-40a4-aa82-62aedb38be0b","system_id":"levelo_inurba_marseille","lat":43.31316,"lon":5.39686,"is_reserved":false,"is_disabled":false,"rental_uris":{"android":"levelo://app?vid=0724d8ea-4b25-40a4-aa82-62aedb38be0b","ios":"levelo://app?vid=0724d8ea-4b25-40a4-aa82-62aedb38be0b"},"vehicle_type_id":"4","last_reported":1767683905,"current_range_meters":8400,"station_id":"ce4bgvp2rcd13ifvqcu0","pricing_plan_id":"cebpf4jnsgd1na2vs0mg"},{"bike_id":"b2e816c5-9b60-4dbf-9f39-7c8d6a115207","system_id":"levelo_inurba_marseille","lat":43.3208,"lon":5.36783,"is_reserved":false,"is_disabled":false,"rental_uris":{"android":"levelo://app?vid=b2e816c5-9b60-4dbf-9f39-7c8d6a115207","ios":"levelo://app?vid=b2e816c5-9b60-4dbf-9f39-7c8d6a115207"},"vehicle_type_id":"4","last_reported":1767683905,"current_range_meters":8400,"station_id":"ce4bhrh2rcd13ifvqhug","pricing_plan_id":"cebpf4jnsgd1na2vs0mg"},{"bike_id":"24f7be1d-4c85-48a4-bcce-5a1aa23b6a75","system_id":"levelo_inurba_marseille","lat":43.266795,"lon":5.382687,"is_reserved":false,"is_disabled":false,"rental_uris":{"android":"levelo://app?vid=24f7be1d-4c85-48a4-bcce-5a1aa23b6a75","ios":"levelo://app?vid=24f7be1d-4c85-48a4-bcce-5a1aa23b6a75"},"vehicle_type_id":"4","last_reported":1767683905,"current_range_meters":8400,"station_id":"ce4bhg92rcd13ifvqf90","pricing_plan_id":"cebpf4jnsgd1na2vs0mg"},{"bike_id":"ad50377a-7552-4540-b3a2-64867f58981e","system_id":"levelo_inurba_marseille","lat":43.292181,"lon":5.39553,"is_reserved":false,"is_disabled":false,"rental_uris":{"android":"levelo://app?vid=ad50377a-7552-4540-b3a2-64867f58981e","ios":"levelo://app?vid=ad50377a-7552-4540-b3a2-64867f58981e"},"vehicle_type_id":"4","last_reported":1767683905,"current_range_meters":8400,"station_id":"","pricing_plan_id":"cebpf4jnsgd1na2vs0mg"},{"bike_id":"64a8599e-8963-4431-ade0-2e46ddf742d7","system_id":"levelo_inurba_marseille","lat":43.336044,"lon":5.410405,"is_reserved":false,"is_disabled":false,"rental_uris":{"android":"levelo://app?vid=64a8599e-8963-4431-ade0-2e46ddf742d7","ios":"levelo://app?vid=64a8599e-8963-4431-ade0-2e46ddf742d7"},"vehicle_type_id":"4","last_reported":1767683905,"current_range_meters":8400,"station_id":"ce4bhqh2rcd13ifvqhmg","pricing_plan_id":"cebpf4jnsgd1na2vs0mg"},{"bike_id":"8ee4b4d7-91ed-4f73-ba76-d3d52bc870c2","system_id":"levelo_inurba_marseille","lat":43.29803,"lon":5.37745,"is_reserved":false,"is_disabled":false,"rental_uris":{"android":"levelo://app?vid=8ee4b4d7-91ed-4f73-ba76-d3d52bc870c2","ios":"levelo://app?vid=8ee4b4d7-91ed-4f73-ba76-d3d52bc870c2"},"vehicle_type_id":"4","last_reported":1767683905,"current_range_meters":8400,"station_id":"","pricing_plan_id":"cebpf4jnsgd1na2vs0mg"},{"bike_id":"2818441d-1d7f-4d8c-8dec-5b24adec68c5","system_id":"levelo_inurba_marseille","lat":43.289386,"lon":5.396339,"is_reserved":false,"is_disabled":false,"rental_uris":{"android":"levelo://app?vid=2818441d-1d7f-4d8c-8dec-5b24adec68c5","ios":"levelo://app?vid=2818441d-1d7f-4d8c-8dec-5b24adec68c5"},"vehicle_type_id":"4","last_reported":1767683905,"current_range_meters":8400,"station_id":"ce4bh3h2rcd13ifvqdn0","pricing_plan_id":"cebpf4jnsgd1na2vs0mg"},{"bike_id":"dd854dc8-7e11-4bd0-8a36-c7988426f001","system_id":"levelo_inurba_marseille","lat":43.28705,"lon":5.37373,"is_reserved":false,"is_disabled":true,"rental_uris":{"android":"levelo://app?vid=dd854dc8-7e11-4bd0-8a36-c7988426f001","ios":"levelo://app?vid=dd854dc8-7e11-4bd0-8a36-c7988426f001"},"vehicle_type_id":"4","last_reported":1767683905,"current_range_meters":8400,"station_id":"ce4bh3p2rcd13ifvqdq0","pricing_plan_id":"cebpf4jnsgd1na2vs0mg"},{"bike_id":"042aca96-0bcc-4b72-8a8d-ea43e5d85ee4","system_id":"levelo_inurba_marseille","lat":43.312729,"lon":5.377592,"is_reserved":false,"is_disabled":false,"rental_uris":{"android":"levelo://app?vid=042aca96-0bcc-4b72-8a8d-ea43e5d85ee4","ios":"levelo://app?vid=042aca96-0bcc-4b72-8a8d-ea43e5d85ee4"},"vehicle_type_id":"4","last_reported":1767683905,"current_range_meters":8400,"station_id":"","pricing_plan_id":"cebpf4jnsgd1na2vs0mg"},{"bike_id":"87e389ee-1985-4b49-be6d-abd8bb105d12","system_id":"levelo_inurba_marseille","lat":43.279092,"lon":5.395836,"is_reserved":false,"is_disabled":false,"rental_uris":{"android":"levelo://app?vid=87e389ee-1985-4b49-be6d-abd8bb105d12","ios":"levelo://app?vid=87e389ee-1985-4b49-be6d-abd8bb105d12"},"vehicle_type_id":"4","last_reported":1767683905,"current_range_meters":8400,"station_id":"ce4bhf92rcd13ifvqf40","pricing_plan_id":"cebpf4jnsgd1na2vs0mg"},{"bike_id":"94b65cfe-edaf-4322-865d-06eff46e3ede","system_id":"levelo_inurba_marseille","lat":43.30032,"lon":5.37354,"is_reserved":false,"is_disabled":false,"rental_uris":{"android":"levelo://app?vid=94b65cfe-edaf-4322-865d-06eff46e3ede","ios":"levelo://app?vid=94b65cfe-edaf-4322-865d-06eff46e3ede"},"vehicle_type_id":"4","last_reported":1767683905,"current_range_meters":8400,"station_id":"","pricing_plan_id":"cebpf4jnsgd1na2vs0mg"},{"bike_id":"95eef2fc-be24-452d-b1ad-1286363d1af4","system_id":"levelo_inurba_marseille","lat":43.30078,"lon":5.36927,"is_reserved":false,"is_disabled":false,"rental_uris":{"android":"levelo://app?vid=95eef2fc-be24-452d-b1ad-1286363d1af4","ios":"levelo://app?vid=95eef2fc-be24-452d-b1ad-1286363d1af4"},"vehicle_type_id":"4","last_reported":1767683905,"current_range_meters":8400,"station_id":"","pricing_plan_id":"cebpf4jnsgd1na2vs0mg"},{"bike_id":"c0723a55-d0d0-493e-a4c5-9479bcaeff93","system_id":"levelo_inurba_marseille","lat":43.28481,"lon":5.48377,"is_reserved":false,"is_disabled":false,"rental_uris":{"android":"levelo://app?vid=c0723a55-d0d0-493e-a4c5-9479bcaeff93","ios":"levelo://app?vid=c0723a55-d0d0-493e-a4c5-9479bcaeff93"},"vehicle_type_id":"4","last_reported":1767683905,"current_range_meters":8400,"station_id":"st_d3svhcjqgbts73a3dn0g","pricing_plan_id":"cebpf4jnsgd1na2vs0mg"},{"bike_id":"f81f7841-4dbc-4c37-b2aa-134ec0f166d3","system_id":"levelo_inurba_marseille","lat":43.28717,"lon":5.37936,"is_reserved":false,"is_disabled":false,"rental_uris":{"android":"levelo://app?vid=f81f7841-4dbc-4c37-b2aa-134ec0f166d3","ios":"levelo://app?vid=f81f7841-4dbc-4c37-b2aa-134ec0f166d3"},"vehicle_type_id":"4","last_reported":1767683905,"current_range_meters":8400,"station_id":"ce4bh9p2rcd13ifvqec0","pricing_plan_id":"cebpf4jnsgd1na2vs0mg"},{"bike_id":"3b465cf0-7e0f-4919-8de2-76e493d53c54","system_id":"levelo_inurba_marseille","lat":43.272,"lon":5.40991,"is_reserved":false,"is_disabled":false,"rental_uris":{"android":"levelo://app?vid=3b465cf0-7e0f-4919-8de2-76e493d53c54","ios":"levelo://app?vid=3b465cf0-7e0f-4919-8de2-76e493d53c54"},"vehicle_type_id":"4","last_reported":1767683905,"current_range_meters":8400,"station_id":"ce4bhl12rcd13ifvqgf0","pricing_plan_id":"cebpf4jnsgd1na2vs0mg"},{"bike_id":"d9af73a0-2f63-4b3e-8964-f0034091ca3d","system_id":"levelo_inurba_marseille","lat":43.2734,"lon":5.39117,"is_reserved":false,"is_disabled":false,"rental_uris":{"android":"levelo://app?vid=d9af73a0-2f63-4b3e-8964-f0034091ca3d","ios":"levelo://app?vid=d9af73a0-2f63-4b3e-8964-f0034091ca3d"},"vehicle_type_id":"4","last_reported":1767683905,"current_range_meters":8400,"station_id":"ce4bhgp2rcd13ifvqfe0","pricing_plan_id":"cebpf4jnsgd1na2vs0mg"},{"bike_id":"f9c54d67-52ad-41a1-a71d-d18b594fec8c","system_id":"levelo_inurba_marseille","lat":43.239629,"lon":5.366305,"is_reserved":false,"is_disabled":false,"rental_uris":{"android":"levelo://app?vid=f9c54d67-52ad-41a1-a71d-d18b594fec8c","ios":"levelo://app?vid=f9c54d67-52ad-41a1-a71d-d18b594fec8c"},"vehicle_type_id":"4","last_reported":1767683905,"current_range_meters":8400,"station_id":"ce4bhi12rcd13ifvqfp0","pricing_plan_id":"cebpf4jnsgd1na2vs0mg"},{"bike_id":"d10b7e7e-9c34-4685-8c8c-ab766cfc897f","system_id":"levelo_inurba_marseille","lat":43.26873,"lon":5.40322,"is_reserved":false,"is_disabled":false,"rental_uris":{"android":"levelo://app?vid=d10b7e7e-9c34-4685-8c8c-ab766cfc897f","ios":"levelo://app?vid=d10b7e7e-9c34-4685-8c8c-ab766cfc897f"},"vehicle_type_id":"4","last_reported":1767683905,"current_range_meters":8400,"station_id":"","pricing_plan_id":"cebpf4jnsgd1na2vs0mg"},{"bike_id":"898c94ff-87a6-4bbb-9455-91221e4e9732","system_id":"levelo_inurba_marseille","lat":43.31993,"lon":5.3814,"is_reserved":false,"is_disabled":false,"rental_uris":{"android":"levelo://app?vid=898c94ff-87a6-4bbb-9455-91221e4e9732","ios":"levelo://app?vid=898c94ff-87a6-4bbb-9455-91221e4e9732"},"vehicle_type_id":"4","last_reported":1767683905,"current_range_meters":8400,"station_id":"ce4bhr12rcd13ifvqhpg","pricing_plan_id":"cebpf4jnsgd1na2vs0mg"},{"bike_id":"87ad74c9-6a6e-42a2-96a8-ed84f1428998","system_id":"levelo_inurba_marseille","lat":43.32155,"lon":5.36839,"is_reserved":false,"is_disabled":false,"rental_uris":{"android":"levelo://app?vid=87ad74c9-6a6e-42a2-96a8-ed84f1428998","ios":"levelo://app?vid=87ad74c9-6a6e-42a2-96a8-ed84f1428998"},"vehicle_type_id":"4","last_reported":1767683905,"current_range_meters":8400,"station_id":"ce4bhrh2rcd13ifvqhug","pricing_plan_id":"cebpf4jnsgd1na2vs0mg"},{"bike_id":"94e28fa6-a8ad-443d-96d0-87f0f916c30e","system_id":"levelo_inurba_marseille","lat":43.2871,"lon":5.36113,"is_reserved":false,"is_disabled":false,"rental_uris":{"android":"levelo://app?vid=94e28fa6-a8ad-443d-96d0-87f0f916c30e","ios":"levelo://app?vid=94e28fa6-a8ad-443d-96d0-87f0f916c30e"},"vehicle_type_id":"4","last_reported":1767683905,"current_range_meters":8800,"station_id":"cki0cbj6b192h4jlfktg","pricing_plan_id":"cebpf4jnsgd1na2vs0mg"},{"bike_id":"4d22c5d1-8740-4a81-80ad-bfbaa8b756eb","system_id":"levelo_inurba_marseille","lat":43.26496,"lon":5.39578,"is_reserved":false,"is_disabled":false,"rental_uris":{"android":"levelo://app?vid=4d22c5d1-8740-4a81-80ad-bfbaa8b756eb","ios":"levelo://app?vid=4d22c5d1-8740-4a81-80ad-bfbaa8b756eb"},"vehicle_type_id":"4","last_reported":1767683905,"current_range_meters":8800,"station_id":"ce4bhi12rcd13ifvqfq0","pricing_plan_id":"cebpf4jnsgd1na2vs0mg"},{"bike_id":"792e1e2e-f71f-47ee-9471-2778171764aa","system_id":"levelo_inurba_marseille","lat":43.27815,"lon":5.40702,"is_reserved":false,"is_disabled":true,"rental_uris":{"android":"levelo://app?vid=792e1e2e-f71f-47ee-9471-2778171764aa","ios":"levelo://app?vid=792e1e2e-f71f-47ee-9471-2778171764aa"},"vehicle_type_id":"4","last_reported":1767683905,"current_range_meters":8800,"station_id":"ce4bhnh2rcd13ifvqgtg","pricing_plan_id":"cebpf4jnsgd1na2vs0mg"},{"bike_id":"d524b089-628a-4d78-9683-770000750388","system_id":"levelo_inurba_marseille","lat":43.29883,"lon":5.38528,"is_reserved":false,"is_disabled":false,"rental_uris":{"android":"levelo://app?vid=d524b089-628a-4d78-9683-770000750388","ios":"levelo://app?vid=d524b089-628a-4d78-9683-770000750388"},"vehicle_type_id":"4","last_reported":1767683905,"current_range_meters":8800,"station_id":"","pricing_plan_id":"cebpf4jnsgd1na2vs0mg"},{"bike_id":"e4a72b42-982f-4f79-9895-e2717a2cdd31","system_id":"levelo_inurba_marseille","lat":43.25557,"lon":5.38131,"is_reserved":false,"is_disabled":false,"rental_uris":{"android":"levelo://app?vid=e4a72b42-982f-4f79-9895-e2717a2cdd31","ios":"levelo://app?vid=e4a72b42-982f-4f79-9895-e2717a2cdd31"},"vehicle_type_id":"4","last_reported":1767683905,"current_range_meters":8800,"station_id":"","pricing_plan_id":"cebpf4jnsgd1na2vs0mg"},{"bike_id":"52003a07-269b-4685-b5ee-91acfd77bba8","system_id":"levelo_inurba_marseille","lat":43.28606,"lon":5.37077,"is_reserved":false,"is_disabled":false,"rental_uris":{"android":"levelo://app?vid=52003a07-269b-4685-b5ee-91acfd77bba8","ios":"levelo://app?vid=52003a07-269b-4685-b5ee-91acfd77bba8"},"vehicle_type_id":"4","last_reported":1767683905,"current_range_meters":8800,"station_id":"ce4bht12rcd13ifvqi60","pricing_plan_id":"cebpf4jnsgd1na2vs0mg"},{"bike_id":"8b14cd5a-7d76-43a2-a46e-a705820146ab","system_id":"levelo_inurba_marseille","lat":43.28075,"lon":5.39641,"is_reserved":false,"is_disabled":false,"rental_uris":{"android":"levelo://app?vid=8b14cd5a-7d76-43a2-a46e-a705820146ab","ios":"levelo://app?vid=8b14cd5a-7d76-43a2-a46e-a705820146ab"},"vehicle_type_id":"4","last_reported":1767683905,"current_range_meters":8800,"station_id":"ce4bho12rcd13ifvqh2g","pricing_plan_id":"cebpf4jnsgd1na2vs0mg"},{"bike_id":"c0a4f535-e870-4e6a-89ce-4533403bde0f","system_id":"levelo_inurba_marseille","lat":43.28626,"lon":5.35113,"is_reserved":false,"is_disabled":false,"rental_uris":{"android":"levelo://app?vid=c0a4f535-e870-4e6a-89ce-4533403bde0f","ios":"levelo://app?vid=c0a4f535-e870-4e6a-89ce-4533403bde0f"},"vehicle_type_id":"4","last_reported":1767683905,"current_range_meters":8800,"station_id":"ce4bhch2rcd13ifvqeug","pricing_plan_id":"cebpf4jnsgd1na2vs0mg"},{"bike_id":"220e9d14-9486-45cd-a161-9ef23e117aad","system_id":"levelo_inurba_marseille","lat":43.229329,"lon":5.353777,"is_reserved":false,"is_disabled":false,"rental_uris":{"android":"levelo://app?vid=220e9d14-9486-45cd-a161-9ef23e117aad","ios":"levelo://app?vid=220e9d14-9486-45cd-a161-9ef23e117aad"},"vehicle_type_id":"4","last_reported":1767683905,"current_range_meters":8800,"station_id":"cpo3532slgdg3j2ikp40","pricing_plan_id":"cebpf4jnsgd1na2vs0mg"},{"bike_id":"d67b210f-67cc-40d8-b12a-09ab202f8bb3","system_id":"levelo_inurba_marseille","lat":43.25791,"lon":5.41046,"is_reserved":false,"is_disabled":false,"rental_uris":{"android":"levelo://app?vid=d67b210f-67cc-40d8-b12a-09ab202f8bb3","ios":"levelo://app?vid=d67b210f-67cc-40d8-b12a-09ab202f8bb3"},"vehicle_type_id":"4","last_reported":1767683905,"current_range_meters":8800,"station_id":"","pricing_plan_id":"cebpf4jnsgd1na2vs0mg"},{"bike_id":"9b6b7efc-b94d-4891-ad8f-12a39bd6f282","system_id":"levelo_inurba_marseille","lat":43.27176,"lon":5.40983,"is_reserved":false,"is_disabled":false,"rental_uris":{"android":"levelo://app?vid=9b6b7efc-b94d-4891-ad8f-12a39bd6f282","ios":"levelo://app?vid=9b6b7efc-b94d-4891-ad8f-12a39bd6f282"},"vehicle_type_id":"4","last_reported":1767683905,"current_range_meters":8800,"station_id":"ce4bhl12rcd13ifvqgf0","pricing_plan_id":"cebpf4jnsgd1na2vs0mg"},{"bike_id":"c4740940-72c6-4662-b058-816e4040185b","system_id":"levelo_inurba_marseille","lat":43.29488,"lon":5.43307,"is_reserved":false,"is_disabled":false,"rental_uris":{"android":"levelo://app?vid=c4740940-72c6-4662-b058-816e4040185b","ios":"levelo://app?vid=c4740940-72c6-4662-b058-816e4040185b"},"vehicle_type_id":"4","last_reported":1767683905,"current_range_meters":8800,"station_id":"st_d3j5ugp08ojc73fj9d10","pricing_plan_id":"cebpf4jnsgd1na2vs0mg"},{"bike_id":"ce95fa35-bf7b-407f-a2ac-5de9481c6309","system_id":"levelo_inurba_marseille","lat":43.28948,"lon":5.36407,"is_reserved":false,"is_disabled":false,"rental_uris":{"android":"levelo://app?vid=ce95fa35-bf7b-407f-a2ac-5de9481c6309","ios":"levelo://app?vid=ce95fa35-bf7b-407f-a2ac-5de9481c6309"},"vehicle_type_id":"4","last_reported":1767683905,"current_range_meters":8800,"station_id":"ce4bhc92rcd13ifvqetg","pricing_plan_id":"cebpf4jnsgd1na2vs0mg"},{"bike_id":"1ab87b03-b050-4230-809d-69fbeeb81b42","system_id":"levelo_inurba_marseille","lat":43.33148,"lon":5.3769,"is_reserved":false,"is_disabled":false,"rental_uris":{"android":"levelo://app?vid=1ab87b03-b050-4230-809d-69fbeeb81b42","ios":"levelo://app?vid=1ab87b03-b050-4230-809d-69fbeeb81b42"},"vehicle_type_id":"4","last_reported":1767683905,"current_range_meters":8800,"station_id":"st_d46cu089ee8s73dldbu0","pricing_plan_id":"cebpf4jnsgd1na2vs0mg"},{"bike_id":"8ba31c15-1d10-4003-88df-8c9563504b49","system_id":"levelo_inurba_marseille","lat":43.2467,"lon":5.3816,"is_reserved":false,"is_disabled":true,"rental_uris":{"android":"levelo://app?vid=8ba31c15-1d10-4003-88df-8c9563504b49","ios":"levelo://app?vid=8ba31c15-1d10-4003-88df-8c9563504b49"},"vehicle_type_id":"4","last_reported":1767683905,"current_range_meters":8800,"station_id":"ce4bhih2rcd13ifvqfr0","pricing_plan_id":"cebpf4jnsgd1na2vs0mg"},{"bike_id":"caeaa3f9-59be-46fd-9c60-ace24cbce671","system_id":"levelo_inurba_marseille","lat":43.28722,"lon":5.37941,"is_reserved":false,"is_disabled":false,"rental_uris":{"android":"levelo://app?vid=caeaa3f9-59be-46fd-9c60-ace24cbce671","ios":"levelo://app?vid=caeaa3f9-59be-46fd-9c60-ace24cbce671"},"vehicle_type_id":"4","last_reported":1767683905,"current_range_meters":8800,"station_id":"ce4bh9p2rcd13ifvqec0","pricing_plan_id":"cebpf4jnsgd1na2vs0mg"},{"bike_id":"a84fd1e4-4518-4212-a538-cc8cf2cc49f3","system_id":"levelo_inurba_marseille","lat":43.262061,"lon":5.374434,"is_reserved":false,"is_disabled":false,"rental_uris":{"android":"levelo://app?vid=a84fd1e4-4518-4212-a538-cc8cf2cc49f3","ios":"levelo://app?vid=a84fd1e4-4518-4212-a538-cc8cf2cc49f3"},"vehicle_type_id":"4","last_reported":1767683905,"current_range_meters":8800,"station_id":"ce4bhgp2rcd13ifvqfc0","pricing_plan_id":"cebpf4jnsgd1na2vs0mg"},