{"last_updated":1753420729,"ttl":60,"version":"2.2","data":{"bikes":[{"bike_id":"59533f55-283e-405b-9a62-dfd13dfd7b61","system_id":"levelo_inurba_marseille","lat":43.28684,"lon":5.40013,"is_reserved":false,"is_disabled":false,"rental_uris":{"android":"levelo://app?vid=59533f55-283e-405b-9a62-dfd13dfd7b61","ios":"levelo://app?vid=59533f55-283e-405b-9a62-dfd13dfd7b61"},"vehicle_type_id":"4","last_reported":1753420730,"current_range_meters":3200,"station_id":"ce4bho92rcd13ifvqh3g","pricing_plan_id":"cebpf4jnsgd1na2vs0mg"},{"bike_id":"c9dbd36b-479c-4a5c-b200-3aa7673340d9","system_id":"levelo_inurba_marseille","lat":43.241448,"lon":5.363743,"is_reserved":false,"is_disabled":false,"rental_uris":{"android":"levelo://app?vid=c9dbd36b-479c-4a5c-b200-3aa7673340d9","ios":"levelo://app?vid=c9dbd36b-479c-4a5c-b200-3aa7673340d9"},"vehicle_type_id":"4","last_reported":1753420730,"current_range_meters":3200,"station_id":"","pricing_plan_id":"cebpf4jnsgd1na2vs0mg"},{"bike_id":"cb6eb26c-caff-430c-a934-3a1f3e2a988e","system_id":"levelo_inurba_marseille","lat":43.287114,"lon":5.399552,"is_reserved":false,"is_disabled":false,"rental_uris":{"android":"levelo://app?vid=cb6eb26c-caff-430c-a934-3a1f3e2a988e","ios":"levelo://app?vid=cb6eb26c-caff-430c-a934-3a1f3e2a988e"},"vehicle_type_id":"4","last_reported":1753420730,"current_range_meters":4000,"station_id":"ce4bho92rcd13ifvqh3g","pricing_plan_id":"cebpf4jnsgd1na2vs0mg"},{"bike_id":"78a5555c-34cf-460f-95aa-65d5959cb190","system_id":"levelo_inurba_marseille","lat":43.29038,"lon":5.3995,"is_reserved":false,"is_disabled":false,"rental_uris":{"android":"levelo://app?vid=78a5555c-34cf-460f-95aa-65d5959cb190","ios":"levelo://app?vid=78a5555c-34cf-460f-95aa-65d5959cb190"},"vehicle_type_id":"4","last_reported":1753420730,"current_range_meters":4400,"station_id":"ce4bh392rcd13ifvqdm0","pricing_plan_id":"cebpf4jnsgd1na2vs0mg"},{"bike_id":"59a15ad2-15d7-4154-b27a-a8773758dd23","system_id":"levelo_inurba_marseille","lat":43.298182,"lon":5.370916,"is_reserved":false,"is_disabled":true,"rental_uris":{"android":"levelo://app?vid=59a15ad2-15d7-4154-b27a-a8773758dd23","ios":"levelo://app?vid=59a15ad2-15d7-4154-b27a-a8773758dd23"},"vehicle_type_id":"4","last_reported":1753420730,"current_range_meters":4800,"station_id":"","pricing_plan_id":"cebpf4jnsgd1na2vs0mg"},{"bike_id":"4e6dd435-dcdc-4c6d-be23-774e5b68e116","system_id":"levelo_inurba_marseille","lat":43.28636,"lon":5.35099,"is_reserved":false,"is_disabled":false,"rental_uris":{"android":"levelo://app?vid=4e6dd435-dcdc-4c6d-be23-774e5b68e116","ios":"levelo://app?vid=4e6dd435-dcdc-4c6d-be23-774e5b68e116"},"vehicle_type_id":"4","last_reported":1753420730,"current_range_meters":5600,"station_id":"ce4bhch2rcd13ifvqeug","pricing_plan_id":"cebpf4jnsgd1na2vs0mg"},{"bike_id":"8d4c0420-d0a3-4380-bcc1-62c045f8d4b9","system_id":"levelo_inurba_marseille","lat":43.26581,"lon":5.39003,"is_reserved":false,"is_disabled":true,"rental_uris":{"android":"levelo://app?vid=8d4c0420-d0a3-4380-bcc1-62c045f8d4b9","ios":"levelo://app?vid=8d4c0420-d0a3-4380-bcc1-62c045f8d4b9"},"vehicle_type_id":"4","last_reported":1753420730,"current_range_meters":5600,"station_id":"ce4bhe12rcd13ifvqf30","pricing_plan_id":"cebpf4jnsgd1na2vs0mg"},{"bike_id":"a4c4bad3-a0b1-45ab-8f46-1d962fecee79","system_id":"levelo_inurba_marseille","lat":43.28436,"lon":5.39198,"is_reserved":false,"is_disabled":false,"rental_uris":{"android":"levelo://app?vid=a4c4bad3-a0b1-45ab-8f46-1d962fecee79","ios":"levelo://app?vid=a4c4bad3-a0b1-45ab-8f46-1d962fecee79"},"vehicle_type_id":"4","last_reported":1753420730,"current_range_meters":6000,"station_id":"ce4bhoh2rcd13ifvqh5g","pricing_plan_id":"cebpf4jnsgd1na2vs0mg"},{"bike_id":"e411e7f0-0d3d-48dd-bd85-0c796e01cea2","system_id":"levelo_inurba_marseille","lat":43.30131,"lon":5.38753,"is_reserved":false,"is_disabled":false,"rental_uris":{"android":"levelo://app?vid=e411e7f0-0d3d-48dd-bd85-0c796e01cea2","ios":"levelo://app?vid=e411e7f0-0d3d-48dd-bd85-0c796e01cea2"},"vehicle_type_id":"4","last_reported":1753420730,"current_range_meters":6000,"station_id":"ce4bghh2rcd13ifvqb60","pricing_plan_id":"cebpf4jnsgd1na2vs0mg"},{"bike_id":"87d9cc9e-fb09-41d9-ab2e-0f924589aaeb","system_id":"levelo_inurba_marseille","lat":43.31238,"lon":5.36874,"is_reserved":false,"is_disabled":true,"rental_uris":{"android":"levelo://app?vid=87d9cc9e-fb09-41d9-ab2e-0f924589aaeb","ios":"levelo://app?vid=87d9cc9e-fb09-41d9-ab2e-0f924589aaeb"},"vehicle_type_id":"4","last_reported":1753420730,"current_range_meters":6400,"station_id":"ce4bgl92rcd13ifvqbq0","pricing_plan_id":"cebpf4jnsgd1na2vs0mg"},{"bike_id":"da053e6a-15f2-492e-8bc1-42b1d66cc329","system_id":"levelo_inurba_marseille","lat":43.28353,"lon":5.4325,"is_reserved":false,"is_disabled":false,"rental_uris":{"android":"levelo://app?vid=da053e6a-15f2-492e-8bc1-42b1d66cc329","ios":"levelo://app?vid=da053e6a-15f2-492e-8bc1-42b1d66cc329"},"vehicle_type_id":"4","last_reported":1753420730,"current_range_meters":6400,"station_id":"","pricing_plan_id":"cebpf4jnsgd1na2vs0mg"},{"bike_id":"2dc0e2d4-6513-487c-b53a-17b2a5ea4085","system_id":"levelo_inurba_marseille","lat":43.29923,"lon":5.38548,"is_reserved":false,"is_disabled":false,"rental_uris":{"android":"levelo://app?vid=2dc0e2d4-6513-487c-b53a-17b2a5ea4085","ios":"levelo://app?vid=2dc0e2d4-6513-487c-b53a-17b2a5ea4085"},"vehicle_type_id":"4","last_reported":1753420730,"current_range_meters":6000,"station_id":"ce4bgjh2rcd13ifvqbf0","pricing_plan_id":"cebpf4jnsgd1na2vs0mg"},{"bike_id":"27933af2-d71b-44fc-9f83-378dbb7a8b82","system_id":"levelo_inurba_marseille","lat":43.27992,"lon":5.40047,"is_reserved":false,"is_disabled":false,"rental_uris":{"android":"levelo://app?vid=27933af2-d71b-44fc-9f83-378dbb7a8b82","ios":"levelo://app?vid=27933af2-d71b-44fc-9f83-378dbb7a8b82"},"vehicle_type_id":"4","last_reported":1753420730,"current_range_meters":6800,"station_id":"ce4bho92rcd13ifvqh4g","pricing_plan_id":"cebpf4jnsgd1na2vs0mg"},{"bike_id":"8e14b7f3-c16f-461e-89ef-88a7168c6eff","system_id":"levelo_inurba_marseille","lat":43.311133,"lon":5.377664,"is_reserved":false,"is_disabled":false,"rental_uris":{"android":"levelo://app?vid=8e14b7f3-c16f-461e-89ef-88a7168c6eff","ios":"levelo://app?vid=8e14b7f3-c16f-461e-89ef-88a7168c6eff"},"vehicle_type_id":"4","last_reported":1753420730,"current_range_meters":6800,"station_id":"ce4bgt92rcd13ifvqcg0","pricing_plan_id":"cebpf4jnsgd1na2vs0mg"},{"bike_id":"ce0ffc32-a366-4e8b-b135-ca54d0fd6cbb","system_id":"levelo_inurba_marseille","lat":43.26183,"lon":5.37449,"is_reserved":false,"is_disabled":true,"rental_uris":{"android":"levelo://app?vid=ce0ffc32-a366-4e8b-b135-ca54d0fd6cbb","ios":"levelo://app?vid=ce0ffc32-a366-4e8b-b135-ca54d0fd6cbb"},"vehicle_type_id":"4","last_reported":1753420730,"current_range_meters":7200,"station_id":"ce4bhgp2rcd13ifvqfc0","pricing_plan_id":"cebpf4jnsgd1na2vs0mg"},{"bike_id":"f3217e35-0bb5-43ab-beb0-dd5e233a7114","system_id":"levelo_inurba_marseille","lat":43.25578,"lon":5.382244,"is_reserved":false,"is_disabled":true,"rental_uris":{"android":"levelo://app?vid=f3217e35-0bb5-43ab-beb0-dd5e233a7114","ios":"levelo://app?vid=f3217e35-0bb5-43ab-beb0-dd5e233a7114"},"vehicle_type_id":"4","last_reported":1753420730,"current_range_meters":7200,"station_id":"ce4bhih2rcd13ifvqfs0","pricing_plan_id":"cebpf4jnsgd1na2vs0mg"},{"bike_id":"2936456c-77f6-4f82-a181-4bc2dd541746","system_id":"levelo_inurba_marseille","lat":43.29197,"lon":5.35803,"is_reserved":false,"is_disabled":true,"rental_uris":{"android":"levelo://app?vid=2936456c-77f6-4f82-a181-4bc2dd541746","ios":"levelo://app?vid=2936456c-77f6-4f82-a181-4bc2dd541746"},"vehicle_type_id":"4","last_reported":1753420730,"current_range_meters":8000,"station_id":"ce4bhb12rcd13ifvqel0","pricing_plan_id":"cebpf4jnsgd1na2vs0mg"},{"bike_id":"b73061fe-dd1e-4e1d-bdb3-3a80ec870932","system_id":"levelo_inurba_marseille","lat":43.30885,"lon":5.39603,"is_reserved":false,"is_disabled":false,"rental_uris":{"android":"levelo://app?vid=b73061fe-dd1e-4e1d-bdb3-3a80ec870932","ios":"levelo://app?vid=b73061fe-dd1e-4e1d-bdb3-3a80ec870932"},"vehicle_type_id":"4","last_reported":1753420730,"current_range_meters":8000,"station_id":"ce4bh012rcd13ifvqcv0","pricing_plan_id":"cebpf4jnsgd1na2vs0mg"},{"bike_id":"67b83d00-9ce3-4d04-b3e7-245417e4357e","system_id":"levelo_inurba_marseille","lat":43.27985,"lon":5.39083,"is_reserved":false,"is_disabled":false,"rental_uris":{"android":"levelo://app?vid=67b83d00-9ce3-4d04-b3e7-245417e4357e","ios":"levelo://app?vid=67b83d00-9ce3-4d04-b3e7-245417e4357e"},"vehicle_type_id":"4","last_reported":1753420730,"current_range_meters":24400,"station_id":"","pricing_plan_id":"cebpf4jnsgd1na2vs0mg"},{"bike_id":"7250624a-63df-4e44-9e5a-1056e5f8a90f","system_id":"levelo_inurba_marseille","lat":43.291868,"lon":5.408164,"is_reserved":false,"is_disabled":false,"rental_uris":{"android":"levelo://app?vid=7250624a-63df-4e44-9e5a-1056e5f8a90f","ios":"levelo://app?vid=7250624a-63df-4e44-9e5a-1056e5f8a90f"},"vehicle_type_id":"4","last_reported":1753420730,"current_range_meters":8000,"station_id":"","pricing_plan_id":"cebpf4jnsgd1na2vs0mg"},{"bike_id":"995be2a5-fb8e-4b69-b694-07fde60e8e02","system_id":"levelo_inurba_marseille","lat":43.251,"lon":5.39524,"is_reserved":false,"is_disabled":false,"rental_uris":{"android":"levelo://app?vid=995be2a5-fb8e-4b69-b694-07fde60e8e02","ios":"levelo://app?vid=995be2a5-fb8e-4b69-b694-07fde60e8e02"},"vehicle_type_id":"4","last_reported":1753420730,"current_range_meters":8000,"station_id":"ce4bhm12rcd13ifvqgkg","pricing_plan_id":"cebpf4jnsgd1na2vs0mg"},{"bike_id":"8a222aa7-0ad1-407e-b029-4af31d1ddb04","system_id":"levelo_inurba_marseille","lat":43.2841,"lon":5.3753,"is_reserved":false,"is_disabled":false,"rental_uris":{"android":"levelo://app?vid=8a222aa7-0ad1-407e-b029-4af31d1ddb04","ios":"levelo://app?vid=8a222aa7-0ad1-407e-b029-4af31d1ddb04"},"vehicle_type_id":"4","last_reported":1753420730,"current_range_meters":8000,"station_id":"ce4bh412rcd13ifvqds0","pricing_plan_id":"cebpf4jnsgd1na2vs0mg"},{"bike_id":"578da094-6479-4635-8ea8-e3112bda0ff4","system_id":"levelo_inurba_marseille","lat":43.317574,"lon":5.390152,"is_reserved":false,"is_disabled":false,"rental_uris":{"android":"levelo://app?vid=578da094-6479-4635-8ea8-e3112bda0ff4","ios":"levelo://app?vid=578da094-6479-4635-8ea8-e3112bda0ff4"},"vehicle_type_id":"4","last_reported":1753420730,"current_range_meters":8400,"station_id":"ce4bhqp2rcd13ifvqhng","pricing_plan_id":"cebpf4jnsgd1na2vs0mg"},{"bike_id":"d4043fff-8474-4a89-965a-b8794944d0a3","system_id":"levelo_inurba_marseille","lat":43.23193,"lon":5.39984,"is_reserved":false,"is_disabled":true,"rental_uris":{"android":"levelo://app?vid=d4043fff-8474-4a89-965a-b8794944d0a3","ios":"levelo://app?vid=d4043fff-8474-4a89-965a-b8794944d0a3"},"vehicle_type_id":"4","last_reported":1753420730,"current_range_meters":8400,"station_id":"ce4bhn12rcd13ifvqgqg","pricing_plan_id":"cebpf4jnsgd1na2vs0mg"},{"bike_id":"bbc2b271-396f-4875-9f1d-0fcc163d87b6","system_id":"levelo_inurba_marseille","lat":43.290625,"lon":5.398789,"is_reserved":false,"is_disabled":false,"rental_uris":{"android":"levelo://app?vid=bbc2b271-396f-4875-9f1d-0fcc163d87b6","ios":"levelo://app?vid=bbc2b271-396f-4875-9f1d-0fcc163d87b6"},"vehicle_type_id":"4","last_reported":1753420730,"current_range_meters":8400,"station_id":"","pricing_plan_id":"cebpf4jnsgd1na2vs0mg"},{"bike_id":"300a4756-01bd-4e0c-90d5-87daadcf6e14","system_id":"levelo_inurba_marseille","lat":43.290972,"lon":5.359105,"is_reserved":false,"is_disabled":true,"rental_uris":{"android":"levelo://app?vid=300a4756-01bd-4e0c-90d5-87daadcf6e14","ios":"levelo://app?vid=300a4756-01bd-4e0c-90d5-87daadcf6e14"},"vehicle_type_id":"4","last_reported":1753420730,"current_range_meters":8400,"station_id":"","pricing_plan_id":"cebpf4jnsgd1na2vs0mg"},{"bike_id":"103f1055-8f09-4334-abab-9f44037f0884","system_id":"levelo_inurba_marseille","lat":43.231872,"lon":5.355596,"is_reserved":false,"is_disabled":true,"rental_uris":{"android":"levelo://app?vid=103f1055-8f09-4334-abab-9f44037f0884","ios":"levelo://app?vid=103f1055-8f09-4334-abab-9f44037f0884"},"vehicle_type_id":"4","last_reported":1753420730,"current_range_meters":8400,"station_id":"ce4bhu92rcd13ifvqi70","pricing_plan_id":"cebpf4jnsgd1na2vs0mg"},{"bike_id":"0a7cf1b0-976e-43f6-be59-2b74afda25b1","system_id":"levelo_inurba_marseille","lat":43.286829,"lon":5.413424,"is_reserved":false,"is_disabled":false,"rental_uris":{"android":"levelo://app?vid=0a7cf1b0-976e-43f6-be59-2b74afda25b1","ios":"levelo://app?vid=0a7cf1b0-976e-43f6-be59-2b74afda25b1"},"vehicle_type_id":"4","last_reported":1753420730,"current_range_meters":8400,"station_id":"","pricing_plan_id":"cebpf4jnsgd1na2vs0mg"},{"bike_id":"1242185d-2b3c-44b4-8f56-bd2cf4041b46","system_id":"levelo_inurba_marseille","lat":43.288545,"lon":5.358527,"is_reserved":false,"is_disabled":false,"rental_uris":{"android":"levelo://app?vid=1242185d-2b3c-44b4-8f56-bd2cf4041b46","ios":"levelo://app?vid=1242185d-2b3c-44b4-8f56-bd2cf4041b46"},"vehicle_type_id":"4","last_reported":1753420730,"current_range_meters":8400,"station_id":"","pricing_plan_id":"cebpf4jnsgd1na2vs0mg"},{"bike_id":"8fc40684-9b2f-4471-90f0-d80318962260","system_id":"levelo_inurba_marseille","lat":43.28561,"lon":5.37796,"is_reserved":false,"is_disabled":false,"rental_uris":{"android":"levelo://app?vid=8fc40684-9b2f-4471-90f0-d80318962260","ios":"levelo://app?vid=8fc40684-9b2f-4471-90f0-d80318962260"},"vehicle_type_id":"4","last_reported":1753420730,"current_range_meters":8400,"station_id":"","pricing_plan_id":"cebpf4jnsgd1na2vs0mg"},{"bike_id":"dbe3a175-5919-432d-94aa-4bf8a6a97561","system_id":"levelo_inurba_marseille","lat":43.265686,"lon":5.390061,"is_reserved":false,"is_disabled":false,"rental_uris":{"android":"levelo://app?vid=dbe3a175-5919-432d-94aa-4bf8a6a97561","ios":"levelo://app?vid=dbe3a175-5919-432d-94aa-4bf8a6a97561"},"vehicle_type_id":"4","last_reported":1753420730,"current_range_meters":8800,"station_id":"ce4bhe12rcd13ifvqf30","pricing_plan_id":"cebpf4jnsgd1na2vs0mg"},{"bike_id":"ae131367-d818-44a0-9e1d-4aa65dcdb16a","system_id":"levelo_inurba_marseille","lat":43.27516,"lon":5.39643,"is_reserved":false,"is_disabled":true,"rental_uris":{"android":"levelo://app?vid=ae131367-d818-44a0-9e1d-4aa65dcdb16a","ios":"levelo://app?vid=ae131367-d818-44a0-9e1d-4aa65dcdb16a"},"vehicle_type_id":"4","last_reported":1753420730,"current_range_meters":8800,"station_id":"","pricing_plan_id":"cebpf4jnsgd1na2vs0mg"},{"bike_id":"3cd09fc8-9554-4236-8496-0931a7be09d1","system_id":"levelo_inurba_marseille","lat":43.21204,"lon":5.35048,"is_reserved":false,"is_disabled":false,"rental_uris":{"android":"levelo://app?vid=3cd09fc8-9554-4236-8496-0931a7be09d1","ios":"levelo://app?vid=3cd09fc8-9554-4236-8496-0931a7be09d1"},"vehicle_type_id":"4","last_reported":1753420730,"current_range_meters":8800,"station_id":"st_cvj6sg6p6f1abm77japg","pricing_plan_id":"cebpf4jnsgd1na2vs0mg"},{"bike_id":"d11685a1-0abc-44a3-b2d5-bfd6df1dd308","system_id":"levelo_inurba_marseille","lat":43.28112,"lon":5.44115,"is_reserved":false,"is_disabled":false,"rental_uris":{"android":"levelo://app?vid=d11685a1-0abc-44a3-b2d5-bfd6df1dd308","ios":"levelo://app?vid=d11685a1-0abc-44a3-b2d5-bfd6df1dd308"},"vehicle_type_id":"4","last_reported":1753420730,"current_range_meters":8800,"station_id":"","pricing_plan_id":"cebpf4jnsgd1na2vs0mg"},{"bike_id":"d6f40dc1-27da-4a67-8ed3-8cd86d65885d","system_id":"levelo_inurba_marseille","lat":43.29284,"lon":5.4013,"is_reserved":false,"is_disabled":false,"rental_uris":{"android":"levelo://app?vid=d6f40dc1-27da-4a67-8ed3-8cd86d65885d","ios":"levelo://app?vid=d6f40dc1-27da-4a67-8ed3-8cd86d65885d"},"vehicle_type_id":"4","last_reported":1753420730,"current_range_meters":9200,"station_id":"ce4bh312rcd13ifvqdk0","pricing_plan_id":"cebpf4jnsgd1na2vs0mg"},{"bike_id":"3cbb97c5-1f06-4add-ac6d-a120022e686c","system_id":"levelo_inurba_marseille","lat":43.29936,"lon":5.37543,"is_reserved":false,"is_disabled":false,"rental_uris":{"android":"levelo://app?vid=3cbb97c5-1f06-4add-ac6d-a120022e686c","ios":"levelo://app?vid=3cbb97c5-1f06-4add-ac6d-a120022e686c"},"vehicle_type_id":"4","last_reported":1753420730,"current_range_meters":9200,"station_id":"","pricing_plan_id":"cebpf4jnsgd1na2vs0mg"},{"bike_id":"de825123-a37e-405e-91fe-642cd3b34ad8","system_id":"levelo_inurba_marseille","lat":43.291996,"lon":5.393266,"is_reserved":false,"is_disabled":false,"rental_uris":{"android":"levelo://app?vid=de825123-a37e-405e-91fe-642cd3b34ad8","ios":"levelo://app?vid=de825123-a37e-405e-91fe-642cd3b34ad8"},"vehicle_type_id":"4","last_reported":1753420730,"current_range_meters":9200,"station_id":"ce4bh192rcd13ifvqdd0","pricing_plan_id":"cebpf4jnsgd1na2vs0mg"},{"bike_id":"5ac85406-65d0-4336-aa89-4b04b2e6689e","system_id":"levelo_inurba_marseille","lat":43.332556,"lon":5.419725,"is_reserved":false,"is_disabled":false,"rental_uris":{"android":"levelo://app?vid=5ac85406-65d0-4336-aa89-4b04b2e6689e","ios":"levelo://app?vid=5ac85406-65d0-4336-aa89-4b04b2e6689e"},"vehicle_type_id":"4","last_reported":1753420730,"current_range_meters":9600,"station_id":"","pricing_plan_id":"cebpf4jnsgd1na2vs0mg"},{"bike_id":"b5ce8d93-17c0-45a5-b2b1-eefce45c2d79","system_id":"levelo_inurba_marseille","lat":43.29283,"lon":5.44579,"is_reserved":false,"is_disabled":false,"rental_uris":{"android":"levelo://app?vid=b5ce8d93-17c0-45a5-b2b1-eefce45c2d79","ios":"levelo://app?vid=b5ce8d93-17c0-45a5-b2b1-eefce45c2d79"},"vehicle_type_id":"4","last_reported":1753420730,"current_range_meters":9600,"station_id":"","pricing_plan_id":"cebpf4jnsgd1na2vs0mg"},{"bike_id":"2006d6ab-c619-4a15-b9f3-97c1160843f0","system_id":"levelo_inurba_marseille","lat":43.28159,"lon":5.36108,"is_reserved":false,"is_disabled":false,"rental_uris":{"android":"levelo://app?vid=2006d6ab-c619-4a15-b9f3-97c1160843f0","ios":"levelo://app?vid=2006d6ab-c619-4a15-b9f3-97c1160843f0"},"vehicle_type_id":"4","last_reported":1753420730,"current_range_meters":9600,"station_id":"","pricing_plan_id":"cebpf4jnsgd1na2vs0mg"},{"bike_id":"5fb5dc0b-c5c2-47ba-9bf5-b3381a8d470d","system_id":"levelo_inurba_marseille","lat":43.30894,"lon":5.396521,"is_reserved":false,"is_disabled":true,"rental_uris":{"android":"levelo://app?vid=5fb5dc0b-c5c2-47ba-9bf5-b3381a8d470d","ios":"levelo://app?vid=5fb5dc0b-c5c2-47ba-9bf5-b3381a8d470d"},"vehicle_type_id":"4","last_reported":1753420730,"current_range_meters":9600,"station_id":"ce4bh012rcd13ifvqcv0","pricing_plan_id":"cebpf4jnsgd1na2vs0mg"},{"bike_id":"3e70609d-f90c-42ca-bfc8-bb7b81a1664f","system_id":"levelo_inurba_marseille","lat":43.30291,"lon":5.39213,"is_reserved":false,"is_disabled":false,"rental_uris":{"android":"levelo://app?vid=3e70609d-f90c-42ca-bfc8-bb7b81a1664f","ios":"levelo://app?vid=3e70609d-f90c-42ca-bfc8-bb7b81a1664f"},"vehicle_type_id":"4","last_reported":1753420730,"current_range_meters":9600,"station_id":"ce4bgkh2rcd13ifvqbk0","pricing_plan_id":"cebpf4jnsgd1na2vs0mg"},{"bike_id":"20b3ac39-d220-4d0b-8848-1b7f328b0525","system_id":"levelo_inurba_marseille","lat":43.262257,"lon":5.404624,"is_reserved":false,"is_disabled":true,"rental_uris":{"android":"levelo://app?vid=20b3ac39-d220-4d0b-8848-1b7f328b0525","ios":"levelo://app?vid=20b3ac39-d220-4d0b-8848-1b7f328b0525"},"vehicle_type_id":"4","last_reported":1753420730,"current_range_meters":10000,"station_id":"ce4bhmh2rcd13ifvqgmg","pricing_plan_id":"cebpf4jnsgd1na2vs0mg"},{"bike_id":"b57f5444-81ff-4a62-9ea3-1b3feaeafb55","system_id":"levelo_inurba_marseille","lat":43.28335,"lon":5.38098,"is_reserved":false,"is_disabled":true,"rental_uris":{"android":"levelo://app?vid=b57f5444-81ff-4a62-9ea3-1b3feaeafb55","ios":"levelo://app?vid=b57f5444-81ff-4a62-9ea3-1b3feaeafb55"},"vehicle_type_id":"4","last_reported":1753420730,"current_range_meters":10000,"station_id":"ce4bh412rcd13ifvqdr0","pricing_plan_id":"cebpf4jnsgd1na2vs0mg"},{"bike_id":"3379cb84-0f8e-4f41-b608-6c09b340ebee","system_id":"levelo_inurba_marseille","lat":43.27969,"lon":5.41019,"is_reserved":false,"is_disabled":false,"rental_uris":{"android":"levelo://app?vid=3379cb84-0f8e-4f41-b608-6c09b340ebee","ios":"levelo://app?vid=3379cb84-0f8e-4f41-b608-6c09b340ebee"},"vehicle_type_id":"4","last_reported":1753420730,"current_range_meters":10000,"station_id":"ce4bhnp2rcd13ifvqh0g","pricing_plan_id":"cebpf4jnsgd1na2vs0mg"},{"bike_id":"6bb1f31c-9335-4f39-9585-31374a4775f9","system_id":"levelo_inurba_marseille","lat":43.325583,"lon":5.379059,"is_reserved":false,"is_disabled":false,"rental_uris":{"android":"levelo://app?vid=6bb1f31c-9335-4f39-9585-31374a4775f9","ios":"levelo://app?vid=6bb1f31c-9335-4f39-9585-31374a4775f9"},"vehicle_type_id":"4","last_reported":1753420730,"current_range_meters":10000,"station_id":"","pricing_plan_id":"cebpf4jnsgd1na2vs0mg"},{"bike_id":"3363dedc-8d9a-4d07-86c7-a592a157e616","system_id":"levelo_inurba_marseille","lat":43.30259,"lon":5.40074,"is_reserved":false,"is_disabled":false,"rental_uris":{"android":"levelo://app?vid=3363dedc-8d9a-4d07-86c7-a592a157e616","ios":"levelo://app?vid=3363dedc-8d9a-4d07-86c7-a592a157e616"},"vehicle_type_id":"4","last_reported":1753420730,"current_range_meters":10000,"station_id":"ce4bgvh2rcd13ifvqcs0","pricing_plan_id":"cebpf4jnsgd1na2vs0mg"},{"bike_id":"ad25e224-b15c-4949-92a3-53289b1bd1fb","system_id":"levelo_inurba_marseille","lat":43.28748,"lon":5.38501,"is_reserved":false,"is_disabled":false,"rental_uris":{"android":"levelo://app?vid=ad25e224-b15c-4949-92a3-53289b1bd1fb","ios":"levelo://app?vid=ad25e224-b15c-4949-92a3-53289b1bd1fb"},"vehicle_type_id":"4","last_reported":1753420730,"current_range_meters":10000,"station_id":"","pricing_plan_id":"cebpf4jnsgd1na2vs0mg"},{"bike_id":"61669521-2c65-4931-bc2c-4bdfe86f873c","system_id":"levelo_inurba_marseille","lat":43.21752,"lon":5.34603,"is_reserved":false,"is_disabled":false,"rental_uris":{"android":"levelo://app?vid=61669521-2c65-4931-bc2c-4bdfe86f873c","ios":"levelo://app?vid=61669521-2c65-4931-bc2c-4bdfe86f873c"},"vehicle_type_id":"4","last_reported":1753420730,"current_range_meters":10000,"station_id":"","pricing_plan_id":"cebpf4jnsgd1na2vs0mg"},{"bike_id":"15764e5c-9dbf-4127-b7d5-4ec1473657e5","system_id":"levelo_inurba_marseille","lat":43.289421,"lon":5.364098,"is_reserved":false,"is_disabled":false,"rental_uris":{"android":"levelo://app?vid=15764e5c-9dbf-4127-b7d5-4ec1473657e5","ios":"levelo://app?vid=15764e5c-9dbf-4127-b7d5-4ec1473657e5"},"vehicle_type_id":"4","last_reported":1753420730,"current_range_meters":10000,"station_id":"ce4bhc92rcd13ifvqetg","pricing_plan_id":"cebpf4jnsgd1na2vs0mg"},{"bike_id":"1ad257b5-7f83-42c1-867f-92635ff1abbf","system_id":"levelo_inurba_marseille","lat":43.229322,"lon":5.353819,"is_reserved":false,"is_disabled":false,"rental_uris":{"android":"levelo://app?vid=1ad257b5-7f83-42c1-867f-92635ff1abbf","ios":"levelo://app?vid=1ad257b5-7f83-42c1-867f-92635ff1abbf"},"vehicle_type_id":"4","last_reported":1753420730,"current_range_meters":10000,"station_id":"cpo3532slgdg3j2ikp40","pricing_plan_id":"cebpf4jnsgd1na2vs0mg"},{"bike_id":"95142580-76f7-40f2-97f7-b187124c6efa","system_id":"levelo_inurba_marseille","lat":43.284264,"lon":5.375262,"is_reserved":false,"is_disabled":false,"rental_uris":{"android":"levelo://app?vid=95142580-76f7-40f2-97f7-b187124c6efa","ios":"levelo://app?vid=95142580-76f7-40f2-97f7-b187124c6efa"},"vehicle_type_id":"4","last_reported":1753420730,"current_range_meters":10000,"station_id":"ce4bh412rcd13ifvqds0","pricing_plan_id":"cebpf4jnsgd1na2vs0mg"},{"bike_id":"fcd570bb-b6e7-47ca-8818-f90d43ab43e3","system_id":"levelo_inurba_marseille","lat":43.31886,"lon":5.40732,"is_reserved":false,"is_disabled":false,"rental_uris":{"android":"levelo://app?vid=fcd570bb-b6e7-47ca-8818-f90d43ab43e3","ios":"levelo://app?vid=fcd570bb-b6e7-47ca-8818-f90d43ab43e3"},"vehicle_type_id":"4","last_reported":1753420730,"current_range_meters":10000,"station_id":"ce4bhq12rcd13ifvqhig","pricing_plan_id":"cebpf4jnsgd1na2vs0mg"},{"bike_id":"b913c24d-ffa7-4a46-9ee5-97549d6a74ee","system_id":"levelo_inurba_marseille","lat":43.267819,"lon":5.394587,"is_reserved":false,"is_disabled":true,"rental_uris":{"android":"levelo://app?vid=b913c24d-ffa7-4a46-9ee5-97549d6a74ee","ios":"levelo://app?vid=b913c24d-ffa7-4a46-9ee5-97549d6a74ee"},"vehicle_type_id":"4","last_reported":1753420730,"current_range_meters":10800,"station_id":"ce4bhh12rcd13ifvqfg0","pricing_plan_id":"cebpf4jnsgd1na2vs0mg"},{"bike_id":"5b60f57d-b8df-45b1-a77e-1a26de4cd1e1","system_id":"levelo_inurba_marseille","lat":43.30784,"lon":5.37665,"is_reserved":false,"is_disabled":false,"rental_uris":{"android":"levelo://app?vid=5b60f57d-b8df-45b1-a77e-1a26de4cd1e1","ios":"levelo://app?vid=5b60f57d-b8df-45b1-a77e-1a26de4cd1e1"},"vehicle_type_id":"4","last_reported":1753420730,"current_range_meters":10800,"station_id":"ce4bgv92rcd13ifvqcq0","pricing_plan_id":"cebpf4jnsgd1na2vs0mg"},{"bike_id":"2ae83899-90fd-4b59-b691-4169c75aef1a","system_id":"levelo_inurba_marseille","lat":43.33793,"lon":5.37435,"is_reserved":false,"is_disabled":false,"rental_uris":{"android":"levelo://app?vid=2ae83899-90fd-4b59-b691-4169c75aef1a","ios":"levelo://app?vid=2ae83899-90fd-4b59-b691-4169c75aef1a"},"vehicle_type_id":"4","last_reported":1753420730,"current_range_meters":10800,"station_id":"","pricing_plan_id":"cebpf4jnsgd1na2vs0mg"},{"bike_id":"22c247f3-1b7c-4346-bee3-7830463b1ca2","system_id":"levelo_inurba_marseille","lat":43.28941,"lon":5.38386,"is_reserved":false,"is_disabled":false,"rental_uris":{"android":"levelo://app?vid=22c247f3-1b7c-4346-bee3-7830463b1ca2","ios":"levelo://app?vid=22c247f3-1b7c-4346-bee3-7830463b1ca2"},"vehicle_type_id":"4","last_reported":1753420730,"current_range_meters":11200,"station_id":"ce4bh612rcd13ifvqe6g","pricing_plan_id":"cebpf4jnsgd1na2vs0mg"},{"bike_id":"71b3be78-a065-4a7d-a660-cdc4f905766e","system_id":"levelo_inurba_marseille","lat":43.290285,"lon":5.39981,"is_reserved":false,"is_disabled":false,"rental_uris":{"android":"levelo://app?vid=71b3be78-a065-4a7d-a660-cdc4f905766e","ios":"levelo://app?vid=71b3be78-a065-4a7d-a660-cdc4f905766e"},"vehicle_type_id":"4","last_reported":1753420730,"current_range_meters":11200,"station_id":"ce4bh392rcd13ifvqdm0","pricing_plan_id":"cebpf4jnsgd1na2vs0mg"},{"bike_id":"a06cac27-b5f8-4f16-bb55-d61b75816638","system_id":"levelo_inurba_marseille","lat":43.2467,"lon":5.38893,"is_reserved":false,"is_disabled":false,"rental_uris":{"android":"levelo://app?vid=a06cac27-b5f8-4f16-bb55-d61b75816638","ios":"levelo://app?vid=a06cac27-b5f8-4f16-bb55-d61b75816638"},"vehicle_type_id":"4","last_reported":1753420730,"current_range_meters":11200,"station_id":"ce4bhg12rcd13ifvqf60","pricing_plan_id":"cebpf4jnsgd1na2vs0mg"},{"bike_id":"5f824980-27aa-4ef2-856d-b766bebead8a","system_id":"levelo_inurba_marseille","lat":43.22537,"lon":5.34772,"is_reserved":false,"is_disabled":false,"rental_uris":{"android":"levelo://app?vid=5f824980-27aa-4ef2-856d-b766bebead8a","ios":"levelo://app?vid=5f824980-27aa-4ef2-856d-b766bebead8a"},"vehicle_type_id":"4","last_reported":1753420730,"current_range_meters":11200,"station_id":"st_cvj5dfep6f1abm77gieg","pricing_plan_id":"cebpf4jnsgd1na2vs0mg"},{"bike_id":"99a07b4b-7b7b-480c-be33-079f56105b46","system_id":"levelo_inurba_marseille","lat":43.294769,"lon":5.376201,"is_reserved":false,"is_disabled":false,"rental_uris":{"android":"levelo://app?vid=99a07b4b-7b7b-480c-be33-079f56105b46","ios":"levelo://app?vid=99a07b4b-7b7b-480c-be33-079f56105b46"},"vehicle_type_id":"4","last_reported":1753420730,"current_range_meters":11200,"station_id":"ce4bgi12rcd13ifvqb80","pricing_plan_id":"cebpf4jnsgd1na2vs0mg"},{"bike_id":"57941dba-0e76-4cd1-9074-4a97e1ffa0b1","system_id":"levelo_inurba_marseille","lat":43.28086,"lon":5.39667,"is_reserved":false,"is_disabled":false,"rental_uris":{"android":"levelo://app?vid=57941dba-0e76-4cd1-9074-4a97e1ffa0b1","ios":"levelo://app?vid=57941dba-0e76-4cd1-9074-4a97e1ffa0b1"},"vehicle_type_id":"4","last_reported":1753420730,"current_range_meters":11200,"station_id":"ce4bho12rcd13ifvqh2g","pricing_plan_id":"cebpf4jnsgd1na2vs0mg"},{"bike_id":"eaad5610-8fa8-4409-a81c-9cd0862917d3","system_id":"levelo_inurba_marseille","lat":43.28408,"lon":5.3498,"is_reserved":false,"is_disabled":false,"rental_uris":{"android":"levelo://app?vid=eaad5610-8fa8-4409-a81c-9cd0862917d3","ios":"levelo://app?vid=eaad5610-8fa8-4409-a81c-9cd0862917d3"},"vehicle_type_id":"4","last_reported":1753420730,"current_range_meters":11600,"station_id":"ce4bhbh2rcd13ifvqepg","pricing_plan_id":"cebpf4jnsgd1na2vs0mg"},{"bike_id":"3f94cca8-8ca9-4713-8017-eed8acb78034","system_id":"levelo_inurba_marseille","lat":43.24178,"lon":5.36395,"is_reserved":false,"is_disabled":false,"rental_uris":{"android":"levelo://app?vid=3f94cca8-8ca9-4713-8017-eed8acb78034","ios":"levelo://app?vid=3f94cca8-8ca9-4713-8017-eed8acb78034"},"vehicle_type_id":"4","last_reported":1753420730,"current_range_meters":11600,"station_id":"cpo36qri1sfpv3e86is0","pricing_plan_id":"cebpf4jnsgd1na2vs0mg"},{"bike_id":"94f32c38-82eb-4489-9734-8082cf499adb","system_id":"levelo_inurba_marseille","lat":43.28792,"lon":5.39144,"is_reserved":false,"is_disabled":false,"rental_uris":{"android":"levelo://app?vid=94f32c38-82eb-4489-9734-8082cf499adb","ios":"levelo://app?vid=94f32c38-82eb-4489-9734-8082cf499adb"},"vehicle_type_id":"4","last_reported":1753420730,"current_range_meters":11600,"station_id":"","pricing_plan_id":"cebpf4jnsgd1na2vs0mg"},{"bike_id":"35a86048-76dd-4de0-afb2-7da8772fad44","system_id":"levelo_inurba_marseille","lat":43.215331,"lon":5.347318,"is_reserved":false,"is_disabled":false,"rental_uris":{"android":"levelo://app?vid=35a86048-76dd-4de0-afb2-7da8772fad44","ios":"levelo://app?vid=35a86048-76dd-4de0-afb2-7da8772fad44"},"vehicle_type_id":"4","last_reported":1753420730,"current_range_meters":11600,"station_id":"","pricing_plan_id":"cebpf4jnsgd1na2vs0mg"},{"bike_id":"fbda76a5-068e-4d90-b9ba-25721acd9298","system_id":"levelo_inurba_marseille","lat":43.290374,"lon":5.439493,"is_reserved":false,"is_disabled":false,"rental_uris":{"android":"levelo://app?vid=fbda76a5-068e-4d90-b9ba-25721acd9298","ios":"levelo://app?vid=fbda76a5-068e-4d90-b9ba-25721acd9298"},"vehicle_type_id":"4","last_reported":1753420730,"current_range_meters":12000,"station_id":"","pricing_plan_id":"cebpf4jnsgd1na2vs0mg"},{"bike_id":"7043615b-ade2-4e50-a083-e59f8b28b13a","system_id":"levelo_inurba_marseille","lat":43.287081,"lon":5.399808,"is_reserved":false,"is_disabled":false,"rental_uris":{"android":"levelo://app?vid=7043615b-ade2-4e50-a083-e59f8b28b13a","ios":"levelo://app?vid=7043615b-ade2-4e50-a083-e59f8b28b13a"},"vehicle_type_id":"4","last_reported":1753420730,"current_range_meters":12000,"station_id":"ce4bho92rcd13ifvqh3g","pricing_plan_id":"cebpf4jnsgd1na2vs0mg"},{"bike_id":"cf776233-7766-4109-aadc-a0d3c334d400","system_id":"levelo_inurba_marseille","lat":43.24114,"lon":5.37755,"is_reserved":false,"is_disabled":false,"rental_uris":{"android":"levelo://app?vid=cf776233-7766-4109-aadc-a0d3c334d400","ios":"levelo://app?vid=cf776233-7766-4109-aadc-a0d3c334d400"},"vehicle_type_id":"4","last_reported":1753420730,"current_range_meters":12000,"station_id":"ce4bhnp2rcd13ifvqgvg","pricing_plan_id":"cebpf4jnsgd1na2vs0mg"},{"bike_id":"bee85b99-8dbc-44aa-997f-ebcfd221c874","system_id":"levelo_inurba_marseille","lat":43.30936,"lon":5.40156,"is_reserved":false,"is_disabled":false,"rental_uris":{"android":"levelo://app?vid=bee85b99-8dbc-44aa-997f-ebcfd221c874","ios":"levelo://app?vid=bee85b99-8dbc-44aa-997f-ebcfd221c874"},"vehicle_type_id":"4","last_reported":1753420730,"current_range_meters":12000,"station_id":"ce4bgvp2rcd13ifvqct0","pricing_plan_id":"cebpf4jnsgd1na2vs0mg"},{"bike_id":"efe430a2-b548-451c-a0da-531bae37a4ee","system_id":"levelo_inurba_marseille","lat":43.30953,"lon":5.40096,"is_reserved":false,"is_disabled":false,"rental_uris":{"android":"levelo://app?vid=efe430a2-b548-451c-a0da-531bae37a4ee","ios":"levelo://app?vid=efe430a2-b548-451c-a0da-531bae37a4ee"},"vehicle_type_id":"4","last_reported":1753420730,"current_range_meters":12000,"station_id":"ce4bgvp2rcd13ifvqct0","pricing_plan_id":"cebpf4jnsgd1na2vs0mg"},{"bike_id":"702e96cb-8a61-4726-b91e-0ec8b89ce6c5","system_id":"levelo_inurba_marseille","lat":43.302441,"lon":5.400649,"is_reserved":false,"is_disabled":false,"rental_uris":{"android":"levelo://app?vid=702e96cb-8a61-4726-b91e-0ec8b89ce6c5","ios":"levelo://app?vid=702e96cb-8a61-4726-b91e-0ec8b89ce6c5"},"vehicle_type_id":"4","last_reported":1753420730,"current_range_meters":12000,"station_id":"ce4bgvh2rcd13ifvqcs0","pricing_plan_id":"cebpf4jnsgd1na2vs0mg"},{"bike_id":"f7f07796-c7c9-4a74-80e9-fb85744448b8","system_id":"levelo_inurba_marseille","lat":43.229245,"lon":5.353716,"is_reserved":false,"is_disabled":false,"rental_uris":{"android":"levelo://app?vid=f7f07796-c7c9-4a74-80e9-fb85744448b8","ios":"levelo://app?vid=f7f07796-c7c9-4a74-80e9-fb85744448b8"},"vehicle_type_id":"4","last_reported":1753420730,"current_range_meters":12000,"station_id":"cpo3532slgdg3j2ikp40","pricing_plan_id":"cebpf4jnsgd1na2vs0mg"},{"bike_id":"27b5acbc-b1fd-4385-9be5-bae49e9e4f6a","system_id":"levelo_inurba_marseille","lat":43.248091,"lon":5.374575,"is_reserved":false,"is_disabled":false,"rental_uris":{"android":"levelo://app?vid=27b5acbc-b1fd-4385-9be5-bae49e9e4f6a","ios":"levelo://app?vid=27b5acbc-b1fd-4385-9be5-bae49e9e4f6a"},"vehicle_type_id":"4","last_reported":1753420730,"current_range_meters":12000,"station_id":"ce4bhgh2rcd13ifvqfb0","pricing_plan_id":"cebpf4jnsgd1na2vs0mg"},{"bike_id":"0cb29836-69a3-48fb-be05-5912c09a1639","system_id":"levelo_inurba_marseille","lat":43.30143,"lon":5.3808,"is_reserved":false,"is_disabled":false,"rental_uris":{"android":"levelo://app?vid=0cb29836-69a3-48fb-be05-5912c09a1639","ios":"levelo://app?vid=0cb29836-69a3-48fb-be05-5912c09a1639"},"vehicle_type_id":"4","last_reported":1753420730,"current_range_meters":12400,"station_id":"ce4bgjp2rcd13ifvqbh0","pricing_plan_id":"cebpf4jnsgd1na2vs0mg"},{"bike_id":"9353d228-8680-4d7c-b6dd-c80a6ca3c031","system_id":"levelo_inurba_marseille","lat":43.30376,"lon":5.42492,"is_reserved":false,"is_disabled":false,"rental_uris":{"android":"levelo://app?vid=9353d228-8680-4d7c-b6dd-c80a6ca3c031","ios":"levelo://app?vid=9353d228-8680-4d7c-b6dd-c80a6ca3c031"},"vehicle_type_id":"4","last_reported":1753420730,"current_range_meters":12400,"station_id":"ce4bhoh2rcd13ifvqh6g","pricing_plan_id":"cebpf4jnsgd1na2vs0mg"},{"bike_id":"eaea15aa-98ae-4f78-b37a-80e2e4524837","system_id":"levelo_inurba_marseille","lat":43.297916,"lon":5.381026,"is_reserved":false,"is_disabled":false,"rental_uris":{"android":"levelo://app?vid=eaea15aa-98ae-4f78-b37a-80e2e4524837","ios":"levelo://app?vid=eaea15aa-98ae-4f78-b37a-80e2e4524837"},"vehicle_type_id":"4","last_reported":1753420730,"current_range_meters":12400,"station_id":"","pricing_plan_id":"cebpf4jnsgd1na2vs0mg"},{"bike_id":"0aa2d153-96d1-4d69-83b8-d39119aa9dd5","system_id":"levelo_inurba_marseille","lat":43.33535,"lon":5.36207,"is_reserved":false,"is_disabled":false,"rental_uris":{"android":"levelo://app?vid=0aa2d153-96d1-4d69-83b8-d39119aa9dd5","ios":"levelo://app?vid=0aa2d153-96d1-4d69-83b8-d39119aa9dd5"},"vehicle_type_id":"4","last_reported":1753420730,"current_range_meters":12400,"station_id":"","pricing_plan_id":"cebpf4jnsgd1na2vs0mg"},{"bike_id":"7136e517-5ffc-4744-82ab-5e8aff975eec","system_id":"levelo_inurba_marseille","lat":43.29691,"lon":5.36627,"is_reserved":false,"is_disabled":true,"rental_uris":{"android":"levelo://app?vid=7136e517-5ffc-4744-82ab-5e8aff975eec","ios":"levelo://app?vid=7136e517-5ffc-4744-82ab-5e8aff975eec"},"vehicle_type_id":"4","last_reported":1753420730,"current_range_meters":12400,"station_id":"ce4bgn12rcd13ifvqbt0","pricing_plan_id":"cebpf4jnsgd1na2vs0mg"},{"bike_id":"032f66d0-c387-41c5-9af4-1ad9711f505c","system_id":"levelo_inurba_marseille","lat":43.3165,"lon":5.40493,"is_reserved":false,"is_disabled":false,"rental_uris":{"android":"levelo://app?vid=032f66d0-c387-41c5-9af4-1ad9711f505c","ios":"levelo://app?vid=032f66d0-c387-41c5-9af4-1ad9711f505c"},"vehicle_type_id":"4","last_reported":1753420730,"current_range_meters":12800,"station_id":"ce4bh012rcd13ifvqd00","pricing_plan_id":"cebpf4jnsgd1na2vs0mg"},{"bike_id":"b3c98151-32c9-4162-a221-f12ba796feaf","system_id":"levelo_inurba_marseille","lat":43.28098,"lon":5.37871,"is_reserved":false,"is_disabled":false,"rental_uris":{"android":"levelo://app?vid=b3c98151-32c9-4162-a221-f12ba796feaf","ios":"levelo://app?vid=b3c98151-32c9-4162-a221-f12ba796feaf"},"vehicle_type_id":"4","last_reported":1753420730,"current_range_meters":12800,"station_id":"ce4bha12rcd13ifvqee0","pricing_plan_id":"cebpf4jnsgd1na2vs0mg"},{"bike_id":"1f39eb17-34c7-4235-9069-0f68f613789c","system_id":"levelo_inurba_marseille","lat":43.26886,"lon":5.36871,"is_reserved":false,"is_disabled":false,"rental_uris":{"android":"levelo://app?vid=1f39eb17-34c7-4235-9069-0f68f613789c","ios":"levelo://app?vid=1f39eb17-34c7-4235-9069-0f68f613789c"},"vehicle_type_id":"4","last_reported":1753420730,"current_range_meters":13600,"station_id":"","pricing_plan_id":"cebpf4jnsgd1na2vs0mg"},{"bike_id":"e8ceab27-aa51-45d2-8fcc-ce7e4149a8cd","system_id":"levelo_inurba_marseille","lat":43.31704,"lon":5.40478,"is_reserved":false,"is_disabled":false,"rental_uris":{"android":"levelo://app?vid=e8ceab27-aa51-45d2-8fcc-ce7e4149a8cd","ios":"levelo://app?vid=e8ceab27-aa51-45d2-8fcc-ce7e4149a8cd"},"vehicle_type_id":"4","last_reported":1753420730,"current_range_meters":13600,"station_id":"ce4bh012rcd13ifvqd00","pricing_plan_id":"cebpf4jnsgd1na2vs0mg"},{"bike_id":"9bb7bf6e-d696-4836-a041-06a2876b08f1","system_id":"levelo_inurba_marseille","lat":43.306094,"lon":5.385177,"is_reserved":false,"is_disabled":false,"rental_uris":{"android":"levelo://app?vid=9bb7bf6e-d696-4836-a041-06a2876b08f1","ios":"levelo://app?vid=9bb7bf6e-d696-4836-a041-06a2876b08f1"},"vehicle_type_id":"4","last_reported":1753420730,"current_range_meters":13600,"station_id":"","pricing_plan_id":"cebpf4jnsgd1na2vs0mg"},{"bike_id":"1bad41f4-2220-48a2-9d56-f732121985af","system_id":"levelo_inurba_marseille","lat":43.31307,"lon":5.43102,"is_reserved":false,"is_disabled":false,"rental_uris":{"android":"levelo://app?vid=1bad41f4-2220-48a2-9d56-f732121985af","ios":"levelo://app?vid=1bad41f4-2220-48a2-9d56-f732121985af"},"vehicle_type_id":"4","last_reported":1753420730,"current_range_meters":13600,"station_id":"","pricing_plan_id":"cebpf4jnsgd1na2vs0mg"},{"bike_id":"7007db7b-2139-45dc-8fb3-06207f8a2b0d","system_id":"levelo_inurba_marseille","lat":43.271734,"lon":5.409981,"is_reserved":false,"is_disabled":false,"rental_uris":{"android":"levelo://app?vid=7007db7b-2139-45dc-8fb3-06207f8a2b0d","ios":"levelo://app?vid=7007db7b-2139-45dc-8fb3-06207f8a2b0d"},"vehicle_type_id":"4","last_reported":1753420730,"current_range_meters":13600,"station_id":"ce4bhl12rcd13ifvqgf0","pricing_plan_id":"cebpf4jnsgd1na2vs0mg"},{"bike_id":"d8ab8225-ebfc-48f1-9981-f15e3b9960ea","system_id":"levelo_inurba_marseille","lat":43.2292,"lon":5.35378,"is_reserved":false,"is_disabled":false,"rental_uris":{"android":"levelo://app?vid=d8ab8225-ebfc-48f1-9981-f15e3b9960ea","ios":"levelo://app?vid=d8ab8225-ebfc-48f1-9981-f15e3b9960ea"},"vehicle_type_id":"4","last_reported":1753420730,"current_range_meters":14000,"station_id":"cpo3532slgdg3j2ikp40","pricing_plan_id":"cebpf4jnsgd1na2vs0mg"},{"bike_id":"481351de-e3d5-4a6f-aa67-c1762e7ed223","system_id":"levelo_inurba_marseille","lat":43.27078,"lon":5.42281,"is_reserved":false,"is_disabled":false,"rental_uris":{"android":"levelo://app?vid=481351de-e3d5-4a6f-aa67-c1762e7ed223","ios":"levelo://app?vid=481351de-e3d5-4a6f-aa67-c1762e7ed223"},"vehicle_type_id":"4","last_reported":1753420730,"current_range_meters":14000,"station_id":"ce4bhk92rcd13ifvqgb0","pricing_plan_id":"cebpf4jnsgd1na2vs0mg"},{"bike_id":"668d3622-317d-4af1-bbd6-1f8c2bb0f9b0","system_id":"levelo_inurba_marseille","lat":43.28939,"lon":5.366306,"is_reserved":false,"is_disabled":false,"rental_uris":{"android":"levelo://app?vid=668d3622-317d-4af1-bbd6-1f8c2bb0f9b0","ios":"levelo://app?vid=668d3622-317d-4af1-bbd6-1f8c2bb0f9b0"},"vehicle_type_id":"4","last_reported":1753420730,"current_range_meters":14000,"station_id":"ce4bhap2rcd13ifvqek0","pricing_plan_id":"cebpf4jnsgd1na2vs0mg"},{"bike_id":"becd7aa9-05b5-4ec9-808c-f94d710cc81a","system_id":"levelo_inurba_marseille","lat":43.29912,"lon":5.43674,"is_reserved":false,"is_disabled":false,"rental_uris":{"android":"levelo://app?vid=becd7aa9-05b5-4ec9-808c-f94d710cc81a","ios":"levelo://app?vid=becd7aa9-05b5-4ec9-808c-f94d710cc81a"},"vehicle_type_id":"4","last_reported":1753420730,"current_range_meters":13600,"station_id":"ce4bhpp2rcd13ifvqhfg","pricing_plan_id":"cebpf4jnsgd1na2vs0mg"},{"bike_id":"7670573a-d497-4b74-a965-85c9bde494cc","system_id":"levelo_inurba_marseille","lat":43.27201,"lon":5.3919,"is_reserved":false,"is_disabled":false,"rental_uris":{"android":"levelo://app?vid=7670573a-d497-4b74-a965-85c9bde494cc","ios":"levelo://app?vid=7670573a-d497-4b74-a965-85c9bde494cc"},"vehicle_type_id":"4","last_reported":1753420730,"current_range_meters":14400,"station_id":"ce4bhhp2rcd13ifvqfm0","pricing_plan_id":"cebpf4jnsgd1na2vs0mg"},{"bike_id":"ce193c8e-90e0-4599-95e2-d02b7d163b03","system_id":"levelo_inurba_marseille","lat":43.24091,"lon":5.37733,"is_reserved":false,"is_disabled":false,"rental_uris":{"android":"levelo://app?vid=ce193c8e-90e0-4599-95e2-d02b7d163b03","ios":"levelo://app?vid=ce193c8e-90e0-4599-95e2-d02b7d163b03"},"vehicle_type_id":"4","last_reported":1753420730,"current_range_meters":14400,"station_id":"ce4bhnp2rcd13ifvqgvg","pricing_plan_id":"cebpf4jnsgd1na2vs0mg"},{"bike_id":"a7fb77ed-6a7c-4720-9562-87380eb23df6","system_id":"levelo_inurba_marseille","lat":43.337137,"lon":5.408637,"is_reserved":false,"is_disabled":false,"rental_uris":{"android":"levelo://app?vid=a7fb77ed-6a7c-4720-9562-87380eb23df6","ios":"levelo://app?vid=a7fb77ed-6a7c-4720-9562-87380eb23df6"},"vehicle_type_id":"4","last_reported":1753420730,"current_range_meters":14400,"station_id":"","pricing_plan_id":"cebpf4jnsgd1na2vs0mg"},{"bike_id":"bf4c6dc9-697a-45fa-9f70-43b71a8ccd27","system_id":"levelo_inurba_marseille","lat":43.317134,"lon":5.437045,"is_reserved":false,"is_disabled":false,"rental_uris":{"android":"levelo://app?vid=bf4c6dc9-697a-45fa-9f70-43b71a8ccd27","ios":"levelo://app?vid=bf4c6dc9-697a-45fa-9f70-43b71a8ccd27"},"vehicle_type_id":"4","last_reported":1753420730,"current_range_meters":14400,"station_id":"ce4bhp92rcd13ifvqhcg","pricing_plan_id":"cebpf4jnsgd1na2vs0mg"},{"bike_id":"ffab4a34-82e9-461f-8967-2ccafce68b3b","system_id":"levelo_inurba_marseille","lat":43.26569,"lon":5.3729,"is_reserved":false,"is_disabled":false,"rental_uris":{"android":"levelo://app?vid=ffab4a34-82e9-461f-8967-2ccafce68b3b","ios":"levelo://app?vid=ffab4a34-82e9-461f-8967-2ccafce68b3b"},"vehicle_type_id":"4","last_reported":1753420730,"current_range_meters":14400,"station_id":"ce4bhg12rcd13ifvqf70","pricing_plan_id":"cebpf4jnsgd1na2vs0mg"},{"bike_id":"4235c584-f9ca-4ae8-961d-69448a002c8d","system_id":"levelo_inurba_marseille","lat":43.240711,"lon":5.377667,"is_reserved":false,"is_disabled":false,"rental_uris":{"android":"levelo://app?vid=4235c584-f9ca-4ae8-961d-69448a002c8d","ios":"levelo://app?vid=4235c584-f9ca-4ae8-961d-69448a002c8d"},"vehicle_type_id":"4","last_reported":1753420730,"current_range_meters":14800,"station_id":"ce4bhnp2rcd13ifvqgvg","pricing_plan_id":"cebpf4jnsgd1na2vs0mg"},{"bike_id":"3f947606-5aaa-4500-8084-bd1f98e6a611","system_id":"levelo_inurba_marseille","lat":43.316954,"lon":5.404588,"is_reserved":false,"is_disabled":false,"rental_uris":{"android":"levelo://app?vid=3f947606-5aaa-4500-8084-bd1f98e6a611","ios":"levelo://app?vid=3f947606-5aaa-4500-8084-bd1f98e6a611"},"vehicle_type_id":"4","last_reported":1753420730,"current_range_meters":14800,"station_id":"ce4bh012rcd13ifvqd00","pricing_plan_id":"cebpf4jnsgd1na2vs0mg"},{"bike_id":"ad7f924d-5443-4b14-80c3-fdbe71f8752e","system_id":"levelo_inurba_marseille","lat":43.26047,"lon":5.37331,"is_reserved":false,"is_disabled":false,"rental_uris":{"android":"levelo://app?vid=ad7f924d-5443-4b14-80c3-fdbe71f8752e","ios":"levelo://app?vid=ad7f924d-5443-4b14-80c3-fdbe71f8752e"},"vehicle_type_id":"4","last_reported":1753420730,"current_range_meters":14800,"station_id":"","pricing_plan_id":"cebpf4jnsgd1na2vs0mg"},{"bike_id":"81d4c8d2-f5a0-4fab-8a1d-f83cfcdea9d2","system_id":"levelo_inurba_marseille","lat":43.2721,"lon":5.39181,"is_reserved":false,"is_disabled":false,"rental_uris":{"android":"levelo://app?vid=81d4c8d2-f5a0-4fab-8a1d-f83cfcdea9d2","ios":"levelo://app?vid=81d4c8d2-f5a0-4fab-8a1d-f83cfcdea9d2"},"vehicle_type_id":"4","last_reported":1753420730,"current_range_meters":14800,"station_id":"ce4bhhp2rcd13ifvqfm0","pricing_plan_id":"cebpf4jnsgd1na2vs0mg"},{"bike_id":"09ba2926-92d2-4c4d-a6be-e908866b9b1c","system_id":"levelo_inurba_marseille","lat":43.27624,"lon":5.36128,"is_reserved":false,"is_disabled":false,"rental_uris":{"android":"levelo://app?vid=09ba2926-92d2-4c4d-a6be-e908866b9b1c","ios":"levelo://app?vid=09ba2926-92d2-4c4d-a6be-e908866b9b1c"},"vehicle_type_id":"4","last_reported":1753420730,"current_range_meters":15200,"station_id":"ce4bgj92rcd13ifvqbe0","pricing_plan_id":"cebpf4jnsgd1na2vs0mg"},{"bike_id":"cf16c6c0-86f5-442e-bbba-3b2c4b02695a","system_id":"levelo_inurba_marseille","lat":43.31119,"lon":5.377667,"is_reserved":false,"is_disabled":false,"rental_uris":{"android":"levelo://app?vid=cf16c6c0-86f5-442e-bbba-3b2c4b02695a","ios":"levelo://app?vid=cf16c6c0-86f5-442e-bbba-3b2c4b02695a"},"vehicle_type_id":"4","last_reported":1753420730,"current_range_meters":15200,"station_id":"ce4bgt92rcd13ifvqcg0","pricing_plan_id":"cebpf4jnsgd1na2vs0mg"},{"bike_id":"261d4bb0-7bb9-4c80-93f3-cd6f68b7285e","system_id":"levelo_inurba_marseille","lat":43.31517,"lon":5.36906,"is_reserved":false,"is_disabled":false,"rental_uris":{"android":"levelo://app?vid=261d4bb0-7bb9-4c80-93f3-cd6f68b7285e","ios":"levelo://app?vid=261d4bb0-7bb9-4c80-93f3-cd6f68b7285e"},"vehicle_type_id":"4","last_reported":1753420730,"current_range_meters":15200,"station_id":"","pricing_plan_id":"cebpf4jnsgd1na2vs0mg"},{"bike_id":"1e9cf983-3afc-4620-a4d4-2dd094704fd1","system_id":"levelo_inurba_marseille","lat":43.22501,"lon":5.34774,"is_reserved":false,"is_disabled":false,"rental_uris":{"android":"levelo://app?vid=1e9cf983-3afc-4620-a4d4-2dd094704fd1","ios":"levelo://app?vid=1e9cf983-3afc-4620-a4d4-2dd094704fd1"},"vehicle_type_id":"4","last_reported":1753420730,"current_range_meters":15200,"station_id":"st_cvj5dfep6f1abm77gieg","pricing_plan_id":"cebpf4jnsgd1na2vs0mg"},{"bike_id":"76c2176d-20df-4c0c-846f-d109f0e6f041","system_id":"levelo_inurba_marseille","lat":43.284151,"lon":5.375188,"is_reserved":false,"is_disabled":false,"rental_uris":{"android":"levelo://app?vid=76c2176d-20df-4c0c-846f-d109f0e6f041","ios":"levelo://app?vid=76c2176d-20df-4c0c-846f-d109f0e6f041"},"vehicle_type_id":"4","last_reported":1753420730,"current_range_meters":15200,"station_id":"ce4bh412rcd13ifvqds0","pricing_plan_id":"cebpf4jnsgd1na2vs0mg"},{"bike_id":"f2bb9022-194f-48c2-8458-a0c976dec6c6","system_id":"levelo_inurba_marseille","lat":43.30299,"lon":5.39234,"is_reserved":false,"is_disabled":false,"rental_uris":{"android":"levelo://app?vid=f2bb9022-194f-48c2-8458-a0c976dec6c6","ios":"levelo://app?vid=f2bb9022-194f-48c2-8458-a0c976dec6c6"},"vehicle_type_id":"4","last_reported":1753420730,"current_range_meters":15200,"station_id":"ce4bgkh2rcd13ifvqbk0","pricing_plan_id":"cebpf4jnsgd1na2vs0mg"},{"bike_id":"1c660be6-65f6-4acd-a285-9ab5a7390f9a","system_id":"levelo_inurba_marseille","lat":43.27992,"lon":5.41656,"is_reserved":false,"is_disabled":false,"rental_uris":{"android":"levelo://app?vid=1c660be6-65f6-4acd-a285-9ab5a7390f9a","ios":"levelo://app?vid=1c660be6-65f6-4acd-a285-9ab5a7390f9a"},"vehicle_type_id":"4","last_reported":1753420730,"current_range_meters":15200,"station_id":"ce4bho12rcd13ifvqh1g","pricing_plan_id":"cebpf4jnsgd1na2vs0mg"},{"bike_id":"d732a5e3-7a84-4ad4-9791-9078970609c5","system_id":"levelo_inurba_marseille","lat":43.31128,"lon":5.37777,"is_reserved":false,"is_disabled":false,"rental_uris":{"android":"levelo://app?vid=d732a5e3-7a84-4ad4-9791-9078970609c5","ios":"levelo://app?vid=d732a5e3-7a84-4ad4-9791-9078970609c5"},"vehicle_type_id":"4","last_reported":1753420730,"current_range_meters":16000,"station_id":"ce4bgt92rcd13ifvqcg0","pricing_plan_id":"cebpf4jnsgd1na2vs0mg"},{"bike_id":"21bb3fef-81ef-46bb-a48d-d85402757c94","system_id":"levelo_inurba_marseille","lat":43.2546,"lon":5.37985,"is_reserved":false,"is_disabled":false,"rental_uris":{"android":"levelo://app?vid=21bb3fef-81ef-46bb-a48d-d85402757c94","ios":"levelo://app?vid=21bb3fef-81ef-46bb-a48d-d85402757c94"},"vehicle_type_id":"4","last_reported":1753420730,"current_range_meters":16000,"station_id":"","pricing_plan_id":"cebpf4jnsgd1na2vs0mg"},{"bike_id":"dddbef83-b47e-460f-a4ac-beade05833f1","system_id":"levelo_inurba_marseille","lat":43.22932,"lon":5.3537,"is_reserved":false,"is_disabled":false,"rental_uris":{"android":"levelo://app?vid=dddbef83-b47e-460f-a4ac-beade05833f1","ios":"levelo://app?vid=dddbef83-b47e-460f-a4ac-beade05833f1"},"vehicle_type_id":"4","last_reported":1753420730,"current_range_meters":16000,"station_id":"cpo3532slgdg3j2ikp40","pricing_plan_id":"cebpf4jnsgd1na2vs0mg"},{"bike_id":"06f04326-e47c-43bd-93a9-fd0f762b4c6e","system_id":"levelo_inurba_marseille","lat":43.28703,"lon":5.37375,"is_reserved":false,"is_disabled":false,"rental_uris":{"android":"levelo://app?vid=06f04326-e47c-43bd-93a9-fd0f762b4c6e","ios":"levelo://app?vid=06f04326-e47c-43bd-93a9-fd0f762b4c6e"},"vehicle_type_id":"4","last_reported":1753420730,"current_range_meters":16000,"station_id":"ce4bh3p2rcd13ifvqdq0","pricing_plan_id":"cebpf4jnsgd1na2vs0mg"},{"bike_id":"81214a4c-aec9-4439-9ab4-8d3754022513","system_id":"levelo_inurba_marseille","lat":43.23194,"lon":5.3556,"is_reserved":false,"is_disabled":true,"rental_uris":{"android":"levelo://app?vid=81214a4c-aec9-4439-9ab4-8d3754022513","ios":"levelo://app?vid=81214a4c-aec9-4439-9ab4-8d3754022513"},"vehicle_type_id":"4","last_reported":1753420730,"current_range_meters":16000,"station_id":"ce4bhu92rcd13ifvqi70","pricing_plan_id":"cebpf4jnsgd1na2vs0mg"},{"bike_id":"5de7867a-387c-407e-a78f-8d9a8ba15ef9","system_id":"levelo_inurba_marseille","lat":43.28631,"lon":5.35101,"is_reserved":false,"is_disabled":false,"rental_uris":{"android":"levelo://app?vid=5de7867a-387c-407e-a78f-8d9a8ba15ef9","ios":"levelo://app?vid=5de7867a-387c-407e-a78f-8d9a8ba15ef9"},"vehicle_type_id":"4","last_reported":1753420730,"current_range_meters":16400,"station_id":"ce4bhch2rcd13ifvqeug","pricing_plan_id":"cebpf4jnsgd1na2vs0mg"},{"bike_id":"a8943243-4e04-42c3-bd1a-14873656122b","system_id":"levelo_inurba_marseille","lat":43.31089,"lon":5.4244,"is_reserved":false,"is_disabled":false,"rental_uris":{"android":"levelo://app?vid=a8943243-4e04-42c3-bd1a-14873656122b","ios":"levelo://app?vid=a8943243-4e04-42c3-bd1a-14873656122b"},"vehicle_type_id":"4","last_reported":1753420730,"current_range_meters":16400,"station_id":"ce4bhp92rcd13ifvqhag","pricing_plan_id":"cebpf4jnsgd1na2vs0mg"},{"bike_id":"655cc3c9-24b4-495b-a8d1-14629cda4870","system_id":"levelo_inurba_marseille","lat":43.3024,"lon":5.40055,"is_reserved":false,"is_disabled":false,"rental_uris":{"android":"levelo://app?vid=655cc3c9-24b4-495b-a8d1-14629cda4870","ios":"levelo://app?vid=655cc3c9-24b4-495b-a8d1-14629cda4870"},"vehicle_type_id":"4","last_reported":1753420730,"current_range_meters":16400,"station_id":"ce4bgvh2rcd13ifvqcs0","pricing_plan_id":"cebpf4jnsgd1na2vs0mg"},{"bike_id":"9ea56ab2-ac76-40e9-a300-419720468605","system_id":"levelo_inurba_marseille","lat":43.246466,"lon":5.389056,"is_reserved":false,"is_disabled":false,"rental_uris":{"android":"levelo://app?vid=9ea56ab2-ac76-40e9-a300-419720468605","ios":"levelo://app?vid=9ea56ab2-ac76-40e9-a300-419720468605"},"vehicle_type_id":"4","last_reported":1753420730,"current_range_meters":16400,"station_id":"ce4bhg12rcd13ifvqf60","pricing_plan_id":"cebpf4jnsgd1na2vs0mg"},{"bike_id":"6017f8ed-cd95-4d92-8507-66c8be2e8ee3","system_id":"levelo_inurba_marseille","lat":43.279481,"lon":5.410468,"is_reserved":false,"is_disabled":false,"rental_uris":{"android":"levelo://app?vid=6017f8ed-cd95-4d92-8507-66c8be2e8ee3","ios":"levelo://app?vid=6017f8ed-cd95-4d92-8507-66c8be2e8ee3"},"vehicle_type_id":"4","last_reported":1753420730,"current_range_meters":16400,"station_id":"ce4bhnp2rcd13ifvqh0g","pricing_plan_id":"cebpf4jnsgd1na2vs0mg"},{"bike_id":"71b44c32-1ec1-479f-8f9e-a464e1647579","system_id":"levelo_inurba_marseille","lat":43.232958,"lon":5.361091,"is_reserved":false,"is_disabled":false,"rental_uris":{"android":"levelo://app?vid=71b44c32-1ec1-479f-8f9e-a464e1647579","ios":"levelo://app?vid=71b44c32-1ec1-479f-8f9e-a464e1647579"},"vehicle_type_id":"4","last_reported":1753420730,"current_range_meters":16400,"station_id":"","pricing_plan_id":"cebpf4jnsgd1na2vs0mg"},{"bike_id":"d2c1d56d-6a3a-4ae3-b7ab-84022ad7ad84","system_id":"levelo_inurba_marseille","lat":43.29741,"lon":5.37632,"is_reserved":false,"is_disabled":false,"rental_uris":{"android":"levelo://app?vid=d2c1d56d-6a3a-4ae3-b7ab-84022ad7ad84","ios":"levelo://app?vid=d2c1d56d-6a3a-4ae3-b7ab-84022ad7ad84"},"vehicle_type_id":"4","last_reported":1753420730,"current_range_meters":16400,"station_id":"","pricing_plan_id":"cebpf4jnsgd1na2vs0mg"},{"bike_id":"6f89c11c-7ed8-4069-b113-dfbd261dc68c","system_id":"levelo_inurba_marseille","lat":43.29874,"lon":5.39727,"is_reserved":false,"is_disabled":false,"rental_uris":{"android":"levelo://app?vid=6f89c11c-7ed8-4069-b113-dfbd261dc68c","ios":"levelo://app?vid=6f89c11c-7ed8-4069-b113-dfbd261dc68c"},"vehicle_type_id":"4","last_reported":1753420730,"current_range_meters":16400,"station_id":"ce4bh0h2rcd13ifvqd50","pricing_plan_id":"cebpf4jnsgd1na2vs0mg"},{"bike_id":"c0c9581e-3f6b-4c4b-8f58-4908446a05ea","system_id":"levelo_inurba_marseille","lat":43.311225,"lon":5.377691,"is_reserved":false,"is_disabled":false,"rental_uris":{"android":"levelo://app?vid=c0c9581e-3f6b-4c4b-8f58-4908446a05ea","ios":"levelo://app?vid=c0c9581e-3f6b-4c4b-8f58-4908446a05ea"},"vehicle_type_id":"4","last_reported":1753420730,"current_range_meters":16800,"station_id":"ce4bgt92rcd13ifvqcg0","pricing_plan_id":"cebpf4jnsgd1na2vs0mg"},{"bike_id":"f2ca3887-7e82-498b-8c49-e80cd18a3051","system_id":"levelo_inurba_marseille","lat":43.239671,"lon":5.366291,"is_reserved":false,"is_disabled":false,"rental_uris":{"android":"levelo://app?vid=f2ca3887-7e82-498b-8c49-e80cd18a3051","ios":"levelo://app?vid=f2ca3887-7e82-498b-8c49-e80cd18a3051"},"vehicle_type_id":"4","last_reported":1753420730,"current_range_meters":16800,"station_id":"ce4bhi12rcd13ifvqfp0","pricing_plan_id":"cebpf4jnsgd1na2vs0mg"},{"bike_id":"fd13a871-6a7c-45ab-8193-0aedb29a36fc","system_id":"levelo_inurba_marseille","lat":43.265519,"lon":5.372911,"is_reserved":false,"is_disabled":false,"rental_uris":{"android":"levelo://app?vid=fd13a871-6a7c-45ab-8193-0aedb29a36fc","ios":"levelo://app?vid=fd13a871-6a7c-45ab-8193-0aedb29a36fc"},"vehicle_type_id":"4","last_reported":1753420730,"current_range_meters":16800,"station_id":"ce4bhg12rcd13ifvqf70","pricing_plan_id":"cebpf4jnsgd1na2vs0mg"},{"bike_id":"03517c70-be07-4330-878a-c12562b71a86","system_id":"levelo_inurba_marseille","lat":43.30602,"lon":5.39362,"is_reserved":false,"is_disabled":false,"rental_uris":{"android":"levelo://app?vid=03517c70-be07-4330-878a-c12562b71a86","ios":"levelo://app?vid=03517c70-be07-4330-878a-c12562b71a86"},"vehicle_type_id":"4","last_reported":1753420730,"current_range_meters":16800,"station_id":"ce4bh0p2rcd13ifvqd80","pricing_plan_id":"cebpf4jnsgd1na2vs0mg"},{"bike_id":"c59386ad-d49e-4400-92f2-a2c0fcc21264","system_id":"levelo_inurba_marseille","lat":43.29179,"lon":5.37527,"is_reserved":false,"is_disabled":true,"rental_uris":{"android":"levelo://app?vid=c59386ad-d49e-4400-92f2-a2c0fcc21264","ios":"levelo://app?vid=c59386ad-d49e-4400-92f2-a2c0fcc21264"},"vehicle_type_id":"4","last_reported":1753420730,"current_range_meters":16800,"station_id":"","pricing_plan_id":"cebpf4jnsgd1na2vs0mg"},{"bike_id":"4aa97969-2f6e-4edb-a09f-12d31a04a044","system_id":"levelo_inurba_marseille","lat":43.307844,"lon":5.376663,"is_reserved":false,"is_disabled":false,"rental_uris":{"android":"levelo://app?vid=4aa97969-2f6e-4edb-a09f-12d31a04a044","ios":"levelo://app?vid=4aa97969-2f6e-4edb-a09f-12d31a04a044"},"vehicle_type_id":"4","last_reported":1753420730,"current_range_meters":16800,"station_id":"ce4bgv92rcd13ifvqcq0","pricing_plan_id":"cebpf4jnsgd1na2vs0mg"},{"bike_id":"5cfe74ee-67cc-4223-97ee-3d16374f01fc","system_id":"levelo_inurba_marseille","lat":43.27372,"lon":5.3624,"is_reserved":false,"is_disabled":true,"rental_uris":{"android":"levelo://app?vid=5cfe74ee-67cc-4223-97ee-3d16374f01fc","ios":"levelo://app?vid=5cfe74ee-67cc-4223-97ee-3d16374f01fc"},"vehicle_type_id":"4","last_reported":1753420730,"current_range_meters":16800,"station_id":"ce4bhbh2rcd13ifvqeo0","pricing_plan_id":"cebpf4jnsgd1na2vs0mg"},{"bike_id":"75ce79c1-e23f-47ca-b12f-ecbb1fdfab43","system_id":"levelo_inurba_marseille","lat":43.28702,"lon":5.39981,"is_reserved":false,"is_disabled":false,"rental_uris":{"android":"levelo://app?vid=75ce79c1-e23f-47ca-b12f-ecbb1fdfab43","ios":"levelo://app?vid=75ce79c1-e23f-47ca-b12f-ecbb1fdfab43"},"vehicle_type_id":"4","last_reported":1753420730,"current_range_meters":16800,"station_id":"ce4bho92rcd13ifvqh3g","pricing_plan_id":"cebpf4jnsgd1na2vs0mg"},{"bike_id":"7a2e9e7e-4e9d-4e71-a22e-ef2896aef70a","system_id":"levelo_inurba_marseille","lat":43.289282,"lon":5.383986,"is_reserved":false,"is_disabled":false,"rental_uris":{"android":"levelo://app?vid=7a2e9e7e-4e9d-4e71-a22e-ef2896aef70a","ios":"levelo://app?vid=7a2e9e7e-4e9d-4e71-a22e-ef2896aef70a"},"vehicle_type_id":"4","last_reported":1753420730,"current_range_meters":16800,"station_id":"ce4bh612rcd13ifvqe6g","pricing_plan_id":"cebpf4jnsgd1na2vs0mg"},{"bike_id":"9dd88cc0-ad2c-451a-9d9b-271ddd803b84","system_id":"levelo_inurba_marseille","lat":43.3119,"lon":5.38712,"is_reserved":false,"is_disabled":false,"rental_uris":{"android":"levelo://app?vid=9dd88cc0-ad2c-451a-9d9b-271ddd803b84","ios":"levelo://app?vid=9dd88cc0-ad2c-451a-9d9b-271ddd803b84"},"vehicle_type_id":"4","last_reported":1753420730,"current_range_meters":16800,"station_id":"ce4bgv12rcd13ifvqcp0","pricing_plan_id":"cebpf4jnsgd1na2vs0mg"},{"bike_id":"20859a24-fd13-44e9-b9b3-6028ee9c71d4","system_id":"levelo_inurba_marseille","lat":43.283678,"lon":5.386366,"is_reserved":false,"is_disabled":false,"rental_uris":{"android":"levelo://app?vid=20859a24-fd13-44e9-b9b3-6028ee9c71d4","ios":"levelo://app?vid=20859a24-fd13-44e9-b9b3-6028ee9c71d4"},"vehicle_type_id":"4","last_reported":1753420730,"current_range_meters":16800,"station_id":"ce4bh492rcd13ifvqdvg","pricing_plan_id":"cebpf4jnsgd1na2vs0mg"},{"bike_id":"840d7e43-7cc1-471f-a57a-9b8c6b113ae0","system_id":"levelo_inurba_marseille","lat":43.29442,"lon":5.39767,"is_reserved":false,"is_disabled":true,"rental_uris":{"android":"levelo://app?vid=840d7e43-7cc1-471f-a57a-9b8c6b113ae0","ios":"levelo://app?vid=840d7e43-7cc1-471f-a57a-9b8c6b113ae0"},"vehicle_type_id":"4","last_reported":1753420730,"current_range_meters":16800,"station_id":"ce4bh3h2rcd13ifvqdo0","pricing_plan_id":"cebpf4jnsgd1na2vs0mg"},{"bike_id":"3489a0c8-d867-4a75-ad0e-16d826a697da","system_id":"levelo_inurba_marseille","lat":43.29468,"lon":5.38573,"is_reserved":false,"is_disabled":false,"rental_uris":{"android":"levelo://app?vid=3489a0c8-d867-4a75-ad0e-16d826a697da","ios":"levelo://app?vid=3489a0c8-d867-4a75-ad0e-16d826a697da"},"vehicle_type_id":"4","last_reported":1753420730,"current_range_meters":17200,"station_id":"","pricing_plan_id":"cebpf4jnsgd1na2vs0mg"},{"bike_id":"510956f4-4053-4240-99f3-35d5b3186629","system_id":"levelo_inurba_marseille","lat":43.29516,"lon":5.394051,"is_reserved":false,"is_disabled":false,"rental_uris":{"android":"levelo://app?vid=510956f4-4053-4240-99f3-35d5b3186629","ios":"levelo://app?vid=510956f4-4053-4240-99f3-35d5b3186629"},"vehicle_type_id":"4","last_reported":1753420730,"current_range_meters":17200,"station_id":"ce4bh292rcd13ifvqdf0","pricing_plan_id":"cebpf4jnsgd1na2vs0mg"},{"bike_id":"8ba9968b-94e2-4ff4-915d-5054e965f84a","system_id":"levelo_inurba_marseille","lat":43.279963,"lon":5.416614,"is_reserved":false,"is_disabled":false,"rental_uris":{"android":"levelo://app?vid=8ba9968b-94e2-4ff4-915d-5054e965f84a","ios":"levelo://app?vid=8ba9968b-94e2-4ff4-915d-5054e965f84a"},"vehicle_type_id":"4","last_reported":1753420730,"current_range_meters":17200,"station_id":"ce4bho12rcd13ifvqh1g","pricing_plan_id":"cebpf4jnsgd1na2vs0mg"},{"bike_id":"cf5577ea-8085-442d-b092-8cf7a9d9102b","system_id":"levelo_inurba_marseille","lat":43.32372,"lon":5.367133,"is_reserved":false,"is_disabled":false,"rental_uris":{"android":"levelo://app?vid=cf5577ea-8085-442d-b092-8cf7a9d9102b","ios":"levelo://app?vid=cf5577ea-8085-442d-b092-8cf7a9d9102b"},"vehicle_type_id":"4","last_reported":1753420730,"current_range_meters":17200,"station_id":"","pricing_plan_id":"cebpf4jnsgd1na2vs0mg"},{"bike_id":"f2c1cc68-66ae-448d-8763-030629ea502f","system_id":"levelo_inurba_marseille","lat":43.26668,"lon":5.40301,"is_reserved":false,"is_disabled":true,"rental_uris":{"android":"levelo://app?vid=f2c1cc68-66ae-448d-8763-030629ea502f","ios":"levelo://app?vid=f2c1cc68-66ae-448d-8763-030629ea502f"},"vehicle_type_id":"4","last_reported":1753420730,"current_range_meters":17200,"station_id":"","pricing_plan_id":"cebpf4jnsgd1na2vs0mg"},{"bike_id":"f501e071-4716-432d-bf77-298092cf3c7e","system_id":"levelo_inurba_marseille","lat":43.30072,"lon":5.38709,"is_reserved":false,"is_disabled":false,"rental_uris":{"android":"levelo://app?vid=f501e071-4716-432d-bf77-298092cf3c7e","ios":"levelo://app?vid=f501e071-4716-432d-bf77-298092cf3c7e"},"vehicle_type_id":"4","last_reported":1753420730,"current_range_meters":17200,"station_id":"","pricing_plan_id":"cebpf4jnsgd1na2vs0mg"},{"bike_id":"c6b0b8dc-68ca-4833-b11c-d2ebae51b478","system_id":"levelo_inurba_marseille","lat":43.285599,"lon":5.394864,"is_reserved":false,"is_disabled":false,"rental_uris":{"android":"levelo://app?vid=c6b0b8dc-68ca-4833-b11c-d2ebae51b478","ios":"levelo://app?vid=c6b0b8dc-68ca-4833-b11c-d2ebae51b478"},"vehicle_type_id":"4","last_reported":1753420730,"current_range_meters":17200,"station_id":"ce4bh292rcd13ifvqdg0","pricing_plan_id":"cebpf4jnsgd1na2vs0mg"},{"bike_id":"8e0fc6ca-95fd-484d-81be-068c9b37e71d","system_id":"levelo_inurba_marseille","lat":43.292685,"lon":5.407861,"is_reserved":false,"is_disabled":false,"rental_uris":{"android":"levelo://app?vid=8e0fc6ca-95fd-484d-81be-068c9b37e71d","ios":"levelo://app?vid=8e0fc6ca-95fd-484d-81be-068c9b37e71d"},"vehicle_type_id":"4","last_reported":1753420730,"current_range_meters":17200,"station_id":"ce4bh192rcd13ifvqdc0","pricing_plan_id":"cebpf4jnsgd1na2vs0mg"},{"bike_id":"97601d55-2795-414a-8157-dc0e66cbeef1","system_id":"levelo_inurba_marseille","lat":43.301238,"lon":5.387855,"is_reserved":false,"is_disabled":false,"rental_uris":{"android":"levelo://app?vid=97601d55-2795-414a-8157-dc0e66cbeef1","ios":"levelo://app?vid=97601d55-2795-414a-8157-dc0e66cbeef1"},"vehicle_type_id":"4","last_reported":1753420730,"current_range_meters":17200,"station_id":"","pricing_plan_id":"cebpf4jnsgd1na2vs0mg"},{"bike_id":"fee0cfe9-b59a-449c-bc7c-ef27dde6dbf7","system_id":"levelo_inurba_marseille","lat":43.28674,"lon":5.36364,"is_reserved":false,"is_disabled":false,"rental_uris":{"android":"levelo://app?vid=fee0cfe9-b59a-449c-bc7c-ef27dde6dbf7","ios":"levelo://app?vid=fee0cfe9-b59a-449c-bc7c-ef27dde6dbf7"},"vehicle_type_id":"4","last_reported":1753420730,"current_range_meters":17200,"station_id":"ce4bhah2rcd13ifvqej0","pricing_plan_id":"cebpf4jnsgd1na2vs0mg"},{"bike_id":"266198a5-1fdd-4903-a22e-685ee660fe16","system_id":"levelo_inurba_marseille","lat":43.22495,"lon":5.34781,"is_reserved":false,"is_disabled":false,"rental_uris":{"android":"levelo://app?vid=266198a5-1fdd-4903-a22e-685ee660fe16","ios":"levelo://app?vid=266198a5-1fdd-4903-a22e-685ee660fe16"},"vehicle_type_id":"4","last_reported":1753420730,"current_range_meters":17600,"station_id":"st_cvj5dfep6f1abm77gieg","pricing_plan_id":"cebpf4jnsgd1na2vs0mg"},{"bike_id":"bdf8bcb9-51f6-4a65-8181-f600f5b30780","system_id":"levelo_inurba_marseille","lat":43.2747,"lon":5.39589,"is_reserved":false,"is_disabled":false,"rental_uris":{"android":"levelo://app?vid=bdf8bcb9-51f6-4a65-8181-f600f5b30780","ios":"levelo://app?vid=bdf8bcb9-51f6-4a65-8181-f600f5b30780"},"vehicle_type_id":"4","last_reported":1753420730,"current_range_meters":17600,"station_id":"","pricing_plan_id":"cebpf4jnsgd1na2vs0mg"},{"bike_id":"8d52dd68-d9f6-410d-91a8-aaae93ee1c85","system_id":"levelo_inurba_marseille","lat":43.29516,"lon":5.39403,"is_reserved":false,"is_disabled":true,"rental_uris":{"android":"levelo://app?vid=8d52dd68-d9f6-410d-91a8-aaae93ee1c85","ios":"levelo://app?vid=8d52dd68-d9f6-410d-91a8-aaae93ee1c85"},"vehicle_type_id":"4","last_reported":1753420730,"current_range_meters":17600,"station_id":"ce4bh292rcd13ifvqdf0","pricing_plan_id":"cebpf4jnsgd1na2vs0mg"},{"bike_id":"50b905ef-953a-4765-9f9b-7165906869d7","system_id":"levelo_inurba_marseille","lat":43.230541,"lon":5.354914,"is_reserved":false,"is_disabled":false,"rental_uris":{"android":"levelo://app?vid=50b905ef-953a-4765-9f9b-7165906869d7","ios":"levelo://app?vid=50b905ef-953a-4765-9f9b-7165906869d7"},"vehicle_type_id":"4","last_reported":1753420730,"current_range_meters":17600,"station_id":"cpo3342slgdg3j2ifvpg","pricing_plan_id":"cebpf4jnsgd1na2vs0mg"},{"bike_id":"cc9d64e8-fcbe-4a3d-9d87-6e0999603b75","system_id":"levelo_inurba_marseille","lat":43.30935,"lon":5.40162,"is_reserved":false,"is_disabled":false,"rental_uris":{"android":"levelo://app?vid=cc9d64e8-fcbe-4a3d-9d87-6e0999603b75","ios":"levelo://app?vid=cc9d64e8-fcbe-4a3d-9d87-6e0999603b75"},"vehicle_type_id":"4","last_reported":1753420730,"current_range_meters":17600,"station_id":"ce4bgvp2rcd13ifvqct0","pricing_plan_id":"cebpf4jnsgd1na2vs0mg"},{"bike_id":"635d529b-81db-4d95-967c-681543329cb0","system_id":"levelo_inurba_marseille","lat":43.2988,"lon":5.43678,"is_reserved":false,"is_disabled":false,"rental_uris":{"android":"levelo://app?vid=635d529b-81db-4d95-967c-681543329cb0","ios":"levelo://app?vid=635d529b-81db-4d95-967c-681543329cb0"},"vehicle_type_id":"4","last_reported":1753420730,"current_range_meters":17600,"station_id":"ce4bhpp2rcd13ifvqhfg","pricing_plan_id":"cebpf4jnsgd1na2vs0mg"},{"bike_id":"22ab5d6d-c453-4fc9-97d7-b4e9c249d18d","system_id":"levelo_inurba_marseille","lat":43.27567,"lon":5.38432,"is_reserved":false,"is_disabled":false,"rental_uris":{"android":"levelo://app?vid=22ab5d6d-c453-4fc9-97d7-b4e9c249d18d","ios":"levelo://app?vid=22ab5d6d-c453-4fc9-97d7-b4e9c249d18d"},"vehicle_type_id":"4","last_reported":1753420730,"current_range_meters":17600,"station_id":"ce4bhh92rcd13ifvqfi0","pricing_plan_id":"cebpf4jnsgd1na2vs0mg"},{"bike_id":"d3eea4a0-76ba-4059-ba6b-c1ecd6270925","system_id":"levelo_inurba_marseille","lat":43.211917,"lon":5.350726,"is_reserved":false,"is_disabled":false,"rental_uris":{"android":"levelo://app?vid=d3eea4a0-76ba-4059-ba6b-c1ecd6270925","ios":"levelo://app?vid=d3eea4a0-76ba-4059-ba6b-c1ecd6270925"},"vehicle_type_id":"4","last_reported":1753420730,"current_range_meters":18000,"station_id":"st_cvj6sg6p6f1abm77japg","pricing_plan_id":"cebpf4jnsgd1na2vs0mg"},{"bike_id":"25d1e659-75f0-413f-9dd4-93bad69c331b","system_id":"levelo_inurba_marseille","lat":43.29347,"lon":5.38201,"is_reserved":false,"is_disabled":false,"rental_uris":{"android":"levelo://app?vid=25d1e659-75f0-413f-9dd4-93bad69c331b","ios":"levelo://app?vid=25d1e659-75f0-413f-9dd4-93bad69c331b"},"vehicle_type_id":"4","last_reported":1753420730,"current_range_meters":18000,"station_id":"","pricing_plan_id":"cebpf4jnsgd1na2vs0mg"},{"bike_id":"8d92968d-91e7-4161-88c8-7b0504e2b8e2","system_id":"levelo_inurba_marseille","lat":43.31167,"lon":5.38703,"is_reserved":false,"is_disabled":false,"rental_uris":{"android":"levelo://app?vid=8d92968d-91e7-4161-88c8-7b0504e2b8e2","ios":"levelo://app?vid=8d92968d-91e7-4161-88c8-7b0504e2b8e2"},"vehicle_type_id":"4","last_reported":1753420730,"current_range_meters":18000,"station_id":"ce4bgv12rcd13ifvqcp0","pricing_plan_id":"cebpf4jnsgd1na2vs0mg"},{"bike_id":"d861442c-09c2-4130-9f6c-d36472e7baf5","system_id":"levelo_inurba_marseille","lat":43.21187,"lon":5.3509,"is_reserved":false,"is_disabled":true,"rental_uris":{"android":"levelo://app?vid=d861442c-09c2-4130-9f6c-d36472e7baf5","ios":"levelo://app?vid=d861442c-09c2-4130-9f6c-d36472e7baf5"},"vehicle_type_id":"4","last_reported":1753420730,"current_range_meters":18000,"station_id":"","pricing_plan_id":"cebpf4jnsgd1na2vs0mg"},{"bike_id":"a1ec26cb-9d4a-4dd4-ad23-fecbc49f2a3d","system_id":"levelo_inurba_marseille","lat":43.25467,"lon":5.37687,"is_reserved":false,"is_disabled":false,"rental_uris":{"android":"levelo://app?vid=a1ec26cb-9d4a-4dd4-ad23-fecbc49f2a3d","ios":"levelo://app?vid=a1ec26cb-9d4a-4dd4-ad23-fecbc49f2a3d"},"vehicle_type_id":"4","last_reported":1753420730,"current_range_meters":18000,"station_id":"","pricing_plan_id":"cebpf4jnsgd1na2vs0mg"},{"bike_id":"aa3a6420-eb4d-4632-8b68-f541c086db55","system_id":"levelo_inurba_marseille","lat":43.22508,"lon":5.34774,"is_reserved":false,"is_disabled":false,"rental_uris":{"android":"levelo://app?vid=aa3a6420-eb4d-4632-8b68-f541c086db55","ios":"levelo://app?vid=aa3a6420-eb4d-4632-8b68-f541c086db55"},"vehicle_type_id":"4","last_reported":1753420730,"current_range_meters":18000,"station_id":"","pricing_plan_id":"cebpf4jnsgd1na2vs0mg"},{"bike_id":"ec6a2d2a-f9b7-4796-b105-370ad5cb4241","system_id":"levelo_inurba_marseille","lat":43.24802,"lon":5.3747,"is_reserved":false,"is_disabled":false,"rental_uris":{"android":"levelo://app?vid=ec6a2d2a-f9b7-4796-b105-370ad5cb4241","ios":"levelo://app?vid=ec6a2d2a-f9b7-4796-b105-370ad5cb4241"},"vehicle_type_id":"4","last_reported":1753420730,"current_range_meters":18000,"station_id":"ce4bhgh2rcd13ifvqfb0","pricing_plan_id":"cebpf4jnsgd1na2vs0mg"},{"bike_id":"50656e5c-0088-4426-9ce9-d7b458e2d36e","system_id":"levelo_inurba_marseille","lat":43.30146,"lon":5.3808,"is_reserved":false,"is_disabled":false,"rental_uris":{"android":"levelo://app?vid=50656e5c-0088-4426-9ce9-d7b458e2d36e","ios":"levelo://app?vid=50656e5c-0088-4426-9ce9-d7b458e2d36e"},"vehicle_type_id":"4","last_reported":1753420730,"current_range_meters":18000,"station_id":"ce4bgjp2rcd13ifvqbh0","pricing_plan_id":"cebpf4jnsgd1na2vs0mg"},{"bike_id":"9bb03dc8-1285-4dc3-82e4-cbcb16687686","system_id":"levelo_inurba_marseille","lat":43.22932,"lon":5.35386,"is_reserved":false,"is_disabled":false,"rental_uris":{"android":"levelo://app?vid=9bb03dc8-1285-4dc3-82e4-cbcb16687686","ios":"levelo://app?vid=9bb03dc8-1285-4dc3-82e4-cbcb16687686"},"vehicle_type_id":"4","last_reported":1753420730,"current_range_meters":18000,"station_id":"cpo3532slgdg3j2ikp40","pricing_plan_id":"cebpf4jnsgd1na2vs0mg"},{"bike_id":"f9923509-d1f5-4a78-8677-ee3e9a0ad4e2","system_id":"levelo_inurba_marseille","lat":43.27996,"lon":5.3999,"is_reserved":false,"is_disabled":true,"rental_uris":{"android":"levelo://app?vid=f9923509-d1f5-4a78-8677-ee3e9a0ad4e2","ios":"levelo://app?vid=f9923509-d1f5-4a78-8677-ee3e9a0ad4e2"},"vehicle_type_id":"4","last_reported":1753420730,"current_range_meters":18000,"station_id":"ce4bho92rcd13ifvqh4g","pricing_plan_id":"cebpf4jnsgd1na2vs0mg"},{"bike_id":"d89a78d9-9567-45b4-b7dc-774d4fdee32b","system_id":"levelo_inurba_marseille","lat":43.295953,"lon":5.380926,"is_reserved":false,"is_disabled":true,"rental_uris":{"android":"levelo://app?vid=d89a78d9-9567-45b4-b7dc-774d4fdee32b","ios":"levelo://app?vid=d89a78d9-9567-45b4-b7dc-774d4fdee32b"},"vehicle_type_id":"4","last_reported":1753420730,"current_range_meters":18000,"station_id":"ce4bgl12rcd13ifvqbo0","pricing_plan_id":"cebpf4jnsgd1na2vs0mg"},{"bike_id":"7a728a3e-ae5a-416b-ab98-c609bdc15d67","system_id":"levelo_inurba_marseille","lat":43.262054,"lon":5.374491,"is_reserved":false,"is_disabled":false,"rental_uris":{"android":"levelo://app?vid=7a728a3e-ae5a-416b-ab98-c609bdc15d67","ios":"levelo://app?vid=7a728a3e-ae5a-416b-ab98-c609bdc15d67"},"vehicle_type_id":"4","last_reported":1753420730,"current_range_meters":18000,"station_id":"","pricing_plan_id":"cebpf4jnsgd1na2vs0mg"},{"bike_id":"83c80cb3-658b-40cc-83d3-d8398877868e","system_id":"levelo_inurba_marseille","lat":43.28856,"lon":5.39358,"is_reserved":false,"is_disabled":false,"rental_uris":{"android":"levelo://app?vid=83c80cb3-658b-40cc-83d3-d8398877868e","ios":"levelo://app?vid=83c80cb3-658b-40cc-83d3-d8398877868e"},"vehicle_type_id":"4","last_reported":1753420730,"current_range_meters":18800,"station_id":"ce4bh2p2rcd13ifvqdi0","pricing_plan_id":"cebpf4jnsgd1na2vs0mg"},{"bike_id":"6f9c5fc7-0a95-4593-b71f-0b9d9a8caaf5","system_id":"levelo_inurba_marseille","lat":43.225041,"lon":5.347776,"is_reserved":false,"is_disabled":false,"rental_uris":{"android":"levelo://app?vid=6f9c5fc7-0a95-4593-b71f-0b9d9a8caaf5","ios":"levelo://app?vid=6f9c5fc7-0a95-4593-b71f-0b9d9a8caaf5"},"vehicle_type_id":"4","last_reported":1753420730,"current_range_meters":18800,"station_id":"st_cvj5dfep6f1abm77gieg","pricing_plan_id":"cebpf4jnsgd1na2vs0mg"},{"bike_id":"db4065a9-8ae8-4da2-9ed6-25a24760a414","system_id":"levelo_inurba_marseille","lat":43.230518,"lon":5.354961,"is_reserved":false,"is_disabled":true,"rental_uris":{"android":"levelo://app?vid=db4065a9-8ae8-4da2-9ed6-25a24760a414","ios":"levelo://app?vid=db4065a9-8ae8-4da2-9ed6-25a24760a414"},"vehicle_type_id":"4","last_reported":1753420730,"current_range_meters":18800,"station_id":"cpo3342slgdg3j2ifvpg","pricing_plan_id":"cebpf4jnsgd1na2vs0mg"},{"bike_id":"c8e02a19-b856-420d-bf9d-a6e6b78bd182","system_id":"levelo_inurba_marseille","lat":43.265529,"lon":5.372939,"is_reserved":false,"is_disabled":false,"rental_uris":{"android":"levelo://app?vid=c8e02a19-b856-420d-bf9d-a6e6b78bd182","ios":"levelo://app?vid=c8e02a19-b856-420d-bf9d-a6e6b78bd182"},"vehicle_type_id":"4","last_reported":1753420730,"current_range_meters":18800,"station_id":"ce4bhg12rcd13ifvqf70","pricing_plan_id":"cebpf4jnsgd1na2vs0mg"},{"bike_id":"cf75fdd5-eea5-45ba-a75c-2d3f5e3ecf00","system_id":"levelo_inurba_marseille","lat":43.229452,"lon":5.353853,"is_reserved":false,"is_disabled":false,"rental_uris":{"android":"levelo://app?vid=cf75fdd5-eea5-45ba-a75c-2d3f5e3ecf00","ios":"levelo://app?vid=cf75fdd5-eea5-45ba-a75c-2d3f5e3ecf00"},"vehicle_type_id":"4","last_reported":1753420730,"current_range_meters":18800,"station_id":"cpo3532slgdg3j2ikp40","pricing_plan_id":"cebpf4jnsgd1na2vs0mg"},{"bike_id":"f654cd89-4e9f-47c0-a7e1-1fa38a6b8372","system_id":"levelo_inurba_marseille","lat":43.28407,"lon":5.37564,"is_reserved":false,"is_disabled":false,"rental_uris":{"android":"levelo://app?vid=f654cd89-4e9f-47c0-a7e1-1fa38a6b8372","ios":"levelo://app?vid=f654cd89-4e9f-47c0-a7e1-1fa38a6b8372"},"vehicle_type_id":"4","last_reported":1753420730,"current_range_meters":18800,"station_id":"ce4bh412rcd13ifvqds0","pricing_plan_id":"cebpf4jnsgd1na2vs0mg"},{"bike_id":"1dead8dc-fdb6-4c34-b5a6-09bf895e76a6","system_id":"levelo_inurba_marseille","lat":43.2295,"lon":5.35359,"is_reserved":false,"is_disabled":false,"rental_uris":{"android":"levelo://app?vid=1dead8dc-fdb6-4c34-b5a6-09bf895e76a6","ios":"levelo://app?vid=1dead8dc-fdb6-4c34-b5a6-09bf895e76a6"},"vehicle_type_id":"4","last_reported":1753420730,"current_range_meters":18800,"station_id":"cpo3532slgdg3j2ikp40","pricing_plan_id":"cebpf4jnsgd1na2vs0mg"},{"bike_id":"2aecf67b-c017-4db4-b989-b13e9c17872e","system_id":"levelo_inurba_marseille","lat":43.302947,"lon":5.39203,"is_reserved":false,"is_disabled":false,"rental_uris":{"android":"levelo://app?vid=2aecf67b-c017-4db4-b989-b13e9c17872e","ios":"levelo://app?vid=2aecf67b-c017-4db4-b989-b13e9c17872e"},"vehicle_type_id":"4","last_reported":1753420730,"current_range_meters":18800,"station_id":"ce4bgkh2rcd13ifvqbk0","pricing_plan_id":"cebpf4jnsgd1na2vs0mg"},{"bike_id":"0a7e2862-d8ec-4c77-89d9-cfcdd51f8d75","system_id":"levelo_inurba_marseille","lat":43.31872,"lon":5.37373,"is_reserved":false,"is_disabled":false,"rental_uris":{"android":"levelo://app?vid=0a7e2862-d8ec-4c77-89d9-cfcdd51f8d75","ios":"levelo://app?vid=0a7e2862-d8ec-4c77-89d9-cfcdd51f8d75"},"vehicle_type_id":"4","last_reported":1753420730,"current_range_meters":18800,"station_id":"","pricing_plan_id":"cebpf4jnsgd1na2vs0mg"},{"bike_id":"fe2ebdbb-1c2e-4f77-b307-5fbb71bee13a","system_id":"levelo_inurba_marseille","lat":43.29274,"lon":5.38467,"is_reserved":false,"is_disabled":true,"rental_uris":{"android":"levelo://app?vid=fe2ebdbb-1c2e-4f77-b307-5fbb71bee13a","ios":"levelo://app?vid=fe2ebdbb-1c2e-4f77-b307-5fbb71bee13a"},"vehicle_type_id":"4","last_reported":1753420730,"current_range_meters":18800,"station_id":"ce4bh692rcd13ifvqea0","pricing_plan_id":"cebpf4jnsgd1na2vs0mg"},{"bike_id":"37771c5e-d270-46f0-b39b-509fb9c3f73b","system_id":"levelo_inurba_marseille","lat":43.30254,"lon":5.40091,"is_reserved":false,"is_disabled":false,"rental_uris":{"android":"levelo://app?vid=37771c5e-d270-46f0-b39b-509fb9c3f73b","ios":"levelo://app?vid=37771c5e-d270-46f0-b39b-509fb9c3f73b"},"vehicle_type_id":"4","last_reported":1753420730,"current_range_meters":19200,"station_id":"ce4bgvh2rcd13ifvqcs0","pricing_plan_id":"cebpf4jnsgd1na2vs0mg"},{"bike_id":"425fe799-b8aa-4bc2-84d0-38078e4882ef","system_id":"levelo_inurba_marseille","lat":43.22504,"lon":5.34783,"is_reserved":false,"is_disabled":false,"rental_uris":{"android":"levelo://app?vid=425fe799-b8aa-4bc2-84d0-38078e4882ef","ios":"levelo://app?vid=425fe799-b8aa-4bc2-84d0-38078e4882ef"},"vehicle_type_id":"4","last_reported":1753420730,"current_range_meters":19200,"station_id":"st_cvj5dfep6f1abm77gieg","pricing_plan_id":"cebpf4jnsgd1na2vs0mg"},{"bike_id":"37196ec7-b4da-4ce9-afac-167cb2e1fca7","system_id":"levelo_inurba_marseille","lat":43.25093,"lon":5.39513,"is_reserved":false,"is_disabled":false,"rental_uris":{"android":"levelo://app?vid=37196ec7-b4da-4ce9-afac-167cb2e1fca7","ios":"levelo://app?vid=37196ec7-b4da-4ce9-afac-167cb2e1fca7"},"vehicle_type_id":"4","last_reported":1753420730,"current_range_meters":19200,"station_id":"ce4bhm12rcd13ifvqgkg","pricing_plan_id":"cebpf4jnsgd1na2vs0mg"},{"bike_id":"2eee3cc3-8307-4686-ab2d-5018248f4684","system_id":"levelo_inurba_marseille","lat":43.2919,"lon":5.40211,"is_reserved":false,"is_disabled":false,"rental_uris":{"android":"levelo://app?vid=2eee3cc3-8307-4686-ab2d-5018248f4684","ios":"levelo://app?vid=2eee3cc3-8307-4686-ab2d-5018248f4684"},"vehicle_type_id":"4","last_reported":1753420730,"current_range_meters":19200,"station_id":"ce4bh312rcd13ifvqdk0","pricing_plan_id":"cebpf4jnsgd1na2vs0mg"},{"bike_id":"505448ec-f3cf-4ac9-bded-69542a89e15a","system_id":"levelo_inurba_marseille","lat":43.29259,"lon":5.37638,"is_reserved":false,"is_disabled":false,"rental_uris":{"android":"levelo://app?vid=505448ec-f3cf-4ac9-bded-69542a89e15a","ios":"levelo://app?vid=505448ec-f3cf-4ac9-bded-69542a89e15a"},"vehicle_type_id":"4","last_reported":1753420730,"current_range_meters":19200,"station_id":"ce4bgi12rcd13ifvqb80","pricing_plan_id":"cebpf4jnsgd1na2vs0mg"},{"bike_id":"94c46517-afc9-4606-8fa8-11cf955404b9","system_id":"levelo_inurba_marseille","lat":43.28152,"lon":5.42648,"is_reserved":false,"is_disabled":false,"rental_uris":{"android":"levelo://app?vid=94c46517-afc9-4606-8fa8-11cf955404b9","ios":"levelo://app?vid=94c46517-afc9-4606-8fa8-11cf955404b9"},"vehicle_type_id":"4","last_reported":1753420730,"current_range_meters":19200,"station_id":"ce4bhnh2rcd13ifvqgug","pricing_plan_id":"cebpf4jnsgd1na2vs0mg"},{"bike_id":"735d91e2-1a8a-4092-86e3-eba88a00d71a","system_id":"levelo_inurba_marseille","lat":43.28411,"lon":5.34985,"is_reserved":false,"is_disabled":false,"rental_uris":{"android":"levelo://app?vid=735d91e2-1a8a-4092-86e3-eba88a00d71a","ios":"levelo://app?vid=735d91e2-1a8a-4092-86e3-eba88a00d71a"},"vehicle_type_id":"4","last_reported":1753420730,"current_range_meters":19200,"station_id":"ce4bhbh2rcd13ifvqepg","pricing_plan_id":"cebpf4jnsgd1na2vs0mg"},{"bike_id":"6be21520-db96-42c5-a4c2-7e7ab3d8589b","system_id":"levelo_inurba_marseille","lat":43.24647,"lon":5.3891,"is_reserved":false,"is_disabled":false,"rental_uris":{"android":"levelo://app?vid=6be21520-db96-42c5-a4c2-7e7ab3d8589b","ios":"levelo://app?vid=6be21520-db96-42c5-a4c2-7e7ab3d8589b"},"vehicle_type_id":"4","last_reported":1753420730,"current_range_meters":19200,"station_id":"ce4bhg12rcd13ifvqf60","pricing_plan_id":"cebpf4jnsgd1na2vs0mg"},{"bike_id":"918062da-54dd-4d69-939b-4a965f6fa7f2","system_id":"levelo_inurba_marseille","lat":43.292789,"lon":5.36837,"is_reserved":false,"is_disabled":false,"rental_uris":{"android":"levelo://app?vid=918062da-54dd-4d69-939b-4a965f6fa7f2","ios":"levelo://app?vid=918062da-54dd-4d69-939b-4a965f6fa7f2"},"vehicle_type_id":"4","last_reported":1753420730,"current_range_meters":19200,"station_id":"","pricing_plan_id":"cebpf4jnsgd1na2vs0mg"},{"bike_id":"fac612d1-16e2-45d9-ab10-11b7935fddc0","system_id":"levelo_inurba_marseille","lat":43.273745,"lon":5.362584,"is_reserved":false,"is_disabled":false,"rental_uris":{"android":"levelo://app?vid=fac612d1-16e2-45d9-ab10-11b7935fddc0","ios":"levelo://app?vid=fac612d1-16e2-45d9-ab10-11b7935fddc0"},"vehicle_type_id":"4","last_reported":1753420730,"current_range_meters":19200,"station_id":"ce4bhbh2rcd13ifvqeo0","pricing_plan_id":"cebpf4jnsgd1na2vs0mg"},{"bike_id":"2aac8bf3-b0ff-4c45-aa57-60e73f9a1f6c","system_id":"levelo_inurba_marseille","lat":43.26558,"lon":5.39038,"is_reserved":false,"is_disabled":false,"rental_uris":{"android":"levelo://app?vid=2aac8bf3-b0ff-4c45-aa57-60e73f9a1f6c","ios":"levelo://app?vid=2aac8bf3-b0ff-4c45-aa57-60e73f9a1f6c"},"vehicle_type_id":"4","last_reported":1753420730,"current_range_meters":19600,"station_id":"ce4bhe12rcd13ifvqf30","pricing_plan_id":"cebpf4jnsgd1na2vs0mg"},{"bike_id":"cbd29efb-dda7-4d15-b2c1-7a636d44d6f9","system_id":"levelo_inurba_marseille","lat":43.3015,"lon":5.38083,"is_reserved":false,"is_disabled":false,"rental_uris":{"android":"levelo://app?vid=cbd29efb-dda7-4d15-b2c1-7a636d44d6f9","ios":"levelo://app?vid=cbd29efb-dda7-4d15-b2c1-7a636d44d6f9"},"vehicle_type_id":"4","last_reported":1753420730,"current_range_meters":19600,"station_id":"ce4bgjp2rcd13ifvqbh0","pricing_plan_id":"cebpf4jnsgd1na2vs0mg"},{"bike_id":"a9d60925-9d72-451a-8a3c-955be9b668cf","system_id":"levelo_inurba_marseille","lat":43.31176,"lon":5.38719,"is_reserved":false,"is_disabled":false,"rental_uris":{"android":"levelo://app?vid=a9d60925-9d72-451a-8a3c-955be9b668cf","ios":"levelo://app?vid=a9d60925-9d72-451a-8a3c-955be9b668cf"},"vehicle_type_id":"4","last_reported":1753420730,"current_range_meters":19600,"station_id":"ce4bgv12rcd13ifvqcp0","pricing_plan_id":"cebpf4jnsgd1na2vs0mg"},{"bike_id":"17b0a37f-8891-4cf6-81db-0264114963ac","system_id":"levelo_inurba_marseille","lat":43.25121,"lon":5.40318,"is_reserved":false,"is_disabled":false,"rental_uris":{"android":"levelo://app?vid=17b0a37f-8891-4cf6-81db-0264114963ac","ios":"levelo://app?vid=17b0a37f-8891-4cf6-81db-0264114963ac"},"vehicle_type_id":"4","last_reported":1753420730,"current_range_meters":19600,"station_id":"ce4bhlh2rcd13ifvqgig","pricing_plan_id":"cebpf4jnsgd1na2vs0mg"},{"bike_id":"f5449828-dfeb-44a0-8352-abea387f03de","system_id":"levelo_inurba_marseille","lat":43.2815,"lon":5.42643,"is_reserved":false,"is_disabled":false,"rental_uris":{"android":"levelo://app?vid=f5449828-dfeb-44a0-8352-abea387f03de","ios":"levelo://app?vid=f5449828-dfeb-44a0-8352-abea387f03de"},"vehicle_type_id":"4","last_reported":1753420730,"current_range_meters":19600,"station_id":"ce4bhnh2rcd13ifvqgug","pricing_plan_id":"cebpf4jnsgd1na2vs0mg"},{"bike_id":"28ed8dac-9744-4ca8-953e-87a822e74089","system_id":"levelo_inurba_marseille","lat":43.30152,"lon":5.38082,"is_reserved":false,"is_disabled":false,"rental_uris":{"android":"levelo://app?vid=28ed8dac-9744-4ca8-953e-87a822e74089","ios":"levelo://app?vid=28ed8dac-9744-4ca8-953e-87a822e74089"},"vehicle_type_id":"4","last_reported":1753420730,"current_range_meters":19600,"station_id":"ce4bgjp2rcd13ifvqbh0","pricing_plan_id":"cebpf4jnsgd1na2vs0mg"},{"bike_id":"e16dbe7d-f2c0-4679-9e71-9129db800a8d","system_id":"levelo_inurba_marseille","lat":43.25018,"lon":5.40498,"is_reserved":false,"is_disabled":false,"rental_uris":{"android":"levelo://app?vid=e16dbe7d-f2c0-4679-9e71-9129db800a8d","ios":"levelo://app?vid=e16dbe7d-f2c0-4679-9e71-9129db800a8d"},"vehicle_type_id":"4","last_reported":1753420730,"current_range_meters":19600,"station_id":"","pricing_plan_id":"cebpf4jnsgd1na2vs0mg"},{"bike_id":"2b0233f5-c5d1-4c76-a880-0f99683c9955","system_id":"levelo_inurba_marseille","lat":43.28709,"lon":5.4,"is_reserved":false,"is_disabled":false,"rental_uris":{"android":"levelo://app?vid=2b0233f5-c5d1-4c76-a880-0f99683c9955","ios":"levelo://app?vid=2b0233f5-c5d1-4c76-a880-0f99683c9955"},"vehicle_type_id":"4","last_reported":1753420730,"current_range_meters":19600,"station_id":"ce4bho92rcd13ifvqh3g","pricing_plan_id":"cebpf4jnsgd1na2vs0mg"},{"bike_id":"82f1c0b8-bb78-41f7-9523-69119cd9a558","system_id":"levelo_inurba_marseille","lat":43.241628,"lon":5.364055,"is_reserved":false,"is_disabled":false,"rental_uris":{"android":"levelo://app?vid=82f1c0b8-bb78-41f7-9523-69119cd9a558","ios":"levelo://app?vid=82f1c0b8-bb78-41f7-9523-69119cd9a558"},"vehicle_type_id":"4","last_reported":1753420730,"current_range_meters":19600,"station_id":"cpo36qri1sfpv3e86is0","pricing_plan_id":"cebpf4jnsgd1na2vs0mg"},{"bike_id":"a1e9e67f-55d1-49e5-a2c3-e87f3c41fb76","system_id":"levelo_inurba_marseille","lat":43.230586,"lon":5.354972,"is_reserved":false,"is_disabled":true,"rental_uris":{"android":"levelo://app?vid=a1e9e67f-55d1-49e5-a2c3-e87f3c41fb76","ios":"levelo://app?vid=a1e9e67f-55d1-49e5-a2c3-e87f3c41fb76"},"vehicle_type_id":"4","last_reported":1753420730,"current_range_meters":20000,"station_id":"cpo3342slgdg3j2ifvpg","pricing_plan_id":"cebpf4jnsgd1na2vs0mg"},{"bike_id":"e960d729-c1cc-459a-ae99-59e3377514e5","system_id":"levelo_inurba_marseille","lat":43.23965,"lon":5.36678,"is_reserved":false,"is_disabled":false,"rental_uris":{"android":"levelo://app?vid=e960d729-c1cc-459a-ae99-59e3377514e5","ios":"levelo://app?vid=e960d729-c1cc-459a-ae99-59e3377514e5"},"vehicle_type_id":"4","last_reported":1753420730,"current_range_meters":20000,"station_id":"ce4bhi12rcd13ifvqfp0","pricing_plan_id":"cebpf4jnsgd1na2vs0mg"},{"bike_id":"2e706801-9a6f-42fb-817b-8f5068600b79","system_id":"levelo_inurba_marseille","lat":43.28361,"lon":5.38612,"is_reserved":false,"is_disabled":false,"rental_uris":{"android":"levelo://app?vid=2e706801-9a6f-42fb-817b-8f5068600b79","ios":"levelo://app?vid=2e706801-9a6f-42fb-817b-8f5068600b79"},"vehicle_type_id":"4","last_reported":1753420730,"current_range_meters":20000,"station_id":"ce4bh492rcd13ifvqdvg","pricing_plan_id":"cebpf4jnsgd1na2vs0mg"},{"bike_id":"f3e25e0e-1031-4e25-9ae8-6c34d526f58f","system_id":"levelo_inurba_marseille","lat":43.28571,"lon":5.39521,"is_reserved":false,"is_disabled":false,"rental_uris":{"android":"levelo://app?vid=f3e25e0e-1031-4e25-9ae8-6c34d526f58f","ios":"levelo://app?vid=f3e25e0e-1031-4e25-9ae8-6c34d526f58f"},"vehicle_type_id":"4","last_reported":1753420730,"current_range_meters":20000,"station_id":"ce4bh292rcd13ifvqdg0","pricing_plan_id":"cebpf4jnsgd1na2vs0mg"},{"bike_id":"a5575d0c-0ec6-4c56-b763-d140435200b0","system_id":"levelo_inurba_marseille","lat":43.3014,"lon":5.38098,"is_reserved":false,"is_disabled":false,"rental_uris":{"android":"levelo://app?vid=a5575d0c-0ec6-4c56-b763-d140435200b0","ios":"levelo://app?vid=a5575d0c-0ec6-4c56-b763-d140435200b0"},"vehicle_type_id":"4","last_reported":1753420730,"current_range_meters":20000,"station_id":"ce4bgjp2rcd13ifvqbh0","pricing_plan_id":"cebpf4jnsgd1na2vs0mg"},{"bike_id":"fb278dd7-23b8-467b-96ee-58e606563c70","system_id":"levelo_inurba_marseille","lat":43.2989,"lon":5.38093,"is_reserved":false,"is_disabled":false,"rental_uris":{"android":"levelo://app?vid=fb278dd7-23b8-467b-96ee-58e606563c70","ios":"levelo://app?vid=fb278dd7-23b8-467b-96ee-58e606563c70"},"vehicle_type_id":"4","last_reported":1753420730,"current_range_meters":20000,"station_id":"","pricing_plan_id":"cebpf4jnsgd1na2vs0mg"},{"bike_id":"6b084b3f-c058-4c85-b5d3-c45727a0a64a","system_id":"levelo_inurba_marseille","lat":43.312227,"lon":5.373214,"is_reserved":false,"is_disabled":false,"rental_uris":{"android":"levelo://app?vid=6b084b3f-c058-4c85-b5d3-c45727a0a64a","ios":"levelo://app?vid=6b084b3f-c058-4c85-b5d3-c45727a0a64a"},"vehicle_type_id":"4","last_reported":1753420730,"current_range_meters":20000,"station_id":"","pricing_plan_id":"cebpf4jnsgd1na2vs0mg"},{"bike_id":"cf63f84e-ed54-4f98-85a8-d0f552e687fc","system_id":"levelo_inurba_marseille","lat":43.31893,"lon":5.40732,"is_reserved":false,"is_disabled":false,"rental_uris":{"android":"levelo://app?vid=cf63f84e-ed54-4f98-85a8-d0f552e687fc","ios":"levelo://app?vid=cf63f84e-ed54-4f98-85a8-d0f552e687fc"},"vehicle_type_id":"4","last_reported":1753420730,"current_range_meters":20000,"station_id":"ce4bhq12rcd13ifvqhig","pricing_plan_id":"cebpf4jnsgd1na2vs0mg"},{"bike_id":"4f5a5a58-fa0b-4a12-98e2-b0f724f897b4","system_id":"levelo_inurba_marseille","lat":43.310762,"lon":5.383547,"is_reserved":false,"is_disabled":false,"rental_uris":{"android":"levelo://app?vid=4f5a5a58-fa0b-4a12-98e2-b0f724f897b4","ios":"levelo://app?vid=4f5a5a58-fa0b-4a12-98e2-b0f724f897b4"},"vehicle_type_id":"4","last_reported":1753420730,"current_range_meters":20000,"station_id":"ce4bgv92rcd13ifvqcr0","pricing_plan_id":"cebpf4jnsgd1na2vs0mg"},{"bike_id":"9b6ae496-9dfb-4ba0-b2c3-85586141a4c0","system_id":"levelo_inurba_marseille","lat":43.28447,"lon":5.3919,"is_reserved":false,"is_disabled":false,"rental_uris":{"android":"levelo://app?vid=9b6ae496-9dfb-4ba0-b2c3-85586141a4c0","ios":"levelo://app?vid=9b6ae496-9dfb-4ba0-b2c3-85586141a4c0"},"vehicle_type_id":"4","last_reported":1753420730,"current_range_meters":20000,"station_id":"ce4bhoh2rcd13ifvqh5g","pricing_plan_id":"cebpf4jnsgd1na2vs0mg"},{"bike_id":"b47304c9-c56d-4109-bec6-c90cd9fbfa52","system_id":"levelo_inurba_marseille","lat":43.25144,"lon":5.40334,"is_reserved":false,"is_disabled":false,"rental_uris":{"android":"levelo://app?vid=b47304c9-c56d-4109-bec6-c90cd9fbfa52","ios":"levelo://app?vid=b47304c9-c56d-4109-bec6-c90cd9fbfa52"},"vehicle_type_id":"4","last_reported":1753420730,"current_range_meters":20400,"station_id":"ce4bhlh2rcd13ifvqgig","pricing_plan_id":"cebpf4jnsgd1na2vs0mg"},{"bike_id":"bd120089-590e-496c-9c90-6d1a02982638","system_id":"levelo_inurba_marseille","lat":43.292328,"lon":5.36098,"is_reserved":false,"is_disabled":true,"rental_uris":{"android":"levelo://app?vid=bd120089-590e-496c-9c90-6d1a02982638","ios":"levelo://app?vid=bd120089-590e-496c-9c90-6d1a02982638"},"vehicle_type_id":"4","last_reported":1753420730,"current_range_meters":20400,"station_id":"ce4bhbh2rcd13ifvqeqg","pricing_plan_id":"cebpf4jnsgd1na2vs0mg"},{"bike_id":"58ef3f2d-f035-4c40-8069-4ce074b39d0c","system_id":"levelo_inurba_marseille","lat":43.30807,"lon":5.38172,"is_reserved":false,"is_disabled":false,"rental_uris":{"android":"levelo://app?vid=58ef3f2d-f035-4c40-8069-4ce074b39d0c","ios":"levelo://app?vid=58ef3f2d-f035-4c40-8069-4ce074b39d0c"},"vehicle_type_id":"4","last_reported":1753420730,"current_range_meters":20400,"station_id":"ce4bgt12rcd13ifvqce0","pricing_plan_id":"cebpf4jnsgd1na2vs0mg"},{"bike_id":"3c6ec051-0a31-4f91-8968-0915a102c9b9","system_id":"levelo_inurba_marseille","lat":43.30612,"lon":5.37227,"is_reserved":false,"is_disabled":false,"rental_uris":{"android":"levelo://app?vid=3c6ec051-0a31-4f91-8968-0915a102c9b9","ios":"levelo://app?vid=3c6ec051-0a31-4f91-8968-0915a102c9b9"},"vehicle_type_id":"4","last_reported":1753420730,"current_range_meters":20400,"station_id":"ce4bgqh2rcd13ifvqc4g","pricing_plan_id":"cebpf4jnsgd1na2vs0mg"},{"bike_id":"2b56932b-bf7f-49d4-8b73-a3c5512b95aa","system_id":"levelo_inurba_marseille","lat":43.229146,"lon":5.353945,"is_reserved":false,"is_disabled":false,"rental_uris":{"android":"levelo://app?vid=2b56932b-bf7f-49d4-8b73-a3c5512b95aa","ios":"levelo://app?vid=2b56932b-bf7f-49d4-8b73-a3c5512b95aa"},"vehicle_type_id":"4","last_reported":1753420730,"current_range_meters":20400,"station_id":"cpo3532slgdg3j2ikp40","pricing_plan_id":"cebpf4jnsgd1na2vs0mg"},{"bike_id":"4028245f-9220-4b16-804b-da1a1c90e972","system_id":"levelo_inurba_marseille","lat":43.25094,"lon":5.40401,"is_reserved":false,"is_disabled":false,"rental_uris":{"android":"levelo://app?vid=4028245f-9220-4b16-804b-da1a1c90e972","ios":"levelo://app?vid=4028245f-9220-4b16-804b-da1a1c90e972"},"vehicle_type_id":"4","last_reported":1753420730,"current_range_meters":20400,"station_id":"","pricing_plan_id":"cebpf4jnsgd1na2vs0mg"},{"bike_id":"a5f25ccf-59b9-456c-a4e7-39ee65d91d0f","system_id":"levelo_inurba_marseille","lat":43.33502,"lon":5.3917,"is_reserved":false,"is_disabled":false,"rental_uris":{"android":"levelo://app?vid=a5f25ccf-59b9-456c-a4e7-39ee65d91d0f","ios":"levelo://app?vid=a5f25ccf-59b9-456c-a4e7-39ee65d91d0f"},"vehicle_type_id":"4","last_reported":1753420730,"current_range_meters":20400,"station_id":"","pricing_plan_id":"cebpf4jnsgd1na2vs0mg"},{"bike_id":"b9173e4e-beee-46cd-910b-de41bd18d9d9","system_id":"levelo_inurba_marseille","lat":43.28058,"lon":5.3646,"is_reserved":false,"is_disabled":false,"rental_uris":{"android":"levelo://app?vid=b9173e4e-beee-46cd-910b-de41bd18d9d9","ios":"levelo://app?vid=b9173e4e-beee-46cd-910b-de41bd18d9d9"},"vehicle_type_id":"4","last_reported":1753420730,"current_range_meters":20400,"station_id":"","pricing_plan_id":"cebpf4jnsgd1na2vs0mg"},{"bike_id":"79fc11ae-347d-4fdb-b345-d9791ff4510d","system_id":"levelo_inurba_marseille","lat":43.26074,"lon":5.39403,"is_reserved":false,"is_disabled":true,"rental_uris":{"android":"levelo://app?vid=79fc11ae-347d-4fdb-b345-d9791ff4510d","ios":"levelo://app?vid=79fc11ae-347d-4fdb-b345-d9791ff4510d"},"vehicle_type_id":"4","last_reported":1753420730,"current_range_meters":20400,"station_id":"ce4bhh92rcd13ifvqfj0","pricing_plan_id":"cebpf4jnsgd1na2vs0mg"},{"bike_id":"cae6cc05-c2fd-4471-8f2a-e2bd812f99a1","system_id":"levelo_inurba_marseille","lat":43.31113,"lon":5.37805,"is_reserved":false,"is_disabled":false,"rental_uris":{"android":"levelo://app?vid=cae6cc05-c2fd-4471-8f2a-e2bd812f99a1","ios":"levelo://app?vid=cae6cc05-c2fd-4471-8f2a-e2bd812f99a1"},"vehicle_type_id":"4","last_reported":1753420730,"current_range_meters":20400,"station_id":"ce4bgt92rcd13ifvqcg0","pricing_plan_id":"cebpf4jnsgd1na2vs0mg"},{"bike_id":"050440bb-3168-4cb0-ae6c-d6ceb17e5b87","system_id":"levelo_inurba_marseille","lat":43.30153,"lon":5.38095,"is_reserved":false,"is_disabled":false,"rental_uris":{"android":"levelo://app?vid=050440bb-3168-4cb0-ae6c-d6ceb17e5b87","ios":"levelo://app?vid=050440bb-3168-4cb0-ae6c-d6ceb17e5b87"},"vehicle_type_id":"4","last_reported":1753420730,"current_range_meters":20400,"station_id":"ce4bgjp2rcd13ifvqbh0","pricing_plan_id":"cebpf4jnsgd1na2vs0mg"},{"bike_id":"ee8cede0-ab54-4b81-a674-42c901b78294","system_id":"levelo_inurba_marseille","lat":43.27946,"lon":5.41046,"is_reserved":false,"is_disabled":false,"rental_uris":{"android":"levelo://app?vid=ee8cede0-ab54-4b81-a674-42c901b78294","ios":"levelo://app?vid=ee8cede0-ab54-4b81-a674-42c901b78294"},"vehicle_type_id":"4","last_reported":1753420730,"current_range_meters":20400,"station_id":"ce4bhnp2rcd13ifvqh0g","pricing_plan_id":"cebpf4jnsgd1na2vs0mg"},{"bike_id":"a4758bd9-0b6b-4888-9305-b4a56ad8a559","system_id":"levelo_inurba_marseille","lat":43.303756,"lon":5.42489,"is_reserved":false,"is_disabled":false,"rental_uris":{"android":"levelo://app?vid=a4758bd9-0b6b-4888-9305-b4a56ad8a559","ios":"levelo://app?vid=a4758bd9-0b6b-4888-9305-b4a56ad8a559"},"vehicle_type_id":"4","last_reported":1753420730,"current_range_meters":20400,"station_id":"ce4bhoh2rcd13ifvqh6g","pricing_plan_id":"cebpf4jnsgd1na2vs0mg"},{"bike_id":"4592eae6-95c8-4d97-84ea-1f8ea2b9a789","system_id":"levelo_inurba_marseille","lat":43.30809,"lon":5.38172,"is_reserved":false,"is_disabled":false,"rental_uris":{"android":"levelo://app?vid=4592eae6-95c8-4d97-84ea-1f8ea2b9a789","ios":"levelo://app?vid=4592eae6-95c8-4d97-84ea-1f8ea2b9a789"},"vehicle_type_id":"4","last_reported":1753420730,"current_range_meters":20800,"station_id":"ce4bgt12rcd13ifvqce0","pricing_plan_id":"cebpf4jnsgd1na2vs0mg"},{"bike_id":"946e38c1-2fd7-4bcc-9c86-1eb176d0a73c","system_id":"levelo_inurba_marseille","lat":43.248072,"lon":5.374565,"is_reserved":false,"is_disabled":false,"rental_uris":{"android":"levelo://app?vid=946e38c1-2fd7-4bcc-9c86-1eb176d0a73c","ios":"levelo://app?vid=946e38c1-2fd7-4bcc-9c86-1eb176d0a73c"},"vehicle_type_id":"4","last_reported":1753420730,"current_range_meters":20800,"station_id":"ce4bhgh2rcd13ifvqfb0","pricing_plan_id":"cebpf4jnsgd1na2vs0mg"},{"bike_id":"0e39aa17-6d3e-46fd-85fe-e8bafbf04244","system_id":"levelo_inurba_marseille","lat":43.21194,"lon":5.35079,"is_reserved":false,"is_disabled":false,"rental_uris":{"android":"levelo://app?vid=0e39aa17-6d3e-46fd-85fe-e8bafbf04244","ios":"levelo://app?vid=0e39aa17-6d3e-46fd-85fe-e8bafbf04244"},"vehicle_type_id":"4","last_reported":1753420730,"current_range_meters":20800,"station_id":"st_cvj6sg6p6f1abm77japg","pricing_plan_id":"cebpf4jnsgd1na2vs0mg"},{"bike_id":"69a78400-a47a-4b16-9b5f-ec82fc40f629","system_id":"levelo_inurba_marseille","lat":43.31001,"lon":5.37963,"is_reserved":false,"is_disabled":false,"rental_uris":{"android":"levelo://app?vid=69a78400-a47a-4b16-9b5f-ec82fc40f629","ios":"levelo://app?vid=69a78400-a47a-4b16-9b5f-ec82fc40f629"},"vehicle_type_id":"4","last_reported":1753420730,"current_range_meters":20800,"station_id":"","pricing_plan_id":"cebpf4jnsgd1na2vs0mg"},{"bike_id":"278f387b-351f-4d37-9644-cbe879c5a869","system_id":"levelo_inurba_marseille","lat":43.3249,"lon":5.36563,"is_reserved":false,"is_disabled":true,"rental_uris":{"android":"levelo://app?vid=278f387b-351f-4d37-9644-cbe879c5a869","ios":"levelo://app?vid=278f387b-351f-4d37-9644-cbe879c5a869"},"vehicle_type_id":"4","last_reported":1753420730,"current_range_meters":20800,"station_id":"ce4bhs12rcd13ifvqhvg","pricing_plan_id":"cebpf4jnsgd1na2vs0mg"},{"bike_id":"578bc0c4-3aad-4e3c-b963-4b631ad441ad","system_id":"levelo_inurba_marseille","lat":43.323486,"lon":5.406208,"is_reserved":false,"is_disabled":false,"rental_uris":{"android":"levelo://app?vid=578bc0c4-3aad-4e3c-b963-4b631ad441ad","ios":"levelo://app?vid=578bc0c4-3aad-4e3c-b963-4b631ad441ad"},"vehicle_type_id":"4","last_reported":1753420730,"current_range_meters":20800,"station_id":"","pricing_plan_id":"cebpf4jnsgd1na2vs0mg"},{"bike_id":"d224e660-ee59-4eb2-ac4f-58e9e006b117","system_id":"levelo_inurba_marseille","lat":43.265562,"lon":5.372792,"is_reserved":false,"is_disabled":false,"rental_uris":{"android":"levelo://app?vid=d224e660-ee59-4eb2-ac4f-58e9e006b117","ios":"levelo://app?vid=d224e660-ee59-4eb2-ac4f-58e9e006b117"},"vehicle_type_id":"4","last_reported":1753420730,"current_range_meters":20800,"station_id":"ce4bhg12rcd13ifvqf70","pricing_plan_id":"cebpf4jnsgd1na2vs0mg"},{"bike_id":"f546b53c-1713-42a5-9c10-cb9255cefd12","system_id":"levelo_inurba_marseille","lat":43.27955,"lon":5.38743,"is_reserved":false,"is_disabled":false,"rental_uris":{"android":"levelo://app?vid=f546b53c-1713-42a5-9c10-cb9255cefd12","ios":"levelo://app?vid=f546b53c-1713-42a5-9c10-cb9255cefd12"},"vehicle_type_id":"4","last_reported":1753420730,"current_range_meters":20800,"station_id":"ce4bhg12rcd13ifvqf80","pricing_plan_id":"cebpf4jnsgd1na2vs0mg"},{"bike_id":"c842c871-a535-4b6c-bfbf-b04087327c30","system_id":"levelo_inurba_marseille","lat":43.2624,"lon":5.40462,"is_reserved":false,"is_disabled":false,"rental_uris":{"android":"levelo://app?vid=c842c871-a535-4b6c-bfbf-b04087327c30","ios":"levelo://app?vid=c842c871-a535-4b6c-bfbf-b04087327c30"},"vehicle_type_id":"4","last_reported":1753420730,"current_range_meters":20800,"station_id":"ce4bhmh2rcd13ifvqgmg","pricing_plan_id":"cebpf4jnsgd1na2vs0mg"},