{"last_updated":1750021738,"ttl":60,"version":"2.2","data":{"bikes":[{"bike_id":"b31f0139-170f-4194-984f-4386218a1e9d","system_id":"levelo_inurba_marseille","lat":43.33771,"lon":5.37424,"is_reserved":false,"is_disabled":true,"rental_uris":{"android":"levelo://app?vid=b31f0139-170f-4194-984f-4386218a1e9d","ios":"levelo://app?vid=b31f0139-170f-4194-984f-4386218a1e9d"},"vehicle_type_id":"4","last_reported":1750021738,"current_range_meters":0,"station_id":"","pricing_plan_id":"cebpf4jnsgd1na2vs0mg"},{"bike_id":"1acfb620-cad7-48c0-8901-d7a5b74a5b65","system_id":"levelo_inurba_marseille","lat":43.33751,"lon":5.37456,"is_reserved":false,"is_disabled":true,"rental_uris":{"android":"levelo://app?vid=1acfb620-cad7-48c0-8901-d7a5b74a5b65","ios":"levelo://app?vid=1acfb620-cad7-48c0-8901-d7a5b74a5b65"},"vehicle_type_id":"4","last_reported":1750021738,"current_range_meters":0,"station_id":"","pricing_plan_id":"cebpf4jnsgd1na2vs0mg"},{"bike_id":"bf89d78c-eb96-40d5-beb0-f402ef102cc1","system_id":"levelo_inurba_marseille","lat":43.337444,"lon":5.374475,"is_reserved":false,"is_disabled":true,"rental_uris":{"android":"levelo://app?vid=bf89d78c-eb96-40d5-beb0-f402ef102cc1","ios":"levelo://app?vid=bf89d78c-eb96-40d5-beb0-f402ef102cc1"},"vehicle_type_id":"4","last_reported":1750021738,"current_range_meters":0,"station_id":"","pricing_plan_id":"cebpf4jnsgd1na2vs0mg"},{"bike_id":"3d6ef34c-1ec6-4ed3-88e4-07359f729c42","system_id":"levelo_inurba_marseille","lat":43.27582,"lon":5.43327,"is_reserved":false,"is_disabled":true,"rental_uris":{"android":"levelo://app?vid=3d6ef34c-1ec6-4ed3-88e4-07359f729c42","ios":"levelo://app?vid=3d6ef34c-1ec6-4ed3-88e4-07359f729c42"},"vehicle_type_id":"4","last_reported":1750021738,"current_range_meters":0,"station_id":"","pricing_plan_id":"cebpf4jnsgd1na2vs0mg"},{"bike_id":"5077581b-cebb-46fc-ba69-4fa8272d4810","system_id":"levelo_inurba_marseille","lat":43.213669,"lon":5.355108,"is_reserved":false,"is_disabled":true,"rental_uris":{"android":"levelo://app?vid=5077581b-cebb-46fc-ba69-4fa8272d4810","ios":"levelo://app?vid=5077581b-cebb-46fc-ba69-4fa8272d4810"},"vehicle_type_id":"4","last_reported":1750021738,"current_range_meters":0,"station_id":"","pricing_plan_id":"cebpf4jnsgd1na2vs0mg"},{"bike_id":"97421c04-2630-4fc1-9da9-b17d88602c5f","system_id":"levelo_inurba_marseille","lat":43.337682,"lon":5.374519,"is_reserved":false,"is_disabled":true,"rental_uris":{"android":"levelo://app?vid=97421c04-2630-4fc1-9da9-b17d88602c5f","ios":"levelo://app?vid=97421c04-2630-4fc1-9da9-b17d88602c5f"},"vehicle_type_id":"4","last_reported":1750021738,"current_range_meters":0,"station_id":"","pricing_plan_id":"cebpf4jnsgd1na2vs0mg"},{"bike_id":"ebf89cec-3e1a-4275-9cd0-a3d19d69b5cf","system_id":"levelo_inurba_marseille","lat":43.27975,"lon":5.38459,"is_reserved":false,"is_disabled":true,"rental_uris":{"android":"levelo://app?vid=ebf89cec-3e1a-4275-9cd0-a3d19d69b5cf","ios":"levelo://app?vid=ebf89cec-3e1a-4275-9cd0-a3d19d69b5cf"},"vehicle_type_id":"4","last_reported":1750021738,"current_range_meters":0,"station_id":"","pricing_plan_id":"cebpf4jnsgd1na2vs0mg"},{"bike_id":"8d60347d-541c-40fb-90ca-203bf6bd520a","system_id":"levelo_inurba_marseille","lat":43.271248,"lon":5.363941,"is_reserved":false,"is_disabled":true,"rental_uris":{"android":"levelo://app?vid=8d60347d-541c-40fb-90ca-203bf6bd520a","ios":"levelo://app?vid=8d60347d-541c-40fb-90ca-203bf6bd520a"},"vehicle_type_id":"4","last_reported":1750021738,"current_range_meters":0,"station_id":"","pricing_plan_id":"cebpf4jnsgd1na2vs0mg"},{"bike_id":"98afa141-26c5-45c8-a0a6-15fd54ac73ab","system_id":"levelo_inurba_marseille","lat":43.21531,"lon":5.34736,"is_reserved":false,"is_disabled":true,"rental_uris":{"android":"levelo://app?vid=98afa141-26c5-45c8-a0a6-15fd54ac73ab","ios":"levelo://app?vid=98afa141-26c5-45c8-a0a6-15fd54ac73ab"},"vehicle_type_id":"4","last_reported":1750021738,"current_range_meters":0,"station_id":"","pricing_plan_id":"cebpf4jnsgd1na2vs0mg"},{"bike_id":"492f4bbd-1190-4ef2-b66a-479ffe91b09b","system_id":"levelo_inurba_marseille","lat":43.337444,"lon":5.374475,"is_reserved":false,"is_disabled":true,"rental_uris":{"android":"levelo://app?vid=492f4bbd-1190-4ef2-b66a-479ffe91b09b","ios":"levelo://app?vid=492f4bbd-1190-4ef2-b66a-479ffe91b09b"},"vehicle_type_id":"4","last_reported":1750021738,"current_range_meters":0,"station_id":"","pricing_plan_id":"cebpf4jnsgd1na2vs0mg"},{"bike_id":"e4954c3b-acbe-4e12-9483-fc4e0a30d6d4","system_id":"levelo_inurba_marseille","lat":43.302856,"lon":5.399783,"is_reserved":false,"is_disabled":true,"rental_uris":{"android":"levelo://app?vid=e4954c3b-acbe-4e12-9483-fc4e0a30d6d4","ios":"levelo://app?vid=e4954c3b-acbe-4e12-9483-fc4e0a30d6d4"},"vehicle_type_id":"4","last_reported":1750021738,"current_range_meters":0,"station_id":"","pricing_plan_id":"cebpf4jnsgd1na2vs0mg"},{"bike_id":"a9b6bf99-4070-4437-bb20-72962ae30b90","system_id":"levelo_inurba_marseille","lat":43.27458,"lon":5.36383,"is_reserved":false,"is_disabled":true,"rental_uris":{"android":"levelo://app?vid=a9b6bf99-4070-4437-bb20-72962ae30b90","ios":"levelo://app?vid=a9b6bf99-4070-4437-bb20-72962ae30b90"},"vehicle_type_id":"4","last_reported":1750021738,"current_range_meters":0,"station_id":"","pricing_plan_id":"cebpf4jnsgd1na2vs0mg"},{"bike_id":"1a053efc-6835-4fe3-8b2d-e42486c2efbb","system_id":"levelo_inurba_marseille","lat":43.23179,"lon":5.43693,"is_reserved":false,"is_disabled":true,"rental_uris":{"android":"levelo://app?vid=1a053efc-6835-4fe3-8b2d-e42486c2efbb","ios":"levelo://app?vid=1a053efc-6835-4fe3-8b2d-e42486c2efbb"},"vehicle_type_id":"4","last_reported":1750021738,"current_range_meters":0,"station_id":"ce4bhmp2rcd13ifvqgog","pricing_plan_id":"cebpf4jnsgd1na2vs0mg"},{"bike_id":"be5ab7c9-a8ec-4665-9186-3716b38595cd","system_id":"levelo_inurba_marseille","lat":43.24069,"lon":5.37766,"is_reserved":false,"is_disabled":true,"rental_uris":{"android":"levelo://app?vid=be5ab7c9-a8ec-4665-9186-3716b38595cd","ios":"levelo://app?vid=be5ab7c9-a8ec-4665-9186-3716b38595cd"},"vehicle_type_id":"4","last_reported":1750021738,"current_range_meters":0,"station_id":"ce4bhnp2rcd13ifvqgvg","pricing_plan_id":"cebpf4jnsgd1na2vs0mg"},{"bike_id":"233a8f76-2ba9-4a69-a22f-d24d723d3f30","system_id":"levelo_inurba_marseille","lat":43.336,"lon":5.41028,"is_reserved":false,"is_disabled":true,"rental_uris":{"android":"levelo://app?vid=233a8f76-2ba9-4a69-a22f-d24d723d3f30","ios":"levelo://app?vid=233a8f76-2ba9-4a69-a22f-d24d723d3f30"},"vehicle_type_id":"4","last_reported":1750021738,"current_range_meters":0,"station_id":"ce4bhqh2rcd13ifvqhmg","pricing_plan_id":"cebpf4jnsgd1na2vs0mg"},{"bike_id":"9aea8b8c-7d2c-47e6-9e92-fd12236b644f","system_id":"levelo_inurba_marseille","lat":43.2178,"lon":5.34598,"is_reserved":false,"is_disabled":true,"rental_uris":{"android":"levelo://app?vid=9aea8b8c-7d2c-47e6-9e92-fd12236b644f","ios":"levelo://app?vid=9aea8b8c-7d2c-47e6-9e92-fd12236b644f"},"vehicle_type_id":"4","last_reported":1750021738,"current_range_meters":0,"station_id":"st_cvj6r9ubvosntc0bgbag","pricing_plan_id":"cebpf4jnsgd1na2vs0mg"},{"bike_id":"2a83ae2f-a99a-4a3e-9402-1e60d522e115","system_id":"levelo_inurba_marseille","lat":43.211856,"lon":5.350707,"is_reserved":false,"is_disabled":true,"rental_uris":{"android":"levelo://app?vid=2a83ae2f-a99a-4a3e-9402-1e60d522e115","ios":"levelo://app?vid=2a83ae2f-a99a-4a3e-9402-1e60d522e115"},"vehicle_type_id":"4","last_reported":1750021738,"current_range_meters":0,"station_id":"st_cvj6sg6p6f1abm77japg","pricing_plan_id":"cebpf4jnsgd1na2vs0mg"},{"bike_id":"375cf6e2-9084-4098-ab27-8d4a8a4f6660","system_id":"levelo_inurba_marseille","lat":43.22516,"lon":5.34789,"is_reserved":false,"is_disabled":true,"rental_uris":{"android":"levelo://app?vid=375cf6e2-9084-4098-ab27-8d4a8a4f6660","ios":"levelo://app?vid=375cf6e2-9084-4098-ab27-8d4a8a4f6660"},"vehicle_type_id":"4","last_reported":1750021738,"current_range_meters":400,"station_id":"","pricing_plan_id":"cebpf4jnsgd1na2vs0mg"},{"bike_id":"84fd6f0c-b644-4aee-8f36-d25e3d7e7d64","system_id":"levelo_inurba_marseille","lat":43.313638,"lon":5.384931,"is_reserved":false,"is_disabled":true,"rental_uris":{"android":"levelo://app?vid=84fd6f0c-b644-4aee-8f36-d25e3d7e7d64","ios":"levelo://app?vid=84fd6f0c-b644-4aee-8f36-d25e3d7e7d64"},"vehicle_type_id":"4","last_reported":1750021738,"current_range_meters":1200,"station_id":"ce4bgt92rcd13ifvqcf0","pricing_plan_id":"cebpf4jnsgd1na2vs0mg"},{"bike_id":"0a98c170-e5b7-4996-9304-73a5a87fa7a2","system_id":"levelo_inurba_marseille","lat":43.27561,"lon":5.38409,"is_reserved":false,"is_disabled":true,"rental_uris":{"android":"levelo://app?vid=0a98c170-e5b7-4996-9304-73a5a87fa7a2","ios":"levelo://app?vid=0a98c170-e5b7-4996-9304-73a5a87fa7a2"},"vehicle_type_id":"4","last_reported":1750021738,"current_range_meters":1600,"station_id":"ce4bhh92rcd13ifvqfi0","pricing_plan_id":"cebpf4jnsgd1na2vs0mg"},{"bike_id":"021df968-59b3-4f13-830e-39535fd525ce","system_id":"levelo_inurba_marseille","lat":43.27078,"lon":5.42267,"is_reserved":false,"is_disabled":true,"rental_uris":{"android":"levelo://app?vid=021df968-59b3-4f13-830e-39535fd525ce","ios":"levelo://app?vid=021df968-59b3-4f13-830e-39535fd525ce"},"vehicle_type_id":"4","last_reported":1750021738,"current_range_meters":2000,"station_id":"ce4bhk92rcd13ifvqgb0","pricing_plan_id":"cebpf4jnsgd1na2vs0mg"},{"bike_id":"39483cbd-4d43-45ed-890a-77f5972ea213","system_id":"levelo_inurba_marseille","lat":43.27487,"lon":5.42456,"is_reserved":false,"is_disabled":true,"rental_uris":{"android":"levelo://app?vid=39483cbd-4d43-45ed-890a-77f5972ea213","ios":"levelo://app?vid=39483cbd-4d43-45ed-890a-77f5972ea213"},"vehicle_type_id":"4","last_reported":1750021738,"current_range_meters":2000,"station_id":"ce4bhn92rcd13ifvqgrg","pricing_plan_id":"cebpf4jnsgd1na2vs0mg"},{"bike_id":"75167aa1-9f51-464f-8e5c-76ad9f256540","system_id":"levelo_inurba_marseille","lat":43.3032,"lon":5.4044,"is_reserved":false,"is_disabled":false,"rental_uris":{"android":"levelo://app?vid=75167aa1-9f51-464f-8e5c-76ad9f256540","ios":"levelo://app?vid=75167aa1-9f51-464f-8e5c-76ad9f256540"},"vehicle_type_id":"4","last_reported":1750021738,"current_range_meters":3200,"station_id":"ce4bh012rcd13ifvqd10","pricing_plan_id":"cebpf4jnsgd1na2vs0mg"},{"bike_id":"2ab31527-f915-4286-b3a0-0beafd2cdd50","system_id":"levelo_inurba_marseille","lat":43.30006,"lon":5.37008,"is_reserved":false,"is_disabled":false,"rental_uris":{"android":"levelo://app?vid=2ab31527-f915-4286-b3a0-0beafd2cdd50","ios":"levelo://app?vid=2ab31527-f915-4286-b3a0-0beafd2cdd50"},"vehicle_type_id":"4","last_reported":1750021738,"current_range_meters":3600,"station_id":"","pricing_plan_id":"cebpf4jnsgd1na2vs0mg"},{"bike_id":"8a9d0e2e-916a-41e9-9d4c-7778a2f08936","system_id":"levelo_inurba_marseille","lat":43.28345,"lon":5.38109,"is_reserved":false,"is_disabled":false,"rental_uris":{"android":"levelo://app?vid=8a9d0e2e-916a-41e9-9d4c-7778a2f08936","ios":"levelo://app?vid=8a9d0e2e-916a-41e9-9d4c-7778a2f08936"},"vehicle_type_id":"4","last_reported":1750021738,"current_range_meters":3600,"station_id":"ce4bh412rcd13ifvqdr0","pricing_plan_id":"cebpf4jnsgd1na2vs0mg"},{"bike_id":"8811e505-fcef-4f69-b148-6df95b028a46","system_id":"levelo_inurba_marseille","lat":43.290497,"lon":5.359122,"is_reserved":false,"is_disabled":false,"rental_uris":{"android":"levelo://app?vid=8811e505-fcef-4f69-b148-6df95b028a46","ios":"levelo://app?vid=8811e505-fcef-4f69-b148-6df95b028a46"},"vehicle_type_id":"4","last_reported":1750021738,"current_range_meters":3600,"station_id":"ce4bha92rcd13ifvqeg0","pricing_plan_id":"cebpf4jnsgd1na2vs0mg"},{"bike_id":"357558f0-8b10-41dc-8e13-5c366ecd37b5","system_id":"levelo_inurba_marseille","lat":43.21183,"lon":5.35065,"is_reserved":false,"is_disabled":false,"rental_uris":{"android":"levelo://app?vid=357558f0-8b10-41dc-8e13-5c366ecd37b5","ios":"levelo://app?vid=357558f0-8b10-41dc-8e13-5c366ecd37b5"},"vehicle_type_id":"4","last_reported":1750021738,"current_range_meters":4400,"station_id":"st_cvj6sg6p6f1abm77japg","pricing_plan_id":"cebpf4jnsgd1na2vs0mg"},{"bike_id":"ff95ffef-eb2a-4cc4-a9e1-42207218fe67","system_id":"levelo_inurba_marseille","lat":43.30888,"lon":5.37184,"is_reserved":false,"is_disabled":false,"rental_uris":{"android":"levelo://app?vid=ff95ffef-eb2a-4cc4-a9e1-42207218fe67","ios":"levelo://app?vid=ff95ffef-eb2a-4cc4-a9e1-42207218fe67"},"vehicle_type_id":"4","last_reported":1750021738,"current_range_meters":4800,"station_id":"ce4bguh2rcd13ifvqckg","pricing_plan_id":"cebpf4jnsgd1na2vs0mg"},{"bike_id":"55961f41-3e78-4c8a-a582-f21cc206d1fa","system_id":"levelo_inurba_marseille","lat":43.28364,"lon":5.38638,"is_reserved":false,"is_disabled":false,"rental_uris":{"android":"levelo://app?vid=55961f41-3e78-4c8a-a582-f21cc206d1fa","ios":"levelo://app?vid=55961f41-3e78-4c8a-a582-f21cc206d1fa"},"vehicle_type_id":"4","last_reported":1750021738,"current_range_meters":5600,"station_id":"ce4bh492rcd13ifvqdvg","pricing_plan_id":"cebpf4jnsgd1na2vs0mg"},{"bike_id":"a7a565bd-54db-4175-962a-fdd3325f29c5","system_id":"levelo_inurba_marseille","lat":43.27571,"lon":5.38407,"is_reserved":false,"is_disabled":false,"rental_uris":{"android":"levelo://app?vid=a7a565bd-54db-4175-962a-fdd3325f29c5","ios":"levelo://app?vid=a7a565bd-54db-4175-962a-fdd3325f29c5"},"vehicle_type_id":"4","last_reported":1750021738,"current_range_meters":5600,"station_id":"ce4bhh92rcd13ifvqfi0","pricing_plan_id":"cebpf4jnsgd1na2vs0mg"},{"bike_id":"3603e6fc-6ba4-4253-bd00-7d6cc0729d34","system_id":"levelo_inurba_marseille","lat":43.26225,"lon":5.40451,"is_reserved":false,"is_disabled":false,"rental_uris":{"android":"levelo://app?vid=3603e6fc-6ba4-4253-bd00-7d6cc0729d34","ios":"levelo://app?vid=3603e6fc-6ba4-4253-bd00-7d6cc0729d34"},"vehicle_type_id":"4","last_reported":1750021738,"current_range_meters":6000,"station_id":"ce4bhmh2rcd13ifvqgmg","pricing_plan_id":"cebpf4jnsgd1na2vs0mg"},{"bike_id":"ac9d145a-87e6-49b8-b4f3-2d5d41474702","system_id":"levelo_inurba_marseille","lat":43.30319,"lon":5.4044,"is_reserved":false,"is_disabled":false,"rental_uris":{"android":"levelo://app?vid=ac9d145a-87e6-49b8-b4f3-2d5d41474702","ios":"levelo://app?vid=ac9d145a-87e6-49b8-b4f3-2d5d41474702"},"vehicle_type_id":"4","last_reported":1750021738,"current_range_meters":6400,"station_id":"ce4bh012rcd13ifvqd10","pricing_plan_id":"cebpf4jnsgd1na2vs0mg"},{"bike_id":"25eb5db9-9bef-4a82-918e-e5bab9585be2","system_id":"levelo_inurba_marseille","lat":43.27073,"lon":5.42278,"is_reserved":false,"is_disabled":false,"rental_uris":{"android":"levelo://app?vid=25eb5db9-9bef-4a82-918e-e5bab9585be2","ios":"levelo://app?vid=25eb5db9-9bef-4a82-918e-e5bab9585be2"},"vehicle_type_id":"4","last_reported":1750021738,"current_range_meters":6400,"station_id":"ce4bhk92rcd13ifvqgb0","pricing_plan_id":"cebpf4jnsgd1na2vs0mg"},{"bike_id":"6d31669b-ad0a-4827-94f1-c4e21b80c34b","system_id":"levelo_inurba_marseille","lat":43.28068,"lon":5.3963,"is_reserved":false,"is_disabled":false,"rental_uris":{"android":"levelo://app?vid=6d31669b-ad0a-4827-94f1-c4e21b80c34b","ios":"levelo://app?vid=6d31669b-ad0a-4827-94f1-c4e21b80c34b"},"vehicle_type_id":"4","last_reported":1750021738,"current_range_meters":6400,"station_id":"ce4bho12rcd13ifvqh2g","pricing_plan_id":"cebpf4jnsgd1na2vs0mg"},{"bike_id":"bbb05127-3461-411b-b53c-ab75ec6a6a84","system_id":"levelo_inurba_marseille","lat":43.31066,"lon":5.38344,"is_reserved":false,"is_disabled":false,"rental_uris":{"android":"levelo://app?vid=bbb05127-3461-411b-b53c-ab75ec6a6a84","ios":"levelo://app?vid=bbb05127-3461-411b-b53c-ab75ec6a6a84"},"vehicle_type_id":"4","last_reported":1750021738,"current_range_meters":6800,"station_id":"ce4bgv92rcd13ifvqcr0","pricing_plan_id":"cebpf4jnsgd1na2vs0mg"},{"bike_id":"db80ed70-20b3-4f68-a4ca-d06d318a6e65","system_id":"levelo_inurba_marseille","lat":43.28702,"lon":5.37392,"is_reserved":false,"is_disabled":false,"rental_uris":{"android":"levelo://app?vid=db80ed70-20b3-4f68-a4ca-d06d318a6e65","ios":"levelo://app?vid=db80ed70-20b3-4f68-a4ca-d06d318a6e65"},"vehicle_type_id":"4","last_reported":1750021738,"current_range_meters":6800,"station_id":"ce4bh3p2rcd13ifvqdq0","pricing_plan_id":"cebpf4jnsgd1na2vs0mg"},{"bike_id":"4e51601b-2972-4137-b56f-2bb11afa2bfa","system_id":"levelo_inurba_marseille","lat":43.27933,"lon":5.38758,"is_reserved":false,"is_disabled":false,"rental_uris":{"android":"levelo://app?vid=4e51601b-2972-4137-b56f-2bb11afa2bfa","ios":"levelo://app?vid=4e51601b-2972-4137-b56f-2bb11afa2bfa"},"vehicle_type_id":"4","last_reported":1750021738,"current_range_meters":6800,"station_id":"ce4bhg12rcd13ifvqf80","pricing_plan_id":"cebpf4jnsgd1na2vs0mg"},{"bike_id":"a3540b65-c82a-4b33-b4ad-a9ee7ed91aa6","system_id":"levelo_inurba_marseille","lat":43.23052,"lon":5.3549,"is_reserved":false,"is_disabled":false,"rental_uris":{"android":"levelo://app?vid=a3540b65-c82a-4b33-b4ad-a9ee7ed91aa6","ios":"levelo://app?vid=a3540b65-c82a-4b33-b4ad-a9ee7ed91aa6"},"vehicle_type_id":"4","last_reported":1750021738,"current_range_meters":6800,"station_id":"cpo3342slgdg3j2ifvpg","pricing_plan_id":"cebpf4jnsgd1na2vs0mg"},{"bike_id":"dd96f0f9-4351-4657-857e-5ff5a371f3dc","system_id":"levelo_inurba_marseille","lat":43.30889,"lon":5.39651,"is_reserved":false,"is_disabled":false,"rental_uris":{"android":"levelo://app?vid=dd96f0f9-4351-4657-857e-5ff5a371f3dc","ios":"levelo://app?vid=dd96f0f9-4351-4657-857e-5ff5a371f3dc"},"vehicle_type_id":"4","last_reported":1750021738,"current_range_meters":7200,"station_id":"ce4bh012rcd13ifvqcv0","pricing_plan_id":"cebpf4jnsgd1na2vs0mg"},{"bike_id":"24409274-3973-491e-a3e8-b03c1556fce6","system_id":"levelo_inurba_marseille","lat":43.31879,"lon":5.40731,"is_reserved":false,"is_disabled":false,"rental_uris":{"android":"levelo://app?vid=24409274-3973-491e-a3e8-b03c1556fce6","ios":"levelo://app?vid=24409274-3973-491e-a3e8-b03c1556fce6"},"vehicle_type_id":"4","last_reported":1750021738,"current_range_meters":7200,"station_id":"ce4bhq12rcd13ifvqhig","pricing_plan_id":"cebpf4jnsgd1na2vs0mg"},{"bike_id":"8b7e0200-b437-44df-b6c9-816b14f9e870","system_id":"levelo_inurba_marseille","lat":43.28383,"lon":5.45956,"is_reserved":false,"is_disabled":false,"rental_uris":{"android":"levelo://app?vid=8b7e0200-b437-44df-b6c9-816b14f9e870","ios":"levelo://app?vid=8b7e0200-b437-44df-b6c9-816b14f9e870"},"vehicle_type_id":"4","last_reported":1750021738,"current_range_meters":8400,"station_id":"","pricing_plan_id":"cebpf4jnsgd1na2vs0mg"},{"bike_id":"d858f2f5-f6e9-4bce-97cc-c084354f9683","system_id":"levelo_inurba_marseille","lat":43.30422,"lon":5.39748,"is_reserved":false,"is_disabled":false,"rental_uris":{"android":"levelo://app?vid=d858f2f5-f6e9-4bce-97cc-c084354f9683","ios":"levelo://app?vid=d858f2f5-f6e9-4bce-97cc-c084354f9683"},"vehicle_type_id":"4","last_reported":1750021738,"current_range_meters":8400,"station_id":"ce4bh092rcd13ifvqd20","pricing_plan_id":"cebpf4jnsgd1na2vs0mg"},{"bike_id":"cdeed56b-ccf6-4bd6-91c4-5a0713f09b5d","system_id":"levelo_inurba_marseille","lat":43.29194,"lon":5.39313,"is_reserved":false,"is_disabled":false,"rental_uris":{"android":"levelo://app?vid=cdeed56b-ccf6-4bd6-91c4-5a0713f09b5d","ios":"levelo://app?vid=cdeed56b-ccf6-4bd6-91c4-5a0713f09b5d"},"vehicle_type_id":"4","last_reported":1750021738,"current_range_meters":8400,"station_id":"ce4bh192rcd13ifvqdd0","pricing_plan_id":"cebpf4jnsgd1na2vs0mg"},{"bike_id":"2af203a9-8a5e-4b59-9734-f42c8e28e144","system_id":"levelo_inurba_marseille","lat":43.29095,"lon":5.38154,"is_reserved":false,"is_disabled":false,"rental_uris":{"android":"levelo://app?vid=2af203a9-8a5e-4b59-9734-f42c8e28e144","ios":"levelo://app?vid=2af203a9-8a5e-4b59-9734-f42c8e28e144"},"vehicle_type_id":"4","last_reported":1750021738,"current_range_meters":8400,"station_id":"ce4bh512rcd13ifvqe2g","pricing_plan_id":"cebpf4jnsgd1na2vs0mg"},{"bike_id":"505544be-2afe-4622-a4e6-02868b7f4bc7","system_id":"levelo_inurba_marseille","lat":43.28708,"lon":5.39993,"is_reserved":false,"is_disabled":false,"rental_uris":{"android":"levelo://app?vid=505544be-2afe-4622-a4e6-02868b7f4bc7","ios":"levelo://app?vid=505544be-2afe-4622-a4e6-02868b7f4bc7"},"vehicle_type_id":"4","last_reported":1750021738,"current_range_meters":8400,"station_id":"ce4bho92rcd13ifvqh3g","pricing_plan_id":"cebpf4jnsgd1na2vs0mg"},{"bike_id":"eee37b92-da8f-4086-9175-f308ed9ddece","system_id":"levelo_inurba_marseille","lat":43.21186,"lon":5.35098,"is_reserved":false,"is_disabled":false,"rental_uris":{"android":"levelo://app?vid=eee37b92-da8f-4086-9175-f308ed9ddece","ios":"levelo://app?vid=eee37b92-da8f-4086-9175-f308ed9ddece"},"vehicle_type_id":"4","last_reported":1750021738,"current_range_meters":8400,"station_id":"st_cvj6sg6p6f1abm77japg","pricing_plan_id":"cebpf4jnsgd1na2vs0mg"},{"bike_id":"8601897a-099d-49b5-aea1-b0ec06744598","system_id":"levelo_inurba_marseille","lat":43.286667,"lon":5.393097,"is_reserved":false,"is_disabled":false,"rental_uris":{"android":"levelo://app?vid=8601897a-099d-49b5-aea1-b0ec06744598","ios":"levelo://app?vid=8601897a-099d-49b5-aea1-b0ec06744598"},"vehicle_type_id":"4","last_reported":1750021738,"current_range_meters":8800,"station_id":"","pricing_plan_id":"cebpf4jnsgd1na2vs0mg"},{"bike_id":"bac285e7-c068-4764-9660-eb5a5218ed83","system_id":"levelo_inurba_marseille","lat":43.32123,"lon":5.36759,"is_reserved":false,"is_disabled":false,"rental_uris":{"android":"levelo://app?vid=bac285e7-c068-4764-9660-eb5a5218ed83","ios":"levelo://app?vid=bac285e7-c068-4764-9660-eb5a5218ed83"},"vehicle_type_id":"4","last_reported":1750021738,"current_range_meters":8800,"station_id":"ce4bhrh2rcd13ifvqhug","pricing_plan_id":"cebpf4jnsgd1na2vs0mg"},{"bike_id":"8da76ce1-e2d1-4c5e-9c0f-79b3e2b13be8","system_id":"levelo_inurba_marseille","lat":43.26933,"lon":5.40254,"is_reserved":false,"is_disabled":false,"rental_uris":{"android":"levelo://app?vid=8da76ce1-e2d1-4c5e-9c0f-79b3e2b13be8","ios":"levelo://app?vid=8da76ce1-e2d1-4c5e-9c0f-79b3e2b13be8"},"vehicle_type_id":"4","last_reported":1750021738,"current_range_meters":8800,"station_id":"cjm6bp8fraef2m0cb0m0","pricing_plan_id":"cebpf4jnsgd1na2vs0mg"},{"bike_id":"d97dc030-8405-4eb1-abbf-845730c8e3dc","system_id":"levelo_inurba_marseille","lat":43.21192,"lon":5.35047,"is_reserved":false,"is_disabled":false,"rental_uris":{"android":"levelo://app?vid=d97dc030-8405-4eb1-abbf-845730c8e3dc","ios":"levelo://app?vid=d97dc030-8405-4eb1-abbf-845730c8e3dc"},"vehicle_type_id":"4","last_reported":1750021738,"current_range_meters":8800,"station_id":"st_cvj6sg6p6f1abm77japg","pricing_plan_id":"cebpf4jnsgd1na2vs0mg"},{"bike_id":"387d1fed-118c-437b-bd55-020621253e35","system_id":"levelo_inurba_marseille","lat":43.24125,"lon":5.36805,"is_reserved":false,"is_disabled":false,"rental_uris":{"android":"levelo://app?vid=387d1fed-118c-437b-bd55-020621253e35","ios":"levelo://app?vid=387d1fed-118c-437b-bd55-020621253e35"},"vehicle_type_id":"4","last_reported":1750021738,"current_range_meters":9200,"station_id":"","pricing_plan_id":"cebpf4jnsgd1na2vs0mg"},{"bike_id":"b531c3fe-84c9-461a-abf3-f04a53c46ab4","system_id":"levelo_inurba_marseille","lat":43.31061,"lon":5.38349,"is_reserved":false,"is_disabled":false,"rental_uris":{"android":"levelo://app?vid=b531c3fe-84c9-461a-abf3-f04a53c46ab4","ios":"levelo://app?vid=b531c3fe-84c9-461a-abf3-f04a53c46ab4"},"vehicle_type_id":"4","last_reported":1750021738,"current_range_meters":9200,"station_id":"ce4bgv92rcd13ifvqcr0","pricing_plan_id":"cebpf4jnsgd1na2vs0mg"},{"bike_id":"d8da60ba-f44c-4a81-ac1b-f081760dc333","system_id":"levelo_inurba_marseille","lat":43.29446,"lon":5.39772,"is_reserved":false,"is_disabled":false,"rental_uris":{"android":"levelo://app?vid=d8da60ba-f44c-4a81-ac1b-f081760dc333","ios":"levelo://app?vid=d8da60ba-f44c-4a81-ac1b-f081760dc333"},"vehicle_type_id":"4","last_reported":1750021738,"current_range_meters":9200,"station_id":"ce4bh3h2rcd13ifvqdo0","pricing_plan_id":"cebpf4jnsgd1na2vs0mg"},{"bike_id":"5772d9f9-2b55-4ac6-8f67-ee662586d998","system_id":"levelo_inurba_marseille","lat":43.28668,"lon":5.3634,"is_reserved":false,"is_disabled":false,"rental_uris":{"android":"levelo://app?vid=5772d9f9-2b55-4ac6-8f67-ee662586d998","ios":"levelo://app?vid=5772d9f9-2b55-4ac6-8f67-ee662586d998"},"vehicle_type_id":"4","last_reported":1750021738,"current_range_meters":9200,"station_id":"ce4bhah2rcd13ifvqej0","pricing_plan_id":"cebpf4jnsgd1na2vs0mg"},{"bike_id":"ca6100ec-a9a0-4747-bf38-5f9661c64df7","system_id":"levelo_inurba_marseille","lat":43.30413,"lon":5.41284,"is_reserved":false,"is_disabled":false,"rental_uris":{"android":"levelo://app?vid=ca6100ec-a9a0-4747-bf38-5f9661c64df7","ios":"levelo://app?vid=ca6100ec-a9a0-4747-bf38-5f9661c64df7"},"vehicle_type_id":"4","last_reported":1750021738,"current_range_meters":9200,"station_id":"ce4bhop2rcd13ifvqh8g","pricing_plan_id":"cebpf4jnsgd1na2vs0mg"},{"bike_id":"4bc78641-4d17-41ec-8d24-5a883318f70f","system_id":"levelo_inurba_marseille","lat":43.295494,"lon":5.422888,"is_reserved":false,"is_disabled":false,"rental_uris":{"android":"levelo://app?vid=4bc78641-4d17-41ec-8d24-5a883318f70f","ios":"levelo://app?vid=4bc78641-4d17-41ec-8d24-5a883318f70f"},"vehicle_type_id":"4","last_reported":1750021738,"current_range_meters":9200,"station_id":"ce4bhph2rcd13ifvqhdg","pricing_plan_id":"cebpf4jnsgd1na2vs0mg"},{"bike_id":"ac466850-9a61-464b-b6df-c6eef6e07763","system_id":"levelo_inurba_marseille","lat":43.2174,"lon":5.34611,"is_reserved":false,"is_disabled":true,"rental_uris":{"android":"levelo://app?vid=ac466850-9a61-464b-b6df-c6eef6e07763","ios":"levelo://app?vid=ac466850-9a61-464b-b6df-c6eef6e07763"},"vehicle_type_id":"4","last_reported":1750021738,"current_range_meters":9200,"station_id":"st_cvj6r9ubvosntc0bgbag","pricing_plan_id":"cebpf4jnsgd1na2vs0mg"},{"bike_id":"a112d53b-ad54-4060-8f8e-fad339f5de6e","system_id":"levelo_inurba_marseille","lat":43.21182,"lon":5.35081,"is_reserved":false,"is_disabled":false,"rental_uris":{"android":"levelo://app?vid=a112d53b-ad54-4060-8f8e-fad339f5de6e","ios":"levelo://app?vid=a112d53b-ad54-4060-8f8e-fad339f5de6e"},"vehicle_type_id":"4","last_reported":1750021738,"current_range_meters":9200,"station_id":"st_cvj6sg6p6f1abm77japg","pricing_plan_id":"cebpf4jnsgd1na2vs0mg"},{"bike_id":"d8a4f7b4-052d-4bce-ae83-b9167311e0ea","system_id":"levelo_inurba_marseille","lat":43.211887,"lon":5.350781,"is_reserved":false,"is_disabled":false,"rental_uris":{"android":"levelo://app?vid=d8a4f7b4-052d-4bce-ae83-b9167311e0ea","ios":"levelo://app?vid=d8a4f7b4-052d-4bce-ae83-b9167311e0ea"},"vehicle_type_id":"4","last_reported":1750021738,"current_range_meters":9600,"station_id":"st_cvj6sg6p6f1abm77japg","pricing_plan_id":"cebpf4jnsgd1na2vs0mg"},{"bike_id":"309e0750-a9a6-46ed-970e-ad9fbee08050","system_id":"levelo_inurba_marseille","lat":43.30589,"lon":5.39358,"is_reserved":false,"is_disabled":false,"rental_uris":{"android":"levelo://app?vid=309e0750-a9a6-46ed-970e-ad9fbee08050","ios":"levelo://app?vid=309e0750-a9a6-46ed-970e-ad9fbee08050"},"vehicle_type_id":"4","last_reported":1750021738,"current_range_meters":10000,"station_id":"ce4bh0p2rcd13ifvqd80","pricing_plan_id":"cebpf4jnsgd1na2vs0mg"},{"bike_id":"d466030e-288a-4dc6-befe-6e0661cea7cf","system_id":"levelo_inurba_marseille","lat":43.280353,"lon":5.369424,"is_reserved":false,"is_disabled":false,"rental_uris":{"android":"levelo://app?vid=d466030e-288a-4dc6-befe-6e0661cea7cf","ios":"levelo://app?vid=d466030e-288a-4dc6-befe-6e0661cea7cf"},"vehicle_type_id":"4","last_reported":1750021738,"current_range_meters":10000,"station_id":"ce4bha12rcd13ifvqef0","pricing_plan_id":"cebpf4jnsgd1na2vs0mg"},{"bike_id":"eb623c32-3c06-431c-9c6b-80a5ab0f21b9","system_id":"levelo_inurba_marseille","lat":43.295168,"lon":5.393997,"is_reserved":false,"is_disabled":false,"rental_uris":{"android":"levelo://app?vid=eb623c32-3c06-431c-9c6b-80a5ab0f21b9","ios":"levelo://app?vid=eb623c32-3c06-431c-9c6b-80a5ab0f21b9"},"vehicle_type_id":"4","last_reported":1750021738,"current_range_meters":10800,"station_id":"","pricing_plan_id":"cebpf4jnsgd1na2vs0mg"},{"bike_id":"bf61062e-31f1-4a6f-8966-c2c74d688473","system_id":"levelo_inurba_marseille","lat":43.26931,"lon":5.39122,"is_reserved":false,"is_disabled":false,"rental_uris":{"android":"levelo://app?vid=bf61062e-31f1-4a6f-8966-c2c74d688473","ios":"levelo://app?vid=bf61062e-31f1-4a6f-8966-c2c74d688473"},"vehicle_type_id":"4","last_reported":1750021738,"current_range_meters":10800,"station_id":"","pricing_plan_id":"cebpf4jnsgd1na2vs0mg"},{"bike_id":"6dc28acc-f0fa-4464-a79e-76ed10a04e85","system_id":"levelo_inurba_marseille","lat":43.30602,"lon":5.37226,"is_reserved":false,"is_disabled":false,"rental_uris":{"android":"levelo://app?vid=6dc28acc-f0fa-4464-a79e-76ed10a04e85","ios":"levelo://app?vid=6dc28acc-f0fa-4464-a79e-76ed10a04e85"},"vehicle_type_id":"4","last_reported":1750021738,"current_range_meters":10800,"station_id":"ce4bgqh2rcd13ifvqc4g","pricing_plan_id":"cebpf4jnsgd1na2vs0mg"},{"bike_id":"de92586a-32c4-4e3b-a3a6-67f0b31fab47","system_id":"levelo_inurba_marseille","lat":43.304215,"lon":5.39754,"is_reserved":false,"is_disabled":false,"rental_uris":{"android":"levelo://app?vid=de92586a-32c4-4e3b-a3a6-67f0b31fab47","ios":"levelo://app?vid=de92586a-32c4-4e3b-a3a6-67f0b31fab47"},"vehicle_type_id":"4","last_reported":1750021738,"current_range_meters":10800,"station_id":"ce4bh092rcd13ifvqd20","pricing_plan_id":"cebpf4jnsgd1na2vs0mg"},{"bike_id":"9ee7dc07-4872-49c3-84ee-d13228cf9bbf","system_id":"levelo_inurba_marseille","lat":43.28717,"lon":5.37947,"is_reserved":false,"is_disabled":false,"rental_uris":{"android":"levelo://app?vid=9ee7dc07-4872-49c3-84ee-d13228cf9bbf","ios":"levelo://app?vid=9ee7dc07-4872-49c3-84ee-d13228cf9bbf"},"vehicle_type_id":"4","last_reported":1750021738,"current_range_meters":10800,"station_id":"ce4bh9p2rcd13ifvqec0","pricing_plan_id":"cebpf4jnsgd1na2vs0mg"},{"bike_id":"6b5de963-a57e-4f78-a3c4-3d898c54c045","system_id":"levelo_inurba_marseille","lat":43.23176,"lon":5.39989,"is_reserved":false,"is_disabled":false,"rental_uris":{"android":"levelo://app?vid=6b5de963-a57e-4f78-a3c4-3d898c54c045","ios":"levelo://app?vid=6b5de963-a57e-4f78-a3c4-3d898c54c045"},"vehicle_type_id":"4","last_reported":1750021738,"current_range_meters":10800,"station_id":"ce4bhn12rcd13ifvqgqg","pricing_plan_id":"cebpf4jnsgd1na2vs0mg"},{"bike_id":"3c4d4cd2-050e-46ac-85d6-64baa38305d9","system_id":"levelo_inurba_marseille","lat":43.23192,"lon":5.35546,"is_reserved":false,"is_disabled":false,"rental_uris":{"android":"levelo://app?vid=3c4d4cd2-050e-46ac-85d6-64baa38305d9","ios":"levelo://app?vid=3c4d4cd2-050e-46ac-85d6-64baa38305d9"},"vehicle_type_id":"4","last_reported":1750021738,"current_range_meters":10800,"station_id":"ce4bhu92rcd13ifvqi70","pricing_plan_id":"cebpf4jnsgd1na2vs0mg"},{"bike_id":"73d2bea6-f99d-4671-8954-580edff743bc","system_id":"levelo_inurba_marseille","lat":43.211908,"lon":5.35075,"is_reserved":false,"is_disabled":false,"rental_uris":{"android":"levelo://app?vid=73d2bea6-f99d-4671-8954-580edff743bc","ios":"levelo://app?vid=73d2bea6-f99d-4671-8954-580edff743bc"},"vehicle_type_id":"4","last_reported":1750021738,"current_range_meters":11200,"station_id":"","pricing_plan_id":"cebpf4jnsgd1na2vs0mg"},{"bike_id":"8e7a4087-3f6d-4617-89bb-359ece91ed41","system_id":"levelo_inurba_marseille","lat":43.27813,"lon":5.40708,"is_reserved":false,"is_disabled":false,"rental_uris":{"android":"levelo://app?vid=8e7a4087-3f6d-4617-89bb-359ece91ed41","ios":"levelo://app?vid=8e7a4087-3f6d-4617-89bb-359ece91ed41"},"vehicle_type_id":"4","last_reported":1750021738,"current_range_meters":11200,"station_id":"","pricing_plan_id":"cebpf4jnsgd1na2vs0mg"},{"bike_id":"754713e9-bc3d-42f0-b87a-208431606eb7","system_id":"levelo_inurba_marseille","lat":43.30604,"lon":5.37228,"is_reserved":false,"is_disabled":false,"rental_uris":{"android":"levelo://app?vid=754713e9-bc3d-42f0-b87a-208431606eb7","ios":"levelo://app?vid=754713e9-bc3d-42f0-b87a-208431606eb7"},"vehicle_type_id":"4","last_reported":1750021738,"current_range_meters":11600,"station_id":"ce4bgqh2rcd13ifvqc4g","pricing_plan_id":"cebpf4jnsgd1na2vs0mg"},{"bike_id":"9db533b3-1d99-47c4-a986-1208e6757d59","system_id":"levelo_inurba_marseille","lat":43.30876,"lon":5.39665,"is_reserved":false,"is_disabled":false,"rental_uris":{"android":"levelo://app?vid=9db533b3-1d99-47c4-a986-1208e6757d59","ios":"levelo://app?vid=9db533b3-1d99-47c4-a986-1208e6757d59"},"vehicle_type_id":"4","last_reported":1750021738,"current_range_meters":11600,"station_id":"ce4bh012rcd13ifvqcv0","pricing_plan_id":"cebpf4jnsgd1na2vs0mg"},{"bike_id":"017f063d-0b1a-4cdb-9c65-25b3c5c06b54","system_id":"levelo_inurba_marseille","lat":43.280007,"lon":5.416659,"is_reserved":false,"is_disabled":false,"rental_uris":{"android":"levelo://app?vid=017f063d-0b1a-4cdb-9c65-25b3c5c06b54","ios":"levelo://app?vid=017f063d-0b1a-4cdb-9c65-25b3c5c06b54"},"vehicle_type_id":"4","last_reported":1750021738,"current_range_meters":11600,"station_id":"ce4bho12rcd13ifvqh1g","pricing_plan_id":"cebpf4jnsgd1na2vs0mg"},{"bike_id":"c34480be-1068-4b33-aa05-9efa8c650e8d","system_id":"levelo_inurba_marseille","lat":43.28719,"lon":5.37925,"is_reserved":false,"is_disabled":false,"rental_uris":{"android":"levelo://app?vid=c34480be-1068-4b33-aa05-9efa8c650e8d","ios":"levelo://app?vid=c34480be-1068-4b33-aa05-9efa8c650e8d"},"vehicle_type_id":"4","last_reported":1750021738,"current_range_meters":12000,"station_id":"ce4bh9p2rcd13ifvqec0","pricing_plan_id":"cebpf4jnsgd1na2vs0mg"},{"bike_id":"d51f5e0d-b9b0-4b78-beb8-ca6beb08a85c","system_id":"levelo_inurba_marseille","lat":43.2844,"lon":5.39203,"is_reserved":false,"is_disabled":false,"rental_uris":{"android":"levelo://app?vid=d51f5e0d-b9b0-4b78-beb8-ca6beb08a85c","ios":"levelo://app?vid=d51f5e0d-b9b0-4b78-beb8-ca6beb08a85c"},"vehicle_type_id":"4","last_reported":1750021738,"current_range_meters":12000,"station_id":"ce4bhoh2rcd13ifvqh5g","pricing_plan_id":"cebpf4jnsgd1na2vs0mg"},{"bike_id":"2319ce10-a51c-42ad-ad50-827b68e4f300","system_id":"levelo_inurba_marseille","lat":43.29684,"lon":5.38008,"is_reserved":false,"is_disabled":false,"rental_uris":{"android":"levelo://app?vid=2319ce10-a51c-42ad-ad50-827b68e4f300","ios":"levelo://app?vid=2319ce10-a51c-42ad-ad50-827b68e4f300"},"vehicle_type_id":"4","last_reported":1750021738,"current_range_meters":12400,"station_id":"","pricing_plan_id":"cebpf4jnsgd1na2vs0mg"},{"bike_id":"0c212709-f674-4acb-95e5-639243616bcb","system_id":"levelo_inurba_marseille","lat":43.31076,"lon":5.38345,"is_reserved":false,"is_disabled":false,"rental_uris":{"android":"levelo://app?vid=0c212709-f674-4acb-95e5-639243616bcb","ios":"levelo://app?vid=0c212709-f674-4acb-95e5-639243616bcb"},"vehicle_type_id":"4","last_reported":1750021738,"current_range_meters":12400,"station_id":"ce4bgv92rcd13ifvqcr0","pricing_plan_id":"cebpf4jnsgd1na2vs0mg"},{"bike_id":"7a75e7b8-799c-44ab-aa17-7247ce0cd799","system_id":"levelo_inurba_marseille","lat":43.28348,"lon":5.38109,"is_reserved":false,"is_disabled":false,"rental_uris":{"android":"levelo://app?vid=7a75e7b8-799c-44ab-aa17-7247ce0cd799","ios":"levelo://app?vid=7a75e7b8-799c-44ab-aa17-7247ce0cd799"},"vehicle_type_id":"4","last_reported":1750021738,"current_range_meters":12400,"station_id":"ce4bh412rcd13ifvqdr0","pricing_plan_id":"cebpf4jnsgd1na2vs0mg"},{"bike_id":"5e7ebee2-521b-43e2-bd03-865320f4c815","system_id":"levelo_inurba_marseille","lat":43.28102,"lon":5.37832,"is_reserved":false,"is_disabled":false,"rental_uris":{"android":"levelo://app?vid=5e7ebee2-521b-43e2-bd03-865320f4c815","ios":"levelo://app?vid=5e7ebee2-521b-43e2-bd03-865320f4c815"},"vehicle_type_id":"4","last_reported":1750021738,"current_range_meters":12400,"station_id":"ce4bha12rcd13ifvqee0","pricing_plan_id":"cebpf4jnsgd1na2vs0mg"},{"bike_id":"bb27904b-53bd-44b6-a487-d5742b99ddb4","system_id":"levelo_inurba_marseille","lat":43.28709,"lon":5.39984,"is_reserved":false,"is_disabled":false,"rental_uris":{"android":"levelo://app?vid=bb27904b-53bd-44b6-a487-d5742b99ddb4","ios":"levelo://app?vid=bb27904b-53bd-44b6-a487-d5742b99ddb4"},"vehicle_type_id":"4","last_reported":1750021738,"current_range_meters":12400,"station_id":"ce4bho92rcd13ifvqh3g","pricing_plan_id":"cebpf4jnsgd1na2vs0mg"},{"bike_id":"2c0280fb-2d7e-40f9-839d-d7aa5cf77288","system_id":"levelo_inurba_marseille","lat":43.30135,"lon":5.38781,"is_reserved":false,"is_disabled":false,"rental_uris":{"android":"levelo://app?vid=2c0280fb-2d7e-40f9-839d-d7aa5cf77288","ios":"levelo://app?vid=2c0280fb-2d7e-40f9-839d-d7aa5cf77288"},"vehicle_type_id":"4","last_reported":1750021738,"current_range_meters":12800,"station_id":"ce4bghh2rcd13ifvqb60","pricing_plan_id":"cebpf4jnsgd1na2vs0mg"},{"bike_id":"618661e2-e399-4e3e-b715-698d3ce2d139","system_id":"levelo_inurba_marseille","lat":43.27993,"lon":5.40007,"is_reserved":false,"is_disabled":false,"rental_uris":{"android":"levelo://app?vid=618661e2-e399-4e3e-b715-698d3ce2d139","ios":"levelo://app?vid=618661e2-e399-4e3e-b715-698d3ce2d139"},"vehicle_type_id":"4","last_reported":1750021738,"current_range_meters":12800,"station_id":"ce4bho92rcd13ifvqh4g","pricing_plan_id":"cebpf4jnsgd1na2vs0mg"},{"bike_id":"7f0b866d-ae12-4162-8022-fe688d9e1258","system_id":"levelo_inurba_marseille","lat":43.28492,"lon":5.39036,"is_reserved":false,"is_disabled":false,"rental_uris":{"android":"levelo://app?vid=7f0b866d-ae12-4162-8022-fe688d9e1258","ios":"levelo://app?vid=7f0b866d-ae12-4162-8022-fe688d9e1258"},"vehicle_type_id":"4","last_reported":1750021738,"current_range_meters":13600,"station_id":"","pricing_plan_id":"cebpf4jnsgd1na2vs0mg"},{"bike_id":"398f4140-ef6e-4525-a39f-c274500ba67e","system_id":"levelo_inurba_marseille","lat":43.30231,"lon":5.39468,"is_reserved":false,"is_disabled":false,"rental_uris":{"android":"levelo://app?vid=398f4140-ef6e-4525-a39f-c274500ba67e","ios":"levelo://app?vid=398f4140-ef6e-4525-a39f-c274500ba67e"},"vehicle_type_id":"4","last_reported":1750021738,"current_range_meters":13600,"station_id":"ce4bh0p2rcd13ifvqd70","pricing_plan_id":"cebpf4jnsgd1na2vs0mg"},{"bike_id":"5963c119-de3d-46f4-94c5-0e77bfedf099","system_id":"levelo_inurba_marseille","lat":43.28398,"lon":5.37514,"is_reserved":false,"is_disabled":false,"rental_uris":{"android":"levelo://app?vid=5963c119-de3d-46f4-94c5-0e77bfedf099","ios":"levelo://app?vid=5963c119-de3d-46f4-94c5-0e77bfedf099"},"vehicle_type_id":"4","last_reported":1750021738,"current_range_meters":13600,"station_id":"ce4bh412rcd13ifvqds0","pricing_plan_id":"cebpf4jnsgd1na2vs0mg"},{"bike_id":"5bf19c18-d0ad-489b-bd15-9440a1d65b2d","system_id":"levelo_inurba_marseille","lat":43.21188,"lon":5.35066,"is_reserved":false,"is_disabled":false,"rental_uris":{"android":"levelo://app?vid=5bf19c18-d0ad-489b-bd15-9440a1d65b2d","ios":"levelo://app?vid=5bf19c18-d0ad-489b-bd15-9440a1d65b2d"},"vehicle_type_id":"4","last_reported":1750021738,"current_range_meters":13600,"station_id":"st_cvj6sg6p6f1abm77japg","pricing_plan_id":"cebpf4jnsgd1na2vs0mg"},{"bike_id":"11dd9d87-7716-4fa1-ab53-967b3bd7b3cf","system_id":"levelo_inurba_marseille","lat":43.310703,"lon":5.383643,"is_reserved":false,"is_disabled":false,"rental_uris":{"android":"levelo://app?vid=11dd9d87-7716-4fa1-ab53-967b3bd7b3cf","ios":"levelo://app?vid=11dd9d87-7716-4fa1-ab53-967b3bd7b3cf"},"vehicle_type_id":"4","last_reported":1750021738,"current_range_meters":14000,"station_id":"ce4bgv92rcd13ifvqcr0","pricing_plan_id":"cebpf4jnsgd1na2vs0mg"},{"bike_id":"9a0c3f99-8244-4ee9-a116-a84f3fe33d04","system_id":"levelo_inurba_marseille","lat":43.23205,"lon":5.35532,"is_reserved":false,"is_disabled":false,"rental_uris":{"android":"levelo://app?vid=9a0c3f99-8244-4ee9-a116-a84f3fe33d04","ios":"levelo://app?vid=9a0c3f99-8244-4ee9-a116-a84f3fe33d04"},"vehicle_type_id":"4","last_reported":1750021738,"current_range_meters":14000,"station_id":"ce4bhu92rcd13ifvqi70","pricing_plan_id":"cebpf4jnsgd1na2vs0mg"},{"bike_id":"91753df6-b383-4702-8414-24237e81fab8","system_id":"levelo_inurba_marseille","lat":43.244324,"lon":5.371545,"is_reserved":false,"is_disabled":false,"rental_uris":{"android":"levelo://app?vid=91753df6-b383-4702-8414-24237e81fab8","ios":"levelo://app?vid=91753df6-b383-4702-8414-24237e81fab8"},"vehicle_type_id":"4","last_reported":1750021738,"current_range_meters":14400,"station_id":"","pricing_plan_id":"cebpf4jnsgd1na2vs0mg"},{"bike_id":"db8ea791-af3c-41e4-a88c-f494a47a0c0a","system_id":"levelo_inurba_marseille","lat":43.30139,"lon":5.3878,"is_reserved":false,"is_disabled":false,"rental_uris":{"android":"levelo://app?vid=db8ea791-af3c-41e4-a88c-f494a47a0c0a","ios":"levelo://app?vid=db8ea791-af3c-41e4-a88c-f494a47a0c0a"},"vehicle_type_id":"4","last_reported":1750021738,"current_range_meters":14400,"station_id":"ce4bghh2rcd13ifvqb60","pricing_plan_id":"cebpf4jnsgd1na2vs0mg"},{"bike_id":"0fe8d47d-0db3-437d-9239-f712b4736eb4","system_id":"levelo_inurba_marseille","lat":43.32079,"lon":5.36766,"is_reserved":false,"is_disabled":false,"rental_uris":{"android":"levelo://app?vid=0fe8d47d-0db3-437d-9239-f712b4736eb4","ios":"levelo://app?vid=0fe8d47d-0db3-437d-9239-f712b4736eb4"},"vehicle_type_id":"4","last_reported":1750021738,"current_range_meters":14400,"station_id":"ce4bhrh2rcd13ifvqhug","pricing_plan_id":"cebpf4jnsgd1na2vs0mg"},{"bike_id":"97f8851e-21a3-4c6a-8d82-1c239c500fcb","system_id":"levelo_inurba_marseille","lat":43.273777,"lon":5.362576,"is_reserved":false,"is_disabled":false,"rental_uris":{"android":"levelo://app?vid=97f8851e-21a3-4c6a-8d82-1c239c500fcb","ios":"levelo://app?vid=97f8851e-21a3-4c6a-8d82-1c239c500fcb"},"vehicle_type_id":"4","last_reported":1750021738,"current_range_meters":14800,"station_id":"","pricing_plan_id":"cebpf4jnsgd1na2vs0mg"},{"bike_id":"6ab6b5e9-2b2f-476c-861d-e735f21df255","system_id":"levelo_inurba_marseille","lat":43.26226,"lon":5.40457,"is_reserved":false,"is_disabled":false,"rental_uris":{"android":"levelo://app?vid=6ab6b5e9-2b2f-476c-861d-e735f21df255","ios":"levelo://app?vid=6ab6b5e9-2b2f-476c-861d-e735f21df255"},"vehicle_type_id":"4","last_reported":1750021738,"current_range_meters":14800,"station_id":"ce4bhmh2rcd13ifvqgmg","pricing_plan_id":"cebpf4jnsgd1na2vs0mg"},{"bike_id":"38e08ec6-738b-4a04-a092-dec10c6891d3","system_id":"levelo_inurba_marseille","lat":43.26859,"lon":5.40655,"is_reserved":false,"is_disabled":false,"rental_uris":{"android":"levelo://app?vid=38e08ec6-738b-4a04-a092-dec10c6891d3","ios":"levelo://app?vid=38e08ec6-738b-4a04-a092-dec10c6891d3"},"vehicle_type_id":"4","last_reported":1750021738,"current_range_meters":15200,"station_id":"","pricing_plan_id":"cebpf4jnsgd1na2vs0mg"},{"bike_id":"83b882ef-55c9-4c2b-87a5-d87615622e30","system_id":"levelo_inurba_marseille","lat":43.32339,"lon":5.40622,"is_reserved":false,"is_disabled":false,"rental_uris":{"android":"levelo://app?vid=83b882ef-55c9-4c2b-87a5-d87615622e30","ios":"levelo://app?vid=83b882ef-55c9-4c2b-87a5-d87615622e30"},"vehicle_type_id":"4","last_reported":1750021738,"current_range_meters":15200,"station_id":"ce4bhq92rcd13ifvqhjg","pricing_plan_id":"cebpf4jnsgd1na2vs0mg"},{"bike_id":"ca404674-a7bb-4909-82c7-65fa93f0b6de","system_id":"levelo_inurba_marseille","lat":43.21182,"lon":5.35052,"is_reserved":false,"is_disabled":false,"rental_uris":{"android":"levelo://app?vid=ca404674-a7bb-4909-82c7-65fa93f0b6de","ios":"levelo://app?vid=ca404674-a7bb-4909-82c7-65fa93f0b6de"},"vehicle_type_id":"4","last_reported":1750021738,"current_range_meters":15200,"station_id":"st_cvj6sg6p6f1abm77japg","pricing_plan_id":"cebpf4jnsgd1na2vs0mg"},{"bike_id":"9d661fc7-1baf-4e7a-8e7b-1d8d41a87b43","system_id":"levelo_inurba_marseille","lat":43.30887,"lon":5.39656,"is_reserved":false,"is_disabled":false,"rental_uris":{"android":"levelo://app?vid=9d661fc7-1baf-4e7a-8e7b-1d8d41a87b43","ios":"levelo://app?vid=9d661fc7-1baf-4e7a-8e7b-1d8d41a87b43"},"vehicle_type_id":"4","last_reported":1750021738,"current_range_meters":16000,"station_id":"ce4bh012rcd13ifvqcv0","pricing_plan_id":"cebpf4jnsgd1na2vs0mg"},{"bike_id":"730786b9-bb38-46a7-955c-817524ce8f5e","system_id":"levelo_inurba_marseille","lat":43.30123,"lon":5.39866,"is_reserved":false,"is_disabled":false,"rental_uris":{"android":"levelo://app?vid=730786b9-bb38-46a7-955c-817524ce8f5e","ios":"levelo://app?vid=730786b9-bb38-46a7-955c-817524ce8f5e"},"vehicle_type_id":"4","last_reported":1750021738,"current_range_meters":16000,"station_id":"ce4bh0h2rcd13ifvqd40","pricing_plan_id":"cebpf4jnsgd1na2vs0mg"},{"bike_id":"fa6689e2-810e-41a0-bd2d-9dd7ea1c1180","system_id":"levelo_inurba_marseille","lat":43.28344,"lon":5.38101,"is_reserved":false,"is_disabled":false,"rental_uris":{"android":"levelo://app?vid=fa6689e2-810e-41a0-bd2d-9dd7ea1c1180","ios":"levelo://app?vid=fa6689e2-810e-41a0-bd2d-9dd7ea1c1180"},"vehicle_type_id":"4","last_reported":1750021738,"current_range_meters":16000,"station_id":"ce4bh412rcd13ifvqdr0","pricing_plan_id":"cebpf4jnsgd1na2vs0mg"},{"bike_id":"d80b8273-1f9f-4098-9f02-89e0bdfc6a50","system_id":"levelo_inurba_marseille","lat":43.289403,"lon":5.366455,"is_reserved":false,"is_disabled":false,"rental_uris":{"android":"levelo://app?vid=d80b8273-1f9f-4098-9f02-89e0bdfc6a50","ios":"levelo://app?vid=d80b8273-1f9f-4098-9f02-89e0bdfc6a50"},"vehicle_type_id":"4","last_reported":1750021738,"current_range_meters":16000,"station_id":"ce4bhap2rcd13ifvqek0","pricing_plan_id":"cebpf4jnsgd1na2vs0mg"},{"bike_id":"9f67ff39-2b86-422f-94a3-730fe36fa592","system_id":"levelo_inurba_marseille","lat":43.2509,"lon":5.39543,"is_reserved":false,"is_disabled":false,"rental_uris":{"android":"levelo://app?vid=9f67ff39-2b86-422f-94a3-730fe36fa592","ios":"levelo://app?vid=9f67ff39-2b86-422f-94a3-730fe36fa592"},"vehicle_type_id":"4","last_reported":1750021738,"current_range_meters":16000,"station_id":"ce4bhm12rcd13ifvqgkg","pricing_plan_id":"cebpf4jnsgd1na2vs0mg"},{"bike_id":"1d9df16e-4abf-44d7-b6e8-a27dd4aa3ffb","system_id":"levelo_inurba_marseille","lat":43.23193,"lon":5.35542,"is_reserved":false,"is_disabled":false,"rental_uris":{"android":"levelo://app?vid=1d9df16e-4abf-44d7-b6e8-a27dd4aa3ffb","ios":"levelo://app?vid=1d9df16e-4abf-44d7-b6e8-a27dd4aa3ffb"},"vehicle_type_id":"4","last_reported":1750021738,"current_range_meters":16000,"station_id":"ce4bhu92rcd13ifvqi70","pricing_plan_id":"cebpf4jnsgd1na2vs0mg"},{"bike_id":"2d16d2b6-c684-45ab-831f-9a77e91e8afb","system_id":"levelo_inurba_marseille","lat":43.211906,"lon":5.350745,"is_reserved":false,"is_disabled":false,"rental_uris":{"android":"levelo://app?vid=2d16d2b6-c684-45ab-831f-9a77e91e8afb","ios":"levelo://app?vid=2d16d2b6-c684-45ab-831f-9a77e91e8afb"},"vehicle_type_id":"4","last_reported":1750021738,"current_range_meters":16000,"station_id":"st_cvj6sg6p6f1abm77japg","pricing_plan_id":"cebpf4jnsgd1na2vs0mg"},{"bike_id":"037d24b8-0f7d-442c-a65b-b06f720ebe3a","system_id":"levelo_inurba_marseille","lat":43.31339,"lon":5.3673,"is_reserved":false,"is_disabled":false,"rental_uris":{"android":"levelo://app?vid=037d24b8-0f7d-442c-a65b-b06f720ebe3a","ios":"levelo://app?vid=037d24b8-0f7d-442c-a65b-b06f720ebe3a"},"vehicle_type_id":"4","last_reported":1750021738,"current_range_meters":16400,"station_id":"ce4bgr92rcd13ifvqc6g","pricing_plan_id":"cebpf4jnsgd1na2vs0mg"},{"bike_id":"508c6318-2e37-4161-9247-29cc1ffa502e","system_id":"levelo_inurba_marseille","lat":43.32915,"lon":5.40561,"is_reserved":false,"is_disabled":false,"rental_uris":{"android":"levelo://app?vid=508c6318-2e37-4161-9247-29cc1ffa502e","ios":"levelo://app?vid=508c6318-2e37-4161-9247-29cc1ffa502e"},"vehicle_type_id":"4","last_reported":1750021738,"current_range_meters":16800,"station_id":"","pricing_plan_id":"cebpf4jnsgd1na2vs0mg"},{"bike_id":"ceb4f5f3-8275-46eb-84d4-7090e1faaa08","system_id":"levelo_inurba_marseille","lat":43.29505,"lon":5.39039,"is_reserved":false,"is_disabled":false,"rental_uris":{"android":"levelo://app?vid=ceb4f5f3-8275-46eb-84d4-7090e1faaa08","ios":"levelo://app?vid=ceb4f5f3-8275-46eb-84d4-7090e1faaa08"},"vehicle_type_id":"4","last_reported":1750021738,"current_range_meters":16800,"station_id":"ce4bh3p2rcd13ifvqdp0","pricing_plan_id":"cebpf4jnsgd1na2vs0mg"},{"bike_id":"7183bf46-ab0e-45c2-8a6d-5d074d526ac0","system_id":"levelo_inurba_marseille","lat":43.240697,"lon":5.377628,"is_reserved":false,"is_disabled":false,"rental_uris":{"android":"levelo://app?vid=7183bf46-ab0e-45c2-8a6d-5d074d526ac0","ios":"levelo://app?vid=7183bf46-ab0e-45c2-8a6d-5d074d526ac0"},"vehicle_type_id":"4","last_reported":1750021738,"current_range_meters":16800,"station_id":"ce4bhnp2rcd13ifvqgvg","pricing_plan_id":"cebpf4jnsgd1na2vs0mg"},{"bike_id":"0d51830a-756f-4f39-bdf4-2fe9707991c7","system_id":"levelo_inurba_marseille","lat":43.21187,"lon":5.35059,"is_reserved":false,"is_disabled":false,"rental_uris":{"android":"levelo://app?vid=0d51830a-756f-4f39-bdf4-2fe9707991c7","ios":"levelo://app?vid=0d51830a-756f-4f39-bdf4-2fe9707991c7"},"vehicle_type_id":"4","last_reported":1750021738,"current_range_meters":16800,"station_id":"st_cvj6sg6p6f1abm77japg","pricing_plan_id":"cebpf4jnsgd1na2vs0mg"},{"bike_id":"7b9010cb-65eb-4696-b39f-3538e90a6031","system_id":"levelo_inurba_marseille","lat":43.34177,"lon":5.37428,"is_reserved":false,"is_disabled":false,"rental_uris":{"android":"levelo://app?vid=7b9010cb-65eb-4696-b39f-3538e90a6031","ios":"levelo://app?vid=7b9010cb-65eb-4696-b39f-3538e90a6031"},"vehicle_type_id":"4","last_reported":1750021738,"current_range_meters":17200,"station_id":"","pricing_plan_id":"cebpf4jnsgd1na2vs0mg"},{"bike_id":"e92fe341-4a61-4e1e-9816-d83e33e38cd4","system_id":"levelo_inurba_marseille","lat":43.31168,"lon":5.38716,"is_reserved":false,"is_disabled":false,"rental_uris":{"android":"levelo://app?vid=e92fe341-4a61-4e1e-9816-d83e33e38cd4","ios":"levelo://app?vid=e92fe341-4a61-4e1e-9816-d83e33e38cd4"},"vehicle_type_id":"4","last_reported":1750021738,"current_range_meters":17200,"station_id":"ce4bgv12rcd13ifvqcp0","pricing_plan_id":"cebpf4jnsgd1na2vs0mg"},{"bike_id":"0cdb805b-a3cb-4bb7-88ce-99da075cd298","system_id":"levelo_inurba_marseille","lat":43.311617,"lon":5.387118,"is_reserved":false,"is_disabled":false,"rental_uris":{"android":"levelo://app?vid=0cdb805b-a3cb-4bb7-88ce-99da075cd298","ios":"levelo://app?vid=0cdb805b-a3cb-4bb7-88ce-99da075cd298"},"vehicle_type_id":"4","last_reported":1750021738,"current_range_meters":17200,"station_id":"ce4bgv12rcd13ifvqcp0","pricing_plan_id":"cebpf4jnsgd1na2vs0mg"},{"bike_id":"46942979-937f-4af7-9dc5-aa8a119e5e8c","system_id":"levelo_inurba_marseille","lat":43.295938,"lon":5.405508,"is_reserved":false,"is_disabled":false,"rental_uris":{"android":"levelo://app?vid=46942979-937f-4af7-9dc5-aa8a119e5e8c","ios":"levelo://app?vid=46942979-937f-4af7-9dc5-aa8a119e5e8c"},"vehicle_type_id":"4","last_reported":1750021738,"current_range_meters":17200,"station_id":"ce4bh0h2rcd13ifvqd60","pricing_plan_id":"cebpf4jnsgd1na2vs0mg"},{"bike_id":"384edf98-156d-4b16-af67-7712319498ad","system_id":"levelo_inurba_marseille","lat":43.29032,"lon":5.38645,"is_reserved":false,"is_disabled":false,"rental_uris":{"android":"levelo://app?vid=384edf98-156d-4b16-af67-7712319498ad","ios":"levelo://app?vid=384edf98-156d-4b16-af67-7712319498ad"},"vehicle_type_id":"4","last_reported":1750021738,"current_range_meters":17200,"station_id":"ce4bh4p2rcd13ifvqe0g","pricing_plan_id":"cebpf4jnsgd1na2vs0mg"},{"bike_id":"0e314e4b-4c78-4833-bd1d-74f58304ca0b","system_id":"levelo_inurba_marseille","lat":43.30428,"lon":5.3974,"is_reserved":false,"is_disabled":false,"rental_uris":{"android":"levelo://app?vid=0e314e4b-4c78-4833-bd1d-74f58304ca0b","ios":"levelo://app?vid=0e314e4b-4c78-4833-bd1d-74f58304ca0b"},"vehicle_type_id":"4","last_reported":1750021738,"current_range_meters":17600,"station_id":"ce4bh092rcd13ifvqd20","pricing_plan_id":"cebpf4jnsgd1na2vs0mg"},{"bike_id":"9b507986-a268-4473-8f7a-6482e1106fc5","system_id":"levelo_inurba_marseille","lat":43.26552,"lon":5.3729,"is_reserved":false,"is_disabled":false,"rental_uris":{"android":"levelo://app?vid=9b507986-a268-4473-8f7a-6482e1106fc5","ios":"levelo://app?vid=9b507986-a268-4473-8f7a-6482e1106fc5"},"vehicle_type_id":"4","last_reported":1750021738,"current_range_meters":17600,"station_id":"ce4bhg12rcd13ifvqf70","pricing_plan_id":"cebpf4jnsgd1na2vs0mg"},{"bike_id":"28a4af07-b22d-428b-b25a-4422731f0622","system_id":"levelo_inurba_marseille","lat":43.26064,"lon":5.3939,"is_reserved":false,"is_disabled":false,"rental_uris":{"android":"levelo://app?vid=28a4af07-b22d-428b-b25a-4422731f0622","ios":"levelo://app?vid=28a4af07-b22d-428b-b25a-4422731f0622"},"vehicle_type_id":"4","last_reported":1750021738,"current_range_meters":17600,"station_id":"ce4bhh92rcd13ifvqfj0","pricing_plan_id":"cebpf4jnsgd1na2vs0mg"},{"bike_id":"73e26835-3663-452f-96b6-53015ab23682","system_id":"levelo_inurba_marseille","lat":43.28705,"lon":5.39989,"is_reserved":false,"is_disabled":false,"rental_uris":{"android":"levelo://app?vid=73e26835-3663-452f-96b6-53015ab23682","ios":"levelo://app?vid=73e26835-3663-452f-96b6-53015ab23682"},"vehicle_type_id":"4","last_reported":1750021738,"current_range_meters":17600,"station_id":"ce4bho92rcd13ifvqh3g","pricing_plan_id":"cebpf4jnsgd1na2vs0mg"},{"bike_id":"fb4f0e2c-93ee-4b32-99a9-35b8de454d51","system_id":"levelo_inurba_marseille","lat":43.30258,"lon":5.40071,"is_reserved":false,"is_disabled":false,"rental_uris":{"android":"levelo://app?vid=fb4f0e2c-93ee-4b32-99a9-35b8de454d51","ios":"levelo://app?vid=fb4f0e2c-93ee-4b32-99a9-35b8de454d51"},"vehicle_type_id":"4","last_reported":1750021738,"current_range_meters":18000,"station_id":"ce4bgvh2rcd13ifvqcs0","pricing_plan_id":"cebpf4jnsgd1na2vs0mg"},{"bike_id":"4514ac7f-acda-4332-a897-7ddd854f027d","system_id":"levelo_inurba_marseille","lat":43.30936,"lon":5.40153,"is_reserved":false,"is_disabled":false,"rental_uris":{"android":"levelo://app?vid=4514ac7f-acda-4332-a897-7ddd854f027d","ios":"levelo://app?vid=4514ac7f-acda-4332-a897-7ddd854f027d"},"vehicle_type_id":"4","last_reported":1750021738,"current_range_meters":18000,"station_id":"ce4bgvp2rcd13ifvqct0","pricing_plan_id":"cebpf4jnsgd1na2vs0mg"},{"bike_id":"f9de72c2-0951-4ee0-8d52-f0270a2fd45d","system_id":"levelo_inurba_marseille","lat":43.29422,"lon":5.38598,"is_reserved":false,"is_disabled":false,"rental_uris":{"android":"levelo://app?vid=f9de72c2-0951-4ee0-8d52-f0270a2fd45d","ios":"levelo://app?vid=f9de72c2-0951-4ee0-8d52-f0270a2fd45d"},"vehicle_type_id":"4","last_reported":1750021738,"current_range_meters":18000,"station_id":"ce4bh2h2rcd13ifvqdh0","pricing_plan_id":"cebpf4jnsgd1na2vs0mg"},{"bike_id":"fac33551-6997-41fb-b1bd-7cd9d4365c77","system_id":"levelo_inurba_marseille","lat":43.2621,"lon":5.37439,"is_reserved":false,"is_disabled":false,"rental_uris":{"android":"levelo://app?vid=fac33551-6997-41fb-b1bd-7cd9d4365c77","ios":"levelo://app?vid=fac33551-6997-41fb-b1bd-7cd9d4365c77"},"vehicle_type_id":"4","last_reported":1750021738,"current_range_meters":18000,"station_id":"ce4bhgp2rcd13ifvqfc0","pricing_plan_id":"cebpf4jnsgd1na2vs0mg"},{"bike_id":"03763c60-3a67-4e39-a9c3-e820a982f1bc","system_id":"levelo_inurba_marseille","lat":43.26235,"lon":5.40452,"is_reserved":false,"is_disabled":false,"rental_uris":{"android":"levelo://app?vid=03763c60-3a67-4e39-a9c3-e820a982f1bc","ios":"levelo://app?vid=03763c60-3a67-4e39-a9c3-e820a982f1bc"},"vehicle_type_id":"4","last_reported":1750021738,"current_range_meters":18000,"station_id":"ce4bhmh2rcd13ifvqgmg","pricing_plan_id":"cebpf4jnsgd1na2vs0mg"},{"bike_id":"6f904e79-074e-44f7-a4ee-8b0cd00a4a95","system_id":"levelo_inurba_marseille","lat":43.2119,"lon":5.35081,"is_reserved":false,"is_disabled":false,"rental_uris":{"android":"levelo://app?vid=6f904e79-074e-44f7-a4ee-8b0cd00a4a95","ios":"levelo://app?vid=6f904e79-074e-44f7-a4ee-8b0cd00a4a95"},"vehicle_type_id":"4","last_reported":1750021738,"current_range_meters":18000,"station_id":"st_cvj6sg6p6f1abm77japg","pricing_plan_id":"cebpf4jnsgd1na2vs0mg"},{"bike_id":"823c3d03-c2fe-4da7-968a-ef6c458adb2a","system_id":"levelo_inurba_marseille","lat":43.29491,"lon":5.38041,"is_reserved":false,"is_disabled":false,"rental_uris":{"android":"levelo://app?vid=823c3d03-c2fe-4da7-968a-ef6c458adb2a","ios":"levelo://app?vid=823c3d03-c2fe-4da7-968a-ef6c458adb2a"},"vehicle_type_id":"4","last_reported":1750021738,"current_range_meters":18800,"station_id":"","pricing_plan_id":"cebpf4jnsgd1na2vs0mg"},{"bike_id":"c937b220-d077-480a-817b-887f33f079c0","system_id":"levelo_inurba_marseille","lat":43.31778,"lon":5.37212,"is_reserved":false,"is_disabled":false,"rental_uris":{"android":"levelo://app?vid=c937b220-d077-480a-817b-887f33f079c0","ios":"levelo://app?vid=c937b220-d077-480a-817b-887f33f079c0"},"vehicle_type_id":"4","last_reported":1750021738,"current_range_meters":18800,"station_id":"","pricing_plan_id":"cebpf4jnsgd1na2vs0mg"},{"bike_id":"b31d3165-d5e1-4bc6-a607-ca1a1c981148","system_id":"levelo_inurba_marseille","lat":43.27577,"lon":5.41748,"is_reserved":false,"is_disabled":false,"rental_uris":{"android":"levelo://app?vid=b31d3165-d5e1-4bc6-a607-ca1a1c981148","ios":"levelo://app?vid=b31d3165-d5e1-4bc6-a607-ca1a1c981148"},"vehicle_type_id":"4","last_reported":1750021738,"current_range_meters":18800,"station_id":"","pricing_plan_id":"cebpf4jnsgd1na2vs0mg"},{"bike_id":"c9c5a751-3016-4b58-b7bd-484959af8d47","system_id":"levelo_inurba_marseille","lat":43.30425,"lon":5.38885,"is_reserved":false,"is_disabled":false,"rental_uris":{"android":"levelo://app?vid=c9c5a751-3016-4b58-b7bd-484959af8d47","ios":"levelo://app?vid=c9c5a751-3016-4b58-b7bd-484959af8d47"},"vehicle_type_id":"4","last_reported":1750021738,"current_range_meters":18800,"station_id":"ce4bgk12rcd13ifvqbi0","pricing_plan_id":"cebpf4jnsgd1na2vs0mg"},{"bike_id":"1b267899-4c41-4122-862f-3b9dc1fcc703","system_id":"levelo_inurba_marseille","lat":43.29279,"lon":5.40121,"is_reserved":false,"is_disabled":false,"rental_uris":{"android":"levelo://app?vid=1b267899-4c41-4122-862f-3b9dc1fcc703","ios":"levelo://app?vid=1b267899-4c41-4122-862f-3b9dc1fcc703"},"vehicle_type_id":"4","last_reported":1750021738,"current_range_meters":18800,"station_id":"ce4bh312rcd13ifvqdk0","pricing_plan_id":"cebpf4jnsgd1na2vs0mg"},{"bike_id":"b200674b-2afa-40ff-b238-2359448b6baf","system_id":"levelo_inurba_marseille","lat":43.23209,"lon":5.35553,"is_reserved":false,"is_disabled":false,"rental_uris":{"android":"levelo://app?vid=b200674b-2afa-40ff-b238-2359448b6baf","ios":"levelo://app?vid=b200674b-2afa-40ff-b238-2359448b6baf"},"vehicle_type_id":"4","last_reported":1750021738,"current_range_meters":18800,"station_id":"ce4bhu92rcd13ifvqi70","pricing_plan_id":"cebpf4jnsgd1na2vs0mg"},{"bike_id":"826f0ca3-e5fc-4cf8-8696-cb1fe62172b3","system_id":"levelo_inurba_marseille","lat":43.211981,"lon":5.350663,"is_reserved":false,"is_disabled":false,"rental_uris":{"android":"levelo://app?vid=826f0ca3-e5fc-4cf8-8696-cb1fe62172b3","ios":"levelo://app?vid=826f0ca3-e5fc-4cf8-8696-cb1fe62172b3"},"vehicle_type_id":"4","last_reported":1750021738,"current_range_meters":19200,"station_id":"","pricing_plan_id":"cebpf4jnsgd1na2vs0mg"},{"bike_id":"bd7bc889-0ace-44ba-adc2-5e336bdf27e2","system_id":"levelo_inurba_marseille","lat":43.30954,"lon":5.3749,"is_reserved":false,"is_disabled":false,"rental_uris":{"android":"levelo://app?vid=bd7bc889-0ace-44ba-adc2-5e336bdf27e2","ios":"levelo://app?vid=bd7bc889-0ace-44ba-adc2-5e336bdf27e2"},"vehicle_type_id":"4","last_reported":1750021738,"current_range_meters":19200,"station_id":"","pricing_plan_id":"cebpf4jnsgd1na2vs0mg"},{"bike_id":"6ec0f508-3723-47f5-b9fb-b7defb0a19f6","system_id":"levelo_inurba_marseille","lat":43.30428,"lon":5.39753,"is_reserved":false,"is_disabled":false,"rental_uris":{"android":"levelo://app?vid=6ec0f508-3723-47f5-b9fb-b7defb0a19f6","ios":"levelo://app?vid=6ec0f508-3723-47f5-b9fb-b7defb0a19f6"},"vehicle_type_id":"4","last_reported":1750021738,"current_range_meters":19200,"station_id":"ce4bh092rcd13ifvqd20","pricing_plan_id":"cebpf4jnsgd1na2vs0mg"},{"bike_id":"f4960cb7-92f3-48e4-a1cc-a2b8a605a4b3","system_id":"levelo_inurba_marseille","lat":43.337661,"lon":5.37425,"is_reserved":false,"is_disabled":false,"rental_uris":{"android":"levelo://app?vid=f4960cb7-92f3-48e4-a1cc-a2b8a605a4b3","ios":"levelo://app?vid=f4960cb7-92f3-48e4-a1cc-a2b8a605a4b3"},"vehicle_type_id":"4","last_reported":1750021738,"current_range_meters":19600,"station_id":"","pricing_plan_id":"cebpf4jnsgd1na2vs0mg"},{"bike_id":"132c9ae3-51e4-4859-afa4-1806880aa908","system_id":"levelo_inurba_marseille","lat":43.30928,"lon":5.40145,"is_reserved":false,"is_disabled":false,"rental_uris":{"android":"levelo://app?vid=132c9ae3-51e4-4859-afa4-1806880aa908","ios":"levelo://app?vid=132c9ae3-51e4-4859-afa4-1806880aa908"},"vehicle_type_id":"4","last_reported":1750021738,"current_range_meters":19600,"station_id":"ce4bgvp2rcd13ifvqct0","pricing_plan_id":"cebpf4jnsgd1na2vs0mg"},{"bike_id":"787202cd-3fd4-45ca-b80f-29165aa512bc","system_id":"levelo_inurba_marseille","lat":43.269688,"lon":5.423577,"is_reserved":false,"is_disabled":false,"rental_uris":{"android":"levelo://app?vid=787202cd-3fd4-45ca-b80f-29165aa512bc","ios":"levelo://app?vid=787202cd-3fd4-45ca-b80f-29165aa512bc"},"vehicle_type_id":"4","last_reported":1750021738,"current_range_meters":19600,"station_id":"ce4bhk92rcd13ifvqgb0","pricing_plan_id":"cebpf4jnsgd1na2vs0mg"},{"bike_id":"555dc4d9-9d60-4fce-8569-2b6826cdee81","system_id":"levelo_inurba_marseille","lat":43.32669,"lon":5.40971,"is_reserved":false,"is_disabled":false,"rental_uris":{"android":"levelo://app?vid=555dc4d9-9d60-4fce-8569-2b6826cdee81","ios":"levelo://app?vid=555dc4d9-9d60-4fce-8569-2b6826cdee81"},"vehicle_type_id":"4","last_reported":1750021738,"current_range_meters":19600,"station_id":"ce4bhpp2rcd13ifvqhgg","pricing_plan_id":"cebpf4jnsgd1na2vs0mg"},{"bike_id":"4971e09a-6fa0-4d6b-8fcb-78ca44f02791","system_id":"levelo_inurba_marseille","lat":43.301701,"lon":5.4535,"is_reserved":false,"is_disabled":false,"rental_uris":{"android":"levelo://app?vid=4971e09a-6fa0-4d6b-8fcb-78ca44f02791","ios":"levelo://app?vid=4971e09a-6fa0-4d6b-8fcb-78ca44f02791"},"vehicle_type_id":"4","last_reported":1750021738,"current_range_meters":20000,"station_id":"","pricing_plan_id":"cebpf4jnsgd1na2vs0mg"},{"bike_id":"f1879e4d-39cc-4350-b090-b0ddfac8f42e","system_id":"levelo_inurba_marseille","lat":43.313393,"lon":5.367187,"is_reserved":false,"is_disabled":false,"rental_uris":{"android":"levelo://app?vid=f1879e4d-39cc-4350-b090-b0ddfac8f42e","ios":"levelo://app?vid=f1879e4d-39cc-4350-b090-b0ddfac8f42e"},"vehicle_type_id":"4","last_reported":1750021738,"current_range_meters":20000,"station_id":"ce4bgr92rcd13ifvqc6g","pricing_plan_id":"cebpf4jnsgd1na2vs0mg"},{"bike_id":"66a432f4-a2ed-4eb8-bc92-2c8026dd2b5a","system_id":"levelo_inurba_marseille","lat":43.30798,"lon":5.3815,"is_reserved":false,"is_disabled":false,"rental_uris":{"android":"levelo://app?vid=66a432f4-a2ed-4eb8-bc92-2c8026dd2b5a","ios":"levelo://app?vid=66a432f4-a2ed-4eb8-bc92-2c8026dd2b5a"},"vehicle_type_id":"4","last_reported":1750021738,"current_range_meters":20000,"station_id":"ce4bgt12rcd13ifvqce0","pricing_plan_id":"cebpf4jnsgd1na2vs0mg"},{"bike_id":"bd205f51-48ca-498c-bcee-557862349652","system_id":"levelo_inurba_marseille","lat":43.30875,"lon":5.39633,"is_reserved":false,"is_disabled":false,"rental_uris":{"android":"levelo://app?vid=bd205f51-48ca-498c-bcee-557862349652","ios":"levelo://app?vid=bd205f51-48ca-498c-bcee-557862349652"},"vehicle_type_id":"4","last_reported":1750021738,"current_range_meters":20000,"station_id":"ce4bh012rcd13ifvqcv0","pricing_plan_id":"cebpf4jnsgd1na2vs0mg"},{"bike_id":"c9413947-cc85-4a96-8ab5-2ff7f2c42362","system_id":"levelo_inurba_marseille","lat":43.291,"lon":5.3813,"is_reserved":false,"is_disabled":false,"rental_uris":{"android":"levelo://app?vid=c9413947-cc85-4a96-8ab5-2ff7f2c42362","ios":"levelo://app?vid=c9413947-cc85-4a96-8ab5-2ff7f2c42362"},"vehicle_type_id":"4","last_reported":1750021738,"current_range_meters":20000,"station_id":"ce4bh512rcd13ifvqe2g","pricing_plan_id":"cebpf4jnsgd1na2vs0mg"},{"bike_id":"faa117da-e66d-47bd-a3ab-4ba301a83ff3","system_id":"levelo_inurba_marseille","lat":43.24653,"lon":5.38894,"is_reserved":false,"is_disabled":false,"rental_uris":{"android":"levelo://app?vid=faa117da-e66d-47bd-a3ab-4ba301a83ff3","ios":"levelo://app?vid=faa117da-e66d-47bd-a3ab-4ba301a83ff3"},"vehicle_type_id":"4","last_reported":1750021738,"current_range_meters":20000,"station_id":"ce4bhg12rcd13ifvqf60","pricing_plan_id":"cebpf4jnsgd1na2vs0mg"},{"bike_id":"8c90d53b-ea14-483e-a92e-e276e953fd7c","system_id":"levelo_inurba_marseille","lat":43.28717,"lon":5.36088,"is_reserved":false,"is_disabled":false,"rental_uris":{"android":"levelo://app?vid=8c90d53b-ea14-483e-a92e-e276e953fd7c","ios":"levelo://app?vid=8c90d53b-ea14-483e-a92e-e276e953fd7c"},"vehicle_type_id":"4","last_reported":1750021738,"current_range_meters":20000,"station_id":"cki0cbj6b192h4jlfktg","pricing_plan_id":"cebpf4jnsgd1na2vs0mg"},{"bike_id":"55dd7949-783e-4310-8796-3c4768d43289","system_id":"levelo_inurba_marseille","lat":43.27064,"lon":5.42269,"is_reserved":false,"is_disabled":false,"rental_uris":{"android":"levelo://app?vid=55dd7949-783e-4310-8796-3c4768d43289","ios":"levelo://app?vid=55dd7949-783e-4310-8796-3c4768d43289"},"vehicle_type_id":"4","last_reported":1750021738,"current_range_meters":20400,"station_id":"ce4bhk92rcd13ifvqgb0","pricing_plan_id":"cebpf4jnsgd1na2vs0mg"},{"bike_id":"9dfed0a7-6e89-4568-97a9-f1ca3306a490","system_id":"levelo_inurba_marseille","lat":43.32472,"lon":5.36546,"is_reserved":false,"is_disabled":false,"rental_uris":{"android":"levelo://app?vid=9dfed0a7-6e89-4568-97a9-f1ca3306a490","ios":"levelo://app?vid=9dfed0a7-6e89-4568-97a9-f1ca3306a490"},"vehicle_type_id":"4","last_reported":1750021738,"current_range_meters":20400,"station_id":"ce4bhs12rcd13ifvqhvg","pricing_plan_id":"cebpf4jnsgd1na2vs0mg"},{"bike_id":"c20451b8-ea3d-49aa-99f8-dc989295f9b4","system_id":"levelo_inurba_marseille","lat":43.23054,"lon":5.35487,"is_reserved":false,"is_disabled":false,"rental_uris":{"android":"levelo://app?vid=c20451b8-ea3d-49aa-99f8-dc989295f9b4","ios":"levelo://app?vid=c20451b8-ea3d-49aa-99f8-dc989295f9b4"},"vehicle_type_id":"4","last_reported":1750021738,"current_range_meters":20400,"station_id":"cpo3342slgdg3j2ifvpg","pricing_plan_id":"cebpf4jnsgd1na2vs0mg"},{"bike_id":"95038681-fd25-414a-80de-b6998bf38cad","system_id":"levelo_inurba_marseille","lat":43.29925,"lon":5.36524,"is_reserved":false,"is_disabled":false,"rental_uris":{"android":"levelo://app?vid=95038681-fd25-414a-80de-b6998bf38cad","ios":"levelo://app?vid=95038681-fd25-414a-80de-b6998bf38cad"},"vehicle_type_id":"4","last_reported":1750021738,"current_range_meters":20800,"station_id":"ce4bgm92rcd13ifvqbr0","pricing_plan_id":"cebpf4jnsgd1na2vs0mg"},{"bike_id":"5387186e-af2c-49a0-b0e9-043cb6c17740","system_id":"levelo_inurba_marseille","lat":43.27809,"lon":5.40713,"is_reserved":false,"is_disabled":false,"rental_uris":{"android":"levelo://app?vid=5387186e-af2c-49a0-b0e9-043cb6c17740","ios":"levelo://app?vid=5387186e-af2c-49a0-b0e9-043cb6c17740"},"vehicle_type_id":"4","last_reported":1750021738,"current_range_meters":20800,"station_id":"ce4bhnh2rcd13ifvqgtg","pricing_plan_id":"cebpf4jnsgd1na2vs0mg"},{"bike_id":"e612b7a7-3207-4aae-b53e-c8d480fc9283","system_id":"levelo_inurba_marseille","lat":43.23192,"lon":5.35559,"is_reserved":false,"is_disabled":false,"rental_uris":{"android":"levelo://app?vid=e612b7a7-3207-4aae-b53e-c8d480fc9283","ios":"levelo://app?vid=e612b7a7-3207-4aae-b53e-c8d480fc9283"},"vehicle_type_id":"4","last_reported":1750021738,"current_range_meters":20800,"station_id":"ce4bhu92rcd13ifvqi70","pricing_plan_id":"cebpf4jnsgd1na2vs0mg"},{"bike_id":"e7d7eb57-81ab-416d-b2ba-0d5817ccb8c0","system_id":"levelo_inurba_marseille","lat":43.30546,"lon":5.36521,"is_reserved":false,"is_disabled":false,"rental_uris":{"android":"levelo://app?vid=e7d7eb57-81ab-416d-b2ba-0d5817ccb8c0","ios":"levelo://app?vid=e7d7eb57-81ab-416d-b2ba-0d5817ccb8c0"},"vehicle_type_id":"4","last_reported":1750021738,"current_range_meters":21600,"station_id":"ce4bgs12rcd13ifvqcag","pricing_plan_id":"cebpf4jnsgd1na2vs0mg"},{"bike_id":"db696f9f-9ecc-4e26-bd9c-bd73bc64204b","system_id":"levelo_inurba_marseille","lat":43.2991,"lon":5.43658,"is_reserved":false,"is_disabled":false,"rental_uris":{"android":"levelo://app?vid=db696f9f-9ecc-4e26-bd9c-bd73bc64204b","ios":"levelo://app?vid=db696f9f-9ecc-4e26-bd9c-bd73bc64204b"},"vehicle_type_id":"4","last_reported":1750021738,"current_range_meters":21600,"station_id":"ce4bhpp2rcd13ifvqhfg","pricing_plan_id":"cebpf4jnsgd1na2vs0mg"},{"bike_id":"4d9aac4c-dd01-43e5-b36c-e3090ea2fc94","system_id":"levelo_inurba_marseille","lat":43.3015,"lon":5.38093,"is_reserved":false,"is_disabled":false,"rental_uris":{"android":"levelo://app?vid=4d9aac4c-dd01-43e5-b36c-e3090ea2fc94","ios":"levelo://app?vid=4d9aac4c-dd01-43e5-b36c-e3090ea2fc94"},"vehicle_type_id":"4","last_reported":1750021738,"current_range_meters":22000,"station_id":"ce4bgjp2rcd13ifvqbh0","pricing_plan_id":"cebpf4jnsgd1na2vs0mg"},{"bike_id":"5ca3c7b6-04e0-4c8a-b661-3639547ed1dc","system_id":"levelo_inurba_marseille","lat":43.29254,"lon":5.40911,"is_reserved":false,"is_disabled":false,"rental_uris":{"android":"levelo://app?vid=5ca3c7b6-04e0-4c8a-b661-3639547ed1dc","ios":"levelo://app?vid=5ca3c7b6-04e0-4c8a-b661-3639547ed1dc"},"vehicle_type_id":"4","last_reported":1750021738,"current_range_meters":22000,"station_id":"ce4bh192rcd13ifvqdc0","pricing_plan_id":"cebpf4jnsgd1na2vs0mg"},{"bike_id":"b4d97a99-b27f-4062-ac12-cc01084214b1","system_id":"levelo_inurba_marseille","lat":43.25486,"lon":5.37647,"is_reserved":false,"is_disabled":false,"rental_uris":{"android":"levelo://app?vid=b4d97a99-b27f-4062-ac12-cc01084214b1","ios":"levelo://app?vid=b4d97a99-b27f-4062-ac12-cc01084214b1"},"vehicle_type_id":"4","last_reported":1750021738,"current_range_meters":22000,"station_id":"ce4bhh12rcd13ifvqff0","pricing_plan_id":"cebpf4jnsgd1na2vs0mg"},{"bike_id":"622da7e0-7deb-43fc-8cba-7ebcd8507286","system_id":"levelo_inurba_marseille","lat":43.26957,"lon":5.38641,"is_reserved":false,"is_disabled":false,"rental_uris":{"android":"levelo://app?vid=622da7e0-7deb-43fc-8cba-7ebcd8507286","ios":"levelo://app?vid=622da7e0-7deb-43fc-8cba-7ebcd8507286"},"vehicle_type_id":"4","last_reported":1750021738,"current_range_meters":22000,"station_id":"ce4bhh92rcd13ifvqfh0","pricing_plan_id":"cebpf4jnsgd1na2vs0mg"},{"bike_id":"0fd57502-c8c8-401c-abe8-478c81ce99a3","system_id":"levelo_inurba_marseille","lat":43.33602,"lon":5.41033,"is_reserved":false,"is_disabled":false,"rental_uris":{"android":"levelo://app?vid=0fd57502-c8c8-401c-abe8-478c81ce99a3","ios":"levelo://app?vid=0fd57502-c8c8-401c-abe8-478c81ce99a3"},"vehicle_type_id":"4","last_reported":1750021738,"current_range_meters":22000,"station_id":"ce4bhqh2rcd13ifvqhmg","pricing_plan_id":"cebpf4jnsgd1na2vs0mg"},{"bike_id":"bc2dc52b-2959-420a-a63b-6467e11fdae6","system_id":"levelo_inurba_marseille","lat":43.2694,"lon":5.40257,"is_reserved":false,"is_disabled":false,"rental_uris":{"android":"levelo://app?vid=bc2dc52b-2959-420a-a63b-6467e11fdae6","ios":"levelo://app?vid=bc2dc52b-2959-420a-a63b-6467e11fdae6"},"vehicle_type_id":"4","last_reported":1750021738,"current_range_meters":22000,"station_id":"cjm6bp8fraef2m0cb0m0","pricing_plan_id":"cebpf4jnsgd1na2vs0mg"},{"bike_id":"b38da09b-f621-4f83-85a7-31d404e707f9","system_id":"levelo_inurba_marseille","lat":43.253143,"lon":5.393763,"is_reserved":false,"is_disabled":false,"rental_uris":{"android":"levelo://app?vid=b38da09b-f621-4f83-85a7-31d404e707f9","ios":"levelo://app?vid=b38da09b-f621-4f83-85a7-31d404e707f9"},"vehicle_type_id":"4","last_reported":1750021738,"current_range_meters":22400,"station_id":"","pricing_plan_id":"cebpf4jnsgd1na2vs0mg"},{"bike_id":"cb59c9e5-9fc3-40ca-bcf8-8f6ee1d13043","system_id":"levelo_inurba_marseille","lat":43.30533,"lon":5.3657,"is_reserved":false,"is_disabled":false,"rental_uris":{"android":"levelo://app?vid=cb59c9e5-9fc3-40ca-bcf8-8f6ee1d13043","ios":"levelo://app?vid=cb59c9e5-9fc3-40ca-bcf8-8f6ee1d13043"},"vehicle_type_id":"4","last_reported":1750021738,"current_range_meters":22400,"station_id":"ce4bgs12rcd13ifvqcag","pricing_plan_id":"cebpf4jnsgd1na2vs0mg"},{"bike_id":"c728e5f5-1198-469c-ba72-8e733489267c","system_id":"levelo_inurba_marseille","lat":43.30134,"lon":5.39869,"is_reserved":false,"is_disabled":false,"rental_uris":{"android":"levelo://app?vid=c728e5f5-1198-469c-ba72-8e733489267c","ios":"levelo://app?vid=c728e5f5-1198-469c-ba72-8e733489267c"},"vehicle_type_id":"4","last_reported":1750021738,"current_range_meters":22400,"station_id":"ce4bh0h2rcd13ifvqd40","pricing_plan_id":"cebpf4jnsgd1na2vs0mg"},{"bike_id":"525976f2-7f62-47f1-8e65-83354045c3df","system_id":"levelo_inurba_marseille","lat":43.28077,"lon":5.39661,"is_reserved":false,"is_disabled":false,"rental_uris":{"android":"levelo://app?vid=525976f2-7f62-47f1-8e65-83354045c3df","ios":"levelo://app?vid=525976f2-7f62-47f1-8e65-83354045c3df"},"vehicle_type_id":"4","last_reported":1750021738,"current_range_meters":22400,"station_id":"ce4bho12rcd13ifvqh2g","pricing_plan_id":"cebpf4jnsgd1na2vs0mg"},{"bike_id":"8f56e5e0-6f64-45fe-b6c5-39a21ac7c10c","system_id":"levelo_inurba_marseille","lat":43.32371,"lon":5.38899,"is_reserved":false,"is_disabled":false,"rental_uris":{"android":"levelo://app?vid=8f56e5e0-6f64-45fe-b6c5-39a21ac7c10c","ios":"levelo://app?vid=8f56e5e0-6f64-45fe-b6c5-39a21ac7c10c"},"vehicle_type_id":"4","last_reported":1750021738,"current_range_meters":22400,"station_id":"ce4bhqp2rcd13ifvqhog","pricing_plan_id":"cebpf4jnsgd1na2vs0mg"},{"bike_id":"113b35ba-4bfc-4653-9981-9c94fd020996","system_id":"levelo_inurba_marseille","lat":43.23205,"lon":5.35544,"is_reserved":false,"is_disabled":false,"rental_uris":{"android":"levelo://app?vid=113b35ba-4bfc-4653-9981-9c94fd020996","ios":"levelo://app?vid=113b35ba-4bfc-4653-9981-9c94fd020996"},"vehicle_type_id":"4","last_reported":1750021738,"current_range_meters":22400,"station_id":"ce4bhu92rcd13ifvqi70","pricing_plan_id":"cebpf4jnsgd1na2vs0mg"},{"bike_id":"f8f5c739-72f4-49b1-b3d4-90e1f195211d","system_id":"levelo_inurba_marseille","lat":43.21202,"lon":5.35074,"is_reserved":false,"is_disabled":false,"rental_uris":{"android":"levelo://app?vid=f8f5c739-72f4-49b1-b3d4-90e1f195211d","ios":"levelo://app?vid=f8f5c739-72f4-49b1-b3d4-90e1f195211d"},"vehicle_type_id":"4","last_reported":1750021738,"current_range_meters":22400,"station_id":"st_cvj6sg6p6f1abm77japg","pricing_plan_id":"cebpf4jnsgd1na2vs0mg"},{"bike_id":"35bed12d-6a39-4aeb-8d8a-dc1504df26a5","system_id":"levelo_inurba_marseille","lat":43.25385,"lon":5.419,"is_reserved":false,"is_disabled":false,"rental_uris":{"android":"levelo://app?vid=35bed12d-6a39-4aeb-8d8a-dc1504df26a5","ios":"levelo://app?vid=35bed12d-6a39-4aeb-8d8a-dc1504df26a5"},"vehicle_type_id":"4","last_reported":1750021738,"current_range_meters":22800,"station_id":"","pricing_plan_id":"cebpf4jnsgd1na2vs0mg"},{"bike_id":"d75b1572-9902-41c6-a68a-3f83cc7e91c2","system_id":"levelo_inurba_marseille","lat":43.31488,"lon":5.3731,"is_reserved":false,"is_disabled":false,"rental_uris":{"android":"levelo://app?vid=d75b1572-9902-41c6-a68a-3f83cc7e91c2","ios":"levelo://app?vid=d75b1572-9902-41c6-a68a-3f83cc7e91c2"},"vehicle_type_id":"4","last_reported":1750021738,"current_range_meters":22800,"station_id":"ce4bgt12rcd13ifvqcd0","pricing_plan_id":"cebpf4jnsgd1na2vs0mg"},{"bike_id":"64cd4ba8-7396-4f4d-a628-effbb81349a0","system_id":"levelo_inurba_marseille","lat":43.26499,"lon":5.39539,"is_reserved":false,"is_disabled":false,"rental_uris":{"android":"levelo://app?vid=64cd4ba8-7396-4f4d-a628-effbb81349a0","ios":"levelo://app?vid=64cd4ba8-7396-4f4d-a628-effbb81349a0"},"vehicle_type_id":"4","last_reported":1750021738,"current_range_meters":22800,"station_id":"ce4bhi12rcd13ifvqfq0","pricing_plan_id":"cebpf4jnsgd1na2vs0mg"},{"bike_id":"fa1edba4-f090-4873-b496-11eff1d6aaa9","system_id":"levelo_inurba_marseille","lat":43.2434,"lon":5.4121,"is_reserved":false,"is_disabled":false,"rental_uris":{"android":"levelo://app?vid=fa1edba4-f090-4873-b496-11eff1d6aaa9","ios":"levelo://app?vid=fa1edba4-f090-4873-b496-11eff1d6aaa9"},"vehicle_type_id":"4","last_reported":1750021738,"current_range_meters":23200,"station_id":"","pricing_plan_id":"cebpf4jnsgd1na2vs0mg"},{"bike_id":"b624d201-2b28-4662-a600-a7cce0c1da03","system_id":"levelo_inurba_marseille","lat":43.30098,"lon":5.39077,"is_reserved":false,"is_disabled":false,"rental_uris":{"android":"levelo://app?vid=b624d201-2b28-4662-a600-a7cce0c1da03","ios":"levelo://app?vid=b624d201-2b28-4662-a600-a7cce0c1da03"},"vehicle_type_id":"4","last_reported":1750021738,"current_range_meters":23200,"station_id":"ce4bh192rcd13ifvqdb0","pricing_plan_id":"cebpf4jnsgd1na2vs0mg"},{"bike_id":"a5605d9c-1d6c-47ae-b81d-6e65cb8eb85c","system_id":"levelo_inurba_marseille","lat":43.26059,"lon":5.39389,"is_reserved":false,"is_disabled":false,"rental_uris":{"android":"levelo://app?vid=a5605d9c-1d6c-47ae-b81d-6e65cb8eb85c","ios":"levelo://app?vid=a5605d9c-1d6c-47ae-b81d-6e65cb8eb85c"},"vehicle_type_id":"4","last_reported":1750021738,"current_range_meters":23200,"station_id":"ce4bhh92rcd13ifvqfj0","pricing_plan_id":"cebpf4jnsgd1na2vs0mg"},{"bike_id":"dc58d88b-3a92-40ad-879e-e5349f26d4e0","system_id":"levelo_inurba_marseille","lat":43.23179,"lon":5.39991,"is_reserved":false,"is_disabled":false,"rental_uris":{"android":"levelo://app?vid=dc58d88b-3a92-40ad-879e-e5349f26d4e0","ios":"levelo://app?vid=dc58d88b-3a92-40ad-879e-e5349f26d4e0"},"vehicle_type_id":"4","last_reported":1750021738,"current_range_meters":23200,"station_id":"ce4bhn12rcd13ifvqgqg","pricing_plan_id":"cebpf4jnsgd1na2vs0mg"},{"bike_id":"0f56cbe8-e80d-47ef-a468-8a0275987ea6","system_id":"levelo_inurba_marseille","lat":43.28701,"lon":5.3999,"is_reserved":false,"is_disabled":false,"rental_uris":{"android":"levelo://app?vid=0f56cbe8-e80d-47ef-a468-8a0275987ea6","ios":"levelo://app?vid=0f56cbe8-e80d-47ef-a468-8a0275987ea6"},"vehicle_type_id":"4","last_reported":1750021738,"current_range_meters":23200,"station_id":"ce4bho92rcd13ifvqh3g","pricing_plan_id":"cebpf4jnsgd1na2vs0mg"},{"bike_id":"23a94eab-e6f9-4e49-a3ee-157d1c3c865e","system_id":"levelo_inurba_marseille","lat":43.32658,"lon":5.40985,"is_reserved":false,"is_disabled":false,"rental_uris":{"android":"levelo://app?vid=23a94eab-e6f9-4e49-a3ee-157d1c3c865e","ios":"levelo://app?vid=23a94eab-e6f9-4e49-a3ee-157d1c3c865e"},"vehicle_type_id":"4","last_reported":1750021738,"current_range_meters":23200,"station_id":"ce4bhpp2rcd13ifvqhgg","pricing_plan_id":"cebpf4jnsgd1na2vs0mg"},{"bike_id":"1ac79cd5-ec23-43d3-b4f8-ceb61207651b","system_id":"levelo_inurba_marseille","lat":43.32108,"lon":5.36778,"is_reserved":false,"is_disabled":false,"rental_uris":{"android":"levelo://app?vid=1ac79cd5-ec23-43d3-b4f8-ceb61207651b","ios":"levelo://app?vid=1ac79cd5-ec23-43d3-b4f8-ceb61207651b"},"vehicle_type_id":"4","last_reported":1750021738,"current_range_meters":23200,"station_id":"ce4bhrh2rcd13ifvqhug","pricing_plan_id":"cebpf4jnsgd1na2vs0mg"},{"bike_id":"6e109a25-b453-4c60-b595-9be2ab1913b0","system_id":"levelo_inurba_marseille","lat":43.229338,"lon":5.353656,"is_reserved":false,"is_disabled":false,"rental_uris":{"android":"levelo://app?vid=6e109a25-b453-4c60-b595-9be2ab1913b0","ios":"levelo://app?vid=6e109a25-b453-4c60-b595-9be2ab1913b0"},"vehicle_type_id":"4","last_reported":1750021738,"current_range_meters":23200,"station_id":"cpo3532slgdg3j2ikp40","pricing_plan_id":"cebpf4jnsgd1na2vs0mg"},{"bike_id":"c12de7de-5c91-4232-bff8-bcefa9eb4caf","system_id":"levelo_inurba_marseille","lat":43.26364,"lon":5.3992,"is_reserved":false,"is_disabled":false,"rental_uris":{"android":"levelo://app?vid=c12de7de-5c91-4232-bff8-bcefa9eb4caf","ios":"levelo://app?vid=c12de7de-5c91-4232-bff8-bcefa9eb4caf"},"vehicle_type_id":"4","last_reported":1750021738,"current_range_meters":24000,"station_id":"","pricing_plan_id":"cebpf4jnsgd1na2vs0mg"},{"bike_id":"ca15ba9f-1849-43a5-82f3-dbc89276d887","system_id":"levelo_inurba_marseille","lat":43.2962,"lon":5.37727,"is_reserved":false,"is_disabled":false,"rental_uris":{"android":"levelo://app?vid=ca15ba9f-1849-43a5-82f3-dbc89276d887","ios":"levelo://app?vid=ca15ba9f-1849-43a5-82f3-dbc89276d887"},"vehicle_type_id":"4","last_reported":1750021738,"current_range_meters":24000,"station_id":"ce4bgi92rcd13ifvqb90","pricing_plan_id":"cebpf4jnsgd1na2vs0mg"},{"bike_id":"c11fcc84-93c7-4b2a-911c-dbb652e242ba","system_id":"levelo_inurba_marseille","lat":43.28655,"lon":5.36345,"is_reserved":false,"is_disabled":false,"rental_uris":{"android":"levelo://app?vid=c11fcc84-93c7-4b2a-911c-dbb652e242ba","ios":"levelo://app?vid=c11fcc84-93c7-4b2a-911c-dbb652e242ba"},"vehicle_type_id":"4","last_reported":1750021738,"current_range_meters":24000,"station_id":"ce4bhah2rcd13ifvqej0","pricing_plan_id":"cebpf4jnsgd1na2vs0mg"},{"bike_id":"c8dfb0ea-7452-4653-979a-81a495939d6b","system_id":"levelo_inurba_marseille","lat":43.29891,"lon":5.43678,"is_reserved":false,"is_disabled":false,"rental_uris":{"android":"levelo://app?vid=c8dfb0ea-7452-4653-979a-81a495939d6b","ios":"levelo://app?vid=c8dfb0ea-7452-4653-979a-81a495939d6b"},"vehicle_type_id":"4","last_reported":1750021738,"current_range_meters":24000,"station_id":"ce4bhpp2rcd13ifvqhfg","pricing_plan_id":"cebpf4jnsgd1na2vs0mg"},{"bike_id":"6eb937ac-56fb-4529-beb5-6fe68138388e","system_id":"levelo_inurba_marseille","lat":43.28545,"lon":5.40561,"is_reserved":false,"is_disabled":false,"rental_uris":{"android":"levelo://app?vid=6eb937ac-56fb-4529-beb5-6fe68138388e","ios":"levelo://app?vid=6eb937ac-56fb-4529-beb5-6fe68138388e"},"vehicle_type_id":"4","last_reported":1750021738,"current_range_meters":24400,"station_id":"","pricing_plan_id":"cebpf4jnsgd1na2vs0mg"},{"bike_id":"39d32260-51d5-455a-ba53-6471389bd255","system_id":"levelo_inurba_marseille","lat":43.31979,"lon":5.37622,"is_reserved":false,"is_disabled":false,"rental_uris":{"android":"levelo://app?vid=39d32260-51d5-455a-ba53-6471389bd255","ios":"levelo://app?vid=39d32260-51d5-455a-ba53-6471389bd255"},"vehicle_type_id":"4","last_reported":1750021738,"current_range_meters":24400,"station_id":"","pricing_plan_id":"cebpf4jnsgd1na2vs0mg"},{"bike_id":"6d77edf9-1a1e-48f6-aec1-0844158ff195","system_id":"levelo_inurba_marseille","lat":43.31476,"lon":5.37301,"is_reserved":false,"is_disabled":false,"rental_uris":{"android":"levelo://app?vid=6d77edf9-1a1e-48f6-aec1-0844158ff195","ios":"levelo://app?vid=6d77edf9-1a1e-48f6-aec1-0844158ff195"},"vehicle_type_id":"4","last_reported":1750021738,"current_range_meters":24400,"station_id":"ce4bgt12rcd13ifvqcd0","pricing_plan_id":"cebpf4jnsgd1na2vs0mg"},{"bike_id":"28b890c0-b7b2-4d3f-af9c-8f54ca13c3b4","system_id":"levelo_inurba_marseille","lat":43.28398,"lon":5.37512,"is_reserved":false,"is_disabled":false,"rental_uris":{"android":"levelo://app?vid=28b890c0-b7b2-4d3f-af9c-8f54ca13c3b4","ios":"levelo://app?vid=28b890c0-b7b2-4d3f-af9c-8f54ca13c3b4"},"vehicle_type_id":"4","last_reported":1750021738,"current_range_meters":24400,"station_id":"ce4bh412rcd13ifvqds0","pricing_plan_id":"cebpf4jnsgd1na2vs0mg"},{"bike_id":"99d76a36-5d30-4131-b6b5-962f432f7553","system_id":"levelo_inurba_marseille","lat":43.27559,"lon":5.3841,"is_reserved":false,"is_disabled":false,"rental_uris":{"android":"levelo://app?vid=99d76a36-5d30-4131-b6b5-962f432f7553","ios":"levelo://app?vid=99d76a36-5d30-4131-b6b5-962f432f7553"},"vehicle_type_id":"4","last_reported":1750021738,"current_range_meters":24400,"station_id":"ce4bhh92rcd13ifvqfi0","pricing_plan_id":"cebpf4jnsgd1na2vs0mg"},{"bike_id":"df4539df-a78d-463b-aad9-1701df449941","system_id":"levelo_inurba_marseille","lat":43.27214,"lon":5.39179,"is_reserved":false,"is_disabled":false,"rental_uris":{"android":"levelo://app?vid=df4539df-a78d-463b-aad9-1701df449941","ios":"levelo://app?vid=df4539df-a78d-463b-aad9-1701df449941"},"vehicle_type_id":"4","last_reported":1750021738,"current_range_meters":24400,"station_id":"ce4bhhp2rcd13ifvqfm0","pricing_plan_id":"cebpf4jnsgd1na2vs0mg"},{"bike_id":"f0f18e80-bd65-453d-a03f-264c46db97be","system_id":"levelo_inurba_marseille","lat":43.29966,"lon":5.4132,"is_reserved":false,"is_disabled":false,"rental_uris":{"android":"levelo://app?vid=f0f18e80-bd65-453d-a03f-264c46db97be","ios":"levelo://app?vid=f0f18e80-bd65-453d-a03f-264c46db97be"},"vehicle_type_id":"4","last_reported":1750021738,"current_range_meters":24400,"station_id":"ce4bhp12rcd13ifvqh9g","pricing_plan_id":"cebpf4jnsgd1na2vs0mg"},{"bike_id":"a093f009-fb20-41c9-8562-605aa4f79866","system_id":"levelo_inurba_marseille","lat":43.304192,"lon":5.388816,"is_reserved":false,"is_disabled":false,"rental_uris":{"android":"levelo://app?vid=a093f009-fb20-41c9-8562-605aa4f79866","ios":"levelo://app?vid=a093f009-fb20-41c9-8562-605aa4f79866"},"vehicle_type_id":"4","last_reported":1750021738,"current_range_meters":24800,"station_id":"ce4bgk12rcd13ifvqbi0","pricing_plan_id":"cebpf4jnsgd1na2vs0mg"},{"bike_id":"5e071655-c8c9-4af4-b092-493d0b64283e","system_id":"levelo_inurba_marseille","lat":43.337444,"lon":5.374475,"is_reserved":false,"is_disabled":false,"rental_uris":{"android":"levelo://app?vid=5e071655-c8c9-4af4-b092-493d0b64283e","ios":"levelo://app?vid=5e071655-c8c9-4af4-b092-493d0b64283e"},"vehicle_type_id":"4","last_reported":1750021738,"current_range_meters":24800,"station_id":"ce4bgr92rcd13ifvqc6g","pricing_plan_id":"cebpf4jnsgd1na2vs0mg"},{"bike_id":"724caf0a-a332-4c79-8ade-ed4cdbc1a79b","system_id":"levelo_inurba_marseille","lat":43.31315,"lon":5.39701,"is_reserved":false,"is_disabled":false,"rental_uris":{"android":"levelo://app?vid=724caf0a-a332-4c79-8ade-ed4cdbc1a79b","ios":"levelo://app?vid=724caf0a-a332-4c79-8ade-ed4cdbc1a79b"},"vehicle_type_id":"4","last_reported":1750021738,"current_range_meters":24800,"station_id":"ce4bgvp2rcd13ifvqcu0","pricing_plan_id":"cebpf4jnsgd1na2vs0mg"},{"bike_id":"71af9ae8-37a6-428e-a821-0a8a9c721282","system_id":"levelo_inurba_marseille","lat":43.29434,"lon":5.39749,"is_reserved":false,"is_disabled":false,"rental_uris":{"android":"levelo://app?vid=71af9ae8-37a6-428e-a821-0a8a9c721282","ios":"levelo://app?vid=71af9ae8-37a6-428e-a821-0a8a9c721282"},"vehicle_type_id":"4","last_reported":1750021738,"current_range_meters":24800,"station_id":"ce4bh3h2rcd13ifvqdo0","pricing_plan_id":"cebpf4jnsgd1na2vs0mg"},{"bike_id":"d0efb712-68a8-4bd0-a908-37efdecfe7e8","system_id":"levelo_inurba_marseille","lat":43.26925,"lon":5.38916,"is_reserved":false,"is_disabled":false,"rental_uris":{"android":"levelo://app?vid=d0efb712-68a8-4bd0-a908-37efdecfe7e8","ios":"levelo://app?vid=d0efb712-68a8-4bd0-a908-37efdecfe7e8"},"vehicle_type_id":"4","last_reported":1750021738,"current_range_meters":24800,"station_id":"ce4bhhh2rcd13ifvqfl0","pricing_plan_id":"cebpf4jnsgd1na2vs0mg"},{"bike_id":"5b27f6a3-dfa4-4298-873d-1cde9d444ecd","system_id":"levelo_inurba_marseille","lat":43.32348,"lon":5.40631,"is_reserved":false,"is_disabled":false,"rental_uris":{"android":"levelo://app?vid=5b27f6a3-dfa4-4298-873d-1cde9d444ecd","ios":"levelo://app?vid=5b27f6a3-dfa4-4298-873d-1cde9d444ecd"},"vehicle_type_id":"4","last_reported":1750021738,"current_range_meters":24800,"station_id":"ce4bhq92rcd13ifvqhjg","pricing_plan_id":"cebpf4jnsgd1na2vs0mg"},{"bike_id":"d55c6d2b-5336-46f2-97dd-90834fd3b35e","system_id":"levelo_inurba_marseille","lat":43.211898,"lon":5.350687,"is_reserved":false,"is_disabled":false,"rental_uris":{"android":"levelo://app?vid=d55c6d2b-5336-46f2-97dd-90834fd3b35e","ios":"levelo://app?vid=d55c6d2b-5336-46f2-97dd-90834fd3b35e"},"vehicle_type_id":"4","last_reported":1750021738,"current_range_meters":24800,"station_id":"st_cvj6sg6p6f1abm77japg","pricing_plan_id":"cebpf4jnsgd1na2vs0mg"},{"bike_id":"8e628f81-9b1b-4066-968f-b1af6e1b58a3","system_id":"levelo_inurba_marseille","lat":43.23137,"lon":5.35487,"is_reserved":false,"is_disabled":false,"rental_uris":{"android":"levelo://app?vid=8e628f81-9b1b-4066-968f-b1af6e1b58a3","ios":"levelo://app?vid=8e628f81-9b1b-4066-968f-b1af6e1b58a3"},"vehicle_type_id":"4","last_reported":1750021738,"current_range_meters":25200,"station_id":"","pricing_plan_id":"cebpf4jnsgd1na2vs0mg"},{"bike_id":"5137932e-c77e-4b82-85f2-dd7a3811ce33","system_id":"levelo_inurba_marseille","lat":43.30779,"lon":5.37655,"is_reserved":false,"is_disabled":false,"rental_uris":{"android":"levelo://app?vid=5137932e-c77e-4b82-85f2-dd7a3811ce33","ios":"levelo://app?vid=5137932e-c77e-4b82-85f2-dd7a3811ce33"},"vehicle_type_id":"4","last_reported":1750021738,"current_range_meters":25200,"station_id":"ce4bgv92rcd13ifvqcq0","pricing_plan_id":"cebpf4jnsgd1na2vs0mg"},{"bike_id":"ca4e7fe4-dafd-439e-ac20-258480c0aae8","system_id":"levelo_inurba_marseille","lat":43.28562,"lon":5.3949,"is_reserved":false,"is_disabled":false,"rental_uris":{"android":"levelo://app?vid=ca4e7fe4-dafd-439e-ac20-258480c0aae8","ios":"levelo://app?vid=ca4e7fe4-dafd-439e-ac20-258480c0aae8"},"vehicle_type_id":"4","last_reported":1750021738,"current_range_meters":25200,"station_id":"ce4bh292rcd13ifvqdg0","pricing_plan_id":"cebpf4jnsgd1na2vs0mg"},{"bike_id":"5c1d3f31-b2b7-45e1-b93c-99c0b74a8597","system_id":"levelo_inurba_marseille","lat":43.29033,"lon":5.39964,"is_reserved":false,"is_disabled":false,"rental_uris":{"android":"levelo://app?vid=5c1d3f31-b2b7-45e1-b93c-99c0b74a8597","ios":"levelo://app?vid=5c1d3f31-b2b7-45e1-b93c-99c0b74a8597"},"vehicle_type_id":"4","last_reported":1750021738,"current_range_meters":25200,"station_id":"ce4bh392rcd13ifvqdm0","pricing_plan_id":"cebpf4jnsgd1na2vs0mg"},{"bike_id":"b614c847-739c-46c8-b05c-2e8320257d84","system_id":"levelo_inurba_marseille","lat":43.269493,"lon":5.386343,"is_reserved":false,"is_disabled":false,"rental_uris":{"android":"levelo://app?vid=b614c847-739c-46c8-b05c-2e8320257d84","ios":"levelo://app?vid=b614c847-739c-46c8-b05c-2e8320257d84"},"vehicle_type_id":"4","last_reported":1750021738,"current_range_meters":25200,"station_id":"ce4bhh92rcd13ifvqfh0","pricing_plan_id":"cebpf4jnsgd1na2vs0mg"},{"bike_id":"db012d1b-8ddb-4d21-9e74-561b48aecc91","system_id":"levelo_inurba_marseille","lat":43.32367,"lon":5.36763,"is_reserved":false,"is_disabled":false,"rental_uris":{"android":"levelo://app?vid=db012d1b-8ddb-4d21-9e74-561b48aecc91","ios":"levelo://app?vid=db012d1b-8ddb-4d21-9e74-561b48aecc91"},"vehicle_type_id":"4","last_reported":1750021738,"current_range_meters":25200,"station_id":"ce4bhsh2rcd13ifvqi2g","pricing_plan_id":"cebpf4jnsgd1na2vs0mg"},{"bike_id":"307e3dd3-616a-4eac-a1e3-91fc72975d17","system_id":"levelo_inurba_marseille","lat":43.315285,"lon":5.38032,"is_reserved":false,"is_disabled":false,"rental_uris":{"android":"levelo://app?vid=307e3dd3-616a-4eac-a1e3-91fc72975d17","ios":"levelo://app?vid=307e3dd3-616a-4eac-a1e3-91fc72975d17"},"vehicle_type_id":"4","last_reported":1750021738,"current_range_meters":25200,"station_id":"ce4bhsp2rcd13ifvqi50","pricing_plan_id":"cebpf4jnsgd1na2vs0mg"},{"bike_id":"1c1c7580-6a1a-4c72-8e5e-39cc37b8dfe6","system_id":"levelo_inurba_marseille","lat":43.2119,"lon":5.35079,"is_reserved":false,"is_disabled":false,"rental_uris":{"android":"levelo://app?vid=1c1c7580-6a1a-4c72-8e5e-39cc37b8dfe6","ios":"levelo://app?vid=1c1c7580-6a1a-4c72-8e5e-39cc37b8dfe6"},"vehicle_type_id":"4","last_reported":1750021738,"current_range_meters":25200,"station_id":"st_cvj6sg6p6f1abm77japg","pricing_plan_id":"cebpf4jnsgd1na2vs0mg"},{"bike_id":"7aa82a58-33a1-412c-81c6-6ee752df88d7","system_id":"levelo_inurba_marseille","lat":43.29434,"lon":5.39737,"is_reserved":false,"is_disabled":false,"rental_uris":{"android":"levelo://app?vid=7aa82a58-33a1-412c-81c6-6ee752df88d7","ios":"levelo://app?vid=7aa82a58-33a1-412c-81c6-6ee752df88d7"},"vehicle_type_id":"4","last_reported":1750021738,"current_range_meters":25600,"station_id":"ce4bh3h2rcd13ifvqdo0","pricing_plan_id":"cebpf4jnsgd1na2vs0mg"},{"bike_id":"87cb12c1-7e24-4fa1-ac65-b7a1892de4ba","system_id":"levelo_inurba_marseille","lat":43.29506,"lon":5.39041,"is_reserved":false,"is_disabled":false,"rental_uris":{"android":"levelo://app?vid=87cb12c1-7e24-4fa1-ac65-b7a1892de4ba","ios":"levelo://app?vid=87cb12c1-7e24-4fa1-ac65-b7a1892de4ba"},"vehicle_type_id":"4","last_reported":1750021738,"current_range_meters":25600,"station_id":"ce4bh3p2rcd13ifvqdp0","pricing_plan_id":"cebpf4jnsgd1na2vs0mg"},{"bike_id":"35727d8f-8659-4767-b26a-c923d6dcd3b9","system_id":"levelo_inurba_marseille","lat":43.2903,"lon":5.38654,"is_reserved":false,"is_disabled":false,"rental_uris":{"android":"levelo://app?vid=35727d8f-8659-4767-b26a-c923d6dcd3b9","ios":"levelo://app?vid=35727d8f-8659-4767-b26a-c923d6dcd3b9"},"vehicle_type_id":"4","last_reported":1750021738,"current_range_meters":25600,"station_id":"ce4bh4p2rcd13ifvqe0g","pricing_plan_id":"cebpf4jnsgd1na2vs0mg"},{"bike_id":"dcb42e27-f00b-433f-98fb-737c0e3501bd","system_id":"levelo_inurba_marseille","lat":43.323381,"lon":5.406225,"is_reserved":false,"is_disabled":false,"rental_uris":{"android":"levelo://app?vid=dcb42e27-f00b-433f-98fb-737c0e3501bd","ios":"levelo://app?vid=dcb42e27-f00b-433f-98fb-737c0e3501bd"},"vehicle_type_id":"4","last_reported":1750021738,"current_range_meters":25600,"station_id":"ce4bhq92rcd13ifvqhjg","pricing_plan_id":"cebpf4jnsgd1na2vs0mg"},{"bike_id":"da3760f1-7420-4dec-9444-ff5c1ef3a036","system_id":"levelo_inurba_marseille","lat":43.28674,"lon":5.38674,"is_reserved":false,"is_disabled":false,"rental_uris":{"android":"levelo://app?vid=da3760f1-7420-4dec-9444-ff5c1ef3a036","ios":"levelo://app?vid=da3760f1-7420-4dec-9444-ff5c1ef3a036"},"vehicle_type_id":"4","last_reported":1750021738,"current_range_meters":26000,"station_id":"ce4bh492rcd13ifvqdug","pricing_plan_id":"cebpf4jnsgd1na2vs0mg"},{"bike_id":"efd4591b-9885-4c00-9af4-df11f737e0f7","system_id":"levelo_inurba_marseille","lat":43.24543,"lon":5.39521,"is_reserved":false,"is_disabled":false,"rental_uris":{"android":"levelo://app?vid=efd4591b-9885-4c00-9af4-df11f737e0f7","ios":"levelo://app?vid=efd4591b-9885-4c00-9af4-df11f737e0f7"},"vehicle_type_id":"4","last_reported":1750021738,"current_range_meters":26000,"station_id":"ce4bhlp2rcd13ifvqgjg","pricing_plan_id":"cebpf4jnsgd1na2vs0mg"},{"bike_id":"c652c684-17a4-4ae4-8445-04cf4a2a31e2","system_id":"levelo_inurba_marseille","lat":43.31735,"lon":5.43689,"is_reserved":false,"is_disabled":false,"rental_uris":{"android":"levelo://app?vid=c652c684-17a4-4ae4-8445-04cf4a2a31e2","ios":"levelo://app?vid=c652c684-17a4-4ae4-8445-04cf4a2a31e2"},"vehicle_type_id":"4","last_reported":1750021738,"current_range_meters":26000,"station_id":"ce4bhp92rcd13ifvqhcg","pricing_plan_id":"cebpf4jnsgd1na2vs0mg"},{"bike_id":"85b4f6a2-7f77-4b74-bb89-62b874044335","system_id":"levelo_inurba_marseille","lat":43.32312,"lon":5.36664,"is_reserved":false,"is_disabled":false,"rental_uris":{"android":"levelo://app?vid=85b4f6a2-7f77-4b74-bb89-62b874044335","ios":"levelo://app?vid=85b4f6a2-7f77-4b74-bb89-62b874044335"},"vehicle_type_id":"4","last_reported":1750021738,"current_range_meters":26000,"station_id":"ce4bhsh2rcd13ifvqi2g","pricing_plan_id":"cebpf4jnsgd1na2vs0mg"},{"bike_id":"cffe0652-2035-4c3e-83f5-71cbc6289b80","system_id":"levelo_inurba_marseille","lat":43.24464,"lon":5.36952,"is_reserved":false,"is_disabled":false,"rental_uris":{"android":"levelo://app?vid=cffe0652-2035-4c3e-83f5-71cbc6289b80","ios":"levelo://app?vid=cffe0652-2035-4c3e-83f5-71cbc6289b80"},"vehicle_type_id":"4","last_reported":1750021738,"current_range_meters":26800,"station_id":"","pricing_plan_id":"cebpf4jnsgd1na2vs0mg"},{"bike_id":"fd04b1f9-883c-469c-9f2c-efb6d36eccd9","system_id":"levelo_inurba_marseille","lat":43.28096,"lon":5.37827,"is_reserved":false,"is_disabled":false,"rental_uris":{"android":"levelo://app?vid=fd04b1f9-883c-469c-9f2c-efb6d36eccd9","ios":"levelo://app?vid=fd04b1f9-883c-469c-9f2c-efb6d36eccd9"},"vehicle_type_id":"4","last_reported":1750021738,"current_range_meters":26800,"station_id":"ce4bha12rcd13ifvqee0","pricing_plan_id":"cebpf4jnsgd1na2vs0mg"},{"bike_id":"a79e185f-3bc9-4a99-9c8d-ff647b461417","system_id":"levelo_inurba_marseille","lat":43.25115,"lon":5.40299,"is_reserved":false,"is_disabled":false,"rental_uris":{"android":"levelo://app?vid=a79e185f-3bc9-4a99-9c8d-ff647b461417","ios":"levelo://app?vid=a79e185f-3bc9-4a99-9c8d-ff647b461417"},"vehicle_type_id":"4","last_reported":1750021738,"current_range_meters":26800,"station_id":"ce4bhlh2rcd13ifvqgig","pricing_plan_id":"cebpf4jnsgd1na2vs0mg"},{"bike_id":"835d1b68-3bb3-4ba2-a2a6-e35e2a260e9c","system_id":"levelo_inurba_marseille","lat":43.28144,"lon":5.42638,"is_reserved":false,"is_disabled":false,"rental_uris":{"android":"levelo://app?vid=835d1b68-3bb3-4ba2-a2a6-e35e2a260e9c","ios":"levelo://app?vid=835d1b68-3bb3-4ba2-a2a6-e35e2a260e9c"},"vehicle_type_id":"4","last_reported":1750021738,"current_range_meters":26800,"station_id":"ce4bhnh2rcd13ifvqgug","pricing_plan_id":"cebpf4jnsgd1na2vs0mg"},{"bike_id":"3ec4dd07-3a06-438e-9346-f0a899d3180e","system_id":"levelo_inurba_marseille","lat":43.28698,"lon":5.39979,"is_reserved":false,"is_disabled":false,"rental_uris":{"android":"levelo://app?vid=3ec4dd07-3a06-438e-9346-f0a899d3180e","ios":"levelo://app?vid=3ec4dd07-3a06-438e-9346-f0a899d3180e"},"vehicle_type_id":"4","last_reported":1750021738,"current_range_meters":26800,"station_id":"ce4bho92rcd13ifvqh3g","pricing_plan_id":"cebpf4jnsgd1na2vs0mg"},{"bike_id":"4fbc8fdc-d257-4c29-9935-dde881714e31","system_id":"levelo_inurba_marseille","lat":43.33718,"lon":5.39184,"is_reserved":false,"is_disabled":false,"rental_uris":{"android":"levelo://app?vid=4fbc8fdc-d257-4c29-9935-dde881714e31","ios":"levelo://app?vid=4fbc8fdc-d257-4c29-9935-dde881714e31"},"vehicle_type_id":"4","last_reported":1750021738,"current_range_meters":26800,"station_id":"ce4bhr92rcd13ifvqhsg","pricing_plan_id":"cebpf4jnsgd1na2vs0mg"},{"bike_id":"205124f6-ff9f-4d50-931a-051d20b4a5bc","system_id":"levelo_inurba_marseille","lat":43.232,"lon":5.35558,"is_reserved":false,"is_disabled":false,"rental_uris":{"android":"levelo://app?vid=205124f6-ff9f-4d50-931a-051d20b4a5bc","ios":"levelo://app?vid=205124f6-ff9f-4d50-931a-051d20b4a5bc"},"vehicle_type_id":"4","last_reported":1750021738,"current_range_meters":26800,"station_id":"ce4bhu92rcd13ifvqi70","pricing_plan_id":"cebpf4jnsgd1na2vs0mg"},{"bike_id":"6ac9e8ae-5d7e-4aca-94a2-e344698f3bc3","system_id":"levelo_inurba_marseille","lat":43.31088,"lon":5.38353,"is_reserved":false,"is_disabled":false,"rental_uris":{"android":"levelo://app?vid=6ac9e8ae-5d7e-4aca-94a2-e344698f3bc3","ios":"levelo://app?vid=6ac9e8ae-5d7e-4aca-94a2-e344698f3bc3"},"vehicle_type_id":"4","last_reported":1750021738,"current_range_meters":27200,"station_id":"ce4bgv92rcd13ifvqcr0","pricing_plan_id":"cebpf4jnsgd1na2vs0mg"},{"bike_id":"09afdd42-7fe7-48f4-aa54-808d66dd6e29","system_id":"levelo_inurba_marseille","lat":43.25115,"lon":5.40318,"is_reserved":false,"is_disabled":false,"rental_uris":{"android":"levelo://app?vid=09afdd42-7fe7-48f4-aa54-808d66dd6e29","ios":"levelo://app?vid=09afdd42-7fe7-48f4-aa54-808d66dd6e29"},"vehicle_type_id":"4","last_reported":1750021738,"current_range_meters":27200,"station_id":"ce4bhlh2rcd13ifvqgig","pricing_plan_id":"cebpf4jnsgd1na2vs0mg"},{"bike_id":"195fd263-150f-41f8-97c3-c13b2a2e0f2a","system_id":"levelo_inurba_marseille","lat":43.26456,"lon":5.39936,"is_reserved":false,"is_disabled":false,"rental_uris":{"android":"levelo://app?vid=195fd263-150f-41f8-97c3-c13b2a2e0f2a","ios":"levelo://app?vid=195fd263-150f-41f8-97c3-c13b2a2e0f2a"},"vehicle_type_id":"4","last_reported":1750021738,"current_range_meters":27200,"station_id":"ce4bhmh2rcd13ifvqgmg","pricing_plan_id":"cebpf4jnsgd1na2vs0mg"},{"bike_id":"84c9b006-fb47-49cf-a5a9-4255736c40b6","system_id":"levelo_inurba_marseille","lat":43.30927,"lon":5.40142,"is_reserved":false,"is_disabled":false,"rental_uris":{"android":"levelo://app?vid=84c9b006-fb47-49cf-a5a9-4255736c40b6","ios":"levelo://app?vid=84c9b006-fb47-49cf-a5a9-4255736c40b6"},"vehicle_type_id":"4","last_reported":1750021738,"current_range_meters":27600,"station_id":"ce4bgvp2rcd13ifvqct0","pricing_plan_id":"cebpf4jnsgd1na2vs0mg"},{"bike_id":"b0ea15a5-d658-44f9-bee3-77ada787763e","system_id":"levelo_inurba_marseille","lat":43.31337,"lon":5.39682,"is_reserved":false,"is_disabled":false,"rental_uris":{"android":"levelo://app?vid=b0ea15a5-d658-44f9-bee3-77ada787763e","ios":"levelo://app?vid=b0ea15a5-d658-44f9-bee3-77ada787763e"},