{"last_updated":1753172192,"ttl":60,"version":"2.2","data":{"bikes":[{"bike_id":"53b742a7-31ae-4272-9bba-7740339e2a2f","system_id":"levelo_inurba_marseille","lat":43.33747,"lon":5.37463,"is_reserved":false,"is_disabled":false,"rental_uris":{"android":"levelo://app?vid=53b742a7-31ae-4272-9bba-7740339e2a2f","ios":"levelo://app?vid=53b742a7-31ae-4272-9bba-7740339e2a2f"},"vehicle_type_id":"1","last_reported":1753172193,"current_range_meters":2800,"station_id":"","pricing_plan_id":"cebpf4jnsgd1na2vs0mg"},{"bike_id":"ed415a14-b4b4-4caf-8a06-7fd1c907bac5","system_id":"levelo_inurba_marseille","lat":43.21516,"lon":5.34614,"is_reserved":false,"is_disabled":false,"rental_uris":{"android":"levelo://app?vid=ed415a14-b4b4-4caf-8a06-7fd1c907bac5","ios":"levelo://app?vid=ed415a14-b4b4-4caf-8a06-7fd1c907bac5"},"vehicle_type_id":"4","last_reported":1753172193,"current_range_meters":2800,"station_id":"","pricing_plan_id":"cebpf4jnsgd1na2vs0mg"},{"bike_id":"433415c1-acea-4306-b3ad-c55437db8988","system_id":"levelo_inurba_marseille","lat":43.29511,"lon":5.38185,"is_reserved":false,"is_disabled":false,"rental_uris":{"android":"levelo://app?vid=433415c1-acea-4306-b3ad-c55437db8988","ios":"levelo://app?vid=433415c1-acea-4306-b3ad-c55437db8988"},"vehicle_type_id":"4","last_reported":1753172193,"current_range_meters":3200,"station_id":"","pricing_plan_id":"cebpf4jnsgd1na2vs0mg"},{"bike_id":"4571d8e3-d722-4bf9-a712-47ae3ae90613","system_id":"levelo_inurba_marseille","lat":43.24177,"lon":5.39733,"is_reserved":false,"is_disabled":true,"rental_uris":{"android":"levelo://app?vid=4571d8e3-d722-4bf9-a712-47ae3ae90613","ios":"levelo://app?vid=4571d8e3-d722-4bf9-a712-47ae3ae90613"},"vehicle_type_id":"4","last_reported":1753172193,"current_range_meters":3200,"station_id":"ce4bhn12rcd13ifvqgpg","pricing_plan_id":"cebpf4jnsgd1na2vs0mg"},{"bike_id":"e0c08fce-e356-4303-bf8e-0aa8c623fdc4","system_id":"levelo_inurba_marseille","lat":43.28274,"lon":5.35065,"is_reserved":false,"is_disabled":false,"rental_uris":{"android":"levelo://app?vid=e0c08fce-e356-4303-bf8e-0aa8c623fdc4","ios":"levelo://app?vid=e0c08fce-e356-4303-bf8e-0aa8c623fdc4"},"vehicle_type_id":"4","last_reported":1753172193,"current_range_meters":3200,"station_id":"ce4bhbp2rcd13ifvqerg","pricing_plan_id":"cebpf4jnsgd1na2vs0mg"},{"bike_id":"a6de290b-5c15-427b-bc37-8301607e1735","system_id":"levelo_inurba_marseille","lat":43.337725,"lon":5.374294,"is_reserved":false,"is_disabled":false,"rental_uris":{"android":"levelo://app?vid=a6de290b-5c15-427b-bc37-8301607e1735","ios":"levelo://app?vid=a6de290b-5c15-427b-bc37-8301607e1735"},"vehicle_type_id":"4","last_reported":1753172193,"current_range_meters":3600,"station_id":"","pricing_plan_id":"cebpf4jnsgd1na2vs0mg"},{"bike_id":"f18952d9-de72-4b00-ac50-ca46d1bc16b9","system_id":"levelo_inurba_marseille","lat":43.21193,"lon":5.35076,"is_reserved":false,"is_disabled":false,"rental_uris":{"android":"levelo://app?vid=f18952d9-de72-4b00-ac50-ca46d1bc16b9","ios":"levelo://app?vid=f18952d9-de72-4b00-ac50-ca46d1bc16b9"},"vehicle_type_id":"4","last_reported":1753172193,"current_range_meters":3600,"station_id":"st_cvj6sg6p6f1abm77japg","pricing_plan_id":"cebpf4jnsgd1na2vs0mg"},{"bike_id":"4706de4b-4264-4f69-bcc9-ea5f8c76c909","system_id":"levelo_inurba_marseille","lat":43.24381,"lon":5.37053,"is_reserved":false,"is_disabled":false,"rental_uris":{"android":"levelo://app?vid=4706de4b-4264-4f69-bcc9-ea5f8c76c909","ios":"levelo://app?vid=4706de4b-4264-4f69-bcc9-ea5f8c76c909"},"vehicle_type_id":"4","last_reported":1753172193,"current_range_meters":3600,"station_id":"ce4bhhh2rcd13ifvqfk0","pricing_plan_id":"cebpf4jnsgd1na2vs0mg"},{"bike_id":"630e83cd-6fcf-4ccd-bb9a-cce7e93f11d6","system_id":"levelo_inurba_marseille","lat":43.27376,"lon":5.36217,"is_reserved":false,"is_disabled":true,"rental_uris":{"android":"levelo://app?vid=630e83cd-6fcf-4ccd-bb9a-cce7e93f11d6","ios":"levelo://app?vid=630e83cd-6fcf-4ccd-bb9a-cce7e93f11d6"},"vehicle_type_id":"4","last_reported":1753172193,"current_range_meters":4000,"station_id":"ce4bhbh2rcd13ifvqeo0","pricing_plan_id":"cebpf4jnsgd1na2vs0mg"},{"bike_id":"a500a999-7108-4981-ad31-aac980df6535","system_id":"levelo_inurba_marseille","lat":43.33603,"lon":5.41026,"is_reserved":false,"is_disabled":false,"rental_uris":{"android":"levelo://app?vid=a500a999-7108-4981-ad31-aac980df6535","ios":"levelo://app?vid=a500a999-7108-4981-ad31-aac980df6535"},"vehicle_type_id":"4","last_reported":1753172193,"current_range_meters":4400,"station_id":"ce4bhqh2rcd13ifvqhmg","pricing_plan_id":"cebpf4jnsgd1na2vs0mg"},{"bike_id":"78f6ac42-9776-4916-9668-b5a859a67a83","system_id":"levelo_inurba_marseille","lat":43.28473,"lon":5.38413,"is_reserved":false,"is_disabled":false,"rental_uris":{"android":"levelo://app?vid=78f6ac42-9776-4916-9668-b5a859a67a83","ios":"levelo://app?vid=78f6ac42-9776-4916-9668-b5a859a67a83"},"vehicle_type_id":"4","last_reported":1753172193,"current_range_meters":5600,"station_id":"ce4bh512rcd13ifvqe3g","pricing_plan_id":"cebpf4jnsgd1na2vs0mg"},{"bike_id":"b6ac2bb9-795c-40f4-b4a2-37fa1e6e208b","system_id":"levelo_inurba_marseille","lat":43.303024,"lon":5.369268,"is_reserved":false,"is_disabled":false,"rental_uris":{"android":"levelo://app?vid=b6ac2bb9-795c-40f4-b4a2-37fa1e6e208b","ios":"levelo://app?vid=b6ac2bb9-795c-40f4-b4a2-37fa1e6e208b"},"vehicle_type_id":"4","last_reported":1753172193,"current_range_meters":5600,"station_id":"ce4bgqh2rcd13ifvqc5g","pricing_plan_id":"cebpf4jnsgd1na2vs0mg"},{"bike_id":"470d065f-b01c-4ac4-a84a-bf4177859bd1","system_id":"levelo_inurba_marseille","lat":43.337259,"lon":5.391916,"is_reserved":false,"is_disabled":false,"rental_uris":{"android":"levelo://app?vid=470d065f-b01c-4ac4-a84a-bf4177859bd1","ios":"levelo://app?vid=470d065f-b01c-4ac4-a84a-bf4177859bd1"},"vehicle_type_id":"4","last_reported":1753172193,"current_range_meters":4800,"station_id":"ce4bhr92rcd13ifvqhsg","pricing_plan_id":"cebpf4jnsgd1na2vs0mg"},{"bike_id":"06333f60-d9ea-43c9-ba2a-80c3002c726d","system_id":"levelo_inurba_marseille","lat":43.21197,"lon":5.35076,"is_reserved":false,"is_disabled":true,"rental_uris":{"android":"levelo://app?vid=06333f60-d9ea-43c9-ba2a-80c3002c726d","ios":"levelo://app?vid=06333f60-d9ea-43c9-ba2a-80c3002c726d"},"vehicle_type_id":"4","last_reported":1753172193,"current_range_meters":5600,"station_id":"st_cvj6sg6p6f1abm77japg","pricing_plan_id":"cebpf4jnsgd1na2vs0mg"},{"bike_id":"54c62cfd-190d-4a0a-99a0-7a5cc5804e08","system_id":"levelo_inurba_marseille","lat":43.21185,"lon":5.35071,"is_reserved":false,"is_disabled":false,"rental_uris":{"android":"levelo://app?vid=54c62cfd-190d-4a0a-99a0-7a5cc5804e08","ios":"levelo://app?vid=54c62cfd-190d-4a0a-99a0-7a5cc5804e08"},"vehicle_type_id":"4","last_reported":1753172193,"current_range_meters":6000,"station_id":"st_cvj6sg6p6f1abm77japg","pricing_plan_id":"cebpf4jnsgd1na2vs0mg"},{"bike_id":"574953d5-8575-4a74-bdc7-0262f8fcbf01","system_id":"levelo_inurba_marseille","lat":43.283453,"lon":5.381115,"is_reserved":false,"is_disabled":false,"rental_uris":{"android":"levelo://app?vid=574953d5-8575-4a74-bdc7-0262f8fcbf01","ios":"levelo://app?vid=574953d5-8575-4a74-bdc7-0262f8fcbf01"},"vehicle_type_id":"4","last_reported":1753172193,"current_range_meters":6000,"station_id":"ce4bh412rcd13ifvqdr0","pricing_plan_id":"cebpf4jnsgd1na2vs0mg"},{"bike_id":"e7349e47-8188-4fc1-98e6-c175d05fdb3f","system_id":"levelo_inurba_marseille","lat":43.292174,"lon":5.360397,"is_reserved":false,"is_disabled":true,"rental_uris":{"android":"levelo://app?vid=e7349e47-8188-4fc1-98e6-c175d05fdb3f","ios":"levelo://app?vid=e7349e47-8188-4fc1-98e6-c175d05fdb3f"},"vehicle_type_id":"4","last_reported":1753172193,"current_range_meters":6000,"station_id":"ce4bhbh2rcd13ifvqeqg","pricing_plan_id":"cebpf4jnsgd1na2vs0mg"},{"bike_id":"68a02d27-8989-4e27-8947-b4b66f254ef1","system_id":"levelo_inurba_marseille","lat":43.2738,"lon":5.36252,"is_reserved":false,"is_disabled":false,"rental_uris":{"android":"levelo://app?vid=68a02d27-8989-4e27-8947-b4b66f254ef1","ios":"levelo://app?vid=68a02d27-8989-4e27-8947-b4b66f254ef1"},"vehicle_type_id":"4","last_reported":1753172193,"current_range_meters":6400,"station_id":"ce4bhbh2rcd13ifvqeo0","pricing_plan_id":"cebpf4jnsgd1na2vs0mg"},{"bike_id":"308693f2-a8e5-4d73-9a45-81b0d685f8a0","system_id":"levelo_inurba_marseille","lat":43.28981,"lon":5.37828,"is_reserved":false,"is_disabled":false,"rental_uris":{"android":"levelo://app?vid=308693f2-a8e5-4d73-9a45-81b0d685f8a0","ios":"levelo://app?vid=308693f2-a8e5-4d73-9a45-81b0d685f8a0"},"vehicle_type_id":"4","last_reported":1753172193,"current_range_meters":6800,"station_id":"ce4bh9p2rcd13ifvqed0","pricing_plan_id":"cebpf4jnsgd1na2vs0mg"},{"bike_id":"101a69dc-262d-47b4-ad30-0e37a044310e","system_id":"levelo_inurba_marseille","lat":43.30944,"lon":5.3905,"is_reserved":false,"is_disabled":false,"rental_uris":{"android":"levelo://app?vid=101a69dc-262d-47b4-ad30-0e37a044310e","ios":"levelo://app?vid=101a69dc-262d-47b4-ad30-0e37a044310e"},"vehicle_type_id":"4","last_reported":1753172193,"current_range_meters":6800,"station_id":"ce4bgup2rcd13ifvqco0","pricing_plan_id":"cebpf4jnsgd1na2vs0mg"},{"bike_id":"40a8f93b-bb72-4ebe-adbd-6e13622724e0","system_id":"levelo_inurba_marseille","lat":43.29265,"lon":5.36844,"is_reserved":false,"is_disabled":true,"rental_uris":{"android":"levelo://app?vid=40a8f93b-bb72-4ebe-adbd-6e13622724e0","ios":"levelo://app?vid=40a8f93b-bb72-4ebe-adbd-6e13622724e0"},"vehicle_type_id":"4","last_reported":1753172193,"current_range_meters":6800,"station_id":"ce4bhbp2rcd13ifvqesg","pricing_plan_id":"cebpf4jnsgd1na2vs0mg"},{"bike_id":"f85f0edc-bd70-4dea-a75b-90ed10bc6062","system_id":"levelo_inurba_marseille","lat":43.30544,"lon":5.36551,"is_reserved":false,"is_disabled":false,"rental_uris":{"android":"levelo://app?vid=f85f0edc-bd70-4dea-a75b-90ed10bc6062","ios":"levelo://app?vid=f85f0edc-bd70-4dea-a75b-90ed10bc6062"},"vehicle_type_id":"4","last_reported":1753172193,"current_range_meters":6800,"station_id":"ce4bgs12rcd13ifvqcag","pricing_plan_id":"cebpf4jnsgd1na2vs0mg"},{"bike_id":"8cac8672-6209-4b19-bca2-e64fa9998d3d","system_id":"levelo_inurba_marseille","lat":43.27803,"lon":5.35505,"is_reserved":false,"is_disabled":false,"rental_uris":{"android":"levelo://app?vid=8cac8672-6209-4b19-bca2-e64fa9998d3d","ios":"levelo://app?vid=8cac8672-6209-4b19-bca2-e64fa9998d3d"},"vehicle_type_id":"4","last_reported":1753172193,"current_range_meters":7200,"station_id":"","pricing_plan_id":"cebpf4jnsgd1na2vs0mg"},{"bike_id":"84393d17-fd90-41ad-bfaa-13472a598857","system_id":"levelo_inurba_marseille","lat":43.2721,"lon":5.39181,"is_reserved":false,"is_disabled":false,"rental_uris":{"android":"levelo://app?vid=84393d17-fd90-41ad-bfaa-13472a598857","ios":"levelo://app?vid=84393d17-fd90-41ad-bfaa-13472a598857"},"vehicle_type_id":"4","last_reported":1753172193,"current_range_meters":8000,"station_id":"ce4bhhp2rcd13ifvqfm0","pricing_plan_id":"cebpf4jnsgd1na2vs0mg"},{"bike_id":"3d7e186d-e34e-40dd-97a3-aba9d7a3f99d","system_id":"levelo_inurba_marseille","lat":43.28939,"lon":5.36392,"is_reserved":false,"is_disabled":true,"rental_uris":{"android":"levelo://app?vid=3d7e186d-e34e-40dd-97a3-aba9d7a3f99d","ios":"levelo://app?vid=3d7e186d-e34e-40dd-97a3-aba9d7a3f99d"},"vehicle_type_id":"4","last_reported":1753172193,"current_range_meters":8000,"station_id":"ce4bhc92rcd13ifvqetg","pricing_plan_id":"cebpf4jnsgd1na2vs0mg"},{"bike_id":"6e227b79-ff73-4beb-b634-873cbc529a78","system_id":"levelo_inurba_marseille","lat":43.29885,"lon":5.39729,"is_reserved":false,"is_disabled":false,"rental_uris":{"android":"levelo://app?vid=6e227b79-ff73-4beb-b634-873cbc529a78","ios":"levelo://app?vid=6e227b79-ff73-4beb-b634-873cbc529a78"},"vehicle_type_id":"4","last_reported":1753172193,"current_range_meters":8000,"station_id":"ce4bh0h2rcd13ifvqd50","pricing_plan_id":"cebpf4jnsgd1na2vs0mg"},{"bike_id":"0cb2c80a-7457-4a4a-ad92-f0361b5225d6","system_id":"levelo_inurba_marseille","lat":43.244389,"lon":5.37466,"is_reserved":false,"is_disabled":true,"rental_uris":{"android":"levelo://app?vid=0cb2c80a-7457-4a4a-ad92-f0361b5225d6","ios":"levelo://app?vid=0cb2c80a-7457-4a4a-ad92-f0361b5225d6"},"vehicle_type_id":"4","last_reported":1753172193,"current_range_meters":8000,"station_id":"","pricing_plan_id":"cebpf4jnsgd1na2vs0mg"},{"bike_id":"8d5f38da-17f8-4435-93db-91d5490d85de","system_id":"levelo_inurba_marseille","lat":43.304274,"lon":5.397442,"is_reserved":false,"is_disabled":false,"rental_uris":{"android":"levelo://app?vid=8d5f38da-17f8-4435-93db-91d5490d85de","ios":"levelo://app?vid=8d5f38da-17f8-4435-93db-91d5490d85de"},"vehicle_type_id":"4","last_reported":1753172193,"current_range_meters":8400,"station_id":"ce4bh092rcd13ifvqd20","pricing_plan_id":"cebpf4jnsgd1na2vs0mg"},{"bike_id":"a1a5d3e5-8d90-453c-9a3f-cf7d7aea8491","system_id":"levelo_inurba_marseille","lat":43.304286,"lon":5.397446,"is_reserved":false,"is_disabled":false,"rental_uris":{"android":"levelo://app?vid=a1a5d3e5-8d90-453c-9a3f-cf7d7aea8491","ios":"levelo://app?vid=a1a5d3e5-8d90-453c-9a3f-cf7d7aea8491"},"vehicle_type_id":"4","last_reported":1753172193,"current_range_meters":8400,"station_id":"ce4bh092rcd13ifvqd20","pricing_plan_id":"cebpf4jnsgd1na2vs0mg"},{"bike_id":"bcaadee2-6116-4324-9aef-be65df2a5c82","system_id":"levelo_inurba_marseille","lat":43.28946,"lon":5.39625,"is_reserved":false,"is_disabled":false,"rental_uris":{"android":"levelo://app?vid=bcaadee2-6116-4324-9aef-be65df2a5c82","ios":"levelo://app?vid=bcaadee2-6116-4324-9aef-be65df2a5c82"},"vehicle_type_id":"4","last_reported":1753172193,"current_range_meters":8400,"station_id":"ce4bh3h2rcd13ifvqdn0","pricing_plan_id":"cebpf4jnsgd1na2vs0mg"},{"bike_id":"44be4a2f-b012-43e4-ad0e-4da3c7f705fe","system_id":"levelo_inurba_marseille","lat":43.31219,"lon":5.36854,"is_reserved":false,"is_disabled":false,"rental_uris":{"android":"levelo://app?vid=44be4a2f-b012-43e4-ad0e-4da3c7f705fe","ios":"levelo://app?vid=44be4a2f-b012-43e4-ad0e-4da3c7f705fe"},"vehicle_type_id":"4","last_reported":1753172193,"current_range_meters":8400,"station_id":"ce4bgl92rcd13ifvqbq0","pricing_plan_id":"cebpf4jnsgd1na2vs0mg"},{"bike_id":"e022a396-1cda-41e1-a581-20bbc6133ccf","system_id":"levelo_inurba_marseille","lat":43.21188,"lon":5.35059,"is_reserved":false,"is_disabled":false,"rental_uris":{"android":"levelo://app?vid=e022a396-1cda-41e1-a581-20bbc6133ccf","ios":"levelo://app?vid=e022a396-1cda-41e1-a581-20bbc6133ccf"},"vehicle_type_id":"4","last_reported":1753172193,"current_range_meters":8400,"station_id":"st_cvj6sg6p6f1abm77japg","pricing_plan_id":"cebpf4jnsgd1na2vs0mg"},{"bike_id":"c3622956-1ba0-4f60-b9ef-b69da0bf1e85","system_id":"levelo_inurba_marseille","lat":43.27625,"lon":5.36102,"is_reserved":false,"is_disabled":false,"rental_uris":{"android":"levelo://app?vid=c3622956-1ba0-4f60-b9ef-b69da0bf1e85","ios":"levelo://app?vid=c3622956-1ba0-4f60-b9ef-b69da0bf1e85"},"vehicle_type_id":"4","last_reported":1753172193,"current_range_meters":8400,"station_id":"ce4bgj92rcd13ifvqbe0","pricing_plan_id":"cebpf4jnsgd1na2vs0mg"},{"bike_id":"5079c071-08a5-4d2a-8b44-f6c89591fbf8","system_id":"levelo_inurba_marseille","lat":43.25498,"lon":5.37646,"is_reserved":false,"is_disabled":false,"rental_uris":{"android":"levelo://app?vid=5079c071-08a5-4d2a-8b44-f6c89591fbf8","ios":"levelo://app?vid=5079c071-08a5-4d2a-8b44-f6c89591fbf8"},"vehicle_type_id":"4","last_reported":1753172193,"current_range_meters":8400,"station_id":"ce4bhh12rcd13ifvqff0","pricing_plan_id":"cebpf4jnsgd1na2vs0mg"},{"bike_id":"a16aee05-cbc8-4e68-94b9-27049373540b","system_id":"levelo_inurba_marseille","lat":43.24666,"lon":5.38167,"is_reserved":false,"is_disabled":false,"rental_uris":{"android":"levelo://app?vid=a16aee05-cbc8-4e68-94b9-27049373540b","ios":"levelo://app?vid=a16aee05-cbc8-4e68-94b9-27049373540b"},"vehicle_type_id":"4","last_reported":1753172193,"current_range_meters":8400,"station_id":"ce4bhih2rcd13ifvqfr0","pricing_plan_id":"cebpf4jnsgd1na2vs0mg"},{"bike_id":"88fec725-e2b6-4366-be2b-4c89051d5756","system_id":"levelo_inurba_marseille","lat":43.312156,"lon":5.368567,"is_reserved":false,"is_disabled":false,"rental_uris":{"android":"levelo://app?vid=88fec725-e2b6-4366-be2b-4c89051d5756","ios":"levelo://app?vid=88fec725-e2b6-4366-be2b-4c89051d5756"},"vehicle_type_id":"4","last_reported":1753172193,"current_range_meters":8800,"station_id":"ce4bgl92rcd13ifvqbq0","pricing_plan_id":"cebpf4jnsgd1na2vs0mg"},{"bike_id":"21a8471a-9bda-4c8b-a481-3f11ee31248d","system_id":"levelo_inurba_marseille","lat":43.337434,"lon":5.374454,"is_reserved":false,"is_disabled":false,"rental_uris":{"android":"levelo://app?vid=21a8471a-9bda-4c8b-a481-3f11ee31248d","ios":"levelo://app?vid=21a8471a-9bda-4c8b-a481-3f11ee31248d"},"vehicle_type_id":"4","last_reported":1753172193,"current_range_meters":8800,"station_id":"","pricing_plan_id":"cebpf4jnsgd1na2vs0mg"},{"bike_id":"1bdc5e80-6d38-4620-9007-55ce514df051","system_id":"levelo_inurba_marseille","lat":43.230646,"lon":5.354892,"is_reserved":false,"is_disabled":false,"rental_uris":{"android":"levelo://app?vid=1bdc5e80-6d38-4620-9007-55ce514df051","ios":"levelo://app?vid=1bdc5e80-6d38-4620-9007-55ce514df051"},"vehicle_type_id":"4","last_reported":1753172193,"current_range_meters":9200,"station_id":"cpo3342slgdg3j2ifvpg","pricing_plan_id":"cebpf4jnsgd1na2vs0mg"},{"bike_id":"e1c8ecda-08c6-445c-a782-d40045c154d3","system_id":"levelo_inurba_marseille","lat":43.28615,"lon":5.35101,"is_reserved":false,"is_disabled":true,"rental_uris":{"android":"levelo://app?vid=e1c8ecda-08c6-445c-a782-d40045c154d3","ios":"levelo://app?vid=e1c8ecda-08c6-445c-a782-d40045c154d3"},"vehicle_type_id":"4","last_reported":1753172193,"current_range_meters":9200,"station_id":"ce4bhch2rcd13ifvqeug","pricing_plan_id":"cebpf4jnsgd1na2vs0mg"},{"bike_id":"dcf3708e-28f1-439c-a33c-3314b62f6374","system_id":"levelo_inurba_marseille","lat":43.28103,"lon":5.39624,"is_reserved":false,"is_disabled":false,"rental_uris":{"android":"levelo://app?vid=dcf3708e-28f1-439c-a33c-3314b62f6374","ios":"levelo://app?vid=dcf3708e-28f1-439c-a33c-3314b62f6374"},"vehicle_type_id":"4","last_reported":1753172193,"current_range_meters":9200,"station_id":"ce4bho12rcd13ifvqh2g","pricing_plan_id":"cebpf4jnsgd1na2vs0mg"},{"bike_id":"72a49f3e-d8e6-4483-bcf5-e3b6e75f469f","system_id":"levelo_inurba_marseille","lat":43.31257,"lon":5.36832,"is_reserved":false,"is_disabled":true,"rental_uris":{"android":"levelo://app?vid=72a49f3e-d8e6-4483-bcf5-e3b6e75f469f","ios":"levelo://app?vid=72a49f3e-d8e6-4483-bcf5-e3b6e75f469f"},"vehicle_type_id":"4","last_reported":1753172193,"current_range_meters":9200,"station_id":"ce4bgl92rcd13ifvqbq0","pricing_plan_id":"cebpf4jnsgd1na2vs0mg"},{"bike_id":"98d62142-e92f-438e-9e47-d1a978e22878","system_id":"levelo_inurba_marseille","lat":43.26776,"lon":5.39403,"is_reserved":false,"is_disabled":false,"rental_uris":{"android":"levelo://app?vid=98d62142-e92f-438e-9e47-d1a978e22878","ios":"levelo://app?vid=98d62142-e92f-438e-9e47-d1a978e22878"},"vehicle_type_id":"4","last_reported":1753172193,"current_range_meters":9200,"station_id":"ce4bhh12rcd13ifvqfg0","pricing_plan_id":"cebpf4jnsgd1na2vs0mg"},{"bike_id":"07481afa-6635-4dc1-8a31-8a97247e4afb","system_id":"levelo_inurba_marseille","lat":43.211899,"lon":5.350619,"is_reserved":false,"is_disabled":false,"rental_uris":{"android":"levelo://app?vid=07481afa-6635-4dc1-8a31-8a97247e4afb","ios":"levelo://app?vid=07481afa-6635-4dc1-8a31-8a97247e4afb"},"vehicle_type_id":"4","last_reported":1753172193,"current_range_meters":9600,"station_id":"st_cvj6sg6p6f1abm77japg","pricing_plan_id":"cebpf4jnsgd1na2vs0mg"},{"bike_id":"b355686e-9711-4834-88a1-57b23f58ae4b","system_id":"levelo_inurba_marseille","lat":43.231942,"lon":5.355519,"is_reserved":false,"is_disabled":false,"rental_uris":{"android":"levelo://app?vid=b355686e-9711-4834-88a1-57b23f58ae4b","ios":"levelo://app?vid=b355686e-9711-4834-88a1-57b23f58ae4b"},"vehicle_type_id":"4","last_reported":1753172193,"current_range_meters":9600,"station_id":"ce4bhu92rcd13ifvqi70","pricing_plan_id":"cebpf4jnsgd1na2vs0mg"},{"bike_id":"7d7f0de1-97e3-4c83-9a53-aa3e43c0ba27","system_id":"levelo_inurba_marseille","lat":43.27954,"lon":5.3866,"is_reserved":false,"is_disabled":false,"rental_uris":{"android":"levelo://app?vid=7d7f0de1-97e3-4c83-9a53-aa3e43c0ba27","ios":"levelo://app?vid=7d7f0de1-97e3-4c83-9a53-aa3e43c0ba27"},"vehicle_type_id":"4","last_reported":1753172193,"current_range_meters":9600,"station_id":"","pricing_plan_id":"cebpf4jnsgd1na2vs0mg"},{"bike_id":"328e472f-5ae1-4ad9-833e-8bfd84d0df0a","system_id":"levelo_inurba_marseille","lat":43.279951,"lon":5.399286,"is_reserved":false,"is_disabled":false,"rental_uris":{"android":"levelo://app?vid=328e472f-5ae1-4ad9-833e-8bfd84d0df0a","ios":"levelo://app?vid=328e472f-5ae1-4ad9-833e-8bfd84d0df0a"},"vehicle_type_id":"4","last_reported":1753172193,"current_range_meters":10000,"station_id":"","pricing_plan_id":"cebpf4jnsgd1na2vs0mg"},{"bike_id":"082bead9-81cd-445f-b749-08d2f0bd61d0","system_id":"levelo_inurba_marseille","lat":43.22925,"lon":5.35372,"is_reserved":false,"is_disabled":false,"rental_uris":{"android":"levelo://app?vid=082bead9-81cd-445f-b749-08d2f0bd61d0","ios":"levelo://app?vid=082bead9-81cd-445f-b749-08d2f0bd61d0"},"vehicle_type_id":"4","last_reported":1753172193,"current_range_meters":10000,"station_id":"cpo3532slgdg3j2ikp40","pricing_plan_id":"cebpf4jnsgd1na2vs0mg"},{"bike_id":"6af8e47e-5fe5-4b8c-9d07-a38c4cde5d71","system_id":"levelo_inurba_marseille","lat":43.240679,"lon":5.377611,"is_reserved":false,"is_disabled":false,"rental_uris":{"android":"levelo://app?vid=6af8e47e-5fe5-4b8c-9d07-a38c4cde5d71","ios":"levelo://app?vid=6af8e47e-5fe5-4b8c-9d07-a38c4cde5d71"},"vehicle_type_id":"4","last_reported":1753172193,"current_range_meters":10000,"station_id":"ce4bhnp2rcd13ifvqgvg","pricing_plan_id":"cebpf4jnsgd1na2vs0mg"},{"bike_id":"d485f597-db0c-4d03-a6b7-f0eec45f33b2","system_id":"levelo_inurba_marseille","lat":43.29277,"lon":5.36843,"is_reserved":false,"is_disabled":true,"rental_uris":{"android":"levelo://app?vid=d485f597-db0c-4d03-a6b7-f0eec45f33b2","ios":"levelo://app?vid=d485f597-db0c-4d03-a6b7-f0eec45f33b2"},"vehicle_type_id":"4","last_reported":1753172193,"current_range_meters":10000,"station_id":"ce4bhbp2rcd13ifvqesg","pricing_plan_id":"cebpf4jnsgd1na2vs0mg"},{"bike_id":"eaff56b1-d219-42d3-ad41-870cb8ed5924","system_id":"levelo_inurba_marseille","lat":43.279099,"lon":5.380102,"is_reserved":false,"is_disabled":false,"rental_uris":{"android":"levelo://app?vid=eaff56b1-d219-42d3-ad41-870cb8ed5924","ios":"levelo://app?vid=eaff56b1-d219-42d3-ad41-870cb8ed5924"},"vehicle_type_id":"4","last_reported":1753172193,"current_range_meters":10000,"station_id":"ce4bhf92rcd13ifvqf50","pricing_plan_id":"cebpf4jnsgd1na2vs0mg"},{"bike_id":"ac49738a-4d4f-43d3-9c67-46980e61ae95","system_id":"levelo_inurba_marseille","lat":43.31695,"lon":5.37672,"is_reserved":false,"is_disabled":false,"rental_uris":{"android":"levelo://app?vid=ac49738a-4d4f-43d3-9c67-46980e61ae95","ios":"levelo://app?vid=ac49738a-4d4f-43d3-9c67-46980e61ae95"},"vehicle_type_id":"4","last_reported":1753172193,"current_range_meters":10000,"station_id":"","pricing_plan_id":"cebpf4jnsgd1na2vs0mg"},{"bike_id":"e301f9a0-beba-449a-a05b-e2d0a6a3e801","system_id":"levelo_inurba_marseille","lat":43.27053,"lon":5.40277,"is_reserved":false,"is_disabled":false,"rental_uris":{"android":"levelo://app?vid=e301f9a0-beba-449a-a05b-e2d0a6a3e801","ios":"levelo://app?vid=e301f9a0-beba-449a-a05b-e2d0a6a3e801"},"vehicle_type_id":"4","last_reported":1753172193,"current_range_meters":10000,"station_id":"ce4bhk92rcd13ifvqgc0","pricing_plan_id":"cebpf4jnsgd1na2vs0mg"},{"bike_id":"3117258b-a0b2-4038-960e-7505313a6719","system_id":"levelo_inurba_marseille","lat":43.321098,"lon":5.367818,"is_reserved":false,"is_disabled":false,"rental_uris":{"android":"levelo://app?vid=3117258b-a0b2-4038-960e-7505313a6719","ios":"levelo://app?vid=3117258b-a0b2-4038-960e-7505313a6719"},"vehicle_type_id":"4","last_reported":1753172193,"current_range_meters":10800,"station_id":"ce4bhrh2rcd13ifvqhug","pricing_plan_id":"cebpf4jnsgd1na2vs0mg"},{"bike_id":"9c838529-2f8d-4cf1-ba58-27067ac84219","system_id":"levelo_inurba_marseille","lat":43.241651,"lon":5.364019,"is_reserved":false,"is_disabled":false,"rental_uris":{"android":"levelo://app?vid=9c838529-2f8d-4cf1-ba58-27067ac84219","ios":"levelo://app?vid=9c838529-2f8d-4cf1-ba58-27067ac84219"},"vehicle_type_id":"4","last_reported":1753172193,"current_range_meters":10800,"station_id":"cpo36qri1sfpv3e86is0","pricing_plan_id":"cebpf4jnsgd1na2vs0mg"},{"bike_id":"1cd941a3-7b34-4235-bcbd-b8da6cb510c1","system_id":"levelo_inurba_marseille","lat":43.30947,"lon":5.39031,"is_reserved":false,"is_disabled":true,"rental_uris":{"android":"levelo://app?vid=1cd941a3-7b34-4235-bcbd-b8da6cb510c1","ios":"levelo://app?vid=1cd941a3-7b34-4235-bcbd-b8da6cb510c1"},"vehicle_type_id":"4","last_reported":1753172193,"current_range_meters":10800,"station_id":"ce4bgup2rcd13ifvqco0","pricing_plan_id":"cebpf4jnsgd1na2vs0mg"},{"bike_id":"21427e62-22bf-47dd-9b4b-c2510b72cf88","system_id":"levelo_inurba_marseille","lat":43.31391,"lon":5.36676,"is_reserved":false,"is_disabled":false,"rental_uris":{"android":"levelo://app?vid=21427e62-22bf-47dd-9b4b-c2510b72cf88","ios":"levelo://app?vid=21427e62-22bf-47dd-9b4b-c2510b72cf88"},"vehicle_type_id":"4","last_reported":1753172193,"current_range_meters":10800,"station_id":"","pricing_plan_id":"cebpf4jnsgd1na2vs0mg"},{"bike_id":"c4ddf749-008b-4a14-af16-f3a13a431402","system_id":"levelo_inurba_marseille","lat":43.211923,"lon":5.350714,"is_reserved":false,"is_disabled":false,"rental_uris":{"android":"levelo://app?vid=c4ddf749-008b-4a14-af16-f3a13a431402","ios":"levelo://app?vid=c4ddf749-008b-4a14-af16-f3a13a431402"},"vehicle_type_id":"4","last_reported":1753172193,"current_range_meters":11200,"station_id":"st_cvj6sg6p6f1abm77japg","pricing_plan_id":"cebpf4jnsgd1na2vs0mg"},{"bike_id":"523d528a-80ef-4c0a-986f-e24abf3cd641","system_id":"levelo_inurba_marseille","lat":43.27342,"lon":5.39128,"is_reserved":false,"is_disabled":false,"rental_uris":{"android":"levelo://app?vid=523d528a-80ef-4c0a-986f-e24abf3cd641","ios":"levelo://app?vid=523d528a-80ef-4c0a-986f-e24abf3cd641"},"vehicle_type_id":"4","last_reported":1753172193,"current_range_meters":11200,"station_id":"ce4bhgp2rcd13ifvqfe0","pricing_plan_id":"cebpf4jnsgd1na2vs0mg"},{"bike_id":"7edfa0c6-f3ce-4864-b31d-93a43f917830","system_id":"levelo_inurba_marseille","lat":43.29585,"lon":5.36737,"is_reserved":false,"is_disabled":false,"rental_uris":{"android":"levelo://app?vid=7edfa0c6-f3ce-4864-b31d-93a43f917830","ios":"levelo://app?vid=7edfa0c6-f3ce-4864-b31d-93a43f917830"},"vehicle_type_id":"4","last_reported":1753172193,"current_range_meters":10800,"station_id":"ce4bgph2rcd13ifvqc2g","pricing_plan_id":"cebpf4jnsgd1na2vs0mg"},{"bike_id":"1c22819b-ef69-41c3-af80-068c7a58af48","system_id":"levelo_inurba_marseille","lat":43.321,"lon":5.36782,"is_reserved":false,"is_disabled":false,"rental_uris":{"android":"levelo://app?vid=1c22819b-ef69-41c3-af80-068c7a58af48","ios":"levelo://app?vid=1c22819b-ef69-41c3-af80-068c7a58af48"},"vehicle_type_id":"4","last_reported":1753172193,"current_range_meters":11200,"station_id":"ce4bhrh2rcd13ifvqhug","pricing_plan_id":"cebpf4jnsgd1na2vs0mg"},{"bike_id":"d0d3aa49-8b6f-4a01-b368-8d7a86d391dd","system_id":"levelo_inurba_marseille","lat":43.27647,"lon":5.36119,"is_reserved":false,"is_disabled":false,"rental_uris":{"android":"levelo://app?vid=d0d3aa49-8b6f-4a01-b368-8d7a86d391dd","ios":"levelo://app?vid=d0d3aa49-8b6f-4a01-b368-8d7a86d391dd"},"vehicle_type_id":"4","last_reported":1753172193,"current_range_meters":11200,"station_id":"ce4bgj92rcd13ifvqbe0","pricing_plan_id":"cebpf4jnsgd1na2vs0mg"},{"bike_id":"2e53d9f8-1df5-48f5-b763-5f8396a6577a","system_id":"levelo_inurba_marseille","lat":43.231921,"lon":5.355569,"is_reserved":false,"is_disabled":false,"rental_uris":{"android":"levelo://app?vid=2e53d9f8-1df5-48f5-b763-5f8396a6577a","ios":"levelo://app?vid=2e53d9f8-1df5-48f5-b763-5f8396a6577a"},"vehicle_type_id":"4","last_reported":1753172193,"current_range_meters":11600,"station_id":"ce4bhu92rcd13ifvqi70","pricing_plan_id":"cebpf4jnsgd1na2vs0mg"},{"bike_id":"f78f15e7-d7de-4ce4-8037-62a791035844","system_id":"levelo_inurba_marseille","lat":43.28726,"lon":5.3793,"is_reserved":false,"is_disabled":false,"rental_uris":{"android":"levelo://app?vid=f78f15e7-d7de-4ce4-8037-62a791035844","ios":"levelo://app?vid=f78f15e7-d7de-4ce4-8037-62a791035844"},"vehicle_type_id":"4","last_reported":1753172193,"current_range_meters":11600,"station_id":"ce4bh9p2rcd13ifvqec0","pricing_plan_id":"cebpf4jnsgd1na2vs0mg"},{"bike_id":"85b008dd-0f9f-4205-aa28-4f549082c3e6","system_id":"levelo_inurba_marseille","lat":43.211991,"lon":5.350536,"is_reserved":false,"is_disabled":false,"rental_uris":{"android":"levelo://app?vid=85b008dd-0f9f-4205-aa28-4f549082c3e6","ios":"levelo://app?vid=85b008dd-0f9f-4205-aa28-4f549082c3e6"},"vehicle_type_id":"4","last_reported":1753172193,"current_range_meters":12000,"station_id":"st_cvj6sg6p6f1abm77japg","pricing_plan_id":"cebpf4jnsgd1na2vs0mg"},{"bike_id":"a2559ce4-aa90-4467-91f0-d1b2f7dbc0a4","system_id":"levelo_inurba_marseille","lat":43.303081,"lon":5.4009,"is_reserved":false,"is_disabled":true,"rental_uris":{"android":"levelo://app?vid=a2559ce4-aa90-4467-91f0-d1b2f7dbc0a4","ios":"levelo://app?vid=a2559ce4-aa90-4467-91f0-d1b2f7dbc0a4"},"vehicle_type_id":"4","last_reported":1753172193,"current_range_meters":12000,"station_id":"ce4bh112rcd13ifvqda0","pricing_plan_id":"cebpf4jnsgd1na2vs0mg"},{"bike_id":"bc3ac672-8b1a-48b2-bb96-3ae2b7c2baed","system_id":"levelo_inurba_marseille","lat":43.24389,"lon":5.37055,"is_reserved":false,"is_disabled":false,"rental_uris":{"android":"levelo://app?vid=bc3ac672-8b1a-48b2-bb96-3ae2b7c2baed","ios":"levelo://app?vid=bc3ac672-8b1a-48b2-bb96-3ae2b7c2baed"},"vehicle_type_id":"4","last_reported":1753172193,"current_range_meters":12000,"station_id":"ce4bhhh2rcd13ifvqfk0","pricing_plan_id":"cebpf4jnsgd1na2vs0mg"},{"bike_id":"ba2b3a99-8668-4f5d-bab3-0079c47bd454","system_id":"levelo_inurba_marseille","lat":43.32528,"lon":5.41474,"is_reserved":false,"is_disabled":false,"rental_uris":{"android":"levelo://app?vid=ba2b3a99-8668-4f5d-bab3-0079c47bd454","ios":"levelo://app?vid=ba2b3a99-8668-4f5d-bab3-0079c47bd454"},"vehicle_type_id":"4","last_reported":1753172193,"current_range_meters":12000,"station_id":"ce4bhq12rcd13ifvqhhg","pricing_plan_id":"cebpf4jnsgd1na2vs0mg"},{"bike_id":"9f8314e3-7c65-49bd-b594-cbf40d63d5e2","system_id":"levelo_inurba_marseille","lat":43.29368,"lon":5.37825,"is_reserved":false,"is_disabled":false,"rental_uris":{"android":"levelo://app?vid=9f8314e3-7c65-49bd-b594-cbf40d63d5e2","ios":"levelo://app?vid=9f8314e3-7c65-49bd-b594-cbf40d63d5e2"},"vehicle_type_id":"4","last_reported":1753172193,"current_range_meters":12000,"station_id":"ce4bgjh2rcd13ifvqbf0","pricing_plan_id":"cebpf4jnsgd1na2vs0mg"},{"bike_id":"8623e104-31b9-42b2-96cf-b9f1ba7058fc","system_id":"levelo_inurba_marseille","lat":43.212031,"lon":5.35063,"is_reserved":false,"is_disabled":false,"rental_uris":{"android":"levelo://app?vid=8623e104-31b9-42b2-96cf-b9f1ba7058fc","ios":"levelo://app?vid=8623e104-31b9-42b2-96cf-b9f1ba7058fc"},"vehicle_type_id":"4","last_reported":1753172193,"current_range_meters":12000,"station_id":"st_cvj6sg6p6f1abm77japg","pricing_plan_id":"cebpf4jnsgd1na2vs0mg"},{"bike_id":"34230ac3-7353-4069-b299-fb1f7350c1f1","system_id":"levelo_inurba_marseille","lat":43.26213,"lon":5.37436,"is_reserved":false,"is_disabled":false,"rental_uris":{"android":"levelo://app?vid=34230ac3-7353-4069-b299-fb1f7350c1f1","ios":"levelo://app?vid=34230ac3-7353-4069-b299-fb1f7350c1f1"},"vehicle_type_id":"4","last_reported":1753172193,"current_range_meters":12400,"station_id":"ce4bhgp2rcd13ifvqfc0","pricing_plan_id":"cebpf4jnsgd1na2vs0mg"},{"bike_id":"91d08a97-f4ec-47ae-aba7-eb40d08db0f5","system_id":"levelo_inurba_marseille","lat":43.211936,"lon":5.350693,"is_reserved":false,"is_disabled":false,"rental_uris":{"android":"levelo://app?vid=91d08a97-f4ec-47ae-aba7-eb40d08db0f5","ios":"levelo://app?vid=91d08a97-f4ec-47ae-aba7-eb40d08db0f5"},"vehicle_type_id":"4","last_reported":1753172193,"current_range_meters":12400,"station_id":"st_cvj6sg6p6f1abm77japg","pricing_plan_id":"cebpf4jnsgd1na2vs0mg"},{"bike_id":"1eef45c2-ccdc-4d31-8643-6312bbf498a1","system_id":"levelo_inurba_marseille","lat":43.33038,"lon":5.37822,"is_reserved":false,"is_disabled":true,"rental_uris":{"android":"levelo://app?vid=1eef45c2-ccdc-4d31-8643-6312bbf498a1","ios":"levelo://app?vid=1eef45c2-ccdc-4d31-8643-6312bbf498a1"},"vehicle_type_id":"4","last_reported":1753172193,"current_range_meters":12400,"station_id":"","pricing_plan_id":"cebpf4jnsgd1na2vs0mg"},{"bike_id":"3e35d245-5de9-4144-851a-627cd2108226","system_id":"levelo_inurba_marseille","lat":43.28483,"lon":5.38548,"is_reserved":false,"is_disabled":false,"rental_uris":{"android":"levelo://app?vid=3e35d245-5de9-4144-851a-627cd2108226","ios":"levelo://app?vid=3e35d245-5de9-4144-851a-627cd2108226"},"vehicle_type_id":"4","last_reported":1753172193,"current_range_meters":12400,"station_id":"ce4bh8p2rcd13ifvqeb0","pricing_plan_id":"cebpf4jnsgd1na2vs0mg"},{"bike_id":"8423e589-47bf-47a8-b90f-452fc938c46b","system_id":"levelo_inurba_marseille","lat":43.32356,"lon":5.36749,"is_reserved":false,"is_disabled":false,"rental_uris":{"android":"levelo://app?vid=8423e589-47bf-47a8-b90f-452fc938c46b","ios":"levelo://app?vid=8423e589-47bf-47a8-b90f-452fc938c46b"},"vehicle_type_id":"4","last_reported":1753172193,"current_range_meters":12400,"station_id":"ce4bhsh2rcd13ifvqi2g","pricing_plan_id":"cebpf4jnsgd1na2vs0mg"},{"bike_id":"fb0bd549-e8fc-4767-99bd-b67f7f9a54d0","system_id":"levelo_inurba_marseille","lat":43.31215,"lon":5.36865,"is_reserved":false,"is_disabled":false,"rental_uris":{"android":"levelo://app?vid=fb0bd549-e8fc-4767-99bd-b67f7f9a54d0","ios":"levelo://app?vid=fb0bd549-e8fc-4767-99bd-b67f7f9a54d0"},"vehicle_type_id":"4","last_reported":1753172193,"current_range_meters":12400,"station_id":"ce4bgl92rcd13ifvqbq0","pricing_plan_id":"cebpf4jnsgd1na2vs0mg"},{"bike_id":"3f67476d-fa7d-49db-9de9-b5c66256295e","system_id":"levelo_inurba_marseille","lat":43.29712,"lon":5.36612,"is_reserved":false,"is_disabled":false,"rental_uris":{"android":"levelo://app?vid=3f67476d-fa7d-49db-9de9-b5c66256295e","ios":"levelo://app?vid=3f67476d-fa7d-49db-9de9-b5c66256295e"},"vehicle_type_id":"4","last_reported":1753172193,"current_range_meters":12400,"station_id":"ce4bgn12rcd13ifvqbt0","pricing_plan_id":"cebpf4jnsgd1na2vs0mg"},{"bike_id":"428942ae-179c-4d5f-8592-8493a768c578","system_id":"levelo_inurba_marseille","lat":43.23964,"lon":5.36643,"is_reserved":false,"is_disabled":false,"rental_uris":{"android":"levelo://app?vid=428942ae-179c-4d5f-8592-8493a768c578","ios":"levelo://app?vid=428942ae-179c-4d5f-8592-8493a768c578"},"vehicle_type_id":"4","last_reported":1753172193,"current_range_meters":12400,"station_id":"ce4bhi12rcd13ifvqfp0","pricing_plan_id":"cebpf4jnsgd1na2vs0mg"},{"bike_id":"648ec125-f26a-4a6d-a3d0-68b8c3f37159","system_id":"levelo_inurba_marseille","lat":43.28416,"lon":5.375054,"is_reserved":false,"is_disabled":false,"rental_uris":{"android":"levelo://app?vid=648ec125-f26a-4a6d-a3d0-68b8c3f37159","ios":"levelo://app?vid=648ec125-f26a-4a6d-a3d0-68b8c3f37159"},"vehicle_type_id":"4","last_reported":1753172193,"current_range_meters":12400,"station_id":"ce4bh412rcd13ifvqds0","pricing_plan_id":"cebpf4jnsgd1na2vs0mg"},{"bike_id":"9173bdc2-9aa0-45b5-8c2c-fe6f1121ccb8","system_id":"levelo_inurba_marseille","lat":43.26792,"lon":5.39414,"is_reserved":false,"is_disabled":false,"rental_uris":{"android":"levelo://app?vid=9173bdc2-9aa0-45b5-8c2c-fe6f1121ccb8","ios":"levelo://app?vid=9173bdc2-9aa0-45b5-8c2c-fe6f1121ccb8"},"vehicle_type_id":"4","last_reported":1753172193,"current_range_meters":12800,"station_id":"ce4bhh12rcd13ifvqfg0","pricing_plan_id":"cebpf4jnsgd1na2vs0mg"},{"bike_id":"a5d420c1-6f63-4560-9fe2-e08db2c4fecb","system_id":"levelo_inurba_marseille","lat":43.211984,"lon":5.350711,"is_reserved":false,"is_disabled":false,"rental_uris":{"android":"levelo://app?vid=a5d420c1-6f63-4560-9fe2-e08db2c4fecb","ios":"levelo://app?vid=a5d420c1-6f63-4560-9fe2-e08db2c4fecb"},"vehicle_type_id":"4","last_reported":1753172193,"current_range_meters":12800,"station_id":"st_cvj6sg6p6f1abm77japg","pricing_plan_id":"cebpf4jnsgd1na2vs0mg"},{"bike_id":"5e141dcc-c241-4347-9b7f-7d64a624ac54","system_id":"levelo_inurba_marseille","lat":43.28922,"lon":5.38393,"is_reserved":false,"is_disabled":false,"rental_uris":{"android":"levelo://app?vid=5e141dcc-c241-4347-9b7f-7d64a624ac54","ios":"levelo://app?vid=5e141dcc-c241-4347-9b7f-7d64a624ac54"},"vehicle_type_id":"4","last_reported":1753172193,"current_range_meters":12800,"station_id":"ce4bh612rcd13ifvqe6g","pricing_plan_id":"cebpf4jnsgd1na2vs0mg"},{"bike_id":"50d16da1-39af-48c8-9080-8fc1a2184959","system_id":"levelo_inurba_marseille","lat":43.211928,"lon":5.350651,"is_reserved":false,"is_disabled":false,"rental_uris":{"android":"levelo://app?vid=50d16da1-39af-48c8-9080-8fc1a2184959","ios":"levelo://app?vid=50d16da1-39af-48c8-9080-8fc1a2184959"},"vehicle_type_id":"4","last_reported":1753172193,"current_range_meters":12800,"station_id":"st_cvj6sg6p6f1abm77japg","pricing_plan_id":"cebpf4jnsgd1na2vs0mg"},{"bike_id":"57697c05-daad-407d-9d65-90cb78fc186b","system_id":"levelo_inurba_marseille","lat":43.31379,"lon":5.36739,"is_reserved":false,"is_disabled":false,"rental_uris":{"android":"levelo://app?vid=57697c05-daad-407d-9d65-90cb78fc186b","ios":"levelo://app?vid=57697c05-daad-407d-9d65-90cb78fc186b"},"vehicle_type_id":"4","last_reported":1753172193,"current_range_meters":13600,"station_id":"","pricing_plan_id":"cebpf4jnsgd1na2vs0mg"},{"bike_id":"7ff4fc28-cadd-40d7-90f6-f685780a72ea","system_id":"levelo_inurba_marseille","lat":43.243894,"lon":5.370566,"is_reserved":false,"is_disabled":false,"rental_uris":{"android":"levelo://app?vid=7ff4fc28-cadd-40d7-90f6-f685780a72ea","ios":"levelo://app?vid=7ff4fc28-cadd-40d7-90f6-f685780a72ea"},"vehicle_type_id":"4","last_reported":1753172193,"current_range_meters":13600,"station_id":"ce4bhhh2rcd13ifvqfk0","pricing_plan_id":"cebpf4jnsgd1na2vs0mg"},{"bike_id":"b6191c96-af83-462f-a3cc-e4778a781fff","system_id":"levelo_inurba_marseille","lat":43.21177,"lon":5.35058,"is_reserved":false,"is_disabled":false,"rental_uris":{"android":"levelo://app?vid=b6191c96-af83-462f-a3cc-e4778a781fff","ios":"levelo://app?vid=b6191c96-af83-462f-a3cc-e4778a781fff"},"vehicle_type_id":"4","last_reported":1753172193,"current_range_meters":13600,"station_id":"st_cvj6sg6p6f1abm77japg","pricing_plan_id":"cebpf4jnsgd1na2vs0mg"},{"bike_id":"a3c743e0-1c2e-4417-ac13-886c23a2a6d2","system_id":"levelo_inurba_marseille","lat":43.28427,"lon":5.34989,"is_reserved":false,"is_disabled":false,"rental_uris":{"android":"levelo://app?vid=a3c743e0-1c2e-4417-ac13-886c23a2a6d2","ios":"levelo://app?vid=a3c743e0-1c2e-4417-ac13-886c23a2a6d2"},"vehicle_type_id":"4","last_reported":1753172193,"current_range_meters":13600,"station_id":"ce4bhbh2rcd13ifvqepg","pricing_plan_id":"cebpf4jnsgd1na2vs0mg"},{"bike_id":"4ea528f7-8e3d-430f-b622-f127030be52b","system_id":"levelo_inurba_marseille","lat":43.33608,"lon":5.41035,"is_reserved":false,"is_disabled":false,"rental_uris":{"android":"levelo://app?vid=4ea528f7-8e3d-430f-b622-f127030be52b","ios":"levelo://app?vid=4ea528f7-8e3d-430f-b622-f127030be52b"},"vehicle_type_id":"4","last_reported":1753172193,"current_range_meters":13600,"station_id":"ce4bhqh2rcd13ifvqhmg","pricing_plan_id":"cebpf4jnsgd1na2vs0mg"},{"bike_id":"6ecd5a2b-6dae-44b3-a162-e5286af43d43","system_id":"levelo_inurba_marseille","lat":43.22535,"lon":5.34785,"is_reserved":false,"is_disabled":false,"rental_uris":{"android":"levelo://app?vid=6ecd5a2b-6dae-44b3-a162-e5286af43d43","ios":"levelo://app?vid=6ecd5a2b-6dae-44b3-a162-e5286af43d43"},"vehicle_type_id":"4","last_reported":1753172193,"current_range_meters":13600,"station_id":"st_cvj5dfep6f1abm77gieg","pricing_plan_id":"cebpf4jnsgd1na2vs0mg"},{"bike_id":"2d6095ea-f882-494d-a187-fa879408181e","system_id":"levelo_inurba_marseille","lat":43.25129,"lon":5.37338,"is_reserved":false,"is_disabled":false,"rental_uris":{"android":"levelo://app?vid=2d6095ea-f882-494d-a187-fa879408181e","ios":"levelo://app?vid=2d6095ea-f882-494d-a187-fa879408181e"},"vehicle_type_id":"4","last_reported":1753172193,"current_range_meters":13600,"station_id":"","pricing_plan_id":"cebpf4jnsgd1na2vs0mg"},{"bike_id":"ad8b3b81-6d5c-4c13-aef7-47dee821e64f","system_id":"levelo_inurba_marseille","lat":43.30947,"lon":5.39026,"is_reserved":false,"is_disabled":false,"rental_uris":{"android":"levelo://app?vid=ad8b3b81-6d5c-4c13-aef7-47dee821e64f","ios":"levelo://app?vid=ad8b3b81-6d5c-4c13-aef7-47dee821e64f"},"vehicle_type_id":"4","last_reported":1753172193,"current_range_meters":14000,"station_id":"ce4bgup2rcd13ifvqco0","pricing_plan_id":"cebpf4jnsgd1na2vs0mg"},{"bike_id":"5a5db7b6-af2d-4029-8f39-cfa78d44a10d","system_id":"levelo_inurba_marseille","lat":43.276223,"lon":5.361143,"is_reserved":false,"is_disabled":false,"rental_uris":{"android":"levelo://app?vid=5a5db7b6-af2d-4029-8f39-cfa78d44a10d","ios":"levelo://app?vid=5a5db7b6-af2d-4029-8f39-cfa78d44a10d"},"vehicle_type_id":"4","last_reported":1753172193,"current_range_meters":14000,"station_id":"ce4bgj92rcd13ifvqbe0","pricing_plan_id":"cebpf4jnsgd1na2vs0mg"},{"bike_id":"8c174022-96ee-4b6a-a947-f69ece107704","system_id":"levelo_inurba_marseille","lat":43.26662,"lon":5.38258,"is_reserved":false,"is_disabled":false,"rental_uris":{"android":"levelo://app?vid=8c174022-96ee-4b6a-a947-f69ece107704","ios":"levelo://app?vid=8c174022-96ee-4b6a-a947-f69ece107704"},"vehicle_type_id":"4","last_reported":1753172193,"current_range_meters":14000,"station_id":"ce4bhg92rcd13ifvqf90","pricing_plan_id":"cebpf4jnsgd1na2vs0mg"},{"bike_id":"91faf937-6768-4101-98da-411036d125c4","system_id":"levelo_inurba_marseille","lat":43.22933,"lon":5.35372,"is_reserved":false,"is_disabled":false,"rental_uris":{"android":"levelo://app?vid=91faf937-6768-4101-98da-411036d125c4","ios":"levelo://app?vid=91faf937-6768-4101-98da-411036d125c4"},"vehicle_type_id":"4","last_reported":1753172193,"current_range_meters":14000,"station_id":"cpo3532slgdg3j2ikp40","pricing_plan_id":"cebpf4jnsgd1na2vs0mg"},{"bike_id":"6940e707-2866-429c-af31-7f2bd9c2bc86","system_id":"levelo_inurba_marseille","lat":43.2417,"lon":5.36374,"is_reserved":false,"is_disabled":false,"rental_uris":{"android":"levelo://app?vid=6940e707-2866-429c-af31-7f2bd9c2bc86","ios":"levelo://app?vid=6940e707-2866-429c-af31-7f2bd9c2bc86"},"vehicle_type_id":"4","last_reported":1753172193,"current_range_meters":14000,"station_id":"cpo36qri1sfpv3e86is0","pricing_plan_id":"cebpf4jnsgd1na2vs0mg"},{"bike_id":"7230cb4d-8cd2-4957-9d99-c27265ab6ce1","system_id":"levelo_inurba_marseille","lat":43.29299,"lon":5.37168,"is_reserved":false,"is_disabled":false,"rental_uris":{"android":"levelo://app?vid=7230cb4d-8cd2-4957-9d99-c27265ab6ce1","ios":"levelo://app?vid=7230cb4d-8cd2-4957-9d99-c27265ab6ce1"},"vehicle_type_id":"4","last_reported":1753172193,"current_range_meters":14000,"station_id":"ce4bgh92rcd13ifvqb40","pricing_plan_id":"cebpf4jnsgd1na2vs0mg"},{"bike_id":"06f0e7b5-15a0-4c85-a421-381e139dc51e","system_id":"levelo_inurba_marseille","lat":43.299067,"lon":5.43665,"is_reserved":false,"is_disabled":false,"rental_uris":{"android":"levelo://app?vid=06f0e7b5-15a0-4c85-a421-381e139dc51e","ios":"levelo://app?vid=06f0e7b5-15a0-4c85-a421-381e139dc51e"},"vehicle_type_id":"4","last_reported":1753172193,"current_range_meters":14400,"station_id":"ce4bhpp2rcd13ifvqhfg","pricing_plan_id":"cebpf4jnsgd1na2vs0mg"},{"bike_id":"4d2fb385-600a-460f-817d-c81c8838ad28","system_id":"levelo_inurba_marseille","lat":43.32363,"lon":5.36752,"is_reserved":false,"is_disabled":false,"rental_uris":{"android":"levelo://app?vid=4d2fb385-600a-460f-817d-c81c8838ad28","ios":"levelo://app?vid=4d2fb385-600a-460f-817d-c81c8838ad28"},"vehicle_type_id":"4","last_reported":1753172193,"current_range_meters":14400,"station_id":"ce4bhsh2rcd13ifvqi2g","pricing_plan_id":"cebpf4jnsgd1na2vs0mg"},{"bike_id":"0cb19f5e-6a19-4fc0-9b18-698188d68bf4","system_id":"levelo_inurba_marseille","lat":43.29726,"lon":5.43265,"is_reserved":false,"is_disabled":false,"rental_uris":{"android":"levelo://app?vid=0cb19f5e-6a19-4fc0-9b18-698188d68bf4","ios":"levelo://app?vid=0cb19f5e-6a19-4fc0-9b18-698188d68bf4"},"vehicle_type_id":"4","last_reported":1753172193,"current_range_meters":14400,"station_id":"","pricing_plan_id":"cebpf4jnsgd1na2vs0mg"},{"bike_id":"68ad25bf-3ce4-4219-aae6-b4b4ca3df214","system_id":"levelo_inurba_marseille","lat":43.225044,"lon":5.347869,"is_reserved":false,"is_disabled":false,"rental_uris":{"android":"levelo://app?vid=68ad25bf-3ce4-4219-aae6-b4b4ca3df214","ios":"levelo://app?vid=68ad25bf-3ce4-4219-aae6-b4b4ca3df214"},"vehicle_type_id":"4","last_reported":1753172193,"current_range_meters":14400,"station_id":"st_cvj5dfep6f1abm77gieg","pricing_plan_id":"cebpf4jnsgd1na2vs0mg"},{"bike_id":"81bb7730-d4c8-47b6-bc06-e0d8799e3e2e","system_id":"levelo_inurba_marseille","lat":43.31363,"lon":5.36717,"is_reserved":false,"is_disabled":false,"rental_uris":{"android":"levelo://app?vid=81bb7730-d4c8-47b6-bc06-e0d8799e3e2e","ios":"levelo://app?vid=81bb7730-d4c8-47b6-bc06-e0d8799e3e2e"},"vehicle_type_id":"4","last_reported":1753172193,"current_range_meters":14400,"station_id":"ce4bgr92rcd13ifvqc6g","pricing_plan_id":"cebpf4jnsgd1na2vs0mg"},{"bike_id":"418dda29-32a9-4edb-9427-1bc2dc60c1c0","system_id":"levelo_inurba_marseille","lat":43.24621,"lon":5.43704,"is_reserved":false,"is_disabled":true,"rental_uris":{"android":"levelo://app?vid=418dda29-32a9-4edb-9427-1bc2dc60c1c0","ios":"levelo://app?vid=418dda29-32a9-4edb-9427-1bc2dc60c1c0"},"vehicle_type_id":"4","last_reported":1753172193,"current_range_meters":14400,"station_id":"","pricing_plan_id":"cebpf4jnsgd1na2vs0mg"},{"bike_id":"dae9d2f9-4335-4d0e-9d6c-5de7f888ab5a","system_id":"levelo_inurba_marseille","lat":43.29905,"lon":5.43659,"is_reserved":false,"is_disabled":false,"rental_uris":{"android":"levelo://app?vid=dae9d2f9-4335-4d0e-9d6c-5de7f888ab5a","ios":"levelo://app?vid=dae9d2f9-4335-4d0e-9d6c-5de7f888ab5a"},"vehicle_type_id":"4","last_reported":1753172193,"current_range_meters":14800,"station_id":"ce4bhpp2rcd13ifvqhfg","pricing_plan_id":"cebpf4jnsgd1na2vs0mg"},{"bike_id":"ab1970ef-89b5-409e-b573-cb2943b42e78","system_id":"levelo_inurba_marseille","lat":43.28485,"lon":5.38536,"is_reserved":false,"is_disabled":false,"rental_uris":{"android":"levelo://app?vid=ab1970ef-89b5-409e-b573-cb2943b42e78","ios":"levelo://app?vid=ab1970ef-89b5-409e-b573-cb2943b42e78"},"vehicle_type_id":"4","last_reported":1753172193,"current_range_meters":14800,"station_id":"","pricing_plan_id":"cebpf4jnsgd1na2vs0mg"},{"bike_id":"94cd5dff-e6f8-423f-a340-9d6b8a3e701b","system_id":"levelo_inurba_marseille","lat":43.25968,"lon":5.40897,"is_reserved":false,"is_disabled":false,"rental_uris":{"android":"levelo://app?vid=94cd5dff-e6f8-423f-a340-9d6b8a3e701b","ios":"levelo://app?vid=94cd5dff-e6f8-423f-a340-9d6b8a3e701b"},"vehicle_type_id":"4","last_reported":1753172193,"current_range_meters":14800,"station_id":"ce4bhm92rcd13ifvqglg","pricing_plan_id":"cebpf4jnsgd1na2vs0mg"},{"bike_id":"10f3ac88-9fe7-4ce9-be16-d26980ef2a47","system_id":"levelo_inurba_marseille","lat":43.27303,"lon":5.39069,"is_reserved":false,"is_disabled":false,"rental_uris":{"android":"levelo://app?vid=10f3ac88-9fe7-4ce9-be16-d26980ef2a47","ios":"levelo://app?vid=10f3ac88-9fe7-4ce9-be16-d26980ef2a47"},"vehicle_type_id":"4","last_reported":1753172193,"current_range_meters":14800,"station_id":"ce4bhgp2rcd13ifvqfe0","pricing_plan_id":"cebpf4jnsgd1na2vs0mg"},{"bike_id":"fe732a6c-bff8-47cc-932a-3c976c2c7a76","system_id":"levelo_inurba_marseille","lat":43.280363,"lon":5.369555,"is_reserved":false,"is_disabled":true,"rental_uris":{"android":"levelo://app?vid=fe732a6c-bff8-47cc-932a-3c976c2c7a76","ios":"levelo://app?vid=fe732a6c-bff8-47cc-932a-3c976c2c7a76"},"vehicle_type_id":"4","last_reported":1753172193,"current_range_meters":15200,"station_id":"","pricing_plan_id":"cebpf4jnsgd1na2vs0mg"},{"bike_id":"a521607d-1c0a-4b41-a0f1-43c2608320f8","system_id":"levelo_inurba_marseille","lat":43.28229,"lon":5.39502,"is_reserved":false,"is_disabled":false,"rental_uris":{"android":"levelo://app?vid=a521607d-1c0a-4b41-a0f1-43c2608320f8","ios":"levelo://app?vid=a521607d-1c0a-4b41-a0f1-43c2608320f8"},"vehicle_type_id":"4","last_reported":1753172193,"current_range_meters":15200,"station_id":"","pricing_plan_id":"cebpf4jnsgd1na2vs0mg"},{"bike_id":"1ba771b0-5212-4f98-b002-d31b9afe16c2","system_id":"levelo_inurba_marseille","lat":43.27628,"lon":5.36102,"is_reserved":false,"is_disabled":false,"rental_uris":{"android":"levelo://app?vid=1ba771b0-5212-4f98-b002-d31b9afe16c2","ios":"levelo://app?vid=1ba771b0-5212-4f98-b002-d31b9afe16c2"},"vehicle_type_id":"4","last_reported":1753172193,"current_range_meters":15200,"station_id":"ce4bgj92rcd13ifvqbe0","pricing_plan_id":"cebpf4jnsgd1na2vs0mg"},{"bike_id":"027e9853-3ad8-418d-93d9-99ab07543652","system_id":"levelo_inurba_marseille","lat":43.30423,"lon":5.41276,"is_reserved":false,"is_disabled":false,"rental_uris":{"android":"levelo://app?vid=027e9853-3ad8-418d-93d9-99ab07543652","ios":"levelo://app?vid=027e9853-3ad8-418d-93d9-99ab07543652"},"vehicle_type_id":"4","last_reported":1753172193,"current_range_meters":15200,"station_id":"ce4bhop2rcd13ifvqh8g","pricing_plan_id":"cebpf4jnsgd1na2vs0mg"},{"bike_id":"37e12f00-021d-4f0d-9b21-a9b8f32f3d60","system_id":"levelo_inurba_marseille","lat":43.23149,"lon":5.43719,"is_reserved":false,"is_disabled":false,"rental_uris":{"android":"levelo://app?vid=37e12f00-021d-4f0d-9b21-a9b8f32f3d60","ios":"levelo://app?vid=37e12f00-021d-4f0d-9b21-a9b8f32f3d60"},"vehicle_type_id":"4","last_reported":1753172193,"current_range_meters":16000,"station_id":"ce4bhmp2rcd13ifvqgog","pricing_plan_id":"cebpf4jnsgd1na2vs0mg"},{"bike_id":"117247f7-a4c7-432a-86ee-400fecf425dc","system_id":"levelo_inurba_marseille","lat":43.30365,"lon":5.42468,"is_reserved":false,"is_disabled":false,"rental_uris":{"android":"levelo://app?vid=117247f7-a4c7-432a-86ee-400fecf425dc","ios":"levelo://app?vid=117247f7-a4c7-432a-86ee-400fecf425dc"},"vehicle_type_id":"4","last_reported":1753172193,"current_range_meters":16000,"station_id":"ce4bhoh2rcd13ifvqh6g","pricing_plan_id":"cebpf4jnsgd1na2vs0mg"},{"bike_id":"5757d1c1-1a47-4bc1-b4ad-f12008d76d15","system_id":"levelo_inurba_marseille","lat":43.312223,"lon":5.368603,"is_reserved":false,"is_disabled":false,"rental_uris":{"android":"levelo://app?vid=5757d1c1-1a47-4bc1-b4ad-f12008d76d15","ios":"levelo://app?vid=5757d1c1-1a47-4bc1-b4ad-f12008d76d15"},"vehicle_type_id":"4","last_reported":1753172193,"current_range_meters":16000,"station_id":"ce4bgl92rcd13ifvqbq0","pricing_plan_id":"cebpf4jnsgd1na2vs0mg"},{"bike_id":"e9b8c87e-db14-4020-aea2-466c8dbe1c1e","system_id":"levelo_inurba_marseille","lat":43.3055,"lon":5.36534,"is_reserved":false,"is_disabled":false,"rental_uris":{"android":"levelo://app?vid=e9b8c87e-db14-4020-aea2-466c8dbe1c1e","ios":"levelo://app?vid=e9b8c87e-db14-4020-aea2-466c8dbe1c1e"},"vehicle_type_id":"4","last_reported":1753172193,"current_range_meters":16000,"station_id":"ce4bgs12rcd13ifvqcag","pricing_plan_id":"cebpf4jnsgd1na2vs0mg"},{"bike_id":"de4e98c3-82ca-4c88-9379-c8eb99022426","system_id":"levelo_inurba_marseille","lat":43.229244,"lon":5.353786,"is_reserved":false,"is_disabled":false,"rental_uris":{"android":"levelo://app?vid=de4e98c3-82ca-4c88-9379-c8eb99022426","ios":"levelo://app?vid=de4e98c3-82ca-4c88-9379-c8eb99022426"},"vehicle_type_id":"4","last_reported":1753172193,"current_range_meters":16000,"station_id":"cpo3532slgdg3j2ikp40","pricing_plan_id":"cebpf4jnsgd1na2vs0mg"},{"bike_id":"b4c1aa2a-e931-4ce6-8816-30ad77bdd520","system_id":"levelo_inurba_marseille","lat":43.241448,"lon":5.363743,"is_reserved":false,"is_disabled":false,"rental_uris":{"android":"levelo://app?vid=b4c1aa2a-e931-4ce6-8816-30ad77bdd520","ios":"levelo://app?vid=b4c1aa2a-e931-4ce6-8816-30ad77bdd520"},"vehicle_type_id":"4","last_reported":1753172193,"current_range_meters":16000,"station_id":"","pricing_plan_id":"cebpf4jnsgd1na2vs0mg"},{"bike_id":"b050b2a0-6d4d-4d6b-b7de-6a89501ce2b7","system_id":"levelo_inurba_marseille","lat":43.28927,"lon":5.36376,"is_reserved":false,"is_disabled":true,"rental_uris":{"android":"levelo://app?vid=b050b2a0-6d4d-4d6b-b7de-6a89501ce2b7","ios":"levelo://app?vid=b050b2a0-6d4d-4d6b-b7de-6a89501ce2b7"},"vehicle_type_id":"4","last_reported":1753172193,"current_range_meters":16000,"station_id":"ce4bhc92rcd13ifvqetg","pricing_plan_id":"cebpf4jnsgd1na2vs0mg"},{"bike_id":"87bc9e6f-1d5b-4237-a1df-3b5cfd8a9777","system_id":"levelo_inurba_marseille","lat":43.21206,"lon":5.35079,"is_reserved":false,"is_disabled":false,"rental_uris":{"android":"levelo://app?vid=87bc9e6f-1d5b-4237-a1df-3b5cfd8a9777","ios":"levelo://app?vid=87bc9e6f-1d5b-4237-a1df-3b5cfd8a9777"},"vehicle_type_id":"4","last_reported":1753172193,"current_range_meters":16000,"station_id":"st_cvj6sg6p6f1abm77japg","pricing_plan_id":"cebpf4jnsgd1na2vs0mg"},{"bike_id":"abc5489a-f823-4dc4-b736-76f0b8370bbd","system_id":"levelo_inurba_marseille","lat":43.241724,"lon":5.363837,"is_reserved":false,"is_disabled":false,"rental_uris":{"android":"levelo://app?vid=abc5489a-f823-4dc4-b736-76f0b8370bbd","ios":"levelo://app?vid=abc5489a-f823-4dc4-b736-76f0b8370bbd"},"vehicle_type_id":"4","last_reported":1753172193,"current_range_meters":16000,"station_id":"cpo36qri1sfpv3e86is0","pricing_plan_id":"cebpf4jnsgd1na2vs0mg"},{"bike_id":"668bfa40-7ae0-42dd-a6b6-6631a40f0c0f","system_id":"levelo_inurba_marseille","lat":43.331395,"lon":5.385949,"is_reserved":false,"is_disabled":false,"rental_uris":{"android":"levelo://app?vid=668bfa40-7ae0-42dd-a6b6-6631a40f0c0f","ios":"levelo://app?vid=668bfa40-7ae0-42dd-a6b6-6631a40f0c0f"},"vehicle_type_id":"4","last_reported":1753172193,"current_range_meters":16000,"station_id":"","pricing_plan_id":"cebpf4jnsgd1na2vs0mg"},{"bike_id":"b52df7e2-ad75-4d6b-a395-f1eb700f2fd1","system_id":"levelo_inurba_marseille","lat":43.241676,"lon":5.364093,"is_reserved":false,"is_disabled":false,"rental_uris":{"android":"levelo://app?vid=b52df7e2-ad75-4d6b-a395-f1eb700f2fd1","ios":"levelo://app?vid=b52df7e2-ad75-4d6b-a395-f1eb700f2fd1"},"vehicle_type_id":"4","last_reported":1753172193,"current_range_meters":16000,"station_id":"cpo36qri1sfpv3e86is0","pricing_plan_id":"cebpf4jnsgd1na2vs0mg"},{"bike_id":"23cc3b08-ca65-4316-b0ac-f7195bc9668f","system_id":"levelo_inurba_marseille","lat":43.26063,"lon":5.39393,"is_reserved":false,"is_disabled":false,"rental_uris":{"android":"levelo://app?vid=23cc3b08-ca65-4316-b0ac-f7195bc9668f","ios":"levelo://app?vid=23cc3b08-ca65-4316-b0ac-f7195bc9668f"},"vehicle_type_id":"4","last_reported":1753172193,"current_range_meters":16000,"station_id":"ce4bhh92rcd13ifvqfj0","pricing_plan_id":"cebpf4jnsgd1na2vs0mg"},{"bike_id":"98829147-e922-4bec-ba07-80494afd4dbe","system_id":"levelo_inurba_marseille","lat":43.28488,"lon":5.38416,"is_reserved":false,"is_disabled":false,"rental_uris":{"android":"levelo://app?vid=98829147-e922-4bec-ba07-80494afd4dbe","ios":"levelo://app?vid=98829147-e922-4bec-ba07-80494afd4dbe"},"vehicle_type_id":"4","last_reported":1753172193,"current_range_meters":16400,"station_id":"ce4bh512rcd13ifvqe3g","pricing_plan_id":"cebpf4jnsgd1na2vs0mg"},{"bike_id":"0252eab3-c3f3-4486-b893-58cb3f957c57","system_id":"levelo_inurba_marseille","lat":43.317206,"lon":5.385154,"is_reserved":false,"is_disabled":false,"rental_uris":{"android":"levelo://app?vid=0252eab3-c3f3-4486-b893-58cb3f957c57","ios":"levelo://app?vid=0252eab3-c3f3-4486-b893-58cb3f957c57"},"vehicle_type_id":"4","last_reported":1753172193,"current_range_meters":16400,"station_id":"","pricing_plan_id":"cebpf4jnsgd1na2vs0mg"},{"bike_id":"bab53820-9bff-4bd4-a0e9-38cb6044d455","system_id":"levelo_inurba_marseille","lat":43.25918,"lon":5.40893,"is_reserved":false,"is_disabled":false,"rental_uris":{"android":"levelo://app?vid=bab53820-9bff-4bd4-a0e9-38cb6044d455","ios":"levelo://app?vid=bab53820-9bff-4bd4-a0e9-38cb6044d455"},"vehicle_type_id":"4","last_reported":1753172193,"current_range_meters":16400,"station_id":"ce4bhm92rcd13ifvqglg","pricing_plan_id":"cebpf4jnsgd1na2vs0mg"},{"bike_id":"7227f2a0-48ac-47a6-aa2d-661ad6a7a763","system_id":"levelo_inurba_marseille","lat":43.29058,"lon":5.3717,"is_reserved":false,"is_disabled":false,"rental_uris":{"android":"levelo://app?vid=7227f2a0-48ac-47a6-aa2d-661ad6a7a763","ios":"levelo://app?vid=7227f2a0-48ac-47a6-aa2d-661ad6a7a763"},"vehicle_type_id":"4","last_reported":1753172193,"current_range_meters":16400,"station_id":"ce4bgh92rcd13ifvqb40","pricing_plan_id":"cebpf4jnsgd1na2vs0mg"},{"bike_id":"502485d9-cd34-431f-86cb-09f09bd0655a","system_id":"levelo_inurba_marseille","lat":43.25725,"lon":5.41098,"is_reserved":false,"is_disabled":false,"rental_uris":{"android":"levelo://app?vid=502485d9-cd34-431f-86cb-09f09bd0655a","ios":"levelo://app?vid=502485d9-cd34-431f-86cb-09f09bd0655a"},"vehicle_type_id":"4","last_reported":1753172193,"current_range_meters":16400,"station_id":"ce4bhkp2rcd13ifvqgd0","pricing_plan_id":"cebpf4jnsgd1na2vs0mg"},{"bike_id":"02bda465-5730-4d42-a0d1-5ffc89217a3f","system_id":"levelo_inurba_marseille","lat":43.30658,"lon":5.38184,"is_reserved":false,"is_disabled":false,"rental_uris":{"android":"levelo://app?vid=02bda465-5730-4d42-a0d1-5ffc89217a3f","ios":"levelo://app?vid=02bda465-5730-4d42-a0d1-5ffc89217a3f"},"vehicle_type_id":"4","last_reported":1753172193,"current_range_meters":16400,"station_id":"","pricing_plan_id":"cebpf4jnsgd1na2vs0mg"},{"bike_id":"f0c684a9-6ac4-4634-ab41-7fb7e8cf187e","system_id":"levelo_inurba_marseille","lat":43.27955,"lon":5.4104,"is_reserved":false,"is_disabled":false,"rental_uris":{"android":"levelo://app?vid=f0c684a9-6ac4-4634-ab41-7fb7e8cf187e","ios":"levelo://app?vid=f0c684a9-6ac4-4634-ab41-7fb7e8cf187e"},"vehicle_type_id":"4","last_reported":1753172193,"current_range_meters":16400,"station_id":"ce4bhnp2rcd13ifvqh0g","pricing_plan_id":"cebpf4jnsgd1na2vs0mg"},{"bike_id":"4b04ca27-b65f-4da7-a701-b330371197ff","system_id":"levelo_inurba_marseille","lat":43.30957,"lon":5.39027,"is_reserved":false,"is_disabled":false,"rental_uris":{"android":"levelo://app?vid=4b04ca27-b65f-4da7-a701-b330371197ff","ios":"levelo://app?vid=4b04ca27-b65f-4da7-a701-b330371197ff"},"vehicle_type_id":"4","last_reported":1753172193,"current_range_meters":16400,"station_id":"ce4bgup2rcd13ifvqco0","pricing_plan_id":"cebpf4jnsgd1na2vs0mg"},{"bike_id":"c5445fa5-9221-4e5d-b2bc-b87ec0aac921","system_id":"levelo_inurba_marseille","lat":43.2293,"lon":5.353768,"is_reserved":false,"is_disabled":false,"rental_uris":{"android":"levelo://app?vid=c5445fa5-9221-4e5d-b2bc-b87ec0aac921","ios":"levelo://app?vid=c5445fa5-9221-4e5d-b2bc-b87ec0aac921"},"vehicle_type_id":"4","last_reported":1753172193,"current_range_meters":16400,"station_id":"cpo3532slgdg3j2ikp40","pricing_plan_id":"cebpf4jnsgd1na2vs0mg"},{"bike_id":"50975a3d-315e-466e-a8e1-4de66829cb75","system_id":"levelo_inurba_marseille","lat":43.32492,"lon":5.36567,"is_reserved":false,"is_disabled":false,"rental_uris":{"android":"levelo://app?vid=50975a3d-315e-466e-a8e1-4de66829cb75","ios":"levelo://app?vid=50975a3d-315e-466e-a8e1-4de66829cb75"},"vehicle_type_id":"4","last_reported":1753172193,"current_range_meters":16400,"station_id":"ce4bhs12rcd13ifvqhvg","pricing_plan_id":"cebpf4jnsgd1na2vs0mg"},{"bike_id":"2c59fb44-8b37-440a-bec1-4e746d1d2da6","system_id":"levelo_inurba_marseille","lat":43.2582,"lon":5.39438,"is_reserved":false,"is_disabled":false,"rental_uris":{"android":"levelo://app?vid=2c59fb44-8b37-440a-bec1-4e746d1d2da6","ios":"levelo://app?vid=2c59fb44-8b37-440a-bec1-4e746d1d2da6"},"vehicle_type_id":"4","last_reported":1753172193,"current_range_meters":16400,"station_id":"ce4bhip2rcd13ifvqft0","pricing_plan_id":"cebpf4jnsgd1na2vs0mg"},{"bike_id":"6270388c-e1bf-41b4-83eb-3d2f1008ca14","system_id":"levelo_inurba_marseille","lat":43.3277,"lon":5.37747,"is_reserved":false,"is_disabled":false,"rental_uris":{"android":"levelo://app?vid=6270388c-e1bf-41b4-83eb-3d2f1008ca14","ios":"levelo://app?vid=6270388c-e1bf-41b4-83eb-3d2f1008ca14"},"vehicle_type_id":"4","last_reported":1753172193,"current_range_meters":16400,"station_id":"","pricing_plan_id":"cebpf4jnsgd1na2vs0mg"},{"bike_id":"f6f1506f-41c6-4544-83d4-d744800dda02","system_id":"levelo_inurba_marseille","lat":43.244,"lon":5.37053,"is_reserved":false,"is_disabled":false,"rental_uris":{"android":"levelo://app?vid=f6f1506f-41c6-4544-83d4-d744800dda02","ios":"levelo://app?vid=f6f1506f-41c6-4544-83d4-d744800dda02"},"vehicle_type_id":"4","last_reported":1753172193,"current_range_meters":16400,"station_id":"ce4bhhh2rcd13ifvqfk0","pricing_plan_id":"cebpf4jnsgd1na2vs0mg"},{"bike_id":"38ca9fc0-57db-40f9-9bd8-a30e09b556a1","system_id":"levelo_inurba_marseille","lat":43.24652,"lon":5.38886,"is_reserved":false,"is_disabled":false,"rental_uris":{"android":"levelo://app?vid=38ca9fc0-57db-40f9-9bd8-a30e09b556a1","ios":"levelo://app?vid=38ca9fc0-57db-40f9-9bd8-a30e09b556a1"},"vehicle_type_id":"4","last_reported":1753172193,"current_range_meters":16800,"station_id":"ce4bhg12rcd13ifvqf60","pricing_plan_id":"cebpf4jnsgd1na2vs0mg"},{"bike_id":"f63f1008-77c6-4072-95a4-ddba055831ce","system_id":"levelo_inurba_marseille","lat":43.29291,"lon":5.37445,"is_reserved":false,"is_disabled":false,"rental_uris":{"android":"levelo://app?vid=f63f1008-77c6-4072-95a4-ddba055831ce","ios":"levelo://app?vid=f63f1008-77c6-4072-95a4-ddba055831ce"},"vehicle_type_id":"4","last_reported":1753172193,"current_range_meters":16800,"station_id":"ce4bgi12rcd13ifvqb70","pricing_plan_id":"cebpf4jnsgd1na2vs0mg"},{"bike_id":"90d182c4-3099-4bb5-a589-d43c195c6d8e","system_id":"levelo_inurba_marseille","lat":43.31379,"lon":5.36701,"is_reserved":false,"is_disabled":false,"rental_uris":{"android":"levelo://app?vid=90d182c4-3099-4bb5-a589-d43c195c6d8e","ios":"levelo://app?vid=90d182c4-3099-4bb5-a589-d43c195c6d8e"},"vehicle_type_id":"4","last_reported":1753172193,"current_range_meters":16800,"station_id":"ce4bgr92rcd13ifvqc6g","pricing_plan_id":"cebpf4jnsgd1na2vs0mg"},{"bike_id":"f5767321-03ff-4c6c-8a78-ad57e022e0a0","system_id":"levelo_inurba_marseille","lat":43.29055,"lon":5.38137,"is_reserved":false,"is_disabled":false,"rental_uris":{"android":"levelo://app?vid=f5767321-03ff-4c6c-8a78-ad57e022e0a0","ios":"levelo://app?vid=f5767321-03ff-4c6c-8a78-ad57e022e0a0"},"vehicle_type_id":"4","last_reported":1753172193,"current_range_meters":16800,"station_id":"ce4bh512rcd13ifvqe2g","pricing_plan_id":"cebpf4jnsgd1na2vs0mg"},{"bike_id":"4a3b4d7f-7b8b-4824-8eb9-1a8022f44af7","system_id":"levelo_inurba_marseille","lat":43.29621,"lon":5.37719,"is_reserved":false,"is_disabled":true,"rental_uris":{"android":"levelo://app?vid=4a3b4d7f-7b8b-4824-8eb9-1a8022f44af7","ios":"levelo://app?vid=4a3b4d7f-7b8b-4824-8eb9-1a8022f44af7"},"vehicle_type_id":"4","last_reported":1753172193,"current_range_meters":16800,"station_id":"ce4bgi92rcd13ifvqb90","pricing_plan_id":"cebpf4jnsgd1na2vs0mg"},{"bike_id":"2e5ed9f2-4fe8-47eb-91fc-0f6f8088016a","system_id":"levelo_inurba_marseille","lat":43.25005,"lon":5.38913,"is_reserved":false,"is_disabled":false,"rental_uris":{"android":"levelo://app?vid=2e5ed9f2-4fe8-47eb-91fc-0f6f8088016a","ios":"levelo://app?vid=2e5ed9f2-4fe8-47eb-91fc-0f6f8088016a"},"vehicle_type_id":"4","last_reported":1753172193,"current_range_meters":16800,"station_id":"ce4bhgp2rcd13ifvqfd0","pricing_plan_id":"cebpf4jnsgd1na2vs0mg"},{"bike_id":"5153e984-1abc-4d5b-91ef-21249865a3e6","system_id":"levelo_inurba_marseille","lat":43.211956,"lon":5.350738,"is_reserved":false,"is_disabled":false,"rental_uris":{"android":"levelo://app?vid=5153e984-1abc-4d5b-91ef-21249865a3e6","ios":"levelo://app?vid=5153e984-1abc-4d5b-91ef-21249865a3e6"},"vehicle_type_id":"4","last_reported":1753172193,"current_range_meters":16800,"station_id":"st_cvj6sg6p6f1abm77japg","pricing_plan_id":"cebpf4jnsgd1na2vs0mg"},{"bike_id":"53eaaa2b-e173-4977-9b74-a63712c062f5","system_id":"levelo_inurba_marseille","lat":43.24172,"lon":5.39721,"is_reserved":false,"is_disabled":false,"rental_uris":{"android":"levelo://app?vid=53eaaa2b-e173-4977-9b74-a63712c062f5","ios":"levelo://app?vid=53eaaa2b-e173-4977-9b74-a63712c062f5"},"vehicle_type_id":"4","last_reported":1753172193,"current_range_meters":16800,"station_id":"ce4bhn12rcd13ifvqgpg","pricing_plan_id":"cebpf4jnsgd1na2vs0mg"},{"bike_id":"3c7f072f-3158-420f-bc51-68912fc0c6a8","system_id":"levelo_inurba_marseille","lat":43.290185,"lon":5.375515,"is_reserved":false,"is_disabled":true,"rental_uris":{"android":"levelo://app?vid=3c7f072f-3158-420f-bc51-68912fc0c6a8","ios":"levelo://app?vid=3c7f072f-3158-420f-bc51-68912fc0c6a8"},"vehicle_type_id":"4","last_reported":1753172193,"current_range_meters":16800,"station_id":"ce4bh692rcd13ifvqe90","pricing_plan_id":"cebpf4jnsgd1na2vs0mg"},{"bike_id":"de5426ba-ae67-47a4-bece-c11c7065cd1e","system_id":"levelo_inurba_marseille","lat":43.211959,"lon":5.350711,"is_reserved":false,"is_disabled":false,"rental_uris":{"android":"levelo://app?vid=de5426ba-ae67-47a4-bece-c11c7065cd1e","ios":"levelo://app?vid=de5426ba-ae67-47a4-bece-c11c7065cd1e"},"vehicle_type_id":"4","last_reported":1753172193,"current_range_meters":16800,"station_id":"st_cvj6sg6p6f1abm77japg","pricing_plan_id":"cebpf4jnsgd1na2vs0mg"},{"bike_id":"c7197ba9-6455-4072-b2a3-777ce26a88c8","system_id":"levelo_inurba_marseille","lat":43.27413,"lon":5.39416,"is_reserved":false,"is_disabled":false,"rental_uris":{"android":"levelo://app?vid=c7197ba9-6455-4072-b2a3-777ce26a88c8","ios":"levelo://app?vid=c7197ba9-6455-4072-b2a3-777ce26a88c8"},"vehicle_type_id":"4","last_reported":1753172193,"current_range_meters":16800,"station_id":"ce4bhgp2rcd13ifvqfe0","pricing_plan_id":"cebpf4jnsgd1na2vs0mg"},{"bike_id":"c3071153-d15b-437d-b33d-8b8d9d500df0","system_id":"levelo_inurba_marseille","lat":43.24075,"lon":5.37759,"is_reserved":false,"is_disabled":false,"rental_uris":{"android":"levelo://app?vid=c3071153-d15b-437d-b33d-8b8d9d500df0","ios":"levelo://app?vid=c3071153-d15b-437d-b33d-8b8d9d500df0"},"vehicle_type_id":"4","last_reported":1753172193,"current_range_meters":17200,"station_id":"ce4bhnp2rcd13ifvqgvg","pricing_plan_id":"cebpf4jnsgd1na2vs0mg"},{"bike_id":"79326a13-cde9-4cb8-becd-ff105cdb3360","system_id":"levelo_inurba_marseille","lat":43.246737,"lon":5.38154,"is_reserved":false,"is_disabled":false,"rental_uris":{"android":"levelo://app?vid=79326a13-cde9-4cb8-becd-ff105cdb3360","ios":"levelo://app?vid=79326a13-cde9-4cb8-becd-ff105cdb3360"},"vehicle_type_id":"4","last_reported":1753172193,"current_range_meters":17200,"station_id":"ce4bhih2rcd13ifvqfr0","pricing_plan_id":"cebpf4jnsgd1na2vs0mg"},{"bike_id":"169e1a16-1af5-4fd8-93dd-1e654f205ac5","system_id":"levelo_inurba_marseille","lat":43.28501,"lon":5.38415,"is_reserved":false,"is_disabled":false,"rental_uris":{"android":"levelo://app?vid=169e1a16-1af5-4fd8-93dd-1e654f205ac5","ios":"levelo://app?vid=169e1a16-1af5-4fd8-93dd-1e654f205ac5"},"vehicle_type_id":"4","last_reported":1753172193,"current_range_meters":17200,"station_id":"ce4bh512rcd13ifvqe3g","pricing_plan_id":"cebpf4jnsgd1na2vs0mg"},{"bike_id":"065ecae4-408e-4701-ae91-75b20387bde6","system_id":"levelo_inurba_marseille","lat":43.25006,"lon":5.38907,"is_reserved":false,"is_disabled":false,"rental_uris":{"android":"levelo://app?vid=065ecae4-408e-4701-ae91-75b20387bde6","ios":"levelo://app?vid=065ecae4-408e-4701-ae91-75b20387bde6"},"vehicle_type_id":"4","last_reported":1753172193,"current_range_meters":17200,"station_id":"ce4bhgp2rcd13ifvqfd0","pricing_plan_id":"cebpf4jnsgd1na2vs0mg"},{"bike_id":"d90c944d-3165-4853-a5a0-f60f2b9c2296","system_id":"levelo_inurba_marseille","lat":43.3089,"lon":5.39658,"is_reserved":false,"is_disabled":false,"rental_uris":{"android":"levelo://app?vid=d90c944d-3165-4853-a5a0-f60f2b9c2296","ios":"levelo://app?vid=d90c944d-3165-4853-a5a0-f60f2b9c2296"},"vehicle_type_id":"4","last_reported":1753172193,"current_range_meters":16800,"station_id":"ce4bh012rcd13ifvqcv0","pricing_plan_id":"cebpf4jnsgd1na2vs0mg"},{"bike_id":"c37faf5c-98d9-414b-8970-f35ca83fa101","system_id":"levelo_inurba_marseille","lat":43.25501,"lon":5.37645,"is_reserved":false,"is_disabled":false,"rental_uris":{"android":"levelo://app?vid=c37faf5c-98d9-414b-8970-f35ca83fa101","ios":"levelo://app?vid=c37faf5c-98d9-414b-8970-f35ca83fa101"},"vehicle_type_id":"4","last_reported":1753172193,"current_range_meters":17200,"station_id":"ce4bhh12rcd13ifvqff0","pricing_plan_id":"cebpf4jnsgd1na2vs0mg"},{"bike_id":"947836c2-7593-4c87-9801-83802a7ceca9","system_id":"levelo_inurba_marseille","lat":43.29868,"lon":5.36246,"is_reserved":false,"is_disabled":false,"rental_uris":{"android":"levelo://app?vid=947836c2-7593-4c87-9801-83802a7ceca9","ios":"levelo://app?vid=947836c2-7593-4c87-9801-83802a7ceca9"},"vehicle_type_id":"4","last_reported":1753172193,"current_range_meters":17200,"station_id":"ce4bgpp2rcd13ifvqc3g","pricing_plan_id":"cebpf4jnsgd1na2vs0mg"},{"bike_id":"4034af88-45bc-41c2-927f-06184589ab26","system_id":"levelo_inurba_marseille","lat":43.25941,"lon":5.40891,"is_reserved":false,"is_disabled":false,"rental_uris":{"android":"levelo://app?vid=4034af88-45bc-41c2-927f-06184589ab26","ios":"levelo://app?vid=4034af88-45bc-41c2-927f-06184589ab26"},"vehicle_type_id":"4","last_reported":1753172193,"current_range_meters":17200,"station_id":"ce4bhm92rcd13ifvqglg","pricing_plan_id":"cebpf4jnsgd1na2vs0mg"},{"bike_id":"494f97be-feb6-4ce2-84dd-bdc5f14db45d","system_id":"levelo_inurba_marseille","lat":43.275,"lon":5.42433,"is_reserved":false,"is_disabled":false,"rental_uris":{"android":"levelo://app?vid=494f97be-feb6-4ce2-84dd-bdc5f14db45d","ios":"levelo://app?vid=494f97be-feb6-4ce2-84dd-bdc5f14db45d"},"vehicle_type_id":"4","last_reported":1753172193,"current_range_meters":17200,"station_id":"ce4bhn92rcd13ifvqgrg","pricing_plan_id":"cebpf4jnsgd1na2vs0mg"},{"bike_id":"64a2f514-4942-458d-b3fc-7d7fd0dfd1b1","system_id":"levelo_inurba_marseille","lat":43.211953,"lon":5.350715,"is_reserved":false,"is_disabled":false,"rental_uris":{"android":"levelo://app?vid=64a2f514-4942-458d-b3fc-7d7fd0dfd1b1","ios":"levelo://app?vid=64a2f514-4942-458d-b3fc-7d7fd0dfd1b1"},"vehicle_type_id":"4","last_reported":1753172193,"current_range_meters":17200,"station_id":"st_cvj6sg6p6f1abm77japg","pricing_plan_id":"cebpf4jnsgd1na2vs0mg"},{"bike_id":"fd678af6-c39f-4009-9cd4-36a5e361e94e","system_id":"levelo_inurba_marseille","lat":43.2923,"lon":5.35764,"is_reserved":false,"is_disabled":false,"rental_uris":{"android":"levelo://app?vid=fd678af6-c39f-4009-9cd4-36a5e361e94e","ios":"levelo://app?vid=fd678af6-c39f-4009-9cd4-36a5e361e94e"},"vehicle_type_id":"4","last_reported":1753172193,"current_range_meters":17200,"station_id":"ce4bhb12rcd13ifvqel0","pricing_plan_id":"cebpf4jnsgd1na2vs0mg"},{"bike_id":"da12d8dc-0ac8-43ba-9063-edd8304452cf","system_id":"levelo_inurba_marseille","lat":43.29005,"lon":5.35608,"is_reserved":false,"is_disabled":false,"rental_uris":{"android":"levelo://app?vid=da12d8dc-0ac8-43ba-9063-edd8304452cf","ios":"levelo://app?vid=da12d8dc-0ac8-43ba-9063-edd8304452cf"},"vehicle_type_id":"4","last_reported":1753172193,"current_range_meters":17200,"station_id":"ce4bhb92rcd13ifvqen0","pricing_plan_id":"cebpf4jnsgd1na2vs0mg"},{"bike_id":"080acd18-9baa-4736-beb6-5e98e18d315c","system_id":"levelo_inurba_marseille","lat":43.240848,"lon":5.377432,"is_reserved":false,"is_disabled":false,"rental_uris":{"android":"levelo://app?vid=080acd18-9baa-4736-beb6-5e98e18d315c","ios":"levelo://app?vid=080acd18-9baa-4736-beb6-5e98e18d315c"},"vehicle_type_id":"4","last_reported":1753172193,"current_range_meters":17200,"station_id":"ce4bhnp2rcd13ifvqgvg","pricing_plan_id":"cebpf4jnsgd1na2vs0mg"},{"bike_id":"38cbbc2f-2178-4d0e-8130-6cf5abd60741","system_id":"levelo_inurba_marseille","lat":43.26026,"lon":5.37546,"is_reserved":false,"is_disabled":false,"rental_uris":{"android":"levelo://app?vid=38cbbc2f-2178-4d0e-8130-6cf5abd60741","ios":"levelo://app?vid=38cbbc2f-2178-4d0e-8130-6cf5abd60741"},"vehicle_type_id":"4","last_reported":1753172193,"current_range_meters":17600,"station_id":"ce4bhgh2rcd13ifvqfa0","pricing_plan_id":"cebpf4jnsgd1na2vs0mg"},{"bike_id":"dda96cde-9f78-4371-a72f-1d24145c396a","system_id":"levelo_inurba_marseille","lat":43.211891,"lon":5.350724,"is_reserved":false,"is_disabled":false,"rental_uris":{"android":"levelo://app?vid=dda96cde-9f78-4371-a72f-1d24145c396a","ios":"levelo://app?vid=dda96cde-9f78-4371-a72f-1d24145c396a"},"vehicle_type_id":"4","last_reported":1753172193,"current_range_meters":17600,"station_id":"st_cvj6sg6p6f1abm77japg","pricing_plan_id":"cebpf4jnsgd1na2vs0mg"},{"bike_id":"e730d36a-13f0-49bb-86fb-4a20da2e6767","system_id":"levelo_inurba_marseille","lat":43.24157,"lon":5.36384,"is_reserved":false,"is_disabled":false,"rental_uris":{"android":"levelo://app?vid=e730d36a-13f0-49bb-86fb-4a20da2e6767","ios":"levelo://app?vid=e730d36a-13f0-49bb-86fb-4a20da2e6767"},"vehicle_type_id":"4","last_reported":1753172193,"current_range_meters":17600,"station_id":"cpo36qri1sfpv3e86is0","pricing_plan_id":"cebpf4jnsgd1na2vs0mg"},{"bike_id":"ac4e9fda-4086-43d7-9dc4-afe6942bea08","system_id":"levelo_inurba_marseille","lat":43.230647,"lon":5.354877,"is_reserved":false,"is_disabled":false,"rental_uris":{"android":"levelo://app?vid=ac4e9fda-4086-43d7-9dc4-afe6942bea08","ios":"levelo://app?vid=ac4e9fda-4086-43d7-9dc4-afe6942bea08"},"vehicle_type_id":"4","last_reported":1753172193,"current_range_meters":17600,"station_id":"cpo3342slgdg3j2ifvpg","pricing_plan_id":"cebpf4jnsgd1na2vs0mg"},{"bike_id":"7a3e8286-d23a-436c-a229-6ffa0c627ba2","system_id":"levelo_inurba_marseille","lat":43.211946,"lon":5.350665,"is_reserved":false,"is_disabled":false,"rental_uris":{"android":"levelo://app?vid=7a3e8286-d23a-436c-a229-6ffa0c627ba2","ios":"levelo://app?vid=7a3e8286-d23a-436c-a229-6ffa0c627ba2"},"vehicle_type_id":"4","last_reported":1753172193,"current_range_meters":17600,"station_id":"st_cvj6sg6p6f1abm77japg","pricing_plan_id":"cebpf4jnsgd1na2vs0mg"},{"bike_id":"c5cc074e-2213-4ba8-bc18-8b918a617152","system_id":"levelo_inurba_marseille","lat":43.289579,"lon":5.397178,"is_reserved":false,"is_disabled":false,"rental_uris":{"android":"levelo://app?vid=c5cc074e-2213-4ba8-bc18-8b918a617152","ios":"levelo://app?vid=c5cc074e-2213-4ba8-bc18-8b918a617152"},"vehicle_type_id":"4","last_reported":1753172193,"current_range_meters":17600,"station_id":"ce4bh3h2rcd13ifvqdn0","pricing_plan_id":"cebpf4jnsgd1na2vs0mg"},{"bike_id":"0c18c21b-8232-4709-94a5-191396b3881b","system_id":"levelo_inurba_marseille","lat":43.27494,"lon":5.42459,"is_reserved":false,"is_disabled":false,"rental_uris":{"android":"levelo://app?vid=0c18c21b-8232-4709-94a5-191396b3881b","ios":"levelo://app?vid=0c18c21b-8232-4709-94a5-191396b3881b"},"vehicle_type_id":"4","last_reported":1753172193,"current_range_meters":17600,"station_id":"ce4bhn92rcd13ifvqgrg","pricing_plan_id":"cebpf4jnsgd1na2vs0mg"},{"bike_id":"a7fce724-bb42-4faf-bd28-907e651a062f","system_id":"levelo_inurba_marseille","lat":43.29063,"lon":5.40115,"is_reserved":false,"is_disabled":false,"rental_uris":{"android":"levelo://app?vid=a7fce724-bb42-4faf-bd28-907e651a062f","ios":"levelo://app?vid=a7fce724-bb42-4faf-bd28-907e651a062f"},"vehicle_type_id":"4","last_reported":1753172193,"current_range_meters":18000,"station_id":"","pricing_plan_id":"cebpf4jnsgd1na2vs0mg"},{"bike_id":"4b209779-1337-48e1-8017-72986ee6ccac","system_id":"levelo_inurba_marseille","lat":43.24157,"lon":5.3643,"is_reserved":false,"is_disabled":false,"rental_uris":{"android":"levelo://app?vid=4b209779-1337-48e1-8017-72986ee6ccac","ios":"levelo://app?vid=4b209779-1337-48e1-8017-72986ee6ccac"},"vehicle_type_id":"4","last_reported":1753172193,"current_range_meters":18000,"station_id":"cpo36qri1sfpv3e86is0","pricing_plan_id":"cebpf4jnsgd1na2vs0mg"},{"bike_id":"09ce1f37-5b07-45c4-a76c-7ba0d0176051","system_id":"levelo_inurba_marseille","lat":43.323584,"lon":5.367426,"is_reserved":false,"is_disabled":false,"rental_uris":{"android":"levelo://app?vid=09ce1f37-5b07-45c4-a76c-7ba0d0176051","ios":"levelo://app?vid=09ce1f37-5b07-45c4-a76c-7ba0d0176051"},"vehicle_type_id":"4","last_reported":1753172193,"current_range_meters":18000,"station_id":"ce4bhsh2rcd13ifvqi2g","pricing_plan_id":"cebpf4jnsgd1na2vs0mg"},{"bike_id":"93405173-a014-4c38-bea6-9ec3873ad6a2","system_id":"levelo_inurba_marseille","lat":43.2498,"lon":5.38929,"is_reserved":false,"is_disabled":false,"rental_uris":{"android":"levelo://app?vid=93405173-a014-4c38-bea6-9ec3873ad6a2","ios":"levelo://app?vid=93405173-a014-4c38-bea6-9ec3873ad6a2"},"vehicle_type_id":"4","last_reported":1753172193,"current_range_meters":18000,"station_id":"ce4bhgp2rcd13ifvqfd0","pricing_plan_id":"cebpf4jnsgd1na2vs0mg"},{"bike_id":"43e2c1ba-be3c-448f-9ad6-21df8a2b4eb4","system_id":"levelo_inurba_marseille","lat":43.31338,"lon":5.36726,"is_reserved":false,"is_disabled":false,"rental_uris":{"android":"levelo://app?vid=43e2c1ba-be3c-448f-9ad6-21df8a2b4eb4","ios":"levelo://app?vid=43e2c1ba-be3c-448f-9ad6-21df8a2b4eb4"},"vehicle_type_id":"4","last_reported":1753172193,"current_range_meters":18000,"station_id":"ce4bgr92rcd13ifvqc6g","pricing_plan_id":"cebpf4jnsgd1na2vs0mg"},{"bike_id":"5ccdbbce-38fb-47dc-962c-e9d1916cfdee","system_id":"levelo_inurba_marseille","lat":43.30583,"lon":5.36745,"is_reserved":false,"is_disabled":false,"rental_uris":{"android":"levelo://app?vid=5ccdbbce-38fb-47dc-962c-e9d1916cfdee","ios":"levelo://app?vid=5ccdbbce-38fb-47dc-962c-e9d1916cfdee"},"vehicle_type_id":"4","last_reported":1753172193,"current_range_meters":18000,"station_id":"ce4bgrp2rcd13ifvqc9g","pricing_plan_id":"cebpf4jnsgd1na2vs0mg"},{"bike_id":"3876af6e-a868-4aa6-afbb-deb3bffdb10a","system_id":"levelo_inurba_marseille","lat":43.229277,"lon":5.353868,"is_reserved":false,"is_disabled":false,"rental_uris":{"android":"levelo://app?vid=3876af6e-a868-4aa6-afbb-deb3bffdb10a","ios":"levelo://app?vid=3876af6e-a868-4aa6-afbb-deb3bffdb10a"},"vehicle_type_id":"4","last_reported":1753172193,"current_range_meters":18800,"station_id":"cpo3532slgdg3j2ikp40","pricing_plan_id":"cebpf4jnsgd1na2vs0mg"},{"bike_id":"81fba013-909e-4f1c-8dc3-8911f0a1441d","system_id":"levelo_inurba_marseille","lat":43.28405,"lon":5.34978,"is_reserved":false,"is_disabled":true,"rental_uris":{"android":"levelo://app?vid=81fba013-909e-4f1c-8dc3-8911f0a1441d","ios":"levelo://app?vid=81fba013-909e-4f1c-8dc3-8911f0a1441d"},"vehicle_type_id":"4","last_reported":1753172193,"current_range_meters":18800,"station_id":"ce4bhbh2rcd13ifvqepg","pricing_plan_id":"cebpf4jnsgd1na2vs0mg"},{"bike_id":"b0814be2-3228-42a3-8f14-9e3ad3e47b21","system_id":"levelo_inurba_marseille","lat":43.25008,"lon":5.38916,"is_reserved":false,"is_disabled":false,"rental_uris":{"android":"levelo://app?vid=b0814be2-3228-42a3-8f14-9e3ad3e47b21","ios":"levelo://app?vid=b0814be2-3228-42a3-8f14-9e3ad3e47b21"},"vehicle_type_id":"4","last_reported":1753172193,"current_range_meters":18800,"station_id":"ce4bhgp2rcd13ifvqfd0","pricing_plan_id":"cebpf4jnsgd1na2vs0mg"},{"bike_id":"04bb8e0c-b1ab-47fd-8929-da5088119fe8","system_id":"levelo_inurba_marseille","lat":43.26571,"lon":5.372879,"is_reserved":false,"is_disabled":false,"rental_uris":{"android":"levelo://app?vid=04bb8e0c-b1ab-47fd-8929-da5088119fe8","ios":"levelo://app?vid=04bb8e0c-b1ab-47fd-8929-da5088119fe8"},"vehicle_type_id":"4","last_reported":1753172193,"current_range_meters":18800,"station_id":"","pricing_plan_id":"cebpf4jnsgd1na2vs0mg"},{"bike_id":"cccaa5a2-3f5d-49b6-862f-eae603642f41","system_id":"levelo_inurba_marseille","lat":43.2738,"lon":5.36255,"is_reserved":false,"is_disabled":false,"rental_uris":{"android":"levelo://app?vid=cccaa5a2-3f5d-49b6-862f-eae603642f41","ios":"levelo://app?vid=cccaa5a2-3f5d-49b6-862f-eae603642f41"},"vehicle_type_id":"4","last_reported":1753172193,"current_range_meters":18800,"station_id":"ce4bhbh2rcd13ifvqeo0","pricing_plan_id":"cebpf4jnsgd1na2vs0mg"},{"bike_id":"8352701d-3263-4d0d-abe2-82a2352bd9b5","system_id":"levelo_inurba_marseille","lat":43.29305,"lon":5.37459,"is_reserved":false,"is_disabled":false,"rental_uris":{"android":"levelo://app?vid=8352701d-3263-4d0d-abe2-82a2352bd9b5","ios":"levelo://app?vid=8352701d-3263-4d0d-abe2-82a2352bd9b5"},"vehicle_type_id":"4","last_reported":1753172193,"current_range_meters":18800,"station_id":"ce4bgi12rcd13ifvqb70","pricing_plan_id":"cebpf4jnsgd1na2vs0mg"},{"bike_id":"3eeb3a07-a329-4a08-a82d-9980e973be03","system_id":"levelo_inurba_marseille","lat":43.309456,"lon":5.390312,"is_reserved":false,"is_disabled":false,"rental_uris":{"android":"levelo://app?vid=3eeb3a07-a329-4a08-a82d-9980e973be03","ios":"levelo://app?vid=3eeb3a07-a329-4a08-a82d-9980e973be03"},"vehicle_type_id":"4","last_reported":1753172193,"current_range_meters":18800,"station_id":"ce4bgup2rcd13ifvqco0","pricing_plan_id":"cebpf4jnsgd1na2vs0mg"},{"bike_id":"cc4f2841-7e4f-4dd9-9568-a9fabeb9ada9","system_id":"levelo_inurba_marseille","lat":43.27648,"lon":5.389538,"is_reserved":false,"is_disabled":false,"rental_uris":{"android":"levelo://app?vid=cc4f2841-7e4f-4dd9-9568-a9fabeb9ada9","ios":"levelo://app?vid=cc4f2841-7e4f-4dd9-9568-a9fabeb9ada9"},"vehicle_type_id":"4","last_reported":1753172193,"current_range_meters":18000,"station_id":"ce4bhgp2rcd13ifvqfe0","pricing_plan_id":"cebpf4jnsgd1na2vs0mg"},{"bike_id":"9cac5810-2951-4ed0-a9b7-b35470b47177","system_id":"levelo_inurba_marseille","lat":43.30942,"lon":5.39031,"is_reserved":false,"is_disabled":false,"rental_uris":{"android":"levelo://app?vid=9cac5810-2951-4ed0-a9b7-b35470b47177","ios":"levelo://app?vid=9cac5810-2951-4ed0-a9b7-b35470b47177"},"vehicle_type_id":"4","last_reported":1753172193,"current_range_meters":18000,"station_id":"ce4bgup2rcd13ifvqco0","pricing_plan_id":"cebpf4jnsgd1na2vs0mg"},{"bike_id":"b50f0f4f-7320-45d6-803f-9f590ba8396d","system_id":"levelo_inurba_marseille","lat":43.262264,"lon":5.404486,"is_reserved":false,"is_disabled":false,"rental_uris":{"android":"levelo://app?vid=b50f0f4f-7320-45d6-803f-9f590ba8396d","ios":"levelo://app?vid=b50f0f4f-7320-45d6-803f-9f590ba8396d"},"vehicle_type_id":"4","last_reported":1753172193,"current_range_meters":18800,"station_id":"ce4bhmh2rcd13ifvqgmg","pricing_plan_id":"cebpf4jnsgd1na2vs0mg"},{"bike_id":"ab2576ba-3498-47f6-959d-8cf2fbd2103d","system_id":"levelo_inurba_marseille","lat":43.28417,"lon":5.37512,"is_reserved":false,"is_disabled":false,"rental_uris":{"android":"levelo://app?vid=ab2576ba-3498-47f6-959d-8cf2fbd2103d","ios":"levelo://app?vid=ab2576ba-3498-47f6-959d-8cf2fbd2103d"},"vehicle_type_id":"4","last_reported":1753172193,"current_range_meters":18800,"station_id":"ce4bh412rcd13ifvqds0","pricing_plan_id":"cebpf4jnsgd1na2vs0mg"},{"bike_id":"59a7fb54-9cb9-4789-8309-978de493a13b","system_id":"levelo_inurba_marseille","lat":43.23144,"lon":5.43712,"is_reserved":false,"is_disabled":false,"rental_uris":{"android":"levelo://app?vid=59a7fb54-9cb9-4789-8309-978de493a13b","ios":"levelo://app?vid=59a7fb54-9cb9-4789-8309-978de493a13b"},"vehicle_type_id":"4","last_reported":1753172193,"current_range_meters":18800,"station_id":"ce4bhmp2rcd13ifvqgog","pricing_plan_id":"cebpf4jnsgd1na2vs0mg"},{"bike_id":"6d23e765-24be-402c-b4de-ff24cb318e32","system_id":"levelo_inurba_marseille","lat":43.22939,"lon":5.35407,"is_reserved":false,"is_disabled":true,"rental_uris":{"android":"levelo://app?vid=6d23e765-24be-402c-b4de-ff24cb318e32","ios":"levelo://app?vid=6d23e765-24be-402c-b4de-ff24cb318e32"},"vehicle_type_id":"4","last_reported":1753172193,"current_range_meters":19200,"station_id":"cpo3532slgdg3j2ikp40","pricing_plan_id":"cebpf4jnsgd1na2vs0mg"},{"bike_id":"ec82385f-ea68-46ee-9627-f1c80cc01e6c","system_id":"levelo_inurba_marseille","lat":43.30544,"lon":5.3669,"is_reserved":false,"is_disabled":false,"rental_uris":{"android":"levelo://app?vid=ec82385f-ea68-46ee-9627-f1c80cc01e6c","ios":"levelo://app?vid=ec82385f-ea68-46ee-9627-f1c80cc01e6c"},"vehicle_type_id":"4","last_reported":1753172193,"current_range_meters":19200,"station_id":"ce4bgrp2rcd13ifvqc9g","pricing_plan_id":"cebpf4jnsgd1na2vs0mg"},{"bike_id":"be889cfb-c3d1-4b5b-a9e7-90ff39cb1e7c","system_id":"levelo_inurba_marseille","lat":43.29914,"lon":5.38146,"is_reserved":false,"is_disabled":false,"rental_uris":{"android":"levelo://app?vid=be889cfb-c3d1-4b5b-a9e7-90ff39cb1e7c","ios":"levelo://app?vid=be889cfb-c3d1-4b5b-a9e7-90ff39cb1e7c"},"vehicle_type_id":"4","last_reported":1753172193,"current_range_meters":19200,"station_id":"ce4bgj12rcd13ifvqbc0","pricing_plan_id":"cebpf4jnsgd1na2vs0mg"},{"bike_id":"82351062-467b-4dd3-9199-c21a4b959f5f","system_id":"levelo_inurba_marseille","lat":43.32285,"lon":5.38267,"is_reserved":false,"is_disabled":false,"rental_uris":{"android":"levelo://app?vid=82351062-467b-4dd3-9199-c21a4b959f5f","ios":"levelo://app?vid=82351062-467b-4dd3-9199-c21a4b959f5f"},"vehicle_type_id":"4","last_reported":1753172193,"current_range_meters":19200,"station_id":"ce4bhr12rcd13ifvqhqg","pricing_plan_id":"cebpf4jnsgd1na2vs0mg"},{"bike_id":"d3efef1e-0fec-4541-87fb-6df6ecce6f21","system_id":"levelo_inurba_marseille","lat":43.23191,"lon":5.35534,"is_reserved":false,"is_disabled":false,"rental_uris":{"android":"levelo://app?vid=d3efef1e-0fec-4541-87fb-6df6ecce6f21","ios":"levelo://app?vid=d3efef1e-0fec-4541-87fb-6df6ecce6f21"},"vehicle_type_id":"4","last_reported":1753172193,"current_range_meters":19200,"station_id":"ce4bhu92rcd13ifvqi70","pricing_plan_id":"cebpf4jnsgd1na2vs0mg"},{"bike_id":"99e496ea-71ef-4bdb-b20d-08851d51893c","system_id":"levelo_inurba_marseille","lat":43.26561,"lon":5.37285,"is_reserved":false,"is_disabled":false,"rental_uris":{"android":"levelo://app?vid=99e496ea-71ef-4bdb-b20d-08851d51893c","ios":"levelo://app?vid=99e496ea-71ef-4bdb-b20d-08851d51893c"},"vehicle_type_id":"4","last_reported":1753172193,"current_range_meters":19200,"station_id":"ce4bhg12rcd13ifvqf70","pricing_plan_id":"cebpf4jnsgd1na2vs0mg"},{"bike_id":"f448eafd-2bc8-474f-8040-079afa85fbbc","system_id":"levelo_inurba_marseille","lat":43.30909,"lon":5.36846,"is_reserved":false,"is_disabled":true,"rental_uris":{"android":"levelo://app?vid=f448eafd-2bc8-474f-8040-079afa85fbbc","ios":"levelo://app?vid=f448eafd-2bc8-474f-8040-079afa85fbbc"},"vehicle_type_id":"4","last_reported":1753172193,"current_range_meters":19200,"station_id":"ce4bgn92rcd13ifvqbvg","pricing_plan_id":"cebpf4jnsgd1na2vs0mg"},{"bike_id":"b996d167-ddc5-4f10-ae53-1d4638247fa3","system_id":"levelo_inurba_marseille","lat":43.2963,"lon":5.37729,"is_reserved":false,"is_disabled":false,"rental_uris":{"android":"levelo://app?vid=b996d167-ddc5-4f10-ae53-1d4638247fa3","ios":"levelo://app?vid=b996d167-ddc5-4f10-ae53-1d4638247fa3"},"vehicle_type_id":"4","last_reported":1753172193,"current_range_meters":19200,"station_id":"ce4bgi92rcd13ifvqb90","pricing_plan_id":"cebpf4jnsgd1na2vs0mg"},{"bike_id":"aa905b02-3e36-4ad9-a046-fd6ac767b5da","system_id":"levelo_inurba_marseille","lat":43.29718,"lon":5.36604,"is_reserved":false,"is_disabled":false,"rental_uris":{"android":"levelo://app?vid=aa905b02-3e36-4ad9-a046-fd6ac767b5da","ios":"levelo://app?vid=aa905b02-3e36-4ad9-a046-fd6ac767b5da"},"vehicle_type_id":"4","last_reported":1753172193,"current_range_meters":19200,"station_id":"ce4bgn12rcd13ifvqbt0","pricing_plan_id":"cebpf4jnsgd1na2vs0mg"},{"bike_id":"1ecc58ef-8221-439e-9c29-cecb47db8ecc","system_id":"levelo_inurba_marseille","lat":43.265,"lon":5.39533,"is_reserved":false,"is_disabled":false,"rental_uris":{"android":"levelo://app?vid=1ecc58ef-8221-439e-9c29-cecb47db8ecc","ios":"levelo://app?vid=1ecc58ef-8221-439e-9c29-cecb47db8ecc"},"vehicle_type_id":"4","last_reported":1753172193,"current_range_meters":19200,"station_id":"ce4bhi12rcd13ifvqfq0","pricing_plan_id":"cebpf4jnsgd1na2vs0mg"},{"bike_id":"d03e1d07-cf71-4d28-958f-ae685ab2a1a7","system_id":"levelo_inurba_marseille","lat":43.30961,"lon":5.37797,"is_reserved":false,"is_disabled":false,"rental_uris":{"android":"levelo://app?vid=d03e1d07-cf71-4d28-958f-ae685ab2a1a7","ios":"levelo://app?vid=d03e1d07-cf71-4d28-958f-ae685ab2a1a7"},"vehicle_type_id":"4","last_reported":1753172193,"current_range_meters":19600,"station_id":"","pricing_plan_id":"cebpf4jnsgd1na2vs0mg"},{"bike_id":"5ea1e0b3-e596-45e6-88e9-c65da10bd3b4","system_id":"levelo_inurba_marseille","lat":43.29982,"lon":5.37477,"is_reserved":false,"is_disabled":false,"rental_uris":{"android":"levelo://app?vid=5ea1e0b3-e596-45e6-88e9-c65da10bd3b4","ios":"levelo://app?vid=5ea1e0b3-e596-45e6-88e9-c65da10bd3b4"},"vehicle_type_id":"4","last_reported":1753172193,"current_range_meters":19600,"station_id":"","pricing_plan_id":"cebpf4jnsgd1na2vs0mg"},{"bike_id":"5cd570b3-5ede-4c04-957b-bd2e249463fd","system_id":"levelo_inurba_marseille","lat":43.211906,"lon":5.350749,"is_reserved":false,"is_disabled":false,"rental_uris":{"android":"levelo://app?vid=5cd570b3-5ede-4c04-957b-bd2e249463fd","ios":"levelo://app?vid=5cd570b3-5ede-4c04-957b-bd2e249463fd"},"vehicle_type_id":"4","last_reported":1753172193,"current_range_meters":19600,"station_id":"st_cvj6sg6p6f1abm77japg","pricing_plan_id":"cebpf4jnsgd1na2vs0mg"},{"bike_id":"29b14e23-f4d2-4fd7-9c3b-1f5dde7b2e61","system_id":"levelo_inurba_marseille","lat":43.286085,"lon":5.370666,"is_reserved":false,"is_disabled":true,"rental_uris":{"android":"levelo://app?vid=29b14e23-f4d2-4fd7-9c3b-1f5dde7b2e61","ios":"levelo://app?vid=29b14e23-f4d2-4fd7-9c3b-1f5dde7b2e61"},"vehicle_type_id":"4","last_reported":1753172193,"current_range_meters":19600,"station_id":"ce4bht12rcd13ifvqi60","pricing_plan_id":"cebpf4jnsgd1na2vs0mg"},{"bike_id":"2975a10e-052a-4ed4-8afb-b52549159b49","system_id":"levelo_inurba_marseille","lat":43.32898,"lon":5.37471,"is_reserved":false,"is_disabled":false,"rental_uris":{"android":"levelo://app?vid=2975a10e-052a-4ed4-8afb-b52549159b49","ios":"levelo://app?vid=2975a10e-052a-4ed4-8afb-b52549159b49"},"vehicle_type_id":"4","last_reported":1753172193,"current_range_meters":19600,"station_id":"","pricing_plan_id":"cebpf4jnsgd1na2vs0mg"},{"bike_id":"7516ce60-ce09-4096-aa8e-6b42046e51ac","system_id":"levelo_inurba_marseille","lat":43.28715,"lon":5.37928,"is_reserved":false,"is_disabled":false,"rental_uris":{"android":"levelo://app?vid=7516ce60-ce09-4096-aa8e-6b42046e51ac","ios":"levelo://app?vid=7516ce60-ce09-4096-aa8e-6b42046e51ac"},"vehicle_type_id":"4","last_reported":1753172193,"current_range_meters":19600,"station_id":"ce4bh9p2rcd13ifvqec0","pricing_plan_id":"cebpf4jnsgd1na2vs0mg"},{"bike_id":"07b27af2-a05c-4a40-bfd7-df8e6953b7dc","system_id":"levelo_inurba_marseille","lat":43.25821,"lon":5.39432,"is_reserved":false,"is_disabled":false,"rental_uris":{"android":"levelo://app?vid=07b27af2-a05c-4a40-bfd7-df8e6953b7dc","ios":"levelo://app?vid=07b27af2-a05c-4a40-bfd7-df8e6953b7dc"},"vehicle_type_id":"4","last_reported":1753172193,"current_range_meters":19600,"station_id":"ce4bhip2rcd13ifvqft0","pricing_plan_id":"cebpf4jnsgd1na2vs0mg"},{"bike_id":"005b1758-b217-47ee-b6da-37711cec6e16","system_id":"levelo_inurba_marseille","lat":43.24135,"lon":5.36396,"is_reserved":false,"is_disabled":false,"rental_uris":{"android":"levelo://app?vid=005b1758-b217-47ee-b6da-37711cec6e16","ios":"levelo://app?vid=005b1758-b217-47ee-b6da-37711cec6e16"},"vehicle_type_id":"4","last_reported":1753172193,"current_range_meters":20000,"station_id":"cpo36qri1sfpv3e86is0","pricing_plan_id":"cebpf4jnsgd1na2vs0mg"},{"bike_id":"dc6fc453-9812-4d99-8dd4-5c70596d59ce","system_id":"levelo_inurba_marseille","lat":43.337534,"lon":5.374547,"is_reserved":false,"is_disabled":false,"rental_uris":{"android":"levelo://app?vid=dc6fc453-9812-4d99-8dd4-5c70596d59ce","ios":"levelo://app?vid=dc6fc453-9812-4d99-8dd4-5c70596d59ce"},"vehicle_type_id":"4","last_reported":1753172193,"current_range_meters":20000,"station_id":"","pricing_plan_id":"cebpf4jnsgd1na2vs0mg"},{"bike_id":"de4d1110-3d6a-4258-a245-533045042235","system_id":"levelo_inurba_marseille","lat":43.289331,"lon":5.366442,"is_reserved":false,"is_disabled":false,"rental_uris":{"android":"levelo://app?vid=de4d1110-3d6a-4258-a245-533045042235","ios":"levelo://app?vid=de4d1110-3d6a-4258-a245-533045042235"},"vehicle_type_id":"4","last_reported":1753172193,"current_range_meters":19600,"station_id":"ce4bhap2rcd13ifvqek0","pricing_plan_id":"cebpf4jnsgd1na2vs0mg"},{"bike_id":"80704f46-feef-4598-862d-f5ea2fcd55f2","system_id":"levelo_inurba_marseille","lat":43.29228,"lon":5.36058,"is_reserved":false,"is_disabled":false,"rental_uris":{"android":"levelo://app?vid=80704f46-feef-4598-862d-f5ea2fcd55f2","ios":"levelo://app?vid=80704f46-feef-4598-862d-f5ea2fcd55f2"},"vehicle_type_id":"4","last_reported":1753172193,"current_range_meters":20000,"station_id":"ce4bhbh2rcd13ifvqeqg","pricing_plan_id":"cebpf4jnsgd1na2vs0mg"},{"bike_id":"14e42d40-214d-4eca-afd4-64e6b0f4d797","system_id":"levelo_inurba_marseille","lat":43.29258,"lon":5.37644,"is_reserved":false,"is_disabled":false,"rental_uris":{"android":"levelo://app?vid=14e42d40-214d-4eca-afd4-64e6b0f4d797","ios":"levelo://app?vid=14e42d40-214d-4eca-afd4-64e6b0f4d797"},"vehicle_type_id":"4","last_reported":1753172193,"current_range_meters":20000,"station_id":"ce4bgi12rcd13ifvqb80","pricing_plan_id":"cebpf4jnsgd1na2vs0mg"},{"bike_id":"14ff57e9-df81-436a-97c8-6f0e1a67e809","system_id":"levelo_inurba_marseille","lat":43.32108,"lon":5.3678,"is_reserved":false,"is_disabled":false,"rental_uris":{"android":"levelo://app?vid=14ff57e9-df81-436a-97c8-6f0e1a67e809","ios":"levelo://app?vid=14ff57e9-df81-436a-97c8-6f0e1a67e809"},"vehicle_type_id":"4","last_reported":1753172193,"current_range_meters":20000,"station_id":"ce4bhrh2rcd13ifvqhug","pricing_plan_id":"cebpf4jnsgd1na2vs0mg"},{"bike_id":"ee87f1ea-d80a-4b4b-bd90-7c7d797ba635","system_id":"levelo_inurba_marseille","lat":43.27944,"lon":5.38704,"is_reserved":false,"is_disabled":false,"rental_uris":{"android":"levelo://app?vid=ee87f1ea-d80a-4b4b-bd90-7c7d797ba635","ios":"levelo://app?vid=ee87f1ea-d80a-4b4b-bd90-7c7d797ba635"},"vehicle_type_id":"4","last_reported":1753172193,"current_range_meters":20000,"station_id":"ce4bhg12rcd13ifvqf80","pricing_plan_id":"cebpf4jnsgd1na2vs0mg"},{"bike_id":"4baedf4b-88b8-4b2a-9c18-0b9777edb979","system_id":"levelo_inurba_marseille","lat":43.27062,"lon":5.40256,"is_reserved":false,"is_disabled":false,"rental_uris":{"android":"levelo://app?vid=4baedf4b-88b8-4b2a-9c18-0b9777edb979","ios":"levelo://app?vid=4baedf4b-88b8-4b2a-9c18-0b9777edb979"},"vehicle_type_id":"4","last_reported":1753172193,"current_range_meters":20400,"station_id":"ce4bhk92rcd13ifvqgc0","pricing_plan_id":"cebpf4jnsgd1na2vs0mg"},{"bike_id":"eb39f0d6-2f37-46c1-ab5c-f53ed31350a1","system_id":"levelo_inurba_marseille","lat":43.32131,"lon":5.36789,"is_reserved":false,"is_disabled":false,"rental_uris":{"android":"levelo://app?vid=eb39f0d6-2f37-46c1-ab5c-f53ed31350a1","ios":"levelo://app?vid=eb39f0d6-2f37-46c1-ab5c-f53ed31350a1"},"vehicle_type_id":"4","last_reported":1753172193,"current_range_meters":20400,"station_id":"ce4bhrh2rcd13ifvqhug","pricing_plan_id":"cebpf4jnsgd1na2vs0mg"},{"bike_id":"b7893451-540d-4401-bd87-71e4cadf6749","system_id":"levelo_inurba_marseille","lat":43.23153,"lon":5.43711,"is_reserved":false,"is_disabled":false,"rental_uris":{"android":"levelo://app?vid=b7893451-540d-4401-bd87-71e4cadf6749","ios":"levelo://app?vid=b7893451-540d-4401-bd87-71e4cadf6749"},"vehicle_type_id":"4","last_reported":1753172193,"current_range_meters":20400,"station_id":"ce4bhmp2rcd13ifvqgog","pricing_plan_id":"cebpf4jnsgd1na2vs0mg"},{"bike_id":"b5b7500c-ad80-4ca0-a055-2b6a25985938","system_id":"levelo_inurba_marseille","lat":43.307387,"lon":5.370991,"is_reserved":false,"is_disabled":false,"rental_uris":{"android":"levelo://app?vid=b5b7500c-ad80-4ca0-a055-2b6a25985938","ios":"levelo://app?vid=b5b7500c-ad80-4ca0-a055-2b6a25985938"},"vehicle_type_id":"4","last_reported":1753172193,"current_range_meters":20400,"station_id":"","pricing_plan_id":"cebpf4jnsgd1na2vs0mg"},{"bike_id":"8dbd27c7-7d38-48bc-978d-604a050c6911","system_id":"levelo_inurba_marseille","lat":43.26557,"lon":5.37281,"is_reserved":false,"is_disabled":false,"rental_uris":{"android":"levelo://app?vid=8dbd27c7-7d38-48bc-978d-604a050c6911","ios":"levelo://app?vid=8dbd27c7-7d38-48bc-978d-604a050c6911"},"vehicle_type_id":"4","last_reported":1753172193,"current_range_meters":20400,"station_id":"ce4bhg12rcd13ifvqf70","pricing_plan_id":"cebpf4jnsgd1na2vs0mg"},{"bike_id":"cf11f61d-83d8-4e56-9503-0282553d7be7","system_id":"levelo_inurba_marseille","lat":43.25919,"lon":5.40871,"is_reserved":false,"is_disabled":false,"rental_uris":{"android":"levelo://app?vid=cf11f61d-83d8-4e56-9503-0282553d7be7","ios":"levelo://app?vid=cf11f61d-83d8-4e56-9503-0282553d7be7"},"vehicle_type_id":"4","last_reported":1753172193,"current_range_meters":20400,"station_id":"ce4bhm92rcd13ifvqglg","pricing_plan_id":"cebpf4jnsgd1na2vs0mg"},{"bike_id":"c4f10c42-444b-440d-a739-b37c12b0c6fa","system_id":"levelo_inurba_marseille","lat":43.276176,"lon":5.361005,"is_reserved":false,"is_disabled":false,"rental_uris":{"android":"levelo://app?vid=c4f10c42-444b-440d-a739-b37c12b0c6fa","ios":"levelo://app?vid=c4f10c42-444b-440d-a739-b37c12b0c6fa"},"vehicle_type_id":"4","last_reported":1753172193,"current_range_meters":20400,"station_id":"","pricing_plan_id":"cebpf4jnsgd1na2vs0mg"},{"bike_id":"e6dd4dbd-90ec-4782-bc77-bdec3eacb25f","system_id":"levelo_inurba_marseille","lat":43.29842,"lon":5.36263,"is_reserved":false,"is_disabled":false,"rental_uris":{"android":"levelo://app?vid=e6dd4dbd-90ec-4782-bc77-bdec3eacb25f","ios":"levelo://app?vid=e6dd4dbd-90ec-4782-bc77-bdec3eacb25f"},"vehicle_type_id":"4","last_reported":1753172193,"current_range_meters":20400,"station_id":"ce4bgpp2rcd13ifvqc3g","pricing_plan_id":"cebpf4jnsgd1na2vs0mg"},{"bike_id":"2c47db04-15df-4a2a-8459-a941650094eb","system_id":"levelo_inurba_marseille","lat":43.211945,"lon":5.350746,"is_reserved":false,"is_disabled":false,"rental_uris":{"android":"levelo://app?vid=2c47db04-15df-4a2a-8459-a941650094eb","ios":"levelo://app?vid=2c47db04-15df-4a2a-8459-a941650094eb"},"vehicle_type_id":"4","last_reported":1753172193,"current_range_meters":20400,"station_id":"st_cvj6sg6p6f1abm77japg","pricing_plan_id":"cebpf4jnsgd1na2vs0mg"},{"bike_id":"a2cf0e2f-d478-49d5-93f1-a403dcb7ca8c","system_id":"levelo_inurba_marseille","lat":43.30463,"lon":5.379,"is_reserved":false,"is_disabled":false,"rental_uris":{"android":"levelo://app?vid=a2cf0e2f-d478-49d5-93f1-a403dcb7ca8c","ios":"levelo://app?vid=a2cf0e2f-d478-49d5-93f1-a403dcb7ca8c"},"vehicle_type_id":"4","last_reported":1753172193,"current_range_meters":20400,"station_id":"ce4bgup2rcd13ifvqcn0","pricing_plan_id":"cebpf4jnsgd1na2vs0mg"},{"bike_id":"60b45928-e7a8-45f4-b207-023988da4a55","system_id":"levelo_inurba_marseille","lat":43.23175,"lon":5.39955,"is_reserved":false,"is_disabled":true,"rental_uris":{"android":"levelo://app?vid=60b45928-e7a8-45f4-b207-023988da4a55","ios":"levelo://app?vid=60b45928-e7a8-45f4-b207-023988da4a55"},"vehicle_type_id":"4","last_reported":1753172193,"current_range_meters":20400,"station_id":"ce4bhn12rcd13ifvqgqg","pricing_plan_id":"cebpf4jnsgd1na2vs0mg"},{"bike_id":"61db9a4a-0ff7-46f3-8e1f-0994dbc8326b","system_id":"levelo_inurba_marseille","lat":43.31846,"lon":5.36803,"is_reserved":false,"is_disabled":false,"rental_uris":{"android":"levelo://app?vid=61db9a4a-0ff7-46f3-8e1f-0994dbc8326b","ios":"levelo://app?vid=61db9a4a-0ff7-46f3-8e1f-0994dbc8326b"},"vehicle_type_id":"4","last_reported":1753172193,"current_range_meters":20400,"station_id":"","pricing_plan_id":"cebpf4jnsgd1na2vs0mg"},{"bike_id":"2e29f8ac-7376-4213-979e-085b4ee40d9c","system_id":"levelo_inurba_marseille","lat":43.25709,"lon":5.41127,"is_reserved":false,"is_disabled":false,"rental_uris":{"android":"levelo://app?vid=2e29f8ac-7376-4213-979e-085b4ee40d9c","ios":"levelo://app?vid=2e29f8ac-7376-4213-979e-085b4ee40d9c"},