{"last_updated":1737036487,"ttl":60,"version":"2.2","data":{"bikes":[{"bike_id":"0825ed3e-f1b0-457d-bbd9-1503529bcf76","system_id":"levelo_inurba_marseille","lat":43.29714,"lon":5.37708,"is_reserved":false,"is_disabled":false,"rental_uris":{"android":"levelo://app?vid=0825ed3e-f1b0-457d-bbd9-1503529bcf76","ios":"levelo://app?vid=0825ed3e-f1b0-457d-bbd9-1503529bcf76"},"vehicle_type_id":"4","last_reported":1737036488,"current_range_meters":27200,"station_id":"ce4bgkh2rcd13ifvqbl0","pricing_plan_id":"cebpf4jnsgd1na2vs0mg"},{"bike_id":"452c98f5-e0c1-4fd8-9ef5-eb1656e0e828","system_id":"levelo_inurba_marseille","lat":43.32544,"lon":5.4145,"is_reserved":false,"is_disabled":false,"rental_uris":{"android":"levelo://app?vid=452c98f5-e0c1-4fd8-9ef5-eb1656e0e828","ios":"levelo://app?vid=452c98f5-e0c1-4fd8-9ef5-eb1656e0e828"},"vehicle_type_id":"4","last_reported":1737036488,"current_range_meters":30800,"station_id":"ce4bhq12rcd13ifvqhhg","pricing_plan_id":"cebpf4jnsgd1na2vs0mg"},{"bike_id":"a39c946b-f215-435b-b58f-d6dc4c7b0aaf","system_id":"levelo_inurba_marseille","lat":43.28159,"lon":5.42642,"is_reserved":false,"is_disabled":true,"rental_uris":{"android":"levelo://app?vid=a39c946b-f215-435b-b58f-d6dc4c7b0aaf","ios":"levelo://app?vid=a39c946b-f215-435b-b58f-d6dc4c7b0aaf"},"vehicle_type_id":"4","last_reported":1737036488,"current_range_meters":37600,"station_id":"ce4bhnh2rcd13ifvqgug","pricing_plan_id":"cebpf4jnsgd1na2vs0mg"},{"bike_id":"9ca88241-0983-48ee-a4d3-0cfeb60b7975","system_id":"levelo_inurba_marseille","lat":43.27916,"lon":5.39582,"is_reserved":false,"is_disabled":false,"rental_uris":{"android":"levelo://app?vid=9ca88241-0983-48ee-a4d3-0cfeb60b7975","ios":"levelo://app?vid=9ca88241-0983-48ee-a4d3-0cfeb60b7975"},"vehicle_type_id":"4","last_reported":1737036488,"current_range_meters":28000,"station_id":"ce4bhf92rcd13ifvqf40","pricing_plan_id":"cebpf4jnsgd1na2vs0mg"},{"bike_id":"a9302831-a977-42c7-a552-458f0d4a525a","system_id":"levelo_inurba_marseille","lat":43.29156,"lon":5.38098,"is_reserved":false,"is_disabled":false,"rental_uris":{"android":"levelo://app?vid=a9302831-a977-42c7-a552-458f0d4a525a","ios":"levelo://app?vid=a9302831-a977-42c7-a552-458f0d4a525a"},"vehicle_type_id":"4","last_reported":1737036488,"current_range_meters":32400,"station_id":"","pricing_plan_id":"cebpf4jnsgd1na2vs0mg"},{"bike_id":"231531ce-159c-430d-a73a-34d518b1b8d8","system_id":"levelo_inurba_marseille","lat":43.25941,"lon":5.40904,"is_reserved":false,"is_disabled":false,"rental_uris":{"android":"levelo://app?vid=231531ce-159c-430d-a73a-34d518b1b8d8","ios":"levelo://app?vid=231531ce-159c-430d-a73a-34d518b1b8d8"},"vehicle_type_id":"4","last_reported":1737036488,"current_range_meters":36800,"station_id":"ce4bhm92rcd13ifvqglg","pricing_plan_id":"cebpf4jnsgd1na2vs0mg"},{"bike_id":"a7866fad-5360-4d4c-bdab-5c8c8f134911","system_id":"levelo_inurba_marseille","lat":43.29973,"lon":5.38486,"is_reserved":false,"is_disabled":false,"rental_uris":{"android":"levelo://app?vid=a7866fad-5360-4d4c-bdab-5c8c8f134911","ios":"levelo://app?vid=a7866fad-5360-4d4c-bdab-5c8c8f134911"},"vehicle_type_id":"4","last_reported":1737036488,"current_range_meters":8800,"station_id":"ce4bgj92rcd13ifvqbd0","pricing_plan_id":"cebpf4jnsgd1na2vs0mg"},{"bike_id":"f6d976b1-35f8-4419-848c-cc3d39c9406d","system_id":"levelo_inurba_marseille","lat":43.24802,"lon":5.37457,"is_reserved":false,"is_disabled":false,"rental_uris":{"android":"levelo://app?vid=f6d976b1-35f8-4419-848c-cc3d39c9406d","ios":"levelo://app?vid=f6d976b1-35f8-4419-848c-cc3d39c9406d"},"vehicle_type_id":"4","last_reported":1737036488,"current_range_meters":16000,"station_id":"ce4bhgh2rcd13ifvqfb0","pricing_plan_id":"cebpf4jnsgd1na2vs0mg"},{"bike_id":"eb20f8b8-18bf-4428-8850-894ddc0b8423","system_id":"levelo_inurba_marseille","lat":43.29284,"lon":5.37439,"is_reserved":false,"is_disabled":false,"rental_uris":{"android":"levelo://app?vid=eb20f8b8-18bf-4428-8850-894ddc0b8423","ios":"levelo://app?vid=eb20f8b8-18bf-4428-8850-894ddc0b8423"},"vehicle_type_id":"4","last_reported":1737036488,"current_range_meters":16800,"station_id":"ce4bgi12rcd13ifvqb70","pricing_plan_id":"cebpf4jnsgd1na2vs0mg"},{"bike_id":"40c16bde-8f04-45d3-ad35-e4fed016215c","system_id":"levelo_inurba_marseille","lat":43.30884,"lon":5.39653,"is_reserved":false,"is_disabled":false,"rental_uris":{"android":"levelo://app?vid=40c16bde-8f04-45d3-ad35-e4fed016215c","ios":"levelo://app?vid=40c16bde-8f04-45d3-ad35-e4fed016215c"},"vehicle_type_id":"4","last_reported":1737036488,"current_range_meters":38000,"station_id":"ce4bh012rcd13ifvqcv0","pricing_plan_id":"cebpf4jnsgd1na2vs0mg"},{"bike_id":"03519357-cc71-4610-a101-c7e9590195a2","system_id":"levelo_inurba_marseille","lat":43.23153,"lon":5.43701,"is_reserved":false,"is_disabled":false,"rental_uris":{"android":"levelo://app?vid=03519357-cc71-4610-a101-c7e9590195a2","ios":"levelo://app?vid=03519357-cc71-4610-a101-c7e9590195a2"},"vehicle_type_id":"4","last_reported":1737036488,"current_range_meters":38000,"station_id":"ce4bhmp2rcd13ifvqgog","pricing_plan_id":"cebpf4jnsgd1na2vs0mg"},{"bike_id":"d10c5460-c50b-4eb6-a1a9-336cf2e4209d","system_id":"levelo_inurba_marseille","lat":43.26808,"lon":5.40251,"is_reserved":false,"is_disabled":false,"rental_uris":{"android":"levelo://app?vid=d10c5460-c50b-4eb6-a1a9-336cf2e4209d","ios":"levelo://app?vid=d10c5460-c50b-4eb6-a1a9-336cf2e4209d"},"vehicle_type_id":"4","last_reported":1737036488,"current_range_meters":38800,"station_id":"ce501612rcd8frsf0b60","pricing_plan_id":"cebpf4jnsgd1na2vs0mg"},{"bike_id":"ee5d152c-5c6a-4b1e-bb2e-ad709f261c25","system_id":"levelo_inurba_marseille","lat":43.27494,"lon":5.42437,"is_reserved":false,"is_disabled":true,"rental_uris":{"android":"levelo://app?vid=ee5d152c-5c6a-4b1e-bb2e-ad709f261c25","ios":"levelo://app?vid=ee5d152c-5c6a-4b1e-bb2e-ad709f261c25"},"vehicle_type_id":"4","last_reported":1737036488,"current_range_meters":0,"station_id":"ce4bhn92rcd13ifvqgrg","pricing_plan_id":"cebpf4jnsgd1na2vs0mg"},{"bike_id":"6383fb74-1ee1-40a6-bd29-dc827f3599e3","system_id":"levelo_inurba_marseille","lat":43.28973,"lon":5.37835,"is_reserved":false,"is_disabled":false,"rental_uris":{"android":"levelo://app?vid=6383fb74-1ee1-40a6-bd29-dc827f3599e3","ios":"levelo://app?vid=6383fb74-1ee1-40a6-bd29-dc827f3599e3"},"vehicle_type_id":"4","last_reported":1737036488,"current_range_meters":28400,"station_id":"ce4bh9p2rcd13ifvqed0","pricing_plan_id":"cebpf4jnsgd1na2vs0mg"},{"bike_id":"c8cfc202-d733-4989-9330-14558b81f152","system_id":"levelo_inurba_marseille","lat":43.30962,"lon":5.39052,"is_reserved":false,"is_disabled":false,"rental_uris":{"android":"levelo://app?vid=c8cfc202-d733-4989-9330-14558b81f152","ios":"levelo://app?vid=c8cfc202-d733-4989-9330-14558b81f152"},"vehicle_type_id":"4","last_reported":1737036488,"current_range_meters":24000,"station_id":"ce4bgup2rcd13ifvqco0","pricing_plan_id":"cebpf4jnsgd1na2vs0mg"},{"bike_id":"b9d506f3-d5fd-4d37-904a-7c52215a265a","system_id":"levelo_inurba_marseille","lat":43.24182,"lon":5.39722,"is_reserved":false,"is_disabled":false,"rental_uris":{"android":"levelo://app?vid=b9d506f3-d5fd-4d37-904a-7c52215a265a","ios":"levelo://app?vid=b9d506f3-d5fd-4d37-904a-7c52215a265a"},"vehicle_type_id":"4","last_reported":1737036488,"current_range_meters":29600,"station_id":"ce4bhn12rcd13ifvqgpg","pricing_plan_id":"cebpf4jnsgd1na2vs0mg"},{"bike_id":"26ab0c82-d332-420e-8b97-96061bcf2b59","system_id":"levelo_inurba_marseille","lat":43.29363,"lon":5.37826,"is_reserved":false,"is_disabled":false,"rental_uris":{"android":"levelo://app?vid=26ab0c82-d332-420e-8b97-96061bcf2b59","ios":"levelo://app?vid=26ab0c82-d332-420e-8b97-96061bcf2b59"},"vehicle_type_id":"4","last_reported":1737036488,"current_range_meters":7200,"station_id":"ce4bgjh2rcd13ifvqbf0","pricing_plan_id":"cebpf4jnsgd1na2vs0mg"},{"bike_id":"67c6acf5-226f-49f4-bff9-0f3bc8866ab4","system_id":"levelo_inurba_marseille","lat":43.23965,"lon":5.37638,"is_reserved":false,"is_disabled":false,"rental_uris":{"android":"levelo://app?vid=67c6acf5-226f-49f4-bff9-0f3bc8866ab4","ios":"levelo://app?vid=67c6acf5-226f-49f4-bff9-0f3bc8866ab4"},"vehicle_type_id":"4","last_reported":1737036488,"current_range_meters":38400,"station_id":"ce4bhnp2rcd13ifvqgvg","pricing_plan_id":"cebpf4jnsgd1na2vs0mg"},{"bike_id":"6b0f640d-8733-463e-9163-ced3fa26014a","system_id":"levelo_inurba_marseille","lat":43.28353,"lon":5.38114,"is_reserved":false,"is_disabled":false,"rental_uris":{"android":"levelo://app?vid=6b0f640d-8733-463e-9163-ced3fa26014a","ios":"levelo://app?vid=6b0f640d-8733-463e-9163-ced3fa26014a"},"vehicle_type_id":"4","last_reported":1737036488,"current_range_meters":22000,"station_id":"ce4bh412rcd13ifvqdr0","pricing_plan_id":"cebpf4jnsgd1na2vs0mg"},{"bike_id":"c4fc9679-1008-473b-9e9b-26f1ed62312e","system_id":"levelo_inurba_marseille","lat":43.22937,"lon":5.3538,"is_reserved":false,"is_disabled":false,"rental_uris":{"android":"levelo://app?vid=c4fc9679-1008-473b-9e9b-26f1ed62312e","ios":"levelo://app?vid=c4fc9679-1008-473b-9e9b-26f1ed62312e"},"vehicle_type_id":"4","last_reported":1737036488,"current_range_meters":23200,"station_id":"cpo3532slgdg3j2ikp40","pricing_plan_id":"cebpf4jnsgd1na2vs0mg"},{"bike_id":"fe67188a-1916-443a-acf8-6efb1f8f6d0b","system_id":"levelo_inurba_marseille","lat":43.2827,"lon":5.35063,"is_reserved":false,"is_disabled":false,"rental_uris":{"android":"levelo://app?vid=fe67188a-1916-443a-acf8-6efb1f8f6d0b","ios":"levelo://app?vid=fe67188a-1916-443a-acf8-6efb1f8f6d0b"},"vehicle_type_id":"4","last_reported":1737036488,"current_range_meters":32800,"station_id":"ce4bhbp2rcd13ifvqerg","pricing_plan_id":"cebpf4jnsgd1na2vs0mg"},{"bike_id":"0e842b39-329d-48e2-b781-7e3babc96cf4","system_id":"levelo_inurba_marseille","lat":43.22934,"lon":5.3539,"is_reserved":false,"is_disabled":false,"rental_uris":{"android":"levelo://app?vid=0e842b39-329d-48e2-b781-7e3babc96cf4","ios":"levelo://app?vid=0e842b39-329d-48e2-b781-7e3babc96cf4"},"vehicle_type_id":"4","last_reported":1737036488,"current_range_meters":15200,"station_id":"cpo3532slgdg3j2ikp40","pricing_plan_id":"cebpf4jnsgd1na2vs0mg"},{"bike_id":"2e7c58f0-f87f-443e-8de0-f219f58aa275","system_id":"levelo_inurba_marseille","lat":43.29843,"lon":5.36258,"is_reserved":false,"is_disabled":false,"rental_uris":{"android":"levelo://app?vid=2e7c58f0-f87f-443e-8de0-f219f58aa275","ios":"levelo://app?vid=2e7c58f0-f87f-443e-8de0-f219f58aa275"},"vehicle_type_id":"4","last_reported":1737036488,"current_range_meters":11600,"station_id":"ce4bgpp2rcd13ifvqc3g","pricing_plan_id":"cebpf4jnsgd1na2vs0mg"},{"bike_id":"61a614b0-7e6c-45fc-9f84-d2b31017cdd3","system_id":"levelo_inurba_marseille","lat":43.2929,"lon":5.37463,"is_reserved":false,"is_disabled":true,"rental_uris":{"android":"levelo://app?vid=61a614b0-7e6c-45fc-9f84-d2b31017cdd3","ios":"levelo://app?vid=61a614b0-7e6c-45fc-9f84-d2b31017cdd3"},"vehicle_type_id":"4","last_reported":1737036488,"current_range_meters":2000,"station_id":"ce4bgi12rcd13ifvqb70","pricing_plan_id":"cebpf4jnsgd1na2vs0mg"},{"bike_id":"c8012773-7d99-408d-a9a4-24a301001d61","system_id":"levelo_inurba_marseille","lat":43.24539,"lon":5.39509,"is_reserved":false,"is_disabled":false,"rental_uris":{"android":"levelo://app?vid=c8012773-7d99-408d-a9a4-24a301001d61","ios":"levelo://app?vid=c8012773-7d99-408d-a9a4-24a301001d61"},"vehicle_type_id":"4","last_reported":1737036488,"current_range_meters":19600,"station_id":"ce4bhlp2rcd13ifvqgjg","pricing_plan_id":"cebpf4jnsgd1na2vs0mg"},{"bike_id":"65a397c1-07b1-4480-be0a-2ce730712cf5","system_id":"levelo_inurba_marseille","lat":43.27173,"lon":5.40996,"is_reserved":false,"is_disabled":false,"rental_uris":{"android":"levelo://app?vid=65a397c1-07b1-4480-be0a-2ce730712cf5","ios":"levelo://app?vid=65a397c1-07b1-4480-be0a-2ce730712cf5"},"vehicle_type_id":"4","last_reported":1737036488,"current_range_meters":24800,"station_id":"ce4bhl12rcd13ifvqgf0","pricing_plan_id":"cebpf4jnsgd1na2vs0mg"},{"bike_id":"2c6abab3-1db4-422b-bf4f-c61f4d281d48","system_id":"levelo_inurba_marseille","lat":43.30313,"lon":5.36898,"is_reserved":false,"is_disabled":false,"rental_uris":{"android":"levelo://app?vid=2c6abab3-1db4-422b-bf4f-c61f4d281d48","ios":"levelo://app?vid=2c6abab3-1db4-422b-bf4f-c61f4d281d48"},"vehicle_type_id":"4","last_reported":1737036488,"current_range_meters":16800,"station_id":"ce4bgqh2rcd13ifvqc5g","pricing_plan_id":"cebpf4jnsgd1na2vs0mg"},{"bike_id":"21991245-c0ed-460a-96c0-efd1586188d9","system_id":"levelo_inurba_marseille","lat":43.26056,"lon":5.37548,"is_reserved":false,"is_disabled":false,"rental_uris":{"android":"levelo://app?vid=21991245-c0ed-460a-96c0-efd1586188d9","ios":"levelo://app?vid=21991245-c0ed-460a-96c0-efd1586188d9"},"vehicle_type_id":"4","last_reported":1737036488,"current_range_meters":38800,"station_id":"ce4bhgh2rcd13ifvqfa0","pricing_plan_id":"cebpf4jnsgd1na2vs0mg"},{"bike_id":"c5b4e51b-edb6-48e9-b5c1-ba07ffe7287b","system_id":"levelo_inurba_marseille","lat":43.29847,"lon":5.36273,"is_reserved":false,"is_disabled":false,"rental_uris":{"android":"levelo://app?vid=c5b4e51b-edb6-48e9-b5c1-ba07ffe7287b","ios":"levelo://app?vid=c5b4e51b-edb6-48e9-b5c1-ba07ffe7287b"},"vehicle_type_id":"4","last_reported":1737036488,"current_range_meters":39200,"station_id":"ce4bgpp2rcd13ifvqc3g","pricing_plan_id":"cebpf4jnsgd1na2vs0mg"},{"bike_id":"4605789c-d250-4af9-8bff-ede0fe47ab05","system_id":"levelo_inurba_marseille","lat":43.29822,"lon":5.38094,"is_reserved":false,"is_disabled":true,"rental_uris":{"android":"levelo://app?vid=4605789c-d250-4af9-8bff-ede0fe47ab05","ios":"levelo://app?vid=4605789c-d250-4af9-8bff-ede0fe47ab05"},"vehicle_type_id":"4","last_reported":1737036488,"current_range_meters":0,"station_id":"ce4bgip2rcd13ifvqbb0","pricing_plan_id":"cebpf4jnsgd1na2vs0mg"},{"bike_id":"507b71db-8a55-4001-af6d-3d01df0f9a97","system_id":"levelo_inurba_marseille","lat":43.27327,"lon":5.39123,"is_reserved":false,"is_disabled":false,"rental_uris":{"android":"levelo://app?vid=507b71db-8a55-4001-af6d-3d01df0f9a97","ios":"levelo://app?vid=507b71db-8a55-4001-af6d-3d01df0f9a97"},"vehicle_type_id":"4","last_reported":1737036488,"current_range_meters":29600,"station_id":"ce4bhgp2rcd13ifvqfe0","pricing_plan_id":"cebpf4jnsgd1na2vs0mg"},{"bike_id":"5eb31e7a-4576-4f9a-ad1c-ec7f38ae2f91","system_id":"levelo_inurba_marseille","lat":43.28973,"lon":5.3784,"is_reserved":false,"is_disabled":false,"rental_uris":{"android":"levelo://app?vid=5eb31e7a-4576-4f9a-ad1c-ec7f38ae2f91","ios":"levelo://app?vid=5eb31e7a-4576-4f9a-ad1c-ec7f38ae2f91"},"vehicle_type_id":"4","last_reported":1737036488,"current_range_meters":28400,"station_id":"ce4bh9p2rcd13ifvqed0","pricing_plan_id":"cebpf4jnsgd1na2vs0mg"},{"bike_id":"3935cf59-9f18-458e-a167-ecd898e5ac70","system_id":"levelo_inurba_marseille","lat":43.26927,"lon":5.38658,"is_reserved":false,"is_disabled":false,"rental_uris":{"android":"levelo://app?vid=3935cf59-9f18-458e-a167-ecd898e5ac70","ios":"levelo://app?vid=3935cf59-9f18-458e-a167-ecd898e5ac70"},"vehicle_type_id":"4","last_reported":1737036488,"current_range_meters":18800,"station_id":"ce4bhh92rcd13ifvqfh0","pricing_plan_id":"cebpf4jnsgd1na2vs0mg"},{"bike_id":"5fc1b6c0-8604-47be-9a91-81372cd3e354","system_id":"levelo_inurba_marseille","lat":43.31937,"lon":5.38166,"is_reserved":false,"is_disabled":false,"rental_uris":{"android":"levelo://app?vid=5fc1b6c0-8604-47be-9a91-81372cd3e354","ios":"levelo://app?vid=5fc1b6c0-8604-47be-9a91-81372cd3e354"},"vehicle_type_id":"4","last_reported":1737036488,"current_range_meters":38800,"station_id":"ce4bhr12rcd13ifvqhpg","pricing_plan_id":"cebpf4jnsgd1na2vs0mg"},{"bike_id":"431d5609-0b95-4f6c-bb62-9dad367a8c06","system_id":"levelo_inurba_marseille","lat":43.27212,"lon":5.39197,"is_reserved":false,"is_disabled":false,"rental_uris":{"android":"levelo://app?vid=431d5609-0b95-4f6c-bb62-9dad367a8c06","ios":"levelo://app?vid=431d5609-0b95-4f6c-bb62-9dad367a8c06"},"vehicle_type_id":"4","last_reported":1737036488,"current_range_meters":28000,"station_id":"ce4bhhp2rcd13ifvqfm0","pricing_plan_id":"cebpf4jnsgd1na2vs0mg"},{"bike_id":"a9d19257-6b35-4541-a04d-c8ba0e569890","system_id":"levelo_inurba_marseille","lat":43.29793,"lon":5.381124,"is_reserved":false,"is_disabled":false,"rental_uris":{"android":"levelo://app?vid=a9d19257-6b35-4541-a04d-c8ba0e569890","ios":"levelo://app?vid=a9d19257-6b35-4541-a04d-c8ba0e569890"},"vehicle_type_id":"4","last_reported":1737036488,"current_range_meters":8400,"station_id":"ce4bgip2rcd13ifvqbb0","pricing_plan_id":"cebpf4jnsgd1na2vs0mg"},{"bike_id":"90ed37a9-d123-4ac9-9dc6-c4d9ff1c53ef","system_id":"levelo_inurba_marseille","lat":43.30532,"lon":5.36559,"is_reserved":false,"is_disabled":false,"rental_uris":{"android":"levelo://app?vid=90ed37a9-d123-4ac9-9dc6-c4d9ff1c53ef","ios":"levelo://app?vid=90ed37a9-d123-4ac9-9dc6-c4d9ff1c53ef"},"vehicle_type_id":"4","last_reported":1737036488,"current_range_meters":24000,"station_id":"ce4bgs12rcd13ifvqcag","pricing_plan_id":"cebpf4jnsgd1na2vs0mg"},{"bike_id":"f8bed993-c204-4159-b8e6-9c18e1f2f118","system_id":"levelo_inurba_marseille","lat":43.29528,"lon":5.37505,"is_reserved":false,"is_disabled":true,"rental_uris":{"android":"levelo://app?vid=f8bed993-c204-4159-b8e6-9c18e1f2f118","ios":"levelo://app?vid=f8bed993-c204-4159-b8e6-9c18e1f2f118"},"vehicle_type_id":"4","last_reported":1737036488,"current_range_meters":0,"station_id":"ce4bgkp2rcd13ifvqbmg","pricing_plan_id":"cebpf4jnsgd1na2vs0mg"},{"bike_id":"bef5c741-75bd-4f8f-a849-078d09ab7470","system_id":"levelo_inurba_marseille","lat":43.29896,"lon":5.43654,"is_reserved":false,"is_disabled":false,"rental_uris":{"android":"levelo://app?vid=bef5c741-75bd-4f8f-a849-078d09ab7470","ios":"levelo://app?vid=bef5c741-75bd-4f8f-a849-078d09ab7470"},"vehicle_type_id":"4","last_reported":1737036488,"current_range_meters":38800,"station_id":"ce4bhpp2rcd13ifvqhfg","pricing_plan_id":"cebpf4jnsgd1na2vs0mg"},{"bike_id":"507d7b19-702d-4bfb-8bc8-0fc6d8c1a3a4","system_id":"levelo_inurba_marseille","lat":43.29872,"lon":5.39752,"is_reserved":false,"is_disabled":false,"rental_uris":{"android":"levelo://app?vid=507d7b19-702d-4bfb-8bc8-0fc6d8c1a3a4","ios":"levelo://app?vid=507d7b19-702d-4bfb-8bc8-0fc6d8c1a3a4"},"vehicle_type_id":"4","last_reported":1737036488,"current_range_meters":39200,"station_id":"ce4bh0h2rcd13ifvqd50","pricing_plan_id":"cebpf4jnsgd1na2vs0mg"},{"bike_id":"1f4e6e8d-6c70-4dd6-ba83-165a530688d7","system_id":"levelo_inurba_marseille","lat":43.22931,"lon":5.35382,"is_reserved":false,"is_disabled":false,"rental_uris":{"android":"levelo://app?vid=1f4e6e8d-6c70-4dd6-ba83-165a530688d7","ios":"levelo://app?vid=1f4e6e8d-6c70-4dd6-ba83-165a530688d7"},"vehicle_type_id":"4","last_reported":1737036488,"current_range_meters":24000,"station_id":"cpo3532slgdg3j2ikp40","pricing_plan_id":"cebpf4jnsgd1na2vs0mg"},{"bike_id":"5dc5ff4a-6f97-4551-b16e-6accac849217","system_id":"levelo_inurba_marseille","lat":43.30558,"lon":5.36708,"is_reserved":false,"is_disabled":false,"rental_uris":{"android":"levelo://app?vid=5dc5ff4a-6f97-4551-b16e-6accac849217","ios":"levelo://app?vid=5dc5ff4a-6f97-4551-b16e-6accac849217"},"vehicle_type_id":"4","last_reported":1737036488,"current_range_meters":38000,"station_id":"ce4bgrp2rcd13ifvqc9g","pricing_plan_id":"cebpf4jnsgd1na2vs0mg"},{"bike_id":"ab26076a-305d-48e1-a9d0-a48ff9ce7b0e","system_id":"levelo_inurba_marseille","lat":43.24662,"lon":5.3816,"is_reserved":false,"is_disabled":false,"rental_uris":{"android":"levelo://app?vid=ab26076a-305d-48e1-a9d0-a48ff9ce7b0e","ios":"levelo://app?vid=ab26076a-305d-48e1-a9d0-a48ff9ce7b0e"},"vehicle_type_id":"4","last_reported":1737036488,"current_range_meters":14800,"station_id":"ce4bhih2rcd13ifvqfr0","pricing_plan_id":"cebpf4jnsgd1na2vs0mg"},{"bike_id":"ae6ec69a-9b0e-43e0-a28d-173f309613ee","system_id":"levelo_inurba_marseille","lat":43.29918,"lon":5.37457,"is_reserved":false,"is_disabled":false,"rental_uris":{"android":"levelo://app?vid=ae6ec69a-9b0e-43e0-a28d-173f309613ee","ios":"levelo://app?vid=ae6ec69a-9b0e-43e0-a28d-173f309613ee"},"vehicle_type_id":"4","last_reported":1737036488,"current_range_meters":27200,"station_id":"ce4bgjh2rcd13ifvqbg0","pricing_plan_id":"cebpf4jnsgd1na2vs0mg"},{"bike_id":"f8bc605a-59b5-4308-b621-2f5d04388785","system_id":"levelo_inurba_marseille","lat":43.296,"lon":5.3773,"is_reserved":false,"is_disabled":false,"rental_uris":{"android":"levelo://app?vid=f8bc605a-59b5-4308-b621-2f5d04388785","ios":"levelo://app?vid=f8bc605a-59b5-4308-b621-2f5d04388785"},"vehicle_type_id":"4","last_reported":1737036488,"current_range_meters":38000,"station_id":"ce4bgi92rcd13ifvqb90","pricing_plan_id":"cebpf4jnsgd1na2vs0mg"},{"bike_id":"fa53afd0-c3c0-46c2-be7e-d056eb14f6b8","system_id":"levelo_inurba_marseille","lat":43.26091,"lon":5.39387,"is_reserved":false,"is_disabled":false,"rental_uris":{"android":"levelo://app?vid=fa53afd0-c3c0-46c2-be7e-d056eb14f6b8","ios":"levelo://app?vid=fa53afd0-c3c0-46c2-be7e-d056eb14f6b8"},"vehicle_type_id":"4","last_reported":1737036488,"current_range_meters":38800,"station_id":"ce4bhh92rcd13ifvqfj0","pricing_plan_id":"cebpf4jnsgd1na2vs0mg"},{"bike_id":"bf570212-0e3b-4bce-85fa-29c1011cfa2d","system_id":"levelo_inurba_marseille","lat":43.32485,"lon":5.36554,"is_reserved":false,"is_disabled":false,"rental_uris":{"android":"levelo://app?vid=bf570212-0e3b-4bce-85fa-29c1011cfa2d","ios":"levelo://app?vid=bf570212-0e3b-4bce-85fa-29c1011cfa2d"},"vehicle_type_id":"4","last_reported":1737036488,"current_range_meters":32800,"station_id":"ce4bhs12rcd13ifvqhvg","pricing_plan_id":"cebpf4jnsgd1na2vs0mg"},{"bike_id":"e9b44516-60a0-4ed6-819e-437709973ea4","system_id":"levelo_inurba_marseille","lat":43.29618,"lon":5.37155,"is_reserved":false,"is_disabled":false,"rental_uris":{"android":"levelo://app?vid=e9b44516-60a0-4ed6-819e-437709973ea4","ios":"levelo://app?vid=e9b44516-60a0-4ed6-819e-437709973ea4"},"vehicle_type_id":"4","last_reported":1737036488,"current_range_meters":32400,"station_id":"ce4bgnh2rcd13ifvqc0g","pricing_plan_id":"cebpf4jnsgd1na2vs0mg"},{"bike_id":"a78ea674-5088-4f77-b7c2-4fef42cc5598","system_id":"levelo_inurba_marseille","lat":43.29529,"lon":5.37499,"is_reserved":false,"is_disabled":false,"rental_uris":{"android":"levelo://app?vid=a78ea674-5088-4f77-b7c2-4fef42cc5598","ios":"levelo://app?vid=a78ea674-5088-4f77-b7c2-4fef42cc5598"},"vehicle_type_id":"4","last_reported":1737036488,"current_range_meters":24000,"station_id":"ce4bgkp2rcd13ifvqbmg","pricing_plan_id":"cebpf4jnsgd1na2vs0mg"},{"bike_id":"155dbf4b-d6fe-46aa-9097-9994452a5158","system_id":"levelo_inurba_marseille","lat":43.23062,"lon":5.35494,"is_reserved":false,"is_disabled":false,"rental_uris":{"android":"levelo://app?vid=155dbf4b-d6fe-46aa-9097-9994452a5158","ios":"levelo://app?vid=155dbf4b-d6fe-46aa-9097-9994452a5158"},"vehicle_type_id":"4","last_reported":1737036488,"current_range_meters":9200,"station_id":"cpo3342slgdg3j2ifvpg","pricing_plan_id":"cebpf4jnsgd1na2vs0mg"},{"bike_id":"d28eb562-9401-4c73-a785-28169d8131d7","system_id":"levelo_inurba_marseille","lat":43.30917,"lon":5.36853,"is_reserved":false,"is_disabled":false,"rental_uris":{"android":"levelo://app?vid=d28eb562-9401-4c73-a785-28169d8131d7","ios":"levelo://app?vid=d28eb562-9401-4c73-a785-28169d8131d7"},"vehicle_type_id":"4","last_reported":1737036488,"current_range_meters":27600,"station_id":"ce4bgn92rcd13ifvqbvg","pricing_plan_id":"cebpf4jnsgd1na2vs0mg"},{"bike_id":"80bc6287-ce2b-4ae4-b9d5-67d3150daa6d","system_id":"levelo_inurba_marseille","lat":43.27171,"lon":5.40991,"is_reserved":false,"is_disabled":false,"rental_uris":{"android":"levelo://app?vid=80bc6287-ce2b-4ae4-b9d5-67d3150daa6d","ios":"levelo://app?vid=80bc6287-ce2b-4ae4-b9d5-67d3150daa6d"},"vehicle_type_id":"4","last_reported":1737036488,"current_range_meters":28800,"station_id":"ce4bhl12rcd13ifvqgf0","pricing_plan_id":"cebpf4jnsgd1na2vs0mg"},{"bike_id":"98342f93-7bf2-4304-817a-494cc685e2f4","system_id":"levelo_inurba_marseille","lat":43.33729,"lon":5.39186,"is_reserved":false,"is_disabled":false,"rental_uris":{"android":"levelo://app?vid=98342f93-7bf2-4304-817a-494cc685e2f4","ios":"levelo://app?vid=98342f93-7bf2-4304-817a-494cc685e2f4"},"vehicle_type_id":"4","last_reported":1737036488,"current_range_meters":38800,"station_id":"ce4bhr92rcd13ifvqhsg","pricing_plan_id":"cebpf4jnsgd1na2vs0mg"},{"bike_id":"0e148415-5fb7-4b85-bd8d-2efc964f268e","system_id":"levelo_inurba_marseille","lat":43.33735,"lon":5.39192,"is_reserved":false,"is_disabled":false,"rental_uris":{"android":"levelo://app?vid=0e148415-5fb7-4b85-bd8d-2efc964f268e","ios":"levelo://app?vid=0e148415-5fb7-4b85-bd8d-2efc964f268e"},"vehicle_type_id":"4","last_reported":1737036488,"current_range_meters":38000,"station_id":"ce4bhr92rcd13ifvqhsg","pricing_plan_id":"cebpf4jnsgd1na2vs0mg"},{"bike_id":"e0906d09-b1a8-46a1-b2a3-a8c6bfa97063","system_id":"levelo_inurba_marseille","lat":43.29797,"lon":5.38094,"is_reserved":false,"is_disabled":false,"rental_uris":{"android":"levelo://app?vid=e0906d09-b1a8-46a1-b2a3-a8c6bfa97063","ios":"levelo://app?vid=e0906d09-b1a8-46a1-b2a3-a8c6bfa97063"},"vehicle_type_id":"4","last_reported":1737036488,"current_range_meters":38800,"station_id":"ce4bgip2rcd13ifvqbb0","pricing_plan_id":"cebpf4jnsgd1na2vs0mg"},{"bike_id":"160c4de7-7f2e-4ddd-89ef-4765ad4546e8","system_id":"levelo_inurba_marseille","lat":43.29004,"lon":5.35619,"is_reserved":false,"is_disabled":false,"rental_uris":{"android":"levelo://app?vid=160c4de7-7f2e-4ddd-89ef-4765ad4546e8","ios":"levelo://app?vid=160c4de7-7f2e-4ddd-89ef-4765ad4546e8"},"vehicle_type_id":"4","last_reported":1737036488,"current_range_meters":37600,"station_id":"ce4bhb92rcd13ifvqen0","pricing_plan_id":"cebpf4jnsgd1na2vs0mg"},{"bike_id":"1f149e26-9d4e-4970-96ec-1b76430b914b","system_id":"levelo_inurba_marseille","lat":43.24383,"lon":5.37073,"is_reserved":false,"is_disabled":false,"rental_uris":{"android":"levelo://app?vid=1f149e26-9d4e-4970-96ec-1b76430b914b","ios":"levelo://app?vid=1f149e26-9d4e-4970-96ec-1b76430b914b"},"vehicle_type_id":"4","last_reported":1737036488,"current_range_meters":38800,"station_id":"ce4bhhh2rcd13ifvqfk0","pricing_plan_id":"cebpf4jnsgd1na2vs0mg"},{"bike_id":"baf753fc-dc54-426d-a32c-0f27b8c91385","system_id":"levelo_inurba_marseille","lat":43.26845,"lon":5.3939,"is_reserved":false,"is_disabled":false,"rental_uris":{"android":"levelo://app?vid=baf753fc-dc54-426d-a32c-0f27b8c91385","ios":"levelo://app?vid=baf753fc-dc54-426d-a32c-0f27b8c91385"},"vehicle_type_id":"4","last_reported":1737036488,"current_range_meters":7200,"station_id":"","pricing_plan_id":"cebpf4jnsgd1na2vs0mg"},{"bike_id":"76b11e59-8729-43b1-bbd0-394b62bc4f6d","system_id":"levelo_inurba_marseille","lat":43.3414,"lon":5.40906,"is_reserved":false,"is_disabled":false,"rental_uris":{"android":"levelo://app?vid=76b11e59-8729-43b1-bbd0-394b62bc4f6d","ios":"levelo://app?vid=76b11e59-8729-43b1-bbd0-394b62bc4f6d"},"vehicle_type_id":"4","last_reported":1737036488,"current_range_meters":32400,"station_id":"ce4bhqh2rcd13ifvqhlg","pricing_plan_id":"cebpf4jnsgd1na2vs0mg"},{"bike_id":"4d67d339-e8e1-4f5a-8086-1d6e90a5223c","system_id":"levelo_inurba_marseille","lat":43.31445,"lon":5.37603,"is_reserved":false,"is_disabled":false,"rental_uris":{"android":"levelo://app?vid=4d67d339-e8e1-4f5a-8086-1d6e90a5223c","ios":"levelo://app?vid=4d67d339-e8e1-4f5a-8086-1d6e90a5223c"},"vehicle_type_id":"4","last_reported":1737036488,"current_range_meters":38800,"station_id":"","pricing_plan_id":"cebpf4jnsgd1na2vs0mg"},{"bike_id":"5edeb20e-e82e-4c9c-b6d8-dfa6cde5408f","system_id":"levelo_inurba_marseille","lat":43.29251,"lon":5.40904,"is_reserved":false,"is_disabled":false,"rental_uris":{"android":"levelo://app?vid=5edeb20e-e82e-4c9c-b6d8-dfa6cde5408f","ios":"levelo://app?vid=5edeb20e-e82e-4c9c-b6d8-dfa6cde5408f"},"vehicle_type_id":"4","last_reported":1737036488,"current_range_meters":30000,"station_id":"ce4bh192rcd13ifvqdc0","pricing_plan_id":"cebpf4jnsgd1na2vs0mg"},{"bike_id":"53a8a18b-78c1-4c77-8e65-adb5b2c0f6db","system_id":"levelo_inurba_marseille","lat":43.32344,"lon":5.40618,"is_reserved":false,"is_disabled":false,"rental_uris":{"android":"levelo://app?vid=53a8a18b-78c1-4c77-8e65-adb5b2c0f6db","ios":"levelo://app?vid=53a8a18b-78c1-4c77-8e65-adb5b2c0f6db"},"vehicle_type_id":"4","last_reported":1737036488,"current_range_meters":10800,"station_id":"ce4bhq92rcd13ifvqhjg","pricing_plan_id":"cebpf4jnsgd1na2vs0mg"},{"bike_id":"2c839bfc-228b-4afd-9c45-0e54b8f36672","system_id":"levelo_inurba_marseille","lat":43.24651,"lon":5.38898,"is_reserved":false,"is_disabled":false,"rental_uris":{"android":"levelo://app?vid=2c839bfc-228b-4afd-9c45-0e54b8f36672","ios":"levelo://app?vid=2c839bfc-228b-4afd-9c45-0e54b8f36672"},"vehicle_type_id":"4","last_reported":1737036488,"current_range_meters":38800,"station_id":"ce4bhg12rcd13ifvqf60","pricing_plan_id":"cebpf4jnsgd1na2vs0mg"},{"bike_id":"b1ddeadc-31f1-42f9-9a80-512818b293b3","system_id":"levelo_inurba_marseille","lat":43.29422,"lon":5.3862,"is_reserved":false,"is_disabled":true,"rental_uris":{"android":"levelo://app?vid=b1ddeadc-31f1-42f9-9a80-512818b293b3","ios":"levelo://app?vid=b1ddeadc-31f1-42f9-9a80-512818b293b3"},"vehicle_type_id":"4","last_reported":1737036488,"current_range_meters":400,"station_id":"ce4bh2h2rcd13ifvqdh0","pricing_plan_id":"cebpf4jnsgd1na2vs0mg"},{"bike_id":"707ed4b6-32ec-456f-af9b-99b730072abe","system_id":"levelo_inurba_marseille","lat":43.29578,"lon":5.37493,"is_reserved":false,"is_disabled":false,"rental_uris":{"android":"levelo://app?vid=707ed4b6-32ec-456f-af9b-99b730072abe","ios":"levelo://app?vid=707ed4b6-32ec-456f-af9b-99b730072abe"},"vehicle_type_id":"4","last_reported":1737036488,"current_range_meters":22400,"station_id":"ce4bgh92rcd13ifvqb50","pricing_plan_id":"cebpf4jnsgd1na2vs0mg"},{"bike_id":"15e41896-9686-461f-add3-091f60afd267","system_id":"levelo_inurba_marseille","lat":43.2827,"lon":5.3507,"is_reserved":false,"is_disabled":false,"rental_uris":{"android":"levelo://app?vid=15e41896-9686-461f-add3-091f60afd267","ios":"levelo://app?vid=15e41896-9686-461f-add3-091f60afd267"},"vehicle_type_id":"4","last_reported":1737036488,"current_range_meters":39200,"station_id":"ce4bhbp2rcd13ifvqerg","pricing_plan_id":"cebpf4jnsgd1na2vs0mg"},{"bike_id":"2766686f-7696-4a1d-bceb-e3abea7dd924","system_id":"levelo_inurba_marseille","lat":43.31257,"lon":5.36861,"is_reserved":false,"is_disabled":false,"rental_uris":{"android":"levelo://app?vid=2766686f-7696-4a1d-bceb-e3abea7dd924","ios":"levelo://app?vid=2766686f-7696-4a1d-bceb-e3abea7dd924"},"vehicle_type_id":"4","last_reported":1737036488,"current_range_meters":33200,"station_id":"ce4bgl92rcd13ifvqbq0","pricing_plan_id":"cebpf4jnsgd1na2vs0mg"},{"bike_id":"a86affce-0cfd-496e-8b95-82a8e577e2ad","system_id":"levelo_inurba_marseille","lat":43.31335,"lon":5.39702,"is_reserved":false,"is_disabled":false,"rental_uris":{"android":"levelo://app?vid=a86affce-0cfd-496e-8b95-82a8e577e2ad","ios":"levelo://app?vid=a86affce-0cfd-496e-8b95-82a8e577e2ad"},"vehicle_type_id":"4","last_reported":1737036488,"current_range_meters":38800,"station_id":"ce4bgvp2rcd13ifvqcu0","pricing_plan_id":"cebpf4jnsgd1na2vs0mg"},{"bike_id":"a15980ac-c225-4e68-8982-6cc8c4cbfd79","system_id":"levelo_inurba_marseille","lat":43.231943,"lon":5.35568,"is_reserved":false,"is_disabled":false,"rental_uris":{"android":"levelo://app?vid=a15980ac-c225-4e68-8982-6cc8c4cbfd79","ios":"levelo://app?vid=a15980ac-c225-4e68-8982-6cc8c4cbfd79"},"vehicle_type_id":"4","last_reported":1737036488,"current_range_meters":38800,"station_id":"ce4bhu92rcd13ifvqi70","pricing_plan_id":"cebpf4jnsgd1na2vs0mg"},{"bike_id":"390ab92d-b8c8-4fa3-a463-67c40cf8a73a","system_id":"levelo_inurba_marseille","lat":43.27195,"lon":5.40977,"is_reserved":false,"is_disabled":false,"rental_uris":{"android":"levelo://app?vid=390ab92d-b8c8-4fa3-a463-67c40cf8a73a","ios":"levelo://app?vid=390ab92d-b8c8-4fa3-a463-67c40cf8a73a"},"vehicle_type_id":"4","last_reported":1737036488,"current_range_meters":38800,"station_id":"ce4bhl12rcd13ifvqgf0","pricing_plan_id":"cebpf4jnsgd1na2vs0mg"},{"bike_id":"344bd4d4-3a8a-47e1-aaad-a2c9867ce43b","system_id":"levelo_inurba_marseille","lat":43.27376,"lon":5.36232,"is_reserved":false,"is_disabled":false,"rental_uris":{"android":"levelo://app?vid=344bd4d4-3a8a-47e1-aaad-a2c9867ce43b","ios":"levelo://app?vid=344bd4d4-3a8a-47e1-aaad-a2c9867ce43b"},"vehicle_type_id":"4","last_reported":1737036488,"current_range_meters":39200,"station_id":"ce4bhbh2rcd13ifvqeo0","pricing_plan_id":"cebpf4jnsgd1na2vs0mg"},{"bike_id":"eec3b22a-35cc-4fb8-beef-220041e31880","system_id":"levelo_inurba_marseille","lat":43.30201,"lon":5.39494,"is_reserved":false,"is_disabled":false,"rental_uris":{"android":"levelo://app?vid=eec3b22a-35cc-4fb8-beef-220041e31880","ios":"levelo://app?vid=eec3b22a-35cc-4fb8-beef-220041e31880"},"vehicle_type_id":"4","last_reported":1737036488,"current_range_meters":39200,"station_id":"ce4bh0p2rcd13ifvqd70","pricing_plan_id":"cebpf4jnsgd1na2vs0mg"},{"bike_id":"0fa75195-ca6f-4470-9a59-3f578924b033","system_id":"levelo_inurba_marseille","lat":43.2743,"lon":5.39391,"is_reserved":false,"is_disabled":false,"rental_uris":{"android":"levelo://app?vid=0fa75195-ca6f-4470-9a59-3f578924b033","ios":"levelo://app?vid=0fa75195-ca6f-4470-9a59-3f578924b033"},"vehicle_type_id":"4","last_reported":1737036488,"current_range_meters":39200,"station_id":"ce4bhdp2rcd13ifvqf20","pricing_plan_id":"cebpf4jnsgd1na2vs0mg"},{"bike_id":"cbf10109-5b21-4345-a3aa-d36f8ea618d1","system_id":"levelo_inurba_marseille","lat":43.30289,"lon":5.37719,"is_reserved":false,"is_disabled":false,"rental_uris":{"android":"levelo://app?vid=cbf10109-5b21-4345-a3aa-d36f8ea618d1","ios":"levelo://app?vid=cbf10109-5b21-4345-a3aa-d36f8ea618d1"},"vehicle_type_id":"4","last_reported":1737036488,"current_range_meters":24400,"station_id":"ce4bguh2rcd13ifvqcj0","pricing_plan_id":"cebpf4jnsgd1na2vs0mg"},{"bike_id":"57f9c8ab-8d16-4858-bf10-ec696b5dbfaf","system_id":"levelo_inurba_marseille","lat":43.25495,"lon":5.3765,"is_reserved":false,"is_disabled":false,"rental_uris":{"android":"levelo://app?vid=57f9c8ab-8d16-4858-bf10-ec696b5dbfaf","ios":"levelo://app?vid=57f9c8ab-8d16-4858-bf10-ec696b5dbfaf"},"vehicle_type_id":"4","last_reported":1737036488,"current_range_meters":10000,"station_id":"ce4bhh12rcd13ifvqff0","pricing_plan_id":"cebpf4jnsgd1na2vs0mg"},{"bike_id":"f484807b-7201-45b0-a836-1f2d04b58544","system_id":"levelo_inurba_marseille","lat":43.30539,"lon":5.36701,"is_reserved":false,"is_disabled":false,"rental_uris":{"android":"levelo://app?vid=f484807b-7201-45b0-a836-1f2d04b58544","ios":"levelo://app?vid=f484807b-7201-45b0-a836-1f2d04b58544"},"vehicle_type_id":"4","last_reported":1737036488,"current_range_meters":37600,"station_id":"ce4bgrp2rcd13ifvqc9g","pricing_plan_id":"cebpf4jnsgd1na2vs0mg"},{"bike_id":"51bb6953-dea8-4e82-96bf-52696267905f","system_id":"levelo_inurba_marseille","lat":43.23054,"lon":5.35494,"is_reserved":false,"is_disabled":false,"rental_uris":{"android":"levelo://app?vid=51bb6953-dea8-4e82-96bf-52696267905f","ios":"levelo://app?vid=51bb6953-dea8-4e82-96bf-52696267905f"},"vehicle_type_id":"4","last_reported":1737036488,"current_range_meters":37600,"station_id":"cpo3342slgdg3j2ifvpg","pricing_plan_id":"cebpf4jnsgd1na2vs0mg"},{"bike_id":"4e339f2c-037c-4577-b7d8-44022bb4beb9","system_id":"levelo_inurba_marseille","lat":43.32538,"lon":5.41425,"is_reserved":false,"is_disabled":false,"rental_uris":{"android":"levelo://app?vid=4e339f2c-037c-4577-b7d8-44022bb4beb9","ios":"levelo://app?vid=4e339f2c-037c-4577-b7d8-44022bb4beb9"},"vehicle_type_id":"4","last_reported":1737036488,"current_range_meters":38800,"station_id":"ce4bhq12rcd13ifvqhhg","pricing_plan_id":"cebpf4jnsgd1na2vs0mg"},{"bike_id":"2a6a25c0-f85d-4ad6-8a11-810cdcafb4ad","system_id":"levelo_inurba_marseille","lat":43.30919,"lon":5.36855,"is_reserved":false,"is_disabled":false,"rental_uris":{"android":"levelo://app?vid=2a6a25c0-f85d-4ad6-8a11-810cdcafb4ad","ios":"levelo://app?vid=2a6a25c0-f85d-4ad6-8a11-810cdcafb4ad"},"vehicle_type_id":"4","last_reported":1737036488,"current_range_meters":26800,"station_id":"ce4bgn92rcd13ifvqbvg","pricing_plan_id":"cebpf4jnsgd1na2vs0mg"},{"bike_id":"e3a2756f-7c57-44c1-ba64-3ca8a1a405a4","system_id":"levelo_inurba_marseille","lat":43.2857,"lon":5.39479,"is_reserved":false,"is_disabled":false,"rental_uris":{"android":"levelo://app?vid=e3a2756f-7c57-44c1-ba64-3ca8a1a405a4","ios":"levelo://app?vid=e3a2756f-7c57-44c1-ba64-3ca8a1a405a4"},"vehicle_type_id":"4","last_reported":1737036488,"current_range_meters":12000,"station_id":"ce4bh292rcd13ifvqdg0","pricing_plan_id":"cebpf4jnsgd1na2vs0mg"},{"bike_id":"43be8b2e-95c7-4bfc-b572-8790831c05f1","system_id":"levelo_inurba_marseille","lat":43.23965,"lon":5.36635,"is_reserved":false,"is_disabled":false,"rental_uris":{"android":"levelo://app?vid=43be8b2e-95c7-4bfc-b572-8790831c05f1","ios":"levelo://app?vid=43be8b2e-95c7-4bfc-b572-8790831c05f1"},"vehicle_type_id":"4","last_reported":1737036488,"current_range_meters":31200,"station_id":"ce4bhi12rcd13ifvqfp0","pricing_plan_id":"cebpf4jnsgd1na2vs0mg"},{"bike_id":"3bea599d-9d1d-4ce1-a78c-b94821d3e8a3","system_id":"levelo_inurba_marseille","lat":43.25001,"lon":5.38929,"is_reserved":false,"is_disabled":false,"rental_uris":{"android":"levelo://app?vid=3bea599d-9d1d-4ce1-a78c-b94821d3e8a3","ios":"levelo://app?vid=3bea599d-9d1d-4ce1-a78c-b94821d3e8a3"},"vehicle_type_id":"4","last_reported":1737036488,"current_range_meters":36800,"station_id":"ce4bhgp2rcd13ifvqfd0","pricing_plan_id":"cebpf4jnsgd1na2vs0mg"},{"bike_id":"8e2010c2-e7e3-425c-9b1d-139fd4978763","system_id":"levelo_inurba_marseille","lat":43.31348,"lon":5.36762,"is_reserved":false,"is_disabled":false,"rental_uris":{"android":"levelo://app?vid=8e2010c2-e7e3-425c-9b1d-139fd4978763","ios":"levelo://app?vid=8e2010c2-e7e3-425c-9b1d-139fd4978763"},"vehicle_type_id":"4","last_reported":1737036488,"current_range_meters":37600,"station_id":"ce4bgr92rcd13ifvqc6g","pricing_plan_id":"cebpf4jnsgd1na2vs0mg"},{"bike_id":"c72f0241-b8c1-44da-8744-7ccc8e668d26","system_id":"levelo_inurba_marseille","lat":43.24811,"lon":5.37458,"is_reserved":false,"is_disabled":false,"rental_uris":{"android":"levelo://app?vid=c72f0241-b8c1-44da-8744-7ccc8e668d26","ios":"levelo://app?vid=c72f0241-b8c1-44da-8744-7ccc8e668d26"},"vehicle_type_id":"4","last_reported":1737036488,"current_range_meters":34800,"station_id":"ce4bhgh2rcd13ifvqfb0","pricing_plan_id":"cebpf4jnsgd1na2vs0mg"},{"bike_id":"36e34a58-3562-4291-bd21-dcf0cdb62cdf","system_id":"levelo_inurba_marseille","lat":43.27817,"lon":5.40718,"is_reserved":false,"is_disabled":false,"rental_uris":{"android":"levelo://app?vid=36e34a58-3562-4291-bd21-dcf0cdb62cdf","ios":"levelo://app?vid=36e34a58-3562-4291-bd21-dcf0cdb62cdf"},"vehicle_type_id":"4","last_reported":1737036488,"current_range_meters":9600,"station_id":"ce4bhnh2rcd13ifvqgtg","pricing_plan_id":"cebpf4jnsgd1na2vs0mg"},{"bike_id":"1b826428-7b9b-4476-aff5-2d78b28b890c","system_id":"levelo_inurba_marseille","lat":43.27363,"lon":5.36227,"is_reserved":false,"is_disabled":false,"rental_uris":{"android":"levelo://app?vid=1b826428-7b9b-4476-aff5-2d78b28b890c","ios":"levelo://app?vid=1b826428-7b9b-4476-aff5-2d78b28b890c"},"vehicle_type_id":"4","last_reported":1737036488,"current_range_meters":38800,"station_id":"ce4bhbh2rcd13ifvqeo0","pricing_plan_id":"cebpf4jnsgd1na2vs0mg"},{"bike_id":"18a4e803-9fed-490d-8b8f-cfa50d31713a","system_id":"levelo_inurba_marseille","lat":43.26065,"lon":5.39385,"is_reserved":false,"is_disabled":false,"rental_uris":{"android":"levelo://app?vid=18a4e803-9fed-490d-8b8f-cfa50d31713a","ios":"levelo://app?vid=18a4e803-9fed-490d-8b8f-cfa50d31713a"},"vehicle_type_id":"4","last_reported":1737036488,"current_range_meters":16000,"station_id":"ce4bhh92rcd13ifvqfj0","pricing_plan_id":"cebpf4jnsgd1na2vs0mg"},{"bike_id":"9d480c55-de04-4898-9e93-4ee423ce5034","system_id":"levelo_inurba_marseille","lat":43.23959,"lon":5.36639,"is_reserved":false,"is_disabled":true,"rental_uris":{"android":"levelo://app?vid=9d480c55-de04-4898-9e93-4ee423ce5034","ios":"levelo://app?vid=9d480c55-de04-4898-9e93-4ee423ce5034"},"vehicle_type_id":"4","last_reported":1737036488,"current_range_meters":800,"station_id":"ce4bhi12rcd13ifvqfp0","pricing_plan_id":"cebpf4jnsgd1na2vs0mg"},{"bike_id":"2b9ec76b-d41b-40c2-957a-cdb91e08f05a","system_id":"levelo_inurba_marseille","lat":43.2897,"lon":5.37831,"is_reserved":false,"is_disabled":false,"rental_uris":{"android":"levelo://app?vid=2b9ec76b-d41b-40c2-957a-cdb91e08f05a","ios":"levelo://app?vid=2b9ec76b-d41b-40c2-957a-cdb91e08f05a"},"vehicle_type_id":"4","last_reported":1737036488,"current_range_meters":25200,"station_id":"ce4bh9p2rcd13ifvqed0","pricing_plan_id":"cebpf4jnsgd1na2vs0mg"},{"bike_id":"9d98ca00-1e7f-4cc0-8c28-13b153bd2fd6","system_id":"levelo_inurba_marseille","lat":43.251152,"lon":5.403185,"is_reserved":false,"is_disabled":false,"rental_uris":{"android":"levelo://app?vid=9d98ca00-1e7f-4cc0-8c28-13b153bd2fd6","ios":"levelo://app?vid=9d98ca00-1e7f-4cc0-8c28-13b153bd2fd6"},"vehicle_type_id":"4","last_reported":1737036488,"current_range_meters":16400,"station_id":"ce4bhlh2rcd13ifvqgig","pricing_plan_id":"cebpf4jnsgd1na2vs0mg"},{"bike_id":"4b2a9951-e9c3-48e0-8b22-f77f1838dfc7","system_id":"levelo_inurba_marseille","lat":43.2957,"lon":5.37583,"is_reserved":false,"is_disabled":false,"rental_uris":{"android":"levelo://app?vid=4b2a9951-e9c3-48e0-8b22-f77f1838dfc7","ios":"levelo://app?vid=4b2a9951-e9c3-48e0-8b22-f77f1838dfc7"},"vehicle_type_id":"4","last_reported":1737036488,"current_range_meters":16400,"station_id":"ce4bgh92rcd13ifvqb50","pricing_plan_id":"cebpf4jnsgd1na2vs0mg"},{"bike_id":"ab83fd1f-7636-46a9-be6f-714c723379d6","system_id":"levelo_inurba_marseille","lat":43.31329,"lon":5.39691,"is_reserved":false,"is_disabled":false,"rental_uris":{"android":"levelo://app?vid=ab83fd1f-7636-46a9-be6f-714c723379d6","ios":"levelo://app?vid=ab83fd1f-7636-46a9-be6f-714c723379d6"},"vehicle_type_id":"4","last_reported":1737036488,"current_range_meters":38800,"station_id":"ce4bgvp2rcd13ifvqcu0","pricing_plan_id":"cebpf4jnsgd1na2vs0mg"},{"bike_id":"227e2104-9342-467a-bb13-dc81a29065f7","system_id":"levelo_inurba_marseille","lat":43.2849,"lon":5.38945,"is_reserved":false,"is_disabled":false,"rental_uris":{"android":"levelo://app?vid=227e2104-9342-467a-bb13-dc81a29065f7","ios":"levelo://app?vid=227e2104-9342-467a-bb13-dc81a29065f7"},"vehicle_type_id":"4","last_reported":1737036488,"current_range_meters":30000,"station_id":"","pricing_plan_id":"cebpf4jnsgd1na2vs0mg"},{"bike_id":"1e57814a-ce2d-4abb-8d45-5417ca0b7741","system_id":"levelo_inurba_marseille","lat":43.27075,"lon":5.42282,"is_reserved":false,"is_disabled":false,"rental_uris":{"android":"levelo://app?vid=1e57814a-ce2d-4abb-8d45-5417ca0b7741","ios":"levelo://app?vid=1e57814a-ce2d-4abb-8d45-5417ca0b7741"},"vehicle_type_id":"4","last_reported":1737036488,"current_range_meters":38000,"station_id":"ce4bhk92rcd13ifvqgb0","pricing_plan_id":"cebpf4jnsgd1na2vs0mg"},{"bike_id":"dc1212d5-855a-48a4-9b5e-347fa6650a07","system_id":"levelo_inurba_marseille","lat":43.29571,"lon":5.37502,"is_reserved":false,"is_disabled":false,"rental_uris":{"android":"levelo://app?vid=dc1212d5-855a-48a4-9b5e-347fa6650a07","ios":"levelo://app?vid=dc1212d5-855a-48a4-9b5e-347fa6650a07"},"vehicle_type_id":"4","last_reported":1737036488,"current_range_meters":38800,"station_id":"ce4bgh92rcd13ifvqb50","pricing_plan_id":"cebpf4jnsgd1na2vs0mg"},{"bike_id":"e5b9252e-eebf-4c90-b028-b53cc4934330","system_id":"levelo_inurba_marseille","lat":43.30353,"lon":5.4189,"is_reserved":false,"is_disabled":true,"rental_uris":{"android":"levelo://app?vid=e5b9252e-eebf-4c90-b028-b53cc4934330","ios":"levelo://app?vid=e5b9252e-eebf-4c90-b028-b53cc4934330"},"vehicle_type_id":"4","last_reported":1737036488,"current_range_meters":13600,"station_id":"","pricing_plan_id":"cebpf4jnsgd1na2vs0mg"},{"bike_id":"f4b92acd-55ba-4591-888d-81dbaf84f6d7","system_id":"levelo_inurba_marseille","lat":43.28851,"lon":5.35856,"is_reserved":false,"is_disabled":false,"rental_uris":{"android":"levelo://app?vid=f4b92acd-55ba-4591-888d-81dbaf84f6d7","ios":"levelo://app?vid=f4b92acd-55ba-4591-888d-81dbaf84f6d7"},"vehicle_type_id":"4","last_reported":1737036488,"current_range_meters":16400,"station_id":"ce4bhb12rcd13ifvqem0","pricing_plan_id":"cebpf4jnsgd1na2vs0mg"},{"bike_id":"5685b1ca-51df-4b0c-81b2-5fc50125a990","system_id":"levelo_inurba_marseille","lat":43.29584,"lon":5.37509,"is_reserved":false,"is_disabled":false,"rental_uris":{"android":"levelo://app?vid=5685b1ca-51df-4b0c-81b2-5fc50125a990","ios":"levelo://app?vid=5685b1ca-51df-4b0c-81b2-5fc50125a990"},"vehicle_type_id":"4","last_reported":1737036488,"current_range_meters":29600,"station_id":"ce4bgh92rcd13ifvqb50","pricing_plan_id":"cebpf4jnsgd1na2vs0mg"},{"bike_id":"93af35ad-738e-40e4-afcb-6d3589d7e732","system_id":"levelo_inurba_marseille","lat":43.23147,"lon":5.43676,"is_reserved":false,"is_disabled":false,"rental_uris":{"android":"levelo://app?vid=93af35ad-738e-40e4-afcb-6d3589d7e732","ios":"levelo://app?vid=93af35ad-738e-40e4-afcb-6d3589d7e732"},"vehicle_type_id":"4","last_reported":1737036488,"current_range_meters":22800,"station_id":"ce4bhmp2rcd13ifvqgog","pricing_plan_id":"cebpf4jnsgd1na2vs0mg"},{"bike_id":"7933f2f0-2e0f-422d-873c-ec932075e5a3","system_id":"levelo_inurba_marseille","lat":43.26195,"lon":5.37457,"is_reserved":false,"is_disabled":false,"rental_uris":{"android":"levelo://app?vid=7933f2f0-2e0f-422d-873c-ec932075e5a3","ios":"levelo://app?vid=7933f2f0-2e0f-422d-873c-ec932075e5a3"},"vehicle_type_id":"4","last_reported":1737036488,"current_range_meters":6400,"station_id":"ce4bhgp2rcd13ifvqfc0","pricing_plan_id":"cebpf4jnsgd1na2vs0mg"},{"bike_id":"d1b53a96-266e-4b04-a3ed-285008bed597","system_id":"levelo_inurba_marseille","lat":43.25934,"lon":5.40903,"is_reserved":false,"is_disabled":false,"rental_uris":{"android":"levelo://app?vid=d1b53a96-266e-4b04-a3ed-285008bed597","ios":"levelo://app?vid=d1b53a96-266e-4b04-a3ed-285008bed597"},"vehicle_type_id":"4","last_reported":1737036488,"current_range_meters":30800,"station_id":"ce4bhm92rcd13ifvqglg","pricing_plan_id":"cebpf4jnsgd1na2vs0mg"},{"bike_id":"8d117f89-0f3f-4ad7-9fcb-438cc26157cd","system_id":"levelo_inurba_marseille","lat":43.29371,"lon":5.37834,"is_reserved":false,"is_disabled":false,"rental_uris":{"android":"levelo://app?vid=8d117f89-0f3f-4ad7-9fcb-438cc26157cd","ios":"levelo://app?vid=8d117f89-0f3f-4ad7-9fcb-438cc26157cd"},"vehicle_type_id":"4","last_reported":1737036488,"current_range_meters":28400,"station_id":"ce4bgjh2rcd13ifvqbf0","pricing_plan_id":"cebpf4jnsgd1na2vs0mg"},{"bike_id":"96652f27-458e-47f3-98a6-d54934de9535","system_id":"levelo_inurba_marseille","lat":43.25496,"lon":5.3765,"is_reserved":false,"is_disabled":false,"rental_uris":{"android":"levelo://app?vid=96652f27-458e-47f3-98a6-d54934de9535","ios":"levelo://app?vid=96652f27-458e-47f3-98a6-d54934de9535"},"vehicle_type_id":"4","last_reported":1737036488,"current_range_meters":24800,"station_id":"ce4bhh12rcd13ifvqff0","pricing_plan_id":"cebpf4jnsgd1na2vs0mg"},{"bike_id":"cd61c03b-d4f0-48f7-b777-75cd85668d7f","system_id":"levelo_inurba_marseille","lat":43.3139,"lon":5.36716,"is_reserved":false,"is_disabled":false,"rental_uris":{"android":"levelo://app?vid=cd61c03b-d4f0-48f7-b777-75cd85668d7f","ios":"levelo://app?vid=cd61c03b-d4f0-48f7-b777-75cd85668d7f"},"vehicle_type_id":"4","last_reported":1737036488,"current_range_meters":14400,"station_id":"ce4bgr92rcd13ifvqc6g","pricing_plan_id":"cebpf4jnsgd1na2vs0mg"},{"bike_id":"af21ee5b-f7eb-47bd-9d98-3e2b3e6fd530","system_id":"levelo_inurba_marseille","lat":43.31996,"lon":5.38142,"is_reserved":false,"is_disabled":false,"rental_uris":{"android":"levelo://app?vid=af21ee5b-f7eb-47bd-9d98-3e2b3e6fd530","ios":"levelo://app?vid=af21ee5b-f7eb-47bd-9d98-3e2b3e6fd530"},"vehicle_type_id":"4","last_reported":1737036488,"current_range_meters":38800,"station_id":"ce4bhr12rcd13ifvqhpg","pricing_plan_id":"cebpf4jnsgd1na2vs0mg"},{"bike_id":"88601246-06df-4be5-a673-7eb26d5a62f0","system_id":"levelo_inurba_marseille","lat":43.30149,"lon":5.37418,"is_reserved":false,"is_disabled":false,"rental_uris":{"android":"levelo://app?vid=88601246-06df-4be5-a673-7eb26d5a62f0","ios":"levelo://app?vid=88601246-06df-4be5-a673-7eb26d5a62f0"},"vehicle_type_id":"4","last_reported":1737036488,"current_range_meters":25200,"station_id":"ce4bgs92rcd13ifvqcc0","pricing_plan_id":"cebpf4jnsgd1na2vs0mg"},{"bike_id":"0e6c0791-8ae8-4e90-b4be-b86c0d822082","system_id":"levelo_inurba_marseille","lat":43.30936,"lon":5.40144,"is_reserved":false,"is_disabled":false,"rental_uris":{"android":"levelo://app?vid=0e6c0791-8ae8-4e90-b4be-b86c0d822082","ios":"levelo://app?vid=0e6c0791-8ae8-4e90-b4be-b86c0d822082"},"vehicle_type_id":"4","last_reported":1737036488,"current_range_meters":38800,"station_id":"ce4bgvp2rcd13ifvqct0","pricing_plan_id":"cebpf4jnsgd1na2vs0mg"},{"bike_id":"1c5dee46-9296-4ff0-86e0-56f1d3de6cd3","system_id":"levelo_inurba_marseille","lat":43.29844,"lon":5.36279,"is_reserved":false,"is_disabled":false,"rental_uris":{"android":"levelo://app?vid=1c5dee46-9296-4ff0-86e0-56f1d3de6cd3","ios":"levelo://app?vid=1c5dee46-9296-4ff0-86e0-56f1d3de6cd3"},"vehicle_type_id":"4","last_reported":1737036488,"current_range_meters":12800,"station_id":"ce4bgpp2rcd13ifvqc3g","pricing_plan_id":"cebpf4jnsgd1na2vs0mg"},{"bike_id":"a09a941d-cd7f-4a74-ae80-30df2fc74a04","system_id":"levelo_inurba_marseille","lat":43.271758,"lon":5.409872,"is_reserved":false,"is_disabled":false,"rental_uris":{"android":"levelo://app?vid=a09a941d-cd7f-4a74-ae80-30df2fc74a04","ios":"levelo://app?vid=a09a941d-cd7f-4a74-ae80-30df2fc74a04"},"vehicle_type_id":"4","last_reported":1737036488,"current_range_meters":38800,"station_id":"ce4bhl12rcd13ifvqgf0","pricing_plan_id":"cebpf4jnsgd1na2vs0mg"},{"bike_id":"4121f9d5-b138-4a51-9809-f2a903161b1a","system_id":"levelo_inurba_marseille","lat":43.29512,"lon":5.37507,"is_reserved":false,"is_disabled":false,"rental_uris":{"android":"levelo://app?vid=4121f9d5-b138-4a51-9809-f2a903161b1a","ios":"levelo://app?vid=4121f9d5-b138-4a51-9809-f2a903161b1a"},"vehicle_type_id":"4","last_reported":1737036488,"current_range_meters":38400,"station_id":"ce4bgkp2rcd13ifvqbmg","pricing_plan_id":"cebpf4jnsgd1na2vs0mg"},{"bike_id":"d06ace98-5af5-41f7-b0ec-08ef323f2c58","system_id":"levelo_inurba_marseille","lat":43.29216,"lon":5.36069,"is_reserved":false,"is_disabled":true,"rental_uris":{"android":"levelo://app?vid=d06ace98-5af5-41f7-b0ec-08ef323f2c58","ios":"levelo://app?vid=d06ace98-5af5-41f7-b0ec-08ef323f2c58"},"vehicle_type_id":"4","last_reported":1737036488,"current_range_meters":0,"station_id":"ce4bhbh2rcd13ifvqeqg","pricing_plan_id":"cebpf4jnsgd1na2vs0mg"},{"bike_id":"0966427c-3a9b-4c7e-b0f1-f9e8afcfc54b","system_id":"levelo_inurba_marseille","lat":43.30212,"lon":5.39464,"is_reserved":false,"is_disabled":false,"rental_uris":{"android":"levelo://app?vid=0966427c-3a9b-4c7e-b0f1-f9e8afcfc54b","ios":"levelo://app?vid=0966427c-3a9b-4c7e-b0f1-f9e8afcfc54b"},"vehicle_type_id":"4","last_reported":1737036488,"current_range_meters":27600,"station_id":"ce4bh0p2rcd13ifvqd70","pricing_plan_id":"cebpf4jnsgd1na2vs0mg"},{"bike_id":"80d2d07a-6282-46c9-8cc5-61197961e6f8","system_id":"levelo_inurba_marseille","lat":43.30296,"lon":5.392,"is_reserved":false,"is_disabled":true,"rental_uris":{"android":"levelo://app?vid=80d2d07a-6282-46c9-8cc5-61197961e6f8","ios":"levelo://app?vid=80d2d07a-6282-46c9-8cc5-61197961e6f8"},"vehicle_type_id":"4","last_reported":1737036488,"current_range_meters":800,"station_id":"ce4bgkh2rcd13ifvqbk0","pricing_plan_id":"cebpf4jnsgd1na2vs0mg"},{"bike_id":"923ece36-81f9-46b0-a4c0-11bfb8b01d40","system_id":"levelo_inurba_marseille","lat":43.31711,"lon":5.43707,"is_reserved":false,"is_disabled":false,"rental_uris":{"android":"levelo://app?vid=923ece36-81f9-46b0-a4c0-11bfb8b01d40","ios":"levelo://app?vid=923ece36-81f9-46b0-a4c0-11bfb8b01d40"},"vehicle_type_id":"4","last_reported":1737036488,"current_range_meters":12000,"station_id":"ce4bhp92rcd13ifvqhcg","pricing_plan_id":"cebpf4jnsgd1na2vs0mg"},{"bike_id":"e383498e-5e62-42f0-96da-ca16a1a397ba","system_id":"levelo_inurba_marseille","lat":43.28943,"lon":5.36646,"is_reserved":false,"is_disabled":false,"rental_uris":{"android":"levelo://app?vid=e383498e-5e62-42f0-96da-ca16a1a397ba","ios":"levelo://app?vid=e383498e-5e62-42f0-96da-ca16a1a397ba"},"vehicle_type_id":"4","last_reported":1737036488,"current_range_meters":19200,"station_id":"ce4bhap2rcd13ifvqek0","pricing_plan_id":"cebpf4jnsgd1na2vs0mg"},{"bike_id":"3fd919b9-ca22-40c0-a97e-f712ec7ad174","system_id":"levelo_inurba_marseille","lat":43.28714,"lon":5.36098,"is_reserved":false,"is_disabled":false,"rental_uris":{"android":"levelo://app?vid=3fd919b9-ca22-40c0-a97e-f712ec7ad174","ios":"levelo://app?vid=3fd919b9-ca22-40c0-a97e-f712ec7ad174"},"vehicle_type_id":"4","last_reported":1737036488,"current_range_meters":37600,"station_id":"cki0cbj6b192h4jlfktg","pricing_plan_id":"cebpf4jnsgd1na2vs0mg"},{"bike_id":"1a17a578-cbbc-4dd9-8ec3-8d2b87bc098c","system_id":"levelo_inurba_marseille","lat":43.29038,"lon":5.39974,"is_reserved":false,"is_disabled":false,"rental_uris":{"android":"levelo://app?vid=1a17a578-cbbc-4dd9-8ec3-8d2b87bc098c","ios":"levelo://app?vid=1a17a578-cbbc-4dd9-8ec3-8d2b87bc098c"},"vehicle_type_id":"4","last_reported":1737036488,"current_range_meters":38800,"station_id":"ce4bh392rcd13ifvqdm0","pricing_plan_id":"cebpf4jnsgd1na2vs0mg"},{"bike_id":"fb02b012-cf2b-4292-b08f-702d3861108d","system_id":"levelo_inurba_marseille","lat":43.29979,"lon":5.37181,"is_reserved":false,"is_disabled":false,"rental_uris":{"android":"levelo://app?vid=fb02b012-cf2b-4292-b08f-702d3861108d","ios":"levelo://app?vid=fb02b012-cf2b-4292-b08f-702d3861108d"},"vehicle_type_id":"4","last_reported":1737036488,"current_range_meters":38800,"station_id":"ce4bgr92rcd13ifvqc7g","pricing_plan_id":"cebpf4jnsgd1na2vs0mg"},{"bike_id":"7a26b63c-652f-4d2d-8353-1a9dfb4e945a","system_id":"levelo_inurba_marseille","lat":43.33709,"lon":5.39214,"is_reserved":false,"is_disabled":false,"rental_uris":{"android":"levelo://app?vid=7a26b63c-652f-4d2d-8353-1a9dfb4e945a","ios":"levelo://app?vid=7a26b63c-652f-4d2d-8353-1a9dfb4e945a"},"vehicle_type_id":"4","last_reported":1737036488,"current_range_meters":38800,"station_id":"ce4bhr92rcd13ifvqhsg","pricing_plan_id":"cebpf4jnsgd1na2vs0mg"},{"bike_id":"6816f2cb-ba75-43f5-8f74-1ecf534e9e80","system_id":"levelo_inurba_marseille","lat":43.30567,"lon":5.36539,"is_reserved":false,"is_disabled":false,"rental_uris":{"android":"levelo://app?vid=6816f2cb-ba75-43f5-8f74-1ecf534e9e80","ios":"levelo://app?vid=6816f2cb-ba75-43f5-8f74-1ecf534e9e80"},"vehicle_type_id":"4","last_reported":1737036488,"current_range_meters":33600,"station_id":"ce4bgs12rcd13ifvqcag","pricing_plan_id":"cebpf4jnsgd1na2vs0mg"},{"bike_id":"8ab529c5-0c54-40b5-96ac-0bbb4c91817f","system_id":"levelo_inurba_marseille","lat":43.2679,"lon":5.39412,"is_reserved":false,"is_disabled":false,"rental_uris":{"android":"levelo://app?vid=8ab529c5-0c54-40b5-96ac-0bbb4c91817f","ios":"levelo://app?vid=8ab529c5-0c54-40b5-96ac-0bbb4c91817f"},"vehicle_type_id":"4","last_reported":1737036488,"current_range_meters":12000,"station_id":"ce4bhh12rcd13ifvqfg0","pricing_plan_id":"cebpf4jnsgd1na2vs0mg"},{"bike_id":"56b8e9bc-f750-4815-bc98-9098414d16db","system_id":"levelo_inurba_marseille","lat":43.23197,"lon":5.35561,"is_reserved":false,"is_disabled":true,"rental_uris":{"android":"levelo://app?vid=56b8e9bc-f750-4815-bc98-9098414d16db","ios":"levelo://app?vid=56b8e9bc-f750-4815-bc98-9098414d16db"},"vehicle_type_id":"4","last_reported":1737036488,"current_range_meters":0,"station_id":"ce4bhu92rcd13ifvqi70","pricing_plan_id":"cebpf4jnsgd1na2vs0mg"},{"bike_id":"143b929e-8cd1-4b75-b749-a27c88917e39","system_id":"levelo_inurba_marseille","lat":43.26027,"lon":5.37551,"is_reserved":false,"is_disabled":false,"rental_uris":{"android":"levelo://app?vid=143b929e-8cd1-4b75-b749-a27c88917e39","ios":"levelo://app?vid=143b929e-8cd1-4b75-b749-a27c88917e39"},"vehicle_type_id":"4","last_reported":1737036488,"current_range_meters":20000,"station_id":"ce4bhgh2rcd13ifvqfa0","pricing_plan_id":"cebpf4jnsgd1na2vs0mg"},{"bike_id":"5b5b9902-6477-4816-81ea-170089f5c9a8","system_id":"levelo_inurba_marseille","lat":43.29259,"lon":5.40941,"is_reserved":false,"is_disabled":false,"rental_uris":{"android":"levelo://app?vid=5b5b9902-6477-4816-81ea-170089f5c9a8","ios":"levelo://app?vid=5b5b9902-6477-4816-81ea-170089f5c9a8"},"vehicle_type_id":"4","last_reported":1737036488,"current_range_meters":39200,"station_id":"ce4bh192rcd13ifvqdc0","pricing_plan_id":"cebpf4jnsgd1na2vs0mg"},{"bike_id":"0670b4f0-1f45-4258-9a91-28f01f5ea4c3","system_id":"levelo_inurba_marseille","lat":43.28173,"lon":5.427,"is_reserved":false,"is_disabled":false,"rental_uris":{"android":"levelo://app?vid=0670b4f0-1f45-4258-9a91-28f01f5ea4c3","ios":"levelo://app?vid=0670b4f0-1f45-4258-9a91-28f01f5ea4c3"},"vehicle_type_id":"4","last_reported":1737036488,"current_range_meters":12400,"station_id":"","pricing_plan_id":"cebpf4jnsgd1na2vs0mg"},{"bike_id":"1c0d8f9b-899d-4d74-b0db-ecdfd7073347","system_id":"levelo_inurba_marseille","lat":43.251191,"lon":5.403217,"is_reserved":false,"is_disabled":false,"rental_uris":{"android":"levelo://app?vid=1c0d8f9b-899d-4d74-b0db-ecdfd7073347","ios":"levelo://app?vid=1c0d8f9b-899d-4d74-b0db-ecdfd7073347"},"vehicle_type_id":"4","last_reported":1737036488,"current_range_meters":38800,"station_id":"ce4bhlh2rcd13ifvqgig","pricing_plan_id":"cebpf4jnsgd1na2vs0mg"},{"bike_id":"c9ca64e8-08fe-42cb-9fa6-fd8db87605c0","system_id":"levelo_inurba_marseille","lat":43.32485,"lon":5.36569,"is_reserved":false,"is_disabled":false,"rental_uris":{"android":"levelo://app?vid=c9ca64e8-08fe-42cb-9fa6-fd8db87605c0","ios":"levelo://app?vid=c9ca64e8-08fe-42cb-9fa6-fd8db87605c0"},"vehicle_type_id":"4","last_reported":1737036488,"current_range_meters":38800,"station_id":"ce4bhs12rcd13ifvqhvg","pricing_plan_id":"cebpf4jnsgd1na2vs0mg"},{"bike_id":"f5960fc5-5d51-4d7b-ae72-85e7f0a0d133","system_id":"levelo_inurba_marseille","lat":43.29361,"lon":5.37831,"is_reserved":false,"is_disabled":false,"rental_uris":{"android":"levelo://app?vid=f5960fc5-5d51-4d7b-ae72-85e7f0a0d133","ios":"levelo://app?vid=f5960fc5-5d51-4d7b-ae72-85e7f0a0d133"},"vehicle_type_id":"4","last_reported":1737036488,"current_range_meters":28400,"station_id":"ce4bgjh2rcd13ifvqbf0","pricing_plan_id":"cebpf4jnsgd1na2vs0mg"},{"bike_id":"fd07f8e0-3a97-494f-8bae-4a1f3cf368a8","system_id":"levelo_inurba_marseille","lat":43.30884,"lon":5.37151,"is_reserved":false,"is_disabled":false,"rental_uris":{"android":"levelo://app?vid=fd07f8e0-3a97-494f-8bae-4a1f3cf368a8","ios":"levelo://app?vid=fd07f8e0-3a97-494f-8bae-4a1f3cf368a8"},"vehicle_type_id":"4","last_reported":1737036488,"current_range_meters":25200,"station_id":"ce4bguh2rcd13ifvqckg","pricing_plan_id":"cebpf4jnsgd1na2vs0mg"},{"bike_id":"066f9568-d185-412c-8bb2-0f2ff19f6795","system_id":"levelo_inurba_marseille","lat":43.28928,"lon":5.38392,"is_reserved":false,"is_disabled":false,"rental_uris":{"android":"levelo://app?vid=066f9568-d185-412c-8bb2-0f2ff19f6795","ios":"levelo://app?vid=066f9568-d185-412c-8bb2-0f2ff19f6795"},"vehicle_type_id":"4","last_reported":1737036488,"current_range_meters":34000,"station_id":"ce4bh612rcd13ifvqe6g","pricing_plan_id":"cebpf4jnsgd1na2vs0mg"},{"bike_id":"995c884a-0499-46b1-9a44-bb0a781664c5","system_id":"levelo_inurba_marseille","lat":43.25931,"lon":5.40896,"is_reserved":false,"is_disabled":false,"rental_uris":{"android":"levelo://app?vid=995c884a-0499-46b1-9a44-bb0a781664c5","ios":"levelo://app?vid=995c884a-0499-46b1-9a44-bb0a781664c5"},"vehicle_type_id":"4","last_reported":1737036488,"current_range_meters":38800,"station_id":"ce4bhm92rcd13ifvqglg","pricing_plan_id":"cebpf4jnsgd1na2vs0mg"},{"bike_id":"22465212-93af-4e0b-b803-6ee82bba56d5","system_id":"levelo_inurba_marseille","lat":43.33766,"lon":5.37489,"is_reserved":false,"is_disabled":false,"rental_uris":{"android":"levelo://app?vid=22465212-93af-4e0b-b803-6ee82bba56d5","ios":"levelo://app?vid=22465212-93af-4e0b-b803-6ee82bba56d5"},"vehicle_type_id":"4","last_reported":1737036488,"current_range_meters":32800,"station_id":"","pricing_plan_id":"cebpf4jnsgd1na2vs0mg"},{"bike_id":"170b0ad4-2c61-4dd7-bbc3-99b75ede20a1","system_id":"levelo_inurba_marseille","lat":43.30144,"lon":5.38758,"is_reserved":false,"is_disabled":false,"rental_uris":{"android":"levelo://app?vid=170b0ad4-2c61-4dd7-bbc3-99b75ede20a1","ios":"levelo://app?vid=170b0ad4-2c61-4dd7-bbc3-99b75ede20a1"},"vehicle_type_id":"4","last_reported":1737036488,"current_range_meters":22800,"station_id":"ce4bhoh2rcd13ifvqh6g","pricing_plan_id":"cebpf4jnsgd1na2vs0mg"},{"bike_id":"fc705563-96e6-45d0-adb3-8588f3962dd4","system_id":"levelo_inurba_marseille","lat":43.32361,"lon":5.38886,"is_reserved":false,"is_disabled":false,"rental_uris":{"android":"levelo://app?vid=fc705563-96e6-45d0-adb3-8588f3962dd4","ios":"levelo://app?vid=fc705563-96e6-45d0-adb3-8588f3962dd4"},"vehicle_type_id":"4","last_reported":1737036488,"current_range_meters":33200,"station_id":"ce4bhqp2rcd13ifvqhog","pricing_plan_id":"cebpf4jnsgd1na2vs0mg"},{"bike_id":"8ea1e7e9-0f2a-4dd7-89ec-43af818b1ec4","system_id":"levelo_inurba_marseille","lat":43.319003,"lon":5.407353,"is_reserved":false,"is_disabled":false,"rental_uris":{"android":"levelo://app?vid=8ea1e7e9-0f2a-4dd7-89ec-43af818b1ec4","ios":"levelo://app?vid=8ea1e7e9-0f2a-4dd7-89ec-43af818b1ec4"},"vehicle_type_id":"4","last_reported":1737036488,"current_range_meters":10000,"station_id":"ce4bhq12rcd13ifvqhig","pricing_plan_id":"cebpf4jnsgd1na2vs0mg"},{"bike_id":"4dd49c92-c18a-4487-88a9-54eec5323119","system_id":"levelo_inurba_marseille","lat":43.28728,"lon":5.36084,"is_reserved":false,"is_disabled":false,"rental_uris":{"android":"levelo://app?vid=4dd49c92-c18a-4487-88a9-54eec5323119","ios":"levelo://app?vid=4dd49c92-c18a-4487-88a9-54eec5323119"},"vehicle_type_id":"4","last_reported":1737036488,"current_range_meters":37600,"station_id":"cki0cbj6b192h4jlfktg","pricing_plan_id":"cebpf4jnsgd1na2vs0mg"},{"bike_id":"0c74b65d-6a6b-4f50-a23b-6454b7a923c5","system_id":"levelo_inurba_marseille","lat":43.30559,"lon":5.36729,"is_reserved":false,"is_disabled":false,"rental_uris":{"android":"levelo://app?vid=0c74b65d-6a6b-4f50-a23b-6454b7a923c5","ios":"levelo://app?vid=0c74b65d-6a6b-4f50-a23b-6454b7a923c5"},"vehicle_type_id":"4","last_reported":1737036488,"current_range_meters":27600,"station_id":"ce4bgrp2rcd13ifvqc9g","pricing_plan_id":"cebpf4jnsgd1na2vs0mg"},{"bike_id":"fabacaee-6fd3-4492-83ac-598ad29092e9","system_id":"levelo_inurba_marseille","lat":43.28928,"lon":5.38392,"is_reserved":false,"is_disabled":false,"rental_uris":{"android":"levelo://app?vid=fabacaee-6fd3-4492-83ac-598ad29092e9","ios":"levelo://app?vid=fabacaee-6fd3-4492-83ac-598ad29092e9"},"vehicle_type_id":"4","last_reported":1737036488,"current_range_meters":32800,"station_id":"ce4bh612rcd13ifvqe6g","pricing_plan_id":"cebpf4jnsgd1na2vs0mg"},{"bike_id":"9c1c6b03-9b34-4ccb-9595-d5c48c8a62f6","system_id":"levelo_inurba_marseille","lat":43.29848,"lon":5.36287,"is_reserved":false,"is_disabled":false,"rental_uris":{"android":"levelo://app?vid=9c1c6b03-9b34-4ccb-9595-d5c48c8a62f6","ios":"levelo://app?vid=9c1c6b03-9b34-4ccb-9595-d5c48c8a62f6"},"vehicle_type_id":"4","last_reported":1737036488,"current_range_meters":26800,"station_id":"ce4bgpp2rcd13ifvqc3g","pricing_plan_id":"cebpf4jnsgd1na2vs0mg"},{"bike_id":"917148ce-4c9d-450a-97ee-d2deee4d50c3","system_id":"levelo_inurba_marseille","lat":43.324723,"lon":5.365745,"is_reserved":false,"is_disabled":false,"rental_uris":{"android":"levelo://app?vid=917148ce-4c9d-450a-97ee-d2deee4d50c3","ios":"levelo://app?vid=917148ce-4c9d-450a-97ee-d2deee4d50c3"},"vehicle_type_id":"4","last_reported":1737036488,"current_range_meters":10800,"station_id":"ce4bhs12rcd13ifvqhvg","pricing_plan_id":"cebpf4jnsgd1na2vs0mg"},{"bike_id":"27dfa0f3-35fc-4a05-be71-3a7191c8c793","system_id":"levelo_inurba_marseille","lat":43.29803,"lon":5.38087,"is_reserved":false,"is_disabled":false,"rental_uris":{"android":"levelo://app?vid=27dfa0f3-35fc-4a05-be71-3a7191c8c793","ios":"levelo://app?vid=27dfa0f3-35fc-4a05-be71-3a7191c8c793"},"vehicle_type_id":"4","last_reported":1737036488,"current_range_meters":34000,"station_id":"ce4bgip2rcd13ifvqbb0","pricing_plan_id":"cebpf4jnsgd1na2vs0mg"},{"bike_id":"5f73b1c5-bb2a-4fac-9eb7-14c830fab3ce","system_id":"levelo_inurba_marseille","lat":43.298414,"lon":5.362679,"is_reserved":false,"is_disabled":false,"rental_uris":{"android":"levelo://app?vid=5f73b1c5-bb2a-4fac-9eb7-14c830fab3ce","ios":"levelo://app?vid=5f73b1c5-bb2a-4fac-9eb7-14c830fab3ce"},"vehicle_type_id":"4","last_reported":1737036488,"current_range_meters":27600,"station_id":"ce4bgpp2rcd13ifvqc3g","pricing_plan_id":"cebpf4jnsgd1na2vs0mg"},{"bike_id":"682d97cf-1eff-43a1-8fde-21607297becd","system_id":"levelo_inurba_marseille","lat":43.26788,"lon":5.39412,"is_reserved":false,"is_disabled":false,"rental_uris":{"android":"levelo://app?vid=682d97cf-1eff-43a1-8fde-21607297becd","ios":"levelo://app?vid=682d97cf-1eff-43a1-8fde-21607297becd"},"vehicle_type_id":"4","last_reported":1737036488,"current_range_meters":36800,"station_id":"ce4bhh12rcd13ifvqfg0","pricing_plan_id":"cebpf4jnsgd1na2vs0mg"},{"bike_id":"f172504a-fa6d-4816-bca2-5e7fbca619f4","system_id":"levelo_inurba_marseille","lat":43.30215,"lon":5.39474,"is_reserved":false,"is_disabled":false,"rental_uris":{"android":"levelo://app?vid=f172504a-fa6d-4816-bca2-5e7fbca619f4","ios":"levelo://app?vid=f172504a-fa6d-4816-bca2-5e7fbca619f4"},"vehicle_type_id":"4","last_reported":1737036488,"current_range_meters":25600,"station_id":"ce4bh0p2rcd13ifvqd70","pricing_plan_id":"cebpf4jnsgd1na2vs0mg"},{"bike_id":"6a7366d7-ed8c-4629-bf0c-70c2abcda36d","system_id":"levelo_inurba_marseille","lat":43.23199,"lon":5.35563,"is_reserved":false,"is_disabled":false,"rental_uris":{"android":"levelo://app?vid=6a7366d7-ed8c-4629-bf0c-70c2abcda36d","ios":"levelo://app?vid=6a7366d7-ed8c-4629-bf0c-70c2abcda36d"},"vehicle_type_id":"4","last_reported":1737036488,"current_range_meters":11200,"station_id":"ce4bhu92rcd13ifvqi70","pricing_plan_id":"cebpf4jnsgd1na2vs0mg"},{"bike_id":"1e53d647-df95-46d5-9a1e-85641c128b40","system_id":"levelo_inurba_marseille","lat":43.24802,"lon":5.37456,"is_reserved":false,"is_disabled":true,"rental_uris":{"android":"levelo://app?vid=1e53d647-df95-46d5-9a1e-85641c128b40","ios":"levelo://app?vid=1e53d647-df95-46d5-9a1e-85641c128b40"},"vehicle_type_id":"4","last_reported":1737036488,"current_range_meters":0,"station_id":"ce4bhgh2rcd13ifvqfb0","pricing_plan_id":"cebpf4jnsgd1na2vs0mg"},{"bike_id":"2d7f3353-743b-41e1-85f2-e32181d4ae48","system_id":"levelo_inurba_marseille","lat":43.32037,"lon":5.38145,"is_reserved":false,"is_disabled":false,"rental_uris":{"android":"levelo://app?vid=2d7f3353-743b-41e1-85f2-e32181d4ae48","ios":"levelo://app?vid=2d7f3353-743b-41e1-85f2-e32181d4ae48"},"vehicle_type_id":"4","last_reported":1737036488,"current_range_meters":32800,"station_id":"ce4bhr12rcd13ifvqhpg","pricing_plan_id":"cebpf4jnsgd1na2vs0mg"},{"bike_id":"d6248787-bad6-4726-aab8-dd8572187026","system_id":"levelo_inurba_marseille","lat":43.302825,"lon":5.377051,"is_reserved":false,"is_disabled":false,"rental_uris":{"android":"levelo://app?vid=d6248787-bad6-4726-aab8-dd8572187026","ios":"levelo://app?vid=d6248787-bad6-4726-aab8-dd8572187026"},"vehicle_type_id":"4","last_reported":1737036488,"current_range_meters":33600,"station_id":"ce4bguh2rcd13ifvqcj0","pricing_plan_id":"cebpf4jnsgd1na2vs0mg"},{"bike_id":"28b1e29a-2b5d-4248-b803-1d9a35599bd9","system_id":"levelo_inurba_marseille","lat":43.34117,"lon":5.40899,"is_reserved":false,"is_disabled":false,"rental_uris":{"android":"levelo://app?vid=28b1e29a-2b5d-4248-b803-1d9a35599bd9","ios":"levelo://app?vid=28b1e29a-2b5d-4248-b803-1d9a35599bd9"},"vehicle_type_id":"4","last_reported":1737036488,"current_range_meters":38000,"station_id":"ce4bhqh2rcd13ifvqhlg","pricing_plan_id":"cebpf4jnsgd1na2vs0mg"},{"bike_id":"855a2268-02f8-4307-894d-f57dfd10b4c1","system_id":"levelo_inurba_marseille","lat":43.33026,"lon":5.39031,"is_reserved":false,"is_disabled":false,"rental_uris":{"android":"levelo://app?vid=855a2268-02f8-4307-894d-f57dfd10b4c1","ios":"levelo://app?vid=855a2268-02f8-4307-894d-f57dfd10b4c1"},"vehicle_type_id":"4","last_reported":1737036488,"current_range_meters":38800,"station_id":"ce4bhr92rcd13ifvqhrg","pricing_plan_id":"cebpf4jnsgd1na2vs0mg"},{"bike_id":"b583689d-4b3b-4fec-a4c3-0358dd755494","system_id":"levelo_inurba_marseille","lat":43.26691,"lon":5.38237,"is_reserved":false,"is_disabled":false,"rental_uris":{"android":"levelo://app?vid=b583689d-4b3b-4fec-a4c3-0358dd755494","ios":"levelo://app?vid=b583689d-4b3b-4fec-a4c3-0358dd755494"},"vehicle_type_id":"4","last_reported":1737036488,"current_range_meters":36800,"station_id":"ce4bhg92rcd13ifvqf90","pricing_plan_id":"cebpf4jnsgd1na2vs0mg"},{"bike_id":"268db461-b443-442b-82d8-10090eee017e","system_id":"levelo_inurba_marseille","lat":43.28421,"lon":5.34976,"is_reserved":false,"is_disabled":false,"rental_uris":{"android":"levelo://app?vid=268db461-b443-442b-82d8-10090eee017e","ios":"levelo://app?vid=268db461-b443-442b-82d8-10090eee017e"},"vehicle_type_id":"4","last_reported":1737036488,"current_range_meters":34800,"station_id":"ce4bhbh2rcd13ifvqepg","pricing_plan_id":"cebpf4jnsgd1na2vs0mg"},{"bike_id":"438f588d-887b-4833-9d0c-b148dae69cd6","system_id":"levelo_inurba_marseille","lat":43.29801,"lon":5.38095,"is_reserved":false,"is_disabled":false,"rental_uris":{"android":"levelo://app?vid=438f588d-887b-4833-9d0c-b148dae69cd6","ios":"levelo://app?vid=438f588d-887b-4833-9d0c-b148dae69cd6"},"vehicle_type_id":"4","last_reported":1737036488,"current_range_meters":3600,"station_id":"ce4bgip2rcd13ifvqbb0","pricing_plan_id":"cebpf4jnsgd1na2vs0mg"},{"bike_id":"03c89c13-0ec7-4a1c-a716-72ad83f27566","system_id":"levelo_inurba_marseille","lat":43.28283,"lon":5.3508,"is_reserved":false,"is_disabled":false,"rental_uris":{"android":"levelo://app?vid=03c89c13-0ec7-4a1c-a716-72ad83f27566","ios":"levelo://app?vid=03c89c13-0ec7-4a1c-a716-72ad83f27566"},"vehicle_type_id":"4","last_reported":1737036488,"current_range_meters":27200,"station_id":"ce4bhbp2rcd13ifvqerg","pricing_plan_id":"cebpf4jnsgd1na2vs0mg"},{"bike_id":"5d42a98e-bef8-43af-946e-751274f82d4c","system_id":"levelo_inurba_marseille","lat":43.23671,"lon":5.43599,"is_reserved":false,"is_disabled":true,"rental_uris":{"android":"levelo://app?vid=5d42a98e-bef8-43af-946e-751274f82d4c","ios":"levelo://app?vid=5d42a98e-bef8-43af-946e-751274f82d4c"},"vehicle_type_id":"4","last_reported":1737036488,"current_range_meters":31200,"station_id":"","pricing_plan_id":"cebpf4jnsgd1na2vs0mg"},{"bike_id":"5a3ee12f-ef2f-4d1e-97cb-e058d9e3cf6d","system_id":"levelo_inurba_marseille","lat":43.29968,"lon":5.38493,"is_reserved":false,"is_disabled":false,"rental_uris":{"android":"levelo://app?vid=5a3ee12f-ef2f-4d1e-97cb-e058d9e3cf6d","ios":"levelo://app?vid=5a3ee12f-ef2f-4d1e-97cb-e058d9e3cf6d"},"vehicle_type_id":"4","last_reported":1737036488,"current_range_meters":36400,"station_id":"ce4bgj92rcd13ifvqbd0","pricing_plan_id":"cebpf4jnsgd1na2vs0mg"},{"bike_id":"6bb0c2df-6198-4645-b80a-340391eb447c","system_id":"levelo_inurba_marseille","lat":43.28149,"lon":5.42642,"is_reserved":false,"is_disabled":false,"rental_uris":{"android":"levelo://app?vid=6bb0c2df-6198-4645-b80a-340391eb447c","ios":"levelo://app?vid=6bb0c2df-6198-4645-b80a-340391eb447c"},"vehicle_type_id":"4","last_reported":1737036488,"current_range_meters":30000,"station_id":"ce4bhnh2rcd13ifvqgug","pricing_plan_id":"cebpf4jnsgd1na2vs0mg"},{"bike_id":"6c02ae22-4e33-4b73-a0d5-7fa499611cc2","system_id":"levelo_inurba_marseille","lat":43.231547,"lon":5.437028,"is_reserved":false,"is_disabled":false,"rental_uris":{"android":"levelo://app?vid=6c02ae22-4e33-4b73-a0d5-7fa499611cc2","ios":"levelo://app?vid=6c02ae22-4e33-4b73-a0d5-7fa499611cc2"},"vehicle_type_id":"4","last_reported":1737036488,"current_range_meters":34800,"station_id":"ce4bhmp2rcd13ifvqgog","pricing_plan_id":"cebpf4jnsgd1na2vs0mg"},{"bike_id":"f3000f12-d78d-46d5-99ca-8a4e13f94f9e","system_id":"levelo_inurba_marseille","lat":43.25498,"lon":5.37653,"is_reserved":false,"is_disabled":false,"rental_uris":{"android":"levelo://app?vid=f3000f12-d78d-46d5-99ca-8a4e13f94f9e","ios":"levelo://app?vid=f3000f12-d78d-46d5-99ca-8a4e13f94f9e"},"vehicle_type_id":"4","last_reported":1737036488,"current_range_meters":38800,"station_id":"ce4bhh12rcd13ifvqff0","pricing_plan_id":"cebpf4jnsgd1na2vs0mg"},{"bike_id":"6df388d1-acb4-4a60-9041-5ac07b54f585","system_id":"levelo_inurba_marseille","lat":43.28157,"lon":5.42643,"is_reserved":false,"is_disabled":false,"rental_uris":{"android":"levelo://app?vid=6df388d1-acb4-4a60-9041-5ac07b54f585","ios":"levelo://app?vid=6df388d1-acb4-4a60-9041-5ac07b54f585"},"vehicle_type_id":"4","last_reported":1737036488,"current_range_meters":28800,"station_id":"ce4bhnh2rcd13ifvqgug","pricing_plan_id":"cebpf4jnsgd1na2vs0mg"},{"bike_id":"d82bafd6-8993-499b-b696-f406019e092e","system_id":"levelo_inurba_marseille","lat":43.2961,"lon":5.37725,"is_reserved":false,"is_disabled":false,"rental_uris":{"android":"levelo://app?vid=d82bafd6-8993-499b-b696-f406019e092e","ios":"levelo://app?vid=d82bafd6-8993-499b-b696-f406019e092e"},"vehicle_type_id":"4","last_reported":1737036488,"current_range_meters":38800,"station_id":"ce4bgi92rcd13ifvqb90","pricing_plan_id":"cebpf4jnsgd1na2vs0mg"},{"bike_id":"6003524c-18e4-4d25-8fc7-903f93c12173","system_id":"levelo_inurba_marseille","lat":43.30136,"lon":5.38773,"is_reserved":false,"is_disabled":true,"rental_uris":{"android":"levelo://app?vid=6003524c-18e4-4d25-8fc7-903f93c12173","ios":"levelo://app?vid=6003524c-18e4-4d25-8fc7-903f93c12173"},"vehicle_type_id":"4","last_reported":1737036488,"current_range_meters":38400,"station_id":"ce4bghh2rcd13ifvqb60","pricing_plan_id":"cebpf4jnsgd1na2vs0mg"},{"bike_id":"f7238ad6-89ae-4f09-b2af-8168a1b5b93f","system_id":"levelo_inurba_marseille","lat":43.29201,"lon":5.39319,"is_reserved":false,"is_disabled":false,"rental_uris":{"android":"levelo://app?vid=f7238ad6-89ae-4f09-b2af-8168a1b5b93f","ios":"levelo://app?vid=f7238ad6-89ae-4f09-b2af-8168a1b5b93f"},"vehicle_type_id":"4","last_reported":1737036488,"current_range_meters":30000,"station_id":"ce4bh192rcd13ifvqdd0","pricing_plan_id":"cebpf4jnsgd1na2vs0mg"},{"bike_id":"ebc856e2-ad97-47b6-a736-22ee3d58d3fe","system_id":"levelo_inurba_marseille","lat":43.28713,"lon":5.36106,"is_reserved":false,"is_disabled":false,"rental_uris":{"android":"levelo://app?vid=ebc856e2-ad97-47b6-a736-22ee3d58d3fe","ios":"levelo://app?vid=ebc856e2-ad97-47b6-a736-22ee3d58d3fe"},"vehicle_type_id":"4","last_reported":1737036488,"current_range_meters":6000,"station_id":"cki0cbj6b192h4jlfktg","pricing_plan_id":"cebpf4jnsgd1na2vs0mg"},{"bike_id":"632c9af1-3635-46ec-b2bb-88770d84f2d5","system_id":"levelo_inurba_marseille","lat":43.29523,"lon":5.3751,"is_reserved":false,"is_disabled":false,"rental_uris":{"android":"levelo://app?vid=632c9af1-3635-46ec-b2bb-88770d84f2d5","ios":"levelo://app?vid=632c9af1-3635-46ec-b2bb-88770d84f2d5"},"vehicle_type_id":"4","last_reported":1737036488,"current_range_meters":20000,"station_id":"ce4bgkp2rcd13ifvqbmg","pricing_plan_id":"cebpf4jnsgd1na2vs0mg"},{"bike_id":"e21a33db-4ff7-44b2-a73f-b5c05a38c476","system_id":"levelo_inurba_marseille","lat":43.25493,"lon":5.37648,"is_reserved":false,"is_disabled":false,"rental_uris":{"android":"levelo://app?vid=e21a33db-4ff7-44b2-a73f-b5c05a38c476","ios":"levelo://app?vid=e21a33db-4ff7-44b2-a73f-b5c05a38c476"},"vehicle_type_id":"4","last_reported":1737036488,"current_range_meters":38000,"station_id":"ce4bhh12rcd13ifvqff0","pricing_plan_id":"cebpf4jnsgd1na2vs0mg"},{"bike_id":"b6cc3290-8d97-4a09-b52c-61d9cb4c3b4e","system_id":"levelo_inurba_marseille","lat":43.30596,"lon":5.36834,"is_reserved":false,"is_disabled":false,"rental_uris":{"android":"levelo://app?vid=b6cc3290-8d97-4a09-b52c-61d9cb4c3b4e","ios":"levelo://app?vid=b6cc3290-8d97-4a09-b52c-61d9cb4c3b4e"},"vehicle_type_id":"4","last_reported":1737036488,"current_range_meters":32400,"station_id":"ce4bgrp2rcd13ifvqc9g","pricing_plan_id":"cebpf4jnsgd1na2vs0mg"},{"bike_id":"ea68a76e-b4c6-4be9-ab98-1a2f34b18dea","system_id":"levelo_inurba_marseille","lat":43.24177,"lon":5.39754,"is_reserved":false,"is_disabled":false,"rental_uris":{"android":"levelo://app?vid=ea68a76e-b4c6-4be9-ab98-1a2f34b18dea","ios":"levelo://app?vid=ea68a76e-b4c6-4be9-ab98-1a2f34b18dea"},"vehicle_type_id":"4","last_reported":1737036488,"current_range_meters":19600,"station_id":"ce4bhn12rcd13ifvqgpg","pricing_plan_id":"cebpf4jnsgd1na2vs0mg"},{"bike_id":"d2ab3ac4-7fc0-4a78-bd78-741e641132f0","system_id":"levelo_inurba_marseille","lat":43.30345,"lon":5.39086,"is_reserved":false,"is_disabled":true,"rental_uris":{"android":"levelo://app?vid=d2ab3ac4-7fc0-4a78-bd78-741e641132f0","ios":"levelo://app?vid=d2ab3ac4-7fc0-4a78-bd78-741e641132f0"},"vehicle_type_id":"4","last_reported":1737036488,"current_range_meters":2800,"station_id":"ce4bgkh2rcd13ifvqbk0","pricing_plan_id":"cebpf4jnsgd1na2vs0mg"},{"bike_id":"b66c8a7c-98ac-480c-a383-f54813a2d5aa","system_id":"levelo_inurba_marseille","lat":43.25827,"lon":5.39414,"is_reserved":false,"is_disabled":false,"rental_uris":{"android":"levelo://app?vid=b66c8a7c-98ac-480c-a383-f54813a2d5aa","ios":"levelo://app?vid=b66c8a7c-98ac-480c-a383-f54813a2d5aa"},"vehicle_type_id":"4","last_reported":1737036488,"current_range_meters":39200,"station_id":"ce4bhip2rcd13ifvqft0","pricing_plan_id":"cebpf4jnsgd1na2vs0mg"},{"bike_id":"e17b6980-3f7c-4d79-b8d3-f4bf7717c3e6","system_id":"levelo_inurba_marseille","lat":43.24702,"lon":5.38142,"is_reserved":false,"is_disabled":false,"rental_uris":{"android":"levelo://app?vid=e17b6980-3f7c-4d79-b8d3-f4bf7717c3e6","ios":"levelo://app?vid=e17b6980-3f7c-4d79-b8d3-f4bf7717c3e6"},"vehicle_type_id":"4","last_reported":1737036488,"current_range_meters":22800,"station_id":"ce4bhih2rcd13ifvqfr0","pricing_plan_id":"cebpf4jnsgd1na2vs0mg"},{"bike_id":"ccfe53f0-8dfd-4f5f-b4c7-b77b106d12b3","system_id":"levelo_inurba_marseille","lat":43.24695,"lon":5.38173,"is_reserved":false,"is_disabled":false,"rental_uris":{"android":"levelo://app?vid=ccfe53f0-8dfd-4f5f-b4c7-b77b106d12b3","ios":"levelo://app?vid=ccfe53f0-8dfd-4f5f-b4c7-b77b106d12b3"},"vehicle_type_id":"4","last_reported":1737036488,"current_range_meters":38800,"station_id":"ce4bhih2rcd13ifvqfr0","pricing_plan_id":"cebpf4jnsgd1na2vs0mg"},{"bike_id":"6de6cf68-eba2-4f9e-8f2f-39275c5ef8e9","system_id":"levelo_inurba_marseille","lat":43.2767,"lon":5.38897,"is_reserved":false,"is_disabled":false,"rental_uris":{"android":"levelo://app?vid=6de6cf68-eba2-4f9e-8f2f-39275c5ef8e9","ios":"levelo://app?vid=6de6cf68-eba2-4f9e-8f2f-39275c5ef8e9"},"vehicle_type_id":"4","last_reported":1737036488,"current_range_meters":25600,"station_id":"ce4bhi12rcd13ifvqfo0","pricing_plan_id":"cebpf4jnsgd1na2vs0mg"},{"bike_id":"76927190-b0f1-48e6-ac53-2b2a522b3e1e","system_id":"levelo_inurba_marseille","lat":43.28001,"lon":5.40001,"is_reserved":false,"is_disabled":false,"rental_uris":{"android":"levelo://app?vid=76927190-b0f1-48e6-ac53-2b2a522b3e1e","ios":"levelo://app?vid=76927190-b0f1-48e6-ac53-2b2a522b3e1e"},"vehicle_type_id":"4","last_reported":1737036488,"current_range_meters":35600,"station_id":"ce4bho92rcd13ifvqh4g","pricing_plan_id":"cebpf4jnsgd1na2vs0mg"},{"bike_id":"f1e4e8bf-9d3d-450a-a188-3557d46cf354","system_id":"levelo_inurba_marseille","lat":43.26561,"lon":5.39015,"is_reserved":false,"is_disabled":false,"rental_uris":{"android":"levelo://app?vid=f1e4e8bf-9d3d-450a-a188-3557d46cf354","ios":"levelo://app?vid=f1e4e8bf-9d3d-450a-a188-3557d46cf354"},"vehicle_type_id":"4","last_reported":1737036488,"current_range_meters":24000,"station_id":"ce4bhe12rcd13ifvqf30","pricing_plan_id":"cebpf4jnsgd1na2vs0mg"},{"bike_id":"98c7f46d-51b5-4520-b1da-5976f39fe891","system_id":"levelo_inurba_marseille","lat":43.22935,"lon":5.35381,"is_reserved":false,"is_disabled":false,"rental_uris":{"android":"levelo://app?vid=98c7f46d-51b5-4520-b1da-5976f39fe891","ios":"levelo://app?vid=98c7f46d-51b5-4520-b1da-5976f39fe891"},"vehicle_type_id":"4","last_reported":1737036488,"current_range_meters":22000,"station_id":"cpo3532slgdg3j2ikp40","pricing_plan_id":"cebpf4jnsgd1na2vs0mg"},{"bike_id":"d27ba8c1-f627-422b-86d7-b208479ebcc6","system_id":"levelo_inurba_marseille","lat":43.28266,"lon":5.35067,"is_reserved":false,"is_disabled":false,"rental_uris":{"android":"levelo://app?vid=d27ba8c1-f627-422b-86d7-b208479ebcc6","ios":"levelo://app?vid=d27ba8c1-f627-422b-86d7-b208479ebcc6"},"vehicle_type_id":"4","last_reported":1737036488,"current_range_meters":29600,"station_id":"ce4bhbp2rcd13ifvqerg","pricing_plan_id":"cebpf4jnsgd1na2vs0mg"},{"bike_id":"44721705-52d0-4eba-b0b2-b41ea9586411","system_id":"levelo_inurba_marseille","lat":43.23192,"lon":5.35568,"is_reserved":false,"is_disabled":false,"rental_uris":{"android":"levelo://app?vid=44721705-52d0-4eba-b0b2-b41ea9586411","ios":"levelo://app?vid=44721705-52d0-4eba-b0b2-b41ea9586411"},"vehicle_type_id":"4","last_reported":1737036488,"current_range_meters":34000,"station_id":"ce4bhu92rcd13ifvqi70","pricing_plan_id":"cebpf4jnsgd1na2vs0mg"},{"bike_id":"24170ccc-3bf5-420f-8934-aaa38745f2ac","system_id":"levelo_inurba_marseille","lat":43.27498,"lon":5.42456,"is_reserved":false,"is_disabled":true,"rental_uris":{"android":"levelo://app?vid=24170ccc-3bf5-420f-8934-aaa38745f2ac","ios":"levelo://app?vid=24170ccc-3bf5-420f-8934-aaa38745f2ac"},"vehicle_type_id":"4","last_reported":1737036488,"current_range_meters":0,"station_id":"ce4bhn92rcd13ifvqgrg","pricing_plan_id":"cebpf4jnsgd1na2vs0mg"},{"bike_id":"52323900-e2c9-407e-bca3-3def80be9ad8","system_id":"levelo_inurba_marseille","lat":43.299126,"lon":5.374761,"is_reserved":false,"is_disabled":false,"rental_uris":{"android":"levelo://app?vid=52323900-e2c9-407e-bca3-3def80be9ad8","ios":"levelo://app?vid=52323900-e2c9-407e-bca3-3def80be9ad8"},"vehicle_type_id":"4","last_reported":1737036488,"current_range_meters":38400,"station_id":"ce4bgjh2rcd13ifvqbg0","pricing_plan_id":"cebpf4jnsgd1na2vs0mg"},{"bike_id":"e9862b7e-c657-40ca-9b26-3e844242be1f","system_id":"levelo_inurba_marseille","lat":43.29187,"lon":5.39329,"is_reserved":false,"is_disabled":false,"rental_uris":{"android":"levelo://app?vid=e9862b7e-c657-40ca-9b26-3e844242be1f","ios":"levelo://app?vid=e9862b7e-c657-40ca-9b26-3e844242be1f"},"vehicle_type_id":"4","last_reported":1737036488,"current_range_meters":22400,"station_id":"ce4bh192rcd13ifvqdd0","pricing_plan_id":"cebpf4jnsgd1na2vs0mg"},{"bike_id":"3986197e-b069-496c-885c-6257250cbbbd","system_id":"levelo_inurba_marseille","lat":43.29962,"lon":5.37161,"is_reserved":false,"is_disabled":false,"rental_uris":{"android":"levelo://app?vid=3986197e-b069-496c-885c-6257250cbbbd","ios":"levelo://app?vid=3986197e-b069-496c-885c-6257250cbbbd"},"vehicle_type_id":"4","last_reported":1737036488,"current_range_meters":39200,"station_id":"ce4bgr92rcd13ifvqc7g","pricing_plan_id":"cebpf4jnsgd1na2vs0mg"},{"bike_id":"6a8fd53f-7ea3-423f-8cfd-17c8ebfc768d","system_id":"levelo_inurba_marseille","lat":43.26022,"lon":5.3755,"is_reserved":false,"is_disabled":false,"rental_uris":{"android":"levelo://app?vid=6a8fd53f-7ea3-423f-8cfd-17c8ebfc768d","ios":"levelo://app?vid=6a8fd53f-7ea3-423f-8cfd-17c8ebfc768d"},"vehicle_type_id":"4","last_reported":1737036488,"current_range_meters":34800,"station_id":"ce4bhgh2rcd13ifvqfa0","pricing_plan_id":"cebpf4jnsgd1na2vs0mg"},{"bike_id":"27371fc3-88d5-40e0-8fcb-13c0dd889d55","system_id":"levelo_inurba_marseille","lat":43.25826,"lon":5.39437,"is_reserved":false,"is_disabled":false,"rental_uris":{"android":"levelo://app?vid=27371fc3-88d5-40e0-8fcb-13c0dd889d55","ios":"levelo://app?vid=27371fc3-88d5-40e0-8fcb-13c0dd889d55"},"vehicle_type_id":"4","last_reported":1737036488,"current_range_meters":24800,"station_id":"ce4bhip2rcd13ifvqft0","pricing_plan_id":"cebpf4jnsgd1na2vs0mg"},{"bike_id":"e1f9a0b5-1419-4e67-ab24-a72ee45dfd85","system_id":"levelo_inurba_marseille","lat":43.24168,"lon":5.36368,"is_reserved":false,"is_disabled":false,"rental_uris":{"android":"levelo://app?vid=e1f9a0b5-1419-4e67-ab24-a72ee45dfd85","ios":"levelo://app?vid=e1f9a0b5-1419-4e67-ab24-a72ee45dfd85"},"vehicle_type_id":"4","last_reported":1737036488,"current_range_meters":21600,"station_id":"cpo36qri1sfpv3e86is0","pricing_plan_id":"cebpf4jnsgd1na2vs0mg"},{"bike_id":"431d951d-cbca-4f00-a5ab-f322d98c990f","system_id":"levelo_inurba_marseille","lat":43.281538,"lon":5.426402,"is_reserved":false,"is_disabled":false,"rental_uris":{"android":"levelo://app?vid=431d951d-cbca-4f00-a5ab-f322d98c990f","ios":"levelo://app?vid=431d951d-cbca-4f00-a5ab-f322d98c990f"},"vehicle_type_id":"4","last_reported":1737036488,"current_range_meters":16400,"station_id":"ce4bhnh2rcd13ifvqgug","pricing_plan_id":"cebpf4jnsgd1na2vs0mg"},{"bike_id":"4e90ef3b-cc84-4497-8cb7-a6e7798c1c9a","system_id":"levelo_inurba_marseille","lat":43.31712,"lon":5.3775,"is_reserved":false,"is_disabled":false,"rental_uris":{"android":"levelo://app?vid=4e90ef3b-cc84-4497-8cb7-a6e7798c1c9a","ios":"levelo://app?vid=4e90ef3b-cc84-4497-8cb7-a6e7798c1c9a"},"vehicle_type_id":"4","last_reported":1737036488,"current_range_meters":16800,"station_id":"ce4bgth2rcd13ifvqch0","pricing_plan_id":"cebpf4jnsgd1na2vs0mg"},{"bike_id":"a260603c-b529-486c-ace5-a7ed578de957","system_id":"levelo_inurba_marseille","lat":43.29568,"lon":5.3752,"is_reserved":false,"is_disabled":false,"rental_uris":{"android":"levelo://app?vid=a260603c-b529-486c-ace5-a7ed578de957","ios":"levelo://app?vid=a260603c-b529-486c-ace5-a7ed578de957"},"vehicle_type_id":"4","last_reported":1737036488,"current_range_meters":24000,"station_id":"ce4bgh92rcd13ifvqb50","pricing_plan_id":"cebpf4jnsgd1na2vs0mg"},{"bike_id":"f7a93299-4b31-44c2-976e-82f7878bc418","system_id":"levelo_inurba_marseille","lat":43.25501,"lon":5.37658,"is_reserved":false,"is_disabled":false,"rental_uris":{"android":"levelo://app?vid=f7a93299-4b31-44c2-976e-82f7878bc418","ios":"levelo://app?vid=f7a93299-4b31-44c2-976e-82f7878bc418"},"vehicle_type_id":"4","last_reported":1737036488,"current_range_meters":38800,"station_id":"ce4bhh12rcd13ifvqff0","pricing_plan_id":"cebpf4jnsgd1na2vs0mg"},{"bike_id":"31f00ed0-b0ca-427a-9039-ac29c940ea2c","system_id":"levelo_inurba_marseille","lat":43.23205,"lon":5.35544,"is_reserved":false,"is_disabled":false,"rental_uris":{"android":"levelo://app?vid=31f00ed0-b0ca-427a-9039-ac29c940ea2c","ios":"levelo://app?vid=31f00ed0-b0ca-427a-9039-ac29c940ea2c"},"vehicle_type_id":"4","last_reported":1737036488,"current_range_meters":18800,"station_id":"ce4bhu92rcd13ifvqi70","pricing_plan_id":"cebpf4jnsgd1na2vs0mg"},{"bike_id":"dde0eb34-7c1c-4462-91c7-a026310c48e2","system_id":"levelo_inurba_marseille","lat":43.29189,"lon":5.35811,"is_reserved":false,"is_disabled":false,"rental_uris":{"android":"levelo://app?vid=dde0eb34-7c1c-4462-91c7-a026310c48e2","ios":"levelo://app?vid=dde0eb34-7c1c-4462-91c7-a026310c48e2"},"vehicle_type_id":"4","last_reported":1737036488,"current_range_meters":31200,"station_id":"ce4bhb12rcd13ifvqel0","pricing_plan_id":"cebpf4jnsgd1na2vs0mg"},{"bike_id":"8ccdb8e3-5350-4cab-8a81-1bd6181a6c06","system_id":"levelo_inurba_marseille","lat":43.23203,"lon":5.35548,"is_reserved":false,"is_disabled":false,"rental_uris":{"android":"levelo://app?vid=8ccdb8e3-5350-4cab-8a81-1bd6181a6c06","ios":"levelo://app?vid=8ccdb8e3-5350-4cab-8a81-1bd6181a6c06"},"vehicle_type_id":"4","last_reported":1737036488,"current_range_meters":30000,"station_id":"ce4bhu92rcd13ifvqi70","pricing_plan_id":"cebpf4jnsgd1na2vs0mg"},{"bike_id":"481dc877-f116-42ef-854c-605d03cb6d5f","system_id":"levelo_inurba_marseille","lat":43.25869,"lon":5.39895,"is_reserved":false,"is_disabled":false,"rental_uris":{"android":"levelo://app?vid=481dc877-f116-42ef-854c-605d03cb6d5f","ios":"levelo://app?vid=481dc877-f116-42ef-854c-605d03cb6d5f"},"vehicle_type_id":"4","last_reported":1737036488,"current_range_meters":30000,"station_id":"ce4bhl92rcd13ifvqghg","pricing_plan_id":"cebpf4jnsgd1na2vs0mg"},{"bike_id":"debf1d68-8b1d-4b6b-9d17-2e6033da6eb8","system_id":"levelo_inurba_marseille","lat":43.31324,"lon":5.39693,"is_reserved":false,"is_disabled":false,"rental_uris":{"android":"levelo://app?vid=debf1d68-8b1d-4b6b-9d17-2e6033da6eb8","ios":"levelo://app?vid=debf1d68-8b1d-4b6b-9d17-2e6033da6eb8"},"vehicle_type_id":"4","last_reported":1737036488,"current_range_meters":38800,"station_id":"ce4bgvp2rcd13ifvqcu0","pricing_plan_id":"cebpf4jnsgd1na2vs0mg"},{"bike_id":"500b8658-baf5-4bce-b6fe-d831d0682564","system_id":"levelo_inurba_marseille","lat":43.296251,"lon":5.371724,"is_reserved":false,"is_disabled":false,"rental_uris":{"android":"levelo://app?vid=500b8658-baf5-4bce-b6fe-d831d0682564","ios":"levelo://app?vid=500b8658-baf5-4bce-b6fe-d831d0682564"},"vehicle_type_id":"4","last_reported":1737036488,"current_range_meters":38800,"station_id":"ce4bgnh2rcd13ifvqc0g","pricing_plan_id":"cebpf4jnsgd1na2vs0mg"},{"bike_id":"cf87d7bf-f54c-4b0a-8e3c-2d939f30d535","system_id":"levelo_inurba_marseille","lat":43.34138,"lon":5.40911,"is_reserved":false,"is_disabled":false,"rental_uris":{"android":"levelo://app?vid=cf87d7bf-f54c-4b0a-8e3c-2d939f30d535","ios":"levelo://app?vid=cf87d7bf-f54c-4b0a-8e3c-2d939f30d535"},"vehicle_type_id":"4","last_reported":1737036488,"current_range_meters":38000,"station_id":"ce4bhqh2rcd13ifvqhlg","pricing_plan_id":"cebpf4jnsgd1na2vs0mg"},{"bike_id":"f5863b18-13a1-4c6e-92de-5668ea912ad3","system_id":"levelo_inurba_marseille","lat":43.26229,"lon":5.40455,"is_reserved":false,"is_disabled":false,"rental_uris":{"android":"levelo://app?vid=f5863b18-13a1-4c6e-92de-5668ea912ad3","ios":"levelo://app?vid=f5863b18-13a1-4c6e-92de-5668ea912ad3"},"vehicle_type_id":"4","last_reported":1737036488,"current_range_meters":2800,"station_id":"","pricing_plan_id":"cebpf4jnsgd1na2vs0mg"},{"bike_id":"abe4203e-96a8-4930-b1a0-40826fcb66cc","system_id":"levelo_inurba_marseille","lat":43.30142,"lon":5.39876,"is_reserved":false,"is_disabled":false,"rental_uris":{"android":"levelo://app?vid=abe4203e-96a8-4930-b1a0-40826fcb66cc","ios":"levelo://app?vid=abe4203e-96a8-4930-b1a0-40826fcb66cc"},"vehicle_type_id":"4","last_reported":1737036488,"current_range_meters":37600,"station_id":"ce4bh0h2rcd13ifvqd40","pricing_plan_id":"cebpf4jnsgd1na2vs0mg"},{"bike_id":"a8fad254-19bb-48fe-801d-9e93d4767cef","system_id":"levelo_inurba_marseille","lat":43.31408,"lon":5.37377,"is_reserved":false,"is_disabled":false,"rental_uris":{"android":"levelo://app?vid=a8fad254-19bb-48fe-801d-9e93d4767cef","ios":"levelo://app?vid=a8fad254-19bb-48fe-801d-9e93d4767cef"},"vehicle_type_id":"4","last_reported":1737036488,"current_range_meters":2800,"station_id":"","pricing_plan_id":"cebpf4jnsgd1na2vs0mg"},{"bike_id":"95a70787-da43-4a90-8971-d090331fb546","system_id":"levelo_inurba_marseille","lat":43.25117,"lon":5.40221,"is_reserved":false,"is_disabled":false,"rental_uris":{"android":"levelo://app?vid=95a70787-da43-4a90-8971-d090331fb546","ios":"levelo://app?vid=95a70787-da43-4a90-8971-d090331fb546"},"vehicle_type_id":"4","last_reported":1737036488,"current_range_meters":28000,"station_id":"ce4bhlh2rcd13ifvqgig","pricing_plan_id":"cebpf4jnsgd1na2vs0mg"},{"bike_id":"9a7fe242-28b6-4800-8387-13a654b2b9aa","system_id":"levelo_inurba_marseille","lat":43.299306,"lon":5.381509,"is_reserved":false,"is_disabled":false,"rental_uris":{"android":"levelo://app?vid=9a7fe242-28b6-4800-8387-13a654b2b9aa","ios":"levelo://app?vid=9a7fe242-28b6-4800-8387-13a654b2b9aa"},"vehicle_type_id":"4","last_reported":1737036488,"current_range_meters":32000,"station_id":"ce4bgj12rcd13ifvqbc0","pricing_plan_id":"cebpf4jnsgd1na2vs0mg"},{"bike_id":"1e8963bf-a6ac-4652-9f38-178a774a00d3","system_id":"levelo_inurba_marseille","lat":43.30953,"lon":5.39058,"is_reserved":false,"is_disabled":false,"rental_uris":{"android":"levelo://app?vid=1e8963bf-a6ac-4652-9f38-178a774a00d3","ios":"levelo://app?vid=1e8963bf-a6ac-4652-9f38-178a774a00d3"},"vehicle_type_id":"4","last_reported":1737036488,"current_range_meters":16800,"station_id":"ce4bgup2rcd13ifvqco0","pricing_plan_id":"cebpf4jnsgd1na2vs0mg"},{"bike_id":"f3d52f82-c3f1-4ed6-8af9-cacd9761d357","system_id":"levelo_inurba_marseille","lat":43.2873,"lon":5.37925,"is_reserved":false,"is_disabled":false,"rental_uris":{"android":"levelo://app?vid=f3d52f82-c3f1-4ed6-8af9-cacd9761d357","ios":"levelo://app?vid=f3d52f82-c3f1-4ed6-8af9-cacd9761d357"},"vehicle_type_id":"4","last_reported":1737036488,"current_range_meters":33600,"station_id":"ce4bh9p2rcd13ifvqec0","pricing_plan_id":"cebpf4jnsgd1na2vs0mg"},{"bike_id":"3ffc89e6-d6b1-4188-ad9d-7d61643c4df8","system_id":"levelo_inurba_marseille","lat":43.272044,"lon":5.391721,"is_reserved":false,"is_disabled":false,"rental_uris":{"android":"levelo://app?vid=3ffc89e6-d6b1-4188-ad9d-7d61643c4df8","ios":"levelo://app?vid=3ffc89e6-d6b1-4188-ad9d-7d61643c4df8"},"vehicle_type_id":"4","last_reported":1737036488,"current_range_meters":33600,"station_id":"ce4bhhp2rcd13ifvqfm0","pricing_plan_id":"cebpf4jnsgd1na2vs0mg"},{"bike_id":"8be96ee6-b7cb-4308-bbcb-85498848909b","system_id":"levelo_inurba_marseille","lat":43.29354,"lon":5.37857,"is_reserved":false,"is_disabled":false,"rental_uris":{"android":"levelo://app?vid=8be96ee6-b7cb-4308-bbcb-85498848909b","ios":"levelo://app?vid=8be96ee6-b7cb-4308-bbcb-85498848909b"},"vehicle_type_id":"4","last_reported":1737036488,"current_range_meters":38000,"station_id":"ce4bgjh2rcd13ifvqbf0","pricing_plan_id":"cebpf4jnsgd1na2vs0mg"},{"bike_id":"3766e035-57a2-4681-8e71-eed398a1eebe","system_id":"levelo_inurba_marseille","lat":43.29716,"lon":5.377,"is_reserved":false,"is_disabled":false,"rental_uris":{"android":"levelo://app?vid=3766e035-57a2-4681-8e71-eed398a1eebe","ios":"levelo://app?vid=3766e035-57a2-4681-8e71-eed398a1eebe"},"vehicle_type_id":"4","last_reported":1737036488,"current_range_meters":27600,"station_id":"ce4bgkh2rcd13ifvqbl0","pricing_plan_id":"cebpf4jnsgd1na2vs0mg"},{"bike_id":"496855c3-3eb8-477d-9b8f-de7c3bb29859","system_id":"levelo_inurba_marseille","lat":43.27332,"lon":5.3911,"is_reserved":false,"is_disabled":false,"rental_uris":{"android":"levelo://app?vid=496855c3-3eb8-477d-9b8f-de7c3bb29859","ios":"levelo://app?vid=496855c3-3eb8-477d-9b8f-de7c3bb29859"},"vehicle_type_id":"4","last_reported":1737036488,"current_range_meters":38800,"station_id":"ce4bhgp2rcd13ifvqfe0","pricing_plan_id":"cebpf4jnsgd1na2vs0mg"},{"bike_id":"b43b6075-66ce-471b-867b-6be5340c6bb8","system_id":"levelo_inurba_marseille","lat":43.29609,"lon":5.406,"is_reserved":false,"is_disabled":false,"rental_uris":{"android":"levelo://app?vid=b43b6075-66ce-471b-867b-6be5340c6bb8","ios":"levelo://app?vid=b43b6075-66ce-471b-867b-6be5340c6bb8"},"vehicle_type_id":"4","last_reported":1737036488,"current_range_meters":19200,"station_id":"ce4bh0h2rcd13ifvqd60","pricing_plan_id":"cebpf4jnsgd1na2vs0mg"},{"bike_id":"2d72bbd9-ad22-4193-9e3e-1826cb532c67","system_id":"levelo_inurba_marseille","lat":43.33766,"lon":5.39165,"is_reserved":false,"is_disabled":false,"rental_uris":{"android":"levelo://app?vid=2d72bbd9-ad22-4193-9e3e-1826cb532c67","ios":"levelo://app?vid=2d72bbd9-ad22-4193-9e3e-1826cb532c67"},"vehicle_type_id":"4","last_reported":1737036488,"current_range_meters":38800,"station_id":"ce4bhr92rcd13ifvqhsg","pricing_plan_id":"cebpf4jnsgd1na2vs0mg"},{"bike_id":"1cd1658d-dcac-4315-ab2a-ade1a2c34dec","system_id":"levelo_inurba_marseille","lat":43.26209,"lon":5.3792,"is_reserved":false,"is_disabled":false,"rental_uris":{"android":"levelo://app?vid=1cd1658d-dcac-4315-ab2a-ade1a2c34dec","ios":"levelo://app?vid=1cd1658d-dcac-4315-ab2a-ade1a2c34dec"},"vehicle_type_id":"4","last_reported":1737036488,"current_range_meters":38800,"station_id":"ce4bhjp2rcd13ifvqg90","pricing_plan_id":"cebpf4jnsgd1na2vs0mg"},{"bike_id":"31a2f2b4-75b5-4b88-9256-df87dadf8654","system_id":"levelo_inurba_marseille","lat":43.29539,"lon":5.37499,"is_reserved":false,"is_disabled":false,"rental_uris":{"android":"levelo://app?vid=31a2f2b4-75b5-4b88-9256-df87dadf8654","ios":"levelo://app?vid=31a2f2b4-75b5-4b88-9256-df87dadf8654"},"vehicle_type_id":"4","last_reported":1737036488,"current_range_meters":36800,"station_id":"ce4bgkp2rcd13ifvqbmg","pricing_plan_id":"cebpf4jnsgd1na2vs0mg"},{"bike_id":"c608b4b5-9589-4f7b-a723-697f1c3f2d39","system_id":"levelo_inurba_marseille","lat":43.296275,"lon":5.371705,"is_reserved":false,"is_disabled":false,"rental_uris":{"android":"levelo://app?vid=c608b4b5-9589-4f7b-a723-697f1c3f2d39","ios":"levelo://app?vid=c608b4b5-9589-4f7b-a723-697f1c3f2d39"},"vehicle_type_id":"4","last_reported":1737036488,"current_range_meters":34000,"station_id":"ce4bgnh2rcd13ifvqc0g","pricing_plan_id":"cebpf4jnsgd1na2vs0mg"},{"bike_id":"c903c058-b58f-4261-84de-2d5ce69b4570","system_id":"levelo_inurba_marseille","lat":43.29523,"lon":5.39407,"is_reserved":false,"is_disabled":true,"rental_uris":{"android":"levelo://app?vid=c903c058-b58f-4261-84de-2d5ce69b4570","ios":"levelo://app?vid=c903c058-b58f-4261-84de-2d5ce69b4570"},"vehicle_type_id":"4","last_reported":1737036488,"current_range_meters":1600,"station_id":"ce4bh292rcd13ifvqdf0","pricing_plan_id":"cebpf4jnsgd1na2vs0mg"},{"bike_id":"7aaf2a77-790e-45b8-b2c4-ee771812a148","system_id":"levelo_inurba_marseille","lat":43.2721,"lon":5.39187,"is_reserved":false,"is_disabled":false,"rental_uris":{"android":"levelo://app?vid=7aaf2a77-790e-45b8-b2c4-ee771812a148","ios":"levelo://app?vid=7aaf2a77-790e-45b8-b2c4-ee771812a148"},"vehicle_type_id":"4","last_reported":1737036488,"current_range_meters":38800,"station_id":"ce4bhhp2rcd13ifvqfm0","pricing_plan_id":"cebpf4jnsgd1na2vs0mg"},{"bike_id":"b9ccc5d7-22bc-4f6c-a8ae-9d5886a0a1b7","system_id":"levelo_inurba_marseille","lat":43.25943,"lon":5.40911,"is_reserved":false,"is_disabled":false,"rental_uris":{"android":"levelo://app?vid=b9ccc5d7-22bc-4f6c-a8ae-9d5886a0a1b7","ios":"levelo://app?vid=b9ccc5d7-22bc-4f6c-a8ae-9d5886a0a1b7"},"vehicle_type_id":"4","last_reported":1737036488,"current_range_meters":16000,"station_id":"ce4bhm92rcd13ifvqglg","pricing_plan_id":"cebpf4jnsgd1na2vs0mg"},{"bike_id":"0fc6d91e-7999-48ab-a5ae-fe1c1d962765","system_id":"levelo_inurba_marseille","lat":43.27615,"lon":5.36115,"is_reserved":false,"is_disabled":false,"rental_uris":{"android":"levelo://app?vid=0fc6d91e-7999-48ab-a5ae-fe1c1d962765","ios":"levelo://app?vid=0fc6d91e-7999-48ab-a5ae-fe1c1d962765"},"vehicle_type_id":"4","last_reported":1737036488,"current_range_meters":38800,"station_id":"ce4bgj92rcd13ifvqbe0","pricing_plan_id":"cebpf4jnsgd1na2vs0mg"},{"bike_id":"8e32d0c6-df7c-4036-b142-1871a4674bba","system_id":"levelo_inurba_marseille","lat":43.32375,"lon":5.38892,"is_reserved":false,"is_disabled":false,"rental_uris":{"android":"levelo://app?vid=8e32d0c6-df7c-4036-b142-1871a4674bba","ios":"levelo://app?vid=8e32d0c6-df7c-4036-b142-1871a4674bba"},"vehicle_type_id":"4","last_reported":1737036488,"current_range_meters":19600,"station_id":"ce4bhqp2rcd13ifvqhog","pricing_plan_id":"cebpf4jnsgd1na2vs0mg"},{"bike_id":"de7a3373-349a-4ac5-8838-ec8fa2f36ccf","system_id":"levelo_inurba_marseille","lat":43.30935,"lon":5.3907,"is_reserved":false,"is_disabled":false,"rental_uris":{"android":"levelo://app?vid=de7a3373-349a-4ac5-8838-ec8fa2f36ccf","ios":"levelo://app?vid=de7a3373-349a-4ac5-8838-ec8fa2f36ccf"},"vehicle_type_id":"4","last_reported":1737036488,"current_range_meters":16400,"station_id":"ce4bgup2rcd13ifvqco0","pricing_plan_id":"cebpf4jnsgd1na2vs0mg"},{"bike_id":"2268dfba-3c2a-4d41-afd9-5c37fd78dd83","system_id":"levelo_inurba_marseille","lat":43.27375,"lon":5.36254,"is_reserved":false,"is_disabled":false,"rental_uris":{"android":"levelo://app?vid=2268dfba-3c2a-4d41-afd9-5c37fd78dd83","ios":"levelo://app?vid=2268dfba-3c2a-4d41-afd9-5c37fd78dd83"},"vehicle_type_id":"4","last_reported":1737036488,"current_range_meters":27200,"station_id":"ce4bhbh2rcd13ifvqeo0","pricing_plan_id":"cebpf4jnsgd1na2vs0mg"},