{"last_updated":1727186876,"ttl":60,"version":"2.2","data":{"bikes":[{"bike_id":"f5f628ad-37e6-46ae-8da1-f0f68803921b","system_id":"levelo_inurba_marseille","lat":43.30598,"lon":5.3722,"is_reserved":false,"is_disabled":false,"rental_uris":{"android":"levelo://app?vid=f5f628ad-37e6-46ae-8da1-f0f68803921b","ios":"levelo://app?vid=f5f628ad-37e6-46ae-8da1-f0f68803921b"},"vehicle_type_id":"4","last_reported":1727186877,"current_range_meters":37600,"station_id":"ce4bgqh2rcd13ifvqc4g","pricing_plan_id":"cebpf4jnsgd1na2vs0mg"},{"bike_id":"94974735-9e09-4ce4-8c77-f4714a151daf","system_id":"levelo_inurba_marseille","lat":43.22929,"lon":5.35373,"is_reserved":false,"is_disabled":false,"rental_uris":{"android":"levelo://app?vid=94974735-9e09-4ce4-8c77-f4714a151daf","ios":"levelo://app?vid=94974735-9e09-4ce4-8c77-f4714a151daf"},"vehicle_type_id":"4","last_reported":1727186877,"current_range_meters":36800,"station_id":"cpo3532slgdg3j2ikp40","pricing_plan_id":"cebpf4jnsgd1na2vs0mg"},{"bike_id":"2200d9de-eab9-4f82-a98f-84d47f405602","system_id":"levelo_inurba_marseille","lat":43.30474,"lon":5.37898,"is_reserved":false,"is_disabled":false,"rental_uris":{"android":"levelo://app?vid=2200d9de-eab9-4f82-a98f-84d47f405602","ios":"levelo://app?vid=2200d9de-eab9-4f82-a98f-84d47f405602"},"vehicle_type_id":"4","last_reported":1727186877,"current_range_meters":38000,"station_id":"ce4bgup2rcd13ifvqcn0","pricing_plan_id":"cebpf4jnsgd1na2vs0mg"},{"bike_id":"f0559f64-2dd1-426c-aa70-5982621f4cf2","system_id":"levelo_inurba_marseille","lat":43.33771,"lon":5.37438,"is_reserved":false,"is_disabled":false,"rental_uris":{"android":"levelo://app?vid=f0559f64-2dd1-426c-aa70-5982621f4cf2","ios":"levelo://app?vid=f0559f64-2dd1-426c-aa70-5982621f4cf2"},"vehicle_type_id":"4","last_reported":1727186877,"current_range_meters":38000,"station_id":"","pricing_plan_id":"cebpf4jnsgd1na2vs0mg"},{"bike_id":"80a7865c-e91c-40ec-b7b8-367817b19f73","system_id":"levelo_inurba_marseille","lat":43.29559,"lon":5.38994,"is_reserved":false,"is_disabled":false,"rental_uris":{"android":"levelo://app?vid=80a7865c-e91c-40ec-b7b8-367817b19f73","ios":"levelo://app?vid=80a7865c-e91c-40ec-b7b8-367817b19f73"},"vehicle_type_id":"4","last_reported":1727186877,"current_range_meters":36800,"station_id":"ce4bh3p2rcd13ifvqdp0","pricing_plan_id":"cebpf4jnsgd1na2vs0mg"},{"bike_id":"ba723132-c39d-4396-a579-523edd51eb9d","system_id":"levelo_inurba_marseille","lat":43.27318,"lon":5.3908,"is_reserved":false,"is_disabled":false,"rental_uris":{"android":"levelo://app?vid=ba723132-c39d-4396-a579-523edd51eb9d","ios":"levelo://app?vid=ba723132-c39d-4396-a579-523edd51eb9d"},"vehicle_type_id":"4","last_reported":1727186877,"current_range_meters":35600,"station_id":"ce4bhgp2rcd13ifvqfe0","pricing_plan_id":"cebpf4jnsgd1na2vs0mg"},{"bike_id":"5d3d257f-bb51-4bce-a465-c8d6a178e971","system_id":"levelo_inurba_marseille","lat":43.32658,"lon":5.40979,"is_reserved":false,"is_disabled":false,"rental_uris":{"android":"levelo://app?vid=5d3d257f-bb51-4bce-a465-c8d6a178e971","ios":"levelo://app?vid=5d3d257f-bb51-4bce-a465-c8d6a178e971"},"vehicle_type_id":"4","last_reported":1727186877,"current_range_meters":36400,"station_id":"ce4bhpp2rcd13ifvqhgg","pricing_plan_id":"cebpf4jnsgd1na2vs0mg"},{"bike_id":"ea769b1a-f9ed-4f21-a469-f28ce54209bf","system_id":"levelo_inurba_marseille","lat":43.28,"lon":5.4166,"is_reserved":false,"is_disabled":false,"rental_uris":{"android":"levelo://app?vid=ea769b1a-f9ed-4f21-a469-f28ce54209bf","ios":"levelo://app?vid=ea769b1a-f9ed-4f21-a469-f28ce54209bf"},"vehicle_type_id":"4","last_reported":1727186877,"current_range_meters":21600,"station_id":"ce4bho12rcd13ifvqh1g","pricing_plan_id":"cebpf4jnsgd1na2vs0mg"},{"bike_id":"122fe047-defa-4cd7-ae0b-4f72f2d01028","system_id":"levelo_inurba_marseille","lat":43.2796,"lon":5.38754,"is_reserved":false,"is_disabled":false,"rental_uris":{"android":"levelo://app?vid=122fe047-defa-4cd7-ae0b-4f72f2d01028","ios":"levelo://app?vid=122fe047-defa-4cd7-ae0b-4f72f2d01028"},"vehicle_type_id":"4","last_reported":1727186877,"current_range_meters":21600,"station_id":"ce4bhg12rcd13ifvqf80","pricing_plan_id":"cebpf4jnsgd1na2vs0mg"},{"bike_id":"f79f0326-2117-4b6b-a940-9eef5dfdc1ce","system_id":"levelo_inurba_marseille","lat":43.299731,"lon":5.384783,"is_reserved":false,"is_disabled":false,"rental_uris":{"android":"levelo://app?vid=f79f0326-2117-4b6b-a940-9eef5dfdc1ce","ios":"levelo://app?vid=f79f0326-2117-4b6b-a940-9eef5dfdc1ce"},"vehicle_type_id":"4","last_reported":1727186877,"current_range_meters":8000,"station_id":"ce4bgv12rcd13ifvqcp0","pricing_plan_id":"cebpf4jnsgd1na2vs0mg"},{"bike_id":"cec702f9-6429-493f-a263-782f4419d3a6","system_id":"levelo_inurba_marseille","lat":43.25866,"lon":5.39897,"is_reserved":false,"is_disabled":false,"rental_uris":{"android":"levelo://app?vid=cec702f9-6429-493f-a263-782f4419d3a6","ios":"levelo://app?vid=cec702f9-6429-493f-a263-782f4419d3a6"},"vehicle_type_id":"4","last_reported":1727186877,"current_range_meters":28400,"station_id":"ce4bhl92rcd13ifvqghg","pricing_plan_id":"cebpf4jnsgd1na2vs0mg"},{"bike_id":"369afc18-44e0-48ce-b680-5fd3b5a8d703","system_id":"levelo_inurba_marseille","lat":43.30146,"lon":5.37405,"is_reserved":false,"is_disabled":false,"rental_uris":{"android":"levelo://app?vid=369afc18-44e0-48ce-b680-5fd3b5a8d703","ios":"levelo://app?vid=369afc18-44e0-48ce-b680-5fd3b5a8d703"},"vehicle_type_id":"4","last_reported":1727186877,"current_range_meters":36000,"station_id":"ce4bgs92rcd13ifvqcc0","pricing_plan_id":"cebpf4jnsgd1na2vs0mg"},{"bike_id":"0d42b10a-3b15-482b-bbe9-82d3ea517263","system_id":"levelo_inurba_marseille","lat":43.25939,"lon":5.40904,"is_reserved":false,"is_disabled":false,"rental_uris":{"android":"levelo://app?vid=0d42b10a-3b15-482b-bbe9-82d3ea517263","ios":"levelo://app?vid=0d42b10a-3b15-482b-bbe9-82d3ea517263"},"vehicle_type_id":"4","last_reported":1727186877,"current_range_meters":28400,"station_id":"ce4bhm92rcd13ifvqglg","pricing_plan_id":"cebpf4jnsgd1na2vs0mg"},{"bike_id":"fe69611f-6ed0-4350-9cf0-f719ab4012ce","system_id":"levelo_inurba_marseille","lat":43.30294,"lon":5.37683,"is_reserved":false,"is_disabled":false,"rental_uris":{"android":"levelo://app?vid=fe69611f-6ed0-4350-9cf0-f719ab4012ce","ios":"levelo://app?vid=fe69611f-6ed0-4350-9cf0-f719ab4012ce"},"vehicle_type_id":"4","last_reported":1727186877,"current_range_meters":38800,"station_id":"ce4bguh2rcd13ifvqcj0","pricing_plan_id":"cebpf4jnsgd1na2vs0mg"},{"bike_id":"c60cd95f-c0b5-446a-899e-654f00fa9ee7","system_id":"levelo_inurba_marseille","lat":43.29686,"lon":5.37883,"is_reserved":false,"is_disabled":false,"rental_uris":{"android":"levelo://app?vid=c60cd95f-c0b5-446a-899e-654f00fa9ee7","ios":"levelo://app?vid=c60cd95f-c0b5-446a-899e-654f00fa9ee7"},"vehicle_type_id":"4","last_reported":1727186877,"current_range_meters":25200,"station_id":"ce4bh412rcd13ifvqdr0","pricing_plan_id":"cebpf4jnsgd1na2vs0mg"},{"bike_id":"9c03e0f0-96c4-48fe-a0c9-2ff39af48c29","system_id":"levelo_inurba_marseille","lat":43.31991,"lon":5.38148,"is_reserved":false,"is_disabled":false,"rental_uris":{"android":"levelo://app?vid=9c03e0f0-96c4-48fe-a0c9-2ff39af48c29","ios":"levelo://app?vid=9c03e0f0-96c4-48fe-a0c9-2ff39af48c29"},"vehicle_type_id":"4","last_reported":1727186877,"current_range_meters":19600,"station_id":"ce4bhr12rcd13ifvqhpg","pricing_plan_id":"cebpf4jnsgd1na2vs0mg"},{"bike_id":"03a3d6e2-992e-47df-a362-63da52ff6ce7","system_id":"levelo_inurba_marseille","lat":43.30542,"lon":5.365284,"is_reserved":false,"is_disabled":false,"rental_uris":{"android":"levelo://app?vid=03a3d6e2-992e-47df-a362-63da52ff6ce7","ios":"levelo://app?vid=03a3d6e2-992e-47df-a362-63da52ff6ce7"},"vehicle_type_id":"4","last_reported":1727186877,"current_range_meters":6800,"station_id":"ce4bgs12rcd13ifvqcag","pricing_plan_id":"cebpf4jnsgd1na2vs0mg"},{"bike_id":"7f34c370-5f95-43b1-ac2a-d78c61294077","system_id":"levelo_inurba_marseille","lat":43.26944,"lon":5.40251,"is_reserved":false,"is_disabled":false,"rental_uris":{"android":"levelo://app?vid=7f34c370-5f95-43b1-ac2a-d78c61294077","ios":"levelo://app?vid=7f34c370-5f95-43b1-ac2a-d78c61294077"},"vehicle_type_id":"4","last_reported":1727186877,"current_range_meters":18000,"station_id":"cjm6bp8fraef2m0cb0m0","pricing_plan_id":"cebpf4jnsgd1na2vs0mg"},{"bike_id":"2ec5f482-ef2f-4ef8-b42f-3ca6cf554387","system_id":"levelo_inurba_marseille","lat":43.31319,"lon":5.39691,"is_reserved":false,"is_disabled":false,"rental_uris":{"android":"levelo://app?vid=2ec5f482-ef2f-4ef8-b42f-3ca6cf554387","ios":"levelo://app?vid=2ec5f482-ef2f-4ef8-b42f-3ca6cf554387"},"vehicle_type_id":"4","last_reported":1727186877,"current_range_meters":39200,"station_id":"ce4bgvp2rcd13ifvqcu0","pricing_plan_id":"cebpf4jnsgd1na2vs0mg"},{"bike_id":"7737b815-6daf-41f0-8354-4b28ba75917f","system_id":"levelo_inurba_marseille","lat":43.30194,"lon":5.3982,"is_reserved":false,"is_disabled":false,"rental_uris":{"android":"levelo://app?vid=7737b815-6daf-41f0-8354-4b28ba75917f","ios":"levelo://app?vid=7737b815-6daf-41f0-8354-4b28ba75917f"},"vehicle_type_id":"4","last_reported":1727186877,"current_range_meters":23200,"station_id":"ce4bgvp2rcd13ifvqct0","pricing_plan_id":"cebpf4jnsgd1na2vs0mg"},{"bike_id":"6af05b22-7037-4454-861c-3b90a9d37c6e","system_id":"levelo_inurba_marseille","lat":43.23155,"lon":5.43705,"is_reserved":false,"is_disabled":false,"rental_uris":{"android":"levelo://app?vid=6af05b22-7037-4454-861c-3b90a9d37c6e","ios":"levelo://app?vid=6af05b22-7037-4454-861c-3b90a9d37c6e"},"vehicle_type_id":"4","last_reported":1727186877,"current_range_meters":20000,"station_id":"ce4bhmp2rcd13ifvqgog","pricing_plan_id":"cebpf4jnsgd1na2vs0mg"},{"bike_id":"33ad4a08-f264-4aa9-bc0a-5c29ae12ed97","system_id":"levelo_inurba_marseille","lat":43.27434,"lon":5.39405,"is_reserved":false,"is_disabled":false,"rental_uris":{"android":"levelo://app?vid=33ad4a08-f264-4aa9-bc0a-5c29ae12ed97","ios":"levelo://app?vid=33ad4a08-f264-4aa9-bc0a-5c29ae12ed97"},"vehicle_type_id":"4","last_reported":1727186877,"current_range_meters":3600,"station_id":"ce4bhdp2rcd13ifvqf20","pricing_plan_id":"cebpf4jnsgd1na2vs0mg"},{"bike_id":"0d7812c6-cd7c-47d1-8275-98743bac5709","system_id":"levelo_inurba_marseille","lat":43.24666,"lon":5.38153,"is_reserved":false,"is_disabled":false,"rental_uris":{"android":"levelo://app?vid=0d7812c6-cd7c-47d1-8275-98743bac5709","ios":"levelo://app?vid=0d7812c6-cd7c-47d1-8275-98743bac5709"},"vehicle_type_id":"4","last_reported":1727186877,"current_range_meters":38000,"station_id":"ce4bhih2rcd13ifvqfr0","pricing_plan_id":"cebpf4jnsgd1na2vs0mg"},{"bike_id":"d4af3188-051f-4a7d-a203-31b3728fca1e","system_id":"levelo_inurba_marseille","lat":43.27076,"lon":5.4227,"is_reserved":false,"is_disabled":false,"rental_uris":{"android":"levelo://app?vid=d4af3188-051f-4a7d-a203-31b3728fca1e","ios":"levelo://app?vid=d4af3188-051f-4a7d-a203-31b3728fca1e"},"vehicle_type_id":"4","last_reported":1727186877,"current_range_meters":36400,"station_id":"ce4bhk92rcd13ifvqgb0","pricing_plan_id":"cebpf4jnsgd1na2vs0mg"},{"bike_id":"619f0b1c-ef95-4aac-b44a-f7e4148e9348","system_id":"levelo_inurba_marseille","lat":43.25823,"lon":5.39441,"is_reserved":false,"is_disabled":false,"rental_uris":{"android":"levelo://app?vid=619f0b1c-ef95-4aac-b44a-f7e4148e9348","ios":"levelo://app?vid=619f0b1c-ef95-4aac-b44a-f7e4148e9348"},"vehicle_type_id":"4","last_reported":1727186877,"current_range_meters":38800,"station_id":"ce4bhip2rcd13ifvqft0","pricing_plan_id":"cebpf4jnsgd1na2vs0mg"},{"bike_id":"12beb852-a2a3-46e0-af3a-8ebf8a47ffbd","system_id":"levelo_inurba_marseille","lat":43.2511,"lon":5.39513,"is_reserved":false,"is_disabled":false,"rental_uris":{"android":"levelo://app?vid=12beb852-a2a3-46e0-af3a-8ebf8a47ffbd","ios":"levelo://app?vid=12beb852-a2a3-46e0-af3a-8ebf8a47ffbd"},"vehicle_type_id":"4","last_reported":1727186877,"current_range_meters":37600,"station_id":"ce4bhhp2rcd13ifvqfm0","pricing_plan_id":"cebpf4jnsgd1na2vs0mg"},{"bike_id":"f8c704cc-636c-4268-80af-5309e4b09904","system_id":"levelo_inurba_marseille","lat":43.24184,"lon":5.39711,"is_reserved":false,"is_disabled":false,"rental_uris":{"android":"levelo://app?vid=f8c704cc-636c-4268-80af-5309e4b09904","ios":"levelo://app?vid=f8c704cc-636c-4268-80af-5309e4b09904"},"vehicle_type_id":"4","last_reported":1727186877,"current_range_meters":36800,"station_id":"ce4bhn12rcd13ifvqgpg","pricing_plan_id":"cebpf4jnsgd1na2vs0mg"},{"bike_id":"5453ff63-c479-4c4f-90a6-2244bf56c8f3","system_id":"levelo_inurba_marseille","lat":43.2707,"lon":5.42278,"is_reserved":false,"is_disabled":false,"rental_uris":{"android":"levelo://app?vid=5453ff63-c479-4c4f-90a6-2244bf56c8f3","ios":"levelo://app?vid=5453ff63-c479-4c4f-90a6-2244bf56c8f3"},"vehicle_type_id":"4","last_reported":1727186877,"current_range_meters":38800,"station_id":"ce4bhk92rcd13ifvqgb0","pricing_plan_id":"cebpf4jnsgd1na2vs0mg"},{"bike_id":"3a2dfdd8-62d6-4dbe-ad36-fd157460bfc5","system_id":"levelo_inurba_marseille","lat":43.28956,"lon":5.36385,"is_reserved":false,"is_disabled":false,"rental_uris":{"android":"levelo://app?vid=3a2dfdd8-62d6-4dbe-ad36-fd157460bfc5","ios":"levelo://app?vid=3a2dfdd8-62d6-4dbe-ad36-fd157460bfc5"},"vehicle_type_id":"4","last_reported":1727186877,"current_range_meters":14000,"station_id":"ce4bhc92rcd13ifvqetg","pricing_plan_id":"cebpf4jnsgd1na2vs0mg"},{"bike_id":"4b6cc228-d3e6-44a3-bee8-b0056aed30bf","system_id":"levelo_inurba_marseille","lat":43.2315,"lon":5.43708,"is_reserved":false,"is_disabled":false,"rental_uris":{"android":"levelo://app?vid=4b6cc228-d3e6-44a3-bee8-b0056aed30bf","ios":"levelo://app?vid=4b6cc228-d3e6-44a3-bee8-b0056aed30bf"},"vehicle_type_id":"4","last_reported":1727186877,"current_range_meters":38800,"station_id":"ce4bhmp2rcd13ifvqgog","pricing_plan_id":"cebpf4jnsgd1na2vs0mg"},{"bike_id":"2b53c05c-7e74-451c-9f0a-5f217febdc56","system_id":"levelo_inurba_marseille","lat":43.30146,"lon":5.3769,"is_reserved":false,"is_disabled":false,"rental_uris":{"android":"levelo://app?vid=2b53c05c-7e74-451c-9f0a-5f217febdc56","ios":"levelo://app?vid=2b53c05c-7e74-451c-9f0a-5f217febdc56"},"vehicle_type_id":"4","last_reported":1727186877,"current_range_meters":8000,"station_id":"","pricing_plan_id":"cebpf4jnsgd1na2vs0mg"},{"bike_id":"7a8458d5-44ac-4f2e-abef-3f01eb31f7ca","system_id":"levelo_inurba_marseille","lat":43.337444,"lon":5.374475,"is_reserved":false,"is_disabled":false,"rental_uris":{"android":"levelo://app?vid=7a8458d5-44ac-4f2e-abef-3f01eb31f7ca","ios":"levelo://app?vid=7a8458d5-44ac-4f2e-abef-3f01eb31f7ca"},"vehicle_type_id":"4","last_reported":1727186877,"current_range_meters":30000,"station_id":"","pricing_plan_id":"cebpf4jnsgd1na2vs0mg"},{"bike_id":"f9e46078-231e-4825-9276-825aff2ebf18","system_id":"levelo_inurba_marseille","lat":43.30422,"lon":5.39745,"is_reserved":false,"is_disabled":false,"rental_uris":{"android":"levelo://app?vid=f9e46078-231e-4825-9276-825aff2ebf18","ios":"levelo://app?vid=f9e46078-231e-4825-9276-825aff2ebf18"},"vehicle_type_id":"4","last_reported":1727186877,"current_range_meters":35600,"station_id":"ce4bh092rcd13ifvqd20","pricing_plan_id":"cebpf4jnsgd1na2vs0mg"},{"bike_id":"ef1087a3-2aa8-49da-a1ea-c5c69068f32c","system_id":"levelo_inurba_marseille","lat":43.26687,"lon":5.38268,"is_reserved":false,"is_disabled":false,"rental_uris":{"android":"levelo://app?vid=ef1087a3-2aa8-49da-a1ea-c5c69068f32c","ios":"levelo://app?vid=ef1087a3-2aa8-49da-a1ea-c5c69068f32c"},"vehicle_type_id":"4","last_reported":1727186877,"current_range_meters":24000,"station_id":"ce4bhg92rcd13ifvqf90","pricing_plan_id":"cebpf4jnsgd1na2vs0mg"},{"bike_id":"ef233245-ae42-4b0e-9559-3a3a4cae4d9f","system_id":"levelo_inurba_marseille","lat":43.29694,"lon":5.37286,"is_reserved":false,"is_disabled":false,"rental_uris":{"android":"levelo://app?vid=ef233245-ae42-4b0e-9559-3a3a4cae4d9f","ios":"levelo://app?vid=ef233245-ae42-4b0e-9559-3a3a4cae4d9f"},"vehicle_type_id":"4","last_reported":1727186877,"current_range_meters":38000,"station_id":"ce4bgk12rcd13ifvqbj0","pricing_plan_id":"cebpf4jnsgd1na2vs0mg"},{"bike_id":"c9b5ec6f-9235-414f-8086-a847b21c71d9","system_id":"levelo_inurba_marseille","lat":43.3032,"lon":5.36899,"is_reserved":false,"is_disabled":false,"rental_uris":{"android":"levelo://app?vid=c9b5ec6f-9235-414f-8086-a847b21c71d9","ios":"levelo://app?vid=c9b5ec6f-9235-414f-8086-a847b21c71d9"},"vehicle_type_id":"4","last_reported":1727186877,"current_range_meters":30000,"station_id":"ce4bgqh2rcd13ifvqc5g","pricing_plan_id":"cebpf4jnsgd1na2vs0mg"},{"bike_id":"8f3b0812-466d-4c3f-ac03-e8f6f5ed06ca","system_id":"levelo_inurba_marseille","lat":43.29876,"lon":5.39731,"is_reserved":false,"is_disabled":false,"rental_uris":{"android":"levelo://app?vid=8f3b0812-466d-4c3f-ac03-e8f6f5ed06ca","ios":"levelo://app?vid=8f3b0812-466d-4c3f-ac03-e8f6f5ed06ca"},"vehicle_type_id":"4","last_reported":1727186877,"current_range_meters":38800,"station_id":"ce4bh0h2rcd13ifvqd50","pricing_plan_id":"cebpf4jnsgd1na2vs0mg"},{"bike_id":"ebf5c734-b1fe-4fcc-88dc-f9132da6918b","system_id":"levelo_inurba_marseille","lat":43.30463,"lon":5.37897,"is_reserved":false,"is_disabled":false,"rental_uris":{"android":"levelo://app?vid=ebf5c734-b1fe-4fcc-88dc-f9132da6918b","ios":"levelo://app?vid=ebf5c734-b1fe-4fcc-88dc-f9132da6918b"},"vehicle_type_id":"4","last_reported":1727186877,"current_range_meters":36800,"station_id":"ce4bgup2rcd13ifvqcn0","pricing_plan_id":"cebpf4jnsgd1na2vs0mg"},{"bike_id":"3a9fadd1-d72d-4760-95a7-ef922057e449","system_id":"levelo_inurba_marseille","lat":43.24544,"lon":5.39521,"is_reserved":false,"is_disabled":false,"rental_uris":{"android":"levelo://app?vid=3a9fadd1-d72d-4760-95a7-ef922057e449","ios":"levelo://app?vid=3a9fadd1-d72d-4760-95a7-ef922057e449"},"vehicle_type_id":"4","last_reported":1727186877,"current_range_meters":14400,"station_id":"ce4bhlp2rcd13ifvqgjg","pricing_plan_id":"cebpf4jnsgd1na2vs0mg"},{"bike_id":"52c997c6-dd4a-4a8c-bbcf-dbeed832e0a2","system_id":"levelo_inurba_marseille","lat":43.32657,"lon":5.40994,"is_reserved":false,"is_disabled":false,"rental_uris":{"android":"levelo://app?vid=52c997c6-dd4a-4a8c-bbcf-dbeed832e0a2","ios":"levelo://app?vid=52c997c6-dd4a-4a8c-bbcf-dbeed832e0a2"},"vehicle_type_id":"4","last_reported":1727186877,"current_range_meters":38400,"station_id":"ce4bhpp2rcd13ifvqhgg","pricing_plan_id":"cebpf4jnsgd1na2vs0mg"},{"bike_id":"b0c817b2-8926-400d-b203-a5046da5a245","system_id":"levelo_inurba_marseille","lat":43.30136,"lon":5.38772,"is_reserved":false,"is_disabled":false,"rental_uris":{"android":"levelo://app?vid=b0c817b2-8926-400d-b203-a5046da5a245","ios":"levelo://app?vid=b0c817b2-8926-400d-b203-a5046da5a245"},"vehicle_type_id":"4","last_reported":1727186877,"current_range_meters":19600,"station_id":"ce4bghh2rcd13ifvqb60","pricing_plan_id":"cebpf4jnsgd1na2vs0mg"},{"bike_id":"c8243bdf-7063-48e0-83f5-bba459ffe98b","system_id":"levelo_inurba_marseille","lat":43.24077,"lon":5.37754,"is_reserved":false,"is_disabled":false,"rental_uris":{"android":"levelo://app?vid=c8243bdf-7063-48e0-83f5-bba459ffe98b","ios":"levelo://app?vid=c8243bdf-7063-48e0-83f5-bba459ffe98b"},"vehicle_type_id":"4","last_reported":1727186877,"current_range_meters":36400,"station_id":"ce4bhnp2rcd13ifvqgvg","pricing_plan_id":"cebpf4jnsgd1na2vs0mg"},{"bike_id":"2bb34e6d-f037-4009-aa61-80dd39e322b7","system_id":"levelo_inurba_marseille","lat":43.31275,"lon":5.40163,"is_reserved":false,"is_disabled":false,"rental_uris":{"android":"levelo://app?vid=2bb34e6d-f037-4009-aa61-80dd39e322b7","ios":"levelo://app?vid=2bb34e6d-f037-4009-aa61-80dd39e322b7"},"vehicle_type_id":"4","last_reported":1727186877,"current_range_meters":36000,"station_id":"ce4bh092rcd13ifvqd30","pricing_plan_id":"cebpf4jnsgd1na2vs0mg"},{"bike_id":"6979d0b4-a1f3-4e96-a880-9fd4f35bf761","system_id":"levelo_inurba_marseille","lat":43.30144,"lon":5.38086,"is_reserved":false,"is_disabled":false,"rental_uris":{"android":"levelo://app?vid=6979d0b4-a1f3-4e96-a880-9fd4f35bf761","ios":"levelo://app?vid=6979d0b4-a1f3-4e96-a880-9fd4f35bf761"},"vehicle_type_id":"4","last_reported":1727186877,"current_range_meters":30400,"station_id":"ce4bgjp2rcd13ifvqbh0","pricing_plan_id":"cebpf4jnsgd1na2vs0mg"},{"bike_id":"0187dbe4-866c-4031-9cbb-94cdd92f6a82","system_id":"levelo_inurba_marseille","lat":43.29258,"lon":5.36662,"is_reserved":false,"is_disabled":false,"rental_uris":{"android":"levelo://app?vid=0187dbe4-866c-4031-9cbb-94cdd92f6a82","ios":"levelo://app?vid=0187dbe4-866c-4031-9cbb-94cdd92f6a82"},"vehicle_type_id":"4","last_reported":1727186877,"current_range_meters":4000,"station_id":"","pricing_plan_id":"cebpf4jnsgd1na2vs0mg"},{"bike_id":"789ed7a5-1a2f-4a59-94d0-ea476a890596","system_id":"levelo_inurba_marseille","lat":43.29794,"lon":5.38095,"is_reserved":false,"is_disabled":false,"rental_uris":{"android":"levelo://app?vid=789ed7a5-1a2f-4a59-94d0-ea476a890596","ios":"levelo://app?vid=789ed7a5-1a2f-4a59-94d0-ea476a890596"},"vehicle_type_id":"4","last_reported":1727186877,"current_range_meters":26000,"station_id":"ce4bgip2rcd13ifvqbb0","pricing_plan_id":"cebpf4jnsgd1na2vs0mg"},{"bike_id":"9fadec36-32c2-40ce-86e3-222ef791ca3d","system_id":"levelo_inurba_marseille","lat":43.29841,"lon":5.36267,"is_reserved":false,"is_disabled":false,"rental_uris":{"android":"levelo://app?vid=9fadec36-32c2-40ce-86e3-222ef791ca3d","ios":"levelo://app?vid=9fadec36-32c2-40ce-86e3-222ef791ca3d"},"vehicle_type_id":"4","last_reported":1727186877,"current_range_meters":24000,"station_id":"ce4bgpp2rcd13ifvqc3g","pricing_plan_id":"cebpf4jnsgd1na2vs0mg"},{"bike_id":"c29db812-a2ba-4b10-8014-dfbcc2e5e72c","system_id":"levelo_inurba_marseille","lat":43.2602,"lon":5.37597,"is_reserved":false,"is_disabled":false,"rental_uris":{"android":"levelo://app?vid=c29db812-a2ba-4b10-8014-dfbcc2e5e72c","ios":"levelo://app?vid=c29db812-a2ba-4b10-8014-dfbcc2e5e72c"},"vehicle_type_id":"4","last_reported":1727186877,"current_range_meters":2800,"station_id":"ce4bhgh2rcd13ifvqfa0","pricing_plan_id":"cebpf4jnsgd1na2vs0mg"},{"bike_id":"704c01b2-69df-4892-aa21-f88b9a3ef048","system_id":"levelo_inurba_marseille","lat":43.29785,"lon":5.38094,"is_reserved":false,"is_disabled":false,"rental_uris":{"android":"levelo://app?vid=704c01b2-69df-4892-aa21-f88b9a3ef048","ios":"levelo://app?vid=704c01b2-69df-4892-aa21-f88b9a3ef048"},"vehicle_type_id":"4","last_reported":1727186877,"current_range_meters":30000,"station_id":"ce4bgip2rcd13ifvqbb0","pricing_plan_id":"cebpf4jnsgd1na2vs0mg"},{"bike_id":"8835589f-726b-4887-977f-f53e9e8b7993","system_id":"levelo_inurba_marseille","lat":43.28725,"lon":5.37921,"is_reserved":false,"is_disabled":false,"rental_uris":{"android":"levelo://app?vid=8835589f-726b-4887-977f-f53e9e8b7993","ios":"levelo://app?vid=8835589f-726b-4887-977f-f53e9e8b7993"},"vehicle_type_id":"4","last_reported":1727186877,"current_range_meters":33600,"station_id":"ce4bh9p2rcd13ifvqec0","pricing_plan_id":"cebpf4jnsgd1na2vs0mg"},{"bike_id":"44a8a61c-997b-400e-8a2b-961413edaa1d","system_id":"levelo_inurba_marseille","lat":43.29846,"lon":5.36266,"is_reserved":false,"is_disabled":false,"rental_uris":{"android":"levelo://app?vid=44a8a61c-997b-400e-8a2b-961413edaa1d","ios":"levelo://app?vid=44a8a61c-997b-400e-8a2b-961413edaa1d"},"vehicle_type_id":"4","last_reported":1727186877,"current_range_meters":40000,"station_id":"ce4bgpp2rcd13ifvqc3g","pricing_plan_id":"cebpf4jnsgd1na2vs0mg"},{"bike_id":"701b1bfd-9432-4576-8470-c50d217c58a7","system_id":"levelo_inurba_marseille","lat":43.30419,"lon":5.41278,"is_reserved":false,"is_disabled":false,"rental_uris":{"android":"levelo://app?vid=701b1bfd-9432-4576-8470-c50d217c58a7","ios":"levelo://app?vid=701b1bfd-9432-4576-8470-c50d217c58a7"},"vehicle_type_id":"4","last_reported":1727186877,"current_range_meters":21600,"station_id":"ce4bhop2rcd13ifvqh8g","pricing_plan_id":"cebpf4jnsgd1na2vs0mg"},{"bike_id":"93a0f687-caa9-4864-9cee-ae16a897e6f9","system_id":"levelo_inurba_marseille","lat":43.25874,"lon":5.39897,"is_reserved":false,"is_disabled":false,"rental_uris":{"android":"levelo://app?vid=93a0f687-caa9-4864-9cee-ae16a897e6f9","ios":"levelo://app?vid=93a0f687-caa9-4864-9cee-ae16a897e6f9"},"vehicle_type_id":"4","last_reported":1727186877,"current_range_meters":40000,"station_id":"ce4bhl92rcd13ifvqghg","pricing_plan_id":"cebpf4jnsgd1na2vs0mg"},{"bike_id":"82485995-fe24-4e7e-8681-27eeb66115bf","system_id":"levelo_inurba_marseille","lat":43.32543,"lon":5.41445,"is_reserved":false,"is_disabled":false,"rental_uris":{"android":"levelo://app?vid=82485995-fe24-4e7e-8681-27eeb66115bf","ios":"levelo://app?vid=82485995-fe24-4e7e-8681-27eeb66115bf"},"vehicle_type_id":"4","last_reported":1727186877,"current_range_meters":16400,"station_id":"ce4bhq12rcd13ifvqhhg","pricing_plan_id":"cebpf4jnsgd1na2vs0mg"},{"bike_id":"d328f94c-de67-45d6-8d40-f4a5f667556b","system_id":"levelo_inurba_marseille","lat":43.29937,"lon":5.36542,"is_reserved":false,"is_disabled":false,"rental_uris":{"android":"levelo://app?vid=d328f94c-de67-45d6-8d40-f4a5f667556b","ios":"levelo://app?vid=d328f94c-de67-45d6-8d40-f4a5f667556b"},"vehicle_type_id":"4","last_reported":1727186877,"current_range_meters":35200,"station_id":"ce4bgm92rcd13ifvqbr0","pricing_plan_id":"cebpf4jnsgd1na2vs0mg"},{"bike_id":"974d1c82-aeec-4e5f-b789-913351a73290","system_id":"levelo_inurba_marseille","lat":43.29212,"lon":5.37319,"is_reserved":false,"is_disabled":false,"rental_uris":{"android":"levelo://app?vid=974d1c82-aeec-4e5f-b789-913351a73290","ios":"levelo://app?vid=974d1c82-aeec-4e5f-b789-913351a73290"},"vehicle_type_id":"4","last_reported":1727186877,"current_range_meters":36000,"station_id":"","pricing_plan_id":"cebpf4jnsgd1na2vs0mg"},{"bike_id":"00cd35ef-952b-4788-94fe-dbb3cb5fa024","system_id":"levelo_inurba_marseille","lat":43.24547,"lon":5.39525,"is_reserved":false,"is_disabled":false,"rental_uris":{"android":"levelo://app?vid=00cd35ef-952b-4788-94fe-dbb3cb5fa024","ios":"levelo://app?vid=00cd35ef-952b-4788-94fe-dbb3cb5fa024"},"vehicle_type_id":"4","last_reported":1727186877,"current_range_meters":26000,"station_id":"ce4bhlp2rcd13ifvqgjg","pricing_plan_id":"cebpf4jnsgd1na2vs0mg"},{"bike_id":"327daea1-857b-4e55-b31e-8ea06521088f","system_id":"levelo_inurba_marseille","lat":43.293791,"lon":5.378506,"is_reserved":false,"is_disabled":false,"rental_uris":{"android":"levelo://app?vid=327daea1-857b-4e55-b31e-8ea06521088f","ios":"levelo://app?vid=327daea1-857b-4e55-b31e-8ea06521088f"},"vehicle_type_id":"4","last_reported":1727186877,"current_range_meters":30800,"station_id":"ce4bgi12rcd13ifvqb70","pricing_plan_id":"cebpf4jnsgd1na2vs0mg"},{"bike_id":"da22e4d4-13b9-43c6-ae1c-b6e9ea7cfba5","system_id":"levelo_inurba_marseille","lat":43.29962,"lon":5.41315,"is_reserved":false,"is_disabled":false,"rental_uris":{"android":"levelo://app?vid=da22e4d4-13b9-43c6-ae1c-b6e9ea7cfba5","ios":"levelo://app?vid=da22e4d4-13b9-43c6-ae1c-b6e9ea7cfba5"},"vehicle_type_id":"4","last_reported":1727186877,"current_range_meters":32400,"station_id":"ce4bhp12rcd13ifvqh9g","pricing_plan_id":"cebpf4jnsgd1na2vs0mg"},{"bike_id":"2da24b92-3734-492c-9a6c-8b09da92c194","system_id":"levelo_inurba_marseille","lat":43.337444,"lon":5.374475,"is_reserved":false,"is_disabled":false,"rental_uris":{"android":"levelo://app?vid=2da24b92-3734-492c-9a6c-8b09da92c194","ios":"levelo://app?vid=2da24b92-3734-492c-9a6c-8b09da92c194"},"vehicle_type_id":"4","last_reported":1727186877,"current_range_meters":26000,"station_id":"","pricing_plan_id":"cebpf4jnsgd1na2vs0mg"},{"bike_id":"3c8b0282-d0f9-46f6-8aeb-03cabe2a4232","system_id":"levelo_inurba_marseille","lat":43.30965,"lon":5.3904,"is_reserved":false,"is_disabled":false,"rental_uris":{"android":"levelo://app?vid=3c8b0282-d0f9-46f6-8aeb-03cabe2a4232","ios":"levelo://app?vid=3c8b0282-d0f9-46f6-8aeb-03cabe2a4232"},"vehicle_type_id":"4","last_reported":1727186877,"current_range_meters":16800,"station_id":"ce4bgup2rcd13ifvqco0","pricing_plan_id":"cebpf4jnsgd1na2vs0mg"},{"bike_id":"3562c94c-13de-4c40-8f81-fd1c17271f5f","system_id":"levelo_inurba_marseille","lat":43.30133,"lon":5.39855,"is_reserved":false,"is_disabled":false,"rental_uris":{"android":"levelo://app?vid=3562c94c-13de-4c40-8f81-fd1c17271f5f","ios":"levelo://app?vid=3562c94c-13de-4c40-8f81-fd1c17271f5f"},"vehicle_type_id":"4","last_reported":1727186877,"current_range_meters":29600,"station_id":"ce4bh0h2rcd13ifvqd40","pricing_plan_id":"cebpf4jnsgd1na2vs0mg"},{"bike_id":"41c56f05-dcf4-4d87-ad1f-93ddeb78b1a7","system_id":"levelo_inurba_marseille","lat":43.294159,"lon":5.386258,"is_reserved":false,"is_disabled":false,"rental_uris":{"android":"levelo://app?vid=41c56f05-dcf4-4d87-ad1f-93ddeb78b1a7","ios":"levelo://app?vid=41c56f05-dcf4-4d87-ad1f-93ddeb78b1a7"},"vehicle_type_id":"4","last_reported":1727186877,"current_range_meters":18000,"station_id":"ce4bh2h2rcd13ifvqdh0","pricing_plan_id":"cebpf4jnsgd1na2vs0mg"},{"bike_id":"7968a01e-3da3-4d3d-a555-860a9066911a","system_id":"levelo_inurba_marseille","lat":43.31,"lon":5.41971,"is_reserved":false,"is_disabled":false,"rental_uris":{"android":"levelo://app?vid=7968a01e-3da3-4d3d-a555-860a9066911a","ios":"levelo://app?vid=7968a01e-3da3-4d3d-a555-860a9066911a"},"vehicle_type_id":"4","last_reported":1727186877,"current_range_meters":24800,"station_id":"ce4bhp92rcd13ifvqhcg","pricing_plan_id":"cebpf4jnsgd1na2vs0mg"},{"bike_id":"28c3d80b-7bc2-46c7-9101-53d18beb78db","system_id":"levelo_inurba_marseille","lat":43.29035,"lon":5.37556,"is_reserved":false,"is_disabled":false,"rental_uris":{"android":"levelo://app?vid=28c3d80b-7bc2-46c7-9101-53d18beb78db","ios":"levelo://app?vid=28c3d80b-7bc2-46c7-9101-53d18beb78db"},"vehicle_type_id":"4","last_reported":1727186877,"current_range_meters":18800,"station_id":"ce4bh692rcd13ifvqe90","pricing_plan_id":"cebpf4jnsgd1na2vs0mg"},{"bike_id":"48839b17-3761-419a-af8e-29104301ca49","system_id":"levelo_inurba_marseille","lat":43.31475,"lon":5.37319,"is_reserved":false,"is_disabled":false,"rental_uris":{"android":"levelo://app?vid=48839b17-3761-419a-af8e-29104301ca49","ios":"levelo://app?vid=48839b17-3761-419a-af8e-29104301ca49"},"vehicle_type_id":"4","last_reported":1727186877,"current_range_meters":25200,"station_id":"ce4bgt12rcd13ifvqcd0","pricing_plan_id":"cebpf4jnsgd1na2vs0mg"},{"bike_id":"37b0d8d0-c4f1-4cc9-b2aa-a2ae7067f0b7","system_id":"levelo_inurba_marseille","lat":43.298993,"lon":5.403452,"is_reserved":false,"is_disabled":false,"rental_uris":{"android":"levelo://app?vid=37b0d8d0-c4f1-4cc9-b2aa-a2ae7067f0b7","ios":"levelo://app?vid=37b0d8d0-c4f1-4cc9-b2aa-a2ae7067f0b7"},"vehicle_type_id":"4","last_reported":1727186877,"current_range_meters":19600,"station_id":"ce4bh112rcd13ifvqd90","pricing_plan_id":"cebpf4jnsgd1na2vs0mg"},{"bike_id":"85ba78b5-6d03-4323-a13b-6e9229fb06aa","system_id":"levelo_inurba_marseille","lat":43.30133,"lon":5.39855,"is_reserved":false,"is_disabled":false,"rental_uris":{"android":"levelo://app?vid=85ba78b5-6d03-4323-a13b-6e9229fb06aa","ios":"levelo://app?vid=85ba78b5-6d03-4323-a13b-6e9229fb06aa"},"vehicle_type_id":"4","last_reported":1727186877,"current_range_meters":30800,"station_id":"ce4bh0h2rcd13ifvqd40","pricing_plan_id":"cebpf4jnsgd1na2vs0mg"},{"bike_id":"c00cbaf3-673a-41dc-aefd-e91c0d90b257","system_id":"levelo_inurba_marseille","lat":43.23063,"lon":5.35493,"is_reserved":false,"is_disabled":false,"rental_uris":{"android":"levelo://app?vid=c00cbaf3-673a-41dc-aefd-e91c0d90b257","ios":"levelo://app?vid=c00cbaf3-673a-41dc-aefd-e91c0d90b257"},"vehicle_type_id":"4","last_reported":1727186877,"current_range_meters":28000,"station_id":"cpo3342slgdg3j2ifvpg","pricing_plan_id":"cebpf4jnsgd1na2vs0mg"},{"bike_id":"76a852ec-e60b-49c4-a0c5-0eb314c5c3be","system_id":"levelo_inurba_marseille","lat":43.30283,"lon":5.37708,"is_reserved":false,"is_disabled":false,"rental_uris":{"android":"levelo://app?vid=76a852ec-e60b-49c4-a0c5-0eb314c5c3be","ios":"levelo://app?vid=76a852ec-e60b-49c4-a0c5-0eb314c5c3be"},"vehicle_type_id":"4","last_reported":1727186877,"current_range_meters":37600,"station_id":"ce4bguh2rcd13ifvqcj0","pricing_plan_id":"cebpf4jnsgd1na2vs0mg"},{"bike_id":"4fc4516c-007e-486f-8318-b2726a459bdc","system_id":"levelo_inurba_marseille","lat":43.29535,"lon":5.38539,"is_reserved":false,"is_disabled":false,"rental_uris":{"android":"levelo://app?vid=4fc4516c-007e-486f-8318-b2726a459bdc","ios":"levelo://app?vid=4fc4516c-007e-486f-8318-b2726a459bdc"},"vehicle_type_id":"4","last_reported":1727186877,"current_range_meters":6400,"station_id":"ce4bgih2rcd13ifvqba0","pricing_plan_id":"cebpf4jnsgd1na2vs0mg"},{"bike_id":"1cf9c6ad-a18e-4581-966a-e4580ac983e8","system_id":"levelo_inurba_marseille","lat":43.3015,"lon":5.38079,"is_reserved":false,"is_disabled":false,"rental_uris":{"android":"levelo://app?vid=1cf9c6ad-a18e-4581-966a-e4580ac983e8","ios":"levelo://app?vid=1cf9c6ad-a18e-4581-966a-e4580ac983e8"},"vehicle_type_id":"4","last_reported":1727186877,"current_range_meters":36400,"station_id":"ce4bgjp2rcd13ifvqbh0","pricing_plan_id":"cebpf4jnsgd1na2vs0mg"},{"bike_id":"ecb70881-b110-48a8-b751-24b4690d4031","system_id":"levelo_inurba_marseille","lat":43.23194,"lon":5.39975,"is_reserved":false,"is_disabled":false,"rental_uris":{"android":"levelo://app?vid=ecb70881-b110-48a8-b751-24b4690d4031","ios":"levelo://app?vid=ecb70881-b110-48a8-b751-24b4690d4031"},"vehicle_type_id":"4","last_reported":1727186877,"current_range_meters":11600,"station_id":"ce4bhn12rcd13ifvqgqg","pricing_plan_id":"cebpf4jnsgd1na2vs0mg"},{"bike_id":"25bd7405-be80-4a77-a761-8a1efed52652","system_id":"levelo_inurba_marseille","lat":43.29896,"lon":5.43658,"is_reserved":false,"is_disabled":false,"rental_uris":{"android":"levelo://app?vid=25bd7405-be80-4a77-a761-8a1efed52652","ios":"levelo://app?vid=25bd7405-be80-4a77-a761-8a1efed52652"},"vehicle_type_id":"4","last_reported":1727186877,"current_range_meters":12400,"station_id":"ce4bhpp2rcd13ifvqhfg","pricing_plan_id":"cebpf4jnsgd1na2vs0mg"},{"bike_id":"96086254-c636-4e5b-8975-25742631d3ee","system_id":"levelo_inurba_marseille","lat":43.23156,"lon":5.43698,"is_reserved":false,"is_disabled":false,"rental_uris":{"android":"levelo://app?vid=96086254-c636-4e5b-8975-25742631d3ee","ios":"levelo://app?vid=96086254-c636-4e5b-8975-25742631d3ee"},"vehicle_type_id":"4","last_reported":1727186877,"current_range_meters":16800,"station_id":"ce4bhmp2rcd13ifvqgog","pricing_plan_id":"cebpf4jnsgd1na2vs0mg"},{"bike_id":"04258772-fff9-4b5d-bd6f-cecfe6976c2b","system_id":"levelo_inurba_marseille","lat":43.32488,"lon":5.36567,"is_reserved":false,"is_disabled":false,"rental_uris":{"android":"levelo://app?vid=04258772-fff9-4b5d-bd6f-cecfe6976c2b","ios":"levelo://app?vid=04258772-fff9-4b5d-bd6f-cecfe6976c2b"},"vehicle_type_id":"4","last_reported":1727186877,"current_range_meters":6800,"station_id":"ce4bhs12rcd13ifvqhvg","pricing_plan_id":"cebpf4jnsgd1na2vs0mg"},{"bike_id":"a1dacc97-ea0d-4276-a0fd-f91a0191cd9e","system_id":"levelo_inurba_marseille","lat":43.30315,"lon":5.36904,"is_reserved":false,"is_disabled":false,"rental_uris":{"android":"levelo://app?vid=a1dacc97-ea0d-4276-a0fd-f91a0191cd9e","ios":"levelo://app?vid=a1dacc97-ea0d-4276-a0fd-f91a0191cd9e"},"vehicle_type_id":"4","last_reported":1727186877,"current_range_meters":28800,"station_id":"ce4bgqh2rcd13ifvqc5g","pricing_plan_id":"cebpf4jnsgd1na2vs0mg"},{"bike_id":"162ee78d-83e3-4081-92bd-328649d7b4ba","system_id":"levelo_inurba_marseille","lat":43.31758,"lon":5.39012,"is_reserved":false,"is_disabled":false,"rental_uris":{"android":"levelo://app?vid=162ee78d-83e3-4081-92bd-328649d7b4ba","ios":"levelo://app?vid=162ee78d-83e3-4081-92bd-328649d7b4ba"},"vehicle_type_id":"4","last_reported":1727186877,"current_range_meters":12400,"station_id":"ce4bhqp2rcd13ifvqhng","pricing_plan_id":"cebpf4jnsgd1na2vs0mg"},{"bike_id":"633f2106-a60c-40e6-8cfb-64f986a9b453","system_id":"levelo_inurba_marseille","lat":43.30906,"lon":5.36866,"is_reserved":false,"is_disabled":false,"rental_uris":{"android":"levelo://app?vid=633f2106-a60c-40e6-8cfb-64f986a9b453","ios":"levelo://app?vid=633f2106-a60c-40e6-8cfb-64f986a9b453"},"vehicle_type_id":"4","last_reported":1727186877,"current_range_meters":31200,"station_id":"ce4bgn92rcd13ifvqbvg","pricing_plan_id":"cebpf4jnsgd1na2vs0mg"},{"bike_id":"589e44a5-6f27-40f9-9044-51060020ce52","system_id":"levelo_inurba_marseille","lat":43.2953,"lon":5.38531,"is_reserved":false,"is_disabled":false,"rental_uris":{"android":"levelo://app?vid=589e44a5-6f27-40f9-9044-51060020ce52","ios":"levelo://app?vid=589e44a5-6f27-40f9-9044-51060020ce52"},"vehicle_type_id":"4","last_reported":1727186877,"current_range_meters":30000,"station_id":"ce4bgih2rcd13ifvqba0","pricing_plan_id":"cebpf4jnsgd1na2vs0mg"},{"bike_id":"c013ebca-44ce-48f9-9527-e29268335c11","system_id":"levelo_inurba_marseille","lat":43.30257,"lon":5.40081,"is_reserved":false,"is_disabled":false,"rental_uris":{"android":"levelo://app?vid=c013ebca-44ce-48f9-9527-e29268335c11","ios":"levelo://app?vid=c013ebca-44ce-48f9-9527-e29268335c11"},"vehicle_type_id":"4","last_reported":1727186877,"current_range_meters":23200,"station_id":"ce4bgvh2rcd13ifvqcs0","pricing_plan_id":"cebpf4jnsgd1na2vs0mg"},{"bike_id":"eea2cd5a-ea70-49e4-b38f-c464fb6c5cc3","system_id":"levelo_inurba_marseille","lat":43.337444,"lon":5.374475,"is_reserved":false,"is_disabled":false,"rental_uris":{"android":"levelo://app?vid=eea2cd5a-ea70-49e4-b38f-c464fb6c5cc3","ios":"levelo://app?vid=eea2cd5a-ea70-49e4-b38f-c464fb6c5cc3"},"vehicle_type_id":"4","last_reported":1727186877,"current_range_meters":34000,"station_id":"","pricing_plan_id":"cebpf4jnsgd1na2vs0mg"},{"bike_id":"56ca6ae0-f5c2-4073-bc76-be3067eed049","system_id":"levelo_inurba_marseille","lat":43.29555,"lon":5.42292,"is_reserved":false,"is_disabled":false,"rental_uris":{"android":"levelo://app?vid=56ca6ae0-f5c2-4073-bc76-be3067eed049","ios":"levelo://app?vid=56ca6ae0-f5c2-4073-bc76-be3067eed049"},"vehicle_type_id":"4","last_reported":1727186877,"current_range_meters":17200,"station_id":"ce4bhph2rcd13ifvqhdg","pricing_plan_id":"cebpf4jnsgd1na2vs0mg"},{"bike_id":"0fd37ee7-fe90-492f-8922-6e6751318a04","system_id":"levelo_inurba_marseille","lat":43.2512,"lon":5.40324,"is_reserved":false,"is_disabled":false,"rental_uris":{"android":"levelo://app?vid=0fd37ee7-fe90-492f-8922-6e6751318a04","ios":"levelo://app?vid=0fd37ee7-fe90-492f-8922-6e6751318a04"},"vehicle_type_id":"4","last_reported":1727186877,"current_range_meters":9600,"station_id":"ce4bhlh2rcd13ifvqgig","pricing_plan_id":"cebpf4jnsgd1na2vs0mg"},{"bike_id":"056e4c10-af03-42fd-91c9-66cb1cb5b3b8","system_id":"levelo_inurba_marseille","lat":43.2963,"lon":5.40594,"is_reserved":false,"is_disabled":false,"rental_uris":{"android":"levelo://app?vid=056e4c10-af03-42fd-91c9-66cb1cb5b3b8","ios":"levelo://app?vid=056e4c10-af03-42fd-91c9-66cb1cb5b3b8"},"vehicle_type_id":"4","last_reported":1727186877,"current_range_meters":22800,"station_id":"ce4bh0h2rcd13ifvqd60","pricing_plan_id":"cebpf4jnsgd1na2vs0mg"},{"bike_id":"82978c1d-5ebd-4a11-a8d4-3abf17b50e03","system_id":"levelo_inurba_marseille","lat":43.29899,"lon":5.38155,"is_reserved":false,"is_disabled":false,"rental_uris":{"android":"levelo://app?vid=82978c1d-5ebd-4a11-a8d4-3abf17b50e03","ios":"levelo://app?vid=82978c1d-5ebd-4a11-a8d4-3abf17b50e03"},"vehicle_type_id":"4","last_reported":1727186877,"current_range_meters":8400,"station_id":"ce4bgj12rcd13ifvqbc0","pricing_plan_id":"cebpf4jnsgd1na2vs0mg"},{"bike_id":"f28b0708-b33c-4eba-9cec-88144f3bb200","system_id":"levelo_inurba_marseille","lat":43.30312,"lon":5.36889,"is_reserved":false,"is_disabled":false,"rental_uris":{"android":"levelo://app?vid=f28b0708-b33c-4eba-9cec-88144f3bb200","ios":"levelo://app?vid=f28b0708-b33c-4eba-9cec-88144f3bb200"},"vehicle_type_id":"4","last_reported":1727186877,"current_range_meters":23200,"station_id":"ce4bgqh2rcd13ifvqc5g","pricing_plan_id":"cebpf4jnsgd1na2vs0mg"},{"bike_id":"11792274-c4e1-4dcb-b2a1-424fa6a64f5a","system_id":"levelo_inurba_marseille","lat":43.25935,"lon":5.40896,"is_reserved":false,"is_disabled":false,"rental_uris":{"android":"levelo://app?vid=11792274-c4e1-4dcb-b2a1-424fa6a64f5a","ios":"levelo://app?vid=11792274-c4e1-4dcb-b2a1-424fa6a64f5a"},"vehicle_type_id":"4","last_reported":1727186877,"current_range_meters":14000,"station_id":"ce4bhm92rcd13ifvqglg","pricing_plan_id":"cebpf4jnsgd1na2vs0mg"},{"bike_id":"e59a9260-c0b5-4ade-b8d9-6965b1134efc","system_id":"levelo_inurba_marseille","lat":43.27435,"lon":5.39405,"is_reserved":false,"is_disabled":false,"rental_uris":{"android":"levelo://app?vid=e59a9260-c0b5-4ade-b8d9-6965b1134efc","ios":"levelo://app?vid=e59a9260-c0b5-4ade-b8d9-6965b1134efc"},"vehicle_type_id":"4","last_reported":1727186877,"current_range_meters":38800,"station_id":"ce4bhdp2rcd13ifvqf20","pricing_plan_id":"cebpf4jnsgd1na2vs0mg"},{"bike_id":"487537f2-89c2-4030-a61c-a25bc2c893bb","system_id":"levelo_inurba_marseille","lat":43.23187,"lon":5.39974,"is_reserved":false,"is_disabled":false,"rental_uris":{"android":"levelo://app?vid=487537f2-89c2-4030-a61c-a25bc2c893bb","ios":"levelo://app?vid=487537f2-89c2-4030-a61c-a25bc2c893bb"},"vehicle_type_id":"4","last_reported":1727186877,"current_range_meters":19200,"station_id":"ce4bhn12rcd13ifvqgqg","pricing_plan_id":"cebpf4jnsgd1na2vs0mg"},{"bike_id":"535244bd-764a-44d0-b71a-dcceb073c8f2","system_id":"levelo_inurba_marseille","lat":43.30151,"lon":5.38087,"is_reserved":false,"is_disabled":false,"rental_uris":{"android":"levelo://app?vid=535244bd-764a-44d0-b71a-dcceb073c8f2","ios":"levelo://app?vid=535244bd-764a-44d0-b71a-dcceb073c8f2"},"vehicle_type_id":"4","last_reported":1727186877,"current_range_meters":32400,"station_id":"ce4bgjp2rcd13ifvqbh0","pricing_plan_id":"cebpf4jnsgd1na2vs0mg"},{"bike_id":"7c9a4792-77f4-4203-8552-63291b4c03f1","system_id":"levelo_inurba_marseille","lat":43.3096,"lon":5.39035,"is_reserved":false,"is_disabled":false,"rental_uris":{"android":"levelo://app?vid=7c9a4792-77f4-4203-8552-63291b4c03f1","ios":"levelo://app?vid=7c9a4792-77f4-4203-8552-63291b4c03f1"},"vehicle_type_id":"4","last_reported":1727186877,"current_range_meters":38800,"station_id":"ce4bgup2rcd13ifvqco0","pricing_plan_id":"cebpf4jnsgd1na2vs0mg"},{"bike_id":"3e9bdb3f-f70c-43af-9d90-e67f982e8cfd","system_id":"levelo_inurba_marseille","lat":43.33026,"lon":5.39038,"is_reserved":false,"is_disabled":false,"rental_uris":{"android":"levelo://app?vid=3e9bdb3f-f70c-43af-9d90-e67f982e8cfd","ios":"levelo://app?vid=3e9bdb3f-f70c-43af-9d90-e67f982e8cfd"},"vehicle_type_id":"4","last_reported":1727186877,"current_range_meters":38800,"station_id":"ce4bhr92rcd13ifvqhrg","pricing_plan_id":"cebpf4jnsgd1na2vs0mg"},{"bike_id":"01328d1a-46e2-4abc-b12b-32bf41357606","system_id":"levelo_inurba_marseille","lat":43.30538,"lon":5.36697,"is_reserved":false,"is_disabled":false,"rental_uris":{"android":"levelo://app?vid=01328d1a-46e2-4abc-b12b-32bf41357606","ios":"levelo://app?vid=01328d1a-46e2-4abc-b12b-32bf41357606"},"vehicle_type_id":"4","last_reported":1727186877,"current_range_meters":28000,"station_id":"ce4bgrp2rcd13ifvqc9g","pricing_plan_id":"cebpf4jnsgd1na2vs0mg"},{"bike_id":"127ad052-b06c-436d-b7c9-c4d04199fbe5","system_id":"levelo_inurba_marseille","lat":43.30351,"lon":5.41869,"is_reserved":false,"is_disabled":false,"rental_uris":{"android":"levelo://app?vid=127ad052-b06c-436d-b7c9-c4d04199fbe5","ios":"levelo://app?vid=127ad052-b06c-436d-b7c9-c4d04199fbe5"},"vehicle_type_id":"4","last_reported":1727186877,"current_range_meters":39200,"station_id":"ce4bhop2rcd13ifvqh7g","pricing_plan_id":"cebpf4jnsgd1na2vs0mg"},{"bike_id":"495c8f04-baa0-4d04-b6e9-fa5581cfae30","system_id":"levelo_inurba_marseille","lat":43.30148,"lon":5.38088,"is_reserved":false,"is_disabled":false,"rental_uris":{"android":"levelo://app?vid=495c8f04-baa0-4d04-b6e9-fa5581cfae30","ios":"levelo://app?vid=495c8f04-baa0-4d04-b6e9-fa5581cfae30"},"vehicle_type_id":"4","last_reported":1727186877,"current_range_meters":38400,"station_id":"ce4bgjp2rcd13ifvqbh0","pricing_plan_id":"cebpf4jnsgd1na2vs0mg"},{"bike_id":"37aa31e2-23a7-4d4d-aa1e-19037c5f0a74","system_id":"levelo_inurba_marseille","lat":43.28155,"lon":5.42646,"is_reserved":false,"is_disabled":false,"rental_uris":{"android":"levelo://app?vid=37aa31e2-23a7-4d4d-aa1e-19037c5f0a74","ios":"levelo://app?vid=37aa31e2-23a7-4d4d-aa1e-19037c5f0a74"},"vehicle_type_id":"4","last_reported":1727186877,"current_range_meters":38000,"station_id":"ce4bhnh2rcd13ifvqgug","pricing_plan_id":"cebpf4jnsgd1na2vs0mg"},{"bike_id":"c183ae82-8049-4569-8819-313d6db3d0d0","system_id":"levelo_inurba_marseille","lat":43.30266,"lon":5.40075,"is_reserved":false,"is_disabled":false,"rental_uris":{"android":"levelo://app?vid=c183ae82-8049-4569-8819-313d6db3d0d0","ios":"levelo://app?vid=c183ae82-8049-4569-8819-313d6db3d0d0"},"vehicle_type_id":"4","last_reported":1727186877,"current_range_meters":10800,"station_id":"ce4bgvh2rcd13ifvqcs0","pricing_plan_id":"cebpf4jnsgd1na2vs0mg"},{"bike_id":"84f0e2bf-ec77-43e1-ac6e-d2df4cdab65b","system_id":"levelo_inurba_marseille","lat":43.26681,"lon":5.38271,"is_reserved":false,"is_disabled":false,"rental_uris":{"android":"levelo://app?vid=84f0e2bf-ec77-43e1-ac6e-d2df4cdab65b","ios":"levelo://app?vid=84f0e2bf-ec77-43e1-ac6e-d2df4cdab65b"},"vehicle_type_id":"4","last_reported":1727186877,"current_range_meters":27600,"station_id":"ce4bhg92rcd13ifvqf90","pricing_plan_id":"cebpf4jnsgd1na2vs0mg"},{"bike_id":"79bcaa11-5bd1-4017-8b8c-500765939b0d","system_id":"levelo_inurba_marseille","lat":43.28714,"lon":5.37932,"is_reserved":false,"is_disabled":false,"rental_uris":{"android":"levelo://app?vid=79bcaa11-5bd1-4017-8b8c-500765939b0d","ios":"levelo://app?vid=79bcaa11-5bd1-4017-8b8c-500765939b0d"},"vehicle_type_id":"4","last_reported":1727186877,"current_range_meters":21600,"station_id":"ce4bh9p2rcd13ifvqec0","pricing_plan_id":"cebpf4jnsgd1na2vs0mg"},{"bike_id":"3383b101-4048-4ebd-ba67-7e9b9aafc9f9","system_id":"levelo_inurba_marseille","lat":43.24397,"lon":5.37075,"is_reserved":false,"is_disabled":false,"rental_uris":{"android":"levelo://app?vid=3383b101-4048-4ebd-ba67-7e9b9aafc9f9","ios":"levelo://app?vid=3383b101-4048-4ebd-ba67-7e9b9aafc9f9"},"vehicle_type_id":"4","last_reported":1727186877,"current_range_meters":30800,"station_id":"ce4bhhh2rcd13ifvqfk0","pricing_plan_id":"cebpf4jnsgd1na2vs0mg"},{"bike_id":"1708da86-731a-4bc9-bf80-816dbb57474f","system_id":"levelo_inurba_marseille","lat":43.29069,"lon":5.37172,"is_reserved":false,"is_disabled":false,"rental_uris":{"android":"levelo://app?vid=1708da86-731a-4bc9-bf80-816dbb57474f","ios":"levelo://app?vid=1708da86-731a-4bc9-bf80-816dbb57474f"},"vehicle_type_id":"4","last_reported":1727186877,"current_range_meters":18800,"station_id":"ce4bh5p2rcd13ifvqe4g","pricing_plan_id":"cebpf4jnsgd1na2vs0mg"},{"bike_id":"e9ecddf9-5c7c-4b1d-b61b-e6f2cb758e87","system_id":"levelo_inurba_marseille","lat":43.24079,"lon":5.37736,"is_reserved":false,"is_disabled":false,"rental_uris":{"android":"levelo://app?vid=e9ecddf9-5c7c-4b1d-b61b-e6f2cb758e87","ios":"levelo://app?vid=e9ecddf9-5c7c-4b1d-b61b-e6f2cb758e87"},"vehicle_type_id":"4","last_reported":1727186877,"current_range_meters":28800,"station_id":"ce4bhnp2rcd13ifvqgvg","pricing_plan_id":"cebpf4jnsgd1na2vs0mg"},{"bike_id":"cb582a3a-b9db-4e1d-bed8-998e91871868","system_id":"levelo_inurba_marseille","lat":43.24548,"lon":5.39525,"is_reserved":false,"is_disabled":false,"rental_uris":{"android":"levelo://app?vid=cb582a3a-b9db-4e1d-bed8-998e91871868","ios":"levelo://app?vid=cb582a3a-b9db-4e1d-bed8-998e91871868"},"vehicle_type_id":"4","last_reported":1727186877,"current_range_meters":2800,"station_id":"ce4bhlp2rcd13ifvqgjg","pricing_plan_id":"cebpf4jnsgd1na2vs0mg"},{"bike_id":"664c1492-4c06-4350-b400-91571a357f51","system_id":"levelo_inurba_marseille","lat":43.29839,"lon":5.36261,"is_reserved":false,"is_disabled":false,"rental_uris":{"android":"levelo://app?vid=664c1492-4c06-4350-b400-91571a357f51","ios":"levelo://app?vid=664c1492-4c06-4350-b400-91571a357f51"},"vehicle_type_id":"4","last_reported":1727186877,"current_range_meters":37600,"station_id":"ce4bgpp2rcd13ifvqc3g","pricing_plan_id":"cebpf4jnsgd1na2vs0mg"},{"bike_id":"efb5138c-24cb-4ffa-a035-10362f9713f8","system_id":"levelo_inurba_marseille","lat":43.26789,"lon":5.39429,"is_reserved":false,"is_disabled":false,"rental_uris":{"android":"levelo://app?vid=efb5138c-24cb-4ffa-a035-10362f9713f8","ios":"levelo://app?vid=efb5138c-24cb-4ffa-a035-10362f9713f8"},"vehicle_type_id":"4","last_reported":1727186877,"current_range_meters":35600,"station_id":"ce4bhh12rcd13ifvqfg0","pricing_plan_id":"cebpf4jnsgd1na2vs0mg"},{"bike_id":"ecc3b6a5-7051-4d82-afff-f1509eafc6bc","system_id":"levelo_inurba_marseille","lat":43.290796,"lon":5.371551,"is_reserved":false,"is_disabled":false,"rental_uris":{"android":"levelo://app?vid=ecc3b6a5-7051-4d82-afff-f1509eafc6bc","ios":"levelo://app?vid=ecc3b6a5-7051-4d82-afff-f1509eafc6bc"},"vehicle_type_id":"4","last_reported":1727186877,"current_range_meters":10800,"station_id":"ce4bh5p2rcd13ifvqe4g","pricing_plan_id":"cebpf4jnsgd1na2vs0mg"},{"bike_id":"7188cc5d-7fd6-4e78-8d4e-521d4d1d865a","system_id":"levelo_inurba_marseille","lat":43.303151,"lon":5.369023,"is_reserved":false,"is_disabled":false,"rental_uris":{"android":"levelo://app?vid=7188cc5d-7fd6-4e78-8d4e-521d4d1d865a","ios":"levelo://app?vid=7188cc5d-7fd6-4e78-8d4e-521d4d1d865a"},"vehicle_type_id":"4","last_reported":1727186877,"current_range_meters":37600,"station_id":"ce4bgqh2rcd13ifvqc5g","pricing_plan_id":"cebpf4jnsgd1na2vs0mg"},{"bike_id":"125c37dd-1cf2-415b-abb0-2c41c266da38","system_id":"levelo_inurba_marseille","lat":43.290569,"lon":5.359248,"is_reserved":false,"is_disabled":false,"rental_uris":{"android":"levelo://app?vid=125c37dd-1cf2-415b-abb0-2c41c266da38","ios":"levelo://app?vid=125c37dd-1cf2-415b-abb0-2c41c266da38"},"vehicle_type_id":"4","last_reported":1727186877,"current_range_meters":14800,"station_id":"ce4bha92rcd13ifvqeg0","pricing_plan_id":"cebpf4jnsgd1na2vs0mg"},{"bike_id":"703a83c6-041e-4688-bc8d-9a1eed2c00e1","system_id":"levelo_inurba_marseille","lat":43.24804,"lon":5.40608,"is_reserved":false,"is_disabled":false,"rental_uris":{"android":"levelo://app?vid=703a83c6-041e-4688-bc8d-9a1eed2c00e1","ios":"levelo://app?vid=703a83c6-041e-4688-bc8d-9a1eed2c00e1"},"vehicle_type_id":"4","last_reported":1727186877,"current_range_meters":15200,"station_id":"","pricing_plan_id":"cebpf4jnsgd1na2vs0mg"},{"bike_id":"45193fa5-5632-46b0-8f8d-79383a02ecc4","system_id":"levelo_inurba_marseille","lat":43.24074,"lon":5.37759,"is_reserved":false,"is_disabled":false,"rental_uris":{"android":"levelo://app?vid=45193fa5-5632-46b0-8f8d-79383a02ecc4","ios":"levelo://app?vid=45193fa5-5632-46b0-8f8d-79383a02ecc4"},"vehicle_type_id":"4","last_reported":1727186877,"current_range_meters":2000,"station_id":"ce4bhnp2rcd13ifvqgvg","pricing_plan_id":"cebpf4jnsgd1na2vs0mg"},{"bike_id":"d3869648-c2cf-4116-89dc-f338508114ac","system_id":"levelo_inurba_marseille","lat":43.30424,"lon":5.39746,"is_reserved":false,"is_disabled":false,"rental_uris":{"android":"levelo://app?vid=d3869648-c2cf-4116-89dc-f338508114ac","ios":"levelo://app?vid=d3869648-c2cf-4116-89dc-f338508114ac"},"vehicle_type_id":"4","last_reported":1727186877,"current_range_meters":25200,"station_id":"ce4bh092rcd13ifvqd20","pricing_plan_id":"cebpf4jnsgd1na2vs0mg"},{"bike_id":"05f30884-935f-4711-8dcc-d2615c99d435","system_id":"levelo_inurba_marseille","lat":43.28006,"lon":5.4167,"is_reserved":false,"is_disabled":false,"rental_uris":{"android":"levelo://app?vid=05f30884-935f-4711-8dcc-d2615c99d435","ios":"levelo://app?vid=05f30884-935f-4711-8dcc-d2615c99d435"},"vehicle_type_id":"4","last_reported":1727186877,"current_range_meters":25600,"station_id":"ce4bho12rcd13ifvqh1g","pricing_plan_id":"cebpf4jnsgd1na2vs0mg"},{"bike_id":"dd9c3a21-87ce-4e03-928f-db3b947674e7","system_id":"levelo_inurba_marseille","lat":43.29906,"lon":5.3815,"is_reserved":false,"is_disabled":false,"rental_uris":{"android":"levelo://app?vid=dd9c3a21-87ce-4e03-928f-db3b947674e7","ios":"levelo://app?vid=dd9c3a21-87ce-4e03-928f-db3b947674e7"},"vehicle_type_id":"4","last_reported":1727186877,"current_range_meters":26800,"station_id":"ce4bgj12rcd13ifvqbc0","pricing_plan_id":"cebpf4jnsgd1na2vs0mg"},{"bike_id":"cbe36be7-9053-4c45-a36b-767ae2157a16","system_id":"levelo_inurba_marseille","lat":43.29271,"lon":5.38435,"is_reserved":false,"is_disabled":false,"rental_uris":{"android":"levelo://app?vid=cbe36be7-9053-4c45-a36b-767ae2157a16","ios":"levelo://app?vid=cbe36be7-9053-4c45-a36b-767ae2157a16"},"vehicle_type_id":"4","last_reported":1727186877,"current_range_meters":8400,"station_id":"ce4bh692rcd13ifvqea0","pricing_plan_id":"cebpf4jnsgd1na2vs0mg"},{"bike_id":"349d479e-0734-4566-bf80-e5fca61c8392","system_id":"levelo_inurba_marseille","lat":43.29911,"lon":5.38155,"is_reserved":false,"is_disabled":false,"rental_uris":{"android":"levelo://app?vid=349d479e-0734-4566-bf80-e5fca61c8392","ios":"levelo://app?vid=349d479e-0734-4566-bf80-e5fca61c8392"},"vehicle_type_id":"4","last_reported":1727186877,"current_range_meters":36800,"station_id":"ce4bgj12rcd13ifvqbc0","pricing_plan_id":"cebpf4jnsgd1na2vs0mg"},{"bike_id":"7a907bd8-a31c-44f5-ae26-4d359cad6743","system_id":"levelo_inurba_marseille","lat":43.23061,"lon":5.35489,"is_reserved":false,"is_disabled":false,"rental_uris":{"android":"levelo://app?vid=7a907bd8-a31c-44f5-ae26-4d359cad6743","ios":"levelo://app?vid=7a907bd8-a31c-44f5-ae26-4d359cad6743"},"vehicle_type_id":"4","last_reported":1727186877,"current_range_meters":8400,"station_id":"cpo3342slgdg3j2ifvpg","pricing_plan_id":"cebpf4jnsgd1na2vs0mg"},{"bike_id":"40ced7d8-d947-4602-b785-b792922bf0f2","system_id":"levelo_inurba_marseille","lat":43.32064,"lon":5.41557,"is_reserved":false,"is_disabled":false,"rental_uris":{"android":"levelo://app?vid=40ced7d8-d947-4602-b785-b792922bf0f2","ios":"levelo://app?vid=40ced7d8-d947-4602-b785-b792922bf0f2"},"vehicle_type_id":"4","last_reported":1727186877,"current_range_meters":38800,"station_id":"ce4bhq92rcd13ifvqhkg","pricing_plan_id":"cebpf4jnsgd1na2vs0mg"},{"bike_id":"dea46c51-2be6-4cf3-a304-43a94d48ddb1","system_id":"levelo_inurba_marseille","lat":43.30542,"lon":5.365682,"is_reserved":false,"is_disabled":false,"rental_uris":{"android":"levelo://app?vid=dea46c51-2be6-4cf3-a304-43a94d48ddb1","ios":"levelo://app?vid=dea46c51-2be6-4cf3-a304-43a94d48ddb1"},"vehicle_type_id":"4","last_reported":1727186877,"current_range_meters":30800,"station_id":"ce4bgs12rcd13ifvqcag","pricing_plan_id":"cebpf4jnsgd1na2vs0mg"},{"bike_id":"d84c15ee-be95-4cc9-b655-f412bf3cbfd1","system_id":"levelo_inurba_marseille","lat":43.24078,"lon":5.37737,"is_reserved":false,"is_disabled":false,"rental_uris":{"android":"levelo://app?vid=d84c15ee-be95-4cc9-b655-f412bf3cbfd1","ios":"levelo://app?vid=d84c15ee-be95-4cc9-b655-f412bf3cbfd1"},"vehicle_type_id":"4","last_reported":1727186877,"current_range_meters":11600,"station_id":"ce4bhnp2rcd13ifvqgvg","pricing_plan_id":"cebpf4jnsgd1na2vs0mg"},{"bike_id":"5b97c1ab-2be9-4d56-9a9c-1fa3d505191c","system_id":"levelo_inurba_marseille","lat":43.30885,"lon":5.39654,"is_reserved":false,"is_disabled":false,"rental_uris":{"android":"levelo://app?vid=5b97c1ab-2be9-4d56-9a9c-1fa3d505191c","ios":"levelo://app?vid=5b97c1ab-2be9-4d56-9a9c-1fa3d505191c"},"vehicle_type_id":"4","last_reported":1727186877,"current_range_meters":37600,"station_id":"ce4bh012rcd13ifvqcv0","pricing_plan_id":"cebpf4jnsgd1na2vs0mg"},{"bike_id":"b86e4f19-4ef1-4d72-9478-ba452757ed0e","system_id":"levelo_inurba_marseille","lat":43.30893,"lon":5.372,"is_reserved":false,"is_disabled":false,"rental_uris":{"android":"levelo://app?vid=b86e4f19-4ef1-4d72-9478-ba452757ed0e","ios":"levelo://app?vid=b86e4f19-4ef1-4d72-9478-ba452757ed0e"},"vehicle_type_id":"4","last_reported":1727186877,"current_range_meters":13600,"station_id":"ce4bguh2rcd13ifvqckg","pricing_plan_id":"cebpf4jnsgd1na2vs0mg"},{"bike_id":"8f5720ff-0441-4378-8288-ff783ba8edea","system_id":"levelo_inurba_marseille","lat":43.30279,"lon":5.37689,"is_reserved":false,"is_disabled":false,"rental_uris":{"android":"levelo://app?vid=8f5720ff-0441-4378-8288-ff783ba8edea","ios":"levelo://app?vid=8f5720ff-0441-4378-8288-ff783ba8edea"},"vehicle_type_id":"4","last_reported":1727186877,"current_range_meters":4000,"station_id":"ce4bguh2rcd13ifvqcj0","pricing_plan_id":"cebpf4jnsgd1na2vs0mg"},{"bike_id":"f3f14b4a-bea6-4ccc-858a-1b863482ace3","system_id":"levelo_inurba_marseille","lat":43.32035,"lon":5.4155,"is_reserved":false,"is_disabled":false,"rental_uris":{"android":"levelo://app?vid=f3f14b4a-bea6-4ccc-858a-1b863482ace3","ios":"levelo://app?vid=f3f14b4a-bea6-4ccc-858a-1b863482ace3"},"vehicle_type_id":"4","last_reported":1727186877,"current_range_meters":24400,"station_id":"ce4bhq92rcd13ifvqhkg","pricing_plan_id":"cebpf4jnsgd1na2vs0mg"},{"bike_id":"56583730-2ba9-406b-a924-851e75e9af8e","system_id":"levelo_inurba_marseille","lat":43.30137,"lon":5.39866,"is_reserved":false,"is_disabled":false,"rental_uris":{"android":"levelo://app?vid=56583730-2ba9-406b-a924-851e75e9af8e","ios":"levelo://app?vid=56583730-2ba9-406b-a924-851e75e9af8e"},"vehicle_type_id":"4","last_reported":1727186877,"current_range_meters":39200,"station_id":"ce4bh0h2rcd13ifvqd40","pricing_plan_id":"cebpf4jnsgd1na2vs0mg"},{"bike_id":"3c15c450-5fe0-40ad-b20f-7849a287269b","system_id":"levelo_inurba_marseille","lat":43.30551,"lon":5.36527,"is_reserved":false,"is_disabled":false,"rental_uris":{"android":"levelo://app?vid=3c15c450-5fe0-40ad-b20f-7849a287269b","ios":"levelo://app?vid=3c15c450-5fe0-40ad-b20f-7849a287269b"},"vehicle_type_id":"4","last_reported":1727186877,"current_range_meters":38400,"station_id":"ce4bgs12rcd13ifvqcag","pricing_plan_id":"cebpf4jnsgd1na2vs0mg"},{"bike_id":"514f7f6f-039f-4ec8-bc9c-4ce20b42dbb7","system_id":"levelo_inurba_marseille","lat":43.30466,"lon":5.37901,"is_reserved":false,"is_disabled":false,"rental_uris":{"android":"levelo://app?vid=514f7f6f-039f-4ec8-bc9c-4ce20b42dbb7","ios":"levelo://app?vid=514f7f6f-039f-4ec8-bc9c-4ce20b42dbb7"},"vehicle_type_id":"4","last_reported":1727186877,"current_range_meters":36000,"station_id":"ce4bgup2rcd13ifvqcn0","pricing_plan_id":"cebpf4jnsgd1na2vs0mg"},{"bike_id":"fb519243-5eaa-4225-ad39-c400cb824487","system_id":"levelo_inurba_marseille","lat":43.30422,"lon":5.41271,"is_reserved":false,"is_disabled":false,"rental_uris":{"android":"levelo://app?vid=fb519243-5eaa-4225-ad39-c400cb824487","ios":"levelo://app?vid=fb519243-5eaa-4225-ad39-c400cb824487"},"vehicle_type_id":"4","last_reported":1727186877,"current_range_meters":6800,"station_id":"ce4bhop2rcd13ifvqh8g","pricing_plan_id":"cebpf4jnsgd1na2vs0mg"},{"bike_id":"e7a6a58c-1d22-4332-9f6d-eb30efec170c","system_id":"levelo_inurba_marseille","lat":43.30913,"lon":5.36854,"is_reserved":false,"is_disabled":false,"rental_uris":{"android":"levelo://app?vid=e7a6a58c-1d22-4332-9f6d-eb30efec170c","ios":"levelo://app?vid=e7a6a58c-1d22-4332-9f6d-eb30efec170c"},"vehicle_type_id":"4","last_reported":1727186877,"current_range_meters":38800,"station_id":"ce4bh692rcd13ifvqea0","pricing_plan_id":"cebpf4jnsgd1na2vs0mg"},{"bike_id":"7aa5dbb8-9989-4696-97fd-30ce98d04be0","system_id":"levelo_inurba_marseille","lat":43.24662,"lon":5.38168,"is_reserved":false,"is_disabled":false,"rental_uris":{"android":"levelo://app?vid=7aa5dbb8-9989-4696-97fd-30ce98d04be0","ios":"levelo://app?vid=7aa5dbb8-9989-4696-97fd-30ce98d04be0"},"vehicle_type_id":"4","last_reported":1727186877,"current_range_meters":28000,"station_id":"ce4bhih2rcd13ifvqfr0","pricing_plan_id":"cebpf4jnsgd1na2vs0mg"},{"bike_id":"dd2babc7-d7fc-4d36-921a-a3ca6fe0b892","system_id":"levelo_inurba_marseille","lat":43.29168,"lon":5.37154,"is_reserved":false,"is_disabled":false,"rental_uris":{"android":"levelo://app?vid=dd2babc7-d7fc-4d36-921a-a3ca6fe0b892","ios":"levelo://app?vid=dd2babc7-d7fc-4d36-921a-a3ca6fe0b892"},"vehicle_type_id":"4","last_reported":1727186877,"current_range_meters":29600,"station_id":"ce4bha92rcd13ifvqeh0","pricing_plan_id":"cebpf4jnsgd1na2vs0mg"},{"bike_id":"ebec7cd5-5fed-46ce-abdb-3cd659f607ac","system_id":"levelo_inurba_marseille","lat":43.2955,"lon":5.42283,"is_reserved":false,"is_disabled":false,"rental_uris":{"android":"levelo://app?vid=ebec7cd5-5fed-46ce-abdb-3cd659f607ac","ios":"levelo://app?vid=ebec7cd5-5fed-46ce-abdb-3cd659f607ac"},"vehicle_type_id":"4","last_reported":1727186877,"current_range_meters":38000,"station_id":"ce4bhph2rcd13ifvqhdg","pricing_plan_id":"cebpf4jnsgd1na2vs0mg"},{"bike_id":"071befd9-f402-4543-9b0c-47aedc783ff3","system_id":"levelo_inurba_marseille","lat":43.30913,"lon":5.36853,"is_reserved":false,"is_disabled":false,"rental_uris":{"android":"levelo://app?vid=071befd9-f402-4543-9b0c-47aedc783ff3","ios":"levelo://app?vid=071befd9-f402-4543-9b0c-47aedc783ff3"},"vehicle_type_id":"4","last_reported":1727186877,"current_range_meters":34000,"station_id":"ce4bgn92rcd13ifvqbvg","pricing_plan_id":"cebpf4jnsgd1na2vs0mg"},{"bike_id":"6d6065cc-15d1-48a2-aa33-8bac2101b02a","system_id":"levelo_inurba_marseille","lat":43.22932,"lon":5.35374,"is_reserved":false,"is_disabled":false,"rental_uris":{"android":"levelo://app?vid=6d6065cc-15d1-48a2-aa33-8bac2101b02a","ios":"levelo://app?vid=6d6065cc-15d1-48a2-aa33-8bac2101b02a"},"vehicle_type_id":"4","last_reported":1727186877,"current_range_meters":26800,"station_id":"cpo3532slgdg3j2ikp40","pricing_plan_id":"cebpf4jnsgd1na2vs0mg"},{"bike_id":"09db2183-b1d3-473b-aba6-b7133ce3cf60","system_id":"levelo_inurba_marseille","lat":43.30321,"lon":5.36894,"is_reserved":false,"is_disabled":false,"rental_uris":{"android":"levelo://app?vid=09db2183-b1d3-473b-aba6-b7133ce3cf60","ios":"levelo://app?vid=09db2183-b1d3-473b-aba6-b7133ce3cf60"},"vehicle_type_id":"4","last_reported":1727186877,"current_range_meters":32400,"station_id":"ce4bgqh2rcd13ifvqc5g","pricing_plan_id":"cebpf4jnsgd1na2vs0mg"},{"bike_id":"df5b38d2-64cb-4df0-856f-ea9bd22c082c","system_id":"levelo_inurba_marseille","lat":43.23192,"lon":5.35551,"is_reserved":false,"is_disabled":false,"rental_uris":{"android":"levelo://app?vid=df5b38d2-64cb-4df0-856f-ea9bd22c082c","ios":"levelo://app?vid=df5b38d2-64cb-4df0-856f-ea9bd22c082c"},"vehicle_type_id":"4","last_reported":1727186877,"current_range_meters":12000,"station_id":"ce4bhu92rcd13ifvqi70","pricing_plan_id":"cebpf4jnsgd1na2vs0mg"},{"bike_id":"9149e649-38da-4baf-b02d-05142c492db8","system_id":"levelo_inurba_marseille","lat":43.298657,"lon":5.397281,"is_reserved":false,"is_disabled":false,"rental_uris":{"android":"levelo://app?vid=9149e649-38da-4baf-b02d-05142c492db8","ios":"levelo://app?vid=9149e649-38da-4baf-b02d-05142c492db8"},"vehicle_type_id":"4","last_reported":1727186877,"current_range_meters":14800,"station_id":"ce4bh692rcd13ifvqe90","pricing_plan_id":"cebpf4jnsgd1na2vs0mg"},{"bike_id":"772bb697-cdc4-47c3-a402-dc51ddcd57c2","system_id":"levelo_inurba_marseille","lat":43.27653,"lon":5.42139,"is_reserved":false,"is_disabled":false,"rental_uris":{"android":"levelo://app?vid=772bb697-cdc4-47c3-a402-dc51ddcd57c2","ios":"levelo://app?vid=772bb697-cdc4-47c3-a402-dc51ddcd57c2"},"vehicle_type_id":"4","last_reported":1727186877,"current_range_meters":12800,"station_id":"ce4bhn92rcd13ifvqgrg","pricing_plan_id":"cebpf4jnsgd1na2vs0mg"},{"bike_id":"240de32e-6d00-49d1-a896-2b0666047d98","system_id":"levelo_inurba_marseille","lat":43.3378,"lon":5.37447,"is_reserved":false,"is_disabled":false,"rental_uris":{"android":"levelo://app?vid=240de32e-6d00-49d1-a896-2b0666047d98","ios":"levelo://app?vid=240de32e-6d00-49d1-a896-2b0666047d98"},"vehicle_type_id":"4","last_reported":1727186877,"current_range_meters":26000,"station_id":"","pricing_plan_id":"cebpf4jnsgd1na2vs0mg"},{"bike_id":"16fbc502-7473-48a3-88df-229670e530dc","system_id":"levelo_inurba_marseille","lat":43.27436,"lon":5.39408,"is_reserved":false,"is_disabled":false,"rental_uris":{"android":"levelo://app?vid=16fbc502-7473-48a3-88df-229670e530dc","ios":"levelo://app?vid=16fbc502-7473-48a3-88df-229670e530dc"},"vehicle_type_id":"4","last_reported":1727186877,"current_range_meters":12000,"station_id":"ce4bhdp2rcd13ifvqf20","pricing_plan_id":"cebpf4jnsgd1na2vs0mg"},{"bike_id":"17b1cd1a-7803-4ca9-91f3-73c4fa44f09e","system_id":"levelo_inurba_marseille","lat":43.29556,"lon":5.42283,"is_reserved":false,"is_disabled":false,"rental_uris":{"android":"levelo://app?vid=17b1cd1a-7803-4ca9-91f3-73c4fa44f09e","ios":"levelo://app?vid=17b1cd1a-7803-4ca9-91f3-73c4fa44f09e"},"vehicle_type_id":"4","last_reported":1727186877,"current_range_meters":8400,"station_id":"ce4bhph2rcd13ifvqhdg","pricing_plan_id":"cebpf4jnsgd1na2vs0mg"},{"bike_id":"2c43c88e-ad28-4001-9314-af5e9a95dd6d","system_id":"levelo_inurba_marseille","lat":43.24069,"lon":5.37756,"is_reserved":false,"is_disabled":false,"rental_uris":{"android":"levelo://app?vid=2c43c88e-ad28-4001-9314-af5e9a95dd6d","ios":"levelo://app?vid=2c43c88e-ad28-4001-9314-af5e9a95dd6d"},"vehicle_type_id":"4","last_reported":1727186877,"current_range_meters":8400,"station_id":"ce4bhnp2rcd13ifvqgvg","pricing_plan_id":"cebpf4jnsgd1na2vs0mg"},{"bike_id":"f8684ded-482a-44d6-97bf-a3ce8ec0cbf5","system_id":"levelo_inurba_marseille","lat":43.25864,"lon":5.39898,"is_reserved":false,"is_disabled":false,"rental_uris":{"android":"levelo://app?vid=f8684ded-482a-44d6-97bf-a3ce8ec0cbf5","ios":"levelo://app?vid=f8684ded-482a-44d6-97bf-a3ce8ec0cbf5"},"vehicle_type_id":"4","last_reported":1727186877,"current_range_meters":28400,"station_id":"ce4bhl92rcd13ifvqghg","pricing_plan_id":"cebpf4jnsgd1na2vs0mg"},{"bike_id":"107a4b57-c86c-4129-a8ca-a54e48696f6c","system_id":"levelo_inurba_marseille","lat":43.30314,"lon":5.36897,"is_reserved":false,"is_disabled":false,"rental_uris":{"android":"levelo://app?vid=107a4b57-c86c-4129-a8ca-a54e48696f6c","ios":"levelo://app?vid=107a4b57-c86c-4129-a8ca-a54e48696f6c"},"vehicle_type_id":"4","last_reported":1727186877,"current_range_meters":24800,"station_id":"ce4bgqh2rcd13ifvqc5g","pricing_plan_id":"cebpf4jnsgd1na2vs0mg"},{"bike_id":"63a16492-fc08-4919-93e5-db0aa1a3c3fe","system_id":"levelo_inurba_marseille","lat":43.25582,"lon":5.38234,"is_reserved":false,"is_disabled":false,"rental_uris":{"android":"levelo://app?vid=63a16492-fc08-4919-93e5-db0aa1a3c3fe","ios":"levelo://app?vid=63a16492-fc08-4919-93e5-db0aa1a3c3fe"},"vehicle_type_id":"4","last_reported":1727186877,"current_range_meters":37600,"station_id":"ce4bhih2rcd13ifvqfs0","pricing_plan_id":"cebpf4jnsgd1na2vs0mg"},{"bike_id":"7b3dbfe5-5399-4cd5-b38b-fbf7f81c035d","system_id":"levelo_inurba_marseille","lat":43.29091,"lon":5.38146,"is_reserved":false,"is_disabled":false,"rental_uris":{"android":"levelo://app?vid=7b3dbfe5-5399-4cd5-b38b-fbf7f81c035d","ios":"levelo://app?vid=7b3dbfe5-5399-4cd5-b38b-fbf7f81c035d"},"vehicle_type_id":"4","last_reported":1727186877,"current_range_meters":32000,"station_id":"ce4bh512rcd13ifvqe2g","pricing_plan_id":"cebpf4jnsgd1na2vs0mg"},{"bike_id":"b6eee498-fb15-4e3b-9eef-2538446e40a3","system_id":"levelo_inurba_marseille","lat":43.305497,"lon":5.367087,"is_reserved":false,"is_disabled":false,"rental_uris":{"android":"levelo://app?vid=b6eee498-fb15-4e3b-9eef-2538446e40a3","ios":"levelo://app?vid=b6eee498-fb15-4e3b-9eef-2538446e40a3"},"vehicle_type_id":"4","last_reported":1727186877,"current_range_meters":20000,"station_id":"ce4bgrp2rcd13ifvqc9g","pricing_plan_id":"cebpf4jnsgd1na2vs0mg"},{"bike_id":"d71bfad2-9f7a-40e3-8af9-a56413e1a18d","system_id":"levelo_inurba_marseille","lat":43.290192,"lon":5.381324,"is_reserved":false,"is_disabled":false,"rental_uris":{"android":"levelo://app?vid=d71bfad2-9f7a-40e3-8af9-a56413e1a18d","ios":"levelo://app?vid=d71bfad2-9f7a-40e3-8af9-a56413e1a18d"},"vehicle_type_id":"4","last_reported":1727186877,"current_range_meters":20800,"station_id":"ce4bh4p2rcd13ifvqe1g","pricing_plan_id":"cebpf4jnsgd1na2vs0mg"},{"bike_id":"250c0e9e-f05e-496f-9e29-8e4c365a3e12","system_id":"levelo_inurba_marseille","lat":43.29618,"lon":5.37737,"is_reserved":false,"is_disabled":false,"rental_uris":{"android":"levelo://app?vid=250c0e9e-f05e-496f-9e29-8e4c365a3e12","ios":"levelo://app?vid=250c0e9e-f05e-496f-9e29-8e4c365a3e12"},"vehicle_type_id":"4","last_reported":1727186877,"current_range_meters":10000,"station_id":"ce4bgi92rcd13ifvqb90","pricing_plan_id":"cebpf4jnsgd1na2vs0mg"},{"bike_id":"d3992f9b-6768-4263-a0c3-21beb76993b7","system_id":"levelo_inurba_marseille","lat":43.29504,"lon":5.37495,"is_reserved":false,"is_disabled":false,"rental_uris":{"android":"levelo://app?vid=d3992f9b-6768-4263-a0c3-21beb76993b7","ios":"levelo://app?vid=d3992f9b-6768-4263-a0c3-21beb76993b7"},"vehicle_type_id":"4","last_reported":1727186877,"current_range_meters":25200,"station_id":"ce4bgkp2rcd13ifvqbmg","pricing_plan_id":"cebpf4jnsgd1na2vs0mg"},{"bike_id":"f5b1128c-7029-4130-89ca-a009ee88473a","system_id":"levelo_inurba_marseille","lat":43.24671,"lon":5.38155,"is_reserved":false,"is_disabled":false,"rental_uris":{"android":"levelo://app?vid=f5b1128c-7029-4130-89ca-a009ee88473a","ios":"levelo://app?vid=f5b1128c-7029-4130-89ca-a009ee88473a"},"vehicle_type_id":"4","last_reported":1727186877,"current_range_meters":8400,"station_id":"ce4bhih2rcd13ifvqfr0","pricing_plan_id":"cebpf4jnsgd1na2vs0mg"},{"bike_id":"74371e4c-2218-4397-9345-b9f878db7dd5","system_id":"levelo_inurba_marseille","lat":43.33744,"lon":5.37398,"is_reserved":false,"is_disabled":false,"rental_uris":{"android":"levelo://app?vid=74371e4c-2218-4397-9345-b9f878db7dd5","ios":"levelo://app?vid=74371e4c-2218-4397-9345-b9f878db7dd5"},"vehicle_type_id":"4","last_reported":1727186877,"current_range_meters":36800,"station_id":"","pricing_plan_id":"cebpf4jnsgd1na2vs0mg"},{"bike_id":"3073410f-7845-4cda-8ebb-ea5392e49bcf","system_id":"levelo_inurba_marseille","lat":43.2985,"lon":5.36261,"is_reserved":false,"is_disabled":false,"rental_uris":{"android":"levelo://app?vid=3073410f-7845-4cda-8ebb-ea5392e49bcf","ios":"levelo://app?vid=3073410f-7845-4cda-8ebb-ea5392e49bcf"},"vehicle_type_id":"4","last_reported":1727186877,"current_range_meters":28800,"station_id":"ce4bgpp2rcd13ifvqc3g","pricing_plan_id":"cebpf4jnsgd1na2vs0mg"},{"bike_id":"6ed83a92-8796-4a06-95be-b47fb0a95a41","system_id":"levelo_inurba_marseille","lat":43.30462,"lon":5.37899,"is_reserved":false,"is_disabled":false,"rental_uris":{"android":"levelo://app?vid=6ed83a92-8796-4a06-95be-b47fb0a95a41","ios":"levelo://app?vid=6ed83a92-8796-4a06-95be-b47fb0a95a41"},"vehicle_type_id":"4","last_reported":1727186877,"current_range_meters":3600,"station_id":"ce4bgup2rcd13ifvqcn0","pricing_plan_id":"cebpf4jnsgd1na2vs0mg"},{"bike_id":"124543fe-b791-4047-97dc-3b38ba1277b8","system_id":"levelo_inurba_marseille","lat":43.27071,"lon":5.42277,"is_reserved":false,"is_disabled":false,"rental_uris":{"android":"levelo://app?vid=124543fe-b791-4047-97dc-3b38ba1277b8","ios":"levelo://app?vid=124543fe-b791-4047-97dc-3b38ba1277b8"},"vehicle_type_id":"4","last_reported":1727186877,"current_range_meters":24400,"station_id":"ce4bhk92rcd13ifvqgb0","pricing_plan_id":"cebpf4jnsgd1na2vs0mg"},{"bike_id":"70dcefbd-4b07-404e-b4c6-04f06b54c398","system_id":"levelo_inurba_marseille","lat":43.30137,"lon":5.37418,"is_reserved":false,"is_disabled":false,"rental_uris":{"android":"levelo://app?vid=70dcefbd-4b07-404e-b4c6-04f06b54c398","ios":"levelo://app?vid=70dcefbd-4b07-404e-b4c6-04f06b54c398"},"vehicle_type_id":"4","last_reported":1727186877,"current_range_meters":40000,"station_id":"ce4bgs92rcd13ifvqcc0","pricing_plan_id":"cebpf4jnsgd1na2vs0mg"},{"bike_id":"b1f73128-5271-43d8-af34-94e10e3b804a","system_id":"levelo_inurba_marseille","lat":43.33023,"lon":5.39042,"is_reserved":false,"is_disabled":false,"rental_uris":{"android":"levelo://app?vid=b1f73128-5271-43d8-af34-94e10e3b804a","ios":"levelo://app?vid=b1f73128-5271-43d8-af34-94e10e3b804a"},"vehicle_type_id":"4","last_reported":1727186877,"current_range_meters":38800,"station_id":"ce4bhr92rcd13ifvqhrg","pricing_plan_id":"cebpf4jnsgd1na2vs0mg"},{"bike_id":"4ce4fa86-516c-4202-a721-69ff30ebad6d","system_id":"levelo_inurba_marseille","lat":43.296997,"lon":5.405208,"is_reserved":false,"is_disabled":false,"rental_uris":{"android":"levelo://app?vid=4ce4fa86-516c-4202-a721-69ff30ebad6d","ios":"levelo://app?vid=4ce4fa86-516c-4202-a721-69ff30ebad6d"},"vehicle_type_id":"4","last_reported":1727186877,"current_range_meters":36800,"station_id":"ce4bh0h2rcd13ifvqd60","pricing_plan_id":"cebpf4jnsgd1na2vs0mg"},{"bike_id":"5c5826a8-fc52-400f-b32d-c12186de8d4c","system_id":"levelo_inurba_marseille","lat":43.239713,"lon":5.36629,"is_reserved":false,"is_disabled":false,"rental_uris":{"android":"levelo://app?vid=5c5826a8-fc52-400f-b32d-c12186de8d4c","ios":"levelo://app?vid=5c5826a8-fc52-400f-b32d-c12186de8d4c"},"vehicle_type_id":"4","last_reported":1727186877,"current_range_meters":35200,"station_id":"ce4bhi12rcd13ifvqfp0","pricing_plan_id":"cebpf4jnsgd1na2vs0mg"},{"bike_id":"e1161fb6-04f8-49d2-bfcb-45a6908c7773","system_id":"levelo_inurba_marseille","lat":43.27178,"lon":5.40992,"is_reserved":false,"is_disabled":false,"rental_uris":{"android":"levelo://app?vid=e1161fb6-04f8-49d2-bfcb-45a6908c7773","ios":"levelo://app?vid=e1161fb6-04f8-49d2-bfcb-45a6908c7773"},"vehicle_type_id":"4","last_reported":1727186877,"current_range_meters":19600,"station_id":"ce4bhl12rcd13ifvqgf0","pricing_plan_id":"cebpf4jnsgd1na2vs0mg"},{"bike_id":"36d66b97-13f2-4893-957a-4b0b0b06caab","system_id":"levelo_inurba_marseille","lat":43.29269,"lon":5.38442,"is_reserved":false,"is_disabled":false,"rental_uris":{"android":"levelo://app?vid=36d66b97-13f2-4893-957a-4b0b0b06caab","ios":"levelo://app?vid=36d66b97-13f2-4893-957a-4b0b0b06caab"},"vehicle_type_id":"4","last_reported":1727186877,"current_range_meters":17600,"station_id":"ce4bh692rcd13ifvqea0","pricing_plan_id":"cebpf4jnsgd1na2vs0mg"},{"bike_id":"d1f6e7ee-107b-4123-a25a-9db115b23083","system_id":"levelo_inurba_marseille","lat":43.26951,"lon":5.38635,"is_reserved":false,"is_disabled":false,"rental_uris":{"android":"levelo://app?vid=d1f6e7ee-107b-4123-a25a-9db115b23083","ios":"levelo://app?vid=d1f6e7ee-107b-4123-a25a-9db115b23083"},"vehicle_type_id":"4","last_reported":1727186877,"current_range_meters":37600,"station_id":"ce4bhh92rcd13ifvqfh0","pricing_plan_id":"cebpf4jnsgd1na2vs0mg"},{"bike_id":"a9918f8d-e22a-4dd7-9c6c-d40027f6544e","system_id":"levelo_inurba_marseille","lat":43.29168,"lon":5.37146,"is_reserved":false,"is_disabled":false,"rental_uris":{"android":"levelo://app?vid=a9918f8d-e22a-4dd7-9c6c-d40027f6544e","ios":"levelo://app?vid=a9918f8d-e22a-4dd7-9c6c-d40027f6544e"},"vehicle_type_id":"4","last_reported":1727186877,"current_range_meters":29600,"station_id":"ce4bha92rcd13ifvqeh0","pricing_plan_id":"cebpf4jnsgd1na2vs0mg"},{"bike_id":"4b770073-7726-4e78-b34f-a257261dc7d3","system_id":"levelo_inurba_marseille","lat":43.29557,"lon":5.42277,"is_reserved":false,"is_disabled":false,"rental_uris":{"android":"levelo://app?vid=4b770073-7726-4e78-b34f-a257261dc7d3","ios":"levelo://app?vid=4b770073-7726-4e78-b34f-a257261dc7d3"},"vehicle_type_id":"4","last_reported":1727186877,"current_range_meters":28000,"station_id":"ce4bhph2rcd13ifvqhdg","pricing_plan_id":"cebpf4jnsgd1na2vs0mg"},{"bike_id":"1166f6b1-5b87-4bc1-b21d-c61655b2fee0","system_id":"levelo_inurba_marseille","lat":43.29454,"lon":5.38059,"is_reserved":false,"is_disabled":false,"rental_uris":{"android":"levelo://app?vid=1166f6b1-5b87-4bc1-b21d-c61655b2fee0","ios":"levelo://app?vid=1166f6b1-5b87-4bc1-b21d-c61655b2fee0"},"vehicle_type_id":"4","last_reported":1727186877,"current_range_meters":37600,"station_id":"","pricing_plan_id":"cebpf4jnsgd1na2vs0mg"},{"bike_id":"b9927a7a-6a68-4fdd-a9cf-21f3191cee64","system_id":"levelo_inurba_marseille","lat":43.28112,"lon":5.37833,"is_reserved":false,"is_disabled":false,"rental_uris":{"android":"levelo://app?vid=b9927a7a-6a68-4fdd-a9cf-21f3191cee64","ios":"levelo://app?vid=b9927a7a-6a68-4fdd-a9cf-21f3191cee64"},"vehicle_type_id":"4","last_reported":1727186877,"current_range_meters":38800,"station_id":"ce4bha12rcd13ifvqee0","pricing_plan_id":"cebpf4jnsgd1na2vs0mg"},{"bike_id":"efcab10f-f8b5-4015-93f2-6e1654482c73","system_id":"levelo_inurba_marseille","lat":43.24078,"lon":5.37753,"is_reserved":false,"is_disabled":false,"rental_uris":{"android":"levelo://app?vid=efcab10f-f8b5-4015-93f2-6e1654482c73","ios":"levelo://app?vid=efcab10f-f8b5-4015-93f2-6e1654482c73"},"vehicle_type_id":"4","last_reported":1727186877,"current_range_meters":32400,"station_id":"ce4bhnp2rcd13ifvqgvg","pricing_plan_id":"cebpf4jnsgd1na2vs0mg"},{"bike_id":"11777d85-1c1a-46c9-b8dd-eea7e90088a8","system_id":"levelo_inurba_marseille","lat":43.303299,"lon":5.404403,"is_reserved":false,"is_disabled":false,"rental_uris":{"android":"levelo://app?vid=11777d85-1c1a-46c9-b8dd-eea7e90088a8","ios":"levelo://app?vid=11777d85-1c1a-46c9-b8dd-eea7e90088a8"},"vehicle_type_id":"4","last_reported":1727186877,"current_range_meters":23200,"station_id":"ce4bh012rcd13ifvqd10","pricing_plan_id":"cebpf4jnsgd1na2vs0mg"},{"bike_id":"49d80325-faab-4d79-8ece-643304efb99e","system_id":"levelo_inurba_marseille","lat":43.26682,"lon":5.38267,"is_reserved":false,"is_disabled":false,"rental_uris":{"android":"levelo://app?vid=49d80325-faab-4d79-8ece-643304efb99e","ios":"levelo://app?vid=49d80325-faab-4d79-8ece-643304efb99e"},"vehicle_type_id":"4","last_reported":1727186877,"current_range_meters":37600,"station_id":"ce4bhg92rcd13ifvqf90","pricing_plan_id":"cebpf4jnsgd1na2vs0mg"},{"bike_id":"f217b67f-574c-4d4b-8797-8073266af066","system_id":"levelo_inurba_marseille","lat":43.26964,"lon":5.38627,"is_reserved":false,"is_disabled":false,"rental_uris":{"android":"levelo://app?vid=f217b67f-574c-4d4b-8797-8073266af066","ios":"levelo://app?vid=f217b67f-574c-4d4b-8797-8073266af066"},"vehicle_type_id":"4","last_reported":1727186877,"current_range_meters":38800,"station_id":"ce4bhh92rcd13ifvqfh0","pricing_plan_id":"cebpf4jnsgd1na2vs0mg"},{"bike_id":"dde250d8-cbb8-407b-b263-d27a3b7a189d","system_id":"levelo_inurba_marseille","lat":43.26574,"lon":5.38999,"is_reserved":false,"is_disabled":false,"rental_uris":{"android":"levelo://app?vid=dde250d8-cbb8-407b-b263-d27a3b7a189d","ios":"levelo://app?vid=dde250d8-cbb8-407b-b263-d27a3b7a189d"},"vehicle_type_id":"4","last_reported":1727186877,"current_range_meters":20400,"station_id":"ce4bhe12rcd13ifvqf30","pricing_plan_id":"cebpf4jnsgd1na2vs0mg"},{"bike_id":"e59b0fcb-9ec1-4e05-a6bd-12eb54ed61ec","system_id":"levelo_inurba_marseille","lat":43.2668,"lon":5.38263,"is_reserved":false,"is_disabled":false,"rental_uris":{"android":"levelo://app?vid=e59b0fcb-9ec1-4e05-a6bd-12eb54ed61ec","ios":"levelo://app?vid=e59b0fcb-9ec1-4e05-a6bd-12eb54ed61ec"},"vehicle_type_id":"4","last_reported":1727186877,"current_range_meters":34800,"station_id":"ce4bhg92rcd13ifvqf90","pricing_plan_id":"cebpf4jnsgd1na2vs0mg"},{"bike_id":"48557990-4eb5-4fa2-b998-12748800b44a","system_id":"levelo_inurba_marseille","lat":43.27066,"lon":5.4227,"is_reserved":false,"is_disabled":false,"rental_uris":{"android":"levelo://app?vid=48557990-4eb5-4fa2-b998-12748800b44a","ios":"levelo://app?vid=48557990-4eb5-4fa2-b998-12748800b44a"},"vehicle_type_id":"4","last_reported":1727186877,"current_range_meters":32800,"station_id":"ce4bhk92rcd13ifvqgb0","pricing_plan_id":"cebpf4jnsgd1na2vs0mg"},{"bike_id":"2c567e6d-9516-43a8-a805-6a796053112e","system_id":"levelo_inurba_marseille","lat":43.32492,"lon":5.36572,"is_reserved":false,"is_disabled":false,"rental_uris":{"android":"levelo://app?vid=2c567e6d-9516-43a8-a805-6a796053112e","ios":"levelo://app?vid=2c567e6d-9516-43a8-a805-6a796053112e"},"vehicle_type_id":"4","last_reported":1727186877,"current_range_meters":40000,"station_id":"ce4bhs12rcd13ifvqhvg","pricing_plan_id":"cebpf4jnsgd1na2vs0mg"},{"bike_id":"a058a63c-6425-4b81-bc9e-2293a4393a0a","system_id":"levelo_inurba_marseille","lat":43.30558,"lon":5.36534,"is_reserved":false,"is_disabled":false,"rental_uris":{"android":"levelo://app?vid=a058a63c-6425-4b81-bc9e-2293a4393a0a","ios":"levelo://app?vid=a058a63c-6425-4b81-bc9e-2293a4393a0a"},"vehicle_type_id":"4","last_reported":1727186877,"current_range_meters":27200,"station_id":"ce4bgs12rcd13ifvqcag","pricing_plan_id":"cebpf4jnsgd1na2vs0mg"},{"bike_id":"3741c135-6583-410d-87b9-b4310a4bf662","system_id":"levelo_inurba_marseille","lat":43.26676,"lon":5.3826,"is_reserved":false,"is_disabled":false,"rental_uris":{"android":"levelo://app?vid=3741c135-6583-410d-87b9-b4310a4bf662","ios":"levelo://app?vid=3741c135-6583-410d-87b9-b4310a4bf662"},"vehicle_type_id":"4","last_reported":1727186877,"current_range_meters":38800,"station_id":"ce4bhg92rcd13ifvqf90","pricing_plan_id":"cebpf4jnsgd1na2vs0mg"},{"bike_id":"55933ebc-3483-4b21-9fba-76d625584d05","system_id":"levelo_inurba_marseille","lat":43.28457,"lon":5.35881,"is_reserved":false,"is_disabled":false,"rental_uris":{"android":"levelo://app?vid=55933ebc-3483-4b21-9fba-76d625584d05","ios":"levelo://app?vid=55933ebc-3483-4b21-9fba-76d625584d05"},"vehicle_type_id":"4","last_reported":1727186877,"current_range_meters":35600,"station_id":"ce4bhah2rcd13ifvqei0","pricing_plan_id":"cebpf4jnsgd1na2vs0mg"},{"bike_id":"cb037699-9180-4cca-9257-9699aba3381e","system_id":"levelo_inurba_marseille","lat":43.25001,"lon":5.3893,"is_reserved":false,"is_disabled":false,"rental_uris":{"android":"levelo://app?vid=cb037699-9180-4cca-9257-9699aba3381e","ios":"levelo://app?vid=cb037699-9180-4cca-9257-9699aba3381e"},"vehicle_type_id":"4","last_reported":1727186877,"current_range_meters":40000,"station_id":"ce4bhgp2rcd13ifvqfd0","pricing_plan_id":"cebpf4jnsgd1na2vs0mg"},{"bike_id":"17701005-77c3-4e4f-a0b4-b2ece630517d","system_id":"levelo_inurba_marseille","lat":43.23962,"lon":5.36624,"is_reserved":false,"is_disabled":false,"rental_uris":{"android":"levelo://app?vid=17701005-77c3-4e4f-a0b4-b2ece630517d","ios":"levelo://app?vid=17701005-77c3-4e4f-a0b4-b2ece630517d"},"vehicle_type_id":"4","last_reported":1727186877,"current_range_meters":38800,"station_id":"ce4bhi12rcd13ifvqfp0","pricing_plan_id":"cebpf4jnsgd1na2vs0mg"},{"bike_id":"b5b5bf24-2775-4eb0-a3f8-704bdbc2ce1a","system_id":"levelo_inurba_marseille","lat":43.28964,"lon":5.37834,"is_reserved":false,"is_disabled":false,"rental_uris":{"android":"levelo://app?vid=b5b5bf24-2775-4eb0-a3f8-704bdbc2ce1a","ios":"levelo://app?vid=b5b5bf24-2775-4eb0-a3f8-704bdbc2ce1a"},"vehicle_type_id":"4","last_reported":1727186877,"current_range_meters":38800,"station_id":"ce4bh9p2rcd13ifvqed0","pricing_plan_id":"cebpf4jnsgd1na2vs0mg"},{"bike_id":"b9e75180-8e16-4551-88f1-0d10049bb530","system_id":"levelo_inurba_marseille","lat":43.3063,"lon":5.4007,"is_reserved":false,"is_disabled":false,"rental_uris":{"android":"levelo://app?vid=b9e75180-8e16-4551-88f1-0d10049bb530","ios":"levelo://app?vid=b9e75180-8e16-4551-88f1-0d10049bb530"},"vehicle_type_id":"4","last_reported":1727186877,"current_range_meters":18000,"station_id":"ce4bh112rcd13ifvqda0","pricing_plan_id":"cebpf4jnsgd1na2vs0mg"},{"bike_id":"fe57e638-2e32-4de9-a694-726eae663078","system_id":"levelo_inurba_marseille","lat":43.30539,"lon":5.36525,"is_reserved":false,"is_disabled":false,"rental_uris":{"android":"levelo://app?vid=fe57e638-2e32-4de9-a694-726eae663078","ios":"levelo://app?vid=fe57e638-2e32-4de9-a694-726eae663078"},"vehicle_type_id":"4","last_reported":1727186877,"current_range_meters":28800,"station_id":"ce4bgs12rcd13ifvqcag","pricing_plan_id":"cebpf4jnsgd1na2vs0mg"},{"bike_id":"8439f7a9-67b6-4404-9a35-e4fa0bfff7cf","system_id":"levelo_inurba_marseille","lat":43.27944,"lon":5.41046,"is_reserved":false,"is_disabled":false,"rental_uris":{"android":"levelo://app?vid=8439f7a9-67b6-4404-9a35-e4fa0bfff7cf","ios":"levelo://app?vid=8439f7a9-67b6-4404-9a35-e4fa0bfff7cf"},"vehicle_type_id":"4","last_reported":1727186877,"current_range_meters":8400,"station_id":"ce4bhnp2rcd13ifvqh0g","pricing_plan_id":"cebpf4jnsgd1na2vs0mg"},{"bike_id":"96eb8edc-e28c-41b2-a347-f14b4856fac1","system_id":"levelo_inurba_marseille","lat":43.26569,"lon":5.38997,"is_reserved":false,"is_disabled":false,"rental_uris":{"android":"levelo://app?vid=96eb8edc-e28c-41b2-a347-f14b4856fac1","ios":"levelo://app?vid=96eb8edc-e28c-41b2-a347-f14b4856fac1"},"vehicle_type_id":"4","last_reported":1727186877,"current_range_meters":20800,"station_id":"ce4bhe12rcd13ifvqf30","pricing_plan_id":"cebpf4jnsgd1na2vs0mg"},{"bike_id":"63ac3f3b-affc-4ed0-ad00-6c7dc2e92a73","system_id":"levelo_inurba_marseille","lat":43.30539,"lon":5.36698,"is_reserved":false,"is_disabled":false,"rental_uris":{"android":"levelo://app?vid=63ac3f3b-affc-4ed0-ad00-6c7dc2e92a73","ios":"levelo://app?vid=63ac3f3b-affc-4ed0-ad00-6c7dc2e92a73"},"vehicle_type_id":"4","last_reported":1727186877,"current_range_meters":20000,"station_id":"ce4bgrp2rcd13ifvqc9g","pricing_plan_id":"cebpf4jnsgd1na2vs0mg"},{"bike_id":"3693bdf8-01c4-460a-a01f-715d986912e3","system_id":"levelo_inurba_marseille","lat":43.29098,"lon":5.38145,"is_reserved":false,"is_disabled":false,"rental_uris":{"android":"levelo://app?vid=3693bdf8-01c4-460a-a01f-715d986912e3","ios":"levelo://app?vid=3693bdf8-01c4-460a-a01f-715d986912e3"},"vehicle_type_id":"4","last_reported":1727186877,"current_range_meters":17200,"station_id":"ce4bh512rcd13ifvqe2g","pricing_plan_id":"cebpf4jnsgd1na2vs0mg"},{"bike_id":"9c9ca807-4aec-4fb8-b059-05bbfa044a01","system_id":"levelo_inurba_marseille","lat":43.30636,"lon":5.40081,"is_reserved":false,"is_disabled":false,"rental_uris":{"android":"levelo://app?vid=9c9ca807-4aec-4fb8-b059-05bbfa044a01","ios":"levelo://app?vid=9c9ca807-4aec-4fb8-b059-05bbfa044a01"},"vehicle_type_id":"4","last_reported":1727186877,"current_range_meters":39200,"station_id":"ce4bh112rcd13ifvqda0","pricing_plan_id":"cebpf4jnsgd1na2vs0mg"},{"bike_id":"d078808f-6fc7-46fd-95ec-7e61ed5d68d9","system_id":"levelo_inurba_marseille","lat":43.27317,"lon":5.39082,"is_reserved":false,"is_disabled":false,"rental_uris":{"android":"levelo://app?vid=d078808f-6fc7-46fd-95ec-7e61ed5d68d9","ios":"levelo://app?vid=d078808f-6fc7-46fd-95ec-7e61ed5d68d9"},"vehicle_type_id":"4","last_reported":1727186877,"current_range_meters":39200,"station_id":"ce4bhgp2rcd13ifvqfe0","pricing_plan_id":"cebpf4jnsgd1na2vs0mg"},{"bike_id":"01e3177f-2980-42c0-bc79-421123d82f75","system_id":"levelo_inurba_marseille","lat":43.25939,"lon":5.40898,"is_reserved":false,"is_disabled":false,"rental_uris":{"android":"levelo://app?vid=01e3177f-2980-42c0-bc79-421123d82f75","ios":"levelo://app?vid=01e3177f-2980-42c0-bc79-421123d82f75"},"vehicle_type_id":"4","last_reported":1727186877,"current_range_meters":8800,"station_id":"ce4bhm92rcd13ifvqglg","pricing_plan_id":"cebpf4jnsgd1na2vs0mg"},{"bike_id":"ef462b40-5abb-456e-ae03-2b347f34b8dc","system_id":"levelo_inurba_marseille","lat":43.30467,"lon":5.3791,"is_reserved":false,"is_disabled":false,"rental_uris":{"android":"levelo://app?vid=ef462b40-5abb-456e-ae03-2b347f34b8dc","ios":"levelo://app?vid=ef462b40-5abb-456e-ae03-2b347f34b8dc"},"vehicle_type_id":"4","last_reported":1727186877,"current_range_meters":22800,"station_id":"ce4bgup2rcd13ifvqcn0","pricing_plan_id":"cebpf4jnsgd1na2vs0mg"},{"bike_id":"d4f34086-90c7-44fe-ab6c-ed52020dcbba","system_id":"levelo_inurba_marseille","lat":43.24668,"lon":5.38145,"is_reserved":false,"is_disabled":false,"rental_uris":{"android":"levelo://app?vid=d4f34086-90c7-44fe-ab6c-ed52020dcbba","ios":"levelo://app?vid=d4f34086-90c7-44fe-ab6c-ed52020dcbba"},"vehicle_type_id":"4","last_reported":1727186877,"current_range_meters":38800,"station_id":"ce4bhih2rcd13ifvqfr0","pricing_plan_id":"cebpf4jnsgd1na2vs0mg"},{"bike_id":"87bc3c3a-5b0d-4d32-b107-ce17692bf59d","system_id":"levelo_inurba_marseille","lat":43.2315,"lon":5.43705,"is_reserved":false,"is_disabled":false,"rental_uris":{"android":"levelo://app?vid=87bc3c3a-5b0d-4d32-b107-ce17692bf59d","ios":"levelo://app?vid=87bc3c3a-5b0d-4d32-b107-ce17692bf59d"},"vehicle_type_id":"4","last_reported":1727186877,"current_range_meters":2800,"station_id":"ce4bhmp2rcd13ifvqgog","pricing_plan_id":"cebpf4jnsgd1na2vs0mg"},{"bike_id":"a7bca3df-0344-4204-86d7-b742d4769839","system_id":"levelo_inurba_marseille","lat":43.30863,"lon":5.3685,"is_reserved":false,"is_disabled":false,"rental_uris":{"android":"levelo://app?vid=a7bca3df-0344-4204-86d7-b742d4769839","ios":"levelo://app?vid=a7bca3df-0344-4204-86d7-b742d4769839"},"vehicle_type_id":"4","last_reported":1727186877,"current_range_meters":33200,"station_id":"ce4bgn92rcd13ifvqbvg","pricing_plan_id":"cebpf4jnsgd1na2vs0mg"},{"bike_id":"f39fc449-bc0a-4538-b9bd-e8da1c190925","system_id":"levelo_inurba_marseille","lat":43.33749,"lon":5.37452,"is_reserved":false,"is_disabled":false,"rental_uris":{"android":"levelo://app?vid=f39fc449-bc0a-4538-b9bd-e8da1c190925","ios":"levelo://app?vid=f39fc449-bc0a-4538-b9bd-e8da1c190925"},"vehicle_type_id":"4","last_reported":1727186877,"current_range_meters":33600,"station_id":"","pricing_plan_id":"cebpf4jnsgd1na2vs0mg"},{"bike_id":"d1572cca-6392-4a7c-89c3-baa05d721a30","system_id":"levelo_inurba_marseille","lat":43.24545,"lon":5.39521,"is_reserved":false,"is_disabled":false,"rental_uris":{"android":"levelo://app?vid=d1572cca-6392-4a7c-89c3-baa05d721a30","ios":"levelo://app?vid=d1572cca-6392-4a7c-89c3-baa05d721a30"},"vehicle_type_id":"4","last_reported":1727186877,"current_range_meters":6000,"station_id":"ce4bhlp2rcd13ifvqgjg","pricing_plan_id":"cebpf4jnsgd1na2vs0mg"},{"bike_id":"10f8ad50-3cb4-44f9-b1e3-af932be0c2fe","system_id":"levelo_inurba_marseille","lat":43.2792,"lon":5.39573,"is_reserved":false,"is_disabled":false,"rental_uris":{"android":"levelo://app?vid=10f8ad50-3cb4-44f9-b1e3-af932be0c2fe","ios":"levelo://app?vid=10f8ad50-3cb4-44f9-b1e3-af932be0c2fe"},"vehicle_type_id":"4","last_reported":1727186877,"current_range_meters":26000,"station_id":"ce4bhf92rcd13ifvqf40","pricing_plan_id":"cebpf4jnsgd1na2vs0mg"},{"bike_id":"0eb607ff-2d8c-4bc0-b54e-25376d3a0b15","system_id":"levelo_inurba_marseille","lat":43.2962,"lon":5.37724,"is_reserved":false,"is_disabled":false,"rental_uris":{"android":"levelo://app?vid=0eb607ff-2d8c-4bc0-b54e-25376d3a0b15","ios":"levelo://app?vid=0eb607ff-2d8c-4bc0-b54e-25376d3a0b15"},"vehicle_type_id":"4","last_reported":1727186877,"current_range_meters":16000,"station_id":"ce4bgi92rcd13ifvqb90","pricing_plan_id":"cebpf4jnsgd1na2vs0mg"},{"bike_id":"3932442a-4ae6-40b1-a7f5-02c53ff78e09","system_id":"levelo_inurba_marseille","lat":43.30544,"lon":5.36698,"is_reserved":false,"is_disabled":false,"rental_uris":{"android":"levelo://app?vid=3932442a-4ae6-40b1-a7f5-02c53ff78e09","ios":"levelo://app?vid=3932442a-4ae6-40b1-a7f5-02c53ff78e09"},"vehicle_type_id":"4","last_reported":1727186877,"current_range_meters":20000,"station_id":"ce4bgrp2rcd13ifvqc9g","pricing_plan_id":"cebpf4jnsgd1na2vs0mg"},{"bike_id":"a0c97515-3c94-4a97-8379-f7b7767cc614","system_id":"levelo_inurba_marseille","lat":43.24078,"lon":5.37757,"is_reserved":false,"is_disabled":false,"rental_uris":{"android":"levelo://app?vid=a0c97515-3c94-4a97-8379-f7b7767cc614","ios":"levelo://app?vid=a0c97515-3c94-4a97-8379-f7b7767cc614"},"vehicle_type_id":"4","last_reported":1727186877,"current_range_meters":24800,"station_id":"ce4bhnp2rcd13ifvqgvg","pricing_plan_id":"cebpf4jnsgd1na2vs0mg"},{"bike_id":"14bb3ee1-8dcf-4ea8-bda7-4684bef163ee","system_id":"levelo_inurba_marseille","lat":43.3176,"lon":5.39019,"is_reserved":false,"is_disabled":false,"rental_uris":{"android":"levelo://app?vid=14bb3ee1-8dcf-4ea8-bda7-4684bef163ee","ios":"levelo://app?vid=14bb3ee1-8dcf-4ea8-bda7-4684bef163ee"},"vehicle_type_id":"4","last_reported":1727186877,"current_range_meters":26800,"station_id":"ce4bhqp2rcd13ifvqhng","pricing_plan_id":"cebpf4jnsgd1na2vs0mg"},{"bike_id":"7c6ec264-7013-498d-b486-94611ea4274a","system_id":"levelo_inurba_marseille","lat":43.264955,"lon":5.395418,"is_reserved":false,"is_disabled":false,"rental_uris":{"android":"levelo://app?vid=7c6ec264-7013-498d-b486-94611ea4274a","ios":"levelo://app?vid=7c6ec264-7013-498d-b486-94611ea4274a"},"vehicle_type_id":"4","last_reported":1727186877,"current_range_meters":19600,"station_id":"ce4bhi12rcd13ifvqfq0","pricing_plan_id":"cebpf4jnsgd1na2vs0mg"},{"bike_id":"68536a3b-9d4c-4778-842d-bec797c06af3","system_id":"levelo_inurba_marseille","lat":43.29097,"lon":5.38128,"is_reserved":false,"is_disabled":false,"rental_uris":{"android":"levelo://app?vid=68536a3b-9d4c-4778-842d-bec797c06af3","ios":"levelo://app?vid=68536a3b-9d4c-4778-842d-bec797c06af3"},"vehicle_type_id":"4","last_reported":1727186877,"current_range_meters":38800,"station_id":"ce4bh512rcd13ifvqe2g","pricing_plan_id":"cebpf4jnsgd1na2vs0mg"},{"bike_id":"337d797f-5bad-4e42-a3a9-741eceae0aa0","system_id":"levelo_inurba_marseille","lat":43.33727,"lon":5.39178,"is_reserved":false,"is_disabled":false,"rental_uris":{"android":"levelo://app?vid=337d797f-5bad-4e42-a3a9-741eceae0aa0","ios":"levelo://app?vid=337d797f-5bad-4e42-a3a9-741eceae0aa0"},"vehicle_type_id":"4","last_reported":1727186877,"current_range_meters":36800,"station_id":"ce4bhr92rcd13ifvqhsg","pricing_plan_id":"cebpf4jnsgd1na2vs0mg"},{"bike_id":"4d248d67-7876-4d4b-a4d0-58c880f6e169","system_id":"levelo_inurba_marseille","lat":43.30141,"lon":5.37426,"is_reserved":false,"is_disabled":false,"rental_uris":{"android":"levelo://app?vid=4d248d67-7876-4d4b-a4d0-58c880f6e169","ios":"levelo://app?vid=4d248d67-7876-4d4b-a4d0-58c880f6e169"},"vehicle_type_id":"4","last_reported":1727186877,"current_range_meters":36400,"station_id":"ce4bgs92rcd13ifvqcc0","pricing_plan_id":"cebpf4jnsgd1na2vs0mg"},{"bike_id":"313886ea-d7e6-4f46-88c2-d20fced15e63","system_id":"levelo_inurba_marseille","lat":43.27488,"lon":5.42456,"is_reserved":false,"is_disabled":false,"rental_uris":{"android":"levelo://app?vid=313886ea-d7e6-4f46-88c2-d20fced15e63","ios":"levelo://app?vid=313886ea-d7e6-4f46-88c2-d20fced15e63"},"vehicle_type_id":"4","last_reported":1727186877,"current_range_meters":7200,"station_id":"ce4bhn92rcd13ifvqgrg","pricing_plan_id":"cebpf4jnsgd1na2vs0mg"},{"bike_id":"8b632dbc-7d87-4517-b039-74540e1756fc","system_id":"levelo_inurba_marseille","lat":43.27905,"lon":5.38022,"is_reserved":false,"is_disabled":false,"rental_uris":{"android":"levelo://app?vid=8b632dbc-7d87-4517-b039-74540e1756fc","ios":"levelo://app?vid=8b632dbc-7d87-4517-b039-74540e1756fc"},"vehicle_type_id":"4","last_reported":1727186877,"current_range_meters":24000,"station_id":"ce4bhf92rcd13ifvqf50","pricing_plan_id":"cebpf4jnsgd1na2vs0mg"},{"bike_id":"4a4bfd88-bdfc-4802-b3a8-e798e4274727","system_id":"levelo_inurba_marseille","lat":43.32295,"lon":5.3826,"is_reserved":false,"is_disabled":false,"rental_uris":{"android":"levelo://app?vid=4a4bfd88-bdfc-4802-b3a8-e798e4274727","ios":"levelo://app?vid=4a4bfd88-bdfc-4802-b3a8-e798e4274727"},"vehicle_type_id":"4","last_reported":1727186877,"current_range_meters":33200,"station_id":"ce4bhr12rcd13ifvqhqg","pricing_plan_id":"cebpf4jnsgd1na2vs0mg"},{"bike_id":"fe9291c0-c1e0-47d3-902d-7bd90e99bf30","system_id":"levelo_inurba_marseille","lat":43.25935,"lon":5.40912,"is_reserved":false,"is_disabled":false,"rental_uris":{"android":"levelo://app?vid=fe9291c0-c1e0-47d3-902d-7bd90e99bf30","ios":"levelo://app?vid=fe9291c0-c1e0-47d3-902d-7bd90e99bf30"},"vehicle_type_id":"4","last_reported":1727186877,"current_range_meters":35200,"station_id":"ce4bhm92rcd13ifvqglg","pricing_plan_id":"cebpf4jnsgd1na2vs0mg"},{"bike_id":"68e4bd1c-adc4-48f4-b848-39d48aa45d40","system_id":"levelo_inurba_marseille","lat":43.257446,"lon":5.410985,"is_reserved":false,"is_disabled":false,"rental_uris":{"android":"levelo://app?vid=68e4bd1c-adc4-48f4-b848-39d48aa45d40","ios":"levelo://app?vid=68e4bd1c-adc4-48f4-b848-39d48aa45d40"},"vehicle_type_id":"4","last_reported":1727186877,"current_range_meters":31200,"station_id":"ce4bhkp2rcd13ifvqgd0","pricing_plan_id":"cebpf4jnsgd1na2vs0mg"},{"bike_id":"18da4ebd-d367-4c55-b156-dabc68113dce","system_id":"levelo_inurba_marseille","lat":43.25867,"lon":5.39896,"is_reserved":false,"is_disabled":false,"rental_uris":{"android":"levelo://app?vid=18da4ebd-d367-4c55-b156-dabc68113dce","ios":"levelo://app?vid=18da4ebd-d367-4c55-b156-dabc68113dce"},"vehicle_type_id":"4","last_reported":1727186877,"current_range_meters":25600,"station_id":"ce4bhl92rcd13ifvqghg","pricing_plan_id":"cebpf4jnsgd1na2vs0mg"},{"bike_id":"6a234ea4-e692-42a3-ac3e-9d89c87610c4","system_id":"levelo_inurba_marseille","lat":43.2743,"lon":5.39412,"is_reserved":false,"is_disabled":false,"rental_uris":{"android":"levelo://app?vid=6a234ea4-e692-42a3-ac3e-9d89c87610c4","ios":"levelo://app?vid=6a234ea4-e692-42a3-ac3e-9d89c87610c4"},"vehicle_type_id":"4","last_reported":1727186877,"current_range_meters":22000,"station_id":"ce4bhdp2rcd13ifvqf20","pricing_plan_id":"cebpf4jnsgd1na2vs0mg"},{"bike_id":"43f90bd1-6f54-4483-91f8-3fd5c1d3f7e5","system_id":"levelo_inurba_marseille","lat":43.28081,"lon":5.39662,"is_reserved":false,"is_disabled":false,"rental_uris":{"android":"levelo://app?vid=43f90bd1-6f54-4483-91f8-3fd5c1d3f7e5","ios":"levelo://app?vid=43f90bd1-6f54-4483-91f8-3fd5c1d3f7e5"},"vehicle_type_id":"4","last_reported":1727186877,"current_range_meters":23200,"station_id":"ce4bho12rcd13ifvqh2g","pricing_plan_id":"cebpf4jnsgd1na2vs0mg"},{"bike_id":"ba0acf8b-ece4-49fe-a201-605be8aa06da","system_id":"levelo_inurba_marseille","lat":43.32484,"lon":5.3656,"is_reserved":false,"is_disabled":false,"rental_uris":{"android":"levelo://app?vid=ba0acf8b-ece4-49fe-a201-605be8aa06da","ios":"levelo://app?vid=ba0acf8b-ece4-49fe-a201-605be8aa06da"},"vehicle_type_id":"4","last_reported":1727186877,"current_range_meters":38800,"station_id":"ce4bhs12rcd13ifvqhvg","pricing_plan_id":"cebpf4jnsgd1na2vs0mg"},{"bike_id":"7bc8fae8-a59a-49b1-95f1-4bf03e58fe26","system_id":"levelo_inurba_marseille","lat":43.30191,"lon":5.374187,"is_reserved":false,"is_disabled":false,"rental_uris":{"android":"levelo://app?vid=7bc8fae8-a59a-49b1-95f1-4bf03e58fe26","ios":"levelo://app?vid=7bc8fae8-a59a-49b1-95f1-4bf03e58fe26"},"vehicle_type_id":"4","last_reported":1727186877,"current_range_meters":21600,"station_id":"ce4bgs92rcd13ifvqcc0","pricing_plan_id":"cebpf4jnsgd1na2vs0mg"},{"bike_id":"78c9fbae-a517-464c-b731-5a53c1656251","system_id":"levelo_inurba_marseille","lat":43.324741,"lon":5.365764,"is_reserved":false,"is_disabled":false,"rental_uris":{"android":"levelo://app?vid=78c9fbae-a517-464c-b731-5a53c1656251","ios":"levelo://app?vid=78c9fbae-a517-464c-b731-5a53c1656251"},"vehicle_type_id":"4","last_reported":1727186877,"current_range_meters":29600,"station_id":"ce4bhs12rcd13ifvqhvg","pricing_plan_id":"cebpf4jnsgd1na2vs0mg"},{"bike_id":"80c09bcd-f591-4f57-827d-58dd1b44e8f1","system_id":"levelo_inurba_marseille","lat":43.23968,"lon":5.3663,"is_reserved":false,"is_disabled":false,"rental_uris":{"android":"levelo://app?vid=80c09bcd-f591-4f57-827d-58dd1b44e8f1","ios":"levelo://app?vid=80c09bcd-f591-4f57-827d-58dd1b44e8f1"},"vehicle_type_id":"4","last_reported":1727186877,"current_range_meters":40000,"station_id":"ce4bhi12rcd13ifvqfp0","pricing_plan_id":"cebpf4jnsgd1na2vs0mg"},{"bike_id":"315121d5-a39e-4afb-ac81-73c95b0109ec","system_id":"levelo_inurba_marseille","lat":43.31483,"lon":5.37318,"is_reserved":false,"is_disabled":false,"rental_uris":{"android":"levelo://app?vid=315121d5-a39e-4afb-ac81-73c95b0109ec","ios":"levelo://app?vid=315121d5-a39e-4afb-ac81-73c95b0109ec"},"vehicle_type_id":"4","last_reported":1727186877,"current_range_meters":12400,"station_id":"ce4bgt12rcd13ifvqcd0","pricing_plan_id":"cebpf4jnsgd1na2vs0mg"},{"bike_id":"f57a687d-6e59-440f-a32c-db5cd432a50f","system_id":"levelo_inurba_marseille","lat":43.27069,"lon":5.42275,"is_reserved":false,"is_disabled":false,"rental_uris":{"android":"levelo://app?vid=f57a687d-6e59-440f-a32c-db5cd432a50f","ios":"levelo://app?vid=f57a687d-6e59-440f-a32c-db5cd432a50f"},"vehicle_type_id":"4","last_reported":1727186877,"current_range_meters":14400,"station_id":"ce4bhk92rcd13ifvqgb0","pricing_plan_id":"cebpf4jnsgd1na2vs0mg"},{"bike_id":"52b5516d-dccc-469a-baf4-47d40a2235a2","system_id":"levelo_inurba_marseille","lat":43.30939,"lon":5.40144,"is_reserved":false,"is_disabled":false,"rental_uris":{"android":"levelo://app?vid=52b5516d-dccc-469a-baf4-47d40a2235a2","ios":"levelo://app?vid=52b5516d-dccc-469a-baf4-47d40a2235a2"},"vehicle_type_id":"4","last_reported":1727186877,"current_range_meters":20800,"station_id":"ce4bgvp2rcd13ifvqct0","pricing_plan_id":"cebpf4jnsgd1na2vs0mg"},