{"last_updated":1686510276,"ttl":30,"version":"2.2","data":{"bikes":[{"bike_id":"3a364e7c-9c8d-41f7-9d05-1809828af5b2","system_id":"levelo_inurba_marseille","lat":43.313391,"lon":5.36706,"is_reserved":false,"is_disabled":false,"rental_uris":{"android":"levelo://app?vid=3a364e7c-9c8d-41f7-9d05-1809828af5b2","ios":"levelo://app?vid=3a364e7c-9c8d-41f7-9d05-1809828af5b2"},"vehicle_type_id":"4","last_reported":1686510277,"current_range_meters":16000,"station_id":"ce4bgr92rcd13ifvqc6g","pricing_plan_id":"free"},{"bike_id":"6ee48d4f-715c-4535-9a6e-6fa43b830881","system_id":"levelo_inurba_marseille","lat":43.313391,"lon":5.36706,"is_reserved":false,"is_disabled":false,"rental_uris":{"android":"levelo://app?vid=6ee48d4f-715c-4535-9a6e-6fa43b830881","ios":"levelo://app?vid=6ee48d4f-715c-4535-9a6e-6fa43b830881"},"vehicle_type_id":"4","last_reported":1686510277,"current_range_meters":11600,"station_id":"ce4bgr92rcd13ifvqc6g","pricing_plan_id":"free"},{"bike_id":"ec3fa815-6edf-4287-96bd-8708d8e56969","system_id":"levelo_inurba_marseille","lat":43.312239,"lon":5.368562,"is_reserved":false,"is_disabled":false,"rental_uris":{"android":"levelo://app?vid=ec3fa815-6edf-4287-96bd-8708d8e56969","ios":"levelo://app?vid=ec3fa815-6edf-4287-96bd-8708d8e56969"},"vehicle_type_id":"4","last_reported":1686510277,"current_range_meters":12000,"station_id":"ce4bgl92rcd13ifvqbq0","pricing_plan_id":"free"},{"bike_id":"e215e44b-264e-4626-ae88-2d3a12aefe09","system_id":"levelo_inurba_marseille","lat":43.309076,"lon":5.368465,"is_reserved":false,"is_disabled":false,"rental_uris":{"android":"levelo://app?vid=e215e44b-264e-4626-ae88-2d3a12aefe09","ios":"levelo://app?vid=e215e44b-264e-4626-ae88-2d3a12aefe09"},"vehicle_type_id":"4","last_reported":1686510277,"current_range_meters":8800,"station_id":"ce4bgn92rcd13ifvqbvg","pricing_plan_id":"free"},{"bike_id":"0528bcd1-0a0f-45f5-8ae7-6ae22fabecc3","system_id":"levelo_inurba_marseille","lat":43.31488,"lon":5.37308,"is_reserved":false,"is_disabled":false,"rental_uris":{"android":"levelo://app?vid=0528bcd1-0a0f-45f5-8ae7-6ae22fabecc3","ios":"levelo://app?vid=0528bcd1-0a0f-45f5-8ae7-6ae22fabecc3"},"vehicle_type_id":"4","last_reported":1686510277,"current_range_meters":6000,"station_id":"ce4bgt12rcd13ifvqcd0","pricing_plan_id":"free"},{"bike_id":"e81f78c9-2f2b-4f41-9ddd-6699806f3afe","system_id":"levelo_inurba_marseille","lat":43.31491,"lon":5.37308,"is_reserved":false,"is_disabled":false,"rental_uris":{"android":"levelo://app?vid=e81f78c9-2f2b-4f41-9ddd-6699806f3afe","ios":"levelo://app?vid=e81f78c9-2f2b-4f41-9ddd-6699806f3afe"},"vehicle_type_id":"4","last_reported":1686510277,"current_range_meters":0,"station_id":"ce4bgt12rcd13ifvqcd0","pricing_plan_id":"free"},{"bike_id":"ea2d65eb-cd3f-42c8-9c08-173c95026eb4","system_id":"levelo_inurba_marseille","lat":43.314926,"lon":5.373104,"is_reserved":false,"is_disabled":false,"rental_uris":{"android":"levelo://app?vid=ea2d65eb-cd3f-42c8-9c08-173c95026eb4","ios":"levelo://app?vid=ea2d65eb-cd3f-42c8-9c08-173c95026eb4"},"vehicle_type_id":"4","last_reported":1686510277,"current_range_meters":4000,"station_id":"ce4bgt12rcd13ifvqcd0","pricing_plan_id":"free"},{"bike_id":"726e69fe-0789-44cc-8872-aafade0684ce","system_id":"levelo_inurba_marseille","lat":43.306,"lon":5.36574,"is_reserved":false,"is_disabled":false,"rental_uris":{"android":"levelo://app?vid=726e69fe-0789-44cc-8872-aafade0684ce","ios":"levelo://app?vid=726e69fe-0789-44cc-8872-aafade0684ce"},"vehicle_type_id":"4","last_reported":1686510277,"current_range_meters":3600,"station_id":"","pricing_plan_id":"free"},{"bike_id":"db56fcab-46c5-4217-ae8f-fb3d20c4f2a3","system_id":"levelo_inurba_marseille","lat":43.311131,"lon":5.377651,"is_reserved":false,"is_disabled":false,"rental_uris":{"android":"levelo://app?vid=db56fcab-46c5-4217-ae8f-fb3d20c4f2a3","ios":"levelo://app?vid=db56fcab-46c5-4217-ae8f-fb3d20c4f2a3"},"vehicle_type_id":"4","last_reported":1686510277,"current_range_meters":2400,"station_id":"ce4bgt92rcd13ifvqcg0","pricing_plan_id":"free"},{"bike_id":"d115b4f0-1e34-43ea-8901-d33233e3cf78","system_id":"levelo_inurba_marseille","lat":43.311131,"lon":5.377651,"is_reserved":false,"is_disabled":false,"rental_uris":{"android":"levelo://app?vid=d115b4f0-1e34-43ea-8901-d33233e3cf78","ios":"levelo://app?vid=d115b4f0-1e34-43ea-8901-d33233e3cf78"},"vehicle_type_id":"4","last_reported":1686510277,"current_range_meters":400,"station_id":"ce4bgt92rcd13ifvqcg0","pricing_plan_id":"free"},{"bike_id":"a091407e-3852-4930-9b51-9071a4a51b2c","system_id":"levelo_inurba_marseille","lat":43.317075,"lon":5.377367,"is_reserved":false,"is_disabled":false,"rental_uris":{"android":"levelo://app?vid=a091407e-3852-4930-9b51-9071a4a51b2c","ios":"levelo://app?vid=a091407e-3852-4930-9b51-9071a4a51b2c"},"vehicle_type_id":"4","last_reported":1686510277,"current_range_meters":24000,"station_id":"ce4bgth2rcd13ifvqch0","pricing_plan_id":"free"},{"bike_id":"e639347b-071c-411e-aff9-0316671ad651","system_id":"levelo_inurba_marseille","lat":43.303046,"lon":5.368981,"is_reserved":false,"is_disabled":false,"rental_uris":{"android":"levelo://app?vid=e639347b-071c-411e-aff9-0316671ad651","ios":"levelo://app?vid=e639347b-071c-411e-aff9-0316671ad651"},"vehicle_type_id":"4","last_reported":1686510277,"current_range_meters":1200,"station_id":"ce4bgqh2rcd13ifvqc5g","pricing_plan_id":"free"},{"bike_id":"cd18ccbf-25e0-4270-90e3-3ed6654d38d0","system_id":"levelo_inurba_marseille","lat":43.31568,"lon":5.38007,"is_reserved":false,"is_disabled":false,"rental_uris":{"android":"levelo://app?vid=cd18ccbf-25e0-4270-90e3-3ed6654d38d0","ios":"levelo://app?vid=cd18ccbf-25e0-4270-90e3-3ed6654d38d0"},"vehicle_type_id":"4","last_reported":1686510277,"current_range_meters":0,"station_id":"","pricing_plan_id":"free"},{"bike_id":"18c0a3a9-7a02-4f81-88ba-f78dea86a324","system_id":"levelo_inurba_marseille","lat":43.301939,"lon":5.366286,"is_reserved":false,"is_disabled":false,"rental_uris":{"android":"levelo://app?vid=18c0a3a9-7a02-4f81-88ba-f78dea86a324","ios":"levelo://app?vid=18c0a3a9-7a02-4f81-88ba-f78dea86a324"},"vehicle_type_id":"4","last_reported":1686510277,"current_range_meters":22400,"station_id":"ce4bgrh2rcd13ifvqc8g","pricing_plan_id":"free"},{"bike_id":"be8983e5-db1a-4efc-aaca-05194dda7e8b","system_id":"levelo_inurba_marseille","lat":43.307968,"lon":5.381541,"is_reserved":false,"is_disabled":false,"rental_uris":{"android":"levelo://app?vid=be8983e5-db1a-4efc-aaca-05194dda7e8b","ios":"levelo://app?vid=be8983e5-db1a-4efc-aaca-05194dda7e8b"},"vehicle_type_id":"4","last_reported":1686510277,"current_range_meters":1200,"station_id":"","pricing_plan_id":"free"},{"bike_id":"40760ae4-6361-4b31-929d-4fda2e89d32b","system_id":"levelo_inurba_marseille","lat":43.308012,"lon":5.381511,"is_reserved":false,"is_disabled":false,"rental_uris":{"android":"levelo://app?vid=40760ae4-6361-4b31-929d-4fda2e89d32b","ios":"levelo://app?vid=40760ae4-6361-4b31-929d-4fda2e89d32b"},"vehicle_type_id":"4","last_reported":1686510277,"current_range_meters":31200,"station_id":"ce4bgt12rcd13ifvqce0","pricing_plan_id":"free"},{"bike_id":"2060ba37-b2fd-4f16-ac2d-076646dbbe99","system_id":"levelo_inurba_marseille","lat":43.302784,"lon":5.377158,"is_reserved":false,"is_disabled":false,"rental_uris":{"android":"levelo://app?vid=2060ba37-b2fd-4f16-ac2d-076646dbbe99","ios":"levelo://app?vid=2060ba37-b2fd-4f16-ac2d-076646dbbe99"},"vehicle_type_id":"4","last_reported":1686510277,"current_range_meters":8400,"station_id":"ce4bguh2rcd13ifvqcj0","pricing_plan_id":"free"},{"bike_id":"5168a86d-cb7b-4891-9c87-2d4d17a6d6df","system_id":"levelo_inurba_marseille","lat":43.319935,"lon":5.381699,"is_reserved":false,"is_disabled":false,"rental_uris":{"android":"levelo://app?vid=5168a86d-cb7b-4891-9c87-2d4d17a6d6df","ios":"levelo://app?vid=5168a86d-cb7b-4891-9c87-2d4d17a6d6df"},"vehicle_type_id":"4","last_reported":1686510277,"current_range_meters":16800,"station_id":"ce4bhr12rcd13ifvqhpg","pricing_plan_id":"free"},{"bike_id":"0a7e2abe-c4fc-44a9-ac07-899f9a130755","system_id":"levelo_inurba_marseille","lat":43.32108,"lon":5.38043,"is_reserved":false,"is_disabled":false,"rental_uris":{"android":"levelo://app?vid=0a7e2abe-c4fc-44a9-ac07-899f9a130755","ios":"levelo://app?vid=0a7e2abe-c4fc-44a9-ac07-899f9a130755"},"vehicle_type_id":"4","last_reported":1686510277,"current_range_meters":9200,"station_id":"","pricing_plan_id":"free"},{"bike_id":"e53edf61-2c97-47eb-8b5f-251197a038c0","system_id":"levelo_inurba_marseille","lat":43.319935,"lon":5.381699,"is_reserved":false,"is_disabled":false,"rental_uris":{"android":"levelo://app?vid=e53edf61-2c97-47eb-8b5f-251197a038c0","ios":"levelo://app?vid=e53edf61-2c97-47eb-8b5f-251197a038c0"},"vehicle_type_id":"4","last_reported":1686510277,"current_range_meters":2800,"station_id":"ce4bhr12rcd13ifvqhpg","pricing_plan_id":"free"},{"bike_id":"8bfc4f83-0eb1-499a-97e0-9c15c4a9de22","system_id":"levelo_inurba_marseille","lat":43.319935,"lon":5.381699,"is_reserved":false,"is_disabled":false,"rental_uris":{"android":"levelo://app?vid=8bfc4f83-0eb1-499a-97e0-9c15c4a9de22","ios":"levelo://app?vid=8bfc4f83-0eb1-499a-97e0-9c15c4a9de22"},"vehicle_type_id":"4","last_reported":1686510277,"current_range_meters":2400,"station_id":"ce4bhr12rcd13ifvqhpg","pricing_plan_id":"free"},{"bike_id":"c89f1c3d-ac36-4704-b678-fd99618208e7","system_id":"levelo_inurba_marseille","lat":43.313571,"lon":5.384829,"is_reserved":false,"is_disabled":false,"rental_uris":{"android":"levelo://app?vid=c89f1c3d-ac36-4704-b678-fd99618208e7","ios":"levelo://app?vid=c89f1c3d-ac36-4704-b678-fd99618208e7"},"vehicle_type_id":"4","last_reported":1686510277,"current_range_meters":8000,"station_id":"ce4bgt92rcd13ifvqcf0","pricing_plan_id":"free"},{"bike_id":"05230bd6-ba15-49ef-8b2a-3ccfdde5fb29","system_id":"levelo_inurba_marseille","lat":43.29936,"lon":5.3656,"is_reserved":false,"is_disabled":false,"rental_uris":{"android":"levelo://app?vid=05230bd6-ba15-49ef-8b2a-3ccfdde5fb29","ios":"levelo://app?vid=05230bd6-ba15-49ef-8b2a-3ccfdde5fb29"},"vehicle_type_id":"4","last_reported":1686510277,"current_range_meters":4000,"station_id":"ce4bgm92rcd13ifvqbr0","pricing_plan_id":"free"},{"bike_id":"8f330355-fbfd-4bba-8759-193d8536753a","system_id":"levelo_inurba_marseille","lat":43.29924,"lon":5.36548,"is_reserved":false,"is_disabled":false,"rental_uris":{"android":"levelo://app?vid=8f330355-fbfd-4bba-8759-193d8536753a","ios":"levelo://app?vid=8f330355-fbfd-4bba-8759-193d8536753a"},"vehicle_type_id":"4","last_reported":1686510277,"current_range_meters":0,"station_id":"ce4bgm92rcd13ifvqbr0","pricing_plan_id":"free"},{"bike_id":"7f41184e-0acb-46c6-86cd-ad565ffb4d23","system_id":"levelo_inurba_marseille","lat":43.29923,"lon":5.36553,"is_reserved":false,"is_disabled":false,"rental_uris":{"android":"levelo://app?vid=7f41184e-0acb-46c6-86cd-ad565ffb4d23","ios":"levelo://app?vid=7f41184e-0acb-46c6-86cd-ad565ffb4d23"},"vehicle_type_id":"4","last_reported":1686510277,"current_range_meters":12800,"station_id":"ce4bgm92rcd13ifvqbr0","pricing_plan_id":"free"},{"bike_id":"8d458ffa-9286-4a79-9624-32c61481ae11","system_id":"levelo_inurba_marseille","lat":43.298433,"lon":5.362774,"is_reserved":false,"is_disabled":false,"rental_uris":{"android":"levelo://app?vid=8d458ffa-9286-4a79-9624-32c61481ae11","ios":"levelo://app?vid=8d458ffa-9286-4a79-9624-32c61481ae11"},"vehicle_type_id":"4","last_reported":1686510277,"current_range_meters":24400,"station_id":"ce4bgpp2rcd13ifvqc3g","pricing_plan_id":"free"},{"bike_id":"77fe41c5-607b-4e19-8889-0971e6701e2b","system_id":"levelo_inurba_marseille","lat":43.298433,"lon":5.362774,"is_reserved":false,"is_disabled":false,"rental_uris":{"android":"levelo://app?vid=77fe41c5-607b-4e19-8889-0971e6701e2b","ios":"levelo://app?vid=77fe41c5-607b-4e19-8889-0971e6701e2b"},"vehicle_type_id":"4","last_reported":1686510277,"current_range_meters":22400,"station_id":"ce4bgpp2rcd13ifvqc3g","pricing_plan_id":"free"},{"bike_id":"fc620d87-94f9-4815-8782-78d7a4c67136","system_id":"levelo_inurba_marseille","lat":43.298433,"lon":5.362774,"is_reserved":false,"is_disabled":false,"rental_uris":{"android":"levelo://app?vid=fc620d87-94f9-4815-8782-78d7a4c67136","ios":"levelo://app?vid=fc620d87-94f9-4815-8782-78d7a4c67136"},"vehicle_type_id":"4","last_reported":1686510277,"current_range_meters":17200,"station_id":"ce4bgpp2rcd13ifvqc3g","pricing_plan_id":"free"},{"bike_id":"89e1fba7-c3cd-4fe7-ac10-be150cd50a6b","system_id":"levelo_inurba_marseille","lat":43.30547,"lon":5.38429,"is_reserved":false,"is_disabled":false,"rental_uris":{"android":"levelo://app?vid=89e1fba7-c3cd-4fe7-ac10-be150cd50a6b","ios":"levelo://app?vid=89e1fba7-c3cd-4fe7-ac10-be150cd50a6b"},"vehicle_type_id":"4","last_reported":1686510277,"current_range_meters":0,"station_id":"ce4bgg92rcd13ifvqb30","pricing_plan_id":"free"},{"bike_id":"dbb0db85-2323-489b-ac82-d500d795922b","system_id":"levelo_inurba_marseille","lat":43.30529,"lon":5.38426,"is_reserved":false,"is_disabled":false,"rental_uris":{"android":"levelo://app?vid=dbb0db85-2323-489b-ac82-d500d795922b","ios":"levelo://app?vid=dbb0db85-2323-489b-ac82-d500d795922b"},"vehicle_type_id":"4","last_reported":1686510277,"current_range_meters":12400,"station_id":"ce4bgg92rcd13ifvqb30","pricing_plan_id":"free"},{"bike_id":"f2da6891-8918-4145-8328-40729c43277e","system_id":"levelo_inurba_marseille","lat":43.29919,"lon":5.37472,"is_reserved":false,"is_disabled":false,"rental_uris":{"android":"levelo://app?vid=f2da6891-8918-4145-8328-40729c43277e","ios":"levelo://app?vid=f2da6891-8918-4145-8328-40729c43277e"},"vehicle_type_id":"4","last_reported":1686510277,"current_range_meters":6000,"station_id":"ce4bgjh2rcd13ifvqbg0","pricing_plan_id":"free"},{"bike_id":"526e44b1-5035-4b93-bbf3-b9f6278b9dad","system_id":"levelo_inurba_marseille","lat":43.299243,"lon":5.37481,"is_reserved":false,"is_disabled":false,"rental_uris":{"android":"levelo://app?vid=526e44b1-5035-4b93-bbf3-b9f6278b9dad","ios":"levelo://app?vid=526e44b1-5035-4b93-bbf3-b9f6278b9dad"},"vehicle_type_id":"4","last_reported":1686510277,"current_range_meters":25600,"station_id":"ce4bgjh2rcd13ifvqbg0","pricing_plan_id":"free"},{"bike_id":"2823ee76-d2f6-47c3-96c1-095783fc767c","system_id":"levelo_inurba_marseille","lat":43.297774,"lon":5.370875,"is_reserved":false,"is_disabled":false,"rental_uris":{"android":"levelo://app?vid=2823ee76-d2f6-47c3-96c1-095783fc767c","ios":"levelo://app?vid=2823ee76-d2f6-47c3-96c1-095783fc767c"},"vehicle_type_id":"4","last_reported":1686510277,"current_range_meters":23200,"station_id":"ce4bgop2rcd13ifvqc1g","pricing_plan_id":"free"},{"bike_id":"af434387-c696-4711-bbb6-68d793cd7c40","system_id":"levelo_inurba_marseille","lat":43.328371,"lon":5.366912,"is_reserved":false,"is_disabled":false,"rental_uris":{"android":"levelo://app?vid=af434387-c696-4711-bbb6-68d793cd7c40","ios":"levelo://app?vid=af434387-c696-4711-bbb6-68d793cd7c40"},"vehicle_type_id":"4","last_reported":1686510277,"current_range_meters":18400,"station_id":"ce4bhs92rcd13ifvqi0g","pricing_plan_id":"free"},{"bike_id":"6e030adf-b716-4354-8b83-08c9110b5b95","system_id":"levelo_inurba_marseille","lat":43.29715,"lon":5.36595,"is_reserved":false,"is_disabled":false,"rental_uris":{"android":"levelo://app?vid=6e030adf-b716-4354-8b83-08c9110b5b95","ios":"levelo://app?vid=6e030adf-b716-4354-8b83-08c9110b5b95"},"vehicle_type_id":"4","last_reported":1686510277,"current_range_meters":4400,"station_id":"","pricing_plan_id":"free"},{"bike_id":"7c638fce-85cb-4411-a354-6493f3eeb7a8","system_id":"levelo_inurba_marseille","lat":43.29624,"lon":5.37149,"is_reserved":false,"is_disabled":false,"rental_uris":{"android":"levelo://app?vid=7c638fce-85cb-4411-a354-6493f3eeb7a8","ios":"levelo://app?vid=7c638fce-85cb-4411-a354-6493f3eeb7a8"},"vehicle_type_id":"4","last_reported":1686510277,"current_range_meters":16000,"station_id":"","pricing_plan_id":"free"},{"bike_id":"8a053076-81bc-49b2-98c1-bb795e1d8770","system_id":"levelo_inurba_marseille","lat":43.29721,"lon":5.37687,"is_reserved":false,"is_disabled":false,"rental_uris":{"android":"levelo://app?vid=8a053076-81bc-49b2-98c1-bb795e1d8770","ios":"levelo://app?vid=8a053076-81bc-49b2-98c1-bb795e1d8770"},"vehicle_type_id":"4","last_reported":1686510277,"current_range_meters":17200,"station_id":"","pricing_plan_id":"free"},{"bike_id":"ed9495cf-1301-4bcd-bf9d-b60009f2c8a4","system_id":"levelo_inurba_marseille","lat":43.299148,"lon":5.381368,"is_reserved":false,"is_disabled":false,"rental_uris":{"android":"levelo://app?vid=ed9495cf-1301-4bcd-bf9d-b60009f2c8a4","ios":"levelo://app?vid=ed9495cf-1301-4bcd-bf9d-b60009f2c8a4"},"vehicle_type_id":"4","last_reported":1686510277,"current_range_meters":31200,"station_id":"ce4bgj12rcd13ifvqbc0","pricing_plan_id":"free"},{"bike_id":"e1ef93e4-35b6-49ed-8dea-c18a2574c4da","system_id":"levelo_inurba_marseille","lat":43.299115,"lon":5.381403,"is_reserved":false,"is_disabled":false,"rental_uris":{"android":"levelo://app?vid=e1ef93e4-35b6-49ed-8dea-c18a2574c4da","ios":"levelo://app?vid=e1ef93e4-35b6-49ed-8dea-c18a2574c4da"},"vehicle_type_id":"4","last_reported":1686510277,"current_range_meters":31600,"station_id":"ce4bgj12rcd13ifvqbc0","pricing_plan_id":"free"},{"bike_id":"a5b1438c-a8fa-4b64-82f0-cc465f815c91","system_id":"levelo_inurba_marseille","lat":43.317557,"lon":5.390173,"is_reserved":false,"is_disabled":false,"rental_uris":{"android":"levelo://app?vid=a5b1438c-a8fa-4b64-82f0-cc465f815c91","ios":"levelo://app?vid=a5b1438c-a8fa-4b64-82f0-cc465f815c91"},"vehicle_type_id":"4","last_reported":1686510277,"current_range_meters":800,"station_id":"ce4bhqp2rcd13ifvqhng","pricing_plan_id":"free"},{"bike_id":"2636edb5-620d-4227-8d42-e8d670b7ab48","system_id":"levelo_inurba_marseille","lat":43.298037,"lon":5.381066,"is_reserved":false,"is_disabled":false,"rental_uris":{"android":"levelo://app?vid=2636edb5-620d-4227-8d42-e8d670b7ab48","ios":"levelo://app?vid=2636edb5-620d-4227-8d42-e8d670b7ab48"},"vehicle_type_id":"4","last_reported":1686510277,"current_range_meters":28000,"station_id":"ce4bgip2rcd13ifvqbb0","pricing_plan_id":"free"},{"bike_id":"7e1fa9dc-ec1c-4b09-ab4e-25368d8bed83","system_id":"levelo_inurba_marseille","lat":43.296263,"lon":5.377094,"is_reserved":false,"is_disabled":false,"rental_uris":{"android":"levelo://app?vid=7e1fa9dc-ec1c-4b09-ab4e-25368d8bed83","ios":"levelo://app?vid=7e1fa9dc-ec1c-4b09-ab4e-25368d8bed83"},"vehicle_type_id":"4","last_reported":1686510277,"current_range_meters":0,"station_id":"ce4bgi92rcd13ifvqb90","pricing_plan_id":"free"},{"bike_id":"daee5978-4b95-4338-9c21-6cb2967f5c4e","system_id":"levelo_inurba_marseille","lat":43.296277,"lon":5.377108,"is_reserved":false,"is_disabled":false,"rental_uris":{"android":"levelo://app?vid=daee5978-4b95-4338-9c21-6cb2967f5c4e","ios":"levelo://app?vid=daee5978-4b95-4338-9c21-6cb2967f5c4e"},"vehicle_type_id":"4","last_reported":1686510277,"current_range_meters":21200,"station_id":"ce4bgi92rcd13ifvqb90","pricing_plan_id":"free"},{"bike_id":"0d869f80-5121-4517-8e36-1e057112f6a2","system_id":"levelo_inurba_marseille","lat":43.296277,"lon":5.377108,"is_reserved":false,"is_disabled":false,"rental_uris":{"android":"levelo://app?vid=0d869f80-5121-4517-8e36-1e057112f6a2","ios":"levelo://app?vid=0d869f80-5121-4517-8e36-1e057112f6a2"},"vehicle_type_id":"4","last_reported":1686510277,"current_range_meters":2000,"station_id":"ce4bgi92rcd13ifvqb90","pricing_plan_id":"free"},{"bike_id":"1322fb0e-b753-424b-8689-ee2c74ea5f29","system_id":"levelo_inurba_marseille","lat":43.296263,"lon":5.377094,"is_reserved":false,"is_disabled":false,"rental_uris":{"android":"levelo://app?vid=1322fb0e-b753-424b-8689-ee2c74ea5f29","ios":"levelo://app?vid=1322fb0e-b753-424b-8689-ee2c74ea5f29"},"vehicle_type_id":"4","last_reported":1686510277,"current_range_meters":3200,"station_id":"ce4bgi92rcd13ifvqb90","pricing_plan_id":"free"},{"bike_id":"7d658a7e-496f-4f88-8dbd-c494f53f928b","system_id":"levelo_inurba_marseille","lat":43.29783,"lon":5.38177,"is_reserved":false,"is_disabled":false,"rental_uris":{"android":"levelo://app?vid=7d658a7e-496f-4f88-8dbd-c494f53f928b","ios":"levelo://app?vid=7d658a7e-496f-4f88-8dbd-c494f53f928b"},"vehicle_type_id":"4","last_reported":1686510277,"current_range_meters":2000,"station_id":"","pricing_plan_id":"free"},{"bike_id":"18fa49ff-a54f-4178-a9e6-dbfdfcb02ef2","system_id":"levelo_inurba_marseille","lat":43.299754,"lon":5.384909,"is_reserved":false,"is_disabled":false,"rental_uris":{"android":"levelo://app?vid=18fa49ff-a54f-4178-a9e6-dbfdfcb02ef2","ios":"levelo://app?vid=18fa49ff-a54f-4178-a9e6-dbfdfcb02ef2"},"vehicle_type_id":"4","last_reported":1686510277,"current_range_meters":0,"station_id":"ce4bgj92rcd13ifvqbd0","pricing_plan_id":"free"},{"bike_id":"0f1136ec-9b74-4c90-ab5e-42ffc099644d","system_id":"levelo_inurba_marseille","lat":43.299724,"lon":5.384848,"is_reserved":false,"is_disabled":false,"rental_uris":{"android":"levelo://app?vid=0f1136ec-9b74-4c90-ab5e-42ffc099644d","ios":"levelo://app?vid=0f1136ec-9b74-4c90-ab5e-42ffc099644d"},"vehicle_type_id":"4","last_reported":1686510277,"current_range_meters":31200,"station_id":"ce4bgj92rcd13ifvqbd0","pricing_plan_id":"free"},{"bike_id":"4a6df6c8-6cd7-429f-b644-fa130ac0f49a","system_id":"levelo_inurba_marseille","lat":43.29969,"lon":5.38496,"is_reserved":false,"is_disabled":false,"rental_uris":{"android":"levelo://app?vid=4a6df6c8-6cd7-429f-b644-fa130ac0f49a","ios":"levelo://app?vid=4a6df6c8-6cd7-429f-b644-fa130ac0f49a"},"vehicle_type_id":"4","last_reported":1686510277,"current_range_meters":31200,"station_id":"ce4bgj92rcd13ifvqbd0","pricing_plan_id":"free"},{"bike_id":"28d00185-90f8-451d-921e-3ae977d7decd","system_id":"levelo_inurba_marseille","lat":43.299724,"lon":5.384848,"is_reserved":false,"is_disabled":false,"rental_uris":{"android":"levelo://app?vid=28d00185-90f8-451d-921e-3ae977d7decd","ios":"levelo://app?vid=28d00185-90f8-451d-921e-3ae977d7decd"},"vehicle_type_id":"4","last_reported":1686510277,"current_range_meters":30800,"station_id":"ce4bgj92rcd13ifvqbd0","pricing_plan_id":"free"},{"bike_id":"1a10afdd-816f-4230-96ad-e07afc80891a","system_id":"levelo_inurba_marseille","lat":43.29425,"lon":5.37401,"is_reserved":false,"is_disabled":false,"rental_uris":{"android":"levelo://app?vid=1a10afdd-816f-4230-96ad-e07afc80891a","ios":"levelo://app?vid=1a10afdd-816f-4230-96ad-e07afc80891a"},"vehicle_type_id":"4","last_reported":1686510277,"current_range_meters":15200,"station_id":"","pricing_plan_id":"free"},{"bike_id":"a6428014-c3a5-466f-a0f2-0ad0eca3cc86","system_id":"levelo_inurba_marseille","lat":43.32367,"lon":5.38883,"is_reserved":false,"is_disabled":false,"rental_uris":{"android":"levelo://app?vid=a6428014-c3a5-466f-a0f2-0ad0eca3cc86","ios":"levelo://app?vid=a6428014-c3a5-466f-a0f2-0ad0eca3cc86"},"vehicle_type_id":"4","last_reported":1686510277,"current_range_meters":10000,"station_id":"","pricing_plan_id":"free"},{"bike_id":"3c244823-91a3-449a-9c1c-826a89be7b1b","system_id":"levelo_inurba_marseille","lat":43.323667,"lon":5.388847,"is_reserved":false,"is_disabled":false,"rental_uris":{"android":"levelo://app?vid=3c244823-91a3-449a-9c1c-826a89be7b1b","ios":"levelo://app?vid=3c244823-91a3-449a-9c1c-826a89be7b1b"},"vehicle_type_id":"4","last_reported":1686510277,"current_range_meters":11600,"station_id":"ce4bhqp2rcd13ifvqhog","pricing_plan_id":"free"},{"bike_id":"4bba3b90-26c4-49e3-8039-ff4e49179e14","system_id":"levelo_inurba_marseille","lat":43.29601,"lon":5.381084,"is_reserved":false,"is_disabled":false,"rental_uris":{"android":"levelo://app?vid=4bba3b90-26c4-49e3-8039-ff4e49179e14","ios":"levelo://app?vid=4bba3b90-26c4-49e3-8039-ff4e49179e14"},"vehicle_type_id":"4","last_reported":1686510277,"current_range_meters":12800,"station_id":"ce4bgl12rcd13ifvqbo0","pricing_plan_id":"free"},{"bike_id":"2cd2e606-3312-4b2c-9112-4154abbe20b0","system_id":"levelo_inurba_marseille","lat":43.29602,"lon":5.381084,"is_reserved":false,"is_disabled":false,"rental_uris":{"android":"levelo://app?vid=2cd2e606-3312-4b2c-9112-4154abbe20b0","ios":"levelo://app?vid=2cd2e606-3312-4b2c-9112-4154abbe20b0"},"vehicle_type_id":"4","last_reported":1686510277,"current_range_meters":7200,"station_id":"ce4bgl12rcd13ifvqbo0","pricing_plan_id":"free"},{"bike_id":"f00cd5b8-1068-4f48-889a-6822a3c407c6","system_id":"levelo_inurba_marseille","lat":43.29861,"lon":5.38571,"is_reserved":false,"is_disabled":false,"rental_uris":{"android":"levelo://app?vid=f00cd5b8-1068-4f48-889a-6822a3c407c6","ios":"levelo://app?vid=f00cd5b8-1068-4f48-889a-6822a3c407c6"},"vehicle_type_id":"4","last_reported":1686510277,"current_range_meters":0,"station_id":"","pricing_plan_id":"free"},{"bike_id":"b7b02c6a-6754-4611-96bb-15c7edf8c77d","system_id":"levelo_inurba_marseille","lat":43.293009,"lon":5.374584,"is_reserved":false,"is_disabled":false,"rental_uris":{"android":"levelo://app?vid=b7b02c6a-6754-4611-96bb-15c7edf8c77d","ios":"levelo://app?vid=b7b02c6a-6754-4611-96bb-15c7edf8c77d"},"vehicle_type_id":"4","last_reported":1686510277,"current_range_meters":7200,"station_id":"ce4bgi12rcd13ifvqb70","pricing_plan_id":"free"},{"bike_id":"3663097c-c717-477d-91c0-6937b6e4c1f9","system_id":"levelo_inurba_marseille","lat":43.302992,"lon":5.392136,"is_reserved":false,"is_disabled":false,"rental_uris":{"android":"levelo://app?vid=3663097c-c717-477d-91c0-6937b6e4c1f9","ios":"levelo://app?vid=3663097c-c717-477d-91c0-6937b6e4c1f9"},"vehicle_type_id":"4","last_reported":1686510277,"current_range_meters":0,"station_id":"ce4bgkh2rcd13ifvqbk0","pricing_plan_id":"free"},{"bike_id":"f90cbaf6-0b1d-4e0b-b94f-ec7fb5f5aeb7","system_id":"levelo_inurba_marseille","lat":43.2936,"lon":5.37835,"is_reserved":false,"is_disabled":false,"rental_uris":{"android":"levelo://app?vid=f90cbaf6-0b1d-4e0b-b94f-ec7fb5f5aeb7","ios":"levelo://app?vid=f90cbaf6-0b1d-4e0b-b94f-ec7fb5f5aeb7"},"vehicle_type_id":"4","last_reported":1686510277,"current_range_meters":3600,"station_id":"ce4bgjh2rcd13ifvqbf0","pricing_plan_id":"free"},{"bike_id":"61e4ccfd-dc98-4837-8123-2dfa5e087f42","system_id":"levelo_inurba_marseille","lat":43.293723,"lon":5.378443,"is_reserved":false,"is_disabled":false,"rental_uris":{"android":"levelo://app?vid=61e4ccfd-dc98-4837-8123-2dfa5e087f42","ios":"levelo://app?vid=61e4ccfd-dc98-4837-8123-2dfa5e087f42"},"vehicle_type_id":"4","last_reported":1686510277,"current_range_meters":0,"station_id":"","pricing_plan_id":"free"},{"bike_id":"93493c95-1736-498a-8d23-5401ed16f0aa","system_id":"levelo_inurba_marseille","lat":43.2936,"lon":5.37835,"is_reserved":false,"is_disabled":false,"rental_uris":{"android":"levelo://app?vid=93493c95-1736-498a-8d23-5401ed16f0aa","ios":"levelo://app?vid=93493c95-1736-498a-8d23-5401ed16f0aa"},"vehicle_type_id":"4","last_reported":1686510277,"current_range_meters":10000,"station_id":"ce4bgjh2rcd13ifvqbf0","pricing_plan_id":"free"},{"bike_id":"fbe24de5-0dc6-401e-a294-f1d65f7b843d","system_id":"levelo_inurba_marseille","lat":43.2936,"lon":5.37835,"is_reserved":false,"is_disabled":false,"rental_uris":{"android":"levelo://app?vid=fbe24de5-0dc6-401e-a294-f1d65f7b843d","ios":"levelo://app?vid=fbe24de5-0dc6-401e-a294-f1d65f7b843d"},"vehicle_type_id":"4","last_reported":1686510277,"current_range_meters":0,"station_id":"ce4bgjh2rcd13ifvqbf0","pricing_plan_id":"free"},{"bike_id":"8643c785-db52-4667-8ecc-2ef40672994a","system_id":"levelo_inurba_marseille","lat":43.30085,"lon":5.390856,"is_reserved":false,"is_disabled":false,"rental_uris":{"android":"levelo://app?vid=8643c785-db52-4667-8ecc-2ef40672994a","ios":"levelo://app?vid=8643c785-db52-4667-8ecc-2ef40672994a"},"vehicle_type_id":"4","last_reported":1686510277,"current_range_meters":28000,"station_id":"ce4bh192rcd13ifvqdb0","pricing_plan_id":"free"},{"bike_id":"16cb1dce-1b4c-451c-9dda-d8cc2c59bf75","system_id":"levelo_inurba_marseille","lat":43.298764,"lon":5.388973,"is_reserved":false,"is_disabled":false,"rental_uris":{"android":"levelo://app?vid=16cb1dce-1b4c-451c-9dda-d8cc2c59bf75","ios":"levelo://app?vid=16cb1dce-1b4c-451c-9dda-d8cc2c59bf75"},"vehicle_type_id":"4","last_reported":1686510277,"current_range_meters":8000,"station_id":"ce4bh392rcd13ifvqdl0","pricing_plan_id":"free"},{"bike_id":"27fbeb5b-2c08-4e38-a89e-5bbd23764f20","system_id":"levelo_inurba_marseille","lat":43.300852,"lon":5.390859,"is_reserved":false,"is_disabled":false,"rental_uris":{"android":"levelo://app?vid=27fbeb5b-2c08-4e38-a89e-5bbd23764f20","ios":"levelo://app?vid=27fbeb5b-2c08-4e38-a89e-5bbd23764f20"},"vehicle_type_id":"4","last_reported":1686510277,"current_range_meters":6800,"station_id":"ce4bh192rcd13ifvqdb0","pricing_plan_id":"free"},{"bike_id":"2593fbd6-3ab1-4744-be7a-082c441c2f79","system_id":"levelo_inurba_marseille","lat":43.29221,"lon":5.37399,"is_reserved":false,"is_disabled":false,"rental_uris":{"android":"levelo://app?vid=2593fbd6-3ab1-4744-be7a-082c441c2f79","ios":"levelo://app?vid=2593fbd6-3ab1-4744-be7a-082c441c2f79"},"vehicle_type_id":"4","last_reported":1686510277,"current_range_meters":31200,"station_id":"","pricing_plan_id":"free"},{"bike_id":"cc4c2383-1592-4452-b0ef-b818ce8e961f","system_id":"levelo_inurba_marseille","lat":43.291675,"lon":5.371583,"is_reserved":false,"is_disabled":false,"rental_uris":{"android":"levelo://app?vid=cc4c2383-1592-4452-b0ef-b818ce8e961f","ios":"levelo://app?vid=cc4c2383-1592-4452-b0ef-b818ce8e961f"},"vehicle_type_id":"4","last_reported":1686510277,"current_range_meters":16000,"station_id":"ce4bha92rcd13ifvqeh0","pricing_plan_id":"free"},{"bike_id":"cb655ac4-93ac-4731-be09-f10d84b73f16","system_id":"levelo_inurba_marseille","lat":43.291675,"lon":5.371583,"is_reserved":false,"is_disabled":false,"rental_uris":{"android":"levelo://app?vid=cb655ac4-93ac-4731-be09-f10d84b73f16","ios":"levelo://app?vid=cb655ac4-93ac-4731-be09-f10d84b73f16"},"vehicle_type_id":"4","last_reported":1686510277,"current_range_meters":12400,"station_id":"ce4bha92rcd13ifvqeh0","pricing_plan_id":"free"},{"bike_id":"041dfb00-4810-44c6-b4b8-3867e0ec8af3","system_id":"levelo_inurba_marseille","lat":43.29163,"lon":5.3715,"is_reserved":false,"is_disabled":false,"rental_uris":{"android":"levelo://app?vid=041dfb00-4810-44c6-b4b8-3867e0ec8af3","ios":"levelo://app?vid=041dfb00-4810-44c6-b4b8-3867e0ec8af3"},"vehicle_type_id":"4","last_reported":1686510277,"current_range_meters":12000,"station_id":"ce4bha92rcd13ifvqeh0","pricing_plan_id":"free"},{"bike_id":"42c4c0f3-2d96-4817-83bc-eceb6f592661","system_id":"levelo_inurba_marseille","lat":43.298764,"lon":5.388973,"is_reserved":false,"is_disabled":false,"rental_uris":{"android":"levelo://app?vid=42c4c0f3-2d96-4817-83bc-eceb6f592661","ios":"levelo://app?vid=42c4c0f3-2d96-4817-83bc-eceb6f592661"},"vehicle_type_id":"4","last_reported":1686510277,"current_range_meters":14000,"station_id":"ce4bh392rcd13ifvqdl0","pricing_plan_id":"free"},{"bike_id":"fd824c81-50c3-4ed1-b136-5f2c665b8af1","system_id":"levelo_inurba_marseille","lat":43.291994,"lon":5.357886,"is_reserved":false,"is_disabled":false,"rental_uris":{"android":"levelo://app?vid=fd824c81-50c3-4ed1-b136-5f2c665b8af1","ios":"levelo://app?vid=fd824c81-50c3-4ed1-b136-5f2c665b8af1"},"vehicle_type_id":"4","last_reported":1686510277,"current_range_meters":31200,"station_id":"ce4bhb12rcd13ifvqel0","pricing_plan_id":"free"},{"bike_id":"b14e3891-28df-48ea-9de6-9837b86e70f0","system_id":"levelo_inurba_marseille","lat":43.309038,"lon":5.396546,"is_reserved":false,"is_disabled":false,"rental_uris":{"android":"levelo://app?vid=b14e3891-28df-48ea-9de6-9837b86e70f0","ios":"levelo://app?vid=b14e3891-28df-48ea-9de6-9837b86e70f0"},"vehicle_type_id":"4","last_reported":1686510277,"current_range_meters":7200,"station_id":"ce4bh012rcd13ifvqcv0","pricing_plan_id":"free"},{"bike_id":"5fe1ece1-1420-4a55-aa3d-2761ffcfd2ef","system_id":"levelo_inurba_marseille","lat":43.313291,"lon":5.396838,"is_reserved":false,"is_disabled":false,"rental_uris":{"android":"levelo://app?vid=5fe1ece1-1420-4a55-aa3d-2761ffcfd2ef","ios":"levelo://app?vid=5fe1ece1-1420-4a55-aa3d-2761ffcfd2ef"},"vehicle_type_id":"4","last_reported":1686510277,"current_range_meters":31200,"station_id":"ce4bgvp2rcd13ifvqcu0","pricing_plan_id":"free"},{"bike_id":"8624ef43-f8b9-4a47-b4aa-462550cd9414","system_id":"levelo_inurba_marseille","lat":43.309038,"lon":5.396546,"is_reserved":false,"is_disabled":false,"rental_uris":{"android":"levelo://app?vid=8624ef43-f8b9-4a47-b4aa-462550cd9414","ios":"levelo://app?vid=8624ef43-f8b9-4a47-b4aa-462550cd9414"},"vehicle_type_id":"4","last_reported":1686510277,"current_range_meters":31200,"station_id":"ce4bh012rcd13ifvqcv0","pricing_plan_id":"free"},{"bike_id":"fa2ce13e-66f2-48ba-85a6-744a8e26c5dd","system_id":"levelo_inurba_marseille","lat":43.309038,"lon":5.396546,"is_reserved":false,"is_disabled":false,"rental_uris":{"android":"levelo://app?vid=fa2ce13e-66f2-48ba-85a6-744a8e26c5dd","ios":"levelo://app?vid=fa2ce13e-66f2-48ba-85a6-744a8e26c5dd"},"vehicle_type_id":"4","last_reported":1686510277,"current_range_meters":20000,"station_id":"ce4bh012rcd13ifvqcv0","pricing_plan_id":"free"},{"bike_id":"a2426796-ea4c-4707-9539-220d9b86d451","system_id":"levelo_inurba_marseille","lat":43.309038,"lon":5.396546,"is_reserved":false,"is_disabled":false,"rental_uris":{"android":"levelo://app?vid=a2426796-ea4c-4707-9539-220d9b86d451","ios":"levelo://app?vid=a2426796-ea4c-4707-9539-220d9b86d451"},"vehicle_type_id":"4","last_reported":1686510277,"current_range_meters":24000,"station_id":"ce4bh012rcd13ifvqcv0","pricing_plan_id":"free"},{"bike_id":"41afa74c-5018-4d89-aa4d-6e6acbe1fd6c","system_id":"levelo_inurba_marseille","lat":43.309038,"lon":5.396546,"is_reserved":false,"is_disabled":false,"rental_uris":{"android":"levelo://app?vid=41afa74c-5018-4d89-aa4d-6e6acbe1fd6c","ios":"levelo://app?vid=41afa74c-5018-4d89-aa4d-6e6acbe1fd6c"},"vehicle_type_id":"4","last_reported":1686510277,"current_range_meters":11200,"station_id":"ce4bh012rcd13ifvqcv0","pricing_plan_id":"free"},{"bike_id":"1c395332-c165-46ed-80a7-244a2b5be450","system_id":"levelo_inurba_marseille","lat":43.309038,"lon":5.396546,"is_reserved":false,"is_disabled":false,"rental_uris":{"android":"levelo://app?vid=1c395332-c165-46ed-80a7-244a2b5be450","ios":"levelo://app?vid=1c395332-c165-46ed-80a7-244a2b5be450"},"vehicle_type_id":"4","last_reported":1686510277,"current_range_meters":4400,"station_id":"ce4bh012rcd13ifvqcv0","pricing_plan_id":"free"},{"bike_id":"aa52c86e-6645-40b2-af70-6908e800a7f2","system_id":"levelo_inurba_marseille","lat":43.29178,"lon":5.35792,"is_reserved":false,"is_disabled":false,"rental_uris":{"android":"levelo://app?vid=aa52c86e-6645-40b2-af70-6908e800a7f2","ios":"levelo://app?vid=aa52c86e-6645-40b2-af70-6908e800a7f2"},"vehicle_type_id":"4","last_reported":1686510277,"current_range_meters":31200,"station_id":"ce4bhb12rcd13ifvqel0","pricing_plan_id":"free"},{"bike_id":"fcc9a846-9884-497a-8465-8c04646688bf","system_id":"levelo_inurba_marseille","lat":43.302008,"lon":5.394694,"is_reserved":false,"is_disabled":false,"rental_uris":{"android":"levelo://app?vid=fcc9a846-9884-497a-8465-8c04646688bf","ios":"levelo://app?vid=fcc9a846-9884-497a-8465-8c04646688bf"},"vehicle_type_id":"4","last_reported":1686510277,"current_range_meters":20400,"station_id":"ce4bh0p2rcd13ifvqd70","pricing_plan_id":"free"},{"bike_id":"7eaea741-264f-42cb-af3f-0c9c8af0e4cc","system_id":"levelo_inurba_marseille","lat":43.302008,"lon":5.394694,"is_reserved":false,"is_disabled":false,"rental_uris":{"android":"levelo://app?vid=7eaea741-264f-42cb-af3f-0c9c8af0e4cc","ios":"levelo://app?vid=7eaea741-264f-42cb-af3f-0c9c8af0e4cc"},"vehicle_type_id":"4","last_reported":1686510277,"current_range_meters":10800,"station_id":"ce4bh0p2rcd13ifvqd70","pricing_plan_id":"free"},{"bike_id":"fb82899c-96bc-4a29-a1bf-a31db199bf40","system_id":"levelo_inurba_marseille","lat":43.29327,"lon":5.38402,"is_reserved":false,"is_disabled":false,"rental_uris":{"android":"levelo://app?vid=fb82899c-96bc-4a29-a1bf-a31db199bf40","ios":"levelo://app?vid=fb82899c-96bc-4a29-a1bf-a31db199bf40"},"vehicle_type_id":"4","last_reported":1686510277,"current_range_meters":24400,"station_id":"","pricing_plan_id":"free"},{"bike_id":"ab869a32-4bb9-4e6c-937e-c86256395910","system_id":"levelo_inurba_marseille","lat":43.290327,"lon":5.375711,"is_reserved":false,"is_disabled":false,"rental_uris":{"android":"levelo://app?vid=ab869a32-4bb9-4e6c-937e-c86256395910","ios":"levelo://app?vid=ab869a32-4bb9-4e6c-937e-c86256395910"},"vehicle_type_id":"4","last_reported":1686510277,"current_range_meters":0,"station_id":"ce4bh692rcd13ifvqe90","pricing_plan_id":"free"},{"bike_id":"a21b20de-680e-4db4-9bc7-b1cfcab218f9","system_id":"levelo_inurba_marseille","lat":43.294153,"lon":5.386305,"is_reserved":false,"is_disabled":false,"rental_uris":{"android":"levelo://app?vid=a21b20de-680e-4db4-9bc7-b1cfcab218f9","ios":"levelo://app?vid=a21b20de-680e-4db4-9bc7-b1cfcab218f9"},"vehicle_type_id":"4","last_reported":1686510277,"current_range_meters":4000,"station_id":"ce4bh2h2rcd13ifvqdh0","pricing_plan_id":"free"},{"bike_id":"67d029a0-c6fb-4ce8-9e50-2f187cfc6918","system_id":"levelo_inurba_marseille","lat":43.290327,"lon":5.375711,"is_reserved":false,"is_disabled":false,"rental_uris":{"android":"levelo://app?vid=67d029a0-c6fb-4ce8-9e50-2f187cfc6918","ios":"levelo://app?vid=67d029a0-c6fb-4ce8-9e50-2f187cfc6918"},"vehicle_type_id":"4","last_reported":1686510277,"current_range_meters":14400,"station_id":"ce4bh692rcd13ifvqe90","pricing_plan_id":"free"},{"bike_id":"3d731dfd-65f8-435f-b42b-6102c1801efc","system_id":"levelo_inurba_marseille","lat":43.290327,"lon":5.375711,"is_reserved":false,"is_disabled":false,"rental_uris":{"android":"levelo://app?vid=3d731dfd-65f8-435f-b42b-6102c1801efc","ios":"levelo://app?vid=3d731dfd-65f8-435f-b42b-6102c1801efc"},"vehicle_type_id":"4","last_reported":1686510277,"current_range_meters":21600,"station_id":"ce4bh692rcd13ifvqe90","pricing_plan_id":"free"},{"bike_id":"3c1cb0be-da70-4736-b0cd-64f917c63e33","system_id":"levelo_inurba_marseille","lat":43.294153,"lon":5.386305,"is_reserved":false,"is_disabled":false,"rental_uris":{"android":"levelo://app?vid=3c1cb0be-da70-4736-b0cd-64f917c63e33","ios":"levelo://app?vid=3c1cb0be-da70-4736-b0cd-64f917c63e33"},"vehicle_type_id":"4","last_reported":1686510277,"current_range_meters":8000,"station_id":"ce4bh2h2rcd13ifvqdh0","pricing_plan_id":"free"},{"bike_id":"1bd3b8f3-dd4f-4aed-90e6-52448856774e","system_id":"levelo_inurba_marseille","lat":43.289184,"lon":5.366408,"is_reserved":false,"is_disabled":false,"rental_uris":{"android":"levelo://app?vid=1bd3b8f3-dd4f-4aed-90e6-52448856774e","ios":"levelo://app?vid=1bd3b8f3-dd4f-4aed-90e6-52448856774e"},"vehicle_type_id":"4","last_reported":1686510277,"current_range_meters":26000,"station_id":"ce4bhap2rcd13ifvqek0","pricing_plan_id":"free"},{"bike_id":"f0eeb637-cbe8-438c-95a5-550e2ea3da45","system_id":"levelo_inurba_marseille","lat":43.290327,"lon":5.375711,"is_reserved":false,"is_disabled":false,"rental_uris":{"android":"levelo://app?vid=f0eeb637-cbe8-438c-95a5-550e2ea3da45","ios":"levelo://app?vid=f0eeb637-cbe8-438c-95a5-550e2ea3da45"},"vehicle_type_id":"4","last_reported":1686510277,"current_range_meters":25600,"station_id":"ce4bh692rcd13ifvqe90","pricing_plan_id":"free"},{"bike_id":"e446d6b0-2c74-4ea6-bf7c-14e913dd9d23","system_id":"levelo_inurba_marseille","lat":43.289184,"lon":5.366408,"is_reserved":false,"is_disabled":false,"rental_uris":{"android":"levelo://app?vid=e446d6b0-2c74-4ea6-bf7c-14e913dd9d23","ios":"levelo://app?vid=e446d6b0-2c74-4ea6-bf7c-14e913dd9d23"},"vehicle_type_id":"4","last_reported":1686510277,"current_range_meters":8800,"station_id":"ce4bhap2rcd13ifvqek0","pricing_plan_id":"free"},{"bike_id":"c9ed2382-d98c-4db1-a85f-1e095076b8a6","system_id":"levelo_inurba_marseille","lat":43.294032,"lon":5.386342,"is_reserved":false,"is_disabled":false,"rental_uris":{"android":"levelo://app?vid=c9ed2382-d98c-4db1-a85f-1e095076b8a6","ios":"levelo://app?vid=c9ed2382-d98c-4db1-a85f-1e095076b8a6"},"vehicle_type_id":"4","last_reported":1686510277,"current_range_meters":18800,"station_id":"","pricing_plan_id":"free"},{"bike_id":"35144b9d-53bb-41ff-ba4f-8f369570e0ef","system_id":"levelo_inurba_marseille","lat":43.292642,"lon":5.384254,"is_reserved":false,"is_disabled":false,"rental_uris":{"android":"levelo://app?vid=35144b9d-53bb-41ff-ba4f-8f369570e0ef","ios":"levelo://app?vid=35144b9d-53bb-41ff-ba4f-8f369570e0ef"},"vehicle_type_id":"4","last_reported":1686510277,"current_range_meters":1200,"station_id":"ce4bh692rcd13ifvqea0","pricing_plan_id":"free"},{"bike_id":"b232b08f-4d15-4779-99ee-35e94b69752d","system_id":"levelo_inurba_marseille","lat":43.29265,"lon":5.38435,"is_reserved":false,"is_disabled":false,"rental_uris":{"android":"levelo://app?vid=b232b08f-4d15-4779-99ee-35e94b69752d","ios":"levelo://app?vid=b232b08f-4d15-4779-99ee-35e94b69752d"},"vehicle_type_id":"4","last_reported":1686510277,"current_range_meters":21200,"station_id":"ce4bh692rcd13ifvqea0","pricing_plan_id":"free"},{"bike_id":"abc0475f-3910-4942-85e6-1c56cfb4b1ac","system_id":"levelo_inurba_marseille","lat":43.304296,"lon":5.397513,"is_reserved":false,"is_disabled":false,"rental_uris":{"android":"levelo://app?vid=abc0475f-3910-4942-85e6-1c56cfb4b1ac","ios":"levelo://app?vid=abc0475f-3910-4942-85e6-1c56cfb4b1ac"},"vehicle_type_id":"4","last_reported":1686510277,"current_range_meters":12800,"station_id":"ce4bh092rcd13ifvqd20","pricing_plan_id":"free"},{"bike_id":"1a56c82e-5cbc-449a-abb8-783011a2489b","system_id":"levelo_inurba_marseille","lat":43.29262,"lon":5.38456,"is_reserved":false,"is_disabled":false,"rental_uris":{"android":"levelo://app?vid=1a56c82e-5cbc-449a-abb8-783011a2489b","ios":"levelo://app?vid=1a56c82e-5cbc-449a-abb8-783011a2489b"},"vehicle_type_id":"4","last_reported":1686510277,"current_range_meters":26400,"station_id":"ce4bh692rcd13ifvqea0","pricing_plan_id":"free"},{"bike_id":"cf251d65-b4cd-484d-9c00-12a3724ce4e0","system_id":"levelo_inurba_marseille","lat":43.29258,"lon":5.38449,"is_reserved":false,"is_disabled":false,"rental_uris":{"android":"levelo://app?vid=cf251d65-b4cd-484d-9c00-12a3724ce4e0","ios":"levelo://app?vid=cf251d65-b4cd-484d-9c00-12a3724ce4e0"},"vehicle_type_id":"4","last_reported":1686510277,"current_range_meters":30800,"station_id":"ce4bh692rcd13ifvqea0","pricing_plan_id":"free"},{"bike_id":"269e922c-722d-4e75-9739-41e53e614171","system_id":"levelo_inurba_marseille","lat":43.290057,"lon":5.356213,"is_reserved":false,"is_disabled":false,"rental_uris":{"android":"levelo://app?vid=269e922c-722d-4e75-9739-41e53e614171","ios":"levelo://app?vid=269e922c-722d-4e75-9739-41e53e614171"},"vehicle_type_id":"4","last_reported":1686510277,"current_range_meters":2000,"station_id":"","pricing_plan_id":"free"},{"bike_id":"e765b1df-d416-4a9d-b2c9-917a696d5304","system_id":"levelo_inurba_marseille","lat":43.297814,"lon":5.393513,"is_reserved":false,"is_disabled":false,"rental_uris":{"android":"levelo://app?vid=e765b1df-d416-4a9d-b2c9-917a696d5304","ios":"levelo://app?vid=e765b1df-d416-4a9d-b2c9-917a696d5304"},"vehicle_type_id":"4","last_reported":1686510277,"current_range_meters":17600,"station_id":"chh1huq6cuj3fo74tm60","pricing_plan_id":"free"},{"bike_id":"229961ab-204b-4164-940d-a2edcdbc0345","system_id":"levelo_inurba_marseille","lat":43.295169,"lon":5.390426,"is_reserved":false,"is_disabled":false,"rental_uris":{"android":"levelo://app?vid=229961ab-204b-4164-940d-a2edcdbc0345","ios":"levelo://app?vid=229961ab-204b-4164-940d-a2edcdbc0345"},"vehicle_type_id":"4","last_reported":1686510277,"current_range_meters":10800,"station_id":"ce4bh3p2rcd13ifvqdp0","pricing_plan_id":"free"},{"bike_id":"d77fbbb4-e939-47e4-a2af-1ab9b58cd302","system_id":"levelo_inurba_marseille","lat":43.295169,"lon":5.390426,"is_reserved":false,"is_disabled":false,"rental_uris":{"android":"levelo://app?vid=d77fbbb4-e939-47e4-a2af-1ab9b58cd302","ios":"levelo://app?vid=d77fbbb4-e939-47e4-a2af-1ab9b58cd302"},"vehicle_type_id":"4","last_reported":1686510277,"current_range_meters":400,"station_id":"ce4bh3p2rcd13ifvqdp0","pricing_plan_id":"free"},{"bike_id":"ff4bc481-a7e4-4b0d-a7b3-f4df358c54b7","system_id":"levelo_inurba_marseille","lat":43.295169,"lon":5.390426,"is_reserved":false,"is_disabled":false,"rental_uris":{"android":"levelo://app?vid=ff4bc481-a7e4-4b0d-a7b3-f4df358c54b7","ios":"levelo://app?vid=ff4bc481-a7e4-4b0d-a7b3-f4df358c54b7"},"vehicle_type_id":"4","last_reported":1686510277,"current_range_meters":24800,"station_id":"ce4bh3p2rcd13ifvqdp0","pricing_plan_id":"free"},{"bike_id":"df49cd77-aac3-4d12-adc5-4823f5d010fa","system_id":"levelo_inurba_marseille","lat":43.289741,"lon":5.378306,"is_reserved":false,"is_disabled":false,"rental_uris":{"android":"levelo://app?vid=df49cd77-aac3-4d12-adc5-4823f5d010fa","ios":"levelo://app?vid=df49cd77-aac3-4d12-adc5-4823f5d010fa"},"vehicle_type_id":"4","last_reported":1686510277,"current_range_meters":20400,"station_id":"ce4bh9p2rcd13ifvqed0","pricing_plan_id":"free"},{"bike_id":"2164db27-af8c-4c06-9ddb-2262981065d1","system_id":"levelo_inurba_marseille","lat":43.2901,"lon":5.381269,"is_reserved":false,"is_disabled":false,"rental_uris":{"android":"levelo://app?vid=2164db27-af8c-4c06-9ddb-2262981065d1","ios":"levelo://app?vid=2164db27-af8c-4c06-9ddb-2262981065d1"},"vehicle_type_id":"4","last_reported":1686510277,"current_range_meters":16800,"station_id":"ce4bh4p2rcd13ifvqe1g","pricing_plan_id":"free"},{"bike_id":"5b87b0bf-3f69-4323-9eb7-f4cbe1de5966","system_id":"levelo_inurba_marseille","lat":43.28849,"lon":5.35855,"is_reserved":false,"is_disabled":false,"rental_uris":{"android":"levelo://app?vid=5b87b0bf-3f69-4323-9eb7-f4cbe1de5966","ios":"levelo://app?vid=5b87b0bf-3f69-4323-9eb7-f4cbe1de5966"},"vehicle_type_id":"4","last_reported":1686510277,"current_range_meters":400,"station_id":"ce4bhb12rcd13ifvqem0","pricing_plan_id":"free"},{"bike_id":"454a9eaf-4027-4825-adbd-05307201266f","system_id":"levelo_inurba_marseille","lat":43.28856,"lon":5.358371,"is_reserved":false,"is_disabled":false,"rental_uris":{"android":"levelo://app?vid=454a9eaf-4027-4825-adbd-05307201266f","ios":"levelo://app?vid=454a9eaf-4027-4825-adbd-05307201266f"},"vehicle_type_id":"4","last_reported":1686510277,"current_range_meters":28400,"station_id":"ce4bhb12rcd13ifvqem0","pricing_plan_id":"free"},{"bike_id":"8bb8068f-aa21-4686-845c-075a1d3c619b","system_id":"levelo_inurba_marseille","lat":43.2901,"lon":5.381269,"is_reserved":false,"is_disabled":false,"rental_uris":{"android":"levelo://app?vid=8bb8068f-aa21-4686-845c-075a1d3c619b","ios":"levelo://app?vid=8bb8068f-aa21-4686-845c-075a1d3c619b"},"vehicle_type_id":"4","last_reported":1686510277,"current_range_meters":27200,"station_id":"ce4bh4p2rcd13ifvqe1g","pricing_plan_id":"free"},{"bike_id":"0d49ffd4-0bd0-413d-8586-074fbbd77aa4","system_id":"levelo_inurba_marseille","lat":43.309371,"lon":5.401449,"is_reserved":false,"is_disabled":false,"rental_uris":{"android":"levelo://app?vid=0d49ffd4-0bd0-413d-8586-074fbbd77aa4","ios":"levelo://app?vid=0d49ffd4-0bd0-413d-8586-074fbbd77aa4"},"vehicle_type_id":"4","last_reported":1686510277,"current_range_meters":22400,"station_id":"ce4bgvp2rcd13ifvqct0","pricing_plan_id":"free"},{"bike_id":"51645917-9ab0-4ad7-84fa-317d21685b3d","system_id":"levelo_inurba_marseille","lat":43.30642,"lon":5.401031,"is_reserved":false,"is_disabled":false,"rental_uris":{"android":"levelo://app?vid=51645917-9ab0-4ad7-84fa-317d21685b3d","ios":"levelo://app?vid=51645917-9ab0-4ad7-84fa-317d21685b3d"},"vehicle_type_id":"4","last_reported":1686510277,"current_range_meters":6000,"station_id":"ce4bh112rcd13ifvqda0","pricing_plan_id":"free"},{"bike_id":"dc03ba51-5d22-4ed9-b3ed-9499a80f6bd0","system_id":"levelo_inurba_marseille","lat":43.33758,"lon":5.37448,"is_reserved":false,"is_disabled":false,"rental_uris":{"android":"levelo://app?vid=dc03ba51-5d22-4ed9-b3ed-9499a80f6bd0","ios":"levelo://app?vid=dc03ba51-5d22-4ed9-b3ed-9499a80f6bd0"},"vehicle_type_id":"4","last_reported":1686510277,"current_range_meters":30000,"station_id":"","pricing_plan_id":"free"},{"bike_id":"265c0905-166c-408b-8d33-95a8e86424e1","system_id":"levelo_inurba_marseille","lat":43.337582,"lon":5.374483,"is_reserved":false,"is_disabled":false,"rental_uris":{"android":"levelo://app?vid=265c0905-166c-408b-8d33-95a8e86424e1","ios":"levelo://app?vid=265c0905-166c-408b-8d33-95a8e86424e1"},"vehicle_type_id":"4","last_reported":1686510277,"current_range_meters":11600,"station_id":"","pricing_plan_id":"free"},{"bike_id":"7b92bb4e-c37f-408a-b8c5-8d9651549545","system_id":"levelo_inurba_marseille","lat":43.33762,"lon":5.37444,"is_reserved":false,"is_disabled":false,"rental_uris":{"android":"levelo://app?vid=7b92bb4e-c37f-408a-b8c5-8d9651549545","ios":"levelo://app?vid=7b92bb4e-c37f-408a-b8c5-8d9651549545"},"vehicle_type_id":"4","last_reported":1686510277,"current_range_meters":19200,"station_id":"","pricing_plan_id":"free"},{"bike_id":"eed3a071-50fa-4e3b-aea1-0dc419f20349","system_id":"levelo_inurba_marseille","lat":43.30645,"lon":5.40091,"is_reserved":false,"is_disabled":false,"rental_uris":{"android":"levelo://app?vid=eed3a071-50fa-4e3b-aea1-0dc419f20349","ios":"levelo://app?vid=eed3a071-50fa-4e3b-aea1-0dc419f20349"},"vehicle_type_id":"4","last_reported":1686510277,"current_range_meters":25200,"station_id":"ce4bh112rcd13ifvqda0","pricing_plan_id":"free"},{"bike_id":"fb041ec1-b611-46eb-9d8b-3229cfb3396a","system_id":"levelo_inurba_marseille","lat":43.33768,"lon":5.37459,"is_reserved":false,"is_disabled":false,"rental_uris":{"android":"levelo://app?vid=fb041ec1-b611-46eb-9d8b-3229cfb3396a","ios":"levelo://app?vid=fb041ec1-b611-46eb-9d8b-3229cfb3396a"},"vehicle_type_id":"4","last_reported":1686510277,"current_range_meters":18800,"station_id":"","pricing_plan_id":"free"},{"bike_id":"83e120eb-e7da-465b-a86b-5eb6bd0ef45b","system_id":"levelo_inurba_marseille","lat":43.30642,"lon":5.401031,"is_reserved":false,"is_disabled":false,"rental_uris":{"android":"levelo://app?vid=83e120eb-e7da-465b-a86b-5eb6bd0ef45b","ios":"levelo://app?vid=83e120eb-e7da-465b-a86b-5eb6bd0ef45b"},"vehicle_type_id":"4","last_reported":1686510277,"current_range_meters":28000,"station_id":"ce4bh112rcd13ifvqda0","pricing_plan_id":"free"},{"bike_id":"997063c4-6992-4bea-8e6a-5e70fb6de5c8","system_id":"levelo_inurba_marseille","lat":43.301117,"lon":5.398795,"is_reserved":false,"is_disabled":false,"rental_uris":{"android":"levelo://app?vid=997063c4-6992-4bea-8e6a-5e70fb6de5c8","ios":"levelo://app?vid=997063c4-6992-4bea-8e6a-5e70fb6de5c8"},"vehicle_type_id":"4","last_reported":1686510277,"current_range_meters":24400,"station_id":"ce4bh0h2rcd13ifvqd40","pricing_plan_id":"free"},{"bike_id":"710f5194-5edf-40bb-8ab9-f8705a44fb62","system_id":"levelo_inurba_marseille","lat":43.290336,"lon":5.386425,"is_reserved":false,"is_disabled":false,"rental_uris":{"android":"levelo://app?vid=710f5194-5edf-40bb-8ab9-f8705a44fb62","ios":"levelo://app?vid=710f5194-5edf-40bb-8ab9-f8705a44fb62"},"vehicle_type_id":"4","last_reported":1686510277,"current_range_meters":5600,"station_id":"ce4bh4p2rcd13ifvqe0g","pricing_plan_id":"free"},{"bike_id":"e1807924-46ac-40a2-a01c-49e04b5bbafb","system_id":"levelo_inurba_marseille","lat":43.286591,"lon":5.363346,"is_reserved":false,"is_disabled":false,"rental_uris":{"android":"levelo://app?vid=e1807924-46ac-40a2-a01c-49e04b5bbafb","ios":"levelo://app?vid=e1807924-46ac-40a2-a01c-49e04b5bbafb"},"vehicle_type_id":"4","last_reported":1686510277,"current_range_meters":6400,"station_id":"ce4bhah2rcd13ifvqej0","pricing_plan_id":"free"},{"bike_id":"f2cd7d37-14f3-417d-8fd3-319ba51a618f","system_id":"levelo_inurba_marseille","lat":43.29879,"lon":5.3973,"is_reserved":false,"is_disabled":false,"rental_uris":{"android":"levelo://app?vid=f2cd7d37-14f3-417d-8fd3-319ba51a618f","ios":"levelo://app?vid=f2cd7d37-14f3-417d-8fd3-319ba51a618f"},"vehicle_type_id":"4","last_reported":1686510277,"current_range_meters":12000,"station_id":"ce4bh0h2rcd13ifvqd50","pricing_plan_id":"free"},{"bike_id":"4abdf431-1e69-4429-9178-6e1817b57e76","system_id":"levelo_inurba_marseille","lat":43.28706,"lon":5.37385,"is_reserved":false,"is_disabled":false,"rental_uris":{"android":"levelo://app?vid=4abdf431-1e69-4429-9178-6e1817b57e76","ios":"levelo://app?vid=4abdf431-1e69-4429-9178-6e1817b57e76"},"vehicle_type_id":"4","last_reported":1686510277,"current_range_meters":13600,"station_id":"","pricing_plan_id":"free"},{"bike_id":"beaec097-b72d-453a-9fdf-5554777042c4","system_id":"levelo_inurba_marseille","lat":43.29872,"lon":5.39734,"is_reserved":false,"is_disabled":false,"rental_uris":{"android":"levelo://app?vid=beaec097-b72d-453a-9fdf-5554777042c4","ios":"levelo://app?vid=beaec097-b72d-453a-9fdf-5554777042c4"},"vehicle_type_id":"4","last_reported":1686510277,"current_range_meters":20800,"station_id":"ce4bh0h2rcd13ifvqd50","pricing_plan_id":"free"},{"bike_id":"a52d06f2-b7fc-4686-b72e-507f43c94998","system_id":"levelo_inurba_marseille","lat":43.298681,"lon":5.397225,"is_reserved":false,"is_disabled":false,"rental_uris":{"android":"levelo://app?vid=a52d06f2-b7fc-4686-b72e-507f43c94998","ios":"levelo://app?vid=a52d06f2-b7fc-4686-b72e-507f43c94998"},"vehicle_type_id":"4","last_reported":1686510277,"current_range_meters":21200,"station_id":"ce4bh0h2rcd13ifvqd50","pricing_plan_id":"free"},{"bike_id":"d776023e-af9c-4cbf-a675-ca3a3a2d4949","system_id":"levelo_inurba_marseille","lat":43.295196,"lon":5.39397,"is_reserved":false,"is_disabled":false,"rental_uris":{"android":"levelo://app?vid=d776023e-af9c-4cbf-a675-ca3a3a2d4949","ios":"levelo://app?vid=d776023e-af9c-4cbf-a675-ca3a3a2d4949"},"vehicle_type_id":"4","last_reported":1686510277,"current_range_meters":14400,"station_id":"ce4bh292rcd13ifvqdf0","pricing_plan_id":"free"},{"bike_id":"04c84d5c-1206-4177-bbfd-6613d95989b1","system_id":"levelo_inurba_marseille","lat":43.295196,"lon":5.39397,"is_reserved":false,"is_disabled":false,"rental_uris":{"android":"levelo://app?vid=04c84d5c-1206-4177-bbfd-6613d95989b1","ios":"levelo://app?vid=04c84d5c-1206-4177-bbfd-6613d95989b1"},"vehicle_type_id":"4","last_reported":1686510277,"current_range_meters":4800,"station_id":"ce4bh292rcd13ifvqdf0","pricing_plan_id":"free"},{"bike_id":"eaff81ab-ffb6-4885-abee-eb8a54febaef","system_id":"levelo_inurba_marseille","lat":43.28694,"lon":5.37394,"is_reserved":false,"is_disabled":false,"rental_uris":{"android":"levelo://app?vid=eaff81ab-ffb6-4885-abee-eb8a54febaef","ios":"levelo://app?vid=eaff81ab-ffb6-4885-abee-eb8a54febaef"},"vehicle_type_id":"4","last_reported":1686510277,"current_range_meters":6000,"station_id":"","pricing_plan_id":"free"},{"bike_id":"8cbf3ba5-fca2-4799-a69a-212af1120239","system_id":"levelo_inurba_marseille","lat":43.29521,"lon":5.39399,"is_reserved":false,"is_disabled":false,"rental_uris":{"android":"levelo://app?vid=8cbf3ba5-fca2-4799-a69a-212af1120239","ios":"levelo://app?vid=8cbf3ba5-fca2-4799-a69a-212af1120239"},"vehicle_type_id":"4","last_reported":1686510277,"current_range_meters":28800,"station_id":"ce4bh292rcd13ifvqdf0","pricing_plan_id":"free"},{"bike_id":"ba14619a-4444-4984-88fb-41a94bb769d2","system_id":"levelo_inurba_marseille","lat":43.295196,"lon":5.39397,"is_reserved":false,"is_disabled":false,"rental_uris":{"android":"levelo://app?vid=ba14619a-4444-4984-88fb-41a94bb769d2","ios":"levelo://app?vid=ba14619a-4444-4984-88fb-41a94bb769d2"},"vehicle_type_id":"4","last_reported":1686510277,"current_range_meters":31200,"station_id":"ce4bh292rcd13ifvqdf0","pricing_plan_id":"free"},{"bike_id":"e72c255a-3e0d-461b-83ac-3a433a8f846c","system_id":"levelo_inurba_marseille","lat":43.295196,"lon":5.39397,"is_reserved":false,"is_disabled":false,"rental_uris":{"android":"levelo://app?vid=e72c255a-3e0d-461b-83ac-3a433a8f846c","ios":"levelo://app?vid=e72c255a-3e0d-461b-83ac-3a433a8f846c"},"vehicle_type_id":"4","last_reported":1686510277,"current_range_meters":27200,"station_id":"ce4bh292rcd13ifvqdf0","pricing_plan_id":"free"},{"bike_id":"f05ce419-04a0-459a-8f90-fe65c72fa6b4","system_id":"levelo_inurba_marseille","lat":43.295194,"lon":5.39397,"is_reserved":false,"is_disabled":false,"rental_uris":{"android":"levelo://app?vid=f05ce419-04a0-459a-8f90-fe65c72fa6b4","ios":"levelo://app?vid=f05ce419-04a0-459a-8f90-fe65c72fa6b4"},"vehicle_type_id":"4","last_reported":1686510277,"current_range_meters":31200,"station_id":"ce4bh292rcd13ifvqdf0","pricing_plan_id":"free"},{"bike_id":"23017dbe-31a6-4a45-be13-7e0a3629411b","system_id":"levelo_inurba_marseille","lat":43.302759,"lon":5.400793,"is_reserved":false,"is_disabled":false,"rental_uris":{"android":"levelo://app?vid=23017dbe-31a6-4a45-be13-7e0a3629411b","ios":"levelo://app?vid=23017dbe-31a6-4a45-be13-7e0a3629411b"},"vehicle_type_id":"4","last_reported":1686510277,"current_range_meters":29600,"station_id":"ce4bgvh2rcd13ifvqcs0","pricing_plan_id":"free"},{"bike_id":"3ccd0029-db2d-478b-91f2-e7f666a8cc12","system_id":"levelo_inurba_marseille","lat":43.286039,"lon":5.370679,"is_reserved":false,"is_disabled":false,"rental_uris":{"android":"levelo://app?vid=3ccd0029-db2d-478b-91f2-e7f666a8cc12","ios":"levelo://app?vid=3ccd0029-db2d-478b-91f2-e7f666a8cc12"},"vehicle_type_id":"4","last_reported":1686510277,"current_range_meters":30000,"station_id":"ce4bht12rcd13ifvqi60","pricing_plan_id":"free"},{"bike_id":"94dabbc2-ef3a-4b4d-b318-1086417d66fe","system_id":"levelo_inurba_marseille","lat":43.30249,"lon":5.40085,"is_reserved":false,"is_disabled":false,"rental_uris":{"android":"levelo://app?vid=94dabbc2-ef3a-4b4d-b318-1086417d66fe","ios":"levelo://app?vid=94dabbc2-ef3a-4b4d-b318-1086417d66fe"},"vehicle_type_id":"4","last_reported":1686510277,"current_range_meters":10800,"station_id":"","pricing_plan_id":"free"},{"bike_id":"5f7ee111-d0d7-4c6b-b1f5-21bd7faefa50","system_id":"levelo_inurba_marseille","lat":43.286039,"lon":5.370681,"is_reserved":false,"is_disabled":false,"rental_uris":{"android":"levelo://app?vid=5f7ee111-d0d7-4c6b-b1f5-21bd7faefa50","ios":"levelo://app?vid=5f7ee111-d0d7-4c6b-b1f5-21bd7faefa50"},"vehicle_type_id":"4","last_reported":1686510277,"current_range_meters":18400,"station_id":"ce4bht12rcd13ifvqi60","pricing_plan_id":"free"},{"bike_id":"da29ea43-fe0a-4ba3-bf9b-0ae1ed77235c","system_id":"levelo_inurba_marseille","lat":43.316517,"lon":5.404375,"is_reserved":false,"is_disabled":false,"rental_uris":{"android":"levelo://app?vid=da29ea43-fe0a-4ba3-bf9b-0ae1ed77235c","ios":"levelo://app?vid=da29ea43-fe0a-4ba3-bf9b-0ae1ed77235c"},"vehicle_type_id":"4","last_reported":1686510277,"current_range_meters":16400,"station_id":"ce4bh012rcd13ifvqd00","pricing_plan_id":"free"},{"bike_id":"7adba4a7-558d-4694-87b2-cfc6eb5ff71e","system_id":"levelo_inurba_marseille","lat":43.316517,"lon":5.404375,"is_reserved":false,"is_disabled":false,"rental_uris":{"android":"levelo://app?vid=7adba4a7-558d-4694-87b2-cfc6eb5ff71e","ios":"levelo://app?vid=7adba4a7-558d-4694-87b2-cfc6eb5ff71e"},"vehicle_type_id":"4","last_reported":1686510277,"current_range_meters":5200,"station_id":"ce4bh012rcd13ifvqd00","pricing_plan_id":"free"},{"bike_id":"eff298ea-3fe5-4d73-a93f-7384cf88b79d","system_id":"levelo_inurba_marseille","lat":43.31647,"lon":5.40434,"is_reserved":false,"is_disabled":false,"rental_uris":{"android":"levelo://app?vid=eff298ea-3fe5-4d73-a93f-7384cf88b79d","ios":"levelo://app?vid=eff298ea-3fe5-4d73-a93f-7384cf88b79d"},"vehicle_type_id":"4","last_reported":1686510277,"current_range_meters":28800,"station_id":"ce4bh012rcd13ifvqd00","pricing_plan_id":"free"},{"bike_id":"71c136a9-23ab-4eb0-a675-8c0ce0a4daf4","system_id":"levelo_inurba_marseille","lat":43.29206,"lon":5.39322,"is_reserved":false,"is_disabled":false,"rental_uris":{"android":"levelo://app?vid=71c136a9-23ab-4eb0-a675-8c0ce0a4daf4","ios":"levelo://app?vid=71c136a9-23ab-4eb0-a675-8c0ce0a4daf4"},"vehicle_type_id":"4","last_reported":1686510277,"current_range_meters":16000,"station_id":"ce4bh192rcd13ifvqdd0","pricing_plan_id":"free"},{"bike_id":"063ecac0-9b1b-481e-9d17-de6dff892e6e","system_id":"levelo_inurba_marseille","lat":43.291994,"lon":5.392907,"is_reserved":false,"is_disabled":false,"rental_uris":{"android":"levelo://app?vid=063ecac0-9b1b-481e-9d17-de6dff892e6e","ios":"levelo://app?vid=063ecac0-9b1b-481e-9d17-de6dff892e6e"},"vehicle_type_id":"4","last_reported":1686510277,"current_range_meters":11600,"station_id":"ce4bh192rcd13ifvqdd0","pricing_plan_id":"free"},{"bike_id":"5fef70ac-fec2-4de4-af00-27344f77db02","system_id":"levelo_inurba_marseille","lat":43.291994,"lon":5.392907,"is_reserved":false,"is_disabled":false,"rental_uris":{"android":"levelo://app?vid=5fef70ac-fec2-4de4-af00-27344f77db02","ios":"levelo://app?vid=5fef70ac-fec2-4de4-af00-27344f77db02"},"vehicle_type_id":"4","last_reported":1686510277,"current_range_meters":8800,"station_id":"ce4bh192rcd13ifvqdd0","pricing_plan_id":"free"},{"bike_id":"0faee95d-6430-44bf-9418-586423cadb9c","system_id":"levelo_inurba_marseille","lat":43.295713,"lon":5.399639,"is_reserved":false,"is_disabled":false,"rental_uris":{"android":"levelo://app?vid=0faee95d-6430-44bf-9418-586423cadb9c","ios":"levelo://app?vid=0faee95d-6430-44bf-9418-586423cadb9c"},"vehicle_type_id":"4","last_reported":1686510277,"current_range_meters":13600,"station_id":"ce4bh312rcd13ifvqdj0","pricing_plan_id":"free"},{"bike_id":"63b8f5ec-00c4-4ca4-b3e7-8919b364d0fd","system_id":"levelo_inurba_marseille","lat":43.295713,"lon":5.399639,"is_reserved":false,"is_disabled":false,"rental_uris":{"android":"levelo://app?vid=63b8f5ec-00c4-4ca4-b3e7-8919b364d0fd","ios":"levelo://app?vid=63b8f5ec-00c4-4ca4-b3e7-8919b364d0fd"},"vehicle_type_id":"4","last_reported":1686510277,"current_range_meters":10800,"station_id":"ce4bh312rcd13ifvqdj0","pricing_plan_id":"free"},{"bike_id":"0b89d82f-c3cd-41c8-885b-31bdcd9d1d0d","system_id":"levelo_inurba_marseille","lat":43.295713,"lon":5.399639,"is_reserved":false,"is_disabled":false,"rental_uris":{"android":"levelo://app?vid=0b89d82f-c3cd-41c8-885b-31bdcd9d1d0d","ios":"levelo://app?vid=0b89d82f-c3cd-41c8-885b-31bdcd9d1d0d"},"vehicle_type_id":"4","last_reported":1686510277,"current_range_meters":7600,"station_id":"ce4bh312rcd13ifvqdj0","pricing_plan_id":"free"},{"bike_id":"1a68c28c-407b-4404-8de1-7f3f883eec7e","system_id":"levelo_inurba_marseille","lat":43.295713,"lon":5.399639,"is_reserved":false,"is_disabled":false,"rental_uris":{"android":"levelo://app?vid=1a68c28c-407b-4404-8de1-7f3f883eec7e","ios":"levelo://app?vid=1a68c28c-407b-4404-8de1-7f3f883eec7e"},"vehicle_type_id":"4","last_reported":1686510277,"current_range_meters":18800,"station_id":"ce4bh312rcd13ifvqdj0","pricing_plan_id":"free"},{"bike_id":"b95f81e1-5592-4270-b090-6699a81784ec","system_id":"levelo_inurba_marseille","lat":43.2957,"lon":5.39976,"is_reserved":false,"is_disabled":false,"rental_uris":{"android":"levelo://app?vid=b95f81e1-5592-4270-b090-6699a81784ec","ios":"levelo://app?vid=b95f81e1-5592-4270-b090-6699a81784ec"},"vehicle_type_id":"4","last_reported":1686510277,"current_range_meters":16000,"station_id":"ce4bh312rcd13ifvqdj0","pricing_plan_id":"free"},{"bike_id":"df76a7f0-d50c-446a-92ae-fbd371fa58d8","system_id":"levelo_inurba_marseille","lat":43.295713,"lon":5.399639,"is_reserved":false,"is_disabled":false,"rental_uris":{"android":"levelo://app?vid=df76a7f0-d50c-446a-92ae-fbd371fa58d8","ios":"levelo://app?vid=df76a7f0-d50c-446a-92ae-fbd371fa58d8"},"vehicle_type_id":"4","last_reported":1686510277,"current_range_meters":28800,"station_id":"ce4bh312rcd13ifvqdj0","pricing_plan_id":"free"},{"bike_id":"a01757e3-df67-4b12-9ed1-b716c2fa2a4c","system_id":"levelo_inurba_marseille","lat":43.296263,"lon":5.40601,"is_reserved":false,"is_disabled":false,"rental_uris":{"android":"levelo://app?vid=a01757e3-df67-4b12-9ed1-b716c2fa2a4c","ios":"levelo://app?vid=a01757e3-df67-4b12-9ed1-b716c2fa2a4c"},"vehicle_type_id":"4","last_reported":1686510277,"current_range_meters":20000,"station_id":"ce4bh0h2rcd13ifvqd60","pricing_plan_id":"free"},{"bike_id":"a81025f4-cdef-441a-b8aa-318cda9fa2f4","system_id":"levelo_inurba_marseille","lat":43.295713,"lon":5.399639,"is_reserved":false,"is_disabled":false,"rental_uris":{"android":"levelo://app?vid=a81025f4-cdef-441a-b8aa-318cda9fa2f4","ios":"levelo://app?vid=a81025f4-cdef-441a-b8aa-318cda9fa2f4"},"vehicle_type_id":"4","last_reported":1686510277,"current_range_meters":22400,"station_id":"ce4bh312rcd13ifvqdj0","pricing_plan_id":"free"},{"bike_id":"ff710ced-6a55-46dc-b29d-7b8e6952c21e","system_id":"levelo_inurba_marseille","lat":43.286595,"lon":5.386795,"is_reserved":false,"is_disabled":false,"rental_uris":{"android":"levelo://app?vid=ff710ced-6a55-46dc-b29d-7b8e6952c21e","ios":"levelo://app?vid=ff710ced-6a55-46dc-b29d-7b8e6952c21e"},"vehicle_type_id":"4","last_reported":1686510277,"current_range_meters":5200,"station_id":"ce4bh492rcd13ifvqdug","pricing_plan_id":"free"},{"bike_id":"6705e394-bf4a-49aa-bf6a-091eca767b8f","system_id":"levelo_inurba_marseille","lat":43.286595,"lon":5.386795,"is_reserved":false,"is_disabled":false,"rental_uris":{"android":"levelo://app?vid=6705e394-bf4a-49aa-bf6a-091eca767b8f","ios":"levelo://app?vid=6705e394-bf4a-49aa-bf6a-091eca767b8f"},"vehicle_type_id":"4","last_reported":1686510277,"current_range_meters":6800,"station_id":"ce4bh492rcd13ifvqdug","pricing_plan_id":"free"},{"bike_id":"94783ff9-d63f-4314-a42f-617e764a1b17","system_id":"levelo_inurba_marseille","lat":43.28536,"lon":5.35037,"is_reserved":false,"is_disabled":false,"rental_uris":{"android":"levelo://app?vid=94783ff9-d63f-4314-a42f-617e764a1b17","ios":"levelo://app?vid=94783ff9-d63f-4314-a42f-617e764a1b17"},"vehicle_type_id":"4","last_reported":1686510277,"current_range_meters":8800,"station_id":"ce4bhbh2rcd13ifvqepg","pricing_plan_id":"free"},{"bike_id":"ba019977-f266-49f9-b8c0-4ba8e8943bc1","system_id":"levelo_inurba_marseille","lat":43.323464,"lon":5.406297,"is_reserved":false,"is_disabled":false,"rental_uris":{"android":"levelo://app?vid=ba019977-f266-49f9-b8c0-4ba8e8943bc1","ios":"levelo://app?vid=ba019977-f266-49f9-b8c0-4ba8e8943bc1"},"vehicle_type_id":"4","last_reported":1686510277,"current_range_meters":31600,"station_id":"ce4bhq92rcd13ifvqhjg","pricing_plan_id":"free"},{"bike_id":"5d501cb1-669d-44db-8610-1e2383559f92","system_id":"levelo_inurba_marseille","lat":43.323464,"lon":5.406297,"is_reserved":false,"is_disabled":false,"rental_uris":{"android":"levelo://app?vid=5d501cb1-669d-44db-8610-1e2383559f92","ios":"levelo://app?vid=5d501cb1-669d-44db-8610-1e2383559f92"},"vehicle_type_id":"4","last_reported":1686510277,"current_range_meters":31600,"station_id":"ce4bhq92rcd13ifvqhjg","pricing_plan_id":"free"},{"bike_id":"41f2d7a2-80eb-41ae-97f7-2bff0670eda4","system_id":"levelo_inurba_marseille","lat":43.323464,"lon":5.406297,"is_reserved":false,"is_disabled":false,"rental_uris":{"android":"levelo://app?vid=41f2d7a2-80eb-41ae-97f7-2bff0670eda4","ios":"levelo://app?vid=41f2d7a2-80eb-41ae-97f7-2bff0670eda4"},"vehicle_type_id":"4","last_reported":1686510277,"current_range_meters":20400,"station_id":"ce4bhq92rcd13ifvqhjg","pricing_plan_id":"free"},{"bike_id":"7d89e3b5-958d-47f6-80fa-adc2175a1ff9","system_id":"levelo_inurba_marseille","lat":43.323464,"lon":5.406297,"is_reserved":false,"is_disabled":false,"rental_uris":{"android":"levelo://app?vid=7d89e3b5-958d-47f6-80fa-adc2175a1ff9","ios":"levelo://app?vid=7d89e3b5-958d-47f6-80fa-adc2175a1ff9"},"vehicle_type_id":"4","last_reported":1686510277,"current_range_meters":31600,"station_id":"ce4bhq92rcd13ifvqhjg","pricing_plan_id":"free"},{"bike_id":"27534a1e-2306-4f0f-ae01-c0f1f95acd1f","system_id":"levelo_inurba_marseille","lat":43.323464,"lon":5.406297,"is_reserved":false,"is_disabled":false,"rental_uris":{"android":"levelo://app?vid=27534a1e-2306-4f0f-ae01-c0f1f95acd1f","ios":"levelo://app?vid=27534a1e-2306-4f0f-ae01-c0f1f95acd1f"},"vehicle_type_id":"4","last_reported":1686510277,"current_range_meters":10000,"station_id":"ce4bhq92rcd13ifvqhjg","pricing_plan_id":"free"},{"bike_id":"425eeefc-6628-4a28-b8d9-12a320729cd7","system_id":"levelo_inurba_marseille","lat":43.283494,"lon":5.380945,"is_reserved":false,"is_disabled":false,"rental_uris":{"android":"levelo://app?vid=425eeefc-6628-4a28-b8d9-12a320729cd7","ios":"levelo://app?vid=425eeefc-6628-4a28-b8d9-12a320729cd7"},"vehicle_type_id":"4","last_reported":1686510277,"current_range_meters":24800,"station_id":"ce4bh412rcd13ifvqdr0","pricing_plan_id":"free"},{"bike_id":"2c858e0d-7c5b-421a-b614-acf886692536","system_id":"levelo_inurba_marseille","lat":43.283498,"lon":5.380948,"is_reserved":false,"is_disabled":false,"rental_uris":{"android":"levelo://app?vid=2c858e0d-7c5b-421a-b614-acf886692536","ios":"levelo://app?vid=2c858e0d-7c5b-421a-b614-acf886692536"},"vehicle_type_id":"4","last_reported":1686510277,"current_range_meters":18000,"station_id":"ce4bh412rcd13ifvqdr0","pricing_plan_id":"free"},{"bike_id":"c9434852-5590-4c4d-bdc8-921714ead1db","system_id":"levelo_inurba_marseille","lat":43.284219,"lon":5.3497,"is_reserved":false,"is_disabled":false,"rental_uris":{"android":"levelo://app?vid=c9434852-5590-4c4d-bdc8-921714ead1db","ios":"levelo://app?vid=c9434852-5590-4c4d-bdc8-921714ead1db"},"vehicle_type_id":"4","last_reported":1686510277,"current_range_meters":0,"station_id":"ce4bhbh2rcd13ifvqepg","pricing_plan_id":"free"},{"bike_id":"491124a3-18e6-4d57-baf7-0175e8e1b927","system_id":"levelo_inurba_marseille","lat":43.292724,"lon":5.401131,"is_reserved":false,"is_disabled":false,"rental_uris":{"android":"levelo://app?vid=491124a3-18e6-4d57-baf7-0175e8e1b927","ios":"levelo://app?vid=491124a3-18e6-4d57-baf7-0175e8e1b927"},"vehicle_type_id":"4","last_reported":1686510277,"current_range_meters":0,"station_id":"ce4bh312rcd13ifvqdk0","pricing_plan_id":"free"},{"bike_id":"23f1916c-c279-4ac9-8afe-a6aa8ad20518","system_id":"levelo_inurba_marseille","lat":43.292724,"lon":5.401131,"is_reserved":false,"is_disabled":false,"rental_uris":{"android":"levelo://app?vid=23f1916c-c279-4ac9-8afe-a6aa8ad20518","ios":"levelo://app?vid=23f1916c-c279-4ac9-8afe-a6aa8ad20518"},"vehicle_type_id":"4","last_reported":1686510277,"current_range_meters":20000,"station_id":"ce4bh312rcd13ifvqdk0","pricing_plan_id":"free"},{"bike_id":"0305f4f5-920b-4668-9486-214d059a899b","system_id":"levelo_inurba_marseille","lat":43.282754,"lon":5.350519,"is_reserved":false,"is_disabled":false,"rental_uris":{"android":"levelo://app?vid=0305f4f5-920b-4668-9486-214d059a899b","ios":"levelo://app?vid=0305f4f5-920b-4668-9486-214d059a899b"},"vehicle_type_id":"4","last_reported":1686510277,"current_range_meters":400,"station_id":"ce4bhbp2rcd13ifvqerg","pricing_plan_id":"free"},{"bike_id":"835b1563-998e-4c0e-b8d2-fbb79f5c2c7e","system_id":"levelo_inurba_marseille","lat":43.28039,"lon":5.369297,"is_reserved":false,"is_disabled":false,"rental_uris":{"android":"levelo://app?vid=835b1563-998e-4c0e-b8d2-fbb79f5c2c7e","ios":"levelo://app?vid=835b1563-998e-4c0e-b8d2-fbb79f5c2c7e"},"vehicle_type_id":"4","last_reported":1686510277,"current_range_meters":3200,"station_id":"ce4bha12rcd13ifvqef0","pricing_plan_id":"free"},{"bike_id":"35f43ff6-914a-4b6f-84c8-07b8cd2e1725","system_id":"levelo_inurba_marseille","lat":43.283502,"lon":5.386471,"is_reserved":false,"is_disabled":false,"rental_uris":{"android":"levelo://app?vid=35f43ff6-914a-4b6f-84c8-07b8cd2e1725","ios":"levelo://app?vid=35f43ff6-914a-4b6f-84c8-07b8cd2e1725"},"vehicle_type_id":"4","last_reported":1686510277,"current_range_meters":27200,"station_id":"ce4bh492rcd13ifvqdvg","pricing_plan_id":"free"},{"bike_id":"409ed5cd-8150-4ebf-ba22-38047c1797de","system_id":"levelo_inurba_marseille","lat":43.29041,"lon":5.399634,"is_reserved":false,"is_disabled":false,"rental_uris":{"android":"levelo://app?vid=409ed5cd-8150-4ebf-ba22-38047c1797de","ios":"levelo://app?vid=409ed5cd-8150-4ebf-ba22-38047c1797de"},"vehicle_type_id":"4","last_reported":1686510277,"current_range_meters":2800,"station_id":"ce4bh392rcd13ifvqdm0","pricing_plan_id":"free"},{"bike_id":"f583957c-c41e-4600-88ee-1e4f40b50284","system_id":"levelo_inurba_marseille","lat":43.281044,"lon":5.378308,"is_reserved":false,"is_disabled":false,"rental_uris":{"android":"levelo://app?vid=f583957c-c41e-4600-88ee-1e4f40b50284","ios":"levelo://app?vid=f583957c-c41e-4600-88ee-1e4f40b50284"},"vehicle_type_id":"4","last_reported":1686510277,"current_range_meters":1600,"station_id":"ce4bha12rcd13ifvqee0","pricing_plan_id":"free"},{"bike_id":"c89273a7-5744-42b7-a763-c23176f7743c","system_id":"levelo_inurba_marseille","lat":43.281044,"lon":5.378308,"is_reserved":false,"is_disabled":false,"rental_uris":{"android":"levelo://app?vid=c89273a7-5744-42b7-a763-c23176f7743c","ios":"levelo://app?vid=c89273a7-5744-42b7-a763-c23176f7743c"},"vehicle_type_id":"4","last_reported":1686510277,"current_range_meters":2800,"station_id":"ce4bha12rcd13ifvqee0","pricing_plan_id":"free"},{"bike_id":"b9174737-93db-4dd6-974f-29fddc15f547","system_id":"levelo_inurba_marseille","lat":43.28104,"lon":5.37849,"is_reserved":false,"is_disabled":false,"rental_uris":{"android":"levelo://app?vid=b9174737-93db-4dd6-974f-29fddc15f547","ios":"levelo://app?vid=b9174737-93db-4dd6-974f-29fddc15f547"},"vehicle_type_id":"4","last_reported":1686510277,"current_range_meters":31200,"station_id":"ce4bha12rcd13ifvqee0","pricing_plan_id":"free"},{"bike_id":"8d956d6f-e46a-49a5-ae67-ae2ef943bab9","system_id":"levelo_inurba_marseille","lat":43.28103,"lon":5.37846,"is_reserved":false,"is_disabled":false,"rental_uris":{"android":"levelo://app?vid=8d956d6f-e46a-49a5-ae67-ae2ef943bab9","ios":"levelo://app?vid=8d956d6f-e46a-49a5-ae67-ae2ef943bab9"},"vehicle_type_id":"4","last_reported":1686510277,"current_range_meters":31200,"station_id":"ce4bha12rcd13ifvqee0","pricing_plan_id":"free"},{"bike_id":"2c158dcd-cf8e-4987-a5ca-672bc00f903b","system_id":"levelo_inurba_marseille","lat":43.285742,"lon":5.395004,"is_reserved":false,"is_disabled":false,"rental_uris":{"android":"levelo://app?vid=2c158dcd-cf8e-4987-a5ca-672bc00f903b","ios":"levelo://app?vid=2c158dcd-cf8e-4987-a5ca-672bc00f903b"},"vehicle_type_id":"4","last_reported":1686510277,"current_range_meters":20800,"station_id":"ce4bh292rcd13ifvqdg0","pricing_plan_id":"free"},{"bike_id":"795b2a56-a1a0-4ff1-8750-6f763471d865","system_id":"levelo_inurba_marseille","lat":43.28573,"lon":5.394992,"is_reserved":false,"is_disabled":false,"rental_uris":{"android":"levelo://app?vid=795b2a56-a1a0-4ff1-8750-6f763471d865","ios":"levelo://app?vid=795b2a56-a1a0-4ff1-8750-6f763471d865"},"vehicle_type_id":"4","last_reported":1686510277,"current_range_meters":26000,"station_id":"ce4bh292rcd13ifvqdg0","pricing_plan_id":"free"},{"bike_id":"bdcf492a-57ef-4c5b-8bd3-c41d9e6341cf","system_id":"levelo_inurba_marseille","lat":43.285742,"lon":5.395004,"is_reserved":false,"is_disabled":false,"rental_uris":{"android":"levelo://app?vid=bdcf492a-57ef-4c5b-8bd3-c41d9e6341cf","ios":"levelo://app?vid=bdcf492a-57ef-4c5b-8bd3-c41d9e6341cf"},"vehicle_type_id":"4","last_reported":1686510277,"current_range_meters":4000,"station_id":"ce4bh292rcd13ifvqdg0","pricing_plan_id":"free"},{"bike_id":"713de1d0-4ad4-44e8-828d-b3f234b356e2","system_id":"levelo_inurba_marseille","lat":43.28573,"lon":5.394992,"is_reserved":false,"is_disabled":false,"rental_uris":{"android":"levelo://app?vid=713de1d0-4ad4-44e8-828d-b3f234b356e2","ios":"levelo://app?vid=713de1d0-4ad4-44e8-828d-b3f234b356e2"},"vehicle_type_id":"4","last_reported":1686510277,"current_range_meters":3200,"station_id":"ce4bh292rcd13ifvqdg0","pricing_plan_id":"free"},{"bike_id":"535f51cb-1438-4393-8e53-482cae9662ac","system_id":"levelo_inurba_marseille","lat":43.326605,"lon":5.409903,"is_reserved":false,"is_disabled":false,"rental_uris":{"android":"levelo://app?vid=535f51cb-1438-4393-8e53-482cae9662ac","ios":"levelo://app?vid=535f51cb-1438-4393-8e53-482cae9662ac"},"vehicle_type_id":"4","last_reported":1686510277,"current_range_meters":20800,"station_id":"ce4bhpp2rcd13ifvqhgg","pricing_plan_id":"free"},{"bike_id":"244b9f94-fe55-4d76-b8c4-7a21cac070fb","system_id":"levelo_inurba_marseille","lat":43.279,"lon":5.38016,"is_reserved":false,"is_disabled":false,"rental_uris":{"android":"levelo://app?vid=244b9f94-fe55-4d76-b8c4-7a21cac070fb","ios":"levelo://app?vid=244b9f94-fe55-4d76-b8c4-7a21cac070fb"},"vehicle_type_id":"4","last_reported":1686510277,"current_range_meters":0,"station_id":"","pricing_plan_id":"free"},{"bike_id":"7cca538d-62ab-4e01-aa18-feb71db7fb91","system_id":"levelo_inurba_marseille","lat":43.287154,"lon":5.399979,"is_reserved":false,"is_disabled":false,"rental_uris":{"android":"levelo://app?vid=7cca538d-62ab-4e01-aa18-feb71db7fb91","ios":"levelo://app?vid=7cca538d-62ab-4e01-aa18-feb71db7fb91"},"vehicle_type_id":"4","last_reported":1686510277,"current_range_meters":30000,"station_id":"ce4bho92rcd13ifvqh3g","pricing_plan_id":"free"},{"bike_id":"ce0aa8c7-35e9-4b79-bdd4-a0da521e2a96","system_id":"levelo_inurba_marseille","lat":43.320045,"lon":5.415046,"is_reserved":false,"is_disabled":false,"rental_uris":{"android":"levelo://app?vid=ce0aa8c7-35e9-4b79-bdd4-a0da521e2a96","ios":"levelo://app?vid=ce0aa8c7-35e9-4b79-bdd4-a0da521e2a96"},"vehicle_type_id":"4","last_reported":1686510277,"current_range_meters":30400,"station_id":"ce4bhq92rcd13ifvqhkg","pricing_plan_id":"free"},{"bike_id":"16abe0a6-14cb-46b9-bd69-8e2ddb6b668e","system_id":"levelo_inurba_marseille","lat":43.292571,"lon":5.409107,"is_reserved":false,"is_disabled":false,"rental_uris":{"android":"levelo://app?vid=16abe0a6-14cb-46b9-bd69-8e2ddb6b668e","ios":"levelo://app?vid=16abe0a6-14cb-46b9-bd69-8e2ddb6b668e"},"vehicle_type_id":"4","last_reported":1686510277,"current_range_meters":17600,"station_id":"ce4bh192rcd13ifvqdc0","pricing_plan_id":"free"},{"bike_id":"abecd1c5-3044-4da0-90d5-520110b8e94d","system_id":"levelo_inurba_marseille","lat":43.292569,"lon":5.409107,"is_reserved":false,"is_disabled":false,"rental_uris":{"android":"levelo://app?vid=abecd1c5-3044-4da0-90d5-520110b8e94d","ios":"levelo://app?vid=abecd1c5-3044-4da0-90d5-520110b8e94d"},"vehicle_type_id":"4","last_reported":1686510277,"current_range_meters":13200,"station_id":"ce4bh192rcd13ifvqdc0","pricing_plan_id":"free"},{"bike_id":"28b3fb03-12f5-4103-8f5a-2b1bb3987b88","system_id":"levelo_inurba_marseille","lat":43.280784,"lon":5.396622,"is_reserved":false,"is_disabled":false,"rental_uris":{"android":"levelo://app?vid=28b3fb03-12f5-4103-8f5a-2b1bb3987b88","ios":"levelo://app?vid=28b3fb03-12f5-4103-8f5a-2b1bb3987b88"},"vehicle_type_id":"4","last_reported":1686510277,"current_range_meters":800,"station_id":"ce4bho12rcd13ifvqh2g","pricing_plan_id":"free"},{"bike_id":"f4598230-6619-4740-a94e-a35b9ec64ef7","system_id":"levelo_inurba_marseille","lat":43.280784,"lon":5.396622,"is_reserved":false,"is_disabled":false,"rental_uris":{"android":"levelo://app?vid=f4598230-6619-4740-a94e-a35b9ec64ef7","ios":"levelo://app?vid=f4598230-6619-4740-a94e-a35b9ec64ef7"},"vehicle_type_id":"4","last_reported":1686510277,"current_range_meters":23600,"station_id":"ce4bho12rcd13ifvqh2g","pricing_plan_id":"free"},{"bike_id":"b734e5d5-f5b8-4cfd-9f8b-d3b8ac17a581","system_id":"levelo_inurba_marseille","lat":43.336134,"lon":5.410341,"is_reserved":false,"is_disabled":false,"rental_uris":{"android":"levelo://app?vid=b734e5d5-f5b8-4cfd-9f8b-d3b8ac17a581","ios":"levelo://app?vid=b734e5d5-f5b8-4cfd-9f8b-d3b8ac17a581"},"vehicle_type_id":"4","last_reported":1686510277,"current_range_meters":3600,"station_id":"ce4bhqh2rcd13ifvqhmg","pricing_plan_id":"free"},{"bike_id":"19e1df7e-0428-428f-9c0d-d5d504c42f17","system_id":"levelo_inurba_marseille","lat":43.27375,"lon":5.36248,"is_reserved":false,"is_disabled":false,"rental_uris":{"android":"levelo://app?vid=19e1df7e-0428-428f-9c0d-d5d504c42f17","ios":"levelo://app?vid=19e1df7e-0428-428f-9c0d-d5d504c42f17"},"vehicle_type_id":"4","last_reported":1686510277,"current_range_meters":0,"station_id":"ce4bhbh2rcd13ifvqeo0","pricing_plan_id":"free"},{"bike_id":"39612b5b-e1ea-497b-85ad-4772551df064","system_id":"levelo_inurba_marseille","lat":43.336134,"lon":5.410341,"is_reserved":false,"is_disabled":false,"rental_uris":{"android":"levelo://app?vid=39612b5b-e1ea-497b-85ad-4772551df064","ios":"levelo://app?vid=39612b5b-e1ea-497b-85ad-4772551df064"},"vehicle_type_id":"4","last_reported":1686510277,"current_range_meters":28800,"station_id":"ce4bhqh2rcd13ifvqhmg","pricing_plan_id":"free"},{"bike_id":"0041724c-111a-49a2-8a13-2cf8d3f31a33","system_id":"levelo_inurba_marseille","lat":43.336134,"lon":5.410341,"is_reserved":false,"is_disabled":false,"rental_uris":{"android":"levelo://app?vid=0041724c-111a-49a2-8a13-2cf8d3f31a33","ios":"levelo://app?vid=0041724c-111a-49a2-8a13-2cf8d3f31a33"},"vehicle_type_id":"4","last_reported":1686510277,"current_range_meters":9200,"station_id":"ce4bhqh2rcd13ifvqhmg","pricing_plan_id":"free"},{"bike_id":"c32d9a17-b4ba-47a1-b2dc-974b8a4f3c9c","system_id":"levelo_inurba_marseille","lat":43.336134,"lon":5.410341,"is_reserved":false,"is_disabled":false,"rental_uris":{"android":"levelo://app?vid=c32d9a17-b4ba-47a1-b2dc-974b8a4f3c9c","ios":"levelo://app?vid=c32d9a17-b4ba-47a1-b2dc-974b8a4f3c9c"},"vehicle_type_id":"4","last_reported":1686510277,"current_range_meters":17200,"station_id":"ce4bhqh2rcd13ifvqhmg","pricing_plan_id":"free"},{"bike_id":"97ce5bce-ffc5-4903-adf2-5f6accf2241e","system_id":"levelo_inurba_marseille","lat":43.336134,"lon":5.410341,"is_reserved":false,"is_disabled":false,"rental_uris":{"android":"levelo://app?vid=97ce5bce-ffc5-4903-adf2-5f6accf2241e","ios":"levelo://app?vid=97ce5bce-ffc5-4903-adf2-5f6accf2241e"},"vehicle_type_id":"4","last_reported":1686510277,"current_range_meters":7600,"station_id":"ce4bhqh2rcd13ifvqhmg","pricing_plan_id":"free"},{"bike_id":"0d8127f9-d931-4886-ae1d-cc889ece4400","system_id":"levelo_inurba_marseille","lat":43.33608,"lon":5.4104,"is_reserved":false,"is_disabled":false,"rental_uris":{"android":"levelo://app?vid=0d8127f9-d931-4886-ae1d-cc889ece4400","ios":"levelo://app?vid=0d8127f9-d931-4886-ae1d-cc889ece4400"},"vehicle_type_id":"4","last_reported":1686510277,"current_range_meters":22000,"station_id":"ce4bhqh2rcd13ifvqhmg","pricing_plan_id":"free"},{"bike_id":"486cd25e-8e09-4a6d-ae93-ee6bbcee29aa","system_id":"levelo_inurba_marseille","lat":43.276771,"lon":5.388799,"is_reserved":false,"is_disabled":false,"rental_uris":{"android":"levelo://app?vid=486cd25e-8e09-4a6d-ae93-ee6bbcee29aa","ios":"levelo://app?vid=486cd25e-8e09-4a6d-ae93-ee6bbcee29aa"},"vehicle_type_id":"4","last_reported":1686510277,"current_range_meters":8000,"station_id":"ce4bhi12rcd13ifvqfo0","pricing_plan_id":"free"},{"bike_id":"80491d20-eb37-46ca-b258-e5ee88572d37","system_id":"levelo_inurba_marseille","lat":43.276771,"lon":5.388799,"is_reserved":false,"is_disabled":false,"rental_uris":{"android":"levelo://app?vid=80491d20-eb37-46ca-b258-e5ee88572d37","ios":"levelo://app?vid=80491d20-eb37-46ca-b258-e5ee88572d37"},"vehicle_type_id":"4","last_reported":1686510277,"current_range_meters":10800,"station_id":"ce4bhi12rcd13ifvqfo0","pricing_plan_id":"free"},{"bike_id":"0bb0e2be-ac35-489b-aee1-af4791d0a0d1","system_id":"levelo_inurba_marseille","lat":43.27656,"lon":5.38894,"is_reserved":false,"is_disabled":false,"rental_uris":{"android":"levelo://app?vid=0bb0e2be-ac35-489b-aee1-af4791d0a0d1","ios":"levelo://app?vid=0bb0e2be-ac35-489b-aee1-af4791d0a0d1"},"vehicle_type_id":"4","last_reported":1686510277,"current_range_meters":17600,"station_id":"ce4bhi12rcd13ifvqfo0","pricing_plan_id":"free"},{"bike_id":"a3ab487b-562c-4c45-bd3a-3040ffdeefd4","system_id":"levelo_inurba_marseille","lat":43.27794,"lon":5.3943,"is_reserved":false,"is_disabled":false,"rental_uris":{"android":"levelo://app?vid=a3ab487b-562c-4c45-bd3a-3040ffdeefd4","ios":"levelo://app?vid=a3ab487b-562c-4c45-bd3a-3040ffdeefd4"},"vehicle_type_id":"4","last_reported":1686510277,"current_range_meters":400,"station_id":"","pricing_plan_id":"free"},{"bike_id":"c75ec162-0efe-467a-a98a-50133ea5de05","system_id":"levelo_inurba_marseille","lat":43.27614,"lon":5.39489,"is_reserved":false,"is_disabled":false,"rental_uris":{"android":"levelo://app?vid=c75ec162-0efe-467a-a98a-50133ea5de05","ios":"levelo://app?vid=c75ec162-0efe-467a-a98a-50133ea5de05"},"vehicle_type_id":"4","last_reported":1686510277,"current_range_meters":15600,"station_id":"","pricing_plan_id":"free"},{"bike_id":"acecd038-56ee-410d-881c-ffa02850a176","system_id":"levelo_inurba_marseille","lat":43.275,"lon":5.39555,"is_reserved":false,"is_disabled":false,"rental_uris":{"android":"levelo://app?vid=acecd038-56ee-410d-881c-ffa02850a176","ios":"levelo://app?vid=acecd038-56ee-410d-881c-ffa02850a176"},"vehicle_type_id":"4","last_reported":1686510277,"current_range_meters":0,"station_id":"ce4bhhp2rcd13ifvqfm0","pricing_plan_id":"free"},{"bike_id":"0f593172-f356-4edb-8926-9e955f527f49","system_id":"levelo_inurba_marseille","lat":43.295523,"lon":5.422926,"is_reserved":false,"is_disabled":false,"rental_uris":{"android":"levelo://app?vid=0f593172-f356-4edb-8926-9e955f527f49","ios":"levelo://app?vid=0f593172-f356-4edb-8926-9e955f527f49"},"vehicle_type_id":"4","last_reported":1686510277,"current_range_meters":31200,"station_id":"ce4bhph2rcd13ifvqhdg","pricing_plan_id":"free"},{"bike_id":"ea995902-89b5-4024-b3eb-675fd6111cd7","system_id":"levelo_inurba_marseille","lat":43.29555,"lon":5.42286,"is_reserved":false,"is_disabled":false,"rental_uris":{"android":"levelo://app?vid=ea995902-89b5-4024-b3eb-675fd6111cd7","ios":"levelo://app?vid=ea995902-89b5-4024-b3eb-675fd6111cd7"},"vehicle_type_id":"4","last_reported":1686510277,"current_range_meters":10800,"station_id":"ce4bhph2rcd13ifvqhdg","pricing_plan_id":"free"},{"bike_id":"94c2c3dd-e251-4f69-94fb-06352d89fc2a","system_id":"levelo_inurba_marseille","lat":43.295523,"lon":5.422926,"is_reserved":false,"is_disabled":false,"rental_uris":{"android":"levelo://app?vid=94c2c3dd-e251-4f69-94fb-06352d89fc2a","ios":"levelo://app?vid=94c2c3dd-e251-4f69-94fb-06352d89fc2a"},"vehicle_type_id":"4","last_reported":1686510277,"current_range_meters":30800,"station_id":"ce4bhph2rcd13ifvqhdg","pricing_plan_id":"free"},{"bike_id":"c61211a5-5719-4f69-8995-2305b5031c1c","system_id":"levelo_inurba_marseille","lat":43.295523,"lon":5.422926,"is_reserved":false,"is_disabled":false,"rental_uris":{"android":"levelo://app?vid=c61211a5-5719-4f69-8995-2305b5031c1c","ios":"levelo://app?vid=c61211a5-5719-4f69-8995-2305b5031c1c"},"vehicle_type_id":"4","last_reported":1686510277,"current_range_meters":29600,"station_id":"ce4bhph2rcd13ifvqhdg","pricing_plan_id":"free"},{"bike_id":"ee96639b-e394-48d8-ae41-ba904a5102e9","system_id":"levelo_inurba_marseille","lat":43.295523,"lon":5.422926,"is_reserved":false,"is_disabled":false,"rental_uris":{"android":"levelo://app?vid=ee96639b-e394-48d8-ae41-ba904a5102e9","ios":"levelo://app?vid=ee96639b-e394-48d8-ae41-ba904a5102e9"},"vehicle_type_id":"4","last_reported":1686510277,"current_range_meters":29600,"station_id":"ce4bhph2rcd13ifvqhdg","pricing_plan_id":"free"},{"bike_id":"a31cccca-babf-4d6a-beeb-2981f9a02240","system_id":"levelo_inurba_marseille","lat":43.27209,"lon":5.3919,"is_reserved":false,"is_disabled":false,"rental_uris":{"android":"levelo://app?vid=a31cccca-babf-4d6a-beeb-2981f9a02240","ios":"levelo://app?vid=a31cccca-babf-4d6a-beeb-2981f9a02240"},"vehicle_type_id":"4","last_reported":1686510277,"current_range_meters":0,"station_id":"ce4bhhp2rcd13ifvqfm0","pricing_plan_id":"free"},{"bike_id":"981d1d10-ea2a-4dd8-ad94-ab108adc108a","system_id":"levelo_inurba_marseille","lat":43.278128,"lon":5.407195,"is_reserved":false,"is_disabled":false,"rental_uris":{"android":"levelo://app?vid=981d1d10-ea2a-4dd8-ad94-ab108adc108a","ios":"levelo://app?vid=981d1d10-ea2a-4dd8-ad94-ab108adc108a"},"vehicle_type_id":"4","last_reported":1686510277,"current_range_meters":26800,"station_id":"ce4bhnh2rcd13ifvqgtg","pricing_plan_id":"free"},{"bike_id":"416a106e-095e-4bd0-89e8-32225630085b","system_id":"levelo_inurba_marseille","lat":43.26963,"lon":5.38632,"is_reserved":false,"is_disabled":false,"rental_uris":{"android":"levelo://app?vid=416a106e-095e-4bd0-89e8-32225630085b","ios":"levelo://app?vid=416a106e-095e-4bd0-89e8-32225630085b"},"vehicle_type_id":"4","last_reported":1686510277,"current_range_meters":11600,"station_id":"ce4bhh92rcd13ifvqfh0","pricing_plan_id":"free"},{"bike_id":"e6036ced-0b9d-469e-822d-99fe54ad1c52","system_id":"levelo_inurba_marseille","lat":43.27757,"lon":5.40637,"is_reserved":false,"is_disabled":false,"rental_uris":{"android":"levelo://app?vid=e6036ced-0b9d-469e-822d-99fe54ad1c52","ios":"levelo://app?vid=e6036ced-0b9d-469e-822d-99fe54ad1c52"},"vehicle_type_id":"4","last_reported":1686510277,"current_range_meters":0,"station_id":"","pricing_plan_id":"free"},{"bike_id":"b34f41b8-51a7-4879-afac-4b1a95d01a94","system_id":"levelo_inurba_marseille","lat":43.26942,"lon":5.38918,"is_reserved":false,"is_disabled":false,"rental_uris":{"android":"levelo://app?vid=b34f41b8-51a7-4879-afac-4b1a95d01a94","ios":"levelo://app?vid=b34f41b8-51a7-4879-afac-4b1a95d01a94"},"vehicle_type_id":"4","last_reported":1686510277,"current_range_meters":18400,"station_id":"ce4bhhh2rcd13ifvqfl0","pricing_plan_id":"free"},{"bike_id":"9894d5d3-ef9d-4d32-b26a-b6c7d3993d4f","system_id":"levelo_inurba_marseille","lat":43.26544,"lon":5.37338,"is_reserved":false,"is_disabled":false,"rental_uris":{"android":"levelo://app?vid=9894d5d3-ef9d-4d32-b26a-b6c7d3993d4f","ios":"levelo://app?vid=9894d5d3-ef9d-4d32-b26a-b6c7d3993d4f"},"vehicle_type_id":"4","last_reported":1686510277,"current_range_meters":0,"station_id":"","pricing_plan_id":"free"},{"bike_id":"2a843613-41c9-46cd-a008-cadee2d64375","system_id":"levelo_inurba_marseille","lat":43.33031,"lon":5.42816,"is_reserved":false,"is_disabled":false,"rental_uris":{"android":"levelo://app?vid=2a843613-41c9-46cd-a008-cadee2d64375","ios":"levelo://app?vid=2a843613-41c9-46cd-a008-cadee2d64375"},"vehicle_type_id":"4","last_reported":1686510277,"current_range_meters":7600,"station_id":"","pricing_plan_id":"free"},{"bike_id":"bd05d292-3d14-47e5-83c5-2f47c575bce3","system_id":"levelo_inurba_marseille","lat":43.28001,"lon":5.41662,"is_reserved":false,"is_disabled":false,"rental_uris":{"android":"levelo://app?vid=bd05d292-3d14-47e5-83c5-2f47c575bce3","ios":"levelo://app?vid=bd05d292-3d14-47e5-83c5-2f47c575bce3"},"vehicle_type_id":"4","last_reported":1686510277,"current_range_meters":8800,"station_id":"ce4bho12rcd13ifvqh1g","pricing_plan_id":"free"},{"bike_id":"dcedf30b-318b-429d-8532-bf688a1137e6","system_id":"levelo_inurba_marseille","lat":43.27996,"lon":5.4166,"is_reserved":false,"is_disabled":false,"rental_uris":{"android":"levelo://app?vid=dcedf30b-318b-429d-8532-bf688a1137e6","ios":"levelo://app?vid=dcedf30b-318b-429d-8532-bf688a1137e6"},"vehicle_type_id":"4","last_reported":1686510277,"current_range_meters":400,"station_id":"ce4bho12rcd13ifvqh1g","pricing_plan_id":"free"},{"bike_id":"14f5cec5-96eb-4aca-8373-08a5e17d1fd3","system_id":"levelo_inurba_marseille","lat":43.27994,"lon":5.41658,"is_reserved":false,"is_disabled":false,"rental_uris":{"android":"levelo://app?vid=14f5cec5-96eb-4aca-8373-08a5e17d1fd3","ios":"levelo://app?vid=14f5cec5-96eb-4aca-8373-08a5e17d1fd3"},"vehicle_type_id":"4","last_reported":1686510277,"current_range_meters":12800,"station_id":"ce4bho12rcd13ifvqh1g","pricing_plan_id":"free"},{"bike_id":"44df57a6-707a-4d51-9679-f6a683120cbb","system_id":"levelo_inurba_marseille","lat":43.27987,"lon":5.41661,"is_reserved":false,"is_disabled":false,"rental_uris":{"android":"levelo://app?vid=44df57a6-707a-4d51-9679-f6a683120cbb","ios":"levelo://app?vid=44df57a6-707a-4d51-9679-f6a683120cbb"},"vehicle_type_id":"4","last_reported":1686510277,"current_range_meters":14000,"station_id":"ce4bho12rcd13ifvqh1g","pricing_plan_id":"free"},{"bike_id":"e4649357-2dea-4d63-ab53-077e0ad218cf","system_id":"levelo_inurba_marseille","lat":43.27985,"lon":5.41662,"is_reserved":false,"is_disabled":false,"rental_uris":{"android":"levelo://app?vid=e4649357-2dea-4d63-ab53-077e0ad218cf","ios":"levelo://app?vid=e4649357-2dea-4d63-ab53-077e0ad218cf"},"vehicle_type_id":"4","last_reported":1686510277,"current_range_meters":15200,"station_id":"ce4bho12rcd13ifvqh1g","pricing_plan_id":"free"},{"bike_id":"2cb6bad8-efca-4812-8844-42f1973c875e","system_id":"levelo_inurba_marseille","lat":43.2798,"lon":5.41667,"is_reserved":false,"is_disabled":false,"rental_uris":{"android":"levelo://app?vid=2cb6bad8-efca-4812-8844-42f1973c875e","ios":"levelo://app?vid=2cb6bad8-efca-4812-8844-42f1973c875e"},"vehicle_type_id":"4","last_reported":1686510277,"current_range_meters":16800,"station_id":"ce4bho12rcd13ifvqh1g","pricing_plan_id":"free"},{"bike_id":"1a1d422a-301d-4789-8494-54a5b0a82fbb","system_id":"levelo_inurba_marseille","lat":43.267966,"lon":5.393976,"is_reserved":false,"is_disabled":false,"rental_uris":{"android":"levelo://app?vid=1a1d422a-301d-4789-8494-54a5b0a82fbb","ios":"levelo://app?vid=1a1d422a-301d-4789-8494-54a5b0a82fbb"},"vehicle_type_id":"4","last_reported":1686510277,"current_range_meters":28000,"station_id":"ce4bhh12rcd13ifvqfg0","pricing_plan_id":"free"},{"bike_id":"78a0e235-0cde-473d-a1c4-1a3d90852a84","system_id":"levelo_inurba_marseille","lat":43.31568,"lon":5.43508,"is_reserved":false,"is_disabled":false,"rental_uris":{"android":"levelo://app?vid=78a0e235-0cde-473d-a1c4-1a3d90852a84","ios":"levelo://app?vid=78a0e235-0cde-473d-a1c4-1a3d90852a84"},"vehicle_type_id":"4","last_reported":1686510277,"current_range_meters":21600,"station_id":"","pricing_plan_id":"free"},{"bike_id":"f9eeff49-f17a-4155-b7fa-411650003821","system_id":"levelo_inurba_marseille","lat":43.308,"lon":5.43521,"is_reserved":false,"is_disabled":false,"rental_uris":{"android":"levelo://app?vid=f9eeff49-f17a-4155-b7fa-411650003821","ios":"levelo://app?vid=f9eeff49-f17a-4155-b7fa-411650003821"},"vehicle_type_id":"4","last_reported":1686510277,"current_range_meters":10400,"station_id":"","pricing_plan_id":"free"},{"bike_id":"91d94c71-8533-4efc-a134-db40f05119ac","system_id":"levelo_inurba_marseille","lat":43.26234,"lon":5.37046,"is_reserved":false,"is_disabled":false,"rental_uris":{"android":"levelo://app?vid=91d94c71-8533-4efc-a134-db40f05119ac","ios":"levelo://app?vid=91d94c71-8533-4efc-a134-db40f05119ac"},"vehicle_type_id":"4","last_reported":1686510277,"current_range_meters":12000,"station_id":"","pricing_plan_id":"free"},{"bike_id":"025c652d-bbb7-4a53-9f16-ed1a6df4b4a6","system_id":"levelo_inurba_marseille","lat":43.33332,"lon":5.43124,"is_reserved":false,"is_disabled":false,"rental_uris":{"android":"levelo://app?vid=025c652d-bbb7-4a53-9f16-ed1a6df4b4a6","ios":"levelo://app?vid=025c652d-bbb7-4a53-9f16-ed1a6df4b4a6"},"vehicle_type_id":"4","last_reported":1686510277,"current_range_meters":16400,"station_id":"","pricing_plan_id":"free"},{"bike_id":"f1a3b8b2-b912-4596-9a82-f9b191d5ef45","system_id":"levelo_inurba_marseille","lat":43.317104,"lon":5.436818,"is_reserved":false,"is_disabled":false,"rental_uris":{"android":"levelo://app?vid=f1a3b8b2-b912-4596-9a82-f9b191d5ef45","ios":"levelo://app?vid=f1a3b8b2-b912-4596-9a82-f9b191d5ef45"},"vehicle_type_id":"4","last_reported":1686510277,"current_range_meters":28000,"station_id":"ce4bhp92rcd13ifvqhcg","pricing_plan_id":"free"},{"bike_id":"da194df1-8147-4b18-9d6c-99bc922c0acf","system_id":"levelo_inurba_marseille","lat":43.27188,"lon":5.40993,"is_reserved":false,"is_disabled":false,"rental_uris":{"android":"levelo://app?vid=da194df1-8147-4b18-9d6c-99bc922c0acf","ios":"levelo://app?vid=da194df1-8147-4b18-9d6c-99bc922c0acf"},"vehicle_type_id":"4","last_reported":1686510277,"current_range_meters":28000,"station_id":"","pricing_plan_id":"free"},{"bike_id":"363f1728-0e5d-4438-9158-c2d648af2e60","system_id":"levelo_inurba_marseille","lat":43.271368,"lon":5.40928,"is_reserved":false,"is_disabled":false,"rental_uris":{"android":"levelo://app?vid=363f1728-0e5d-4438-9158-c2d648af2e60","ios":"levelo://app?vid=363f1728-0e5d-4438-9158-c2d648af2e60"},"vehicle_type_id":"4","last_reported":1686510277,"current_range_meters":4000,"station_id":"ce4bhl12rcd13ifvqgf0","pricing_plan_id":"free"},{"bike_id":"0a84d226-a987-4905-9bd1-864593ddf54d","system_id":"levelo_inurba_marseille","lat":43.27175,"lon":5.40993,"is_reserved":false,"is_disabled":false,"rental_uris":{"android":"levelo://app?vid=0a84d226-a987-4905-9bd1-864593ddf54d","ios":"levelo://app?vid=0a84d226-a987-4905-9bd1-864593ddf54d"},"vehicle_type_id":"4","last_reported":1686510277,"current_range_meters":28000,"station_id":"","pricing_plan_id":"free"},{"bike_id":"16a8afdb-69e5-4cd0-8383-4cf2bdf6584a","system_id":"levelo_inurba_marseille","lat":43.267959,"lon":5.402685,"is_reserved":false,"is_disabled":false,"rental_uris":{"android":"levelo://app?vid=16a8afdb-69e5-4cd0-8383-4cf2bdf6584a","ios":"levelo://app?vid=16a8afdb-69e5-4cd0-8383-4cf2bdf6584a"},"vehicle_type_id":"4","last_reported":1686510277,"current_range_meters":2000,"station_id":"ce501612rcd8frsf0b60","pricing_plan_id":"free"},{"bike_id":"f3f6756d-2250-46a1-8a7f-5a9779258aeb","system_id":"levelo_inurba_marseille","lat":43.26811,"lon":5.4028,"is_reserved":false,"is_disabled":false,"rental_uris":{"android":"levelo://app?vid=f3f6756d-2250-46a1-8a7f-5a9779258aeb","ios":"levelo://app?vid=f3f6756d-2250-46a1-8a7f-5a9779258aeb"},"vehicle_type_id":"4","last_reported":1686510277,"current_range_meters":12800,"station_id":"ce501612rcd8frsf0b60","pricing_plan_id":"free"},{"bike_id":"1e50d4c5-46cf-4d7c-9130-3b1369edbffb","system_id":"levelo_inurba_marseille","lat":43.27343,"lon":5.41417,"is_reserved":false,"is_disabled":false,"rental_uris":{"android":"levelo://app?vid=1e50d4c5-46cf-4d7c-9130-3b1369edbffb","ios":"levelo://app?vid=1e50d4c5-46cf-4d7c-9130-3b1369edbffb"},"vehicle_type_id":"4","last_reported":1686510277,"current_range_meters":14400,"station_id":"","pricing_plan_id":"free"},{"bike_id":"09706511-9637-4cfb-a8cf-69d9cc386777","system_id":"levelo_inurba_marseille","lat":43.27918,"lon":5.42225,"is_reserved":false,"is_disabled":false,"rental_uris":{"android":"levelo://app?vid=09706511-9637-4cfb-a8cf-69d9cc386777","ios":"levelo://app?vid=09706511-9637-4cfb-a8cf-69d9cc386777"},"vehicle_type_id":"4","last_reported":1686510277,"current_range_meters":24000,"station_id":"","pricing_plan_id":"free"},{"bike_id":"a8758f9b-0351-49f1-ab55-280eb8f3f2b2","system_id":"levelo_inurba_marseille","lat":43.27312,"lon":5.41453,"is_reserved":false,"is_disabled":false,"rental_uris":{"android":"levelo://app?vid=a8758f9b-0351-49f1-ab55-280eb8f3f2b2","ios":"levelo://app?vid=a8758f9b-0351-49f1-ab55-280eb8f3f2b2"},"vehicle_type_id":"4","last_reported":1686510277,"current_range_meters":28000,"station_id":"","pricing_plan_id":"free"},{"bike_id":"6853ea80-78f9-4825-8105-002e10c67b8f","system_id":"levelo_inurba_marseille","lat":43.33286,"lon":5.43578,"is_reserved":false,"is_disabled":false,"rental_uris":{"android":"levelo://app?vid=6853ea80-78f9-4825-8105-002e10c67b8f","ios":"levelo://app?vid=6853ea80-78f9-4825-8105-002e10c67b8f"},"vehicle_type_id":"4","last_reported":1686510277,"current_range_meters":13600,"station_id":"","pricing_plan_id":"free"},{"bike_id":"d08097bb-9695-444e-8450-899e276525e0","system_id":"levelo_inurba_marseille","lat":43.2607,"lon":5.393983,"is_reserved":false,"is_disabled":false,"rental_uris":{"android":"levelo://app?vid=d08097bb-9695-444e-8450-899e276525e0","ios":"levelo://app?vid=d08097bb-9695-444e-8450-899e276525e0"},"vehicle_type_id":"4","last_reported":1686510277,"current_range_meters":17200,"station_id":"ce4bhh92rcd13ifvqfj0","pricing_plan_id":"free"},{"bike_id":"27d37d84-14e7-47e9-95f2-d9ab8231d56d","system_id":"levelo_inurba_marseille","lat":43.2607,"lon":5.393983,"is_reserved":false,"is_disabled":false,"rental_uris":{"android":"levelo://app?vid=27d37d84-14e7-47e9-95f2-d9ab8231d56d","ios":"levelo://app?vid=27d37d84-14e7-47e9-95f2-d9ab8231d56d"},"vehicle_type_id":"4","last_reported":1686510277,"current_range_meters":23600,"station_id":"ce4bhh92rcd13ifvqfj0","pricing_plan_id":"free"},{"bike_id":"432f15c2-cd0a-4a60-b518-8583c80784eb","system_id":"levelo_inurba_marseille","lat":43.27497,"lon":5.42448,"is_reserved":false,"is_disabled":false,"rental_uris":{"android":"levelo://app?vid=432f15c2-cd0a-4a60-b518-8583c80784eb","ios":"levelo://app?vid=432f15c2-cd0a-4a60-b518-8583c80784eb"},"vehicle_type_id":"4","last_reported":1686510277,"current_range_meters":14000,"station_id":"ce4bhn92rcd13ifvqgrg","pricing_plan_id":"free"},