{"last_updated":1743167965,"ttl":60,"version":"2.2","data":{"bikes":[{"bike_id":"734f0f8e-0b73-4e95-a517-86abf5545b75","system_id":"levelo_inurba_marseille","lat":43.246485,"lon":5.388902,"is_reserved":false,"is_disabled":false,"rental_uris":{"android":"levelo://app?vid=734f0f8e-0b73-4e95-a517-86abf5545b75","ios":"levelo://app?vid=734f0f8e-0b73-4e95-a517-86abf5545b75"},"vehicle_type_id":"4","last_reported":1743167965,"current_range_meters":2800,"station_id":"ce4bhg12rcd13ifvqf60","pricing_plan_id":"cebpf4jnsgd1na2vs0mg"},{"bike_id":"b98a968c-3a04-4e28-b6a9-09bb438f4ac3","system_id":"levelo_inurba_marseille","lat":43.28439,"lon":5.3921,"is_reserved":false,"is_disabled":false,"rental_uris":{"android":"levelo://app?vid=b98a968c-3a04-4e28-b6a9-09bb438f4ac3","ios":"levelo://app?vid=b98a968c-3a04-4e28-b6a9-09bb438f4ac3"},"vehicle_type_id":"4","last_reported":1743167965,"current_range_meters":2800,"station_id":"ce4bhoh2rcd13ifvqh5g","pricing_plan_id":"cebpf4jnsgd1na2vs0mg"},{"bike_id":"4ce7d802-3e0e-4446-9139-88de3742c8a7","system_id":"levelo_inurba_marseille","lat":43.251022,"lon":5.403092,"is_reserved":false,"is_disabled":false,"rental_uris":{"android":"levelo://app?vid=4ce7d802-3e0e-4446-9139-88de3742c8a7","ios":"levelo://app?vid=4ce7d802-3e0e-4446-9139-88de3742c8a7"},"vehicle_type_id":"4","last_reported":1743167965,"current_range_meters":2800,"station_id":"ce4bhlh2rcd13ifvqgig","pricing_plan_id":"cebpf4jnsgd1na2vs0mg"},{"bike_id":"aa2c8fd8-09ef-4534-85bb-86117731fc91","system_id":"levelo_inurba_marseille","lat":43.29539,"lon":5.38557,"is_reserved":false,"is_disabled":false,"rental_uris":{"android":"levelo://app?vid=aa2c8fd8-09ef-4534-85bb-86117731fc91","ios":"levelo://app?vid=aa2c8fd8-09ef-4534-85bb-86117731fc91"},"vehicle_type_id":"4","last_reported":1743167965,"current_range_meters":2000,"station_id":"ce4bgih2rcd13ifvqba0","pricing_plan_id":"cebpf4jnsgd1na2vs0mg"},{"bike_id":"bf11597b-0c33-458e-b8a4-c91ea9d1fe61","system_id":"levelo_inurba_marseille","lat":43.28615,"lon":5.35103,"is_reserved":false,"is_disabled":false,"rental_uris":{"android":"levelo://app?vid=bf11597b-0c33-458e-b8a4-c91ea9d1fe61","ios":"levelo://app?vid=bf11597b-0c33-458e-b8a4-c91ea9d1fe61"},"vehicle_type_id":"4","last_reported":1743167965,"current_range_meters":2800,"station_id":"ce4bhch2rcd13ifvqeug","pricing_plan_id":"cebpf4jnsgd1na2vs0mg"},{"bike_id":"9034d27a-b95d-4315-8ce7-bdadc422b160","system_id":"levelo_inurba_marseille","lat":43.290395,"lon":5.386417,"is_reserved":false,"is_disabled":false,"rental_uris":{"android":"levelo://app?vid=9034d27a-b95d-4315-8ce7-bdadc422b160","ios":"levelo://app?vid=9034d27a-b95d-4315-8ce7-bdadc422b160"},"vehicle_type_id":"4","last_reported":1743167965,"current_range_meters":2800,"station_id":"ce4bh4p2rcd13ifvqe0g","pricing_plan_id":"cebpf4jnsgd1na2vs0mg"},{"bike_id":"a962398b-900f-4cb5-a6b4-db0b78ead2c3","system_id":"levelo_inurba_marseille","lat":43.30136,"lon":5.38786,"is_reserved":false,"is_disabled":false,"rental_uris":{"android":"levelo://app?vid=a962398b-900f-4cb5-a6b4-db0b78ead2c3","ios":"levelo://app?vid=a962398b-900f-4cb5-a6b4-db0b78ead2c3"},"vehicle_type_id":"4","last_reported":1743167965,"current_range_meters":3200,"station_id":"ce4bghh2rcd13ifvqb60","pricing_plan_id":"cebpf4jnsgd1na2vs0mg"},{"bike_id":"9108efae-73e9-412e-8196-cfca317be609","system_id":"levelo_inurba_marseille","lat":43.29311,"lon":5.37174,"is_reserved":false,"is_disabled":false,"rental_uris":{"android":"levelo://app?vid=9108efae-73e9-412e-8196-cfca317be609","ios":"levelo://app?vid=9108efae-73e9-412e-8196-cfca317be609"},"vehicle_type_id":"4","last_reported":1743167965,"current_range_meters":3200,"station_id":"ce4bgh92rcd13ifvqb40","pricing_plan_id":"cebpf4jnsgd1na2vs0mg"},{"bike_id":"86033611-8a3f-49f3-a02a-60ebee847341","system_id":"levelo_inurba_marseille","lat":43.29264,"lon":5.38438,"is_reserved":false,"is_disabled":false,"rental_uris":{"android":"levelo://app?vid=86033611-8a3f-49f3-a02a-60ebee847341","ios":"levelo://app?vid=86033611-8a3f-49f3-a02a-60ebee847341"},"vehicle_type_id":"4","last_reported":1743167965,"current_range_meters":3200,"station_id":"ce4bh692rcd13ifvqea0","pricing_plan_id":"cebpf4jnsgd1na2vs0mg"},{"bike_id":"ec92197b-23cd-4763-888b-e5bc6c2e80ab","system_id":"levelo_inurba_marseille","lat":43.296173,"lon":5.37727,"is_reserved":false,"is_disabled":false,"rental_uris":{"android":"levelo://app?vid=ec92197b-23cd-4763-888b-e5bc6c2e80ab","ios":"levelo://app?vid=ec92197b-23cd-4763-888b-e5bc6c2e80ab"},"vehicle_type_id":"4","last_reported":1743167965,"current_range_meters":3200,"station_id":"ce4bgi92rcd13ifvqb90","pricing_plan_id":"cebpf4jnsgd1na2vs0mg"},{"bike_id":"1dc766a6-6d2b-4eb8-9062-b1d2b1b4e1d0","system_id":"levelo_inurba_marseille","lat":43.29792,"lon":5.3934,"is_reserved":false,"is_disabled":false,"rental_uris":{"android":"levelo://app?vid=1dc766a6-6d2b-4eb8-9062-b1d2b1b4e1d0","ios":"levelo://app?vid=1dc766a6-6d2b-4eb8-9062-b1d2b1b4e1d0"},"vehicle_type_id":"4","last_reported":1743167965,"current_range_meters":3600,"station_id":"chh1huq6cuj3fo74tm60","pricing_plan_id":"cebpf4jnsgd1na2vs0mg"},{"bike_id":"073debcf-0704-4d38-b010-82e0fcd8519a","system_id":"levelo_inurba_marseille","lat":43.33027,"lon":5.39037,"is_reserved":false,"is_disabled":false,"rental_uris":{"android":"levelo://app?vid=073debcf-0704-4d38-b010-82e0fcd8519a","ios":"levelo://app?vid=073debcf-0704-4d38-b010-82e0fcd8519a"},"vehicle_type_id":"4","last_reported":1743167965,"current_range_meters":3600,"station_id":"ce4bhr92rcd13ifvqhrg","pricing_plan_id":"cebpf4jnsgd1na2vs0mg"},{"bike_id":"2648bce3-8f78-442e-b733-d9347ec43f83","system_id":"levelo_inurba_marseille","lat":43.30467,"lon":5.37908,"is_reserved":false,"is_disabled":false,"rental_uris":{"android":"levelo://app?vid=2648bce3-8f78-442e-b733-d9347ec43f83","ios":"levelo://app?vid=2648bce3-8f78-442e-b733-d9347ec43f83"},"vehicle_type_id":"4","last_reported":1743167965,"current_range_meters":3600,"station_id":"ce4bgup2rcd13ifvqcn0","pricing_plan_id":"cebpf4jnsgd1na2vs0mg"},{"bike_id":"515faa86-fa39-46ff-930a-2fe51eead6f6","system_id":"levelo_inurba_marseille","lat":43.2661,"lon":5.39349,"is_reserved":false,"is_disabled":false,"rental_uris":{"android":"levelo://app?vid=515faa86-fa39-46ff-930a-2fe51eead6f6","ios":"levelo://app?vid=515faa86-fa39-46ff-930a-2fe51eead6f6"},"vehicle_type_id":"4","last_reported":1743167965,"current_range_meters":3600,"station_id":"","pricing_plan_id":"cebpf4jnsgd1na2vs0mg"},{"bike_id":"566aa768-9836-49eb-b6f9-4212e302bb79","system_id":"levelo_inurba_marseille","lat":43.28715,"lon":5.37946,"is_reserved":false,"is_disabled":false,"rental_uris":{"android":"levelo://app?vid=566aa768-9836-49eb-b6f9-4212e302bb79","ios":"levelo://app?vid=566aa768-9836-49eb-b6f9-4212e302bb79"},"vehicle_type_id":"4","last_reported":1743167965,"current_range_meters":3600,"station_id":"ce4bh9p2rcd13ifvqec0","pricing_plan_id":"cebpf4jnsgd1na2vs0mg"},{"bike_id":"806fa812-9f6d-4501-8cd8-54a03ae03efb","system_id":"levelo_inurba_marseille","lat":43.24082,"lon":5.37756,"is_reserved":false,"is_disabled":false,"rental_uris":{"android":"levelo://app?vid=806fa812-9f6d-4501-8cd8-54a03ae03efb","ios":"levelo://app?vid=806fa812-9f6d-4501-8cd8-54a03ae03efb"},"vehicle_type_id":"4","last_reported":1743167965,"current_range_meters":3600,"station_id":"ce4bhnp2rcd13ifvqgvg","pricing_plan_id":"cebpf4jnsgd1na2vs0mg"},{"bike_id":"78804189-2f38-498b-8937-3a11cd08cc7a","system_id":"levelo_inurba_marseille","lat":43.30889,"lon":5.37206,"is_reserved":false,"is_disabled":false,"rental_uris":{"android":"levelo://app?vid=78804189-2f38-498b-8937-3a11cd08cc7a","ios":"levelo://app?vid=78804189-2f38-498b-8937-3a11cd08cc7a"},"vehicle_type_id":"4","last_reported":1743167965,"current_range_meters":3600,"station_id":"ce4bguh2rcd13ifvqckg","pricing_plan_id":"cebpf4jnsgd1na2vs0mg"},{"bike_id":"f1241de4-7e15-4d03-98ac-cdc137a19676","system_id":"levelo_inurba_marseille","lat":43.29973,"lon":5.38499,"is_reserved":false,"is_disabled":false,"rental_uris":{"android":"levelo://app?vid=f1241de4-7e15-4d03-98ac-cdc137a19676","ios":"levelo://app?vid=f1241de4-7e15-4d03-98ac-cdc137a19676"},"vehicle_type_id":"4","last_reported":1743167965,"current_range_meters":3600,"station_id":"ce4bgj92rcd13ifvqbd0","pricing_plan_id":"cebpf4jnsgd1na2vs0mg"},{"bike_id":"f6151552-c18d-4656-bbb7-3cea5d473a1f","system_id":"levelo_inurba_marseille","lat":43.26196,"lon":5.37452,"is_reserved":false,"is_disabled":false,"rental_uris":{"android":"levelo://app?vid=f6151552-c18d-4656-bbb7-3cea5d473a1f","ios":"levelo://app?vid=f6151552-c18d-4656-bbb7-3cea5d473a1f"},"vehicle_type_id":"4","last_reported":1743167965,"current_range_meters":4000,"station_id":"ce4bhgp2rcd13ifvqfc0","pricing_plan_id":"cebpf4jnsgd1na2vs0mg"},{"bike_id":"72407b9c-71b7-4feb-83e9-97e5f2a36163","system_id":"levelo_inurba_marseille","lat":43.24163,"lon":5.36396,"is_reserved":false,"is_disabled":false,"rental_uris":{"android":"levelo://app?vid=72407b9c-71b7-4feb-83e9-97e5f2a36163","ios":"levelo://app?vid=72407b9c-71b7-4feb-83e9-97e5f2a36163"},"vehicle_type_id":"4","last_reported":1743167965,"current_range_meters":4000,"station_id":"cpo36qri1sfpv3e86is0","pricing_plan_id":"cebpf4jnsgd1na2vs0mg"},{"bike_id":"dd3f7b56-d4ab-4454-9b92-86bdc5aa5fbf","system_id":"levelo_inurba_marseille","lat":43.28421,"lon":5.34977,"is_reserved":false,"is_disabled":false,"rental_uris":{"android":"levelo://app?vid=dd3f7b56-d4ab-4454-9b92-86bdc5aa5fbf","ios":"levelo://app?vid=dd3f7b56-d4ab-4454-9b92-86bdc5aa5fbf"},"vehicle_type_id":"4","last_reported":1743167965,"current_range_meters":4000,"station_id":"ce4bhbh2rcd13ifvqepg","pricing_plan_id":"cebpf4jnsgd1na2vs0mg"},{"bike_id":"5e756382-e23e-4358-ba7f-afa9cce17a17","system_id":"levelo_inurba_marseille","lat":43.29576,"lon":5.37509,"is_reserved":false,"is_disabled":false,"rental_uris":{"android":"levelo://app?vid=5e756382-e23e-4358-ba7f-afa9cce17a17","ios":"levelo://app?vid=5e756382-e23e-4358-ba7f-afa9cce17a17"},"vehicle_type_id":"4","last_reported":1743167965,"current_range_meters":4000,"station_id":"ce4bgh92rcd13ifvqb50","pricing_plan_id":"cebpf4jnsgd1na2vs0mg"},{"bike_id":"e7c5b01a-f1d1-47fb-b3d2-512ea5ebdf33","system_id":"levelo_inurba_marseille","lat":43.29978,"lon":5.37168,"is_reserved":false,"is_disabled":false,"rental_uris":{"android":"levelo://app?vid=e7c5b01a-f1d1-47fb-b3d2-512ea5ebdf33","ios":"levelo://app?vid=e7c5b01a-f1d1-47fb-b3d2-512ea5ebdf33"},"vehicle_type_id":"4","last_reported":1743167965,"current_range_meters":4400,"station_id":"ce4bgr92rcd13ifvqc7g","pricing_plan_id":"cebpf4jnsgd1na2vs0mg"},{"bike_id":"0e552a2b-b844-4a07-bbd3-fc3f148dedc9","system_id":"levelo_inurba_marseille","lat":43.28505,"lon":5.3856,"is_reserved":false,"is_disabled":false,"rental_uris":{"android":"levelo://app?vid=0e552a2b-b844-4a07-bbd3-fc3f148dedc9","ios":"levelo://app?vid=0e552a2b-b844-4a07-bbd3-fc3f148dedc9"},"vehicle_type_id":"4","last_reported":1743167965,"current_range_meters":4400,"station_id":"ce4bh8p2rcd13ifvqeb0","pricing_plan_id":"cebpf4jnsgd1na2vs0mg"},{"bike_id":"4b9ddd9e-2b48-4b8b-bcb3-9faf1128f33f","system_id":"levelo_inurba_marseille","lat":43.290052,"lon":5.356143,"is_reserved":false,"is_disabled":false,"rental_uris":{"android":"levelo://app?vid=4b9ddd9e-2b48-4b8b-bcb3-9faf1128f33f","ios":"levelo://app?vid=4b9ddd9e-2b48-4b8b-bcb3-9faf1128f33f"},"vehicle_type_id":"4","last_reported":1743167965,"current_range_meters":4400,"station_id":"ce4bh192rcd13ifvqdd0","pricing_plan_id":"cebpf4jnsgd1na2vs0mg"},{"bike_id":"65d95aec-81e5-4637-82c1-01fd4130c51e","system_id":"levelo_inurba_marseille","lat":43.30287,"lon":5.37709,"is_reserved":false,"is_disabled":false,"rental_uris":{"android":"levelo://app?vid=65d95aec-81e5-4637-82c1-01fd4130c51e","ios":"levelo://app?vid=65d95aec-81e5-4637-82c1-01fd4130c51e"},"vehicle_type_id":"4","last_reported":1743167965,"current_range_meters":4400,"station_id":"ce4bguh2rcd13ifvqcj0","pricing_plan_id":"cebpf4jnsgd1na2vs0mg"},{"bike_id":"82b84285-7c18-44af-8c04-50f908a430ed","system_id":"levelo_inurba_marseille","lat":43.27218,"lon":5.39189,"is_reserved":false,"is_disabled":false,"rental_uris":{"android":"levelo://app?vid=82b84285-7c18-44af-8c04-50f908a430ed","ios":"levelo://app?vid=82b84285-7c18-44af-8c04-50f908a430ed"},"vehicle_type_id":"4","last_reported":1743167965,"current_range_meters":4000,"station_id":"ce4bhhp2rcd13ifvqfm0","pricing_plan_id":"cebpf4jnsgd1na2vs0mg"},{"bike_id":"07ad0b66-7349-49b1-8af1-1df6423b2ba9","system_id":"levelo_inurba_marseille","lat":43.30216,"lon":5.39471,"is_reserved":false,"is_disabled":false,"rental_uris":{"android":"levelo://app?vid=07ad0b66-7349-49b1-8af1-1df6423b2ba9","ios":"levelo://app?vid=07ad0b66-7349-49b1-8af1-1df6423b2ba9"},"vehicle_type_id":"4","last_reported":1743167965,"current_range_meters":4400,"station_id":"ce4bh0p2rcd13ifvqd70","pricing_plan_id":"cebpf4jnsgd1na2vs0mg"},{"bike_id":"3760243d-666b-4b1a-8b1d-f77b96f10b82","system_id":"levelo_inurba_marseille","lat":43.25095,"lon":5.39517,"is_reserved":false,"is_disabled":false,"rental_uris":{"android":"levelo://app?vid=3760243d-666b-4b1a-8b1d-f77b96f10b82","ios":"levelo://app?vid=3760243d-666b-4b1a-8b1d-f77b96f10b82"},"vehicle_type_id":"4","last_reported":1743167965,"current_range_meters":4800,"station_id":"ce4bhm12rcd13ifvqgkg","pricing_plan_id":"cebpf4jnsgd1na2vs0mg"},{"bike_id":"f4aabe80-53e9-4ce5-b6ce-3abb9d4ae73e","system_id":"levelo_inurba_marseille","lat":43.3014,"lon":5.39877,"is_reserved":false,"is_disabled":false,"rental_uris":{"android":"levelo://app?vid=f4aabe80-53e9-4ce5-b6ce-3abb9d4ae73e","ios":"levelo://app?vid=f4aabe80-53e9-4ce5-b6ce-3abb9d4ae73e"},"vehicle_type_id":"4","last_reported":1743167965,"current_range_meters":4400,"station_id":"ce4bh0h2rcd13ifvqd40","pricing_plan_id":"cebpf4jnsgd1na2vs0mg"},{"bike_id":"9e7bd1e4-c390-4371-a1bd-85bb620c3d7c","system_id":"levelo_inurba_marseille","lat":43.29906,"lon":5.37481,"is_reserved":false,"is_disabled":false,"rental_uris":{"android":"levelo://app?vid=9e7bd1e4-c390-4371-a1bd-85bb620c3d7c","ios":"levelo://app?vid=9e7bd1e4-c390-4371-a1bd-85bb620c3d7c"},"vehicle_type_id":"4","last_reported":1743167965,"current_range_meters":4800,"station_id":"ce4bgjh2rcd13ifvqbg0","pricing_plan_id":"cebpf4jnsgd1na2vs0mg"},{"bike_id":"fcf212a2-07d7-4b66-acbc-2ace716a3839","system_id":"levelo_inurba_marseille","lat":43.286123,"lon":5.351034,"is_reserved":false,"is_disabled":false,"rental_uris":{"android":"levelo://app?vid=fcf212a2-07d7-4b66-acbc-2ace716a3839","ios":"levelo://app?vid=fcf212a2-07d7-4b66-acbc-2ace716a3839"},"vehicle_type_id":"4","last_reported":1743167965,"current_range_meters":4800,"station_id":"ce4bgh92rcd13ifvqb40","pricing_plan_id":"cebpf4jnsgd1na2vs0mg"},{"bike_id":"9b32423e-4016-4187-891b-f153e9fc656d","system_id":"levelo_inurba_marseille","lat":43.29229,"lon":5.36067,"is_reserved":false,"is_disabled":false,"rental_uris":{"android":"levelo://app?vid=9b32423e-4016-4187-891b-f153e9fc656d","ios":"levelo://app?vid=9b32423e-4016-4187-891b-f153e9fc656d"},"vehicle_type_id":"4","last_reported":1743167965,"current_range_meters":4800,"station_id":"ce4bhbh2rcd13ifvqeqg","pricing_plan_id":"cebpf4jnsgd1na2vs0mg"},{"bike_id":"a840627e-c033-44c5-9bb9-6fb29469bf90","system_id":"levelo_inurba_marseille","lat":43.29573,"lon":5.37522,"is_reserved":false,"is_disabled":false,"rental_uris":{"android":"levelo://app?vid=a840627e-c033-44c5-9bb9-6fb29469bf90","ios":"levelo://app?vid=a840627e-c033-44c5-9bb9-6fb29469bf90"},"vehicle_type_id":"4","last_reported":1743167965,"current_range_meters":4800,"station_id":"ce4bgh92rcd13ifvqb50","pricing_plan_id":"cebpf4jnsgd1na2vs0mg"},{"bike_id":"5e7d515b-946e-40cf-99c1-3c51f2270c80","system_id":"levelo_inurba_marseille","lat":43.27389,"lon":5.36267,"is_reserved":false,"is_disabled":false,"rental_uris":{"android":"levelo://app?vid=5e7d515b-946e-40cf-99c1-3c51f2270c80","ios":"levelo://app?vid=5e7d515b-946e-40cf-99c1-3c51f2270c80"},"vehicle_type_id":"4","last_reported":1743167965,"current_range_meters":4800,"station_id":"ce4bhbh2rcd13ifvqeo0","pricing_plan_id":"cebpf4jnsgd1na2vs0mg"},{"bike_id":"e17800f8-db31-4696-b7f7-47eb7fedad91","system_id":"levelo_inurba_marseille","lat":43.22935,"lon":5.35381,"is_reserved":false,"is_disabled":false,"rental_uris":{"android":"levelo://app?vid=e17800f8-db31-4696-b7f7-47eb7fedad91","ios":"levelo://app?vid=e17800f8-db31-4696-b7f7-47eb7fedad91"},"vehicle_type_id":"4","last_reported":1743167965,"current_range_meters":4800,"station_id":"cpo3532slgdg3j2ikp40","pricing_plan_id":"cebpf4jnsgd1na2vs0mg"},{"bike_id":"e2820344-2d14-4e18-8749-8a1cf1e2f767","system_id":"levelo_inurba_marseille","lat":43.31172,"lon":5.38714,"is_reserved":false,"is_disabled":false,"rental_uris":{"android":"levelo://app?vid=e2820344-2d14-4e18-8749-8a1cf1e2f767","ios":"levelo://app?vid=e2820344-2d14-4e18-8749-8a1cf1e2f767"},"vehicle_type_id":"4","last_reported":1743167965,"current_range_meters":4800,"station_id":"ce4bgv12rcd13ifvqcp0","pricing_plan_id":"cebpf4jnsgd1na2vs0mg"},{"bike_id":"fbb76c6f-e411-43fd-9d39-ac374c367566","system_id":"levelo_inurba_marseille","lat":43.29982,"lon":5.37208,"is_reserved":false,"is_disabled":false,"rental_uris":{"android":"levelo://app?vid=fbb76c6f-e411-43fd-9d39-ac374c367566","ios":"levelo://app?vid=fbb76c6f-e411-43fd-9d39-ac374c367566"},"vehicle_type_id":"4","last_reported":1743167965,"current_range_meters":5600,"station_id":"ce4bgr92rcd13ifvqc7g","pricing_plan_id":"cebpf4jnsgd1na2vs0mg"},{"bike_id":"da76ef48-2f92-41cb-b7ea-11e6bb0bc372","system_id":"levelo_inurba_marseille","lat":43.2593,"lon":5.40892,"is_reserved":false,"is_disabled":false,"rental_uris":{"android":"levelo://app?vid=da76ef48-2f92-41cb-b7ea-11e6bb0bc372","ios":"levelo://app?vid=da76ef48-2f92-41cb-b7ea-11e6bb0bc372"},"vehicle_type_id":"4","last_reported":1743167965,"current_range_meters":5600,"station_id":"ce4bhm92rcd13ifvqglg","pricing_plan_id":"cebpf4jnsgd1na2vs0mg"},{"bike_id":"6f0bf82e-e631-4923-8be0-8b2c9e16985f","system_id":"levelo_inurba_marseille","lat":43.29546,"lon":5.37497,"is_reserved":false,"is_disabled":false,"rental_uris":{"android":"levelo://app?vid=6f0bf82e-e631-4923-8be0-8b2c9e16985f","ios":"levelo://app?vid=6f0bf82e-e631-4923-8be0-8b2c9e16985f"},"vehicle_type_id":"4","last_reported":1743167965,"current_range_meters":5600,"station_id":"ce4bgkp2rcd13ifvqbmg","pricing_plan_id":"cebpf4jnsgd1na2vs0mg"},{"bike_id":"1af055f8-e4ec-4570-bfaf-53cd1693ab79","system_id":"levelo_inurba_marseille","lat":43.30547,"lon":5.3655,"is_reserved":false,"is_disabled":false,"rental_uris":{"android":"levelo://app?vid=1af055f8-e4ec-4570-bfaf-53cd1693ab79","ios":"levelo://app?vid=1af055f8-e4ec-4570-bfaf-53cd1693ab79"},"vehicle_type_id":"4","last_reported":1743167965,"current_range_meters":5600,"station_id":"ce4bgs12rcd13ifvqcag","pricing_plan_id":"cebpf4jnsgd1na2vs0mg"},{"bike_id":"0acd526e-d7bf-446f-8abc-688b22a02cf0","system_id":"levelo_inurba_marseille","lat":43.27378,"lon":5.36256,"is_reserved":false,"is_disabled":false,"rental_uris":{"android":"levelo://app?vid=0acd526e-d7bf-446f-8abc-688b22a02cf0","ios":"levelo://app?vid=0acd526e-d7bf-446f-8abc-688b22a02cf0"},"vehicle_type_id":"4","last_reported":1743167965,"current_range_meters":5600,"station_id":"ce4bhbh2rcd13ifvqeo0","pricing_plan_id":"cebpf4jnsgd1na2vs0mg"},{"bike_id":"c55d3df9-6bd2-406e-93cc-6963ce11d8a1","system_id":"levelo_inurba_marseille","lat":43.33599,"lon":5.41,"is_reserved":false,"is_disabled":false,"rental_uris":{"android":"levelo://app?vid=c55d3df9-6bd2-406e-93cc-6963ce11d8a1","ios":"levelo://app?vid=c55d3df9-6bd2-406e-93cc-6963ce11d8a1"},"vehicle_type_id":"4","last_reported":1743167965,"current_range_meters":5600,"station_id":"ce4bhqh2rcd13ifvqhmg","pricing_plan_id":"cebpf4jnsgd1na2vs0mg"},{"bike_id":"c18155db-65c7-4d5a-8c5b-923eb75c675d","system_id":"levelo_inurba_marseille","lat":43.32106,"lon":5.36775,"is_reserved":false,"is_disabled":false,"rental_uris":{"android":"levelo://app?vid=c18155db-65c7-4d5a-8c5b-923eb75c675d","ios":"levelo://app?vid=c18155db-65c7-4d5a-8c5b-923eb75c675d"},"vehicle_type_id":"4","last_reported":1743167965,"current_range_meters":5600,"station_id":"ce4bhrh2rcd13ifvqhug","pricing_plan_id":"cebpf4jnsgd1na2vs0mg"},{"bike_id":"c756d32d-efcb-4a9e-8494-37e13de07e39","system_id":"levelo_inurba_marseille","lat":43.26953,"lon":5.38638,"is_reserved":false,"is_disabled":false,"rental_uris":{"android":"levelo://app?vid=c756d32d-efcb-4a9e-8494-37e13de07e39","ios":"levelo://app?vid=c756d32d-efcb-4a9e-8494-37e13de07e39"},"vehicle_type_id":"4","last_reported":1743167965,"current_range_meters":6000,"station_id":"ce4bhh92rcd13ifvqfh0","pricing_plan_id":"cebpf4jnsgd1na2vs0mg"},{"bike_id":"de009341-7c3c-4c0b-b1af-945d464d009b","system_id":"levelo_inurba_marseille","lat":43.26685,"lon":5.38271,"is_reserved":false,"is_disabled":false,"rental_uris":{"android":"levelo://app?vid=de009341-7c3c-4c0b-b1af-945d464d009b","ios":"levelo://app?vid=de009341-7c3c-4c0b-b1af-945d464d009b"},"vehicle_type_id":"4","last_reported":1743167965,"current_range_meters":6000,"station_id":"ce4bhg92rcd13ifvqf90","pricing_plan_id":"cebpf4jnsgd1na2vs0mg"},{"bike_id":"23f237be-64cf-4efa-bc3d-69cb9f01879d","system_id":"levelo_inurba_marseille","lat":43.29276,"lon":5.36852,"is_reserved":false,"is_disabled":false,"rental_uris":{"android":"levelo://app?vid=23f237be-64cf-4efa-bc3d-69cb9f01879d","ios":"levelo://app?vid=23f237be-64cf-4efa-bc3d-69cb9f01879d"},"vehicle_type_id":"4","last_reported":1743167965,"current_range_meters":6000,"station_id":"ce4bhbp2rcd13ifvqesg","pricing_plan_id":"cebpf4jnsgd1na2vs0mg"},{"bike_id":"d43b2a86-10ae-42b3-8b7e-8bb72fd0fb1c","system_id":"levelo_inurba_marseille","lat":43.28846,"lon":5.35823,"is_reserved":false,"is_disabled":false,"rental_uris":{"android":"levelo://app?vid=d43b2a86-10ae-42b3-8b7e-8bb72fd0fb1c","ios":"levelo://app?vid=d43b2a86-10ae-42b3-8b7e-8bb72fd0fb1c"},"vehicle_type_id":"4","last_reported":1743167965,"current_range_meters":6000,"station_id":"ce4bhb12rcd13ifvqem0","pricing_plan_id":"cebpf4jnsgd1na2vs0mg"},{"bike_id":"8a671558-862a-47a2-8606-229074fddccf","system_id":"levelo_inurba_marseille","lat":43.308804,"lon":5.396501,"is_reserved":false,"is_disabled":false,"rental_uris":{"android":"levelo://app?vid=8a671558-862a-47a2-8606-229074fddccf","ios":"levelo://app?vid=8a671558-862a-47a2-8606-229074fddccf"},"vehicle_type_id":"4","last_reported":1743167965,"current_range_meters":6000,"station_id":"ce4bh012rcd13ifvqcv0","pricing_plan_id":"cebpf4jnsgd1na2vs0mg"},{"bike_id":"c0c80c3a-eb72-482f-b756-3bdf994a95ca","system_id":"levelo_inurba_marseille","lat":43.30439,"lon":5.39752,"is_reserved":false,"is_disabled":false,"rental_uris":{"android":"levelo://app?vid=c0c80c3a-eb72-482f-b756-3bdf994a95ca","ios":"levelo://app?vid=c0c80c3a-eb72-482f-b756-3bdf994a95ca"},"vehicle_type_id":"4","last_reported":1743167965,"current_range_meters":6400,"station_id":"ce4bh092rcd13ifvqd20","pricing_plan_id":"cebpf4jnsgd1na2vs0mg"},{"bike_id":"dfd90881-a4a8-4922-8fd8-2d11feaeec60","system_id":"levelo_inurba_marseille","lat":43.34132,"lon":5.40919,"is_reserved":false,"is_disabled":false,"rental_uris":{"android":"levelo://app?vid=dfd90881-a4a8-4922-8fd8-2d11feaeec60","ios":"levelo://app?vid=dfd90881-a4a8-4922-8fd8-2d11feaeec60"},"vehicle_type_id":"4","last_reported":1743167965,"current_range_meters":6400,"station_id":"ce4bhqh2rcd13ifvqhlg","pricing_plan_id":"cebpf4jnsgd1na2vs0mg"},{"bike_id":"85ffaa9e-325a-46a0-9ecf-802df6ae673c","system_id":"levelo_inurba_marseille","lat":43.30562,"lon":5.36524,"is_reserved":false,"is_disabled":false,"rental_uris":{"android":"levelo://app?vid=85ffaa9e-325a-46a0-9ecf-802df6ae673c","ios":"levelo://app?vid=85ffaa9e-325a-46a0-9ecf-802df6ae673c"},"vehicle_type_id":"4","last_reported":1743167965,"current_range_meters":6400,"station_id":"ce4bgs12rcd13ifvqcag","pricing_plan_id":"cebpf4jnsgd1na2vs0mg"},{"bike_id":"8521e667-7cde-43ab-bc11-fffefa1431ae","system_id":"levelo_inurba_marseille","lat":43.29058,"lon":5.37571,"is_reserved":false,"is_disabled":false,"rental_uris":{"android":"levelo://app?vid=8521e667-7cde-43ab-bc11-fffefa1431ae","ios":"levelo://app?vid=8521e667-7cde-43ab-bc11-fffefa1431ae"},"vehicle_type_id":"4","last_reported":1743167965,"current_range_meters":6400,"station_id":"ce4bh692rcd13ifvqe90","pricing_plan_id":"cebpf4jnsgd1na2vs0mg"},{"bike_id":"7cb88a1c-3f56-4e3d-9cda-b6cbb85016b8","system_id":"levelo_inurba_marseille","lat":43.25833,"lon":5.39448,"is_reserved":false,"is_disabled":false,"rental_uris":{"android":"levelo://app?vid=7cb88a1c-3f56-4e3d-9cda-b6cbb85016b8","ios":"levelo://app?vid=7cb88a1c-3f56-4e3d-9cda-b6cbb85016b8"},"vehicle_type_id":"4","last_reported":1743167965,"current_range_meters":6400,"station_id":"ce4bhip2rcd13ifvqft0","pricing_plan_id":"cebpf4jnsgd1na2vs0mg"},{"bike_id":"fc8e8371-f4e9-4721-bc19-563801e389dc","system_id":"levelo_inurba_marseille","lat":43.337444,"lon":5.374475,"is_reserved":false,"is_disabled":false,"rental_uris":{"android":"levelo://app?vid=fc8e8371-f4e9-4721-bc19-563801e389dc","ios":"levelo://app?vid=fc8e8371-f4e9-4721-bc19-563801e389dc"},"vehicle_type_id":"4","last_reported":1743167965,"current_range_meters":6400,"station_id":"","pricing_plan_id":"cebpf4jnsgd1na2vs0mg"},{"bike_id":"5667a932-3587-4aa2-8c4e-9233f8bc53aa","system_id":"levelo_inurba_marseille","lat":43.305511,"lon":5.365517,"is_reserved":false,"is_disabled":false,"rental_uris":{"android":"levelo://app?vid=5667a932-3587-4aa2-8c4e-9233f8bc53aa","ios":"levelo://app?vid=5667a932-3587-4aa2-8c4e-9233f8bc53aa"},"vehicle_type_id":"4","last_reported":1743167965,"current_range_meters":6800,"station_id":"ce4bgr92rcd13ifvqc6g","pricing_plan_id":"cebpf4jnsgd1na2vs0mg"},{"bike_id":"c438c06c-7c8a-4e31-83a5-968b28d9e1c5","system_id":"levelo_inurba_marseille","lat":43.29283,"lon":5.40133,"is_reserved":false,"is_disabled":false,"rental_uris":{"android":"levelo://app?vid=c438c06c-7c8a-4e31-83a5-968b28d9e1c5","ios":"levelo://app?vid=c438c06c-7c8a-4e31-83a5-968b28d9e1c5"},"vehicle_type_id":"4","last_reported":1743167965,"current_range_meters":6800,"station_id":"ce4bh312rcd13ifvqdk0","pricing_plan_id":"cebpf4jnsgd1na2vs0mg"},{"bike_id":"52e8e9df-df0d-4c5e-9920-db3b0847638f","system_id":"levelo_inurba_marseille","lat":43.292701,"lon":5.376227,"is_reserved":false,"is_disabled":false,"rental_uris":{"android":"levelo://app?vid=52e8e9df-df0d-4c5e-9920-db3b0847638f","ios":"levelo://app?vid=52e8e9df-df0d-4c5e-9920-db3b0847638f"},"vehicle_type_id":"4","last_reported":1743167965,"current_range_meters":6800,"station_id":"ce4bgi12rcd13ifvqb80","pricing_plan_id":"cebpf4jnsgd1na2vs0mg"},{"bike_id":"bff6d89e-d044-40c4-8f83-2e7f9a7e1d08","system_id":"levelo_inurba_marseille","lat":43.27431,"lon":5.39415,"is_reserved":false,"is_disabled":false,"rental_uris":{"android":"levelo://app?vid=bff6d89e-d044-40c4-8f83-2e7f9a7e1d08","ios":"levelo://app?vid=bff6d89e-d044-40c4-8f83-2e7f9a7e1d08"},"vehicle_type_id":"4","last_reported":1743167965,"current_range_meters":6800,"station_id":"ce4bhdp2rcd13ifvqf20","pricing_plan_id":"cebpf4jnsgd1na2vs0mg"},{"bike_id":"0d268bc8-088b-4f54-90a0-0d14ccc60ae3","system_id":"levelo_inurba_marseille","lat":43.293,"lon":5.37441,"is_reserved":false,"is_disabled":true,"rental_uris":{"android":"levelo://app?vid=0d268bc8-088b-4f54-90a0-0d14ccc60ae3","ios":"levelo://app?vid=0d268bc8-088b-4f54-90a0-0d14ccc60ae3"},"vehicle_type_id":"4","last_reported":1743167965,"current_range_meters":6800,"station_id":"ce4bgi12rcd13ifvqb70","pricing_plan_id":"cebpf4jnsgd1na2vs0mg"},{"bike_id":"a3da10bc-b067-4a00-b60a-7be6ff45323e","system_id":"levelo_inurba_marseille","lat":43.32106,"lon":5.3679,"is_reserved":false,"is_disabled":false,"rental_uris":{"android":"levelo://app?vid=a3da10bc-b067-4a00-b60a-7be6ff45323e","ios":"levelo://app?vid=a3da10bc-b067-4a00-b60a-7be6ff45323e"},"vehicle_type_id":"4","last_reported":1743167965,"current_range_meters":6800,"station_id":"ce4bhrh2rcd13ifvqhug","pricing_plan_id":"cebpf4jnsgd1na2vs0mg"},{"bike_id":"e9ceab59-f51e-412a-b27f-cb58bde1add3","system_id":"levelo_inurba_marseille","lat":43.30104,"lon":5.39082,"is_reserved":false,"is_disabled":false,"rental_uris":{"android":"levelo://app?vid=e9ceab59-f51e-412a-b27f-cb58bde1add3","ios":"levelo://app?vid=e9ceab59-f51e-412a-b27f-cb58bde1add3"},"vehicle_type_id":"4","last_reported":1743167965,"current_range_meters":6800,"station_id":"ce4bh192rcd13ifvqdb0","pricing_plan_id":"cebpf4jnsgd1na2vs0mg"},{"bike_id":"5c1ffef8-5427-4962-9181-8f45882a55a2","system_id":"levelo_inurba_marseille","lat":43.274978,"lon":5.389744,"is_reserved":false,"is_disabled":false,"rental_uris":{"android":"levelo://app?vid=5c1ffef8-5427-4962-9181-8f45882a55a2","ios":"levelo://app?vid=5c1ffef8-5427-4962-9181-8f45882a55a2"},"vehicle_type_id":"4","last_reported":1743167965,"current_range_meters":7200,"station_id":"ce4bhhh2rcd13ifvqfl0","pricing_plan_id":"cebpf4jnsgd1na2vs0mg"},{"bike_id":"14047aa8-f0ab-4e97-9be1-0de655be94b5","system_id":"levelo_inurba_marseille","lat":43.25939,"lon":5.40885,"is_reserved":false,"is_disabled":false,"rental_uris":{"android":"levelo://app?vid=14047aa8-f0ab-4e97-9be1-0de655be94b5","ios":"levelo://app?vid=14047aa8-f0ab-4e97-9be1-0de655be94b5"},"vehicle_type_id":"4","last_reported":1743167965,"current_range_meters":7200,"station_id":"ce4bhm92rcd13ifvqglg","pricing_plan_id":"cebpf4jnsgd1na2vs0mg"},{"bike_id":"597c4159-84ca-4ec5-b4f4-125fbc1c07ee","system_id":"levelo_inurba_marseille","lat":43.31978,"lon":5.38145,"is_reserved":false,"is_disabled":false,"rental_uris":{"android":"levelo://app?vid=597c4159-84ca-4ec5-b4f4-125fbc1c07ee","ios":"levelo://app?vid=597c4159-84ca-4ec5-b4f4-125fbc1c07ee"},"vehicle_type_id":"4","last_reported":1743167965,"current_range_meters":7200,"station_id":"ce4bhr12rcd13ifvqhpg","pricing_plan_id":"cebpf4jnsgd1na2vs0mg"},{"bike_id":"50b58485-1b75-43bb-a404-55d7f170d69a","system_id":"levelo_inurba_marseille","lat":43.23148,"lon":5.43692,"is_reserved":false,"is_disabled":false,"rental_uris":{"android":"levelo://app?vid=50b58485-1b75-43bb-a404-55d7f170d69a","ios":"levelo://app?vid=50b58485-1b75-43bb-a404-55d7f170d69a"},"vehicle_type_id":"4","last_reported":1743167965,"current_range_meters":7200,"station_id":"ce4bhmp2rcd13ifvqgog","pricing_plan_id":"cebpf4jnsgd1na2vs0mg"},{"bike_id":"2944b50f-6623-477b-890f-d7a197ae9c06","system_id":"levelo_inurba_marseille","lat":43.29421,"lon":5.38627,"is_reserved":false,"is_disabled":false,"rental_uris":{"android":"levelo://app?vid=2944b50f-6623-477b-890f-d7a197ae9c06","ios":"levelo://app?vid=2944b50f-6623-477b-890f-d7a197ae9c06"},"vehicle_type_id":"4","last_reported":1743167965,"current_range_meters":6800,"station_id":"ce4bh2h2rcd13ifvqdh0","pricing_plan_id":"cebpf4jnsgd1na2vs0mg"},{"bike_id":"19221227-42ec-4f4b-8f04-42a0818e22f5","system_id":"levelo_inurba_marseille","lat":43.32114,"lon":5.36777,"is_reserved":false,"is_disabled":false,"rental_uris":{"android":"levelo://app?vid=19221227-42ec-4f4b-8f04-42a0818e22f5","ios":"levelo://app?vid=19221227-42ec-4f4b-8f04-42a0818e22f5"},"vehicle_type_id":"4","last_reported":1743167965,"current_range_meters":7200,"station_id":"ce4bhrh2rcd13ifvqhug","pricing_plan_id":"cebpf4jnsgd1na2vs0mg"},{"bike_id":"8add1765-2d59-476f-be7a-5ecb8e55419c","system_id":"levelo_inurba_marseille","lat":43.28378,"lon":5.38629,"is_reserved":false,"is_disabled":false,"rental_uris":{"android":"levelo://app?vid=8add1765-2d59-476f-be7a-5ecb8e55419c","ios":"levelo://app?vid=8add1765-2d59-476f-be7a-5ecb8e55419c"},"vehicle_type_id":"4","last_reported":1743167965,"current_range_meters":7200,"station_id":"ce4bh492rcd13ifvqdvg","pricing_plan_id":"cebpf4jnsgd1na2vs0mg"},{"bike_id":"a82eaf2f-b77e-4009-adb8-0ea48a99235c","system_id":"levelo_inurba_marseille","lat":43.30306,"lon":5.39212,"is_reserved":false,"is_disabled":false,"rental_uris":{"android":"levelo://app?vid=a82eaf2f-b77e-4009-adb8-0ea48a99235c","ios":"levelo://app?vid=a82eaf2f-b77e-4009-adb8-0ea48a99235c"},"vehicle_type_id":"4","last_reported":1743167965,"current_range_meters":8000,"station_id":"ce4bgkh2rcd13ifvqbk0","pricing_plan_id":"cebpf4jnsgd1na2vs0mg"},{"bike_id":"b6277294-9c97-4bd2-bb72-519bd900d431","system_id":"levelo_inurba_marseille","lat":43.29312,"lon":5.3746,"is_reserved":false,"is_disabled":true,"rental_uris":{"android":"levelo://app?vid=b6277294-9c97-4bd2-bb72-519bd900d431","ios":"levelo://app?vid=b6277294-9c97-4bd2-bb72-519bd900d431"},"vehicle_type_id":"4","last_reported":1743167965,"current_range_meters":8000,"station_id":"ce4bgi12rcd13ifvqb70","pricing_plan_id":"cebpf4jnsgd1na2vs0mg"},{"bike_id":"e5773d5e-8e0b-4f92-85fc-8e5ddec35669","system_id":"levelo_inurba_marseille","lat":43.28364,"lon":5.38642,"is_reserved":false,"is_disabled":false,"rental_uris":{"android":"levelo://app?vid=e5773d5e-8e0b-4f92-85fc-8e5ddec35669","ios":"levelo://app?vid=e5773d5e-8e0b-4f92-85fc-8e5ddec35669"},"vehicle_type_id":"4","last_reported":1743167965,"current_range_meters":8000,"station_id":"ce4bh492rcd13ifvqdvg","pricing_plan_id":"cebpf4jnsgd1na2vs0mg"},{"bike_id":"ec940620-2a09-4eae-aace-1a0a72b62180","system_id":"levelo_inurba_marseille","lat":43.30294,"lon":5.40079,"is_reserved":false,"is_disabled":false,"rental_uris":{"android":"levelo://app?vid=ec940620-2a09-4eae-aace-1a0a72b62180","ios":"levelo://app?vid=ec940620-2a09-4eae-aace-1a0a72b62180"},"vehicle_type_id":"4","last_reported":1743167965,"current_range_meters":8000,"station_id":"ce4bgvh2rcd13ifvqcs0","pricing_plan_id":"cebpf4jnsgd1na2vs0mg"},{"bike_id":"241b3bbf-0d79-4c4a-9645-7eaa4cd68cd1","system_id":"levelo_inurba_marseille","lat":43.29048,"lon":5.39942,"is_reserved":false,"is_disabled":false,"rental_uris":{"android":"levelo://app?vid=241b3bbf-0d79-4c4a-9645-7eaa4cd68cd1","ios":"levelo://app?vid=241b3bbf-0d79-4c4a-9645-7eaa4cd68cd1"},"vehicle_type_id":"4","last_reported":1743167965,"current_range_meters":8000,"station_id":"ce4bh392rcd13ifvqdm0","pricing_plan_id":"cebpf4jnsgd1na2vs0mg"},{"bike_id":"bc3f138a-3af0-4b4e-9b07-2d2a8e540795","system_id":"levelo_inurba_marseille","lat":43.26498,"lon":5.39552,"is_reserved":false,"is_disabled":true,"rental_uris":{"android":"levelo://app?vid=bc3f138a-3af0-4b4e-9b07-2d2a8e540795","ios":"levelo://app?vid=bc3f138a-3af0-4b4e-9b07-2d2a8e540795"},"vehicle_type_id":"4","last_reported":1743167965,"current_range_meters":8000,"station_id":"ce4bhi12rcd13ifvqfq0","pricing_plan_id":"cebpf4jnsgd1na2vs0mg"},{"bike_id":"71cddb2c-329a-4948-9db8-e93371ab57f6","system_id":"levelo_inurba_marseille","lat":43.24391,"lon":5.37062,"is_reserved":false,"is_disabled":false,"rental_uris":{"android":"levelo://app?vid=71cddb2c-329a-4948-9db8-e93371ab57f6","ios":"levelo://app?vid=71cddb2c-329a-4948-9db8-e93371ab57f6"},"vehicle_type_id":"4","last_reported":1743167965,"current_range_meters":8000,"station_id":"ce4bhhh2rcd13ifvqfk0","pricing_plan_id":"cebpf4jnsgd1na2vs0mg"},{"bike_id":"f05bbf57-da28-46d1-a69e-3a344b64a80a","system_id":"levelo_inurba_marseille","lat":43.30434,"lon":5.38889,"is_reserved":false,"is_disabled":false,"rental_uris":{"android":"levelo://app?vid=f05bbf57-da28-46d1-a69e-3a344b64a80a","ios":"levelo://app?vid=f05bbf57-da28-46d1-a69e-3a344b64a80a"},"vehicle_type_id":"4","last_reported":1743167965,"current_range_meters":8000,"station_id":"ce4bgk12rcd13ifvqbi0","pricing_plan_id":"cebpf4jnsgd1na2vs0mg"},{"bike_id":"0ac88cdf-dd3a-494f-aaa5-2b24d1ce393f","system_id":"levelo_inurba_marseille","lat":43.23191,"lon":5.35554,"is_reserved":false,"is_disabled":false,"rental_uris":{"android":"levelo://app?vid=0ac88cdf-dd3a-494f-aaa5-2b24d1ce393f","ios":"levelo://app?vid=0ac88cdf-dd3a-494f-aaa5-2b24d1ce393f"},"vehicle_type_id":"4","last_reported":1743167965,"current_range_meters":8000,"station_id":"ce4bhu92rcd13ifvqi70","pricing_plan_id":"cebpf4jnsgd1na2vs0mg"},{"bike_id":"64f0ea86-1180-4755-95e1-3cbc9c8d4cf5","system_id":"levelo_inurba_marseille","lat":43.33003,"lon":5.43874,"is_reserved":false,"is_disabled":true,"rental_uris":{"android":"levelo://app?vid=64f0ea86-1180-4755-95e1-3cbc9c8d4cf5","ios":"levelo://app?vid=64f0ea86-1180-4755-95e1-3cbc9c8d4cf5"},"vehicle_type_id":"4","last_reported":1743167965,"current_range_meters":8000,"station_id":"","pricing_plan_id":"cebpf4jnsgd1na2vs0mg"},{"bike_id":"2bb77419-83d5-4241-8dea-5f5cb575337f","system_id":"levelo_inurba_marseille","lat":43.30611,"lon":5.37247,"is_reserved":false,"is_disabled":false,"rental_uris":{"android":"levelo://app?vid=2bb77419-83d5-4241-8dea-5f5cb575337f","ios":"levelo://app?vid=2bb77419-83d5-4241-8dea-5f5cb575337f"},"vehicle_type_id":"4","last_reported":1743167965,"current_range_meters":8000,"station_id":"ce4bgqh2rcd13ifvqc4g","pricing_plan_id":"cebpf4jnsgd1na2vs0mg"},{"bike_id":"d6fe6f04-6267-4b1c-9285-97536fa9742f","system_id":"levelo_inurba_marseille","lat":43.296241,"lon":5.377159,"is_reserved":false,"is_disabled":false,"rental_uris":{"android":"levelo://app?vid=d6fe6f04-6267-4b1c-9285-97536fa9742f","ios":"levelo://app?vid=d6fe6f04-6267-4b1c-9285-97536fa9742f"},"vehicle_type_id":"4","last_reported":1743167965,"current_range_meters":8000,"station_id":"ce4bgi92rcd13ifvqb90","pricing_plan_id":"cebpf4jnsgd1na2vs0mg"},{"bike_id":"1ed6ca88-2355-40f8-ba2e-6146d53517cd","system_id":"levelo_inurba_marseille","lat":43.283478,"lon":5.381082,"is_reserved":false,"is_disabled":false,"rental_uris":{"android":"levelo://app?vid=1ed6ca88-2355-40f8-ba2e-6146d53517cd","ios":"levelo://app?vid=1ed6ca88-2355-40f8-ba2e-6146d53517cd"},"vehicle_type_id":"4","last_reported":1743167965,"current_range_meters":8000,"station_id":"ce4bh412rcd13ifvqdr0","pricing_plan_id":"cebpf4jnsgd1na2vs0mg"},{"bike_id":"5001e53d-54cb-4f10-8d6b-4d4be8c8cf42","system_id":"levelo_inurba_marseille","lat":43.29267,"lon":5.37632,"is_reserved":false,"is_disabled":false,"rental_uris":{"android":"levelo://app?vid=5001e53d-54cb-4f10-8d6b-4d4be8c8cf42","ios":"levelo://app?vid=5001e53d-54cb-4f10-8d6b-4d4be8c8cf42"},"vehicle_type_id":"4","last_reported":1743167965,"current_range_meters":8000,"station_id":"ce4bgi12rcd13ifvqb80","pricing_plan_id":"cebpf4jnsgd1na2vs0mg"},{"bike_id":"961245ca-8d90-4d71-b735-61afea929100","system_id":"levelo_inurba_marseille","lat":43.24173,"lon":5.36409,"is_reserved":false,"is_disabled":false,"rental_uris":{"android":"levelo://app?vid=961245ca-8d90-4d71-b735-61afea929100","ios":"levelo://app?vid=961245ca-8d90-4d71-b735-61afea929100"},"vehicle_type_id":"4","last_reported":1743167965,"current_range_meters":8400,"station_id":"cpo36qri1sfpv3e86is0","pricing_plan_id":"cebpf4jnsgd1na2vs0mg"},{"bike_id":"cbf12277-4958-47fb-b0eb-696870423650","system_id":"levelo_inurba_marseille","lat":43.28364,"lon":5.38639,"is_reserved":false,"is_disabled":false,"rental_uris":{"android":"levelo://app?vid=cbf12277-4958-47fb-b0eb-696870423650","ios":"levelo://app?vid=cbf12277-4958-47fb-b0eb-696870423650"},"vehicle_type_id":"4","last_reported":1743167965,"current_range_meters":8400,"station_id":"ce4bh492rcd13ifvqdvg","pricing_plan_id":"cebpf4jnsgd1na2vs0mg"},{"bike_id":"ce9e7efc-c14c-46e7-abaa-8ba9eeec87d7","system_id":"levelo_inurba_marseille","lat":43.25583,"lon":5.38238,"is_reserved":false,"is_disabled":false,"rental_uris":{"android":"levelo://app?vid=ce9e7efc-c14c-46e7-abaa-8ba9eeec87d7","ios":"levelo://app?vid=ce9e7efc-c14c-46e7-abaa-8ba9eeec87d7"},"vehicle_type_id":"4","last_reported":1743167965,"current_range_meters":8400,"station_id":"ce4bhih2rcd13ifvqfs0","pricing_plan_id":"cebpf4jnsgd1na2vs0mg"},{"bike_id":"b446ffd3-7e07-41c1-94e6-d78bd7a27e5f","system_id":"levelo_inurba_marseille","lat":43.284866,"lon":5.3856,"is_reserved":false,"is_disabled":false,"rental_uris":{"android":"levelo://app?vid=b446ffd3-7e07-41c1-94e6-d78bd7a27e5f","ios":"levelo://app?vid=b446ffd3-7e07-41c1-94e6-d78bd7a27e5f"},"vehicle_type_id":"4","last_reported":1743167965,"current_range_meters":8800,"station_id":"ce4bhu92rcd13ifvqi70","pricing_plan_id":"cebpf4jnsgd1na2vs0mg"},{"bike_id":"f560f494-b26b-441a-984a-a64f636c3937","system_id":"levelo_inurba_marseille","lat":43.24079,"lon":5.37776,"is_reserved":false,"is_disabled":false,"rental_uris":{"android":"levelo://app?vid=f560f494-b26b-441a-984a-a64f636c3937","ios":"levelo://app?vid=f560f494-b26b-441a-984a-a64f636c3937"},"vehicle_type_id":"4","last_reported":1743167965,"current_range_meters":8400,"station_id":"ce4bhnp2rcd13ifvqgvg","pricing_plan_id":"cebpf4jnsgd1na2vs0mg"},{"bike_id":"9043c11e-fc9c-4a4f-be86-393f483d3f64","system_id":"levelo_inurba_marseille","lat":43.26949,"lon":5.386538,"is_reserved":false,"is_disabled":false,"rental_uris":{"android":"levelo://app?vid=9043c11e-fc9c-4a4f-be86-393f483d3f64","ios":"levelo://app?vid=9043c11e-fc9c-4a4f-be86-393f483d3f64"},"vehicle_type_id":"4","last_reported":1743167965,"current_range_meters":8400,"station_id":"ce4bhh92rcd13ifvqfh0","pricing_plan_id":"cebpf4jnsgd1na2vs0mg"},{"bike_id":"37703b88-0681-4fe0-a352-8323ebd0e7ba","system_id":"levelo_inurba_marseille","lat":43.28612,"lon":5.37077,"is_reserved":false,"is_disabled":false,"rental_uris":{"android":"levelo://app?vid=37703b88-0681-4fe0-a352-8323ebd0e7ba","ios":"levelo://app?vid=37703b88-0681-4fe0-a352-8323ebd0e7ba"},"vehicle_type_id":"4","last_reported":1743167965,"current_range_meters":8400,"station_id":"ce4bht12rcd13ifvqi60","pricing_plan_id":"cebpf4jnsgd1na2vs0mg"},{"bike_id":"21da9463-20c2-47b9-91c7-58aa84133899","system_id":"levelo_inurba_marseille","lat":43.28687,"lon":5.39977,"is_reserved":false,"is_disabled":false,"rental_uris":{"android":"levelo://app?vid=21da9463-20c2-47b9-91c7-58aa84133899","ios":"levelo://app?vid=21da9463-20c2-47b9-91c7-58aa84133899"},"vehicle_type_id":"4","last_reported":1743167965,"current_range_meters":8400,"station_id":"ce4bho92rcd13ifvqh3g","pricing_plan_id":"cebpf4jnsgd1na2vs0mg"},{"bike_id":"75450b3a-e5a8-462c-a900-1308e76d2983","system_id":"levelo_inurba_marseille","lat":43.27377,"lon":5.36259,"is_reserved":false,"is_disabled":false,"rental_uris":{"android":"levelo://app?vid=75450b3a-e5a8-462c-a900-1308e76d2983","ios":"levelo://app?vid=75450b3a-e5a8-462c-a900-1308e76d2983"},"vehicle_type_id":"4","last_reported":1743167965,"current_range_meters":8400,"station_id":"ce4bhbh2rcd13ifvqeo0","pricing_plan_id":"cebpf4jnsgd1na2vs0mg"},{"bike_id":"5d4500e1-5bc8-4c1a-85c5-e4d93da341ca","system_id":"levelo_inurba_marseille","lat":43.29297,"lon":5.37454,"is_reserved":false,"is_disabled":false,"rental_uris":{"android":"levelo://app?vid=5d4500e1-5bc8-4c1a-85c5-e4d93da341ca","ios":"levelo://app?vid=5d4500e1-5bc8-4c1a-85c5-e4d93da341ca"},"vehicle_type_id":"4","last_reported":1743167965,"current_range_meters":8400,"station_id":"ce4bgi12rcd13ifvqb70","pricing_plan_id":"cebpf4jnsgd1na2vs0mg"},{"bike_id":"8d03e719-94e6-47d9-8d17-410ab7926b87","system_id":"levelo_inurba_marseille","lat":43.2737,"lon":5.36252,"is_reserved":false,"is_disabled":false,"rental_uris":{"android":"levelo://app?vid=8d03e719-94e6-47d9-8d17-410ab7926b87","ios":"levelo://app?vid=8d03e719-94e6-47d9-8d17-410ab7926b87"},"vehicle_type_id":"4","last_reported":1743167965,"current_range_meters":8400,"station_id":"ce4bhbh2rcd13ifvqeo0","pricing_plan_id":"cebpf4jnsgd1na2vs0mg"},{"bike_id":"813634ed-e21d-4b9e-88e8-aa8b87581eb3","system_id":"levelo_inurba_marseille","lat":43.32112,"lon":5.36786,"is_reserved":false,"is_disabled":false,"rental_uris":{"android":"levelo://app?vid=813634ed-e21d-4b9e-88e8-aa8b87581eb3","ios":"levelo://app?vid=813634ed-e21d-4b9e-88e8-aa8b87581eb3"},"vehicle_type_id":"4","last_reported":1743167965,"current_range_meters":8800,"station_id":"ce4bhrh2rcd13ifvqhug","pricing_plan_id":"cebpf4jnsgd1na2vs0mg"},{"bike_id":"f00e0bf1-e77c-4752-8f1b-63a2e565cf51","system_id":"levelo_inurba_marseille","lat":43.27954,"lon":5.38738,"is_reserved":false,"is_disabled":true,"rental_uris":{"android":"levelo://app?vid=f00e0bf1-e77c-4752-8f1b-63a2e565cf51","ios":"levelo://app?vid=f00e0bf1-e77c-4752-8f1b-63a2e565cf51"},"vehicle_type_id":"4","last_reported":1743167965,"current_range_meters":8800,"station_id":"ce4bhg12rcd13ifvqf80","pricing_plan_id":"cebpf4jnsgd1na2vs0mg"},{"bike_id":"d4b12a95-a1b8-4e85-b675-2eb55bc0d7fa","system_id":"levelo_inurba_marseille","lat":43.29023,"lon":5.38653,"is_reserved":false,"is_disabled":false,"rental_uris":{"android":"levelo://app?vid=d4b12a95-a1b8-4e85-b675-2eb55bc0d7fa","ios":"levelo://app?vid=d4b12a95-a1b8-4e85-b675-2eb55bc0d7fa"},"vehicle_type_id":"4","last_reported":1743167965,"current_range_meters":8800,"station_id":"ce4bh4p2rcd13ifvqe0g","pricing_plan_id":"cebpf4jnsgd1na2vs0mg"},{"bike_id":"25c93242-72e6-4525-aea7-7d96e2cd1825","system_id":"levelo_inurba_marseille","lat":43.33074,"lon":5.40821,"is_reserved":false,"is_disabled":false,"rental_uris":{"android":"levelo://app?vid=25c93242-72e6-4525-aea7-7d96e2cd1825","ios":"levelo://app?vid=25c93242-72e6-4525-aea7-7d96e2cd1825"},"vehicle_type_id":"4","last_reported":1743167965,"current_range_meters":8800,"station_id":"","pricing_plan_id":"cebpf4jnsgd1na2vs0mg"},{"bike_id":"c6fb95e3-5fc2-473d-a8b0-9dde4d00f5fe","system_id":"levelo_inurba_marseille","lat":43.29803,"lon":5.38088,"is_reserved":false,"is_disabled":false,"rental_uris":{"android":"levelo://app?vid=c6fb95e3-5fc2-473d-a8b0-9dde4d00f5fe","ios":"levelo://app?vid=c6fb95e3-5fc2-473d-a8b0-9dde4d00f5fe"},"vehicle_type_id":"4","last_reported":1743167965,"current_range_meters":8800,"station_id":"ce4bgip2rcd13ifvqbb0","pricing_plan_id":"cebpf4jnsgd1na2vs0mg"},{"bike_id":"ceecbcc2-ac65-4641-b26a-eff5f63dc82b","system_id":"levelo_inurba_marseille","lat":43.31996,"lon":5.38146,"is_reserved":false,"is_disabled":false,"rental_uris":{"android":"levelo://app?vid=ceecbcc2-ac65-4641-b26a-eff5f63dc82b","ios":"levelo://app?vid=ceecbcc2-ac65-4641-b26a-eff5f63dc82b"},"vehicle_type_id":"4","last_reported":1743167965,"current_range_meters":8800,"station_id":"ce4bhr12rcd13ifvqhpg","pricing_plan_id":"cebpf4jnsgd1na2vs0mg"},{"bike_id":"cadcb81a-4985-4c8a-8aa0-fe429d3ec2c5","system_id":"levelo_inurba_marseille","lat":43.30421,"lon":5.39758,"is_reserved":false,"is_disabled":false,"rental_uris":{"android":"levelo://app?vid=cadcb81a-4985-4c8a-8aa0-fe429d3ec2c5","ios":"levelo://app?vid=cadcb81a-4985-4c8a-8aa0-fe429d3ec2c5"},"vehicle_type_id":"4","last_reported":1743167965,"current_range_meters":8800,"station_id":"ce4bh092rcd13ifvqd20","pricing_plan_id":"cebpf4jnsgd1na2vs0mg"},{"bike_id":"1626338c-5227-4bfa-82e5-a53f9b0a4089","system_id":"levelo_inurba_marseille","lat":43.28717,"lon":5.3793,"is_reserved":false,"is_disabled":false,"rental_uris":{"android":"levelo://app?vid=1626338c-5227-4bfa-82e5-a53f9b0a4089","ios":"levelo://app?vid=1626338c-5227-4bfa-82e5-a53f9b0a4089"},"vehicle_type_id":"4","last_reported":1743167965,"current_range_meters":8800,"station_id":"ce4bh9p2rcd13ifvqec0","pricing_plan_id":"cebpf4jnsgd1na2vs0mg"},{"bike_id":"12f5a8cf-95cd-422d-a2b2-6f69048e35c5","system_id":"levelo_inurba_marseille","lat":43.29028,"lon":5.38645,"is_reserved":false,"is_disabled":false,"rental_uris":{"android":"levelo://app?vid=12f5a8cf-95cd-422d-a2b2-6f69048e35c5","ios":"levelo://app?vid=12f5a8cf-95cd-422d-a2b2-6f69048e35c5"},"vehicle_type_id":"4","last_reported":1743167965,"current_range_meters":8800,"station_id":"ce4bh4p2rcd13ifvqe0g","pricing_plan_id":"cebpf4jnsgd1na2vs0mg"},{"bike_id":"31da89a8-0173-4d22-a0c0-9fb96f973019","system_id":"levelo_inurba_marseille","lat":43.29911,"lon":5.39713,"is_reserved":false,"is_disabled":false,"rental_uris":{"android":"levelo://app?vid=31da89a8-0173-4d22-a0c0-9fb96f973019","ios":"levelo://app?vid=31da89a8-0173-4d22-a0c0-9fb96f973019"},"vehicle_type_id":"4","last_reported":1743167965,"current_range_meters":8800,"station_id":"ce4bh0h2rcd13ifvqd50","pricing_plan_id":"cebpf4jnsgd1na2vs0mg"},{"bike_id":"82473d35-2b12-42f0-b4c6-a820b99873b2","system_id":"levelo_inurba_marseille","lat":43.28691,"lon":5.39975,"is_reserved":false,"is_disabled":false,"rental_uris":{"android":"levelo://app?vid=82473d35-2b12-42f0-b4c6-a820b99873b2","ios":"levelo://app?vid=82473d35-2b12-42f0-b4c6-a820b99873b2"},"vehicle_type_id":"4","last_reported":1743167965,"current_range_meters":8800,"station_id":"ce4bho92rcd13ifvqh3g","pricing_plan_id":"cebpf4jnsgd1na2vs0mg"},{"bike_id":"85bdcdcd-3b24-4266-96f9-09a378c1efa4","system_id":"levelo_inurba_marseille","lat":43.25938,"lon":5.40899,"is_reserved":false,"is_disabled":false,"rental_uris":{"android":"levelo://app?vid=85bdcdcd-3b24-4266-96f9-09a378c1efa4","ios":"levelo://app?vid=85bdcdcd-3b24-4266-96f9-09a378c1efa4"},"vehicle_type_id":"4","last_reported":1743167965,"current_range_meters":9200,"station_id":"ce4bhm92rcd13ifvqglg","pricing_plan_id":"cebpf4jnsgd1na2vs0mg"},{"bike_id":"ab12f224-4614-4b79-bc2e-dd551aa5f99d","system_id":"levelo_inurba_marseille","lat":43.27497,"lon":5.42447,"is_reserved":false,"is_disabled":false,"rental_uris":{"android":"levelo://app?vid=ab12f224-4614-4b79-bc2e-dd551aa5f99d","ios":"levelo://app?vid=ab12f224-4614-4b79-bc2e-dd551aa5f99d"},"vehicle_type_id":"4","last_reported":1743167965,"current_range_meters":9200,"station_id":"ce4bhn92rcd13ifvqgrg","pricing_plan_id":"cebpf4jnsgd1na2vs0mg"},{"bike_id":"861ae205-c318-4688-ac53-947993e1b65f","system_id":"levelo_inurba_marseille","lat":43.2415,"lon":5.364,"is_reserved":false,"is_disabled":false,"rental_uris":{"android":"levelo://app?vid=861ae205-c318-4688-ac53-947993e1b65f","ios":"levelo://app?vid=861ae205-c318-4688-ac53-947993e1b65f"},"vehicle_type_id":"4","last_reported":1743167965,"current_range_meters":9200,"station_id":"cpo36qri1sfpv3e86is0","pricing_plan_id":"cebpf4jnsgd1na2vs0mg"},{"bike_id":"2e919ca5-ce98-4c47-a9d7-66e6ab7584e4","system_id":"levelo_inurba_marseille","lat":43.32114,"lon":5.36775,"is_reserved":false,"is_disabled":false,"rental_uris":{"android":"levelo://app?vid=2e919ca5-ce98-4c47-a9d7-66e6ab7584e4","ios":"levelo://app?vid=2e919ca5-ce98-4c47-a9d7-66e6ab7584e4"},"vehicle_type_id":"4","last_reported":1743167965,"current_range_meters":9200,"station_id":"ce4bhrh2rcd13ifvqhug","pricing_plan_id":"cebpf4jnsgd1na2vs0mg"},{"bike_id":"1c027df0-288b-43ba-99e2-3b3aebfce208","system_id":"levelo_inurba_marseille","lat":43.24075,"lon":5.37758,"is_reserved":false,"is_disabled":false,"rental_uris":{"android":"levelo://app?vid=1c027df0-288b-43ba-99e2-3b3aebfce208","ios":"levelo://app?vid=1c027df0-288b-43ba-99e2-3b3aebfce208"},"vehicle_type_id":"4","last_reported":1743167965,"current_range_meters":9200,"station_id":"ce4bhnp2rcd13ifvqgvg","pricing_plan_id":"cebpf4jnsgd1na2vs0mg"},{"bike_id":"b8133822-7bdd-47a6-8b10-a7626b31715c","system_id":"levelo_inurba_marseille","lat":43.29883,"lon":5.39753,"is_reserved":false,"is_disabled":false,"rental_uris":{"android":"levelo://app?vid=b8133822-7bdd-47a6-8b10-a7626b31715c","ios":"levelo://app?vid=b8133822-7bdd-47a6-8b10-a7626b31715c"},"vehicle_type_id":"4","last_reported":1743167965,"current_range_meters":9200,"station_id":"ce4bh0h2rcd13ifvqd50","pricing_plan_id":"cebpf4jnsgd1na2vs0mg"},{"bike_id":"f4fa6cb2-dfc4-45bf-92b9-6ddf4fdb14ed","system_id":"levelo_inurba_marseille","lat":43.24395,"lon":5.37048,"is_reserved":false,"is_disabled":false,"rental_uris":{"android":"levelo://app?vid=f4fa6cb2-dfc4-45bf-92b9-6ddf4fdb14ed","ios":"levelo://app?vid=f4fa6cb2-dfc4-45bf-92b9-6ddf4fdb14ed"},"vehicle_type_id":"4","last_reported":1743167965,"current_range_meters":9200,"station_id":"ce4bhhh2rcd13ifvqfk0","pricing_plan_id":"cebpf4jnsgd1na2vs0mg"},{"bike_id":"fa847661-b485-46b4-9026-bbf7d7813924","system_id":"levelo_inurba_marseille","lat":43.28078,"lon":5.39648,"is_reserved":false,"is_disabled":false,"rental_uris":{"android":"levelo://app?vid=fa847661-b485-46b4-9026-bbf7d7813924","ios":"levelo://app?vid=fa847661-b485-46b4-9026-bbf7d7813924"},"vehicle_type_id":"4","last_reported":1743167965,"current_range_meters":9200,"station_id":"ce4bho12rcd13ifvqh2g","pricing_plan_id":"cebpf4jnsgd1na2vs0mg"},{"bike_id":"ba3ec71d-9ef2-4dbc-8fc5-f0e245f8044e","system_id":"levelo_inurba_marseille","lat":43.31226,"lon":5.36869,"is_reserved":false,"is_disabled":false,"rental_uris":{"android":"levelo://app?vid=ba3ec71d-9ef2-4dbc-8fc5-f0e245f8044e","ios":"levelo://app?vid=ba3ec71d-9ef2-4dbc-8fc5-f0e245f8044e"},"vehicle_type_id":"4","last_reported":1743167965,"current_range_meters":9200,"station_id":"ce4bgl92rcd13ifvqbq0","pricing_plan_id":"cebpf4jnsgd1na2vs0mg"},{"bike_id":"f03d6cfd-8e51-4ba9-8b5b-740de8ee4ca2","system_id":"levelo_inurba_marseille","lat":43.33027,"lon":5.39047,"is_reserved":false,"is_disabled":false,"rental_uris":{"android":"levelo://app?vid=f03d6cfd-8e51-4ba9-8b5b-740de8ee4ca2","ios":"levelo://app?vid=f03d6cfd-8e51-4ba9-8b5b-740de8ee4ca2"},"vehicle_type_id":"4","last_reported":1743167965,"current_range_meters":8800,"station_id":"ce4bhr92rcd13ifvqhrg","pricing_plan_id":"cebpf4jnsgd1na2vs0mg"},{"bike_id":"d04244ab-ffc2-416c-8fd0-e559ce9656fe","system_id":"levelo_inurba_marseille","lat":43.28716,"lon":5.3793,"is_reserved":false,"is_disabled":false,"rental_uris":{"android":"levelo://app?vid=d04244ab-ffc2-416c-8fd0-e559ce9656fe","ios":"levelo://app?vid=d04244ab-ffc2-416c-8fd0-e559ce9656fe"},"vehicle_type_id":"4","last_reported":1743167965,"current_range_meters":9600,"station_id":"ce4bh9p2rcd13ifvqec0","pricing_plan_id":"cebpf4jnsgd1na2vs0mg"},{"bike_id":"4a42ca1e-41e4-4233-a4bb-a180f04564d6","system_id":"levelo_inurba_marseille","lat":43.29191,"lon":5.3714,"is_reserved":false,"is_disabled":true,"rental_uris":{"android":"levelo://app?vid=4a42ca1e-41e4-4233-a4bb-a180f04564d6","ios":"levelo://app?vid=4a42ca1e-41e4-4233-a4bb-a180f04564d6"},"vehicle_type_id":"4","last_reported":1743167965,"current_range_meters":9600,"station_id":"ce4bha92rcd13ifvqeh0","pricing_plan_id":"cebpf4jnsgd1na2vs0mg"},{"bike_id":"0c7c8c97-c432-41cd-96f5-01a03f56e852","system_id":"levelo_inurba_marseille","lat":43.24138,"lon":5.36371,"is_reserved":false,"is_disabled":false,"rental_uris":{"android":"levelo://app?vid=0c7c8c97-c432-41cd-96f5-01a03f56e852","ios":"levelo://app?vid=0c7c8c97-c432-41cd-96f5-01a03f56e852"},"vehicle_type_id":"4","last_reported":1743167965,"current_range_meters":9600,"station_id":"cpo36qri1sfpv3e86is0","pricing_plan_id":"cebpf4jnsgd1na2vs0mg"},{"bike_id":"58c2953a-2a3e-4211-8fa5-2061581c552e","system_id":"levelo_inurba_marseille","lat":43.33721,"lon":5.39193,"is_reserved":false,"is_disabled":false,"rental_uris":{"android":"levelo://app?vid=58c2953a-2a3e-4211-8fa5-2061581c552e","ios":"levelo://app?vid=58c2953a-2a3e-4211-8fa5-2061581c552e"},"vehicle_type_id":"4","last_reported":1743167965,"current_range_meters":9200,"station_id":"ce4bhr92rcd13ifvqhsg","pricing_plan_id":"cebpf4jnsgd1na2vs0mg"},{"bike_id":"2a892e2a-f9aa-4d31-8c9a-cc66001fc87d","system_id":"levelo_inurba_marseille","lat":43.26205,"lon":5.37912,"is_reserved":false,"is_disabled":false,"rental_uris":{"android":"levelo://app?vid=2a892e2a-f9aa-4d31-8c9a-cc66001fc87d","ios":"levelo://app?vid=2a892e2a-f9aa-4d31-8c9a-cc66001fc87d"},"vehicle_type_id":"4","last_reported":1743167965,"current_range_meters":9600,"station_id":"ce4bhjp2rcd13ifvqg90","pricing_plan_id":"cebpf4jnsgd1na2vs0mg"},{"bike_id":"81a5f7f7-0518-4202-9506-785334cbf7c5","system_id":"levelo_inurba_marseille","lat":43.26222,"lon":5.40465,"is_reserved":false,"is_disabled":false,"rental_uris":{"android":"levelo://app?vid=81a5f7f7-0518-4202-9506-785334cbf7c5","ios":"levelo://app?vid=81a5f7f7-0518-4202-9506-785334cbf7c5"},"vehicle_type_id":"4","last_reported":1743167965,"current_range_meters":9600,"station_id":"ce4bhmh2rcd13ifvqgmg","pricing_plan_id":"cebpf4jnsgd1na2vs0mg"},{"bike_id":"ed3f340d-7b56-49a7-952a-c79c8daa5f0f","system_id":"levelo_inurba_marseille","lat":43.30143,"lon":5.38788,"is_reserved":false,"is_disabled":true,"rental_uris":{"android":"levelo://app?vid=ed3f340d-7b56-49a7-952a-c79c8daa5f0f","ios":"levelo://app?vid=ed3f340d-7b56-49a7-952a-c79c8daa5f0f"},"vehicle_type_id":"4","last_reported":1743167965,"current_range_meters":9600,"station_id":"ce4bghh2rcd13ifvqb60","pricing_plan_id":"cebpf4jnsgd1na2vs0mg"},{"bike_id":"6f73f6d6-9a9a-42db-a5bf-86e7b1276608","system_id":"levelo_inurba_marseille","lat":43.30897,"lon":5.372,"is_reserved":false,"is_disabled":false,"rental_uris":{"android":"levelo://app?vid=6f73f6d6-9a9a-42db-a5bf-86e7b1276608","ios":"levelo://app?vid=6f73f6d6-9a9a-42db-a5bf-86e7b1276608"},"vehicle_type_id":"4","last_reported":1743167965,"current_range_meters":9600,"station_id":"ce4bguh2rcd13ifvqckg","pricing_plan_id":"cebpf4jnsgd1na2vs0mg"},{"bike_id":"1c14bf9c-ada4-4a36-8853-740a1a2c000a","system_id":"levelo_inurba_marseille","lat":43.23198,"lon":5.35553,"is_reserved":false,"is_disabled":false,"rental_uris":{"android":"levelo://app?vid=1c14bf9c-ada4-4a36-8853-740a1a2c000a","ios":"levelo://app?vid=1c14bf9c-ada4-4a36-8853-740a1a2c000a"},"vehicle_type_id":"4","last_reported":1743167965,"current_range_meters":9600,"station_id":"ce4bhu92rcd13ifvqi70","pricing_plan_id":"cebpf4jnsgd1na2vs0mg"},{"bike_id":"87960793-d0ac-4d73-9ff2-8702ba28ad2e","system_id":"levelo_inurba_marseille","lat":43.23189,"lon":5.40001,"is_reserved":false,"is_disabled":false,"rental_uris":{"android":"levelo://app?vid=87960793-d0ac-4d73-9ff2-8702ba28ad2e","ios":"levelo://app?vid=87960793-d0ac-4d73-9ff2-8702ba28ad2e"},"vehicle_type_id":"4","last_reported":1743167965,"current_range_meters":9600,"station_id":"ce4bhn12rcd13ifvqgqg","pricing_plan_id":"cebpf4jnsgd1na2vs0mg"},{"bike_id":"2cff62ff-138c-4f63-813a-530f517486b4","system_id":"levelo_inurba_marseille","lat":43.31999,"lon":5.38152,"is_reserved":false,"is_disabled":false,"rental_uris":{"android":"levelo://app?vid=2cff62ff-138c-4f63-813a-530f517486b4","ios":"levelo://app?vid=2cff62ff-138c-4f63-813a-530f517486b4"},"vehicle_type_id":"4","last_reported":1743167965,"current_range_meters":10000,"station_id":"ce4bhr12rcd13ifvqhpg","pricing_plan_id":"cebpf4jnsgd1na2vs0mg"},{"bike_id":"971c92cb-66df-438d-9a85-e63af939e6ff","system_id":"levelo_inurba_marseille","lat":43.28627,"lon":5.35083,"is_reserved":false,"is_disabled":true,"rental_uris":{"android":"levelo://app?vid=971c92cb-66df-438d-9a85-e63af939e6ff","ios":"levelo://app?vid=971c92cb-66df-438d-9a85-e63af939e6ff"},"vehicle_type_id":"4","last_reported":1743167965,"current_range_meters":10000,"station_id":"ce4bhch2rcd13ifvqeug","pricing_plan_id":"cebpf4jnsgd1na2vs0mg"},{"bike_id":"c5887b5d-7662-4633-9b7e-c1f693b96552","system_id":"levelo_inurba_marseille","lat":43.27372,"lon":5.36234,"is_reserved":false,"is_disabled":false,"rental_uris":{"android":"levelo://app?vid=c5887b5d-7662-4633-9b7e-c1f693b96552","ios":"levelo://app?vid=c5887b5d-7662-4633-9b7e-c1f693b96552"},"vehicle_type_id":"4","last_reported":1743167965,"current_range_meters":10000,"station_id":"ce4bhbh2rcd13ifvqeo0","pricing_plan_id":"cebpf4jnsgd1na2vs0mg"},{"bike_id":"2487664b-6ca6-4300-b86d-a9ce75c31f9e","system_id":"levelo_inurba_marseille","lat":43.30535,"lon":5.36549,"is_reserved":false,"is_disabled":false,"rental_uris":{"android":"levelo://app?vid=2487664b-6ca6-4300-b86d-a9ce75c31f9e","ios":"levelo://app?vid=2487664b-6ca6-4300-b86d-a9ce75c31f9e"},"vehicle_type_id":"4","last_reported":1743167965,"current_range_meters":10000,"station_id":"ce4bgs12rcd13ifvqcag","pricing_plan_id":"cebpf4jnsgd1na2vs0mg"},{"bike_id":"4068a412-e485-4789-beab-0501196ae332","system_id":"levelo_inurba_marseille","lat":43.28367,"lon":5.38648,"is_reserved":false,"is_disabled":false,"rental_uris":{"android":"levelo://app?vid=4068a412-e485-4789-beab-0501196ae332","ios":"levelo://app?vid=4068a412-e485-4789-beab-0501196ae332"},"vehicle_type_id":"4","last_reported":1743167965,"current_range_meters":10000,"station_id":"ce4bh492rcd13ifvqdvg","pricing_plan_id":"cebpf4jnsgd1na2vs0mg"},{"bike_id":"17c498fb-f00c-4327-a006-f8fff2d358f5","system_id":"levelo_inurba_marseille","lat":43.26684,"lon":5.38269,"is_reserved":false,"is_disabled":false,"rental_uris":{"android":"levelo://app?vid=17c498fb-f00c-4327-a006-f8fff2d358f5","ios":"levelo://app?vid=17c498fb-f00c-4327-a006-f8fff2d358f5"},"vehicle_type_id":"4","last_reported":1743167965,"current_range_meters":9600,"station_id":"ce4bhg92rcd13ifvqf90","pricing_plan_id":"cebpf4jnsgd1na2vs0mg"},{"bike_id":"74bb3be4-214a-4907-a0a6-cb5edcf13a83","system_id":"levelo_inurba_marseille","lat":43.29707,"lon":5.36611,"is_reserved":false,"is_disabled":true,"rental_uris":{"android":"levelo://app?vid=74bb3be4-214a-4907-a0a6-cb5edcf13a83","ios":"levelo://app?vid=74bb3be4-214a-4907-a0a6-cb5edcf13a83"},"vehicle_type_id":"4","last_reported":1743167965,"current_range_meters":10000,"station_id":"ce4bgn12rcd13ifvqbt0","pricing_plan_id":"cebpf4jnsgd1na2vs0mg"},{"bike_id":"4dd06ebc-588b-4f7b-8ecc-1203681c621a","system_id":"levelo_inurba_marseille","lat":43.29616,"lon":5.37722,"is_reserved":false,"is_disabled":false,"rental_uris":{"android":"levelo://app?vid=4dd06ebc-588b-4f7b-8ecc-1203681c621a","ios":"levelo://app?vid=4dd06ebc-588b-4f7b-8ecc-1203681c621a"},"vehicle_type_id":"4","last_reported":1743167965,"current_range_meters":10000,"station_id":"ce4bgpp2rcd13ifvqc3g","pricing_plan_id":"cebpf4jnsgd1na2vs0mg"},{"bike_id":"2580ab7b-c2c0-4c7f-bdbd-6fa15b196b9f","system_id":"levelo_inurba_marseille","lat":43.336,"lon":5.4099,"is_reserved":false,"is_disabled":false,"rental_uris":{"android":"levelo://app?vid=2580ab7b-c2c0-4c7f-bdbd-6fa15b196b9f","ios":"levelo://app?vid=2580ab7b-c2c0-4c7f-bdbd-6fa15b196b9f"},"vehicle_type_id":"4","last_reported":1743167965,"current_range_meters":10000,"station_id":"ce4bhqh2rcd13ifvqhmg","pricing_plan_id":"cebpf4jnsgd1na2vs0mg"},{"bike_id":"4f52466c-29c3-4eab-bb2d-2e4d5b61dbce","system_id":"levelo_inurba_marseille","lat":43.28275,"lon":5.35071,"is_reserved":false,"is_disabled":false,"rental_uris":{"android":"levelo://app?vid=4f52466c-29c3-4eab-bb2d-2e4d5b61dbce","ios":"levelo://app?vid=4f52466c-29c3-4eab-bb2d-2e4d5b61dbce"},"vehicle_type_id":"4","last_reported":1743167965,"current_range_meters":10800,"station_id":"ce4bhbp2rcd13ifvqerg","pricing_plan_id":"cebpf4jnsgd1na2vs0mg"},{"bike_id":"aeee719e-56c9-4414-9561-e5b2a78b28a9","system_id":"levelo_inurba_marseille","lat":43.25075,"lon":5.39528,"is_reserved":false,"is_disabled":false,"rental_uris":{"android":"levelo://app?vid=aeee719e-56c9-4414-9561-e5b2a78b28a9","ios":"levelo://app?vid=aeee719e-56c9-4414-9561-e5b2a78b28a9"},"vehicle_type_id":"4","last_reported":1743167965,"current_range_meters":10800,"station_id":"ce4bhm12rcd13ifvqgkg","pricing_plan_id":"cebpf4jnsgd1na2vs0mg"},{"bike_id":"7e2a39bb-197c-4716-9ef3-44d783c8fd0f","system_id":"levelo_inurba_marseille","lat":43.295319,"lon":5.385378,"is_reserved":false,"is_disabled":false,"rental_uris":{"android":"levelo://app?vid=7e2a39bb-197c-4716-9ef3-44d783c8fd0f","ios":"levelo://app?vid=7e2a39bb-197c-4716-9ef3-44d783c8fd0f"},"vehicle_type_id":"4","last_reported":1743167965,"current_range_meters":10800,"station_id":"ce4bhb92rcd13ifvqen0","pricing_plan_id":"cebpf4jnsgd1na2vs0mg"},{"bike_id":"6848d0ba-0ce0-4648-89dc-a2a02effd7ae","system_id":"levelo_inurba_marseille","lat":43.24812,"lon":5.37462,"is_reserved":false,"is_disabled":false,"rental_uris":{"android":"levelo://app?vid=6848d0ba-0ce0-4648-89dc-a2a02effd7ae","ios":"levelo://app?vid=6848d0ba-0ce0-4648-89dc-a2a02effd7ae"},"vehicle_type_id":"4","last_reported":1743167965,"current_range_meters":10800,"station_id":"ce4bhgh2rcd13ifvqfb0","pricing_plan_id":"cebpf4jnsgd1na2vs0mg"},{"bike_id":"9eab4c2e-9a84-45b4-8a43-cf85414ffed2","system_id":"levelo_inurba_marseille","lat":43.30486,"lon":5.37906,"is_reserved":false,"is_disabled":false,"rental_uris":{"android":"levelo://app?vid=9eab4c2e-9a84-45b4-8a43-cf85414ffed2","ios":"levelo://app?vid=9eab4c2e-9a84-45b4-8a43-cf85414ffed2"},"vehicle_type_id":"4","last_reported":1743167965,"current_range_meters":10800,"station_id":"ce4bgup2rcd13ifvqcn0","pricing_plan_id":"cebpf4jnsgd1na2vs0mg"},{"bike_id":"15c335a2-fe44-4c23-b7ce-5584dba769ed","system_id":"levelo_inurba_marseille","lat":43.29843,"lon":5.36259,"is_reserved":false,"is_disabled":false,"rental_uris":{"android":"levelo://app?vid=15c335a2-fe44-4c23-b7ce-5584dba769ed","ios":"levelo://app?vid=15c335a2-fe44-4c23-b7ce-5584dba769ed"},"vehicle_type_id":"4","last_reported":1743167965,"current_range_meters":10800,"station_id":"ce4bgpp2rcd13ifvqc3g","pricing_plan_id":"cebpf4jnsgd1na2vs0mg"},{"bike_id":"b8606eef-0862-4743-a7ea-e4c5486a9dd3","system_id":"levelo_inurba_marseille","lat":43.30148,"lon":5.38062,"is_reserved":false,"is_disabled":false,"rental_uris":{"android":"levelo://app?vid=b8606eef-0862-4743-a7ea-e4c5486a9dd3","ios":"levelo://app?vid=b8606eef-0862-4743-a7ea-e4c5486a9dd3"},"vehicle_type_id":"4","last_reported":1743167965,"current_range_meters":10800,"station_id":"ce4bgjp2rcd13ifvqbh0","pricing_plan_id":"cebpf4jnsgd1na2vs0mg"},{"bike_id":"3fbcdfd8-5176-471d-aa84-e8e20bb4418e","system_id":"levelo_inurba_marseille","lat":43.32126,"lon":5.36788,"is_reserved":false,"is_disabled":false,"rental_uris":{"android":"levelo://app?vid=3fbcdfd8-5176-471d-aa84-e8e20bb4418e","ios":"levelo://app?vid=3fbcdfd8-5176-471d-aa84-e8e20bb4418e"},"vehicle_type_id":"4","last_reported":1743167965,"current_range_meters":11200,"station_id":"ce4bhrh2rcd13ifvqhug","pricing_plan_id":"cebpf4jnsgd1na2vs0mg"},{"bike_id":"db61f9e8-a165-4b9a-9283-8cd9cc148ed0","system_id":"levelo_inurba_marseille","lat":43.29635,"lon":5.37148,"is_reserved":false,"is_disabled":false,"rental_uris":{"android":"levelo://app?vid=db61f9e8-a165-4b9a-9283-8cd9cc148ed0","ios":"levelo://app?vid=db61f9e8-a165-4b9a-9283-8cd9cc148ed0"},"vehicle_type_id":"4","last_reported":1743167965,"current_range_meters":11200,"station_id":"ce4bgnh2rcd13ifvqc0g","pricing_plan_id":"cebpf4jnsgd1na2vs0mg"},{"bike_id":"06f4a67a-b922-473c-9074-32f848be455f","system_id":"levelo_inurba_marseille","lat":43.23149,"lon":5.43732,"is_reserved":false,"is_disabled":false,"rental_uris":{"android":"levelo://app?vid=06f4a67a-b922-473c-9074-32f848be455f","ios":"levelo://app?vid=06f4a67a-b922-473c-9074-32f848be455f"},"vehicle_type_id":"4","last_reported":1743167965,"current_range_meters":11200,"station_id":"ce4bhmp2rcd13ifvqgog","pricing_plan_id":"cebpf4jnsgd1na2vs0mg"},{"bike_id":"1d7ce28d-1064-436c-8545-2a974133b77d","system_id":"levelo_inurba_marseille","lat":43.269424,"lon":5.386649,"is_reserved":false,"is_disabled":false,"rental_uris":{"android":"levelo://app?vid=1d7ce28d-1064-436c-8545-2a974133b77d","ios":"levelo://app?vid=1d7ce28d-1064-436c-8545-2a974133b77d"},"vehicle_type_id":"4","last_reported":1743167965,"current_range_meters":11200,"station_id":"ce4bhgp2rcd13ifvqfe0","pricing_plan_id":"cebpf4jnsgd1na2vs0mg"},{"bike_id":"68e9fc26-8998-4bf7-8da8-af47209f9b7c","system_id":"levelo_inurba_marseille","lat":43.32125,"lon":5.36794,"is_reserved":false,"is_disabled":false,"rental_uris":{"android":"levelo://app?vid=68e9fc26-8998-4bf7-8da8-af47209f9b7c","ios":"levelo://app?vid=68e9fc26-8998-4bf7-8da8-af47209f9b7c"},"vehicle_type_id":"4","last_reported":1743167965,"current_range_meters":11200,"station_id":"ce4bhrh2rcd13ifvqhug","pricing_plan_id":"cebpf4jnsgd1na2vs0mg"},{"bike_id":"d492806a-9875-4206-b197-c1067930de56","system_id":"levelo_inurba_marseille","lat":43.28259,"lon":5.35079,"is_reserved":false,"is_disabled":false,"rental_uris":{"android":"levelo://app?vid=d492806a-9875-4206-b197-c1067930de56","ios":"levelo://app?vid=d492806a-9875-4206-b197-c1067930de56"},"vehicle_type_id":"4","last_reported":1743167965,"current_range_meters":11600,"station_id":"ce4bhbp2rcd13ifvqerg","pricing_plan_id":"cebpf4jnsgd1na2vs0mg"},{"bike_id":"3baabe1e-785f-4275-b2ae-669cc3f900da","system_id":"levelo_inurba_marseille","lat":43.27822,"lon":5.40705,"is_reserved":false,"is_disabled":true,"rental_uris":{"android":"levelo://app?vid=3baabe1e-785f-4275-b2ae-669cc3f900da","ios":"levelo://app?vid=3baabe1e-785f-4275-b2ae-669cc3f900da"},"vehicle_type_id":"4","last_reported":1743167965,"current_range_meters":11600,"station_id":"ce4bhnh2rcd13ifvqgtg","pricing_plan_id":"cebpf4jnsgd1na2vs0mg"},{"bike_id":"d2be6ce3-8e79-4804-b0d3-008c875e7b9d","system_id":"levelo_inurba_marseille","lat":43.26212,"lon":5.37933,"is_reserved":false,"is_disabled":false,"rental_uris":{"android":"levelo://app?vid=d2be6ce3-8e79-4804-b0d3-008c875e7b9d","ios":"levelo://app?vid=d2be6ce3-8e79-4804-b0d3-008c875e7b9d"},"vehicle_type_id":"4","last_reported":1743167965,"current_range_meters":11600,"station_id":"ce4bhjp2rcd13ifvqg90","pricing_plan_id":"cebpf4jnsgd1na2vs0mg"},{"bike_id":"e11513ee-dbb0-4e92-bc2a-5c505b90c751","system_id":"levelo_inurba_marseille","lat":43.28171,"lon":5.42645,"is_reserved":false,"is_disabled":false,"rental_uris":{"android":"levelo://app?vid=e11513ee-dbb0-4e92-bc2a-5c505b90c751","ios":"levelo://app?vid=e11513ee-dbb0-4e92-bc2a-5c505b90c751"},"vehicle_type_id":"4","last_reported":1743167965,"current_range_meters":11600,"station_id":"ce4bhnh2rcd13ifvqgug","pricing_plan_id":"cebpf4jnsgd1na2vs0mg"},{"bike_id":"55f704b7-903b-4c3e-8e76-f22266ee0b2d","system_id":"levelo_inurba_marseille","lat":43.26556,"lon":5.37291,"is_reserved":false,"is_disabled":false,"rental_uris":{"android":"levelo://app?vid=55f704b7-903b-4c3e-8e76-f22266ee0b2d","ios":"levelo://app?vid=55f704b7-903b-4c3e-8e76-f22266ee0b2d"},"vehicle_type_id":"4","last_reported":1743167965,"current_range_meters":11600,"station_id":"ce4bhg12rcd13ifvqf70","pricing_plan_id":"cebpf4jnsgd1na2vs0mg"},{"bike_id":"79ae1093-23b5-4f27-99e2-771a02f6fd8c","system_id":"levelo_inurba_marseille","lat":43.31089,"lon":5.42433,"is_reserved":false,"is_disabled":false,"rental_uris":{"android":"levelo://app?vid=79ae1093-23b5-4f27-99e2-771a02f6fd8c","ios":"levelo://app?vid=79ae1093-23b5-4f27-99e2-771a02f6fd8c"},"vehicle_type_id":"4","last_reported":1743167965,"current_range_meters":11600,"station_id":"ce4bhp92rcd13ifvqhag","pricing_plan_id":"cebpf4jnsgd1na2vs0mg"},{"bike_id":"c0aea687-3eaa-490f-bb6e-3b82080959f7","system_id":"levelo_inurba_marseille","lat":43.26694,"lon":5.38277,"is_reserved":false,"is_disabled":false,"rental_uris":{"android":"levelo://app?vid=c0aea687-3eaa-490f-bb6e-3b82080959f7","ios":"levelo://app?vid=c0aea687-3eaa-490f-bb6e-3b82080959f7"},"vehicle_type_id":"4","last_reported":1743167965,"current_range_meters":11600,"station_id":"ce4bgup2rcd13ifvqcn0","pricing_plan_id":"cebpf4jnsgd1na2vs0mg"},{"bike_id":"6082a6d8-29f3-4441-bd82-d0f95ead75d7","system_id":"levelo_inurba_marseille","lat":43.23193,"lon":5.35552,"is_reserved":false,"is_disabled":false,"rental_uris":{"android":"levelo://app?vid=6082a6d8-29f3-4441-bd82-d0f95ead75d7","ios":"levelo://app?vid=6082a6d8-29f3-4441-bd82-d0f95ead75d7"},"vehicle_type_id":"4","last_reported":1743167965,"current_range_meters":11600,"station_id":"ce4bhu92rcd13ifvqi70","pricing_plan_id":"cebpf4jnsgd1na2vs0mg"},{"bike_id":"ba4473d5-bc37-47ba-a588-0569dd1ee2be","system_id":"levelo_inurba_marseille","lat":43.30422,"lon":5.41285,"is_reserved":false,"is_disabled":false,"rental_uris":{"android":"levelo://app?vid=ba4473d5-bc37-47ba-a588-0569dd1ee2be","ios":"levelo://app?vid=ba4473d5-bc37-47ba-a588-0569dd1ee2be"},"vehicle_type_id":"4","last_reported":1743167965,"current_range_meters":11600,"station_id":"ce4bhop2rcd13ifvqh8g","pricing_plan_id":"cebpf4jnsgd1na2vs0mg"},{"bike_id":"6cbddcc1-9609-4503-9874-4b78c26df24e","system_id":"levelo_inurba_marseille","lat":43.32135,"lon":5.36788,"is_reserved":false,"is_disabled":false,"rental_uris":{"android":"levelo://app?vid=6cbddcc1-9609-4503-9874-4b78c26df24e","ios":"levelo://app?vid=6cbddcc1-9609-4503-9874-4b78c26df24e"},"vehicle_type_id":"4","last_reported":1743167965,"current_range_meters":11600,"station_id":"ce4bhrh2rcd13ifvqhug","pricing_plan_id":"cebpf4jnsgd1na2vs0mg"},{"bike_id":"666754fe-4743-4afe-abb2-10e0bfd88001","system_id":"levelo_inurba_marseille","lat":43.29926,"lon":5.3749,"is_reserved":false,"is_disabled":false,"rental_uris":{"android":"levelo://app?vid=666754fe-4743-4afe-abb2-10e0bfd88001","ios":"levelo://app?vid=666754fe-4743-4afe-abb2-10e0bfd88001"},"vehicle_type_id":"4","last_reported":1743167965,"current_range_meters":11600,"station_id":"ce4bgjh2rcd13ifvqbg0","pricing_plan_id":"cebpf4jnsgd1na2vs0mg"},{"bike_id":"39ea9b72-b36d-4fca-9b38-2d6234508e2b","system_id":"levelo_inurba_marseille","lat":43.27367,"lon":5.36262,"is_reserved":false,"is_disabled":false,"rental_uris":{"android":"levelo://app?vid=39ea9b72-b36d-4fca-9b38-2d6234508e2b","ios":"levelo://app?vid=39ea9b72-b36d-4fca-9b38-2d6234508e2b"},"vehicle_type_id":"4","last_reported":1743167965,"current_range_meters":11600,"station_id":"ce4bhbh2rcd13ifvqeo0","pricing_plan_id":"cebpf4jnsgd1na2vs0mg"},{"bike_id":"141a9850-d63f-41cc-a57f-da2cf6fdcc00","system_id":"levelo_inurba_marseille","lat":43.25867,"lon":5.39903,"is_reserved":false,"is_disabled":false,"rental_uris":{"android":"levelo://app?vid=141a9850-d63f-41cc-a57f-da2cf6fdcc00","ios":"levelo://app?vid=141a9850-d63f-41cc-a57f-da2cf6fdcc00"},"vehicle_type_id":"4","last_reported":1743167965,"current_range_meters":11600,"station_id":"ce4bhl92rcd13ifvqghg","pricing_plan_id":"cebpf4jnsgd1na2vs0mg"},{"bike_id":"65c86302-8ef0-46f4-ab6e-bac7149a2865","system_id":"levelo_inurba_marseille","lat":43.32106,"lon":5.36773,"is_reserved":false,"is_disabled":false,"rental_uris":{"android":"levelo://app?vid=65c86302-8ef0-46f4-ab6e-bac7149a2865","ios":"levelo://app?vid=65c86302-8ef0-46f4-ab6e-bac7149a2865"},"vehicle_type_id":"4","last_reported":1743167965,"current_range_meters":11600,"station_id":"ce4bhrh2rcd13ifvqhug","pricing_plan_id":"cebpf4jnsgd1na2vs0mg"},{"bike_id":"16aa2261-86f5-4126-b923-ceed478dbeb4","system_id":"levelo_inurba_marseille","lat":43.29309,"lon":5.37456,"is_reserved":false,"is_disabled":false,"rental_uris":{"android":"levelo://app?vid=16aa2261-86f5-4126-b923-ceed478dbeb4","ios":"levelo://app?vid=16aa2261-86f5-4126-b923-ceed478dbeb4"},"vehicle_type_id":"4","last_reported":1743167965,"current_range_meters":11600,"station_id":"ce4bgi12rcd13ifvqb70","pricing_plan_id":"cebpf4jnsgd1na2vs0mg"},{"bike_id":"4a200aea-5ee1-4d4b-9aeb-49858f98ca36","system_id":"levelo_inurba_marseille","lat":43.29784,"lon":5.38119,"is_reserved":false,"is_disabled":false,"rental_uris":{"android":"levelo://app?vid=4a200aea-5ee1-4d4b-9aeb-49858f98ca36","ios":"levelo://app?vid=4a200aea-5ee1-4d4b-9aeb-49858f98ca36"},"vehicle_type_id":"4","last_reported":1743167965,"current_range_meters":12000,"station_id":"ce4bgip2rcd13ifvqbb0","pricing_plan_id":"cebpf4jnsgd1na2vs0mg"},{"bike_id":"fb348b09-6abb-47a4-a266-91f2eeaee291","system_id":"levelo_inurba_marseille","lat":43.32115,"lon":5.36768,"is_reserved":false,"is_disabled":false,"rental_uris":{"android":"levelo://app?vid=fb348b09-6abb-47a4-a266-91f2eeaee291","ios":"levelo://app?vid=fb348b09-6abb-47a4-a266-91f2eeaee291"},"vehicle_type_id":"4","last_reported":1743167965,"current_range_meters":12000,"station_id":"ce4bhrh2rcd13ifvqhug","pricing_plan_id":"cebpf4jnsgd1na2vs0mg"},{"bike_id":"5e4e3ea7-2fe4-489c-941f-6ee72a238e81","system_id":"levelo_inurba_marseille","lat":43.231919,"lon":5.399877,"is_reserved":false,"is_disabled":false,"rental_uris":{"android":"levelo://app?vid=5e4e3ea7-2fe4-489c-941f-6ee72a238e81","ios":"levelo://app?vid=5e4e3ea7-2fe4-489c-941f-6ee72a238e81"},"vehicle_type_id":"4","last_reported":1743167965,"current_range_meters":11600,"station_id":"ce4bhn12rcd13ifvqgqg","pricing_plan_id":"cebpf4jnsgd1na2vs0mg"},{"bike_id":"8ce57e29-9e4e-4c4b-9eac-25dbada77966","system_id":"levelo_inurba_marseille","lat":43.2762,"lon":5.361094,"is_reserved":false,"is_disabled":false,"rental_uris":{"android":"levelo://app?vid=8ce57e29-9e4e-4c4b-9eac-25dbada77966","ios":"levelo://app?vid=8ce57e29-9e4e-4c4b-9eac-25dbada77966"},"vehicle_type_id":"4","last_reported":1743167965,"current_range_meters":12000,"station_id":"ce4bgj92rcd13ifvqbe0","pricing_plan_id":"cebpf4jnsgd1na2vs0mg"},{"bike_id":"97de8a02-5a6f-4c8d-aec1-2ee9d3d80ffc","system_id":"levelo_inurba_marseille","lat":43.30803,"lon":5.38149,"is_reserved":false,"is_disabled":false,"rental_uris":{"android":"levelo://app?vid=97de8a02-5a6f-4c8d-aec1-2ee9d3d80ffc","ios":"levelo://app?vid=97de8a02-5a6f-4c8d-aec1-2ee9d3d80ffc"},"vehicle_type_id":"4","last_reported":1743167965,"current_range_meters":12000,"station_id":"ce4bgt12rcd13ifvqce0","pricing_plan_id":"cebpf4jnsgd1na2vs0mg"},{"bike_id":"aed2caaf-e63e-4d9f-9fab-effd4b56045d","system_id":"levelo_inurba_marseille","lat":43.26234,"lon":5.4044,"is_reserved":false,"is_disabled":false,"rental_uris":{"android":"levelo://app?vid=aed2caaf-e63e-4d9f-9fab-effd4b56045d","ios":"levelo://app?vid=aed2caaf-e63e-4d9f-9fab-effd4b56045d"},"vehicle_type_id":"4","last_reported":1743167965,"current_range_meters":12000,"station_id":"ce4bhmh2rcd13ifvqgmg","pricing_plan_id":"cebpf4jnsgd1na2vs0mg"},{"bike_id":"c4929d7e-5a31-4f08-9105-2d588d30f36b","system_id":"levelo_inurba_marseille","lat":43.2316,"lon":5.4371,"is_reserved":false,"is_disabled":false,"rental_uris":{"android":"levelo://app?vid=c4929d7e-5a31-4f08-9105-2d588d30f36b","ios":"levelo://app?vid=c4929d7e-5a31-4f08-9105-2d588d30f36b"},"vehicle_type_id":"4","last_reported":1743167965,"current_range_meters":12000,"station_id":"ce4bhmp2rcd13ifvqgog","pricing_plan_id":"cebpf4jnsgd1na2vs0mg"},{"bike_id":"0e9d4835-9d94-448b-af11-df6dbb21f959","system_id":"levelo_inurba_marseille","lat":43.30359,"lon":5.41876,"is_reserved":false,"is_disabled":false,"rental_uris":{"android":"levelo://app?vid=0e9d4835-9d94-448b-af11-df6dbb21f959","ios":"levelo://app?vid=0e9d4835-9d94-448b-af11-df6dbb21f959"},"vehicle_type_id":"4","last_reported":1743167965,"current_range_meters":12000,"station_id":"ce4bhop2rcd13ifvqh7g","pricing_plan_id":"cebpf4jnsgd1na2vs0mg"},{"bike_id":"9462a91b-8b4b-430a-ac7a-4612f1bebb31","system_id":"levelo_inurba_marseille","lat":43.29088,"lon":5.38151,"is_reserved":false,"is_disabled":true,"rental_uris":{"android":"levelo://app?vid=9462a91b-8b4b-430a-ac7a-4612f1bebb31","ios":"levelo://app?vid=9462a91b-8b4b-430a-ac7a-4612f1bebb31"},"vehicle_type_id":"4","last_reported":1743167965,"current_range_meters":12000,"station_id":"ce4bh512rcd13ifvqe2g","pricing_plan_id":"cebpf4jnsgd1na2vs0mg"},{"bike_id":"2c1d885e-9a10-436b-a632-58061e2a2562","system_id":"levelo_inurba_marseille","lat":43.24557,"lon":5.37366,"is_reserved":false,"is_disabled":false,"rental_uris":{"android":"levelo://app?vid=2c1d885e-9a10-436b-a632-58061e2a2562","ios":"levelo://app?vid=2c1d885e-9a10-436b-a632-58061e2a2562"},"vehicle_type_id":"4","last_reported":1743167965,"current_range_meters":12000,"station_id":"","pricing_plan_id":"cebpf4jnsgd1na2vs0mg"},{"bike_id":"2c4be945-47f5-4a35-9112-cbec0e0cb109","system_id":"levelo_inurba_marseille","lat":43.26564,"lon":5.37287,"is_reserved":false,"is_disabled":false,"rental_uris":{"android":"levelo://app?vid=2c4be945-47f5-4a35-9112-cbec0e0cb109","ios":"levelo://app?vid=2c4be945-47f5-4a35-9112-cbec0e0cb109"},"vehicle_type_id":"4","last_reported":1743167965,"current_range_meters":12000,"station_id":"ce4bhg12rcd13ifvqf70","pricing_plan_id":"cebpf4jnsgd1na2vs0mg"},{"bike_id":"8f45e6ab-9497-4654-811e-599fbc5dc5df","system_id":"levelo_inurba_marseille","lat":43.304688,"lon":5.378963,"is_reserved":false,"is_disabled":false,"rental_uris":{"android":"levelo://app?vid=8f45e6ab-9497-4654-811e-599fbc5dc5df","ios":"levelo://app?vid=8f45e6ab-9497-4654-811e-599fbc5dc5df"},"vehicle_type_id":"4","last_reported":1743167965,"current_range_meters":12000,"station_id":"ce4bgup2rcd13ifvqcn0","pricing_plan_id":"cebpf4jnsgd1na2vs0mg"},{"bike_id":"d844ab2d-c075-4158-bf4f-052f7881809a","system_id":"levelo_inurba_marseille","lat":43.28276,"lon":5.35079,"is_reserved":false,"is_disabled":false,"rental_uris":{"android":"levelo://app?vid=d844ab2d-c075-4158-bf4f-052f7881809a","ios":"levelo://app?vid=d844ab2d-c075-4158-bf4f-052f7881809a"},"vehicle_type_id":"4","last_reported":1743167965,"current_range_meters":12000,"station_id":"ce4bhbp2rcd13ifvqerg","pricing_plan_id":"cebpf4jnsgd1na2vs0mg"},{"bike_id":"a030309e-2461-4a75-9159-fae0b3885ab8","system_id":"levelo_inurba_marseille","lat":43.24078,"lon":5.3776,"is_reserved":false,"is_disabled":false,"rental_uris":{"android":"levelo://app?vid=a030309e-2461-4a75-9159-fae0b3885ab8","ios":"levelo://app?vid=a030309e-2461-4a75-9159-fae0b3885ab8"},"vehicle_type_id":"4","last_reported":1743167965,"current_range_meters":12400,"station_id":"ce4bhnp2rcd13ifvqgvg","pricing_plan_id":"cebpf4jnsgd1na2vs0mg"},{"bike_id":"ec1c7786-1acd-447d-876f-8ab015a8ac03","system_id":"levelo_inurba_marseille","lat":43.29255,"lon":5.37622,"is_reserved":false,"is_disabled":false,"rental_uris":{"android":"levelo://app?vid=ec1c7786-1acd-447d-876f-8ab015a8ac03","ios":"levelo://app?vid=ec1c7786-1acd-447d-876f-8ab015a8ac03"},"vehicle_type_id":"4","last_reported":1743167965,"current_range_meters":12400,"station_id":"ce4bgi12rcd13ifvqb80","pricing_plan_id":"cebpf4jnsgd1na2vs0mg"},{"bike_id":"1f260a7a-a34a-4e6b-a9ae-4598afe0ee9b","system_id":"levelo_inurba_marseille","lat":43.240735,"lon":5.377626,"is_reserved":false,"is_disabled":false,"rental_uris":{"android":"levelo://app?vid=1f260a7a-a34a-4e6b-a9ae-4598afe0ee9b","ios":"levelo://app?vid=1f260a7a-a34a-4e6b-a9ae-4598afe0ee9b"},"vehicle_type_id":"4","last_reported":1743167965,"current_range_meters":12400,"station_id":"ce4bhnp2rcd13ifvqgvg","pricing_plan_id":"cebpf4jnsgd1na2vs0mg"},{"bike_id":"c6c8fb31-86de-4758-859b-e74b70125ab7","system_id":"levelo_inurba_marseille","lat":43.32093,"lon":5.36794,"is_reserved":false,"is_disabled":false,"rental_uris":{"android":"levelo://app?vid=c6c8fb31-86de-4758-859b-e74b70125ab7","ios":"levelo://app?vid=c6c8fb31-86de-4758-859b-e74b70125ab7"},"vehicle_type_id":"4","last_reported":1743167965,"current_range_meters":12400,"station_id":"ce4bhrh2rcd13ifvqhug","pricing_plan_id":"cebpf4jnsgd1na2vs0mg"},{"bike_id":"ec1c8d68-cd91-4163-83dd-7bc0d68ff386","system_id":"levelo_inurba_marseille","lat":43.2656,"lon":5.37287,"is_reserved":false,"is_disabled":false,"rental_uris":{"android":"levelo://app?vid=ec1c8d68-cd91-4163-83dd-7bc0d68ff386","ios":"levelo://app?vid=ec1c8d68-cd91-4163-83dd-7bc0d68ff386"},"vehicle_type_id":"4","last_reported":1743167965,"current_range_meters":12400,"station_id":"ce4bhg12rcd13ifvqf70","pricing_plan_id":"cebpf4jnsgd1na2vs0mg"},{"bike_id":"67103af4-3176-4ab3-aa07-51f8d11cb96b","system_id":"levelo_inurba_marseille","lat":43.26196,"lon":5.37929,"is_reserved":false,"is_disabled":false,"rental_uris":{"android":"levelo://app?vid=67103af4-3176-4ab3-aa07-51f8d11cb96b","ios":"levelo://app?vid=67103af4-3176-4ab3-aa07-51f8d11cb96b"},"vehicle_type_id":"4","last_reported":1743167965,"current_range_meters":12400,"station_id":"ce4bhjp2rcd13ifvqg90","pricing_plan_id":"cebpf4jnsgd1na2vs0mg"},{"bike_id":"9f2583cf-461d-4d57-8c37-99ef1e89cade","system_id":"levelo_inurba_marseille","lat":43.232,"lon":5.35522,"is_reserved":false,"is_disabled":false,"rental_uris":{"android":"levelo://app?vid=9f2583cf-461d-4d57-8c37-99ef1e89cade","ios":"levelo://app?vid=9f2583cf-461d-4d57-8c37-99ef1e89cade"},"vehicle_type_id":"4","last_reported":1743167965,"current_range_meters":12400,"station_id":"ce4bhu92rcd13ifvqi70","pricing_plan_id":"cebpf4jnsgd1na2vs0mg"},{"bike_id":"e4cda1a5-ed5a-4080-bd26-0b718e550ad4","system_id":"levelo_inurba_marseille","lat":43.28158,"lon":5.4264,"is_reserved":false,"is_disabled":false,"rental_uris":{"android":"levelo://app?vid=e4cda1a5-ed5a-4080-bd26-0b718e550ad4","ios":"levelo://app?vid=e4cda1a5-ed5a-4080-bd26-0b718e550ad4"},"vehicle_type_id":"4","last_reported":1743167965,"current_range_meters":12800,"station_id":"ce4bhnh2rcd13ifvqgug","pricing_plan_id":"cebpf4jnsgd1na2vs0mg"},{"bike_id":"f990b337-34dd-41c6-9e9d-0bb3221574c4","system_id":"levelo_inurba_marseille","lat":43.30882,"lon":5.39637,"is_reserved":false,"is_disabled":false,"rental_uris":{"android":"levelo://app?vid=f990b337-34dd-41c6-9e9d-0bb3221574c4","ios":"levelo://app?vid=f990b337-34dd-41c6-9e9d-0bb3221574c4"},"vehicle_type_id":"4","last_reported":1743167965,"current_range_meters":12800,"station_id":"ce4bh012rcd13ifvqcv0","pricing_plan_id":"cebpf4jnsgd1na2vs0mg"},{"bike_id":"834e559f-f3af-4d3a-8dbf-e0a929a5d9d9","system_id":"levelo_inurba_marseille","lat":43.28618,"lon":5.35106,"is_reserved":false,"is_disabled":false,"rental_uris":{"android":"levelo://app?vid=834e559f-f3af-4d3a-8dbf-e0a929a5d9d9","ios":"levelo://app?vid=834e559f-f3af-4d3a-8dbf-e0a929a5d9d9"},"vehicle_type_id":"4","last_reported":1743167965,"current_range_meters":12800,"station_id":"ce4bhch2rcd13ifvqeug","pricing_plan_id":"cebpf4jnsgd1na2vs0mg"},{"bike_id":"9f4a7ed6-290f-4ac1-b05e-471b2f21c37d","system_id":"levelo_inurba_marseille","lat":43.27381,"lon":5.3623,"is_reserved":false,"is_disabled":false,"rental_uris":{"android":"levelo://app?vid=9f4a7ed6-290f-4ac1-b05e-471b2f21c37d","ios":"levelo://app?vid=9f4a7ed6-290f-4ac1-b05e-471b2f21c37d"},"vehicle_type_id":"4","last_reported":1743167965,"current_range_meters":12800,"station_id":"ce4bhbh2rcd13ifvqeo0","pricing_plan_id":"cebpf4jnsgd1na2vs0mg"},{"bike_id":"6167e168-e214-4894-a6c8-7c7571e97984","system_id":"levelo_inurba_marseille","lat":43.29519,"lon":5.37506,"is_reserved":false,"is_disabled":false,"rental_uris":{"android":"levelo://app?vid=6167e168-e214-4894-a6c8-7c7571e97984","ios":"levelo://app?vid=6167e168-e214-4894-a6c8-7c7571e97984"},"vehicle_type_id":"4","last_reported":1743167965,"current_range_meters":12800,"station_id":"ce4bgkp2rcd13ifvqbmg","pricing_plan_id":"cebpf4jnsgd1na2vs0mg"},{"bike_id":"02b9a32d-6225-4b1a-b561-698fab6b9f9e","system_id":"levelo_inurba_marseille","lat":43.32001,"lon":5.38162,"is_reserved":false,"is_disabled":false,"rental_uris":{"android":"levelo://app?vid=02b9a32d-6225-4b1a-b561-698fab6b9f9e","ios":"levelo://app?vid=02b9a32d-6225-4b1a-b561-698fab6b9f9e"},"vehicle_type_id":"4","last_reported":1743167965,"current_range_meters":12800,"station_id":"ce4bhr12rcd13ifvqhpg","pricing_plan_id":"cebpf4jnsgd1na2vs0mg"},{"bike_id":"b4dced40-f561-4ac7-8a73-bff32d01854d","system_id":"levelo_inurba_marseille","lat":43.294293,"lon":5.476411,"is_reserved":false,"is_disabled":false,"rental_uris":{"android":"levelo://app?vid=b4dced40-f561-4ac7-8a73-bff32d01854d","ios":"levelo://app?vid=b4dced40-f561-4ac7-8a73-bff32d01854d"},"vehicle_type_id":"4","last_reported":1743167965,"current_range_meters":12800,"station_id":"","pricing_plan_id":"cebpf4jnsgd1na2vs0mg"},{"bike_id":"c4ce102f-914a-49bf-b931-ba52afef9427","system_id":"levelo_inurba_marseille","lat":43.303986,"lon":5.389008,"is_reserved":false,"is_disabled":false,"rental_uris":{"android":"levelo://app?vid=c4ce102f-914a-49bf-b931-ba52afef9427","ios":"levelo://app?vid=c4ce102f-914a-49bf-b931-ba52afef9427"},"vehicle_type_id":"4","last_reported":1743167965,"current_range_meters":13600,"station_id":"ce4bh392rcd13ifvqdl0","pricing_plan_id":"cebpf4jnsgd1na2vs0mg"},{"bike_id":"aeeb6735-49cb-4673-a8c8-59a87d1eb4e1","system_id":"levelo_inurba_marseille","lat":43.28445,"lon":5.39214,"is_reserved":false,"is_disabled":false,"rental_uris":{"android":"levelo://app?vid=aeeb6735-49cb-4673-a8c8-59a87d1eb4e1","ios":"levelo://app?vid=aeeb6735-49cb-4673-a8c8-59a87d1eb4e1"},"vehicle_type_id":"4","last_reported":1743167965,"current_range_meters":12800,"station_id":"ce4bhoh2rcd13ifvqh5g","pricing_plan_id":"cebpf4jnsgd1na2vs0mg"},{"bike_id":"df03e74f-18da-4747-9a95-98e973fcb060","system_id":"levelo_inurba_marseille","lat":43.3044,"lon":5.38895,"is_reserved":false,"is_disabled":false,"rental_uris":{"android":"levelo://app?vid=df03e74f-18da-4747-9a95-98e973fcb060","ios":"levelo://app?vid=df03e74f-18da-4747-9a95-98e973fcb060"},"vehicle_type_id":"4","last_reported":1743167965,"current_range_meters":13600,"station_id":"ce4bgk12rcd13ifvqbi0","pricing_plan_id":"cebpf4jnsgd1na2vs0mg"},{"bike_id":"12f53c09-8a5c-4af6-ae34-2e24b2c3ff00","system_id":"levelo_inurba_marseille","lat":43.24392,"lon":5.3707,"is_reserved":false,"is_disabled":false,"rental_uris":{"android":"levelo://app?vid=12f53c09-8a5c-4af6-ae34-2e24b2c3ff00","ios":"levelo://app?vid=12f53c09-8a5c-4af6-ae34-2e24b2c3ff00"},"vehicle_type_id":"4","last_reported":1743167965,"current_range_meters":13600,"station_id":"ce4bhhh2rcd13ifvqfk0","pricing_plan_id":"cebpf4jnsgd1na2vs0mg"},{"bike_id":"5f017418-087e-4187-88ba-c8ebfac781f4","system_id":"levelo_inurba_marseille","lat":43.30263,"lon":5.40073,"is_reserved":false,"is_disabled":false,"rental_uris":{"android":"levelo://app?vid=5f017418-087e-4187-88ba-c8ebfac781f4","ios":"levelo://app?vid=5f017418-087e-4187-88ba-c8ebfac781f4"},"vehicle_type_id":"4","last_reported":1743167965,"current_range_meters":12800,"station_id":"ce4bgvh2rcd13ifvqcs0","pricing_plan_id":"cebpf4jnsgd1na2vs0mg"},{"bike_id":"18f2ec53-6a8e-4a47-8a39-870a25dac6e6","system_id":"levelo_inurba_marseille","lat":43.2828,"lon":5.35079,"is_reserved":false,"is_disabled":false,"rental_uris":{"android":"levelo://app?vid=18f2ec53-6a8e-4a47-8a39-870a25dac6e6","ios":"levelo://app?vid=18f2ec53-6a8e-4a47-8a39-870a25dac6e6"},"vehicle_type_id":"4","last_reported":1743167965,"current_range_meters":13600,"station_id":"ce4bhbp2rcd13ifvqerg","pricing_plan_id":"cebpf4jnsgd1na2vs0mg"},{"bike_id":"aceadaa2-db7b-4a54-8776-2e3d27bd71ec","system_id":"levelo_inurba_marseille","lat":43.2596,"lon":5.40885,"is_reserved":false,"is_disabled":false,"rental_uris":{"android":"levelo://app?vid=aceadaa2-db7b-4a54-8776-2e3d27bd71ec","ios":"levelo://app?vid=aceadaa2-db7b-4a54-8776-2e3d27bd71ec"},"vehicle_type_id":"4","last_reported":1743167965,"current_range_meters":13600,"station_id":"ce4bhm92rcd13ifvqglg","pricing_plan_id":"cebpf4jnsgd1na2vs0mg"},{"bike_id":"9fb749f6-afa2-4c66-b656-a1ece1fe0aed","system_id":"levelo_inurba_marseille","lat":43.29794,"lon":5.38091,"is_reserved":false,"is_disabled":false,"rental_uris":{"android":"levelo://app?vid=9fb749f6-afa2-4c66-b656-a1ece1fe0aed","ios":"levelo://app?vid=9fb749f6-afa2-4c66-b656-a1ece1fe0aed"},"vehicle_type_id":"4","last_reported":1743167965,"current_range_meters":13600,"station_id":"ce4bgip2rcd13ifvqbb0","pricing_plan_id":"cebpf4jnsgd1na2vs0mg"},{"bike_id":"983c4c9f-ee1a-4d13-8ce7-bfd36c479f46","system_id":"levelo_inurba_marseille","lat":43.24166,"lon":5.36416,"is_reserved":false,"is_disabled":false,"rental_uris":{"android":"levelo://app?vid=983c4c9f-ee1a-4d13-8ce7-bfd36c479f46","ios":"levelo://app?vid=983c4c9f-ee1a-4d13-8ce7-bfd36c479f46"},"vehicle_type_id":"4","last_reported":1743167965,"current_range_meters":14000,"station_id":"cpo36qri1sfpv3e86is0","pricing_plan_id":"cebpf4jnsgd1na2vs0mg"},{"bike_id":"212c8e98-dbd0-430f-965c-a5211ae16902","system_id":"levelo_inurba_marseille","lat":43.25095,"lon":5.39518,"is_reserved":false,"is_disabled":false,"rental_uris":{"android":"levelo://app?vid=212c8e98-dbd0-430f-965c-a5211ae16902","ios":"levelo://app?vid=212c8e98-dbd0-430f-965c-a5211ae16902"},"vehicle_type_id":"4","last_reported":1743167965,"current_range_meters":14000,"station_id":"ce4bhm12rcd13ifvqgkg","pricing_plan_id":"cebpf4jnsgd1na2vs0mg"},{"bike_id":"40494913-c374-4301-9a91-8351099c675b","system_id":"levelo_inurba_marseille","lat":43.28563,"lon":5.39484,"is_reserved":false,"is_disabled":false,"rental_uris":{"android":"levelo://app?vid=40494913-c374-4301-9a91-8351099c675b","ios":"levelo://app?vid=40494913-c374-4301-9a91-8351099c675b"},"vehicle_type_id":"4","last_reported":1743167965,"current_range_meters":14000,"station_id":"ce4bh292rcd13ifvqdg0","pricing_plan_id":"cebpf4jnsgd1na2vs0mg"},{"bike_id":"c52bfc53-9dc3-4674-af50-c4a5cf819bc5","system_id":"levelo_inurba_marseille","lat":43.29913,"lon":5.37479,"is_reserved":false,"is_disabled":false,"rental_uris":{"android":"levelo://app?vid=c52bfc53-9dc3-4674-af50-c4a5cf819bc5","ios":"levelo://app?vid=c52bfc53-9dc3-4674-af50-c4a5cf819bc5"},"vehicle_type_id":"4","last_reported":1743167965,"current_range_meters":14000,"station_id":"ce4bgjh2rcd13ifvqbg0","pricing_plan_id":"cebpf4jnsgd1na2vs0mg"},{"bike_id":"941cd94d-481f-4f71-8d83-077ba7f67c54","system_id":"levelo_inurba_marseille","lat":43.29973,"lon":5.38501,"is_reserved":false,"is_disabled":false,"rental_uris":{"android":"levelo://app?vid=941cd94d-481f-4f71-8d83-077ba7f67c54","ios":"levelo://app?vid=941cd94d-481f-4f71-8d83-077ba7f67c54"},"vehicle_type_id":"4","last_reported":1743167965,"current_range_meters":14000,"station_id":"ce4bgj92rcd13ifvqbd0","pricing_plan_id":"cebpf4jnsgd1na2vs0mg"},{"bike_id":"3ef26545-d5f1-4d37-98f1-81c47f66c3fd","system_id":"levelo_inurba_marseille","lat":43.31263,"lon":5.38228,"is_reserved":false,"is_disabled":false,"rental_uris":{"android":"levelo://app?vid=3ef26545-d5f1-4d37-98f1-81c47f66c3fd","ios":"levelo://app?vid=3ef26545-d5f1-4d37-98f1-81c47f66c3fd"},"vehicle_type_id":"4","last_reported":1743167965,"current_range_meters":14000,"station_id":"","pricing_plan_id":"cebpf4jnsgd1na2vs0mg"},{"bike_id":"b5b3ee0f-c118-43f5-9f51-d52faa0756e4","system_id":"levelo_inurba_marseille","lat":43.29686,"lon":5.37286,"is_reserved":false,"is_disabled":false,"rental_uris":{"android":"levelo://app?vid=b5b3ee0f-c118-43f5-9f51-d52faa0756e4","ios":"levelo://app?vid=b5b3ee0f-c118-43f5-9f51-d52faa0756e4"},"vehicle_type_id":"4","last_reported":1743167965,"current_range_meters":13600,"station_id":"ce4bgk12rcd13ifvqbj0","pricing_plan_id":"cebpf4jnsgd1na2vs0mg"},{"bike_id":"9bbff12d-dc33-46fa-ac7b-c0011df1659e","system_id":"levelo_inurba_marseille","lat":43.24393,"lon":5.37057,"is_reserved":false,"is_disabled":false,"rental_uris":{"android":"levelo://app?vid=9bbff12d-dc33-46fa-ac7b-c0011df1659e","ios":"levelo://app?vid=9bbff12d-dc33-46fa-ac7b-c0011df1659e"},"vehicle_type_id":"4","last_reported":1743167965,"current_range_meters":14000,"station_id":"ce4bhhh2rcd13ifvqfk0","pricing_plan_id":"cebpf4jnsgd1na2vs0mg"},{"bike_id":"fa91516f-7c53-4473-b6a3-cdcd472d4756","system_id":"levelo_inurba_marseille","lat":43.2572,"lon":5.41116,"is_reserved":false,"is_disabled":false,"rental_uris":{"android":"levelo://app?vid=fa91516f-7c53-4473-b6a3-cdcd472d4756","ios":"levelo://app?vid=fa91516f-7c53-4473-b6a3-cdcd472d4756"},"vehicle_type_id":"4","last_reported":1743167965,"current_range_meters":14000,"station_id":"ce4bhkp2rcd13ifvqgd0","pricing_plan_id":"cebpf4jnsgd1na2vs0mg"},{"bike_id":"c866a5b7-ec38-42b2-82dc-b315f8a06559","system_id":"levelo_inurba_marseille","lat":43.30197,"lon":5.36624,"is_reserved":false,"is_disabled":false,"rental_uris":{"android":"levelo://app?vid=c866a5b7-ec38-42b2-82dc-b315f8a06559","ios":"levelo://app?vid=c866a5b7-ec38-42b2-82dc-b315f8a06559"},"vehicle_type_id":"4","last_reported":1743167965,"current_range_meters":14400,"station_id":"ce4bgrh2rcd13ifvqc8g","pricing_plan_id":"cebpf4jnsgd1na2vs0mg"},{"bike_id":"c6974d03-6f73-4a17-a4bf-13fd598ed61f","system_id":"levelo_inurba_marseille","lat":43.27904,"lon":5.39564,"is_reserved":false,"is_disabled":false,"rental_uris":{"android":"levelo://app?vid=c6974d03-6f73-4a17-a4bf-13fd598ed61f","ios":"levelo://app?vid=c6974d03-6f73-4a17-a4bf-13fd598ed61f"},"vehicle_type_id":"4","last_reported":1743167965,"current_range_meters":14400,"station_id":"ce4bhf92rcd13ifvqf40","pricing_plan_id":"cebpf4jnsgd1na2vs0mg"},{"bike_id":"d67d8652-0f04-45a0-b34d-bbd8839b9d56","system_id":"levelo_inurba_marseille","lat":43.26328,"lon":5.38799,"is_reserved":false,"is_disabled":false,"rental_uris":{"android":"levelo://app?vid=d67d8652-0f04-45a0-b34d-bbd8839b9d56","ios":"levelo://app?vid=d67d8652-0f04-45a0-b34d-bbd8839b9d56"},"vehicle_type_id":"4","last_reported":1743167965,"current_range_meters":14400,"station_id":"","pricing_plan_id":"cebpf4jnsgd1na2vs0mg"},{"bike_id":"ab5156bd-499e-4940-8af8-200f841ae768","system_id":"levelo_inurba_marseille","lat":43.3038,"lon":5.42489,"is_reserved":false,"is_disabled":false,"rental_uris":{"android":"levelo://app?vid=ab5156bd-499e-4940-8af8-200f841ae768","ios":"levelo://app?vid=ab5156bd-499e-4940-8af8-200f841ae768"},"vehicle_type_id":"4","last_reported":1743167965,"current_range_meters":14400,"station_id":"ce4bhoh2rcd13ifvqh6g","pricing_plan_id":"cebpf4jnsgd1na2vs0mg"},{"bike_id":"c69eb21e-c49e-413a-8ccd-27975e687c94","system_id":"levelo_inurba_marseille","lat":43.26957,"lon":5.38635,"is_reserved":false,"is_disabled":false,"rental_uris":{"android":"levelo://app?vid=c69eb21e-c49e-413a-8ccd-27975e687c94","ios":"levelo://app?vid=c69eb21e-c49e-413a-8ccd-27975e687c94"},"vehicle_type_id":"4","last_reported":1743167965,"current_range_meters":14800,"station_id":"ce4bhh92rcd13ifvqfh0","pricing_plan_id":"cebpf4jnsgd1na2vs0mg"},{"bike_id":"180cff75-b7d1-4514-8f24-384d1a9d8f47","system_id":"levelo_inurba_marseille","lat":43.28497,"lon":5.38561,"is_reserved":false,"is_disabled":false,"rental_uris":{"android":"levelo://app?vid=180cff75-b7d1-4514-8f24-384d1a9d8f47","ios":"levelo://app?vid=180cff75-b7d1-4514-8f24-384d1a9d8f47"},"vehicle_type_id":"4","last_reported":1743167965,"current_range_meters":14400,"station_id":"ce4bh8p2rcd13ifvqeb0","pricing_plan_id":"cebpf4jnsgd1na2vs0mg"},{"bike_id":"63154801-33de-4a0f-9a58-716b88c4df09","system_id":"levelo_inurba_marseille","lat":43.29599,"lon":5.38117,"is_reserved":false,"is_disabled":false,"rental_uris":{"android":"levelo://app?vid=63154801-33de-4a0f-9a58-716b88c4df09","ios":"levelo://app?vid=63154801-33de-4a0f-9a58-716b88c4df09"},"vehicle_type_id":"4","last_reported":1743167965,"current_range_meters":14800,"station_id":"ce4bgl12rcd13ifvqbo0","pricing_plan_id":"cebpf4jnsgd1na2vs0mg"},{"bike_id":"cca8769a-3d03-4d65-a758-1736239a975d","system_id":"levelo_inurba_marseille","lat":43.29803,"lon":5.38091,"is_reserved":false,"is_disabled":false,"rental_uris":{"android":"levelo://app?vid=cca8769a-3d03-4d65-a758-1736239a975d","ios":"levelo://app?vid=cca8769a-3d03-4d65-a758-1736239a975d"},"vehicle_type_id":"4","last_reported":1743167965,"current_range_meters":14800,"station_id":"ce4bgip2rcd13ifvqbb0","pricing_plan_id":"cebpf4jnsgd1na2vs0mg"},{"bike_id":"a08a0e22-104d-4060-9e67-3040b5b61fc6","system_id":"levelo_inurba_marseille","lat":43.29539,"lon":5.38549,"is_reserved":false,"is_disabled":false,"rental_uris":{"android":"levelo://app?vid=a08a0e22-104d-4060-9e67-3040b5b61fc6","ios":"levelo://app?vid=a08a0e22-104d-4060-9e67-3040b5b61fc6"},"vehicle_type_id":"4","last_reported":1743167965,"current_range_meters":15200,"station_id":"ce4bgih2rcd13ifvqba0","pricing_plan_id":"cebpf4jnsgd1na2vs0mg"},{"bike_id":"e309699e-0843-4135-b236-3d55bd6466fb","system_id":"levelo_inurba_marseille","lat":43.23154,"lon":5.43725,"is_reserved":false,"is_disabled":false,"rental_uris":{"android":"levelo://app?vid=e309699e-0843-4135-b236-3d55bd6466fb","ios":"levelo://app?vid=e309699e-0843-4135-b236-3d55bd6466fb"},"vehicle_type_id":"4","last_reported":1743167965,"current_range_meters":15200,"station_id":"ce4bhmp2rcd13ifvqgog","pricing_plan_id":"cebpf4jnsgd1na2vs0mg"},{"bike_id":"c40d1f81-f2ae-4f24-8ed6-489d686dce22","system_id":"levelo_inurba_marseille","lat":43.2992,"lon":5.38155,"is_reserved":false,"is_disabled":false,"rental_uris":{"android":"levelo://app?vid=c40d1f81-f2ae-4f24-8ed6-489d686dce22","ios":"levelo://app?vid=c40d1f81-f2ae-4f24-8ed6-489d686dce22"},"vehicle_type_id":"4","last_reported":1743167965,"current_range_meters":15200,"station_id":"ce4bgj12rcd13ifvqbc0","pricing_plan_id":"cebpf4jnsgd1na2vs0mg"},{"bike_id":"485d3004-1ebb-4321-bf52-e999b36cdbc1","system_id":"levelo_inurba_marseille","lat":43.30147,"lon":5.37414,"is_reserved":false,"is_disabled":false,"rental_uris":{"android":"levelo://app?vid=485d3004-1ebb-4321-bf52-e999b36cdbc1","ios":"levelo://app?vid=485d3004-1ebb-4321-bf52-e999b36cdbc1"},"vehicle_type_id":"4","last_reported":1743167965,"current_range_meters":15200,"station_id":"ce4bgs92rcd13ifvqcc0","pricing_plan_id":"cebpf4jnsgd1na2vs0mg"},{"bike_id":"32ce4fae-4873-49dc-8820-dde5305b3a27","system_id":"levelo_inurba_marseille","lat":43.26955,"lon":5.38648,"is_reserved":false,"is_disabled":false,"rental_uris":{"android":"levelo://app?vid=32ce4fae-4873-49dc-8820-dde5305b3a27","ios":"levelo://app?vid=32ce4fae-4873-49dc-8820-dde5305b3a27"},"vehicle_type_id":"4","last_reported":1743167965,"current_range_meters":16000,"station_id":"ce4bhh92rcd13ifvqfh0","pricing_plan_id":"cebpf4jnsgd1na2vs0mg"},{"bike_id":"36afd4fb-5c3d-4b59-be68-f05d3d00a6ac","system_id":"levelo_inurba_marseille","lat":43.29962,"lon":5.36502,"is_reserved":false,"is_disabled":false,"rental_uris":{"android":"levelo://app?vid=36afd4fb-5c3d-4b59-be68-f05d3d00a6ac","ios":"levelo://app?vid=36afd4fb-5c3d-4b59-be68-f05d3d00a6ac"},"vehicle_type_id":"4","last_reported":1743167965,"current_range_meters":16000,"station_id":"ce4bgm92rcd13ifvqbr0","pricing_plan_id":"cebpf4jnsgd1na2vs0mg"},