{"last_updated":1753245111,"ttl":60,"version":"2.2","data":{"bikes":[{"bike_id":"2570fccc-bc83-4857-aceb-da270b9d0cad","system_id":"levelo_inurba_marseille","lat":43.29502,"lon":5.38174,"is_reserved":false,"is_disabled":false,"rental_uris":{"android":"levelo://app?vid=2570fccc-bc83-4857-aceb-da270b9d0cad","ios":"levelo://app?vid=2570fccc-bc83-4857-aceb-da270b9d0cad"},"vehicle_type_id":"4","last_reported":1753245111,"current_range_meters":3200,"station_id":"","pricing_plan_id":"cebpf4jnsgd1na2vs0mg"},{"bike_id":"85a5c837-2ce7-40d8-af0b-883362dd3119","system_id":"levelo_inurba_marseille","lat":43.27803,"lon":5.35505,"is_reserved":false,"is_disabled":false,"rental_uris":{"android":"levelo://app?vid=85a5c837-2ce7-40d8-af0b-883362dd3119","ios":"levelo://app?vid=85a5c837-2ce7-40d8-af0b-883362dd3119"},"vehicle_type_id":"4","last_reported":1753245111,"current_range_meters":3600,"station_id":"","pricing_plan_id":"cebpf4jnsgd1na2vs0mg"},{"bike_id":"c71d8606-8a6b-43a8-b2e1-79aee9a9dcf0","system_id":"levelo_inurba_marseille","lat":43.2783,"lon":5.39212,"is_reserved":false,"is_disabled":false,"rental_uris":{"android":"levelo://app?vid=c71d8606-8a6b-43a8-b2e1-79aee9a9dcf0","ios":"levelo://app?vid=c71d8606-8a6b-43a8-b2e1-79aee9a9dcf0"},"vehicle_type_id":"4","last_reported":1753245111,"current_range_meters":4000,"station_id":"ce4bhjp2rcd13ifvqga0","pricing_plan_id":"cebpf4jnsgd1na2vs0mg"},{"bike_id":"374764e9-1483-4c39-a939-2017d46b717a","system_id":"levelo_inurba_marseille","lat":43.280406,"lon":5.35015,"is_reserved":false,"is_disabled":false,"rental_uris":{"android":"levelo://app?vid=374764e9-1483-4c39-a939-2017d46b717a","ios":"levelo://app?vid=374764e9-1483-4c39-a939-2017d46b717a"},"vehicle_type_id":"4","last_reported":1753245111,"current_range_meters":4400,"station_id":"","pricing_plan_id":"cebpf4jnsgd1na2vs0mg"},{"bike_id":"75fa687a-9456-406c-a33b-a8a29f14c1d9","system_id":"levelo_inurba_marseille","lat":43.30362,"lon":5.39363,"is_reserved":false,"is_disabled":false,"rental_uris":{"android":"levelo://app?vid=75fa687a-9456-406c-a33b-a8a29f14c1d9","ios":"levelo://app?vid=75fa687a-9456-406c-a33b-a8a29f14c1d9"},"vehicle_type_id":"4","last_reported":1753245111,"current_range_meters":4800,"station_id":"","pricing_plan_id":"cebpf4jnsgd1na2vs0mg"},{"bike_id":"05e1c612-9189-461a-aee5-6370975ab8d5","system_id":"levelo_inurba_marseille","lat":43.27888,"lon":5.38021,"is_reserved":false,"is_disabled":false,"rental_uris":{"android":"levelo://app?vid=05e1c612-9189-461a-aee5-6370975ab8d5","ios":"levelo://app?vid=05e1c612-9189-461a-aee5-6370975ab8d5"},"vehicle_type_id":"4","last_reported":1753245111,"current_range_meters":4400,"station_id":"ce4bhf92rcd13ifvqf50","pricing_plan_id":"cebpf4jnsgd1na2vs0mg"},{"bike_id":"412adef2-b487-498f-bc62-85e8762d3e00","system_id":"levelo_inurba_marseille","lat":43.28265,"lon":5.35073,"is_reserved":false,"is_disabled":false,"rental_uris":{"android":"levelo://app?vid=412adef2-b487-498f-bc62-85e8762d3e00","ios":"levelo://app?vid=412adef2-b487-498f-bc62-85e8762d3e00"},"vehicle_type_id":"4","last_reported":1753245111,"current_range_meters":6000,"station_id":"ce4bhbp2rcd13ifvqerg","pricing_plan_id":"cebpf4jnsgd1na2vs0mg"},{"bike_id":"0f69e67c-2f40-4806-9a1c-0b483e2d5ccd","system_id":"levelo_inurba_marseille","lat":43.23209,"lon":5.35552,"is_reserved":false,"is_disabled":false,"rental_uris":{"android":"levelo://app?vid=0f69e67c-2f40-4806-9a1c-0b483e2d5ccd","ios":"levelo://app?vid=0f69e67c-2f40-4806-9a1c-0b483e2d5ccd"},"vehicle_type_id":"4","last_reported":1753245111,"current_range_meters":5600,"station_id":"ce4bhu92rcd13ifvqi70","pricing_plan_id":"cebpf4jnsgd1na2vs0mg"},{"bike_id":"1f0047a2-cdaf-4268-b1b5-bb4e869d3385","system_id":"levelo_inurba_marseille","lat":43.303252,"lon":5.404444,"is_reserved":false,"is_disabled":false,"rental_uris":{"android":"levelo://app?vid=1f0047a2-cdaf-4268-b1b5-bb4e869d3385","ios":"levelo://app?vid=1f0047a2-cdaf-4268-b1b5-bb4e869d3385"},"vehicle_type_id":"4","last_reported":1753245111,"current_range_meters":5600,"station_id":"ce4bh012rcd13ifvqd10","pricing_plan_id":"cebpf4jnsgd1na2vs0mg"},{"bike_id":"42413a25-16d1-4419-b44a-45580e0c6ac6","system_id":"levelo_inurba_marseille","lat":43.3377,"lon":5.37457,"is_reserved":false,"is_disabled":false,"rental_uris":{"android":"levelo://app?vid=42413a25-16d1-4419-b44a-45580e0c6ac6","ios":"levelo://app?vid=42413a25-16d1-4419-b44a-45580e0c6ac6"},"vehicle_type_id":"4","last_reported":1753245111,"current_range_meters":6000,"station_id":"","pricing_plan_id":"cebpf4jnsgd1na2vs0mg"},{"bike_id":"288e40f1-8fbf-4748-a95b-1be5b48bdbe8","system_id":"levelo_inurba_marseille","lat":43.28945,"lon":5.36617,"is_reserved":false,"is_disabled":true,"rental_uris":{"android":"levelo://app?vid=288e40f1-8fbf-4748-a95b-1be5b48bdbe8","ios":"levelo://app?vid=288e40f1-8fbf-4748-a95b-1be5b48bdbe8"},"vehicle_type_id":"4","last_reported":1753245111,"current_range_meters":6000,"station_id":"ce4bhap2rcd13ifvqek0","pricing_plan_id":"cebpf4jnsgd1na2vs0mg"},{"bike_id":"6c623279-7b23-4c17-809d-92c5d8c2f9de","system_id":"levelo_inurba_marseille","lat":43.30415,"lon":5.41279,"is_reserved":false,"is_disabled":false,"rental_uris":{"android":"levelo://app?vid=6c623279-7b23-4c17-809d-92c5d8c2f9de","ios":"levelo://app?vid=6c623279-7b23-4c17-809d-92c5d8c2f9de"},"vehicle_type_id":"4","last_reported":1753245111,"current_range_meters":6400,"station_id":"ce4bhop2rcd13ifvqh8g","pricing_plan_id":"cebpf4jnsgd1na2vs0mg"},{"bike_id":"3808bbbc-bf71-4de1-97ee-2481d526b56a","system_id":"levelo_inurba_marseille","lat":43.27063,"lon":5.4227,"is_reserved":false,"is_disabled":true,"rental_uris":{"android":"levelo://app?vid=3808bbbc-bf71-4de1-97ee-2481d526b56a","ios":"levelo://app?vid=3808bbbc-bf71-4de1-97ee-2481d526b56a"},"vehicle_type_id":"4","last_reported":1753245111,"current_range_meters":6400,"station_id":"ce4bhk92rcd13ifvqgb0","pricing_plan_id":"cebpf4jnsgd1na2vs0mg"},{"bike_id":"291026d9-5e70-4457-9891-0439b760e53a","system_id":"levelo_inurba_marseille","lat":43.26215,"lon":5.37438,"is_reserved":false,"is_disabled":false,"rental_uris":{"android":"levelo://app?vid=291026d9-5e70-4457-9891-0439b760e53a","ios":"levelo://app?vid=291026d9-5e70-4457-9891-0439b760e53a"},"vehicle_type_id":"4","last_reported":1753245111,"current_range_meters":6400,"station_id":"ce4bhgp2rcd13ifvqfc0","pricing_plan_id":"cebpf4jnsgd1na2vs0mg"},{"bike_id":"f81d648c-1981-4daf-be99-4792234208b2","system_id":"levelo_inurba_marseille","lat":43.262677,"lon":5.371669,"is_reserved":false,"is_disabled":false,"rental_uris":{"android":"levelo://app?vid=f81d648c-1981-4daf-be99-4792234208b2","ios":"levelo://app?vid=f81d648c-1981-4daf-be99-4792234208b2"},"vehicle_type_id":"4","last_reported":1753245111,"current_range_meters":6800,"station_id":"","pricing_plan_id":"cebpf4jnsgd1na2vs0mg"},{"bike_id":"3eb8cd9f-24db-4c56-915a-668134d5d369","system_id":"levelo_inurba_marseille","lat":43.284168,"lon":5.3498,"is_reserved":false,"is_disabled":false,"rental_uris":{"android":"levelo://app?vid=3eb8cd9f-24db-4c56-915a-668134d5d369","ios":"levelo://app?vid=3eb8cd9f-24db-4c56-915a-668134d5d369"},"vehicle_type_id":"4","last_reported":1753245111,"current_range_meters":6800,"station_id":"ce4bh292rcd13ifvqdg0","pricing_plan_id":"cebpf4jnsgd1na2vs0mg"},{"bike_id":"bc8e8184-a6af-4eda-9557-7e503f0c793c","system_id":"levelo_inurba_marseille","lat":43.241634,"lon":5.396842,"is_reserved":false,"is_disabled":true,"rental_uris":{"android":"levelo://app?vid=bc8e8184-a6af-4eda-9557-7e503f0c793c","ios":"levelo://app?vid=bc8e8184-a6af-4eda-9557-7e503f0c793c"},"vehicle_type_id":"4","last_reported":1753245111,"current_range_meters":7200,"station_id":"ce4bhn12rcd13ifvqgpg","pricing_plan_id":"cebpf4jnsgd1na2vs0mg"},{"bike_id":"011d5b57-4ca7-45e1-9504-69d343459acc","system_id":"levelo_inurba_marseille","lat":43.283541,"lon":5.380985,"is_reserved":false,"is_disabled":false,"rental_uris":{"android":"levelo://app?vid=011d5b57-4ca7-45e1-9504-69d343459acc","ios":"levelo://app?vid=011d5b57-4ca7-45e1-9504-69d343459acc"},"vehicle_type_id":"4","last_reported":1753245111,"current_range_meters":7200,"station_id":"ce4bh412rcd13ifvqdr0","pricing_plan_id":"cebpf4jnsgd1na2vs0mg"},{"bike_id":"64507030-c9df-4d6f-9cfb-3f98a21eb09f","system_id":"levelo_inurba_marseille","lat":43.280337,"lon":5.369374,"is_reserved":false,"is_disabled":false,"rental_uris":{"android":"levelo://app?vid=64507030-c9df-4d6f-9cfb-3f98a21eb09f","ios":"levelo://app?vid=64507030-c9df-4d6f-9cfb-3f98a21eb09f"},"vehicle_type_id":"4","last_reported":1753245111,"current_range_meters":8000,"station_id":"ce4bha12rcd13ifvqef0","pricing_plan_id":"cebpf4jnsgd1na2vs0mg"},{"bike_id":"e4761578-ae86-4dfa-b146-0428e5d8cca7","system_id":"levelo_inurba_marseille","lat":43.241725,"lon":5.364091,"is_reserved":false,"is_disabled":true,"rental_uris":{"android":"levelo://app?vid=e4761578-ae86-4dfa-b146-0428e5d8cca7","ios":"levelo://app?vid=e4761578-ae86-4dfa-b146-0428e5d8cca7"},"vehicle_type_id":"4","last_reported":1753245111,"current_range_meters":8000,"station_id":"cpo36qri1sfpv3e86is0","pricing_plan_id":"cebpf4jnsgd1na2vs0mg"},{"bike_id":"77fa1dcc-d179-48ea-8adf-42f462112335","system_id":"levelo_inurba_marseille","lat":43.287013,"lon":5.399885,"is_reserved":false,"is_disabled":false,"rental_uris":{"android":"levelo://app?vid=77fa1dcc-d179-48ea-8adf-42f462112335","ios":"levelo://app?vid=77fa1dcc-d179-48ea-8adf-42f462112335"},"vehicle_type_id":"4","last_reported":1753245111,"current_range_meters":8000,"station_id":"ce4bho92rcd13ifvqh3g","pricing_plan_id":"cebpf4jnsgd1na2vs0mg"},{"bike_id":"820b928c-3610-4f8b-970c-94806d91d1e3","system_id":"levelo_inurba_marseille","lat":43.28724,"lon":5.40001,"is_reserved":false,"is_disabled":false,"rental_uris":{"android":"levelo://app?vid=820b928c-3610-4f8b-970c-94806d91d1e3","ios":"levelo://app?vid=820b928c-3610-4f8b-970c-94806d91d1e3"},"vehicle_type_id":"4","last_reported":1753245111,"current_range_meters":8400,"station_id":"ce4bho92rcd13ifvqh3g","pricing_plan_id":"cebpf4jnsgd1na2vs0mg"},{"bike_id":"b6bede71-3dc5-4ed8-b97d-87e394a51c04","system_id":"levelo_inurba_marseille","lat":43.2872,"lon":5.37382,"is_reserved":false,"is_disabled":false,"rental_uris":{"android":"levelo://app?vid=b6bede71-3dc5-4ed8-b97d-87e394a51c04","ios":"levelo://app?vid=b6bede71-3dc5-4ed8-b97d-87e394a51c04"},"vehicle_type_id":"4","last_reported":1753245111,"current_range_meters":8400,"station_id":"ce4bh3p2rcd13ifvqdq0","pricing_plan_id":"cebpf4jnsgd1na2vs0mg"},{"bike_id":"f3ad7f3f-05ef-4976-a8bd-7743271afd02","system_id":"levelo_inurba_marseille","lat":43.231517,"lon":5.437192,"is_reserved":false,"is_disabled":false,"rental_uris":{"android":"levelo://app?vid=f3ad7f3f-05ef-4976-a8bd-7743271afd02","ios":"levelo://app?vid=f3ad7f3f-05ef-4976-a8bd-7743271afd02"},"vehicle_type_id":"4","last_reported":1753245111,"current_range_meters":8800,"station_id":"ce4bhmp2rcd13ifvqgog","pricing_plan_id":"cebpf4jnsgd1na2vs0mg"},{"bike_id":"9ae7d50c-a3ea-4136-8080-315c191e000a","system_id":"levelo_inurba_marseille","lat":43.287694,"lon":5.384141,"is_reserved":false,"is_disabled":false,"rental_uris":{"android":"levelo://app?vid=9ae7d50c-a3ea-4136-8080-315c191e000a","ios":"levelo://app?vid=9ae7d50c-a3ea-4136-8080-315c191e000a"},"vehicle_type_id":"4","last_reported":1753245111,"current_range_meters":9200,"station_id":"","pricing_plan_id":"cebpf4jnsgd1na2vs0mg"},{"bike_id":"0d5df9cf-a26f-4b88-8a72-d5c285f6d8b5","system_id":"levelo_inurba_marseille","lat":43.28338,"lon":5.3811,"is_reserved":false,"is_disabled":false,"rental_uris":{"android":"levelo://app?vid=0d5df9cf-a26f-4b88-8a72-d5c285f6d8b5","ios":"levelo://app?vid=0d5df9cf-a26f-4b88-8a72-d5c285f6d8b5"},"vehicle_type_id":"4","last_reported":1753245111,"current_range_meters":9600,"station_id":"ce4bh412rcd13ifvqdr0","pricing_plan_id":"cebpf4jnsgd1na2vs0mg"},{"bike_id":"c1f952fc-ae30-48c4-9bb4-e756b0f11837","system_id":"levelo_inurba_marseille","lat":43.32333,"lon":5.40633,"is_reserved":false,"is_disabled":true,"rental_uris":{"android":"levelo://app?vid=c1f952fc-ae30-48c4-9bb4-e756b0f11837","ios":"levelo://app?vid=c1f952fc-ae30-48c4-9bb4-e756b0f11837"},"vehicle_type_id":"4","last_reported":1753245111,"current_range_meters":9200,"station_id":"ce4bhq92rcd13ifvqhjg","pricing_plan_id":"cebpf4jnsgd1na2vs0mg"},{"bike_id":"ed9760e2-4b26-4cf4-b350-86a1fb940703","system_id":"levelo_inurba_marseille","lat":43.28475,"lon":5.3587,"is_reserved":false,"is_disabled":false,"rental_uris":{"android":"levelo://app?vid=ed9760e2-4b26-4cf4-b350-86a1fb940703","ios":"levelo://app?vid=ed9760e2-4b26-4cf4-b350-86a1fb940703"},"vehicle_type_id":"4","last_reported":1753245111,"current_range_meters":9600,"station_id":"ce4bhah2rcd13ifvqei0","pricing_plan_id":"cebpf4jnsgd1na2vs0mg"},{"bike_id":"e7e81165-f1fb-4c3b-b5d4-d79fe6c3e4e1","system_id":"levelo_inurba_marseille","lat":43.23185,"lon":5.39946,"is_reserved":false,"is_disabled":false,"rental_uris":{"android":"levelo://app?vid=e7e81165-f1fb-4c3b-b5d4-d79fe6c3e4e1","ios":"levelo://app?vid=e7e81165-f1fb-4c3b-b5d4-d79fe6c3e4e1"},"vehicle_type_id":"4","last_reported":1753245111,"current_range_meters":9200,"station_id":"ce4bhn12rcd13ifvqgqg","pricing_plan_id":"cebpf4jnsgd1na2vs0mg"},{"bike_id":"8c1d0819-f991-43c1-a0ae-15c2c54fdbcd","system_id":"levelo_inurba_marseille","lat":43.273765,"lon":5.362507,"is_reserved":false,"is_disabled":true,"rental_uris":{"android":"levelo://app?vid=8c1d0819-f991-43c1-a0ae-15c2c54fdbcd","ios":"levelo://app?vid=8c1d0819-f991-43c1-a0ae-15c2c54fdbcd"},"vehicle_type_id":"4","last_reported":1753245111,"current_range_meters":9600,"station_id":"ce4bhbh2rcd13ifvqeo0","pricing_plan_id":"cebpf4jnsgd1na2vs0mg"},{"bike_id":"510e1d6f-5725-4768-b8fc-942d80656133","system_id":"levelo_inurba_marseille","lat":43.26584,"lon":5.37306,"is_reserved":false,"is_disabled":false,"rental_uris":{"android":"levelo://app?vid=510e1d6f-5725-4768-b8fc-942d80656133","ios":"levelo://app?vid=510e1d6f-5725-4768-b8fc-942d80656133"},"vehicle_type_id":"4","last_reported":1753245111,"current_range_meters":9600,"station_id":"ce4bhg12rcd13ifvqf70","pricing_plan_id":"cebpf4jnsgd1na2vs0mg"},{"bike_id":"9ac0ef60-dec6-4ba0-8588-4fc5a9a5569f","system_id":"levelo_inurba_marseille","lat":43.26919,"lon":5.40261,"is_reserved":false,"is_disabled":false,"rental_uris":{"android":"levelo://app?vid=9ac0ef60-dec6-4ba0-8588-4fc5a9a5569f","ios":"levelo://app?vid=9ac0ef60-dec6-4ba0-8588-4fc5a9a5569f"},"vehicle_type_id":"4","last_reported":1753245111,"current_range_meters":9600,"station_id":"cjm6bp8fraef2m0cb0m0","pricing_plan_id":"cebpf4jnsgd1na2vs0mg"},{"bike_id":"76b7c7ce-c78e-4875-b80c-f28c3ab806f6","system_id":"levelo_inurba_marseille","lat":43.290189,"lon":5.381349,"is_reserved":false,"is_disabled":false,"rental_uris":{"android":"levelo://app?vid=76b7c7ce-c78e-4875-b80c-f28c3ab806f6","ios":"levelo://app?vid=76b7c7ce-c78e-4875-b80c-f28c3ab806f6"},"vehicle_type_id":"4","last_reported":1753245111,"current_range_meters":9600,"station_id":"ce4bh4p2rcd13ifvqe1g","pricing_plan_id":"cebpf4jnsgd1na2vs0mg"},{"bike_id":"b9a2dd08-3450-4b4a-bfc0-549be426188c","system_id":"levelo_inurba_marseille","lat":43.28605,"lon":5.426919,"is_reserved":false,"is_disabled":false,"rental_uris":{"android":"levelo://app?vid=b9a2dd08-3450-4b4a-bfc0-549be426188c","ios":"levelo://app?vid=b9a2dd08-3450-4b4a-bfc0-549be426188c"},"vehicle_type_id":"4","last_reported":1753245111,"current_range_meters":9600,"station_id":"","pricing_plan_id":"cebpf4jnsgd1na2vs0mg"},{"bike_id":"8683ce90-f074-4b78-8033-8d3c6f735b73","system_id":"levelo_inurba_marseille","lat":43.32365,"lon":5.36727,"is_reserved":false,"is_disabled":true,"rental_uris":{"android":"levelo://app?vid=8683ce90-f074-4b78-8033-8d3c6f735b73","ios":"levelo://app?vid=8683ce90-f074-4b78-8033-8d3c6f735b73"},"vehicle_type_id":"4","last_reported":1753245111,"current_range_meters":10000,"station_id":"ce4bhsh2rcd13ifvqi2g","pricing_plan_id":"cebpf4jnsgd1na2vs0mg"},{"bike_id":"f7d24d79-fb73-44fe-a579-eccbe39a5e1e","system_id":"levelo_inurba_marseille","lat":43.241714,"lon":5.364019,"is_reserved":false,"is_disabled":false,"rental_uris":{"android":"levelo://app?vid=f7d24d79-fb73-44fe-a579-eccbe39a5e1e","ios":"levelo://app?vid=f7d24d79-fb73-44fe-a579-eccbe39a5e1e"},"vehicle_type_id":"4","last_reported":1753245111,"current_range_meters":10800,"station_id":"cpo36qri1sfpv3e86is0","pricing_plan_id":"cebpf4jnsgd1na2vs0mg"},{"bike_id":"82c8233f-aee5-442c-9e9a-7411a4a6a37b","system_id":"levelo_inurba_marseille","lat":43.30413,"lon":5.39776,"is_reserved":false,"is_disabled":false,"rental_uris":{"android":"levelo://app?vid=82c8233f-aee5-442c-9e9a-7411a4a6a37b","ios":"levelo://app?vid=82c8233f-aee5-442c-9e9a-7411a4a6a37b"},"vehicle_type_id":"4","last_reported":1753245111,"current_range_meters":10000,"station_id":"ce4bh092rcd13ifvqd20","pricing_plan_id":"cebpf4jnsgd1na2vs0mg"},{"bike_id":"556ebe47-8298-4d93-93a6-d2e6e5588882","system_id":"levelo_inurba_marseille","lat":43.30464,"lon":5.39696,"is_reserved":false,"is_disabled":false,"rental_uris":{"android":"levelo://app?vid=556ebe47-8298-4d93-93a6-d2e6e5588882","ios":"levelo://app?vid=556ebe47-8298-4d93-93a6-d2e6e5588882"},"vehicle_type_id":"4","last_reported":1753245111,"current_range_meters":10000,"station_id":"","pricing_plan_id":"cebpf4jnsgd1na2vs0mg"},{"bike_id":"52289c8f-2dc9-4c80-8d92-272e145c2039","system_id":"levelo_inurba_marseille","lat":43.21809,"lon":5.34662,"is_reserved":false,"is_disabled":false,"rental_uris":{"android":"levelo://app?vid=52289c8f-2dc9-4c80-8d92-272e145c2039","ios":"levelo://app?vid=52289c8f-2dc9-4c80-8d92-272e145c2039"},"vehicle_type_id":"4","last_reported":1753245111,"current_range_meters":10000,"station_id":"","pricing_plan_id":"cebpf4jnsgd1na2vs0mg"},{"bike_id":"331d957c-8364-49e8-ac7c-ace81aa0cfd4","system_id":"levelo_inurba_marseille","lat":43.323781,"lon":5.388835,"is_reserved":false,"is_disabled":false,"rental_uris":{"android":"levelo://app?vid=331d957c-8364-49e8-ac7c-ace81aa0cfd4","ios":"levelo://app?vid=331d957c-8364-49e8-ac7c-ace81aa0cfd4"},"vehicle_type_id":"4","last_reported":1753245111,"current_range_meters":10800,"station_id":"ce4bhqp2rcd13ifvqhog","pricing_plan_id":"cebpf4jnsgd1na2vs0mg"},{"bike_id":"c05f8a9b-b11a-421b-bf54-758864ba593c","system_id":"levelo_inurba_marseille","lat":43.259243,"lon":5.408939,"is_reserved":false,"is_disabled":true,"rental_uris":{"android":"levelo://app?vid=c05f8a9b-b11a-421b-bf54-758864ba593c","ios":"levelo://app?vid=c05f8a9b-b11a-421b-bf54-758864ba593c"},"vehicle_type_id":"4","last_reported":1753245111,"current_range_meters":10000,"station_id":"ce4bhm92rcd13ifvqglg","pricing_plan_id":"cebpf4jnsgd1na2vs0mg"},{"bike_id":"54df99c9-38e6-4e8c-b2a2-998003dfb3d0","system_id":"levelo_inurba_marseille","lat":43.281673,"lon":5.426372,"is_reserved":false,"is_disabled":false,"rental_uris":{"android":"levelo://app?vid=54df99c9-38e6-4e8c-b2a2-998003dfb3d0","ios":"levelo://app?vid=54df99c9-38e6-4e8c-b2a2-998003dfb3d0"},"vehicle_type_id":"4","last_reported":1753245111,"current_range_meters":10800,"station_id":"ce4bhnh2rcd13ifvqgug","pricing_plan_id":"cebpf4jnsgd1na2vs0mg"},{"bike_id":"7dbbb529-7a14-4c15-91b2-36294d397550","system_id":"levelo_inurba_marseille","lat":43.23197,"lon":5.35555,"is_reserved":false,"is_disabled":false,"rental_uris":{"android":"levelo://app?vid=7dbbb529-7a14-4c15-91b2-36294d397550","ios":"levelo://app?vid=7dbbb529-7a14-4c15-91b2-36294d397550"},"vehicle_type_id":"4","last_reported":1753245111,"current_range_meters":10000,"station_id":"ce4bhu92rcd13ifvqi70","pricing_plan_id":"cebpf4jnsgd1na2vs0mg"},{"bike_id":"a5f1f0d6-c678-45f4-9b29-96eaa29a3e36","system_id":"levelo_inurba_marseille","lat":43.25143,"lon":5.37346,"is_reserved":false,"is_disabled":false,"rental_uris":{"android":"levelo://app?vid=a5f1f0d6-c678-45f4-9b29-96eaa29a3e36","ios":"levelo://app?vid=a5f1f0d6-c678-45f4-9b29-96eaa29a3e36"},"vehicle_type_id":"4","last_reported":1753245111,"current_range_meters":10000,"station_id":"","pricing_plan_id":"cebpf4jnsgd1na2vs0mg"},{"bike_id":"89e5300e-f524-48d1-8669-762241baab60","system_id":"levelo_inurba_marseille","lat":43.229305,"lon":5.353759,"is_reserved":false,"is_disabled":false,"rental_uris":{"android":"levelo://app?vid=89e5300e-f524-48d1-8669-762241baab60","ios":"levelo://app?vid=89e5300e-f524-48d1-8669-762241baab60"},"vehicle_type_id":"4","last_reported":1753245111,"current_range_meters":11200,"station_id":"cpo3532slgdg3j2ikp40","pricing_plan_id":"cebpf4jnsgd1na2vs0mg"},{"bike_id":"b1700b43-437b-46f9-ad6c-b53dec15791d","system_id":"levelo_inurba_marseille","lat":43.265747,"lon":5.390073,"is_reserved":false,"is_disabled":true,"rental_uris":{"android":"levelo://app?vid=b1700b43-437b-46f9-ad6c-b53dec15791d","ios":"levelo://app?vid=b1700b43-437b-46f9-ad6c-b53dec15791d"},"vehicle_type_id":"4","last_reported":1753245111,"current_range_meters":11200,"station_id":"ce4bhe12rcd13ifvqf30","pricing_plan_id":"cebpf4jnsgd1na2vs0mg"},{"bike_id":"47b8aae7-f1c0-4dfa-bc2e-f1264bdba72b","system_id":"levelo_inurba_marseille","lat":43.31293,"lon":5.39013,"is_reserved":false,"is_disabled":false,"rental_uris":{"android":"levelo://app?vid=47b8aae7-f1c0-4dfa-bc2e-f1264bdba72b","ios":"levelo://app?vid=47b8aae7-f1c0-4dfa-bc2e-f1264bdba72b"},"vehicle_type_id":"4","last_reported":1753245111,"current_range_meters":10800,"station_id":"","pricing_plan_id":"cebpf4jnsgd1na2vs0mg"},{"bike_id":"8743b88d-19da-4785-9403-93d1072e2960","system_id":"levelo_inurba_marseille","lat":43.279219,"lon":5.395799,"is_reserved":false,"is_disabled":false,"rental_uris":{"android":"levelo://app?vid=8743b88d-19da-4785-9403-93d1072e2960","ios":"levelo://app?vid=8743b88d-19da-4785-9403-93d1072e2960"},"vehicle_type_id":"4","last_reported":1753245111,"current_range_meters":10800,"station_id":"ce4bhf92rcd13ifvqf40","pricing_plan_id":"cebpf4jnsgd1na2vs0mg"},{"bike_id":"548651c1-96df-4ea7-8a2c-5d042a08eb68","system_id":"levelo_inurba_marseille","lat":43.336081,"lon":5.410109,"is_reserved":false,"is_disabled":false,"rental_uris":{"android":"levelo://app?vid=548651c1-96df-4ea7-8a2c-5d042a08eb68","ios":"levelo://app?vid=548651c1-96df-4ea7-8a2c-5d042a08eb68"},"vehicle_type_id":"4","last_reported":1753245111,"current_range_meters":10800,"station_id":"ce4bhqh2rcd13ifvqhmg","pricing_plan_id":"cebpf4jnsgd1na2vs0mg"},{"bike_id":"3cef1158-540c-4055-a46b-73e02d1c17f7","system_id":"levelo_inurba_marseille","lat":43.31356,"lon":5.37508,"is_reserved":false,"is_disabled":false,"rental_uris":{"android":"levelo://app?vid=3cef1158-540c-4055-a46b-73e02d1c17f7","ios":"levelo://app?vid=3cef1158-540c-4055-a46b-73e02d1c17f7"},"vehicle_type_id":"4","last_reported":1753245111,"current_range_meters":11200,"station_id":"","pricing_plan_id":"cebpf4jnsgd1na2vs0mg"},{"bike_id":"c6f94700-b62b-4a08-a88f-3e41a975f0d0","system_id":"levelo_inurba_marseille","lat":43.284799,"lon":5.385245,"is_reserved":false,"is_disabled":true,"rental_uris":{"android":"levelo://app?vid=c6f94700-b62b-4a08-a88f-3e41a975f0d0","ios":"levelo://app?vid=c6f94700-b62b-4a08-a88f-3e41a975f0d0"},"vehicle_type_id":"4","last_reported":1753245111,"current_range_meters":11200,"station_id":"ce4bh8p2rcd13ifvqeb0","pricing_plan_id":"cebpf4jnsgd1na2vs0mg"},{"bike_id":"81880f68-09b8-4f44-86fe-3b3355bb744d","system_id":"levelo_inurba_marseille","lat":43.28276,"lon":5.35086,"is_reserved":false,"is_disabled":false,"rental_uris":{"android":"levelo://app?vid=81880f68-09b8-4f44-86fe-3b3355bb744d","ios":"levelo://app?vid=81880f68-09b8-4f44-86fe-3b3355bb744d"},"vehicle_type_id":"4","last_reported":1753245111,"current_range_meters":11200,"station_id":"ce4bhbp2rcd13ifvqerg","pricing_plan_id":"cebpf4jnsgd1na2vs0mg"},{"bike_id":"05d42747-d0a7-485b-804a-c208d042127e","system_id":"levelo_inurba_marseille","lat":43.24183,"lon":5.36398,"is_reserved":false,"is_disabled":false,"rental_uris":{"android":"levelo://app?vid=05d42747-d0a7-485b-804a-c208d042127e","ios":"levelo://app?vid=05d42747-d0a7-485b-804a-c208d042127e"},"vehicle_type_id":"4","last_reported":1753245111,"current_range_meters":11200,"station_id":"cpo36qri1sfpv3e86is0","pricing_plan_id":"cebpf4jnsgd1na2vs0mg"},{"bike_id":"aa5097b6-6968-4aec-b711-e7780938924b","system_id":"levelo_inurba_marseille","lat":43.329533,"lon":5.358963,"is_reserved":false,"is_disabled":false,"rental_uris":{"android":"levelo://app?vid=aa5097b6-6968-4aec-b711-e7780938924b","ios":"levelo://app?vid=aa5097b6-6968-4aec-b711-e7780938924b"},"vehicle_type_id":"4","last_reported":1753245111,"current_range_meters":11200,"station_id":"","pricing_plan_id":"cebpf4jnsgd1na2vs0mg"},{"bike_id":"a46fe5a2-8c9c-49e2-a95f-344355277483","system_id":"levelo_inurba_marseille","lat":43.313691,"lon":5.384961,"is_reserved":false,"is_disabled":false,"rental_uris":{"android":"levelo://app?vid=a46fe5a2-8c9c-49e2-a95f-344355277483","ios":"levelo://app?vid=a46fe5a2-8c9c-49e2-a95f-344355277483"},"vehicle_type_id":"4","last_reported":1753245111,"current_range_meters":11600,"station_id":"ce4bgt92rcd13ifvqcf0","pricing_plan_id":"cebpf4jnsgd1na2vs0mg"},{"bike_id":"98bafcbb-697f-4f13-b8af-67c2bc6abd9b","system_id":"levelo_inurba_marseille","lat":43.24381,"lon":5.3706,"is_reserved":false,"is_disabled":false,"rental_uris":{"android":"levelo://app?vid=98bafcbb-697f-4f13-b8af-67c2bc6abd9b","ios":"levelo://app?vid=98bafcbb-697f-4f13-b8af-67c2bc6abd9b"},"vehicle_type_id":"4","last_reported":1753245111,"current_range_meters":11600,"station_id":"ce4bhhh2rcd13ifvqfk0","pricing_plan_id":"cebpf4jnsgd1na2vs0mg"},{"bike_id":"b1e97b1e-2d80-4c94-8524-09126906d203","system_id":"levelo_inurba_marseille","lat":43.286535,"lon":5.363539,"is_reserved":false,"is_disabled":false,"rental_uris":{"android":"levelo://app?vid=b1e97b1e-2d80-4c94-8524-09126906d203","ios":"levelo://app?vid=b1e97b1e-2d80-4c94-8524-09126906d203"},"vehicle_type_id":"4","last_reported":1753245111,"current_range_meters":11600,"station_id":"ce4bhah2rcd13ifvqej0","pricing_plan_id":"cebpf4jnsgd1na2vs0mg"},{"bike_id":"11457071-da66-4876-beb1-3c95425d1919","system_id":"levelo_inurba_marseille","lat":43.29583,"lon":5.40564,"is_reserved":false,"is_disabled":false,"rental_uris":{"android":"levelo://app?vid=11457071-da66-4876-beb1-3c95425d1919","ios":"levelo://app?vid=11457071-da66-4876-beb1-3c95425d1919"},"vehicle_type_id":"4","last_reported":1753245111,"current_range_meters":11600,"station_id":"ce4bh0h2rcd13ifvqd60","pricing_plan_id":"cebpf4jnsgd1na2vs0mg"},{"bike_id":"14dce4ef-3cdb-4379-9358-4a1fbdce8f93","system_id":"levelo_inurba_marseille","lat":43.287256,"lon":5.352059,"is_reserved":false,"is_disabled":false,"rental_uris":{"android":"levelo://app?vid=14dce4ef-3cdb-4379-9358-4a1fbdce8f93","ios":"levelo://app?vid=14dce4ef-3cdb-4379-9358-4a1fbdce8f93"},"vehicle_type_id":"4","last_reported":1753245111,"current_range_meters":11600,"station_id":"","pricing_plan_id":"cebpf4jnsgd1na2vs0mg"},{"bike_id":"85b65ca0-7365-40fb-8905-5a0638bc8593","system_id":"levelo_inurba_marseille","lat":43.22925,"lon":5.35389,"is_reserved":false,"is_disabled":false,"rental_uris":{"android":"levelo://app?vid=85b65ca0-7365-40fb-8905-5a0638bc8593","ios":"levelo://app?vid=85b65ca0-7365-40fb-8905-5a0638bc8593"},"vehicle_type_id":"4","last_reported":1753245111,"current_range_meters":12000,"station_id":"cpo3532slgdg3j2ikp40","pricing_plan_id":"cebpf4jnsgd1na2vs0mg"},{"bike_id":"187843a9-1a6e-4036-aac8-9c55eefe434c","system_id":"levelo_inurba_marseille","lat":43.24682,"lon":5.38124,"is_reserved":false,"is_disabled":false,"rental_uris":{"android":"levelo://app?vid=187843a9-1a6e-4036-aac8-9c55eefe434c","ios":"levelo://app?vid=187843a9-1a6e-4036-aac8-9c55eefe434c"},"vehicle_type_id":"4","last_reported":1753245111,"current_range_meters":11600,"station_id":"ce4bhih2rcd13ifvqfr0","pricing_plan_id":"cebpf4jnsgd1na2vs0mg"},{"bike_id":"3c21b9e1-b296-4844-a6d5-b8d19c7f36c9","system_id":"levelo_inurba_marseille","lat":43.29174,"lon":5.38424,"is_reserved":false,"is_disabled":false,"rental_uris":{"android":"levelo://app?vid=3c21b9e1-b296-4844-a6d5-b8d19c7f36c9","ios":"levelo://app?vid=3c21b9e1-b296-4844-a6d5-b8d19c7f36c9"},"vehicle_type_id":"4","last_reported":1753245111,"current_range_meters":11600,"station_id":"","pricing_plan_id":"cebpf4jnsgd1na2vs0mg"},{"bike_id":"14ccb160-29ff-436c-b37f-91da99a35cc9","system_id":"levelo_inurba_marseille","lat":43.31073,"lon":5.38372,"is_reserved":false,"is_disabled":false,"rental_uris":{"android":"levelo://app?vid=14ccb160-29ff-436c-b37f-91da99a35cc9","ios":"levelo://app?vid=14ccb160-29ff-436c-b37f-91da99a35cc9"},"vehicle_type_id":"4","last_reported":1753245111,"current_range_meters":11600,"station_id":"ce4bgv92rcd13ifvqcr0","pricing_plan_id":"cebpf4jnsgd1na2vs0mg"},{"bike_id":"dfb70569-575b-4627-ace4-b72c9d7227f9","system_id":"levelo_inurba_marseille","lat":43.24084,"lon":5.3775,"is_reserved":false,"is_disabled":false,"rental_uris":{"android":"levelo://app?vid=dfb70569-575b-4627-ace4-b72c9d7227f9","ios":"levelo://app?vid=dfb70569-575b-4627-ace4-b72c9d7227f9"},"vehicle_type_id":"4","last_reported":1753245111,"current_range_meters":12000,"station_id":"ce4bhnp2rcd13ifvqgvg","pricing_plan_id":"cebpf4jnsgd1na2vs0mg"},{"bike_id":"093c2cb0-1994-4bd3-a77d-f6c63ce5413a","system_id":"levelo_inurba_marseille","lat":43.22498,"lon":5.34798,"is_reserved":false,"is_disabled":true,"rental_uris":{"android":"levelo://app?vid=093c2cb0-1994-4bd3-a77d-f6c63ce5413a","ios":"levelo://app?vid=093c2cb0-1994-4bd3-a77d-f6c63ce5413a"},"vehicle_type_id":"4","last_reported":1753245111,"current_range_meters":12000,"station_id":"st_cvj5dfep6f1abm77gieg","pricing_plan_id":"cebpf4jnsgd1na2vs0mg"},{"bike_id":"c9dbd36b-479c-4a5c-b200-3aa7673340d9","system_id":"levelo_inurba_marseille","lat":43.241448,"lon":5.363743,"is_reserved":false,"is_disabled":false,"rental_uris":{"android":"levelo://app?vid=c9dbd36b-479c-4a5c-b200-3aa7673340d9","ios":"levelo://app?vid=c9dbd36b-479c-4a5c-b200-3aa7673340d9"},"vehicle_type_id":"4","last_reported":1753245111,"current_range_meters":12000,"station_id":"","pricing_plan_id":"cebpf4jnsgd1na2vs0mg"},{"bike_id":"80f5ba5f-056e-476f-b718-fbe90686e992","system_id":"levelo_inurba_marseille","lat":43.30423,"lon":5.38896,"is_reserved":false,"is_disabled":false,"rental_uris":{"android":"levelo://app?vid=80f5ba5f-056e-476f-b718-fbe90686e992","ios":"levelo://app?vid=80f5ba5f-056e-476f-b718-fbe90686e992"},"vehicle_type_id":"4","last_reported":1753245111,"current_range_meters":12000,"station_id":"ce4bgk12rcd13ifvqbi0","pricing_plan_id":"cebpf4jnsgd1na2vs0mg"},{"bike_id":"fe50cf1d-fc61-4e48-98f2-ea42037cc2b3","system_id":"levelo_inurba_marseille","lat":43.229264,"lon":5.353763,"is_reserved":false,"is_disabled":false,"rental_uris":{"android":"levelo://app?vid=fe50cf1d-fc61-4e48-98f2-ea42037cc2b3","ios":"levelo://app?vid=fe50cf1d-fc61-4e48-98f2-ea42037cc2b3"},"vehicle_type_id":"4","last_reported":1753245111,"current_range_meters":12400,"station_id":"cpo3532slgdg3j2ikp40","pricing_plan_id":"cebpf4jnsgd1na2vs0mg"},{"bike_id":"72576955-e119-40d4-89ab-e52fbaca2af9","system_id":"levelo_inurba_marseille","lat":43.26396,"lon":5.40835,"is_reserved":false,"is_disabled":false,"rental_uris":{"android":"levelo://app?vid=72576955-e119-40d4-89ab-e52fbaca2af9","ios":"levelo://app?vid=72576955-e119-40d4-89ab-e52fbaca2af9"},"vehicle_type_id":"4","last_reported":1753245111,"current_range_meters":12000,"station_id":"","pricing_plan_id":"cebpf4jnsgd1na2vs0mg"},{"bike_id":"64493569-96d5-4062-836d-ee3198d6bee4","system_id":"levelo_inurba_marseille","lat":43.251166,"lon":5.403246,"is_reserved":false,"is_disabled":false,"rental_uris":{"android":"levelo://app?vid=64493569-96d5-4062-836d-ee3198d6bee4","ios":"levelo://app?vid=64493569-96d5-4062-836d-ee3198d6bee4"},"vehicle_type_id":"4","last_reported":1753245111,"current_range_meters":12800,"station_id":"ce4bhlh2rcd13ifvqgig","pricing_plan_id":"cebpf4jnsgd1na2vs0mg"},{"bike_id":"2354a578-b732-43f4-ac7f-14badb5b4c61","system_id":"levelo_inurba_marseille","lat":43.2253,"lon":5.34778,"is_reserved":false,"is_disabled":false,"rental_uris":{"android":"levelo://app?vid=2354a578-b732-43f4-ac7f-14badb5b4c61","ios":"levelo://app?vid=2354a578-b732-43f4-ac7f-14badb5b4c61"},"vehicle_type_id":"4","last_reported":1753245111,"current_range_meters":12400,"station_id":"st_cvj5dfep6f1abm77gieg","pricing_plan_id":"cebpf4jnsgd1na2vs0mg"},{"bike_id":"e7c40544-83b0-47aa-84db-f451e186fbf7","system_id":"levelo_inurba_marseille","lat":43.286198,"lon":5.351043,"is_reserved":false,"is_disabled":false,"rental_uris":{"android":"levelo://app?vid=e7c40544-83b0-47aa-84db-f451e186fbf7","ios":"levelo://app?vid=e7c40544-83b0-47aa-84db-f451e186fbf7"},"vehicle_type_id":"4","last_reported":1753245111,"current_range_meters":12800,"station_id":"ce4bhch2rcd13ifvqeug","pricing_plan_id":"cebpf4jnsgd1na2vs0mg"},{"bike_id":"bac083ef-d910-48d0-9871-0a330b54a87b","system_id":"levelo_inurba_marseille","lat":43.3136,"lon":5.38478,"is_reserved":false,"is_disabled":false,"rental_uris":{"android":"levelo://app?vid=bac083ef-d910-48d0-9871-0a330b54a87b","ios":"levelo://app?vid=bac083ef-d910-48d0-9871-0a330b54a87b"},"vehicle_type_id":"4","last_reported":1753245111,"current_range_meters":12400,"station_id":"ce4bgt92rcd13ifvqcf0","pricing_plan_id":"cebpf4jnsgd1na2vs0mg"},{"bike_id":"c7961dde-1f83-4665-ba7f-9fad410e721e","system_id":"levelo_inurba_marseille","lat":43.31071,"lon":5.38359,"is_reserved":false,"is_disabled":false,"rental_uris":{"android":"levelo://app?vid=c7961dde-1f83-4665-ba7f-9fad410e721e","ios":"levelo://app?vid=c7961dde-1f83-4665-ba7f-9fad410e721e"},"vehicle_type_id":"4","last_reported":1753245111,"current_range_meters":12400,"station_id":"ce4bgv92rcd13ifvqcr0","pricing_plan_id":"cebpf4jnsgd1na2vs0mg"},{"bike_id":"b8157e49-d09e-4d5e-90fd-5d667c09b9a5","system_id":"levelo_inurba_marseille","lat":43.29058,"lon":5.3717,"is_reserved":false,"is_disabled":true,"rental_uris":{"android":"levelo://app?vid=b8157e49-d09e-4d5e-90fd-5d667c09b9a5","ios":"levelo://app?vid=b8157e49-d09e-4d5e-90fd-5d667c09b9a5"},"vehicle_type_id":"4","last_reported":1753245111,"current_range_meters":12400,"station_id":"ce4bgh92rcd13ifvqb40","pricing_plan_id":"cebpf4jnsgd1na2vs0mg"},{"bike_id":"535ecc09-6590-40fa-a131-69903ee7e903","system_id":"levelo_inurba_marseille","lat":43.298,"lon":5.39327,"is_reserved":false,"is_disabled":false,"rental_uris":{"android":"levelo://app?vid=535ecc09-6590-40fa-a131-69903ee7e903","ios":"levelo://app?vid=535ecc09-6590-40fa-a131-69903ee7e903"},"vehicle_type_id":"4","last_reported":1753245111,"current_range_meters":12400,"station_id":"chh1huq6cuj3fo74tm60","pricing_plan_id":"cebpf4jnsgd1na2vs0mg"},{"bike_id":"1814aead-c7f1-4b20-8570-698d90166305","system_id":"levelo_inurba_marseille","lat":43.2582,"lon":5.39438,"is_reserved":false,"is_disabled":true,"rental_uris":{"android":"levelo://app?vid=1814aead-c7f1-4b20-8570-698d90166305","ios":"levelo://app?vid=1814aead-c7f1-4b20-8570-698d90166305"},"vehicle_type_id":"4","last_reported":1753245111,"current_range_meters":12400,"station_id":"ce4bhih2rcd13ifvqfr0","pricing_plan_id":"cebpf4jnsgd1na2vs0mg"},{"bike_id":"f6aa8494-ef44-4589-8256-28c7c8b1e092","system_id":"levelo_inurba_marseille","lat":43.30159,"lon":5.38086,"is_reserved":false,"is_disabled":false,"rental_uris":{"android":"levelo://app?vid=f6aa8494-ef44-4589-8256-28c7c8b1e092","ios":"levelo://app?vid=f6aa8494-ef44-4589-8256-28c7c8b1e092"},"vehicle_type_id":"4","last_reported":1753245111,"current_range_meters":12400,"station_id":"ce4bgjp2rcd13ifvqbh0","pricing_plan_id":"cebpf4jnsgd1na2vs0mg"},{"bike_id":"e44893bb-5cdf-4921-b4e8-39ee578180a1","system_id":"levelo_inurba_marseille","lat":43.2408,"lon":5.37766,"is_reserved":false,"is_disabled":false,"rental_uris":{"android":"levelo://app?vid=e44893bb-5cdf-4921-b4e8-39ee578180a1","ios":"levelo://app?vid=e44893bb-5cdf-4921-b4e8-39ee578180a1"},"vehicle_type_id":"4","last_reported":1753245111,"current_range_meters":12400,"station_id":"ce4bhnp2rcd13ifvqgvg","pricing_plan_id":"cebpf4jnsgd1na2vs0mg"},{"bike_id":"4d64ff5f-3e70-4f43-a427-6235adaa0a54","system_id":"levelo_inurba_marseille","lat":43.31326,"lon":5.39698,"is_reserved":false,"is_disabled":false,"rental_uris":{"android":"levelo://app?vid=4d64ff5f-3e70-4f43-a427-6235adaa0a54","ios":"levelo://app?vid=4d64ff5f-3e70-4f43-a427-6235adaa0a54"},"vehicle_type_id":"4","last_reported":1753245111,"current_range_meters":12800,"station_id":"ce4bgvp2rcd13ifvqcu0","pricing_plan_id":"cebpf4jnsgd1na2vs0mg"},{"bike_id":"43a915db-082e-4ccc-9781-e6e7248ab853","system_id":"levelo_inurba_marseille","lat":43.310737,"lon":5.383497,"is_reserved":false,"is_disabled":false,"rental_uris":{"android":"levelo://app?vid=43a915db-082e-4ccc-9781-e6e7248ab853","ios":"levelo://app?vid=43a915db-082e-4ccc-9781-e6e7248ab853"},"vehicle_type_id":"4","last_reported":1753245111,"current_range_meters":13600,"station_id":"ce4bgv92rcd13ifvqcr0","pricing_plan_id":"cebpf4jnsgd1na2vs0mg"},{"bike_id":"1e6792f6-e23b-4a70-9f0d-cfc180638578","system_id":"levelo_inurba_marseille","lat":43.27413,"lon":5.39416,"is_reserved":false,"is_disabled":false,"rental_uris":{"android":"levelo://app?vid=1e6792f6-e23b-4a70-9f0d-cfc180638578","ios":"levelo://app?vid=1e6792f6-e23b-4a70-9f0d-cfc180638578"},"vehicle_type_id":"4","last_reported":1753245111,"current_range_meters":12800,"station_id":"ce4bhgp2rcd13ifvqfe0","pricing_plan_id":"cebpf4jnsgd1na2vs0mg"},{"bike_id":"d3eea4a0-76ba-4059-ba6b-c1ecd6270925","system_id":"levelo_inurba_marseille","lat":43.211889,"lon":5.35075,"is_reserved":false,"is_disabled":false,"rental_uris":{"android":"levelo://app?vid=d3eea4a0-76ba-4059-ba6b-c1ecd6270925","ios":"levelo://app?vid=d3eea4a0-76ba-4059-ba6b-c1ecd6270925"},"vehicle_type_id":"4","last_reported":1753245111,"current_range_meters":13600,"station_id":"st_cvj6sg6p6f1abm77japg","pricing_plan_id":"cebpf4jnsgd1na2vs0mg"},{"bike_id":"69c5dba0-7886-486a-be58-5f7a61008b6d","system_id":"levelo_inurba_marseille","lat":43.30552,"lon":5.3895,"is_reserved":false,"is_disabled":false,"rental_uris":{"android":"levelo://app?vid=69c5dba0-7886-486a-be58-5f7a61008b6d","ios":"levelo://app?vid=69c5dba0-7886-486a-be58-5f7a61008b6d"},"vehicle_type_id":"4","last_reported":1753245111,"current_range_meters":13600,"station_id":"","pricing_plan_id":"cebpf4jnsgd1na2vs0mg"},{"bike_id":"650db757-2eee-41d7-bbf5-735668e2866a","system_id":"levelo_inurba_marseille","lat":43.25118,"lon":5.40322,"is_reserved":false,"is_disabled":false,"rental_uris":{"android":"levelo://app?vid=650db757-2eee-41d7-bbf5-735668e2866a","ios":"levelo://app?vid=650db757-2eee-41d7-bbf5-735668e2866a"},"vehicle_type_id":"4","last_reported":1753245111,"current_range_meters":13600,"station_id":"ce4bhlh2rcd13ifvqgig","pricing_plan_id":"cebpf4jnsgd1na2vs0mg"},{"bike_id":"c136de46-9ee8-41e8-a11c-c2668203a605","system_id":"levelo_inurba_marseille","lat":43.292807,"lon":5.401236,"is_reserved":false,"is_disabled":false,"rental_uris":{"android":"levelo://app?vid=c136de46-9ee8-41e8-a11c-c2668203a605","ios":"levelo://app?vid=c136de46-9ee8-41e8-a11c-c2668203a605"},"vehicle_type_id":"4","last_reported":1753245111,"current_range_meters":13600,"station_id":"ce4bh312rcd13ifvqdk0","pricing_plan_id":"cebpf4jnsgd1na2vs0mg"},{"bike_id":"09517d89-cbb6-463c-aa34-7f0f3f9969a4","system_id":"levelo_inurba_marseille","lat":43.29786,"lon":5.39357,"is_reserved":false,"is_disabled":false,"rental_uris":{"android":"levelo://app?vid=09517d89-cbb6-463c-aa34-7f0f3f9969a4","ios":"levelo://app?vid=09517d89-cbb6-463c-aa34-7f0f3f9969a4"},"vehicle_type_id":"4","last_reported":1753245111,"current_range_meters":14000,"station_id":"chh1huq6cuj3fo74tm60","pricing_plan_id":"cebpf4jnsgd1na2vs0mg"},{"bike_id":"0ea7a10a-9a1f-48d6-ba0c-cd300cee1999","system_id":"levelo_inurba_marseille","lat":43.270629,"lon":5.422645,"is_reserved":false,"is_disabled":false,"rental_uris":{"android":"levelo://app?vid=0ea7a10a-9a1f-48d6-ba0c-cd300cee1999","ios":"levelo://app?vid=0ea7a10a-9a1f-48d6-ba0c-cd300cee1999"},"vehicle_type_id":"4","last_reported":1753245111,"current_range_meters":13600,"station_id":"ce4bhk92rcd13ifvqgb0","pricing_plan_id":"cebpf4jnsgd1na2vs0mg"},{"bike_id":"d08f22eb-0260-4a7b-9ec7-213487277841","system_id":"levelo_inurba_marseille","lat":43.30933,"lon":5.401485,"is_reserved":false,"is_disabled":false,"rental_uris":{"android":"levelo://app?vid=d08f22eb-0260-4a7b-9ec7-213487277841","ios":"levelo://app?vid=d08f22eb-0260-4a7b-9ec7-213487277841"},"vehicle_type_id":"4","last_reported":1753245111,"current_range_meters":14400,"station_id":"ce4bgvp2rcd13ifvqct0","pricing_plan_id":"cebpf4jnsgd1na2vs0mg"},{"bike_id":"48af5488-6afa-46d8-b781-df5aa91844e8","system_id":"levelo_inurba_marseille","lat":43.313817,"lon":5.38503,"is_reserved":false,"is_disabled":false,"rental_uris":{"android":"levelo://app?vid=48af5488-6afa-46d8-b781-df5aa91844e8","ios":"levelo://app?vid=48af5488-6afa-46d8-b781-df5aa91844e8"},"vehicle_type_id":"4","last_reported":1753245111,"current_range_meters":14000,"station_id":"ce4bgt92rcd13ifvqcf0","pricing_plan_id":"cebpf4jnsgd1na2vs0mg"},{"bike_id":"7f63f9a0-7ea4-40f1-844d-1425837a99f2","system_id":"levelo_inurba_marseille","lat":43.2965,"lon":5.38027,"is_reserved":false,"is_disabled":false,"rental_uris":{"android":"levelo://app?vid=7f63f9a0-7ea4-40f1-844d-1425837a99f2","ios":"levelo://app?vid=7f63f9a0-7ea4-40f1-844d-1425837a99f2"},"vehicle_type_id":"4","last_reported":1753245111,"current_range_meters":14400,"station_id":"","pricing_plan_id":"cebpf4jnsgd1na2vs0mg"},{"bike_id":"9a143ed1-a3c7-421c-a22c-84e79d27e230","system_id":"levelo_inurba_marseille","lat":43.28418,"lon":5.349956,"is_reserved":false,"is_disabled":true,"rental_uris":{"android":"levelo://app?vid=9a143ed1-a3c7-421c-a22c-84e79d27e230","ios":"levelo://app?vid=9a143ed1-a3c7-421c-a22c-84e79d27e230"},"vehicle_type_id":"4","last_reported":1753245111,"current_range_meters":14400,"station_id":"ce4bhbh2rcd13ifvqepg","pricing_plan_id":"cebpf4jnsgd1na2vs0mg"},{"bike_id":"fb16abce-cfa5-4b69-9609-cd6375747203","system_id":"levelo_inurba_marseille","lat":43.32807,"lon":5.38773,"is_reserved":false,"is_disabled":false,"rental_uris":{"android":"levelo://app?vid=fb16abce-cfa5-4b69-9609-cd6375747203","ios":"levelo://app?vid=fb16abce-cfa5-4b69-9609-cd6375747203"},"vehicle_type_id":"4","last_reported":1753245111,"current_range_meters":14400,"station_id":"","pricing_plan_id":"cebpf4jnsgd1na2vs0mg"},{"bike_id":"4355f60b-bb67-4c5e-a729-7d6782d7e997","system_id":"levelo_inurba_marseille","lat":43.27942,"lon":5.41032,"is_reserved":false,"is_disabled":false,"rental_uris":{"android":"levelo://app?vid=4355f60b-bb67-4c5e-a729-7d6782d7e997","ios":"levelo://app?vid=4355f60b-bb67-4c5e-a729-7d6782d7e997"},"vehicle_type_id":"4","last_reported":1753245111,"current_range_meters":14400,"station_id":"ce4bhnp2rcd13ifvqh0g","pricing_plan_id":"cebpf4jnsgd1na2vs0mg"},{"bike_id":"f9c41163-5ecd-4c1a-8ac0-2a6141a12633","system_id":"levelo_inurba_marseille","lat":43.31069,"lon":5.38361,"is_reserved":false,"is_disabled":false,"rental_uris":{"android":"levelo://app?vid=f9c41163-5ecd-4c1a-8ac0-2a6141a12633","ios":"levelo://app?vid=f9c41163-5ecd-4c1a-8ac0-2a6141a12633"},"vehicle_type_id":"4","last_reported":1753245111,"current_range_meters":15200,"station_id":"ce4bgv92rcd13ifvqcr0","pricing_plan_id":"cebpf4jnsgd1na2vs0mg"},{"bike_id":"fb81ee79-6688-4d05-be53-1ac881d0c7b8","system_id":"levelo_inurba_marseille","lat":43.231944,"lon":5.355436,"is_reserved":false,"is_disabled":false,"rental_uris":{"android":"levelo://app?vid=fb81ee79-6688-4d05-be53-1ac881d0c7b8","ios":"levelo://app?vid=fb81ee79-6688-4d05-be53-1ac881d0c7b8"},"vehicle_type_id":"4","last_reported":1753245111,"current_range_meters":15200,"station_id":"ce4bhu92rcd13ifvqi70","pricing_plan_id":"cebpf4jnsgd1na2vs0mg"},{"bike_id":"db4f7d16-4447-4752-b9fa-314b60a317e8","system_id":"levelo_inurba_marseille","lat":43.29921,"lon":5.37939,"is_reserved":false,"is_disabled":false,"rental_uris":{"android":"levelo://app?vid=db4f7d16-4447-4752-b9fa-314b60a317e8","ios":"levelo://app?vid=db4f7d16-4447-4752-b9fa-314b60a317e8"},"vehicle_type_id":"4","last_reported":1753245111,"current_range_meters":15200,"station_id":"","pricing_plan_id":"cebpf4jnsgd1na2vs0mg"},{"bike_id":"6a102a90-f6e0-499a-a8df-486cf33a7ee2","system_id":"levelo_inurba_marseille","lat":43.21198,"lon":5.35067,"is_reserved":false,"is_disabled":false,"rental_uris":{"android":"levelo://app?vid=6a102a90-f6e0-499a-a8df-486cf33a7ee2","ios":"levelo://app?vid=6a102a90-f6e0-499a-a8df-486cf33a7ee2"},"vehicle_type_id":"4","last_reported":1753245111,"current_range_meters":15200,"station_id":"st_cvj6sg6p6f1abm77japg","pricing_plan_id":"cebpf4jnsgd1na2vs0mg"},{"bike_id":"fe07410f-2ac3-4d42-a644-c798c7a25a84","system_id":"levelo_inurba_marseille","lat":43.26571,"lon":5.372879,"is_reserved":false,"is_disabled":false,"rental_uris":{"android":"levelo://app?vid=fe07410f-2ac3-4d42-a644-c798c7a25a84","ios":"levelo://app?vid=fe07410f-2ac3-4d42-a644-c798c7a25a84"},"vehicle_type_id":"4","last_reported":1753245111,"current_range_meters":14800,"station_id":"","pricing_plan_id":"cebpf4jnsgd1na2vs0mg"},{"bike_id":"f80f42bd-0da5-4ce7-89cf-040dcd98cefe","system_id":"levelo_inurba_marseille","lat":43.287171,"lon":5.37934,"is_reserved":false,"is_disabled":false,"rental_uris":{"android":"levelo://app?vid=f80f42bd-0da5-4ce7-89cf-040dcd98cefe","ios":"levelo://app?vid=f80f42bd-0da5-4ce7-89cf-040dcd98cefe"},"vehicle_type_id":"4","last_reported":1753245111,"current_range_meters":14800,"station_id":"ce4bh9p2rcd13ifvqec0","pricing_plan_id":"cebpf4jnsgd1na2vs0mg"},{"bike_id":"14eca472-2769-4afa-8942-8b6079599576","system_id":"levelo_inurba_marseille","lat":43.30377,"lon":5.42472,"is_reserved":false,"is_disabled":false,"rental_uris":{"android":"levelo://app?vid=14eca472-2769-4afa-8942-8b6079599576","ios":"levelo://app?vid=14eca472-2769-4afa-8942-8b6079599576"},"vehicle_type_id":"4","last_reported":1753245111,"current_range_meters":14800,"station_id":"ce4bhoh2rcd13ifvqh6g","pricing_plan_id":"cebpf4jnsgd1na2vs0mg"},{"bike_id":"4e058d12-541f-4837-a62b-0e0602a8306c","system_id":"levelo_inurba_marseille","lat":43.24657,"lon":5.38908,"is_reserved":false,"is_disabled":false,"rental_uris":{"android":"levelo://app?vid=4e058d12-541f-4837-a62b-0e0602a8306c","ios":"levelo://app?vid=4e058d12-541f-4837-a62b-0e0602a8306c"},"vehicle_type_id":"4","last_reported":1753245111,"current_range_meters":14800,"station_id":"ce4bhg12rcd13ifvqf60","pricing_plan_id":"cebpf4jnsgd1na2vs0mg"},{"bike_id":"7def9b7f-f2b5-4d41-a568-cbb3a7472efe","system_id":"levelo_inurba_marseille","lat":43.26959,"lon":5.40222,"is_reserved":false,"is_disabled":false,"rental_uris":{"android":"levelo://app?vid=7def9b7f-f2b5-4d41-a568-cbb3a7472efe","ios":"levelo://app?vid=7def9b7f-f2b5-4d41-a568-cbb3a7472efe"},"vehicle_type_id":"4","last_reported":1753245111,"current_range_meters":14800,"station_id":"cjm6bp8fraef2m0cb0m0","pricing_plan_id":"cebpf4jnsgd1na2vs0mg"},{"bike_id":"6093672b-1e9a-4299-b920-36e4f293a348","system_id":"levelo_inurba_marseille","lat":43.22926,"lon":5.3538,"is_reserved":false,"is_disabled":false,"rental_uris":{"android":"levelo://app?vid=6093672b-1e9a-4299-b920-36e4f293a348","ios":"levelo://app?vid=6093672b-1e9a-4299-b920-36e4f293a348"},"vehicle_type_id":"4","last_reported":1753245111,"current_range_meters":15200,"station_id":"cpo3532slgdg3j2ikp40","pricing_plan_id":"cebpf4jnsgd1na2vs0mg"},{"bike_id":"31fb8300-58bf-4c50-bd95-729e29a89941","system_id":"levelo_inurba_marseille","lat":43.30931,"lon":5.40129,"is_reserved":false,"is_disabled":false,"rental_uris":{"android":"levelo://app?vid=31fb8300-58bf-4c50-bd95-729e29a89941","ios":"levelo://app?vid=31fb8300-58bf-4c50-bd95-729e29a89941"},"vehicle_type_id":"4","last_reported":1753245111,"current_range_meters":15200,"station_id":"ce4bgvp2rcd13ifvqct0","pricing_plan_id":"cebpf4jnsgd1na2vs0mg"},{"bike_id":"cc926983-7496-48df-9677-b8723ddc96b9","system_id":"levelo_inurba_marseille","lat":43.229278,"lon":5.353804,"is_reserved":false,"is_disabled":false,"rental_uris":{"android":"levelo://app?vid=cc926983-7496-48df-9677-b8723ddc96b9","ios":"levelo://app?vid=cc926983-7496-48df-9677-b8723ddc96b9"},"vehicle_type_id":"4","last_reported":1753245111,"current_range_meters":15200,"station_id":"cpo3532slgdg3j2ikp40","pricing_plan_id":"cebpf4jnsgd1na2vs0mg"},{"bike_id":"79d8793a-8b06-4e58-8302-800b5d3a8256","system_id":"levelo_inurba_marseille","lat":43.241879,"lon":5.39717,"is_reserved":false,"is_disabled":false,"rental_uris":{"android":"levelo://app?vid=79d8793a-8b06-4e58-8302-800b5d3a8256","ios":"levelo://app?vid=79d8793a-8b06-4e58-8302-800b5d3a8256"},"vehicle_type_id":"4","last_reported":1753245111,"current_range_meters":16000,"station_id":"ce4bhn12rcd13ifvqgpg","pricing_plan_id":"cebpf4jnsgd1na2vs0mg"},{"bike_id":"1a2751da-031a-4246-8d2c-dd848ee0e802","system_id":"levelo_inurba_marseille","lat":43.29556,"lon":5.38546,"is_reserved":false,"is_disabled":true,"rental_uris":{"android":"levelo://app?vid=1a2751da-031a-4246-8d2c-dd848ee0e802","ios":"levelo://app?vid=1a2751da-031a-4246-8d2c-dd848ee0e802"},"vehicle_type_id":"4","last_reported":1753245111,"current_range_meters":16000,"station_id":"ce4bgih2rcd13ifvqba0","pricing_plan_id":"cebpf4jnsgd1na2vs0mg"},{"bike_id":"d8a56d44-1350-4bc6-a5be-019371538d08","system_id":"levelo_inurba_marseille","lat":43.27016,"lon":5.40316,"is_reserved":false,"is_disabled":false,"rental_uris":{"android":"levelo://app?vid=d8a56d44-1350-4bc6-a5be-019371538d08","ios":"levelo://app?vid=d8a56d44-1350-4bc6-a5be-019371538d08"},"vehicle_type_id":"4","last_reported":1753245111,"current_range_meters":16400,"station_id":"cjm6bp8fraef2m0cb0m0","pricing_plan_id":"cebpf4jnsgd1na2vs0mg"},{"bike_id":"3fdd037b-6204-4dfd-942f-8142ef8575d8","system_id":"levelo_inurba_marseille","lat":43.292761,"lon":5.401169,"is_reserved":false,"is_disabled":false,"rental_uris":{"android":"levelo://app?vid=3fdd037b-6204-4dfd-942f-8142ef8575d8","ios":"levelo://app?vid=3fdd037b-6204-4dfd-942f-8142ef8575d8"},"vehicle_type_id":"4","last_reported":1753245111,"current_range_meters":16400,"station_id":"ce4bh312rcd13ifvqdk0","pricing_plan_id":"cebpf4jnsgd1na2vs0mg"},{"bike_id":"5b47a81d-ead0-4c4b-8864-c63aeb4bcd3d","system_id":"levelo_inurba_marseille","lat":43.2119,"lon":5.35071,"is_reserved":false,"is_disabled":false,"rental_uris":{"android":"levelo://app?vid=5b47a81d-ead0-4c4b-8864-c63aeb4bcd3d","ios":"levelo://app?vid=5b47a81d-ead0-4c4b-8864-c63aeb4bcd3d"},"vehicle_type_id":"4","last_reported":1753245111,"current_range_meters":16000,"station_id":"st_cvj6sg6p6f1abm77japg","pricing_plan_id":"cebpf4jnsgd1na2vs0mg"},{"bike_id":"f9f15f1e-ef93-4244-8bdc-89043b0922dc","system_id":"levelo_inurba_marseille","lat":43.292,"lon":5.39315,"is_reserved":false,"is_disabled":false,"rental_uris":{"android":"levelo://app?vid=f9f15f1e-ef93-4244-8bdc-89043b0922dc","ios":"levelo://app?vid=f9f15f1e-ef93-4244-8bdc-89043b0922dc"},"vehicle_type_id":"4","last_reported":1753245111,"current_range_meters":16000,"station_id":"ce4bh192rcd13ifvqdd0","pricing_plan_id":"cebpf4jnsgd1na2vs0mg"},{"bike_id":"e8b1abc5-45bd-4186-8bcd-484ff3d05a82","system_id":"levelo_inurba_marseille","lat":43.27918,"lon":5.39586,"is_reserved":false,"is_disabled":false,"rental_uris":{"android":"levelo://app?vid=e8b1abc5-45bd-4186-8bcd-484ff3d05a82","ios":"levelo://app?vid=e8b1abc5-45bd-4186-8bcd-484ff3d05a82"},"vehicle_type_id":"4","last_reported":1753245111,"current_range_meters":16400,"station_id":"ce4bhf92rcd13ifvqf40","pricing_plan_id":"cebpf4jnsgd1na2vs0mg"},{"bike_id":"8c112994-48ff-49dc-8688-98b9eea4a153","system_id":"levelo_inurba_marseille","lat":43.30326,"lon":5.40434,"is_reserved":false,"is_disabled":false,"rental_uris":{"android":"levelo://app?vid=8c112994-48ff-49dc-8688-98b9eea4a153","ios":"levelo://app?vid=8c112994-48ff-49dc-8688-98b9eea4a153"},"vehicle_type_id":"4","last_reported":1753245111,"current_range_meters":16400,"station_id":"ce4bh012rcd13ifvqd10","pricing_plan_id":"cebpf4jnsgd1na2vs0mg"},{"bike_id":"4f1dd806-4cc0-4731-a103-d84b6076bb8f","system_id":"levelo_inurba_marseille","lat":43.2559,"lon":5.38243,"is_reserved":false,"is_disabled":true,"rental_uris":{"android":"levelo://app?vid=4f1dd806-4cc0-4731-a103-d84b6076bb8f","ios":"levelo://app?vid=4f1dd806-4cc0-4731-a103-d84b6076bb8f"},"vehicle_type_id":"4","last_reported":1753245111,"current_range_meters":16400,"station_id":"ce4bhih2rcd13ifvqfs0","pricing_plan_id":"cebpf4jnsgd1na2vs0mg"},{"bike_id":"e3a9e6d1-788b-4774-babe-289560a0bee7","system_id":"levelo_inurba_marseille","lat":43.29957,"lon":5.37431,"is_reserved":false,"is_disabled":false,"rental_uris":{"android":"levelo://app?vid=e3a9e6d1-788b-4774-babe-289560a0bee7","ios":"levelo://app?vid=e3a9e6d1-788b-4774-babe-289560a0bee7"},"vehicle_type_id":"4","last_reported":1753245111,"current_range_meters":16400,"station_id":"","pricing_plan_id":"cebpf4jnsgd1na2vs0mg"},{"bike_id":"9325a0ea-0562-4d1b-bba7-267057bee759","system_id":"levelo_inurba_marseille","lat":43.24659,"lon":5.38165,"is_reserved":false,"is_disabled":false,"rental_uris":{"android":"levelo://app?vid=9325a0ea-0562-4d1b-bba7-267057bee759","ios":"levelo://app?vid=9325a0ea-0562-4d1b-bba7-267057bee759"},"vehicle_type_id":"4","last_reported":1753245111,"current_range_meters":16400,"station_id":"ce4bhih2rcd13ifvqfr0","pricing_plan_id":"cebpf4jnsgd1na2vs0mg"},{"bike_id":"efa2e404-2f7d-4c2c-9d33-2fd20cbd7681","system_id":"levelo_inurba_marseille","lat":43.31685,"lon":5.404295,"is_reserved":false,"is_disabled":false,"rental_uris":{"android":"levelo://app?vid=efa2e404-2f7d-4c2c-9d33-2fd20cbd7681","ios":"levelo://app?vid=efa2e404-2f7d-4c2c-9d33-2fd20cbd7681"},"vehicle_type_id":"4","last_reported":1753245111,"current_range_meters":16400,"station_id":"ce4bh012rcd13ifvqd00","pricing_plan_id":"cebpf4jnsgd1na2vs0mg"},{"bike_id":"8aec3a73-d103-49b7-b4a7-cc0238b8e0dd","system_id":"levelo_inurba_marseille","lat":43.240674,"lon":5.377566,"is_reserved":false,"is_disabled":false,"rental_uris":{"android":"levelo://app?vid=8aec3a73-d103-49b7-b4a7-cc0238b8e0dd","ios":"levelo://app?vid=8aec3a73-d103-49b7-b4a7-cc0238b8e0dd"},"vehicle_type_id":"4","last_reported":1753245111,"current_range_meters":16400,"station_id":"ce4bhnp2rcd13ifvqgvg","pricing_plan_id":"cebpf4jnsgd1na2vs0mg"},{"bike_id":"d509b331-e799-4503-90e7-40b1e687c26f","system_id":"levelo_inurba_marseille","lat":43.286059,"lon":5.370696,"is_reserved":false,"is_disabled":true,"rental_uris":{"android":"levelo://app?vid=d509b331-e799-4503-90e7-40b1e687c26f","ios":"levelo://app?vid=d509b331-e799-4503-90e7-40b1e687c26f"},"vehicle_type_id":"4","last_reported":1753245111,"current_range_meters":16400,"station_id":"ce4bht12rcd13ifvqi60","pricing_plan_id":"cebpf4jnsgd1na2vs0mg"},{"bike_id":"3c5ec4da-c7fb-4377-8a25-fa299fc765b1","system_id":"levelo_inurba_marseille","lat":43.22927,"lon":5.35374,"is_reserved":false,"is_disabled":false,"rental_uris":{"android":"levelo://app?vid=3c5ec4da-c7fb-4377-8a25-fa299fc765b1","ios":"levelo://app?vid=3c5ec4da-c7fb-4377-8a25-fa299fc765b1"},"vehicle_type_id":"4","last_reported":1753245111,"current_range_meters":16400,"station_id":"cpo3532slgdg3j2ikp40","pricing_plan_id":"cebpf4jnsgd1na2vs0mg"},{"bike_id":"f7f39aad-16f1-48af-b53a-a700e9df1b9a","system_id":"levelo_inurba_marseille","lat":43.251143,"lon":5.403175,"is_reserved":false,"is_disabled":false,"rental_uris":{"android":"levelo://app?vid=f7f39aad-16f1-48af-b53a-a700e9df1b9a","ios":"levelo://app?vid=f7f39aad-16f1-48af-b53a-a700e9df1b9a"},"vehicle_type_id":"4","last_reported":1753245111,"current_range_meters":16400,"station_id":"ce4bhlh2rcd13ifvqgig","pricing_plan_id":"cebpf4jnsgd1na2vs0mg"},{"bike_id":"c2033e64-b9db-48af-8d36-56740d87e7de","system_id":"levelo_inurba_marseille","lat":43.30929,"lon":5.40138,"is_reserved":false,"is_disabled":false,"rental_uris":{"android":"levelo://app?vid=c2033e64-b9db-48af-8d36-56740d87e7de","ios":"levelo://app?vid=c2033e64-b9db-48af-8d36-56740d87e7de"},"vehicle_type_id":"4","last_reported":1753245111,"current_range_meters":16400,"station_id":"ce4bgvp2rcd13ifvqct0","pricing_plan_id":"cebpf4jnsgd1na2vs0mg"},{"bike_id":"31362f6d-05be-49a1-81bc-b754e7b63269","system_id":"levelo_inurba_marseille","lat":43.29273,"lon":5.40149,"is_reserved":false,"is_disabled":false,"rental_uris":{"android":"levelo://app?vid=31362f6d-05be-49a1-81bc-b754e7b63269","ios":"levelo://app?vid=31362f6d-05be-49a1-81bc-b754e7b63269"},"vehicle_type_id":"4","last_reported":1753245111,"current_range_meters":16400,"station_id":"ce4bh312rcd13ifvqdk0","pricing_plan_id":"cebpf4jnsgd1na2vs0mg"},{"bike_id":"b147d87d-ad6b-4ee0-89e1-f2e85a2edd30","system_id":"levelo_inurba_marseille","lat":43.32111,"lon":5.36813,"is_reserved":false,"is_disabled":false,"rental_uris":{"android":"levelo://app?vid=b147d87d-ad6b-4ee0-89e1-f2e85a2edd30","ios":"levelo://app?vid=b147d87d-ad6b-4ee0-89e1-f2e85a2edd30"},"vehicle_type_id":"4","last_reported":1753245111,"current_range_meters":16400,"station_id":"ce4bhrh2rcd13ifvqhug","pricing_plan_id":"cebpf4jnsgd1na2vs0mg"},{"bike_id":"6ab0a592-0c64-4461-a14c-30b5246d5275","system_id":"levelo_inurba_marseille","lat":43.31373,"lon":5.38497,"is_reserved":false,"is_disabled":false,"rental_uris":{"android":"levelo://app?vid=6ab0a592-0c64-4461-a14c-30b5246d5275","ios":"levelo://app?vid=6ab0a592-0c64-4461-a14c-30b5246d5275"},"vehicle_type_id":"4","last_reported":1753245111,"current_range_meters":16800,"station_id":"ce4bgt92rcd13ifvqcf0","pricing_plan_id":"cebpf4jnsgd1na2vs0mg"},{"bike_id":"87efb87e-9c1b-48bc-9816-65bf93d44e2c","system_id":"levelo_inurba_marseille","lat":43.276176,"lon":5.361005,"is_reserved":false,"is_disabled":false,"rental_uris":{"android":"levelo://app?vid=87efb87e-9c1b-48bc-9816-65bf93d44e2c","ios":"levelo://app?vid=87efb87e-9c1b-48bc-9816-65bf93d44e2c"},"vehicle_type_id":"4","last_reported":1753245111,"current_range_meters":16800,"station_id":"","pricing_plan_id":"cebpf4jnsgd1na2vs0mg"},{"bike_id":"3c46ac99-e222-4f73-89b6-c3dd91f8950d","system_id":"levelo_inurba_marseille","lat":43.25105,"lon":5.40331,"is_reserved":false,"is_disabled":false,"rental_uris":{"android":"levelo://app?vid=3c46ac99-e222-4f73-89b6-c3dd91f8950d","ios":"levelo://app?vid=3c46ac99-e222-4f73-89b6-c3dd91f8950d"},"vehicle_type_id":"4","last_reported":1753245111,"current_range_meters":17200,"station_id":"ce4bhlh2rcd13ifvqgig","pricing_plan_id":"cebpf4jnsgd1na2vs0mg"},{"bike_id":"dbb0c1cd-24ec-42a7-9f67-6979d5cb2d66","system_id":"levelo_inurba_marseille","lat":43.31081,"lon":5.38355,"is_reserved":false,"is_disabled":false,"rental_uris":{"android":"levelo://app?vid=dbb0c1cd-24ec-42a7-9f67-6979d5cb2d66","ios":"levelo://app?vid=dbb0c1cd-24ec-42a7-9f67-6979d5cb2d66"},"vehicle_type_id":"4","last_reported":1753245111,"current_range_meters":17200,"station_id":"ce4bgv92rcd13ifvqcr0","pricing_plan_id":"cebpf4jnsgd1na2vs0mg"},{"bike_id":"f9c9ff83-8548-4acb-a33b-495af4adeef4","system_id":"levelo_inurba_marseille","lat":43.32347,"lon":5.36694,"is_reserved":false,"is_disabled":false,"rental_uris":{"android":"levelo://app?vid=f9c9ff83-8548-4acb-a33b-495af4adeef4","ios":"levelo://app?vid=f9c9ff83-8548-4acb-a33b-495af4adeef4"},"vehicle_type_id":"4","last_reported":1753245111,"current_range_meters":17200,"station_id":"","pricing_plan_id":"cebpf4jnsgd1na2vs0mg"},{"bike_id":"b5ce8d93-17c0-45a5-b2b1-eefce45c2d79","system_id":"levelo_inurba_marseille","lat":43.31831,"lon":5.43493,"is_reserved":false,"is_disabled":false,"rental_uris":{"android":"levelo://app?vid=b5ce8d93-17c0-45a5-b2b1-eefce45c2d79","ios":"levelo://app?vid=b5ce8d93-17c0-45a5-b2b1-eefce45c2d79"},"vehicle_type_id":"4","last_reported":1753245111,"current_range_meters":17200,"station_id":"","pricing_plan_id":"cebpf4jnsgd1na2vs0mg"},{"bike_id":"87304162-6179-4a31-ba9b-3189dfa3532e","system_id":"levelo_inurba_marseille","lat":43.309274,"lon":5.401485,"is_reserved":false,"is_disabled":false,"rental_uris":{"android":"levelo://app?vid=87304162-6179-4a31-ba9b-3189dfa3532e","ios":"levelo://app?vid=87304162-6179-4a31-ba9b-3189dfa3532e"},"vehicle_type_id":"4","last_reported":1753245111,"current_range_meters":17200,"station_id":"ce4bgvp2rcd13ifvqct0","pricing_plan_id":"cebpf4jnsgd1na2vs0mg"},{"bike_id":"c7fb7bc9-cce5-4dbe-9d25-1adaba45ad0d","system_id":"levelo_inurba_marseille","lat":43.28688,"lon":5.37392,"is_reserved":false,"is_disabled":true,"rental_uris":{"android":"levelo://app?vid=c7fb7bc9-cce5-4dbe-9d25-1adaba45ad0d","ios":"levelo://app?vid=c7fb7bc9-cce5-4dbe-9d25-1adaba45ad0d"},"vehicle_type_id":"4","last_reported":1753245111,"current_range_meters":17200,"station_id":"ce4bh3p2rcd13ifvqdq0","pricing_plan_id":"cebpf4jnsgd1na2vs0mg"},{"bike_id":"8e0f3023-0c39-4aee-a3ef-6288d27beb68","system_id":"levelo_inurba_marseille","lat":43.292759,"lon":5.401258,"is_reserved":false,"is_disabled":false,"rental_uris":{"android":"levelo://app?vid=8e0f3023-0c39-4aee-a3ef-6288d27beb68","ios":"levelo://app?vid=8e0f3023-0c39-4aee-a3ef-6288d27beb68"},"vehicle_type_id":"4","last_reported":1753245111,"current_range_meters":17600,"station_id":"ce4bh312rcd13ifvqdk0","pricing_plan_id":"cebpf4jnsgd1na2vs0mg"},{"bike_id":"5f140933-6e5c-4c26-91e1-3b7250b0978a","system_id":"levelo_inurba_marseille","lat":43.30943,"lon":5.39023,"is_reserved":false,"is_disabled":false,"rental_uris":{"android":"levelo://app?vid=5f140933-6e5c-4c26-91e1-3b7250b0978a","ios":"levelo://app?vid=5f140933-6e5c-4c26-91e1-3b7250b0978a"},"vehicle_type_id":"4","last_reported":1753245111,"current_range_meters":17200,"station_id":"ce4bgup2rcd13ifvqco0","pricing_plan_id":"cebpf4jnsgd1na2vs0mg"},{"bike_id":"5984b2a9-df08-472f-9972-51a1ce9935d3","system_id":"levelo_inurba_marseille","lat":43.21669,"lon":5.34735,"is_reserved":false,"is_disabled":false,"rental_uris":{"android":"levelo://app?vid=5984b2a9-df08-472f-9972-51a1ce9935d3","ios":"levelo://app?vid=5984b2a9-df08-472f-9972-51a1ce9935d3"},"vehicle_type_id":"4","last_reported":1753245111,"current_range_meters":17200,"station_id":"","pricing_plan_id":"cebpf4jnsgd1na2vs0mg"},{"bike_id":"9ce312f1-cb07-4159-91d6-c11a68a5ee71","system_id":"levelo_inurba_marseille","lat":43.211895,"lon":5.350761,"is_reserved":false,"is_disabled":false,"rental_uris":{"android":"levelo://app?vid=9ce312f1-cb07-4159-91d6-c11a68a5ee71","ios":"levelo://app?vid=9ce312f1-cb07-4159-91d6-c11a68a5ee71"},"vehicle_type_id":"4","last_reported":1753245111,"current_range_meters":17600,"station_id":"st_cvj6sg6p6f1abm77japg","pricing_plan_id":"cebpf4jnsgd1na2vs0mg"},{"bike_id":"40003ce9-0410-467e-8a20-fc80535a1e4d","system_id":"levelo_inurba_marseille","lat":43.28075,"lon":5.39651,"is_reserved":false,"is_disabled":false,"rental_uris":{"android":"levelo://app?vid=40003ce9-0410-467e-8a20-fc80535a1e4d","ios":"levelo://app?vid=40003ce9-0410-467e-8a20-fc80535a1e4d"},"vehicle_type_id":"4","last_reported":1753245111,"current_range_meters":17200,"station_id":"ce4bho12rcd13ifvqh2g","pricing_plan_id":"cebpf4jnsgd1na2vs0mg"},{"bike_id":"ed189939-8cb6-4782-929d-f2f7add8d8c9","system_id":"levelo_inurba_marseille","lat":43.310798,"lon":5.383448,"is_reserved":false,"is_disabled":true,"rental_uris":{"android":"levelo://app?vid=ed189939-8cb6-4782-929d-f2f7add8d8c9","ios":"levelo://app?vid=ed189939-8cb6-4782-929d-f2f7add8d8c9"},"vehicle_type_id":"4","last_reported":1753245111,"current_range_meters":17600,"station_id":"ce4bgv92rcd13ifvqcr0","pricing_plan_id":"cebpf4jnsgd1na2vs0mg"},{"bike_id":"a0de01aa-cd68-4a4d-8bab-65fa167b8610","system_id":"levelo_inurba_marseille","lat":43.23191,"lon":5.35554,"is_reserved":false,"is_disabled":false,"rental_uris":{"android":"levelo://app?vid=a0de01aa-cd68-4a4d-8bab-65fa167b8610","ios":"levelo://app?vid=a0de01aa-cd68-4a4d-8bab-65fa167b8610"},"vehicle_type_id":"4","last_reported":1753245111,"current_range_meters":17600,"station_id":"ce4bhu92rcd13ifvqi70","pricing_plan_id":"cebpf4jnsgd1na2vs0mg"},{"bike_id":"9e7bef7c-53f8-4848-95ce-ebad9a02dd2f","system_id":"levelo_inurba_marseille","lat":43.25864,"lon":5.39901,"is_reserved":false,"is_disabled":false,"rental_uris":{"android":"levelo://app?vid=9e7bef7c-53f8-4848-95ce-ebad9a02dd2f","ios":"levelo://app?vid=9e7bef7c-53f8-4848-95ce-ebad9a02dd2f"},"vehicle_type_id":"4","last_reported":1753245111,"current_range_meters":17600,"station_id":"ce4bhl92rcd13ifvqghg","pricing_plan_id":"cebpf4jnsgd1na2vs0mg"},{"bike_id":"dc05cf9c-a3a1-40db-9fd3-24e9382ace28","system_id":"levelo_inurba_marseille","lat":43.29574,"lon":5.37531,"is_reserved":false,"is_disabled":false,"rental_uris":{"android":"levelo://app?vid=dc05cf9c-a3a1-40db-9fd3-24e9382ace28","ios":"levelo://app?vid=dc05cf9c-a3a1-40db-9fd3-24e9382ace28"},"vehicle_type_id":"4","last_reported":1753245111,"current_range_meters":17600,"station_id":"ce4bgh92rcd13ifvqb50","pricing_plan_id":"cebpf4jnsgd1na2vs0mg"},{"bike_id":"5852fb24-002a-478f-8f94-97d04ec82aee","system_id":"levelo_inurba_marseille","lat":43.29221,"lon":5.3607,"is_reserved":false,"is_disabled":false,"rental_uris":{"android":"levelo://app?vid=5852fb24-002a-478f-8f94-97d04ec82aee","ios":"levelo://app?vid=5852fb24-002a-478f-8f94-97d04ec82aee"},"vehicle_type_id":"4","last_reported":1753245111,"current_range_meters":18000,"station_id":"ce4bhbh2rcd13ifvqeqg","pricing_plan_id":"cebpf4jnsgd1na2vs0mg"},{"bike_id":"effef797-28f1-477c-a309-15b467a22c31","system_id":"levelo_inurba_marseille","lat":43.31361,"lon":5.38509,"is_reserved":false,"is_disabled":false,"rental_uris":{"android":"levelo://app?vid=effef797-28f1-477c-a309-15b467a22c31","ios":"levelo://app?vid=effef797-28f1-477c-a309-15b467a22c31"},"vehicle_type_id":"4","last_reported":1753245111,"current_range_meters":18000,"station_id":"ce4bgt92rcd13ifvqcf0","pricing_plan_id":"cebpf4jnsgd1na2vs0mg"},{"bike_id":"a4bb9f02-21bf-4315-b8b9-f46180e3c112","system_id":"levelo_inurba_marseille","lat":43.27815,"lon":5.40711,"is_reserved":false,"is_disabled":false,"rental_uris":{"android":"levelo://app?vid=a4bb9f02-21bf-4315-b8b9-f46180e3c112","ios":"levelo://app?vid=a4bb9f02-21bf-4315-b8b9-f46180e3c112"},"vehicle_type_id":"4","last_reported":1753245111,"current_range_meters":18000,"station_id":"ce4bhnh2rcd13ifvqgtg","pricing_plan_id":"cebpf4jnsgd1na2vs0mg"},{"bike_id":"38218639-cb21-4323-ba92-61b4236d5c3e","system_id":"levelo_inurba_marseille","lat":43.299632,"lon":5.371842,"is_reserved":false,"is_disabled":false,"rental_uris":{"android":"levelo://app?vid=38218639-cb21-4323-ba92-61b4236d5c3e","ios":"levelo://app?vid=38218639-cb21-4323-ba92-61b4236d5c3e"},"vehicle_type_id":"4","last_reported":1753245111,"current_range_meters":18800,"station_id":"ce4bgr92rcd13ifvqc7g","pricing_plan_id":"cebpf4jnsgd1na2vs0mg"},{"bike_id":"dffe6022-c64a-4fa9-95f2-7701f2830a3e","system_id":"levelo_inurba_marseille","lat":43.290758,"lon":5.371575,"is_reserved":false,"is_disabled":true,"rental_uris":{"android":"levelo://app?vid=dffe6022-c64a-4fa9-95f2-7701f2830a3e","ios":"levelo://app?vid=dffe6022-c64a-4fa9-95f2-7701f2830a3e"},"vehicle_type_id":"4","last_reported":1753245111,"current_range_meters":18000,"station_id":"ce4bhap2rcd13ifvqek0","pricing_plan_id":"cebpf4jnsgd1na2vs0mg"},{"bike_id":"15764a2d-4dc5-45e2-a0da-be3a32d790d4","system_id":"levelo_inurba_marseille","lat":43.323468,"lon":5.40615,"is_reserved":false,"is_disabled":false,"rental_uris":{"android":"levelo://app?vid=15764a2d-4dc5-45e2-a0da-be3a32d790d4","ios":"levelo://app?vid=15764a2d-4dc5-45e2-a0da-be3a32d790d4"},"vehicle_type_id":"4","last_reported":1753245111,"current_range_meters":18000,"station_id":"ce4bhq92rcd13ifvqhjg","pricing_plan_id":"cebpf4jnsgd1na2vs0mg"},{"bike_id":"0b7d18a7-9bda-4fbc-b039-838a10444466","system_id":"levelo_inurba_marseille","lat":43.229308,"lon":5.353746,"is_reserved":false,"is_disabled":false,"rental_uris":{"android":"levelo://app?vid=0b7d18a7-9bda-4fbc-b039-838a10444466","ios":"levelo://app?vid=0b7d18a7-9bda-4fbc-b039-838a10444466"},"vehicle_type_id":"4","last_reported":1753245111,"current_range_meters":18000,"station_id":"cpo3532slgdg3j2ikp40","pricing_plan_id":"cebpf4jnsgd1na2vs0mg"},{"bike_id":"9c1cc253-499c-4304-b479-aa1e1bdb3629","system_id":"levelo_inurba_marseille","lat":43.262328,"lon":5.404545,"is_reserved":false,"is_disabled":false,"rental_uris":{"android":"levelo://app?vid=9c1cc253-499c-4304-b479-aa1e1bdb3629","ios":"levelo://app?vid=9c1cc253-499c-4304-b479-aa1e1bdb3629"},"vehicle_type_id":"4","last_reported":1753245111,"current_range_meters":18800,"station_id":"ce4bhmh2rcd13ifvqgmg","pricing_plan_id":"cebpf4jnsgd1na2vs0mg"},{"bike_id":"88930e45-ea3f-450c-9499-eb7a1664b650","system_id":"levelo_inurba_marseille","lat":43.29794,"lon":5.39356,"is_reserved":false,"is_disabled":false,"rental_uris":{"android":"levelo://app?vid=88930e45-ea3f-450c-9499-eb7a1664b650","ios":"levelo://app?vid=88930e45-ea3f-450c-9499-eb7a1664b650"},"vehicle_type_id":"4","last_reported":1753245111,"current_range_meters":18800,"station_id":"chh1huq6cuj3fo74tm60","pricing_plan_id":"cebpf4jnsgd1na2vs0mg"},{"bike_id":"5ac85406-65d0-4336-aa89-4b04b2e6689e","system_id":"levelo_inurba_marseille","lat":43.33275,"lon":5.42004,"is_reserved":false,"is_disabled":false,"rental_uris":{"android":"levelo://app?vid=5ac85406-65d0-4336-aa89-4b04b2e6689e","ios":"levelo://app?vid=5ac85406-65d0-4336-aa89-4b04b2e6689e"},"vehicle_type_id":"4","last_reported":1753245111,"current_range_meters":19200,"station_id":"","pricing_plan_id":"cebpf4jnsgd1na2vs0mg"},{"bike_id":"540bf034-f01c-40e5-a779-10bbd6856c25","system_id":"levelo_inurba_marseille","lat":43.24242,"lon":5.39758,"is_reserved":false,"is_disabled":false,"rental_uris":{"android":"levelo://app?vid=540bf034-f01c-40e5-a779-10bbd6856c25","ios":"levelo://app?vid=540bf034-f01c-40e5-a779-10bbd6856c25"},"vehicle_type_id":"4","last_reported":1753245111,"current_range_meters":18800,"station_id":"ce4bhn12rcd13ifvqgpg","pricing_plan_id":"cebpf4jnsgd1na2vs0mg"},{"bike_id":"edc84bf4-cd77-4289-b20f-b06a8fabb2a3","system_id":"levelo_inurba_marseille","lat":43.22924,"lon":5.35399,"is_reserved":false,"is_disabled":false,"rental_uris":{"android":"levelo://app?vid=edc84bf4-cd77-4289-b20f-b06a8fabb2a3","ios":"levelo://app?vid=edc84bf4-cd77-4289-b20f-b06a8fabb2a3"},"vehicle_type_id":"4","last_reported":1753245111,"current_range_meters":19200,"station_id":"cpo3532slgdg3j2ikp40","pricing_plan_id":"cebpf4jnsgd1na2vs0mg"},{"bike_id":"ff06a73f-116a-4b73-821a-6e97ff46736c","system_id":"levelo_inurba_marseille","lat":43.291001,"lon":5.381411,"is_reserved":false,"is_disabled":true,"rental_uris":{"android":"levelo://app?vid=ff06a73f-116a-4b73-821a-6e97ff46736c","ios":"levelo://app?vid=ff06a73f-116a-4b73-821a-6e97ff46736c"},"vehicle_type_id":"4","last_reported":1753245111,"current_range_meters":18800,"station_id":"ce4bh512rcd13ifvqe2g","pricing_plan_id":"cebpf4jnsgd1na2vs0mg"},{"bike_id":"3cd09fc8-9554-4236-8496-0931a7be09d1","system_id":"levelo_inurba_marseille","lat":43.21215,"lon":5.35052,"is_reserved":false,"is_disabled":false,"rental_uris":{"android":"levelo://app?vid=3cd09fc8-9554-4236-8496-0931a7be09d1","ios":"levelo://app?vid=3cd09fc8-9554-4236-8496-0931a7be09d1"},"vehicle_type_id":"4","last_reported":1753245111,"current_range_meters":19200,"station_id":"st_cvj6sg6p6f1abm77japg","pricing_plan_id":"cebpf4jnsgd1na2vs0mg"},{"bike_id":"27b534a5-1d87-4085-81d3-fca895c3303e","system_id":"levelo_inurba_marseille","lat":43.25857,"lon":5.39917,"is_reserved":false,"is_disabled":false,"rental_uris":{"android":"levelo://app?vid=27b534a5-1d87-4085-81d3-fca895c3303e","ios":"levelo://app?vid=27b534a5-1d87-4085-81d3-fca895c3303e"},"vehicle_type_id":"4","last_reported":1753245111,"current_range_meters":19200,"station_id":"ce4bhl92rcd13ifvqghg","pricing_plan_id":"cebpf4jnsgd1na2vs0mg"},{"bike_id":"229ed28b-3a89-4c10-9e6a-e083ca258aa3","system_id":"levelo_inurba_marseille","lat":43.29528,"lon":5.39396,"is_reserved":false,"is_disabled":false,"rental_uris":{"android":"levelo://app?vid=229ed28b-3a89-4c10-9e6a-e083ca258aa3","ios":"levelo://app?vid=229ed28b-3a89-4c10-9e6a-e083ca258aa3"},"vehicle_type_id":"4","last_reported":1753245111,"current_range_meters":18800,"station_id":"ce4bh292rcd13ifvqdf0","pricing_plan_id":"cebpf4jnsgd1na2vs0mg"},{"bike_id":"a0de36d3-8aa8-40a9-98b1-436371544f65","system_id":"levelo_inurba_marseille","lat":43.29191,"lon":5.39321,"is_reserved":false,"is_disabled":true,"rental_uris":{"android":"levelo://app?vid=a0de36d3-8aa8-40a9-98b1-436371544f65","ios":"levelo://app?vid=a0de36d3-8aa8-40a9-98b1-436371544f65"},"vehicle_type_id":"4","last_reported":1753245111,"current_range_meters":18800,"station_id":"ce4bh192rcd13ifvqdd0","pricing_plan_id":"cebpf4jnsgd1na2vs0mg"},{"bike_id":"f493a3a9-7f6b-470e-bce7-7019418af039","system_id":"levelo_inurba_marseille","lat":43.27914,"lon":5.38013,"is_reserved":false,"is_disabled":false,"rental_uris":{"android":"levelo://app?vid=f493a3a9-7f6b-470e-bce7-7019418af039","ios":"levelo://app?vid=f493a3a9-7f6b-470e-bce7-7019418af039"},"vehicle_type_id":"4","last_reported":1753245111,"current_range_meters":18800,"station_id":"ce4bhf92rcd13ifvqf50","pricing_plan_id":"cebpf4jnsgd1na2vs0mg"},{"bike_id":"0a7e2862-d8ec-4c77-89d9-cfcdd51f8d75","system_id":"levelo_inurba_marseille","lat":43.31196,"lon":5.381595,"is_reserved":false,"is_disabled":false,"rental_uris":{"android":"levelo://app?vid=0a7e2862-d8ec-4c77-89d9-cfcdd51f8d75","ios":"levelo://app?vid=0a7e2862-d8ec-4c77-89d9-cfcdd51f8d75"},"vehicle_type_id":"4","last_reported":1753245111,"current_range_meters":19200,"station_id":"","pricing_plan_id":"cebpf4jnsgd1na2vs0mg"},{"bike_id":"7bf03fd7-4840-4418-bd6d-b63d7bf8e6ec","system_id":"levelo_inurba_marseille","lat":43.31111,"lon":5.37788,"is_reserved":false,"is_disabled":false,"rental_uris":{"android":"levelo://app?vid=7bf03fd7-4840-4418-bd6d-b63d7bf8e6ec","ios":"levelo://app?vid=7bf03fd7-4840-4418-bd6d-b63d7bf8e6ec"},"vehicle_type_id":"4","last_reported":1753245111,"current_range_meters":19600,"station_id":"ce4bgt92rcd13ifvqcg0","pricing_plan_id":"cebpf4jnsgd1na2vs0mg"},{"bike_id":"6e5f39f9-6430-44b6-91a0-9e26bb75df02","system_id":"levelo_inurba_marseille","lat":43.30779,"lon":5.37658,"is_reserved":false,"is_disabled":false,"rental_uris":{"android":"levelo://app?vid=6e5f39f9-6430-44b6-91a0-9e26bb75df02","ios":"levelo://app?vid=6e5f39f9-6430-44b6-91a0-9e26bb75df02"},"vehicle_type_id":"4","last_reported":1753245111,"current_range_meters":19200,"station_id":"ce4bgv92rcd13ifvqcq0","pricing_plan_id":"cebpf4jnsgd1na2vs0mg"},{"bike_id":"534286dc-7eb9-4ebf-998c-69cff5dfbc5c","system_id":"levelo_inurba_marseille","lat":43.310786,"lon":5.383464,"is_reserved":false,"is_disabled":false,"rental_uris":{"android":"levelo://app?vid=534286dc-7eb9-4ebf-998c-69cff5dfbc5c","ios":"levelo://app?vid=534286dc-7eb9-4ebf-998c-69cff5dfbc5c"},"vehicle_type_id":"4","last_reported":1753245111,"current_range_meters":19200,"station_id":"ce4bgv92rcd13ifvqcr0","pricing_plan_id":"cebpf4jnsgd1na2vs0mg"},{"bike_id":"c056311f-78c9-4e18-8685-91c659ddb125","system_id":"levelo_inurba_marseille","lat":43.316164,"lon":5.389679,"is_reserved":false,"is_disabled":false,"rental_uris":{"android":"levelo://app?vid=c056311f-78c9-4e18-8685-91c659ddb125","ios":"levelo://app?vid=c056311f-78c9-4e18-8685-91c659ddb125"},"vehicle_type_id":"4","last_reported":1753245111,"current_range_meters":19200,"station_id":"","pricing_plan_id":"cebpf4jnsgd1na2vs0mg"},{"bike_id":"ae131367-d818-44a0-9e1d-4aa65dcdb16a","system_id":"levelo_inurba_marseille","lat":43.27498,"lon":5.39644,"is_reserved":false,"is_disabled":false,"rental_uris":{"android":"levelo://app?vid=ae131367-d818-44a0-9e1d-4aa65dcdb16a","ios":"levelo://app?vid=ae131367-d818-44a0-9e1d-4aa65dcdb16a"},"vehicle_type_id":"4","last_reported":1753245111,"current_range_meters":19200,"station_id":"","pricing_plan_id":"cebpf4jnsgd1na2vs0mg"},{"bike_id":"6bb1f31c-9335-4f39-9585-31374a4775f9","system_id":"levelo_inurba_marseille","lat":43.325583,"lon":5.379059,"is_reserved":false,"is_disabled":false,"rental_uris":{"android":"levelo://app?vid=6bb1f31c-9335-4f39-9585-31374a4775f9","ios":"levelo://app?vid=6bb1f31c-9335-4f39-9585-31374a4775f9"},"vehicle_type_id":"4","last_reported":1753245111,"current_range_meters":19200,"station_id":"","pricing_plan_id":"cebpf4jnsgd1na2vs0mg"},{"bike_id":"b7d8c1d7-6304-4619-9c51-af7ef2723655","system_id":"levelo_inurba_marseille","lat":43.302758,"lon":5.381938,"is_reserved":false,"is_disabled":false,"rental_uris":{"android":"levelo://app?vid=b7d8c1d7-6304-4619-9c51-af7ef2723655","ios":"levelo://app?vid=b7d8c1d7-6304-4619-9c51-af7ef2723655"},"vehicle_type_id":"4","last_reported":1753245111,"current_range_meters":19200,"station_id":"ce4bgkp2rcd13ifvqbmg","pricing_plan_id":"cebpf4jnsgd1na2vs0mg"},{"bike_id":"8ae20bdf-bf90-461a-986c-b66f491b84cd","system_id":"levelo_inurba_marseille","lat":43.30372,"lon":5.42483,"is_reserved":false,"is_disabled":false,"rental_uris":{"android":"levelo://app?vid=8ae20bdf-bf90-461a-986c-b66f491b84cd","ios":"levelo://app?vid=8ae20bdf-bf90-461a-986c-b66f491b84cd"},"vehicle_type_id":"4","last_reported":1753245111,"current_range_meters":19200,"station_id":"ce4bhoh2rcd13ifvqh6g","pricing_plan_id":"cebpf4jnsgd1na2vs0mg"},{"bike_id":"8eea368d-67f6-4b59-b646-26ece0634a16","system_id":"levelo_inurba_marseille","lat":43.22934,"lon":5.35376,"is_reserved":false,"is_disabled":false,"rental_uris":{"android":"levelo://app?vid=8eea368d-67f6-4b59-b646-26ece0634a16","ios":"levelo://app?vid=8eea368d-67f6-4b59-b646-26ece0634a16"},"vehicle_type_id":"4","last_reported":1753245111,"current_range_meters":19200,"station_id":"cpo3532slgdg3j2ikp40","pricing_plan_id":"cebpf4jnsgd1na2vs0mg"},{"bike_id":"4b7b5be6-0a5b-41a1-8516-a13df95ad868","system_id":"levelo_inurba_marseille","lat":43.33755,"lon":5.3745,"is_reserved":false,"is_disabled":false,"rental_uris":{"android":"levelo://app?vid=4b7b5be6-0a5b-41a1-8516-a13df95ad868","ios":"levelo://app?vid=4b7b5be6-0a5b-41a1-8516-a13df95ad868"},"vehicle_type_id":"4","last_reported":1753245111,"current_range_meters":19600,"station_id":"","pricing_plan_id":"cebpf4jnsgd1na2vs0mg"},{"bike_id":"14168552-349d-439d-960a-cfdd0a062c30","system_id":"levelo_inurba_marseille","lat":43.314839,"lon":5.372845,"is_reserved":false,"is_disabled":false,"rental_uris":{"android":"levelo://app?vid=14168552-349d-439d-960a-cfdd0a062c30","ios":"levelo://app?vid=14168552-349d-439d-960a-cfdd0a062c30"},"vehicle_type_id":"4","last_reported":1753245111,"current_range_meters":19600,"station_id":"ce4bgt12rcd13ifvqcd0","pricing_plan_id":"cebpf4jnsgd1na2vs0mg"},{"bike_id":"2db10eb2-d00b-429c-b0ae-d1387a8d4f92","system_id":"levelo_inurba_marseille","lat":43.284303,"lon":5.349836,"is_reserved":false,"is_disabled":true,"rental_uris":{"android":"levelo://app?vid=2db10eb2-d00b-429c-b0ae-d1387a8d4f92","ios":"levelo://app?vid=2db10eb2-d00b-429c-b0ae-d1387a8d4f92"},"vehicle_type_id":"4","last_reported":1753245111,"current_range_meters":19600,"station_id":"ce4bhbh2rcd13ifvqepg","pricing_plan_id":"cebpf4jnsgd1na2vs0mg"},{"bike_id":"12a2f0c5-4edb-434d-a241-5c3ec6cbc2cd","system_id":"levelo_inurba_marseille","lat":43.28072,"lon":5.39648,"is_reserved":false,"is_disabled":false,"rental_uris":{"android":"levelo://app?vid=12a2f0c5-4edb-434d-a241-5c3ec6cbc2cd","ios":"levelo://app?vid=12a2f0c5-4edb-434d-a241-5c3ec6cbc2cd"},"vehicle_type_id":"4","last_reported":1753245111,"current_range_meters":19600,"station_id":"ce4bho12rcd13ifvqh2g","pricing_plan_id":"cebpf4jnsgd1na2vs0mg"},{"bike_id":"88ba686c-e916-48b4-a187-3089cccb5922","system_id":"levelo_inurba_marseille","lat":43.314927,"lon":5.372858,"is_reserved":false,"is_disabled":false,"rental_uris":{"android":"levelo://app?vid=88ba686c-e916-48b4-a187-3089cccb5922","ios":"levelo://app?vid=88ba686c-e916-48b4-a187-3089cccb5922"},"vehicle_type_id":"4","last_reported":1753245111,"current_range_meters":20000,"station_id":"ce4bgt12rcd13ifvqcd0","pricing_plan_id":"cebpf4jnsgd1na2vs0mg"},{"bike_id":"18b86593-4f21-41ed-81b3-f3a5b378dc91","system_id":"levelo_inurba_marseille","lat":43.312339,"lon":5.381309,"is_reserved":false,"is_disabled":false,"rental_uris":{"android":"levelo://app?vid=18b86593-4f21-41ed-81b3-f3a5b378dc91","ios":"levelo://app?vid=18b86593-4f21-41ed-81b3-f3a5b378dc91"},"vehicle_type_id":"4","last_reported":1753245111,"current_range_meters":19600,"station_id":"","pricing_plan_id":"cebpf4jnsgd1na2vs0mg"},{"bike_id":"aaddee1c-226e-4fc6-afd6-fac4bfd6b639","system_id":"levelo_inurba_marseille","lat":43.30801,"lon":5.3815,"is_reserved":false,"is_disabled":false,"rental_uris":{"android":"levelo://app?vid=aaddee1c-226e-4fc6-afd6-fac4bfd6b639","ios":"levelo://app?vid=aaddee1c-226e-4fc6-afd6-fac4bfd6b639"},"vehicle_type_id":"4","last_reported":1753245111,"current_range_meters":19600,"station_id":"ce4bgt12rcd13ifvqce0","pricing_plan_id":"cebpf4jnsgd1na2vs0mg"},{"bike_id":"909e4084-40a5-4f0f-8e3f-6120693fcf69","system_id":"levelo_inurba_marseille","lat":43.28845,"lon":5.39333,"is_reserved":false,"is_disabled":false,"rental_uris":{"android":"levelo://app?vid=909e4084-40a5-4f0f-8e3f-6120693fcf69","ios":"levelo://app?vid=909e4084-40a5-4f0f-8e3f-6120693fcf69"},"vehicle_type_id":"4","last_reported":1753245111,"current_range_meters":19600,"station_id":"ce4bh2p2rcd13ifvqdi0","pricing_plan_id":"cebpf4jnsgd1na2vs0mg"},{"bike_id":"564ecaf8-19ce-48a2-8c7a-f57d7fb67f0f","system_id":"levelo_inurba_marseille","lat":43.28074,"lon":5.39651,"is_reserved":false,"is_disabled":false,"rental_uris":{"android":"levelo://app?vid=564ecaf8-19ce-48a2-8c7a-f57d7fb67f0f","ios":"levelo://app?vid=564ecaf8-19ce-48a2-8c7a-f57d7fb67f0f"},"vehicle_type_id":"4","last_reported":1753245111,"current_range_meters":19600,"station_id":"ce4bho12rcd13ifvqh2g","pricing_plan_id":"cebpf4jnsgd1na2vs0mg"},{"bike_id":"d11f7c4a-f3d4-4eb1-8446-ea42494b3aff","system_id":"levelo_inurba_marseille","lat":43.28975,"lon":5.35634,"is_reserved":false,"is_disabled":true,"rental_uris":{"android":"levelo://app?vid=d11f7c4a-f3d4-4eb1-8446-ea42494b3aff","ios":"levelo://app?vid=d11f7c4a-f3d4-4eb1-8446-ea42494b3aff"},"vehicle_type_id":"4","last_reported":1753245111,"current_range_meters":20000,"station_id":"ce4bhb92rcd13ifvqen0","pricing_plan_id":"cebpf4jnsgd1na2vs0mg"},{"bike_id":"1ad257b5-7f83-42c1-867f-92635ff1abbf","system_id":"levelo_inurba_marseille","lat":43.22937,"lon":5.35379,"is_reserved":false,"is_disabled":false,"rental_uris":{"android":"levelo://app?vid=1ad257b5-7f83-42c1-867f-92635ff1abbf","ios":"levelo://app?vid=1ad257b5-7f83-42c1-867f-92635ff1abbf"},"vehicle_type_id":"4","last_reported":1753245111,"current_range_meters":19600,"station_id":"cpo3532slgdg3j2ikp40","pricing_plan_id":"cebpf4jnsgd1na2vs0mg"},{"bike_id":"8f27d8cb-cab0-4ad7-a6e2-98d698605d17","system_id":"levelo_inurba_marseille","lat":43.25121,"lon":5.403145,"is_reserved":false,"is_disabled":false,"rental_uris":{"android":"levelo://app?vid=8f27d8cb-cab0-4ad7-a6e2-98d698605d17","ios":"levelo://app?vid=8f27d8cb-cab0-4ad7-a6e2-98d698605d17"},"vehicle_type_id":"4","last_reported":1753245111,"current_range_meters":20000,"station_id":"ce4bhlh2rcd13ifvqgig","pricing_plan_id":"cebpf4jnsgd1na2vs0mg"},{"bike_id":"d541640d-4307-4a4f-92d6-20d7b0f0c861","system_id":"levelo_inurba_marseille","lat":43.30375,"lon":5.41931,"is_reserved":false,"is_disabled":true,"rental_uris":{"android":"levelo://app?vid=d541640d-4307-4a4f-92d6-20d7b0f0c861","ios":"levelo://app?vid=d541640d-4307-4a4f-92d6-20d7b0f0c861"},"vehicle_type_id":"4","last_reported":1753245111,"current_range_meters":20000,"station_id":"","pricing_plan_id":"cebpf4jnsgd1na2vs0mg"},{"bike_id":"5ae6ae12-29db-4b9f-b7a7-07b74f66bd7c","system_id":"levelo_inurba_marseille","lat":43.31168,"lon":5.36937,"is_reserved":false,"is_disabled":false,"rental_uris":{"android":"levelo://app?vid=5ae6ae12-29db-4b9f-b7a7-07b74f66bd7c","ios":"levelo://app?vid=5ae6ae12-29db-4b9f-b7a7-07b74f66bd7c"},"vehicle_type_id":"4","last_reported":1753245111,"current_range_meters":20000,"station_id":"","pricing_plan_id":"cebpf4jnsgd1na2vs0mg"},{"bike_id":"61cb5b9a-9cee-4d3f-8bba-365148ee2e42","system_id":"levelo_inurba_marseille","lat":43.258661,"lon":5.399051,"is_reserved":false,"is_disabled":false,"rental_uris":{"android":"levelo://app?vid=61cb5b9a-9cee-4d3f-8bba-365148ee2e42","ios":"levelo://app?vid=61cb5b9a-9cee-4d3f-8bba-365148ee2e42"},"vehicle_type_id":"4","last_reported":1753245111,"current_range_meters":20400,"station_id":"ce4bhl92rcd13ifvqghg","pricing_plan_id":"cebpf4jnsgd1na2vs0mg"},{"bike_id":"8006020a-6cfe-4131-82ca-a6c8f07671d2","system_id":"levelo_inurba_marseille","lat":43.31197,"lon":5.37718,"is_reserved":false,"is_disabled":false,"rental_uris":{"android":"levelo://app?vid=8006020a-6cfe-4131-82ca-a6c8f07671d2","ios":"levelo://app?vid=8006020a-6cfe-4131-82ca-a6c8f07671d2"},"vehicle_type_id":"4","last_reported":1753245111,"current_range_meters":20000,"station_id":"","pricing_plan_id":"cebpf4jnsgd1na2vs0mg"},{"bike_id":"32f88957-da04-4d65-b4af-1ef4fe623634","system_id":"levelo_inurba_marseille","lat":43.28349,"lon":5.38111,"is_reserved":false,"is_disabled":false,"rental_uris":{"android":"levelo://app?vid=32f88957-da04-4d65-b4af-1ef4fe623634","ios":"levelo://app?vid=32f88957-da04-4d65-b4af-1ef4fe623634"},"vehicle_type_id":"4","last_reported":1753245111,"current_range_meters":20000,"station_id":"ce4bh412rcd13ifvqdr0","pricing_plan_id":"cebpf4jnsgd1na2vs0mg"},{"bike_id":"c46a5062-f2c5-4cc3-a7c1-4794f0508a52","system_id":"levelo_inurba_marseille","lat":43.28563,"lon":5.394924,"is_reserved":false,"is_disabled":false,"rental_uris":{"android":"levelo://app?vid=c46a5062-f2c5-4cc3-a7c1-4794f0508a52","ios":"levelo://app?vid=c46a5062-f2c5-4cc3-a7c1-4794f0508a52"},"vehicle_type_id":"4","last_reported":1753245111,"current_range_meters":20000,"station_id":"ce4bh292rcd13ifvqdg0","pricing_plan_id":"cebpf4jnsgd1na2vs0mg"},{"bike_id":"6fad83f5-f695-4dd2-b740-d5709bf61b9f","system_id":"levelo_inurba_marseille","lat":43.30254,"lon":5.40031,"is_reserved":false,"is_disabled":false,"rental_uris":{"android":"levelo://app?vid=6fad83f5-f695-4dd2-b740-d5709bf61b9f","ios":"levelo://app?vid=6fad83f5-f695-4dd2-b740-d5709bf61b9f"},"vehicle_type_id":"4","last_reported":1753245111,"current_range_meters":20000,"station_id":"ce4bgvh2rcd13ifvqcs0","pricing_plan_id":"cebpf4jnsgd1na2vs0mg"},{"bike_id":"48fd2db9-ffb4-4723-8d6e-ccf553613b40","system_id":"levelo_inurba_marseille","lat":43.229276,"lon":5.35372,"is_reserved":false,"is_disabled":false,"rental_uris":{"android":"levelo://app?vid=48fd2db9-ffb4-4723-8d6e-ccf553613b40","ios":"levelo://app?vid=48fd2db9-ffb4-4723-8d6e-ccf553613b40"},"vehicle_type_id":"4","last_reported":1753245111,"current_range_meters":20000,"station_id":"cpo3532slgdg3j2ikp40","pricing_plan_id":"cebpf4jnsgd1na2vs0mg"},{"bike_id":"76c65f84-3b49-4269-890c-8259fe6ade74","system_id":"levelo_inurba_marseille","lat":43.323615,"lon":5.367566,"is_reserved":false,"is_disabled":false,"rental_uris":{"android":"levelo://app?vid=76c65f84-3b49-4269-890c-8259fe6ade74","ios":"levelo://app?vid=76c65f84-3b49-4269-890c-8259fe6ade74"},"vehicle_type_id":"4","last_reported":1753245111,"current_range_meters":20000,"station_id":"ce4bhsh2rcd13ifvqi2g","pricing_plan_id":"cebpf4jnsgd1na2vs0mg"},{"bike_id":"526326cd-2bf9-4a3e-aa3d-ff1bf59a0d42","system_id":"levelo_inurba_marseille","lat":43.217531,"lon":5.346007,"is_reserved":false,"is_disabled":false,"rental_uris":{"android":"levelo://app?vid=526326cd-2bf9-4a3e-aa3d-ff1bf59a0d42","ios":"levelo://app?vid=526326cd-2bf9-4a3e-aa3d-ff1bf59a0d42"},"vehicle_type_id":"4","last_reported":1753245111,"current_range_meters":20400,"station_id":"st_cvj6r9ubvosntc0bgbag","pricing_plan_id":"cebpf4jnsgd1na2vs0mg"},{"bike_id":"70737bad-8214-4681-8a7d-fa98042cf105","system_id":"levelo_inurba_marseille","lat":43.29052,"lon":5.39978,"is_reserved":false,"is_disabled":false,"rental_uris":{"android":"levelo://app?vid=70737bad-8214-4681-8a7d-fa98042cf105","ios":"levelo://app?vid=70737bad-8214-4681-8a7d-fa98042cf105"},"vehicle_type_id":"4","last_reported":1753245111,"current_range_meters":20400,"station_id":"ce4bh392rcd13ifvqdm0","pricing_plan_id":"cebpf4jnsgd1na2vs0mg"},{"bike_id":"750d370d-abb4-47b3-b4f7-7ef76b03801f","system_id":"levelo_inurba_marseille","lat":43.29694,"lon":5.37953,"is_reserved":false,"is_disabled":true,"rental_uris":{"android":"levelo://app?vid=750d370d-abb4-47b3-b4f7-7ef76b03801f","ios":"levelo://app?vid=750d370d-abb4-47b3-b4f7-7ef76b03801f"},"vehicle_type_id":"4","last_reported":1753245111,"current_range_meters":20400,"station_id":"","pricing_plan_id":"cebpf4jnsgd1na2vs0mg"},{"bike_id":"20586eb9-d076-4483-9da1-32bd7f971b1a","system_id":"levelo_inurba_marseille","lat":43.25861,"lon":5.41018,"is_reserved":false,"is_disabled":false,"rental_uris":{"android":"levelo://app?vid=20586eb9-d076-4483-9da1-32bd7f971b1a","ios":"levelo://app?vid=20586eb9-d076-4483-9da1-32bd7f971b1a"},"vehicle_type_id":"4","last_reported":1753245111,"current_range_meters":20400,"station_id":"ce4bhm92rcd13ifvqglg","pricing_plan_id":"cebpf4jnsgd1na2vs0mg"},{"bike_id":"63610f7f-b474-47ac-ad09-48d557ffa503","system_id":"levelo_inurba_marseille","lat":43.30247,"lon":5.40017,"is_reserved":false,"is_disabled":false,"rental_uris":{"android":"levelo://app?vid=63610f7f-b474-47ac-ad09-48d557ffa503","ios":"levelo://app?vid=63610f7f-b474-47ac-ad09-48d557ffa503"},"vehicle_type_id":"4","last_reported":1753245111,"current_range_meters":20400,"station_id":"","pricing_plan_id":"cebpf4jnsgd1na2vs0mg"},{"bike_id":"484cf550-5fb7-499b-9632-c07ac81a17fe","system_id":"levelo_inurba_marseille","lat":43.25117,"lon":5.4034,"is_reserved":false,"is_disabled":false,"rental_uris":{"android":"levelo://app?vid=484cf550-5fb7-499b-9632-c07ac81a17fe","ios":"levelo://app?vid=484cf550-5fb7-499b-9632-c07ac81a17fe"},"vehicle_type_id":"4","last_reported":1753245111,"current_range_meters":20400,"station_id":"ce4bhlh2rcd13ifvqgig","pricing_plan_id":"cebpf4jnsgd1na2vs0mg"},{"bike_id":"c677aaa6-17a8-40d0-9850-a602dd2f8807","system_id":"levelo_inurba_marseille","lat":43.300399,"lon":5.374404,"is_reserved":false,"is_disabled":false,"rental_uris":{"android":"levelo://app?vid=c677aaa6-17a8-40d0-9850-a602dd2f8807","ios":"levelo://app?vid=c677aaa6-17a8-40d0-9850-a602dd2f8807"},"vehicle_type_id":"4","last_reported":1753245111,"current_range_meters":20400,"station_id":"","pricing_plan_id":"cebpf4jnsgd1na2vs0mg"},{"bike_id":"0c1d3086-fdd0-4e75-b501-818df37c5fbc","system_id":"levelo_inurba_marseille","lat":43.291927,"lon":5.393218,"is_reserved":false,"is_disabled":false,"rental_uris":{"android":"levelo://app?vid=0c1d3086-fdd0-4e75-b501-818df37c5fbc","ios":"levelo://app?vid=0c1d3086-fdd0-4e75-b501-818df37c5fbc"},"vehicle_type_id":"4","last_reported":1753245111,"current_range_meters":20400,"station_id":"ce4bh192rcd13ifvqdd0","pricing_plan_id":"cebpf4jnsgd1na2vs0mg"},{"bike_id":"415a9a00-30c4-41cd-a298-a271ca36ac3a","system_id":"levelo_inurba_marseille","lat":43.307316,"lon":5.42434,"is_reserved":false,"is_disabled":false,"rental_uris":{"android":"levelo://app?vid=415a9a00-30c4-41cd-a298-a271ca36ac3a","ios":"levelo://app?vid=415a9a00-30c4-41cd-a298-a271ca36ac3a"},"vehicle_type_id":"4","last_reported":1753245111,"current_range_meters":20800,"station_id":"st_cvj6ca6bvosntc0bfgr0","pricing_plan_id":"cebpf4jnsgd1na2vs0mg"},{"bike_id":"4583b0b6-40d0-4abf-81ce-fefbb7059ebd","system_id":"levelo_inurba_marseille","lat":43.224976,"lon":5.347846,"is_reserved":false,"is_disabled":true,"rental_uris":{"android":"levelo://app?vid=4583b0b6-40d0-4abf-81ce-fefbb7059ebd","ios":"levelo://app?vid=4583b0b6-40d0-4abf-81ce-fefbb7059ebd"},"vehicle_type_id":"4","last_reported":1753245111,"current_range_meters":20800,"station_id":"st_cvj5dfep6f1abm77gieg","pricing_plan_id":"cebpf4jnsgd1na2vs0mg"},{"bike_id":"25f29a2b-d614-40f2-99bd-ef9ec74724d4","system_id":"levelo_inurba_marseille","lat":43.2998,"lon":5.384865,"is_reserved":false,"is_disabled":true,"rental_uris":{"android":"levelo://app?vid=25f29a2b-d614-40f2-99bd-ef9ec74724d4","ios":"levelo://app?vid=25f29a2b-d614-40f2-99bd-ef9ec74724d4"},"vehicle_type_id":"4","last_reported":1753245111,"current_range_meters":21600,"station_id":"ce4bgj92rcd13ifvqbd0","pricing_plan_id":"cebpf4jnsgd1na2vs0mg"},{"bike_id":"1575ae10-d836-4d6e-b102-7f31afc0a7cf","system_id":"levelo_inurba_marseille","lat":43.2344,"lon":5.41257,"is_reserved":false,"is_disabled":false,"rental_uris":{"android":"levelo://app?vid=1575ae10-d836-4d6e-b102-7f31afc0a7cf","ios":"levelo://app?vid=1575ae10-d836-4d6e-b102-7f31afc0a7cf"},"vehicle_type_id":"4","last_reported":1753245111,"current_range_meters":21600,"station_id":"","pricing_plan_id":"cebpf4jnsgd1na2vs0mg"},{"bike_id":"f7f07796-c7c9-4a74-80e9-fb85744448b8","system_id":"levelo_inurba_marseille","lat":43.229264,"lon":5.353911,"is_reserved":false,"is_disabled":false,"rental_uris":{"android":"levelo://app?vid=f7f07796-c7c9-4a74-80e9-fb85744448b8","ios":"levelo://app?vid=f7f07796-c7c9-4a74-80e9-fb85744448b8"},"vehicle_type_id":"4","last_reported":1753245111,"current_range_meters":20800,"station_id":"cpo3532slgdg3j2ikp40","pricing_plan_id":"cebpf4jnsgd1na2vs0mg"},{"bike_id":"35a86048-76dd-4de0-afb2-7da8772fad44","system_id":"levelo_inurba_marseille","lat":43.215296,"lon":5.347306,"is_reserved":false,"is_disabled":false,"rental_uris":{"android":"levelo://app?vid=35a86048-76dd-4de0-afb2-7da8772fad44","ios":"levelo://app?vid=35a86048-76dd-4de0-afb2-7da8772fad44"},"vehicle_type_id":"4","last_reported":1753245111,"current_range_meters":21600,"station_id":"","pricing_plan_id":"cebpf4jnsgd1na2vs0mg"},{"bike_id":"154842fb-66cb-4d03-b336-ad8705751d21","system_id":"levelo_inurba_marseille","lat":43.279434,"lon":5.410515,"is_reserved":false,"is_disabled":false,"rental_uris":{"android":"levelo://app?vid=154842fb-66cb-4d03-b336-ad8705751d21","ios":"levelo://app?vid=154842fb-66cb-4d03-b336-ad8705751d21"},"vehicle_type_id":"4","last_reported":1753245111,"current_range_meters":20800,"station_id":"ce4bhnp2rcd13ifvqh0g","pricing_plan_id":"cebpf4jnsgd1na2vs0mg"},{"bike_id":"2fd5d6b6-12b2-46ba-8fc6-151aaddc3597","system_id":"levelo_inurba_marseille","lat":43.31723,"lon":5.37776,"is_reserved":false,"is_disabled":false,"rental_uris":{"android":"levelo://app?vid=2fd5d6b6-12b2-46ba-8fc6-151aaddc3597","ios":"levelo://app?vid=2fd5d6b6-12b2-46ba-8fc6-151aaddc3597"},"vehicle_type_id":"4","last_reported":1753245111,"current_range_meters":21600,"station_id":"ce4bgth2rcd13ifvqch0","pricing_plan_id":"cebpf4jnsgd1na2vs0mg"},{"bike_id":"4085adce-cb5f-41e4-b05b-0e90b8a7c82a","system_id":"levelo_inurba_marseille","lat":43.3045,"lon":5.37908,"is_reserved":false,"is_disabled":false,"rental_uris":{"android":"levelo://app?vid=4085adce-cb5f-41e4-b05b-0e90b8a7c82a","ios":"levelo://app?vid=4085adce-cb5f-41e4-b05b-0e90b8a7c82a"},"vehicle_type_id":"4","last_reported":1753245111,"current_range_meters":20800,"station_id":"ce4bgup2rcd13ifvqcn0","pricing_plan_id":"cebpf4jnsgd1na2vs0mg"},{"bike_id":"f8558228-ce5d-46a8-bed1-5ba0ba38cb2d","system_id":"levelo_inurba_marseille","lat":43.26232,"lon":5.40462,"is_reserved":false,"is_disabled":false,"rental_uris":{"android":"levelo://app?vid=f8558228-ce5d-46a8-bed1-5ba0ba38cb2d","ios":"levelo://app?vid=f8558228-ce5d-46a8-bed1-5ba0ba38cb2d"},"vehicle_type_id":"4","last_reported":1753245111,"current_range_meters":21600,"station_id":"ce4bhmh2rcd13ifvqgmg","pricing_plan_id":"cebpf4jnsgd1na2vs0mg"},{"bike_id":"54312187-fd04-4c5a-bcf2-b0f5fea61e66","system_id":"levelo_inurba_marseille","lat":43.292728,"lon":5.384404,"is_reserved":false,"is_disabled":true,"rental_uris":{"android":"levelo://app?vid=54312187-fd04-4c5a-bcf2-b0f5fea61e66","ios":"levelo://app?vid=54312187-fd04-4c5a-bcf2-b0f5fea61e66"},"vehicle_type_id":"4","last_reported":1753245111,"current_range_meters":20800,"station_id":"ce4bh692rcd13ifvqea0","pricing_plan_id":"cebpf4jnsgd1na2vs0mg"},{"bike_id":"b9591ce8-84dd-48e0-89cd-3a34aa613f54","system_id":"levelo_inurba_marseille","lat":43.30158,"lon":5.38081,"is_reserved":false,"is_disabled":false,"rental_uris":{"android":"levelo://app?vid=b9591ce8-84dd-48e0-89cd-3a34aa613f54","ios":"levelo://app?vid=b9591ce8-84dd-48e0-89cd-3a34aa613f54"},"vehicle_type_id":"4","last_reported":1753245111,"current_range_meters":21600,"station_id":"ce4bgjp2rcd13ifvqbh0","pricing_plan_id":"cebpf4jnsgd1na2vs0mg"},{"bike_id":"3e9c80f5-0cac-44f6-bb73-eb0fbd3ebedb","system_id":"levelo_inurba_marseille","lat":43.297564,"lon":5.369226,"is_reserved":false,"is_disabled":false,"rental_uris":{"android":"levelo://app?vid=3e9c80f5-0cac-44f6-bb73-eb0fbd3ebedb","ios":"levelo://app?vid=3e9c80f5-0cac-44f6-bb73-eb0fbd3ebedb"},"vehicle_type_id":"4","last_reported":1753245111,"current_range_meters":21600,"station_id":"","pricing_plan_id":"cebpf4jnsgd1na2vs0mg"},{"bike_id":"cf55a72d-f9af-447c-8828-9475ada91903","system_id":"levelo_inurba_marseille","lat":43.27958,"lon":5.41027,"is_reserved":false,"is_disabled":false,"rental_uris":{"android":"levelo://app?vid=cf55a72d-f9af-447c-8828-9475ada91903","ios":"levelo://app?vid=cf55a72d-f9af-447c-8828-9475ada91903"},"vehicle_type_id":"4","last_reported":1753245111,"current_range_meters":21600,"station_id":"ce4bhnp2rcd13ifvqh0g","pricing_plan_id":"cebpf4jnsgd1na2vs0mg"},{"bike_id":"4e9b388e-d665-46d2-bda6-c27ea05258da","system_id":"levelo_inurba_marseille","lat":43.29036,"lon":5.39965,"is_reserved":false,"is_disabled":false,"rental_uris":{"android":"levelo://app?vid=4e9b388e-d665-46d2-bda6-c27ea05258da","ios":"levelo://app?vid=4e9b388e-d665-46d2-bda6-c27ea05258da"},"vehicle_type_id":"4","last_reported":1753245111,"current_range_meters":21600,"station_id":"ce4bh392rcd13ifvqdm0","pricing_plan_id":"cebpf4jnsgd1na2vs0mg"},{"bike_id":"b0438b35-39f1-4c63-8024-a6a0a75f1e13","system_id":"levelo_inurba_marseille","lat":43.30035,"lon":5.37873,"is_reserved":false,"is_disabled":false,"rental_uris":{"android":"levelo://app?vid=b0438b35-39f1-4c63-8024-a6a0a75f1e13","ios":"levelo://app?vid=b0438b35-39f1-4c63-8024-a6a0a75f1e13"},"vehicle_type_id":"4","last_reported":1753245111,"current_range_meters":21600,"station_id":"","pricing_plan_id":"cebpf4jnsgd1na2vs0mg"},{"bike_id":"f60d5d78-7034-4a6a-b5b5-8e06fcccd910","system_id":"levelo_inurba_marseille","lat":43.292907,"lon":5.388983,"is_reserved":false,"is_disabled":false,"rental_uris":{"android":"levelo://app?vid=f60d5d78-7034-4a6a-b5b5-8e06fcccd910","ios":"levelo://app?vid=f60d5d78-7034-4a6a-b5b5-8e06fcccd910"},"vehicle_type_id":"4","last_reported":1753245111,"current_range_meters":21600,"station_id":"","pricing_plan_id":"cebpf4jnsgd1na2vs0mg"},{"bike_id":"76d76185-a3b0-49f2-9609-098534e3832d","system_id":"levelo_inurba_marseille","lat":43.24785,"lon":5.37449,"is_reserved":false,"is_disabled":false,"rental_uris":{"android":"levelo://app?vid=76d76185-a3b0-49f2-9609-098534e3832d","ios":"levelo://app?vid=76d76185-a3b0-49f2-9609-098534e3832d"},"vehicle_type_id":"4","last_reported":1753245111,"current_range_meters":21600,"station_id":"ce4bhgh2rcd13ifvqfb0","pricing_plan_id":"cebpf4jnsgd1na2vs0mg"},{"bike_id":"ee633dba-7c57-42d5-9d83-da89bc246366","system_id":"levelo_inurba_marseille","lat":43.302386,"lon":5.4006,"is_reserved":false,"is_disabled":true,"rental_uris":{"android":"levelo://app?vid=ee633dba-7c57-42d5-9d83-da89bc246366","ios":"levelo://app?vid=ee633dba-7c57-42d5-9d83-da89bc246366"},"vehicle_type_id":"4","last_reported":1753245111,"current_range_meters":22000,"station_id":"ce4bgvh2rcd13ifvqcs0","pricing_plan_id":"cebpf4jnsgd1na2vs0mg"},{"bike_id":"0985ebdd-1ac7-4354-a727-661dbd7b083a","system_id":"levelo_inurba_marseille","lat":43.29515,"lon":5.39391,"is_reserved":false,"is_disabled":false,"rental_uris":{"android":"levelo://app?vid=0985ebdd-1ac7-4354-a727-661dbd7b083a","ios":"levelo://app?vid=0985ebdd-1ac7-4354-a727-661dbd7b083a"},"vehicle_type_id":"4","last_reported":1753245111,"current_range_meters":22000,"station_id":"ce4bh292rcd13ifvqdf0","pricing_plan_id":"cebpf4jnsgd1na2vs0mg"},{"bike_id":"e6270263-062b-49b3-8c95-f5d41a06e7ea","system_id":"levelo_inurba_marseille","lat":43.30924,"lon":5.40132,"is_reserved":false,"is_disabled":false,"rental_uris":{"android":"levelo://app?vid=e6270263-062b-49b3-8c95-f5d41a06e7ea","ios":"levelo://app?vid=e6270263-062b-49b3-8c95-f5d41a06e7ea"},"vehicle_type_id":"4","last_reported":1753245111,"current_range_meters":22400,"station_id":"ce4bgvp2rcd13ifvqct0","pricing_plan_id":"cebpf4jnsgd1na2vs0mg"},