{"last_updated":1751480143,"ttl":60,"version":"2.2","data":{"bikes":[{"bike_id":"3da29fb8-fc97-44c6-b9ac-31dd456b2fd4","system_id":"levelo_inurba_marseille","lat":43.33771,"lon":5.37424,"is_reserved":false,"is_disabled":true,"rental_uris":{"android":"levelo://app?vid=3da29fb8-fc97-44c6-b9ac-31dd456b2fd4","ios":"levelo://app?vid=3da29fb8-fc97-44c6-b9ac-31dd456b2fd4"},"vehicle_type_id":"4","last_reported":1751480143,"current_range_meters":0,"station_id":"","pricing_plan_id":"cebpf4jnsgd1na2vs0mg"},{"bike_id":"01861ad8-a8d7-4be6-816e-651927c87584","system_id":"levelo_inurba_marseille","lat":43.33751,"lon":5.37456,"is_reserved":false,"is_disabled":true,"rental_uris":{"android":"levelo://app?vid=01861ad8-a8d7-4be6-816e-651927c87584","ios":"levelo://app?vid=01861ad8-a8d7-4be6-816e-651927c87584"},"vehicle_type_id":"4","last_reported":1751480143,"current_range_meters":0,"station_id":"","pricing_plan_id":"cebpf4jnsgd1na2vs0mg"},{"bike_id":"371877a1-9494-4af8-8e6e-405e7c47ef43","system_id":"levelo_inurba_marseille","lat":43.29322,"lon":5.40689,"is_reserved":false,"is_disabled":true,"rental_uris":{"android":"levelo://app?vid=371877a1-9494-4af8-8e6e-405e7c47ef43","ios":"levelo://app?vid=371877a1-9494-4af8-8e6e-405e7c47ef43"},"vehicle_type_id":"4","last_reported":1751480143,"current_range_meters":0,"station_id":"","pricing_plan_id":"cebpf4jnsgd1na2vs0mg"},{"bike_id":"b042fbc9-4b04-401c-85ac-8fadab1bf02a","system_id":"levelo_inurba_marseille","lat":43.32628,"lon":5.37516,"is_reserved":false,"is_disabled":true,"rental_uris":{"android":"levelo://app?vid=b042fbc9-4b04-401c-85ac-8fadab1bf02a","ios":"levelo://app?vid=b042fbc9-4b04-401c-85ac-8fadab1bf02a"},"vehicle_type_id":"4","last_reported":1751480143,"current_range_meters":0,"station_id":"","pricing_plan_id":"cebpf4jnsgd1na2vs0mg"},{"bike_id":"88ba2eb8-6abc-42f0-a2b7-fafab863863b","system_id":"levelo_inurba_marseille","lat":43.26072,"lon":5.37356,"is_reserved":false,"is_disabled":true,"rental_uris":{"android":"levelo://app?vid=88ba2eb8-6abc-42f0-a2b7-fafab863863b","ios":"levelo://app?vid=88ba2eb8-6abc-42f0-a2b7-fafab863863b"},"vehicle_type_id":"4","last_reported":1751480143,"current_range_meters":0,"station_id":"","pricing_plan_id":"cebpf4jnsgd1na2vs0mg"},{"bike_id":"ee4ce927-46b2-4383-a48f-16206651028d","system_id":"levelo_inurba_marseille","lat":43.2481,"lon":5.37457,"is_reserved":false,"is_disabled":true,"rental_uris":{"android":"levelo://app?vid=ee4ce927-46b2-4383-a48f-16206651028d","ios":"levelo://app?vid=ee4ce927-46b2-4383-a48f-16206651028d"},"vehicle_type_id":"4","last_reported":1751480143,"current_range_meters":0,"station_id":"ce4bhgh2rcd13ifvqfb0","pricing_plan_id":"cebpf4jnsgd1na2vs0mg"},{"bike_id":"242fcd0a-a6f3-401b-bbf9-949b65341e86","system_id":"levelo_inurba_marseille","lat":43.2732,"lon":5.39073,"is_reserved":false,"is_disabled":true,"rental_uris":{"android":"levelo://app?vid=242fcd0a-a6f3-401b-bbf9-949b65341e86","ios":"levelo://app?vid=242fcd0a-a6f3-401b-bbf9-949b65341e86"},"vehicle_type_id":"4","last_reported":1751480143,"current_range_meters":0,"station_id":"ce4bhgp2rcd13ifvqfe0","pricing_plan_id":"cebpf4jnsgd1na2vs0mg"},{"bike_id":"5600eaac-0272-4cb8-bed8-6ff327ed7bed","system_id":"levelo_inurba_marseille","lat":43.243635,"lon":5.370237,"is_reserved":false,"is_disabled":true,"rental_uris":{"android":"levelo://app?vid=5600eaac-0272-4cb8-bed8-6ff327ed7bed","ios":"levelo://app?vid=5600eaac-0272-4cb8-bed8-6ff327ed7bed"},"vehicle_type_id":"4","last_reported":1751480143,"current_range_meters":0,"station_id":"ce4bhh12rcd13ifvqff0","pricing_plan_id":"cebpf4jnsgd1na2vs0mg"},{"bike_id":"94e1c86a-8784-40e2-a9cd-6ff15882ff44","system_id":"levelo_inurba_marseille","lat":43.24664,"lon":5.3816,"is_reserved":false,"is_disabled":true,"rental_uris":{"android":"levelo://app?vid=94e1c86a-8784-40e2-a9cd-6ff15882ff44","ios":"levelo://app?vid=94e1c86a-8784-40e2-a9cd-6ff15882ff44"},"vehicle_type_id":"4","last_reported":1751480143,"current_range_meters":0,"station_id":"ce4bhih2rcd13ifvqfr0","pricing_plan_id":"cebpf4jnsgd1na2vs0mg"},{"bike_id":"b461d510-ea90-47d0-a5dc-4dc822e8b37c","system_id":"levelo_inurba_marseille","lat":43.24188,"lon":5.39721,"is_reserved":false,"is_disabled":true,"rental_uris":{"android":"levelo://app?vid=b461d510-ea90-47d0-a5dc-4dc822e8b37c","ios":"levelo://app?vid=b461d510-ea90-47d0-a5dc-4dc822e8b37c"},"vehicle_type_id":"4","last_reported":1751480143,"current_range_meters":0,"station_id":"ce4bhn12rcd13ifvqgpg","pricing_plan_id":"cebpf4jnsgd1na2vs0mg"},{"bike_id":"1e9d6564-4a50-4062-b781-0253c998861f","system_id":"levelo_inurba_marseille","lat":43.27987,"lon":5.41645,"is_reserved":false,"is_disabled":true,"rental_uris":{"android":"levelo://app?vid=1e9d6564-4a50-4062-b781-0253c998861f","ios":"levelo://app?vid=1e9d6564-4a50-4062-b781-0253c998861f"},"vehicle_type_id":"4","last_reported":1751480143,"current_range_meters":0,"station_id":"ce4bho12rcd13ifvqh1g","pricing_plan_id":"cebpf4jnsgd1na2vs0mg"},{"bike_id":"be4771a0-f822-40f0-a95c-2aaca1d3fb3c","system_id":"levelo_inurba_marseille","lat":43.21758,"lon":5.34601,"is_reserved":false,"is_disabled":true,"rental_uris":{"android":"levelo://app?vid=be4771a0-f822-40f0-a95c-2aaca1d3fb3c","ios":"levelo://app?vid=be4771a0-f822-40f0-a95c-2aaca1d3fb3c"},"vehicle_type_id":"4","last_reported":1751480143,"current_range_meters":0,"station_id":"st_cvj6r9ubvosntc0bgbag","pricing_plan_id":"cebpf4jnsgd1na2vs0mg"},{"bike_id":"15ba79de-56ea-4304-b28f-42fb270cf26f","system_id":"levelo_inurba_marseille","lat":43.29932,"lon":5.36549,"is_reserved":false,"is_disabled":true,"rental_uris":{"android":"levelo://app?vid=15ba79de-56ea-4304-b28f-42fb270cf26f","ios":"levelo://app?vid=15ba79de-56ea-4304-b28f-42fb270cf26f"},"vehicle_type_id":"4","last_reported":1751480143,"current_range_meters":400,"station_id":"ce4bgm92rcd13ifvqbr0","pricing_plan_id":"cebpf4jnsgd1na2vs0mg"},{"bike_id":"c3bb962c-438e-40e8-98de-6cf9b5e2ea91","system_id":"levelo_inurba_marseille","lat":43.25507,"lon":5.37649,"is_reserved":false,"is_disabled":true,"rental_uris":{"android":"levelo://app?vid=c3bb962c-438e-40e8-98de-6cf9b5e2ea91","ios":"levelo://app?vid=c3bb962c-438e-40e8-98de-6cf9b5e2ea91"},"vehicle_type_id":"4","last_reported":1751480143,"current_range_meters":400,"station_id":"ce4bhh12rcd13ifvqff0","pricing_plan_id":"cebpf4jnsgd1na2vs0mg"},{"bike_id":"9551ede8-26ed-4345-862e-6e4c72c8c026","system_id":"levelo_inurba_marseille","lat":43.31243,"lon":5.36861,"is_reserved":false,"is_disabled":true,"rental_uris":{"android":"levelo://app?vid=9551ede8-26ed-4345-862e-6e4c72c8c026","ios":"levelo://app?vid=9551ede8-26ed-4345-862e-6e4c72c8c026"},"vehicle_type_id":"4","last_reported":1751480143,"current_range_meters":800,"station_id":"ce4bgl92rcd13ifvqbq0","pricing_plan_id":"cebpf4jnsgd1na2vs0mg"},{"bike_id":"903f9470-ab34-4334-a763-be4df836a2fb","system_id":"levelo_inurba_marseille","lat":43.31702,"lon":5.40456,"is_reserved":false,"is_disabled":true,"rental_uris":{"android":"levelo://app?vid=903f9470-ab34-4334-a763-be4df836a2fb","ios":"levelo://app?vid=903f9470-ab34-4334-a763-be4df836a2fb"},"vehicle_type_id":"4","last_reported":1751480143,"current_range_meters":800,"station_id":"ce4bh012rcd13ifvqd00","pricing_plan_id":"cebpf4jnsgd1na2vs0mg"},{"bike_id":"a8234182-d0bd-4b0a-b5ee-88272f9409a3","system_id":"levelo_inurba_marseille","lat":43.28265,"lon":5.35062,"is_reserved":false,"is_disabled":true,"rental_uris":{"android":"levelo://app?vid=a8234182-d0bd-4b0a-b5ee-88272f9409a3","ios":"levelo://app?vid=a8234182-d0bd-4b0a-b5ee-88272f9409a3"},"vehicle_type_id":"4","last_reported":1751480143,"current_range_meters":800,"station_id":"ce4bhbp2rcd13ifvqerg","pricing_plan_id":"cebpf4jnsgd1na2vs0mg"},{"bike_id":"1878dec1-4df1-44a3-9e77-ee9b31d115ba","system_id":"levelo_inurba_marseille","lat":43.26208,"lon":5.37441,"is_reserved":false,"is_disabled":true,"rental_uris":{"android":"levelo://app?vid=1878dec1-4df1-44a3-9e77-ee9b31d115ba","ios":"levelo://app?vid=1878dec1-4df1-44a3-9e77-ee9b31d115ba"},"vehicle_type_id":"4","last_reported":1751480143,"current_range_meters":800,"station_id":"ce4bhgp2rcd13ifvqfc0","pricing_plan_id":"cebpf4jnsgd1na2vs0mg"},{"bike_id":"6e5b5a4d-1ee5-4068-9613-fb44ab4d8a9a","system_id":"levelo_inurba_marseille","lat":43.34881,"lon":5.34688,"is_reserved":false,"is_disabled":true,"rental_uris":{"android":"levelo://app?vid=6e5b5a4d-1ee5-4068-9613-fb44ab4d8a9a","ios":"levelo://app?vid=6e5b5a4d-1ee5-4068-9613-fb44ab4d8a9a"},"vehicle_type_id":"4","last_reported":1751480143,"current_range_meters":1200,"station_id":"","pricing_plan_id":"cebpf4jnsgd1na2vs0mg"},{"bike_id":"b0c9b086-7429-41e8-bb99-9ec1bc3b761f","system_id":"levelo_inurba_marseille","lat":43.28935,"lon":5.36634,"is_reserved":false,"is_disabled":true,"rental_uris":{"android":"levelo://app?vid=b0c9b086-7429-41e8-bb99-9ec1bc3b761f","ios":"levelo://app?vid=b0c9b086-7429-41e8-bb99-9ec1bc3b761f"},"vehicle_type_id":"4","last_reported":1751480143,"current_range_meters":1200,"station_id":"ce4bhap2rcd13ifvqek0","pricing_plan_id":"cebpf4jnsgd1na2vs0mg"},{"bike_id":"06641c53-199b-49c7-946b-578e50d9fc3b","system_id":"levelo_inurba_marseille","lat":43.282654,"lon":5.350563,"is_reserved":false,"is_disabled":false,"rental_uris":{"android":"levelo://app?vid=06641c53-199b-49c7-946b-578e50d9fc3b","ios":"levelo://app?vid=06641c53-199b-49c7-946b-578e50d9fc3b"},"vehicle_type_id":"4","last_reported":1751480143,"current_range_meters":1200,"station_id":"ce4bhbp2rcd13ifvqerg","pricing_plan_id":"cebpf4jnsgd1na2vs0mg"},{"bike_id":"ef31aa2e-3080-490c-8dc4-827af94abd2e","system_id":"levelo_inurba_marseille","lat":43.2407,"lon":5.37758,"is_reserved":false,"is_disabled":true,"rental_uris":{"android":"levelo://app?vid=ef31aa2e-3080-490c-8dc4-827af94abd2e","ios":"levelo://app?vid=ef31aa2e-3080-490c-8dc4-827af94abd2e"},"vehicle_type_id":"4","last_reported":1751480143,"current_range_meters":1200,"station_id":"ce4bhnp2rcd13ifvqgvg","pricing_plan_id":"cebpf4jnsgd1na2vs0mg"},{"bike_id":"348fef20-45ce-4ac6-8b62-a26269241a99","system_id":"levelo_inurba_marseille","lat":43.3042,"lon":5.41278,"is_reserved":false,"is_disabled":true,"rental_uris":{"android":"levelo://app?vid=348fef20-45ce-4ac6-8b62-a26269241a99","ios":"levelo://app?vid=348fef20-45ce-4ac6-8b62-a26269241a99"},"vehicle_type_id":"4","last_reported":1751480143,"current_range_meters":1200,"station_id":"ce4bhop2rcd13ifvqh8g","pricing_plan_id":"cebpf4jnsgd1na2vs0mg"},{"bike_id":"ba55cbd1-3d76-410a-8d92-dc8b03b9920b","system_id":"levelo_inurba_marseille","lat":43.295343,"lon":5.385415,"is_reserved":false,"is_disabled":true,"rental_uris":{"android":"levelo://app?vid=ba55cbd1-3d76-410a-8d92-dc8b03b9920b","ios":"levelo://app?vid=ba55cbd1-3d76-410a-8d92-dc8b03b9920b"},"vehicle_type_id":"4","last_reported":1751480143,"current_range_meters":1600,"station_id":"ce4bgih2rcd13ifvqba0","pricing_plan_id":"cebpf4jnsgd1na2vs0mg"},{"bike_id":"b0be86f5-fbad-4aaa-aa5d-894c2a14384c","system_id":"levelo_inurba_marseille","lat":43.29011,"lon":5.356,"is_reserved":false,"is_disabled":true,"rental_uris":{"android":"levelo://app?vid=b0be86f5-fbad-4aaa-aa5d-894c2a14384c","ios":"levelo://app?vid=b0be86f5-fbad-4aaa-aa5d-894c2a14384c"},"vehicle_type_id":"4","last_reported":1751480143,"current_range_meters":1600,"station_id":"ce4bhb92rcd13ifvqen0","pricing_plan_id":"cebpf4jnsgd1na2vs0mg"},{"bike_id":"ad2d91ed-f0cd-44bf-ad54-0d77f7a7c7b4","system_id":"levelo_inurba_marseille","lat":43.26225,"lon":5.40449,"is_reserved":false,"is_disabled":true,"rental_uris":{"android":"levelo://app?vid=ad2d91ed-f0cd-44bf-ad54-0d77f7a7c7b4","ios":"levelo://app?vid=ad2d91ed-f0cd-44bf-ad54-0d77f7a7c7b4"},"vehicle_type_id":"4","last_reported":1751480143,"current_range_meters":1600,"station_id":"ce4bhmh2rcd13ifvqgmg","pricing_plan_id":"cebpf4jnsgd1na2vs0mg"},{"bike_id":"71a630b6-91c1-4f9c-a554-6477fa26b9d3","system_id":"levelo_inurba_marseille","lat":43.32367,"lon":5.38882,"is_reserved":false,"is_disabled":true,"rental_uris":{"android":"levelo://app?vid=71a630b6-91c1-4f9c-a554-6477fa26b9d3","ios":"levelo://app?vid=71a630b6-91c1-4f9c-a554-6477fa26b9d3"},"vehicle_type_id":"4","last_reported":1751480143,"current_range_meters":1600,"station_id":"ce4bhqp2rcd13ifvqhog","pricing_plan_id":"cebpf4jnsgd1na2vs0mg"},{"bike_id":"83097cd5-2f78-42e4-9a71-6b8644283f1a","system_id":"levelo_inurba_marseille","lat":43.30309,"lon":5.39209,"is_reserved":false,"is_disabled":false,"rental_uris":{"android":"levelo://app?vid=83097cd5-2f78-42e4-9a71-6b8644283f1a","ios":"levelo://app?vid=83097cd5-2f78-42e4-9a71-6b8644283f1a"},"vehicle_type_id":"4","last_reported":1751480143,"current_range_meters":2000,"station_id":"ce4bgkh2rcd13ifvqbk0","pricing_plan_id":"cebpf4jnsgd1na2vs0mg"},{"bike_id":"fa257842-8015-41c5-9f95-a7f146f893a4","system_id":"levelo_inurba_marseille","lat":43.31705,"lon":5.40448,"is_reserved":false,"is_disabled":true,"rental_uris":{"android":"levelo://app?vid=fa257842-8015-41c5-9f95-a7f146f893a4","ios":"levelo://app?vid=fa257842-8015-41c5-9f95-a7f146f893a4"},"vehicle_type_id":"4","last_reported":1751480143,"current_range_meters":2000,"station_id":"ce4bh012rcd13ifvqd00","pricing_plan_id":"cebpf4jnsgd1na2vs0mg"},{"bike_id":"53e5e5e1-d679-4615-877b-dd1c3e3bba25","system_id":"levelo_inurba_marseille","lat":43.29631,"lon":5.40596,"is_reserved":false,"is_disabled":false,"rental_uris":{"android":"levelo://app?vid=53e5e5e1-d679-4615-877b-dd1c3e3bba25","ios":"levelo://app?vid=53e5e5e1-d679-4615-877b-dd1c3e3bba25"},"vehicle_type_id":"4","last_reported":1751480143,"current_range_meters":2000,"station_id":"ce4bh0h2rcd13ifvqd60","pricing_plan_id":"cebpf4jnsgd1na2vs0mg"},{"bike_id":"6205e282-480f-4d44-9d12-0d9ee9a61fe8","system_id":"levelo_inurba_marseille","lat":43.2835,"lon":5.38104,"is_reserved":false,"is_disabled":false,"rental_uris":{"android":"levelo://app?vid=6205e282-480f-4d44-9d12-0d9ee9a61fe8","ios":"levelo://app?vid=6205e282-480f-4d44-9d12-0d9ee9a61fe8"},"vehicle_type_id":"4","last_reported":1751480143,"current_range_meters":2000,"station_id":"ce4bh412rcd13ifvqdr0","pricing_plan_id":"cebpf4jnsgd1na2vs0mg"},{"bike_id":"a6cc733e-d92a-48d8-b906-3ea68be4ec55","system_id":"levelo_inurba_marseille","lat":43.24401,"lon":5.37047,"is_reserved":false,"is_disabled":true,"rental_uris":{"android":"levelo://app?vid=a6cc733e-d92a-48d8-b906-3ea68be4ec55","ios":"levelo://app?vid=a6cc733e-d92a-48d8-b906-3ea68be4ec55"},"vehicle_type_id":"4","last_reported":1751480143,"current_range_meters":2000,"station_id":"ce4bhhh2rcd13ifvqfk0","pricing_plan_id":"cebpf4jnsgd1na2vs0mg"},{"bike_id":"5293089d-82a0-4fcb-b687-6d274807de3e","system_id":"levelo_inurba_marseille","lat":43.23197,"lon":5.3555,"is_reserved":false,"is_disabled":true,"rental_uris":{"android":"levelo://app?vid=5293089d-82a0-4fcb-b687-6d274807de3e","ios":"levelo://app?vid=5293089d-82a0-4fcb-b687-6d274807de3e"},"vehicle_type_id":"4","last_reported":1751480143,"current_range_meters":2000,"station_id":"ce4bhu92rcd13ifvqi70","pricing_plan_id":"cebpf4jnsgd1na2vs0mg"},{"bike_id":"b494622a-0eee-488e-b915-52859869015e","system_id":"levelo_inurba_marseille","lat":43.282654,"lon":5.350553,"is_reserved":false,"is_disabled":false,"rental_uris":{"android":"levelo://app?vid=b494622a-0eee-488e-b915-52859869015e","ios":"levelo://app?vid=b494622a-0eee-488e-b915-52859869015e"},"vehicle_type_id":"4","last_reported":1751480143,"current_range_meters":2800,"station_id":"ce4bhbp2rcd13ifvqerg","pricing_plan_id":"cebpf4jnsgd1na2vs0mg"},{"bike_id":"1bf6f0fc-44a0-452f-aa52-1865ef6f528c","system_id":"levelo_inurba_marseille","lat":43.23211,"lon":5.35545,"is_reserved":false,"is_disabled":false,"rental_uris":{"android":"levelo://app?vid=1bf6f0fc-44a0-452f-aa52-1865ef6f528c","ios":"levelo://app?vid=1bf6f0fc-44a0-452f-aa52-1865ef6f528c"},"vehicle_type_id":"4","last_reported":1751480143,"current_range_meters":2800,"station_id":"ce4bhu92rcd13ifvqi70","pricing_plan_id":"cebpf4jnsgd1na2vs0mg"},{"bike_id":"38fa424f-21fe-4062-87e3-361286b1dba8","system_id":"levelo_inurba_marseille","lat":43.27601,"lon":5.3611,"is_reserved":false,"is_disabled":false,"rental_uris":{"android":"levelo://app?vid=38fa424f-21fe-4062-87e3-361286b1dba8","ios":"levelo://app?vid=38fa424f-21fe-4062-87e3-361286b1dba8"},"vehicle_type_id":"4","last_reported":1751480143,"current_range_meters":3200,"station_id":"ce4bgj92rcd13ifvqbe0","pricing_plan_id":"cebpf4jnsgd1na2vs0mg"},{"bike_id":"f7fa9754-76cc-4ce7-8c53-c368291b7765","system_id":"levelo_inurba_marseille","lat":43.3081,"lon":5.38137,"is_reserved":false,"is_disabled":false,"rental_uris":{"android":"levelo://app?vid=f7fa9754-76cc-4ce7-8c53-c368291b7765","ios":"levelo://app?vid=f7fa9754-76cc-4ce7-8c53-c368291b7765"},"vehicle_type_id":"4","last_reported":1751480143,"current_range_meters":3200,"station_id":"ce4bgt12rcd13ifvqce0","pricing_plan_id":"cebpf4jnsgd1na2vs0mg"},{"bike_id":"d1ad9242-1be6-4578-bf4f-f0baa45f51ca","system_id":"levelo_inurba_marseille","lat":43.27367,"lon":5.36238,"is_reserved":false,"is_disabled":false,"rental_uris":{"android":"levelo://app?vid=d1ad9242-1be6-4578-bf4f-f0baa45f51ca","ios":"levelo://app?vid=d1ad9242-1be6-4578-bf4f-f0baa45f51ca"},"vehicle_type_id":"4","last_reported":1751480143,"current_range_meters":3200,"station_id":"ce4bhbh2rcd13ifvqeo0","pricing_plan_id":"cebpf4jnsgd1na2vs0mg"},{"bike_id":"87a62934-76cf-4ddd-b5ca-a3dde8f7a556","system_id":"levelo_inurba_marseille","lat":43.24671,"lon":5.38162,"is_reserved":false,"is_disabled":false,"rental_uris":{"android":"levelo://app?vid=87a62934-76cf-4ddd-b5ca-a3dde8f7a556","ios":"levelo://app?vid=87a62934-76cf-4ddd-b5ca-a3dde8f7a556"},"vehicle_type_id":"4","last_reported":1751480143,"current_range_meters":3200,"station_id":"ce4bhih2rcd13ifvqfr0","pricing_plan_id":"cebpf4jnsgd1na2vs0mg"},{"bike_id":"b61b3731-f27d-44bb-9523-99cf42afd8a2","system_id":"levelo_inurba_marseille","lat":43.24185,"lon":5.3639,"is_reserved":false,"is_disabled":false,"rental_uris":{"android":"levelo://app?vid=b61b3731-f27d-44bb-9523-99cf42afd8a2","ios":"levelo://app?vid=b61b3731-f27d-44bb-9523-99cf42afd8a2"},"vehicle_type_id":"4","last_reported":1751480143,"current_range_meters":3200,"station_id":"cpo36qri1sfpv3e86is0","pricing_plan_id":"cebpf4jnsgd1na2vs0mg"},{"bike_id":"96079538-1c21-43af-abe5-097ade7d18c9","system_id":"levelo_inurba_marseille","lat":43.24188,"lon":5.3638,"is_reserved":false,"is_disabled":false,"rental_uris":{"android":"levelo://app?vid=96079538-1c21-43af-abe5-097ade7d18c9","ios":"levelo://app?vid=96079538-1c21-43af-abe5-097ade7d18c9"},"vehicle_type_id":"4","last_reported":1751480143,"current_range_meters":3200,"station_id":"cpo36qri1sfpv3e86is0","pricing_plan_id":"cebpf4jnsgd1na2vs0mg"},{"bike_id":"1843c3bf-622c-488e-a450-34c5afc8dc27","system_id":"levelo_inurba_marseille","lat":43.28255,"lon":5.35067,"is_reserved":false,"is_disabled":false,"rental_uris":{"android":"levelo://app?vid=1843c3bf-622c-488e-a450-34c5afc8dc27","ios":"levelo://app?vid=1843c3bf-622c-488e-a450-34c5afc8dc27"},"vehicle_type_id":"4","last_reported":1751480143,"current_range_meters":3600,"station_id":"ce4bhbp2rcd13ifvqerg","pricing_plan_id":"cebpf4jnsgd1na2vs0mg"},{"bike_id":"35716d42-1909-4848-80ca-c8c09b16db6f","system_id":"levelo_inurba_marseille","lat":43.30734,"lon":5.42447,"is_reserved":false,"is_disabled":false,"rental_uris":{"android":"levelo://app?vid=35716d42-1909-4848-80ca-c8c09b16db6f","ios":"levelo://app?vid=35716d42-1909-4848-80ca-c8c09b16db6f"},"vehicle_type_id":"4","last_reported":1751480143,"current_range_meters":3600,"station_id":"st_cvj6ca6bvosntc0bfgr0","pricing_plan_id":"cebpf4jnsgd1na2vs0mg"},{"bike_id":"8252b44a-d048-4379-9209-2efa2e627825","system_id":"levelo_inurba_marseille","lat":43.29251,"lon":5.40564,"is_reserved":false,"is_disabled":false,"rental_uris":{"android":"levelo://app?vid=8252b44a-d048-4379-9209-2efa2e627825","ios":"levelo://app?vid=8252b44a-d048-4379-9209-2efa2e627825"},"vehicle_type_id":"4","last_reported":1751480143,"current_range_meters":4000,"station_id":"","pricing_plan_id":"cebpf4jnsgd1na2vs0mg"},{"bike_id":"8e365e3c-559a-4ba6-a6c5-4c159e2434fc","system_id":"levelo_inurba_marseille","lat":43.21752,"lon":5.34585,"is_reserved":false,"is_disabled":false,"rental_uris":{"android":"levelo://app?vid=8e365e3c-559a-4ba6-a6c5-4c159e2434fc","ios":"levelo://app?vid=8e365e3c-559a-4ba6-a6c5-4c159e2434fc"},"vehicle_type_id":"4","last_reported":1751480143,"current_range_meters":4000,"station_id":"","pricing_plan_id":"cebpf4jnsgd1na2vs0mg"},{"bike_id":"0f2c510e-507b-46ef-99fa-283b1602fbcf","system_id":"levelo_inurba_marseille","lat":43.28844,"lon":5.35853,"is_reserved":false,"is_disabled":false,"rental_uris":{"android":"levelo://app?vid=0f2c510e-507b-46ef-99fa-283b1602fbcf","ios":"levelo://app?vid=0f2c510e-507b-46ef-99fa-283b1602fbcf"},"vehicle_type_id":"4","last_reported":1751480143,"current_range_meters":4000,"station_id":"ce4bhb12rcd13ifvqem0","pricing_plan_id":"cebpf4jnsgd1na2vs0mg"},{"bike_id":"7fda2d41-7e3a-44a6-b4c5-29753ba1dc72","system_id":"levelo_inurba_marseille","lat":43.255,"lon":5.3765,"is_reserved":false,"is_disabled":false,"rental_uris":{"android":"levelo://app?vid=7fda2d41-7e3a-44a6-b4c5-29753ba1dc72","ios":"levelo://app?vid=7fda2d41-7e3a-44a6-b4c5-29753ba1dc72"},"vehicle_type_id":"4","last_reported":1751480143,"current_range_meters":4400,"station_id":"ce4bhh12rcd13ifvqff0","pricing_plan_id":"cebpf4jnsgd1na2vs0mg"},{"bike_id":"27067321-28f8-41cd-b5ee-d1b06c146bef","system_id":"levelo_inurba_marseille","lat":43.29755,"lon":5.37642,"is_reserved":false,"is_disabled":false,"rental_uris":{"android":"levelo://app?vid=27067321-28f8-41cd-b5ee-d1b06c146bef","ios":"levelo://app?vid=27067321-28f8-41cd-b5ee-d1b06c146bef"},"vehicle_type_id":"4","last_reported":1751480143,"current_range_meters":4800,"station_id":"","pricing_plan_id":"cebpf4jnsgd1na2vs0mg"},{"bike_id":"e475a659-32a3-4841-b515-3c9b73f2d6ab","system_id":"levelo_inurba_marseille","lat":43.27615,"lon":5.36104,"is_reserved":false,"is_disabled":false,"rental_uris":{"android":"levelo://app?vid=e475a659-32a3-4841-b515-3c9b73f2d6ab","ios":"levelo://app?vid=e475a659-32a3-4841-b515-3c9b73f2d6ab"},"vehicle_type_id":"4","last_reported":1751480143,"current_range_meters":5600,"station_id":"ce4bgj92rcd13ifvqbe0","pricing_plan_id":"cebpf4jnsgd1na2vs0mg"},{"bike_id":"0390cf84-9d41-483d-9f39-11cfa4cba2f5","system_id":"levelo_inurba_marseille","lat":43.28622,"lon":5.35105,"is_reserved":false,"is_disabled":false,"rental_uris":{"android":"levelo://app?vid=0390cf84-9d41-483d-9f39-11cfa4cba2f5","ios":"levelo://app?vid=0390cf84-9d41-483d-9f39-11cfa4cba2f5"},"vehicle_type_id":"4","last_reported":1751480143,"current_range_meters":5600,"station_id":"ce4bhch2rcd13ifvqeug","pricing_plan_id":"cebpf4jnsgd1na2vs0mg"},{"bike_id":"cb8cae11-1b50-4c76-b1ea-e5ae065cd4e9","system_id":"levelo_inurba_marseille","lat":43.22503,"lon":5.34785,"is_reserved":false,"is_disabled":false,"rental_uris":{"android":"levelo://app?vid=cb8cae11-1b50-4c76-b1ea-e5ae065cd4e9","ios":"levelo://app?vid=cb8cae11-1b50-4c76-b1ea-e5ae065cd4e9"},"vehicle_type_id":"4","last_reported":1751480143,"current_range_meters":5600,"station_id":"st_cvj5dfep6f1abm77gieg","pricing_plan_id":"cebpf4jnsgd1na2vs0mg"},{"bike_id":"7de7c2c8-df6b-43fa-b263-6c016dae4134","system_id":"levelo_inurba_marseille","lat":43.27819,"lon":5.41412,"is_reserved":false,"is_disabled":false,"rental_uris":{"android":"levelo://app?vid=7de7c2c8-df6b-43fa-b263-6c016dae4134","ios":"levelo://app?vid=7de7c2c8-df6b-43fa-b263-6c016dae4134"},"vehicle_type_id":"4","last_reported":1751480143,"current_range_meters":6000,"station_id":"","pricing_plan_id":"cebpf4jnsgd1na2vs0mg"},{"bike_id":"48230dc1-6220-4564-af80-6d7d0a4ea22a","system_id":"levelo_inurba_marseille","lat":43.29843,"lon":5.36269,"is_reserved":false,"is_disabled":false,"rental_uris":{"android":"levelo://app?vid=48230dc1-6220-4564-af80-6d7d0a4ea22a","ios":"levelo://app?vid=48230dc1-6220-4564-af80-6d7d0a4ea22a"},"vehicle_type_id":"4","last_reported":1751480143,"current_range_meters":6400,"station_id":"ce4bgpp2rcd13ifvqc3g","pricing_plan_id":"cebpf4jnsgd1na2vs0mg"},{"bike_id":"a8911633-278f-457f-949c-8577b3ceec4b","system_id":"levelo_inurba_marseille","lat":43.25485,"lon":5.37652,"is_reserved":false,"is_disabled":false,"rental_uris":{"android":"levelo://app?vid=a8911633-278f-457f-949c-8577b3ceec4b","ios":"levelo://app?vid=a8911633-278f-457f-949c-8577b3ceec4b"},"vehicle_type_id":"4","last_reported":1751480143,"current_range_meters":6800,"station_id":"ce4bhh12rcd13ifvqff0","pricing_plan_id":"cebpf4jnsgd1na2vs0mg"},{"bike_id":"c2b72fe0-bae6-4c7b-ad48-9e771b203dc8","system_id":"levelo_inurba_marseille","lat":43.313516,"lon":5.38478,"is_reserved":false,"is_disabled":false,"rental_uris":{"android":"levelo://app?vid=c2b72fe0-bae6-4c7b-ad48-9e771b203dc8","ios":"levelo://app?vid=c2b72fe0-bae6-4c7b-ad48-9e771b203dc8"},"vehicle_type_id":"4","last_reported":1751480143,"current_range_meters":7200,"station_id":"ce4bgt92rcd13ifvqcf0","pricing_plan_id":"cebpf4jnsgd1na2vs0mg"},{"bike_id":"20d9e8d9-937a-447c-97cc-a445bb9ebd8c","system_id":"levelo_inurba_marseille","lat":43.29009,"lon":5.35608,"is_reserved":false,"is_disabled":false,"rental_uris":{"android":"levelo://app?vid=20d9e8d9-937a-447c-97cc-a445bb9ebd8c","ios":"levelo://app?vid=20d9e8d9-937a-447c-97cc-a445bb9ebd8c"},"vehicle_type_id":"4","last_reported":1751480143,"current_range_meters":7200,"station_id":"ce4bhb92rcd13ifvqen0","pricing_plan_id":"cebpf4jnsgd1na2vs0mg"},{"bike_id":"17d6bba1-a47e-45fc-9b98-1bbad3bdd020","system_id":"levelo_inurba_marseille","lat":43.28396,"lon":5.34994,"is_reserved":false,"is_disabled":false,"rental_uris":{"android":"levelo://app?vid=17d6bba1-a47e-45fc-9b98-1bbad3bdd020","ios":"levelo://app?vid=17d6bba1-a47e-45fc-9b98-1bbad3bdd020"},"vehicle_type_id":"4","last_reported":1751480143,"current_range_meters":7200,"station_id":"ce4bhbh2rcd13ifvqepg","pricing_plan_id":"cebpf4jnsgd1na2vs0mg"},{"bike_id":"4d1e8608-acc4-4e28-8dea-f69a72a717ef","system_id":"levelo_inurba_marseille","lat":43.29006,"lon":5.3561,"is_reserved":false,"is_disabled":false,"rental_uris":{"android":"levelo://app?vid=4d1e8608-acc4-4e28-8dea-f69a72a717ef","ios":"levelo://app?vid=4d1e8608-acc4-4e28-8dea-f69a72a717ef"},"vehicle_type_id":"4","last_reported":1751480143,"current_range_meters":8000,"station_id":"ce4bhb92rcd13ifvqen0","pricing_plan_id":"cebpf4jnsgd1na2vs0mg"},{"bike_id":"cb7bdf61-a690-473c-939e-8b1fb2bc0e03","system_id":"levelo_inurba_marseille","lat":43.24185,"lon":5.36385,"is_reserved":false,"is_disabled":false,"rental_uris":{"android":"levelo://app?vid=cb7bdf61-a690-473c-939e-8b1fb2bc0e03","ios":"levelo://app?vid=cb7bdf61-a690-473c-939e-8b1fb2bc0e03"},"vehicle_type_id":"4","last_reported":1751480143,"current_range_meters":8000,"station_id":"cpo36qri1sfpv3e86is0","pricing_plan_id":"cebpf4jnsgd1na2vs0mg"},{"bike_id":"030dd903-6713-4121-8339-17ece3d5a58e","system_id":"levelo_inurba_marseille","lat":43.21193,"lon":5.35062,"is_reserved":false,"is_disabled":false,"rental_uris":{"android":"levelo://app?vid=030dd903-6713-4121-8339-17ece3d5a58e","ios":"levelo://app?vid=030dd903-6713-4121-8339-17ece3d5a58e"},"vehicle_type_id":"4","last_reported":1751480143,"current_range_meters":8000,"station_id":"st_cvj6sg6p6f1abm77japg","pricing_plan_id":"cebpf4jnsgd1na2vs0mg"},{"bike_id":"04ae944a-784a-4723-b554-14b3b2dbea63","system_id":"levelo_inurba_marseille","lat":43.29711,"lon":5.36618,"is_reserved":false,"is_disabled":false,"rental_uris":{"android":"levelo://app?vid=04ae944a-784a-4723-b554-14b3b2dbea63","ios":"levelo://app?vid=04ae944a-784a-4723-b554-14b3b2dbea63"},"vehicle_type_id":"4","last_reported":1751480143,"current_range_meters":8400,"station_id":"ce4bgn12rcd13ifvqbt0","pricing_plan_id":"cebpf4jnsgd1na2vs0mg"},{"bike_id":"f0013c01-bafb-44c9-b2bd-3321859b9706","system_id":"levelo_inurba_marseille","lat":43.306547,"lon":5.40059,"is_reserved":false,"is_disabled":false,"rental_uris":{"android":"levelo://app?vid=f0013c01-bafb-44c9-b2bd-3321859b9706","ios":"levelo://app?vid=f0013c01-bafb-44c9-b2bd-3321859b9706"},"vehicle_type_id":"4","last_reported":1751480143,"current_range_meters":8400,"station_id":"ce4bh112rcd13ifvqda0","pricing_plan_id":"cebpf4jnsgd1na2vs0mg"},{"bike_id":"9610e57b-e24c-4c16-838c-092b893b30dc","system_id":"levelo_inurba_marseille","lat":43.21778,"lon":5.34576,"is_reserved":false,"is_disabled":false,"rental_uris":{"android":"levelo://app?vid=9610e57b-e24c-4c16-838c-092b893b30dc","ios":"levelo://app?vid=9610e57b-e24c-4c16-838c-092b893b30dc"},"vehicle_type_id":"4","last_reported":1751480143,"current_range_meters":8400,"station_id":"st_cvj6r9ubvosntc0bgbag","pricing_plan_id":"cebpf4jnsgd1na2vs0mg"},{"bike_id":"2e8ec81c-177e-40de-82b2-974196d6c500","system_id":"levelo_inurba_marseille","lat":43.27661,"lon":5.3839,"is_reserved":false,"is_disabled":false,"rental_uris":{"android":"levelo://app?vid=2e8ec81c-177e-40de-82b2-974196d6c500","ios":"levelo://app?vid=2e8ec81c-177e-40de-82b2-974196d6c500"},"vehicle_type_id":"4","last_reported":1751480143,"current_range_meters":8800,"station_id":"","pricing_plan_id":"cebpf4jnsgd1na2vs0mg"},{"bike_id":"1d4f0916-f80f-4a13-9ea3-fdbc12ac8d04","system_id":"levelo_inurba_marseille","lat":43.30885,"lon":5.39611,"is_reserved":false,"is_disabled":false,"rental_uris":{"android":"levelo://app?vid=1d4f0916-f80f-4a13-9ea3-fdbc12ac8d04","ios":"levelo://app?vid=1d4f0916-f80f-4a13-9ea3-fdbc12ac8d04"},"vehicle_type_id":"4","last_reported":1751480143,"current_range_meters":8800,"station_id":"ce4bh012rcd13ifvqcv0","pricing_plan_id":"cebpf4jnsgd1na2vs0mg"},{"bike_id":"23ac6efe-dc79-47c3-90bc-8aa38d7868f8","system_id":"levelo_inurba_marseille","lat":43.30128,"lon":5.39853,"is_reserved":false,"is_disabled":false,"rental_uris":{"android":"levelo://app?vid=23ac6efe-dc79-47c3-90bc-8aa38d7868f8","ios":"levelo://app?vid=23ac6efe-dc79-47c3-90bc-8aa38d7868f8"},"vehicle_type_id":"4","last_reported":1751480143,"current_range_meters":8800,"station_id":"ce4bh0h2rcd13ifvqd40","pricing_plan_id":"cebpf4jnsgd1na2vs0mg"},{"bike_id":"8967397f-e00f-4fee-ada9-620b957936e8","system_id":"levelo_inurba_marseille","lat":43.25005,"lon":5.38925,"is_reserved":false,"is_disabled":false,"rental_uris":{"android":"levelo://app?vid=8967397f-e00f-4fee-ada9-620b957936e8","ios":"levelo://app?vid=8967397f-e00f-4fee-ada9-620b957936e8"},"vehicle_type_id":"4","last_reported":1751480143,"current_range_meters":8800,"station_id":"ce4bhgp2rcd13ifvqfd0","pricing_plan_id":"cebpf4jnsgd1na2vs0mg"},{"bike_id":"ec093f32-4d42-424c-a72b-81fd33fa459f","system_id":"levelo_inurba_marseille","lat":43.30586,"lon":5.39353,"is_reserved":false,"is_disabled":false,"rental_uris":{"android":"levelo://app?vid=ec093f32-4d42-424c-a72b-81fd33fa459f","ios":"levelo://app?vid=ec093f32-4d42-424c-a72b-81fd33fa459f"},"vehicle_type_id":"4","last_reported":1751480143,"current_range_meters":9200,"station_id":"ce4bh0p2rcd13ifvqd80","pricing_plan_id":"cebpf4jnsgd1na2vs0mg"},{"bike_id":"ee4dc073-e285-4620-a090-2f3b175b34e2","system_id":"levelo_inurba_marseille","lat":43.28938,"lon":5.3663,"is_reserved":false,"is_disabled":false,"rental_uris":{"android":"levelo://app?vid=ee4dc073-e285-4620-a090-2f3b175b34e2","ios":"levelo://app?vid=ee4dc073-e285-4620-a090-2f3b175b34e2"},"vehicle_type_id":"4","last_reported":1751480143,"current_range_meters":9200,"station_id":"ce4bhap2rcd13ifvqek0","pricing_plan_id":"cebpf4jnsgd1na2vs0mg"},{"bike_id":"7f0bf95f-c200-417a-bfc9-0a731b055091","system_id":"levelo_inurba_marseille","lat":43.32374,"lon":5.38872,"is_reserved":false,"is_disabled":false,"rental_uris":{"android":"levelo://app?vid=7f0bf95f-c200-417a-bfc9-0a731b055091","ios":"levelo://app?vid=7f0bf95f-c200-417a-bfc9-0a731b055091"},"vehicle_type_id":"4","last_reported":1751480143,"current_range_meters":9200,"station_id":"ce4bhqp2rcd13ifvqhog","pricing_plan_id":"cebpf4jnsgd1na2vs0mg"},{"bike_id":"70f856ab-2c64-4f89-8162-9096b8316b9f","system_id":"levelo_inurba_marseille","lat":43.24177,"lon":5.36389,"is_reserved":false,"is_disabled":false,"rental_uris":{"android":"levelo://app?vid=70f856ab-2c64-4f89-8162-9096b8316b9f","ios":"levelo://app?vid=70f856ab-2c64-4f89-8162-9096b8316b9f"},"vehicle_type_id":"4","last_reported":1751480143,"current_range_meters":9200,"station_id":"cpo36qri1sfpv3e86is0","pricing_plan_id":"cebpf4jnsgd1na2vs0mg"},{"bike_id":"c61036a9-1a66-4480-8bd4-cd2fb585b287","system_id":"levelo_inurba_marseille","lat":43.26967,"lon":5.40598,"is_reserved":false,"is_disabled":false,"rental_uris":{"android":"levelo://app?vid=c61036a9-1a66-4480-8bd4-cd2fb585b287","ios":"levelo://app?vid=c61036a9-1a66-4480-8bd4-cd2fb585b287"},"vehicle_type_id":"4","last_reported":1751480143,"current_range_meters":9600,"station_id":"","pricing_plan_id":"cebpf4jnsgd1na2vs0mg"},{"bike_id":"9c43ae9e-886a-40be-9e8f-adc1483df9ad","system_id":"levelo_inurba_marseille","lat":43.29008,"lon":5.35614,"is_reserved":false,"is_disabled":false,"rental_uris":{"android":"levelo://app?vid=9c43ae9e-886a-40be-9e8f-adc1483df9ad","ios":"levelo://app?vid=9c43ae9e-886a-40be-9e8f-adc1483df9ad"},"vehicle_type_id":"4","last_reported":1751480143,"current_range_meters":9600,"station_id":"ce4bhb92rcd13ifvqen0","pricing_plan_id":"cebpf4jnsgd1na2vs0mg"},{"bike_id":"7d21a87b-8fdc-41c8-a4e5-5edb68569c30","system_id":"levelo_inurba_marseille","lat":43.28279,"lon":5.35059,"is_reserved":false,"is_disabled":false,"rental_uris":{"android":"levelo://app?vid=7d21a87b-8fdc-41c8-a4e5-5edb68569c30","ios":"levelo://app?vid=7d21a87b-8fdc-41c8-a4e5-5edb68569c30"},"vehicle_type_id":"4","last_reported":1751480143,"current_range_meters":9600,"station_id":"ce4bhbp2rcd13ifvqerg","pricing_plan_id":"cebpf4jnsgd1na2vs0mg"},{"bike_id":"05c56a93-a028-49b5-91c8-3685772fb3e8","system_id":"levelo_inurba_marseille","lat":43.25583,"lon":5.38231,"is_reserved":false,"is_disabled":false,"rental_uris":{"android":"levelo://app?vid=05c56a93-a028-49b5-91c8-3685772fb3e8","ios":"levelo://app?vid=05c56a93-a028-49b5-91c8-3685772fb3e8"},"vehicle_type_id":"4","last_reported":1751480143,"current_range_meters":9600,"station_id":"ce4bhih2rcd13ifvqfs0","pricing_plan_id":"cebpf4jnsgd1na2vs0mg"},{"bike_id":"79b020e6-28c6-4a98-969c-faa572c6e233","system_id":"levelo_inurba_marseille","lat":43.24167,"lon":5.363934,"is_reserved":false,"is_disabled":false,"rental_uris":{"android":"levelo://app?vid=79b020e6-28c6-4a98-969c-faa572c6e233","ios":"levelo://app?vid=79b020e6-28c6-4a98-969c-faa572c6e233"},"vehicle_type_id":"4","last_reported":1751480143,"current_range_meters":9600,"station_id":"cpo36qri1sfpv3e86is0","pricing_plan_id":"cebpf4jnsgd1na2vs0mg"},{"bike_id":"5905d09d-bebc-49a5-a902-fc50fb806034","system_id":"levelo_inurba_marseille","lat":43.31801,"lon":5.40345,"is_reserved":false,"is_disabled":false,"rental_uris":{"android":"levelo://app?vid=5905d09d-bebc-49a5-a902-fc50fb806034","ios":"levelo://app?vid=5905d09d-bebc-49a5-a902-fc50fb806034"},"vehicle_type_id":"4","last_reported":1751480143,"current_range_meters":10000,"station_id":"","pricing_plan_id":"cebpf4jnsgd1na2vs0mg"},{"bike_id":"d6a93654-36fe-489a-9ab6-0f2d2a4a4b4c","system_id":"levelo_inurba_marseille","lat":43.30884,"lon":5.37193,"is_reserved":false,"is_disabled":false,"rental_uris":{"android":"levelo://app?vid=d6a93654-36fe-489a-9ab6-0f2d2a4a4b4c","ios":"levelo://app?vid=d6a93654-36fe-489a-9ab6-0f2d2a4a4b4c"},"vehicle_type_id":"4","last_reported":1751480143,"current_range_meters":10000,"station_id":"ce4bguh2rcd13ifvqckg","pricing_plan_id":"cebpf4jnsgd1na2vs0mg"},{"bike_id":"27178793-0499-4467-9076-dce6437e7598","system_id":"levelo_inurba_marseille","lat":43.27363,"lon":5.36252,"is_reserved":false,"is_disabled":false,"rental_uris":{"android":"levelo://app?vid=27178793-0499-4467-9076-dce6437e7598","ios":"levelo://app?vid=27178793-0499-4467-9076-dce6437e7598"},"vehicle_type_id":"4","last_reported":1751480143,"current_range_meters":10000,"station_id":"ce4bhbh2rcd13ifvqeo0","pricing_plan_id":"cebpf4jnsgd1na2vs0mg"},{"bike_id":"bc0fcce1-f355-4303-a4eb-81be41c7cd1e","system_id":"levelo_inurba_marseille","lat":43.284996,"lon":5.385479,"is_reserved":false,"is_disabled":false,"rental_uris":{"android":"levelo://app?vid=bc0fcce1-f355-4303-a4eb-81be41c7cd1e","ios":"levelo://app?vid=bc0fcce1-f355-4303-a4eb-81be41c7cd1e"},"vehicle_type_id":"4","last_reported":1751480143,"current_range_meters":10000,"station_id":"ce4bhc92rcd13ifvqetg","pricing_plan_id":"cebpf4jnsgd1na2vs0mg"},{"bike_id":"8d949c06-5c93-46cb-aa0d-445b8d88b4fe","system_id":"levelo_inurba_marseille","lat":43.28617,"lon":5.35105,"is_reserved":false,"is_disabled":false,"rental_uris":{"android":"levelo://app?vid=8d949c06-5c93-46cb-aa0d-445b8d88b4fe","ios":"levelo://app?vid=8d949c06-5c93-46cb-aa0d-445b8d88b4fe"},"vehicle_type_id":"4","last_reported":1751480143,"current_range_meters":10000,"station_id":"ce4bhch2rcd13ifvqeug","pricing_plan_id":"cebpf4jnsgd1na2vs0mg"},{"bike_id":"e87c2edb-b2d4-4cf6-a572-c4de53c84a64","system_id":"levelo_inurba_marseille","lat":43.26073,"lon":5.39417,"is_reserved":false,"is_disabled":false,"rental_uris":{"android":"levelo://app?vid=e87c2edb-b2d4-4cf6-a572-c4de53c84a64","ios":"levelo://app?vid=e87c2edb-b2d4-4cf6-a572-c4de53c84a64"},"vehicle_type_id":"4","last_reported":1751480143,"current_range_meters":10000,"station_id":"ce4bhh92rcd13ifvqfj0","pricing_plan_id":"cebpf4jnsgd1na2vs0mg"},{"bike_id":"248ded86-b9d5-4fdc-ba75-93f45623e36e","system_id":"levelo_inurba_marseille","lat":43.24169,"lon":5.36393,"is_reserved":false,"is_disabled":false,"rental_uris":{"android":"levelo://app?vid=248ded86-b9d5-4fdc-ba75-93f45623e36e","ios":"levelo://app?vid=248ded86-b9d5-4fdc-ba75-93f45623e36e"},"vehicle_type_id":"4","last_reported":1751480143,"current_range_meters":10000,"station_id":"cpo36qri1sfpv3e86is0","pricing_plan_id":"cebpf4jnsgd1na2vs0mg"},{"bike_id":"8ad00ccc-3ccb-493b-a2b4-49cd4dd94c33","system_id":"levelo_inurba_marseille","lat":43.21782,"lon":5.34577,"is_reserved":false,"is_disabled":false,"rental_uris":{"android":"levelo://app?vid=8ad00ccc-3ccb-493b-a2b4-49cd4dd94c33","ios":"levelo://app?vid=8ad00ccc-3ccb-493b-a2b4-49cd4dd94c33"},"vehicle_type_id":"4","last_reported":1751480143,"current_range_meters":10800,"station_id":"","pricing_plan_id":"cebpf4jnsgd1na2vs0mg"},{"bike_id":"8f660108-6c6a-4d52-a635-1a92d4896340","system_id":"levelo_inurba_marseille","lat":43.29009,"lon":5.3561,"is_reserved":false,"is_disabled":false,"rental_uris":{"android":"levelo://app?vid=8f660108-6c6a-4d52-a635-1a92d4896340","ios":"levelo://app?vid=8f660108-6c6a-4d52-a635-1a92d4896340"},"vehicle_type_id":"4","last_reported":1751480143,"current_range_meters":10800,"station_id":"ce4bhb92rcd13ifvqen0","pricing_plan_id":"cebpf4jnsgd1na2vs0mg"},{"bike_id":"866060ef-85cb-4809-9ff5-4426ac515ff0","system_id":"levelo_inurba_marseille","lat":43.28423,"lon":5.34978,"is_reserved":false,"is_disabled":false,"rental_uris":{"android":"levelo://app?vid=866060ef-85cb-4809-9ff5-4426ac515ff0","ios":"levelo://app?vid=866060ef-85cb-4809-9ff5-4426ac515ff0"},"vehicle_type_id":"4","last_reported":1751480143,"current_range_meters":10800,"station_id":"ce4bhbh2rcd13ifvqepg","pricing_plan_id":"cebpf4jnsgd1na2vs0mg"},{"bike_id":"7afe630d-27f6-445c-a6b1-286e15fa96a2","system_id":"levelo_inurba_marseille","lat":43.28629,"lon":5.351,"is_reserved":false,"is_disabled":false,"rental_uris":{"android":"levelo://app?vid=7afe630d-27f6-445c-a6b1-286e15fa96a2","ios":"levelo://app?vid=7afe630d-27f6-445c-a6b1-286e15fa96a2"},"vehicle_type_id":"4","last_reported":1751480143,"current_range_meters":10800,"station_id":"ce4bhch2rcd13ifvqeug","pricing_plan_id":"cebpf4jnsgd1na2vs0mg"},{"bike_id":"1fd3faf6-8341-44a1-8cb8-f0e84fd6b27d","system_id":"levelo_inurba_marseille","lat":43.24808,"lon":5.37461,"is_reserved":false,"is_disabled":false,"rental_uris":{"android":"levelo://app?vid=1fd3faf6-8341-44a1-8cb8-f0e84fd6b27d","ios":"levelo://app?vid=1fd3faf6-8341-44a1-8cb8-f0e84fd6b27d"},"vehicle_type_id":"4","last_reported":1751480143,"current_range_meters":10800,"station_id":"ce4bhgh2rcd13ifvqfb0","pricing_plan_id":"cebpf4jnsgd1na2vs0mg"},{"bike_id":"f77ab8b3-b956-46d4-8500-29a00fb932f1","system_id":"levelo_inurba_marseille","lat":43.32116,"lon":5.36828,"is_reserved":false,"is_disabled":false,"rental_uris":{"android":"levelo://app?vid=f77ab8b3-b956-46d4-8500-29a00fb932f1","ios":"levelo://app?vid=f77ab8b3-b956-46d4-8500-29a00fb932f1"},"vehicle_type_id":"4","last_reported":1751480143,"current_range_meters":10800,"station_id":"ce4bhrh2rcd13ifvqhug","pricing_plan_id":"cebpf4jnsgd1na2vs0mg"},{"bike_id":"ba7ce973-2684-4b67-a981-4df051ee2e6c","system_id":"levelo_inurba_marseille","lat":43.31113,"lon":5.37778,"is_reserved":false,"is_disabled":false,"rental_uris":{"android":"levelo://app?vid=ba7ce973-2684-4b67-a981-4df051ee2e6c","ios":"levelo://app?vid=ba7ce973-2684-4b67-a981-4df051ee2e6c"},"vehicle_type_id":"4","last_reported":1751480143,"current_range_meters":11200,"station_id":"ce4bgt92rcd13ifvqcg0","pricing_plan_id":"cebpf4jnsgd1na2vs0mg"},{"bike_id":"9cf51dd0-fe2e-44da-8479-1f4b6867de87","system_id":"levelo_inurba_marseille","lat":43.29032,"lon":5.39972,"is_reserved":false,"is_disabled":false,"rental_uris":{"android":"levelo://app?vid=9cf51dd0-fe2e-44da-8479-1f4b6867de87","ios":"levelo://app?vid=9cf51dd0-fe2e-44da-8479-1f4b6867de87"},"vehicle_type_id":"4","last_reported":1751480143,"current_range_meters":11200,"station_id":"ce4bh392rcd13ifvqdm0","pricing_plan_id":"cebpf4jnsgd1na2vs0mg"},{"bike_id":"7a0c31f9-ab7b-410d-b6f9-b7cccf9b4668","system_id":"levelo_inurba_marseille","lat":43.273743,"lon":5.36246,"is_reserved":false,"is_disabled":false,"rental_uris":{"android":"levelo://app?vid=7a0c31f9-ab7b-410d-b6f9-b7cccf9b4668","ios":"levelo://app?vid=7a0c31f9-ab7b-410d-b6f9-b7cccf9b4668"},"vehicle_type_id":"4","last_reported":1751480143,"current_range_meters":11200,"station_id":"ce4bhbh2rcd13ifvqeo0","pricing_plan_id":"cebpf4jnsgd1na2vs0mg"},{"bike_id":"7162ef69-1564-49b0-bd4d-645d806c80fc","system_id":"levelo_inurba_marseille","lat":43.28624,"lon":5.35096,"is_reserved":false,"is_disabled":false,"rental_uris":{"android":"levelo://app?vid=7162ef69-1564-49b0-bd4d-645d806c80fc","ios":"levelo://app?vid=7162ef69-1564-49b0-bd4d-645d806c80fc"},"vehicle_type_id":"4","last_reported":1751480143,"current_range_meters":11200,"station_id":"ce4bhch2rcd13ifvqeug","pricing_plan_id":"cebpf4jnsgd1na2vs0mg"},{"bike_id":"97d2cf8f-786d-48f4-af3b-a37781a7be77","system_id":"levelo_inurba_marseille","lat":43.286175,"lon":5.351205,"is_reserved":false,"is_disabled":false,"rental_uris":{"android":"levelo://app?vid=97d2cf8f-786d-48f4-af3b-a37781a7be77","ios":"levelo://app?vid=97d2cf8f-786d-48f4-af3b-a37781a7be77"},"vehicle_type_id":"4","last_reported":1751480143,"current_range_meters":11200,"station_id":"ce4bhch2rcd13ifvqeug","pricing_plan_id":"cebpf4jnsgd1na2vs0mg"},{"bike_id":"f16f3e79-dc07-4508-8b6c-7b168bc16ba6","system_id":"levelo_inurba_marseille","lat":43.24804,"lon":5.37461,"is_reserved":false,"is_disabled":false,"rental_uris":{"android":"levelo://app?vid=f16f3e79-dc07-4508-8b6c-7b168bc16ba6","ios":"levelo://app?vid=f16f3e79-dc07-4508-8b6c-7b168bc16ba6"},"vehicle_type_id":"4","last_reported":1751480143,"current_range_meters":11200,"station_id":"ce4bhgh2rcd13ifvqfb0","pricing_plan_id":"cebpf4jnsgd1na2vs0mg"},{"bike_id":"88f0d88a-1dec-4977-a19a-71293da7fba4","system_id":"levelo_inurba_marseille","lat":43.323646,"lon":5.367708,"is_reserved":false,"is_disabled":false,"rental_uris":{"android":"levelo://app?vid=88f0d88a-1dec-4977-a19a-71293da7fba4","ios":"levelo://app?vid=88f0d88a-1dec-4977-a19a-71293da7fba4"},"vehicle_type_id":"4","last_reported":1751480143,"current_range_meters":11600,"station_id":"ce4bhsh2rcd13ifvqi2g","pricing_plan_id":"cebpf4jnsgd1na2vs0mg"},{"bike_id":"f340c302-ac2b-429d-95e4-3974acc5707a","system_id":"levelo_inurba_marseille","lat":43.31179,"lon":5.387866,"is_reserved":false,"is_disabled":false,"rental_uris":{"android":"levelo://app?vid=f340c302-ac2b-429d-95e4-3974acc5707a","ios":"levelo://app?vid=f340c302-ac2b-429d-95e4-3974acc5707a"},"vehicle_type_id":"4","last_reported":1751480143,"current_range_meters":12000,"station_id":"ce4bgv12rcd13ifvqcp0","pricing_plan_id":"cebpf4jnsgd1na2vs0mg"},{"bike_id":"8931f9a4-da40-4557-b823-85a2a313f485","system_id":"levelo_inurba_marseille","lat":43.30333,"lon":5.40429,"is_reserved":false,"is_disabled":false,"rental_uris":{"android":"levelo://app?vid=8931f9a4-da40-4557-b823-85a2a313f485","ios":"levelo://app?vid=8931f9a4-da40-4557-b823-85a2a313f485"},"vehicle_type_id":"4","last_reported":1751480143,"current_range_meters":12000,"station_id":"ce4bh012rcd13ifvqd10","pricing_plan_id":"cebpf4jnsgd1na2vs0mg"},{"bike_id":"735b0fd2-1d3a-40d0-ab27-f3384c488e5d","system_id":"levelo_inurba_marseille","lat":43.292007,"lon":5.358023,"is_reserved":false,"is_disabled":false,"rental_uris":{"android":"levelo://app?vid=735b0fd2-1d3a-40d0-ab27-f3384c488e5d","ios":"levelo://app?vid=735b0fd2-1d3a-40d0-ab27-f3384c488e5d"},"vehicle_type_id":"4","last_reported":1751480143,"current_range_meters":12000,"station_id":"ce4bhb12rcd13ifvqel0","pricing_plan_id":"cebpf4jnsgd1na2vs0mg"},{"bike_id":"ff5d153f-eb7c-4b24-8415-3f8813aa8920","system_id":"levelo_inurba_marseille","lat":43.284196,"lon":5.349868,"is_reserved":false,"is_disabled":false,"rental_uris":{"android":"levelo://app?vid=ff5d153f-eb7c-4b24-8415-3f8813aa8920","ios":"levelo://app?vid=ff5d153f-eb7c-4b24-8415-3f8813aa8920"},"vehicle_type_id":"4","last_reported":1751480143,"current_range_meters":12000,"station_id":"ce4bhbh2rcd13ifvqepg","pricing_plan_id":"cebpf4jnsgd1na2vs0mg"},{"bike_id":"c2cc3873-3136-4ba7-984d-6514f2a6bcc2","system_id":"levelo_inurba_marseille","lat":43.26692,"lon":5.3827,"is_reserved":false,"is_disabled":false,"rental_uris":{"android":"levelo://app?vid=c2cc3873-3136-4ba7-984d-6514f2a6bcc2","ios":"levelo://app?vid=c2cc3873-3136-4ba7-984d-6514f2a6bcc2"},"vehicle_type_id":"4","last_reported":1751480143,"current_range_meters":12000,"station_id":"ce4bhg92rcd13ifvqf90","pricing_plan_id":"cebpf4jnsgd1na2vs0mg"},{"bike_id":"7369b79a-9c3d-46c2-8e3c-8fe9d699ee82","system_id":"levelo_inurba_marseille","lat":43.2603,"lon":5.37547,"is_reserved":false,"is_disabled":false,"rental_uris":{"android":"levelo://app?vid=7369b79a-9c3d-46c2-8e3c-8fe9d699ee82","ios":"levelo://app?vid=7369b79a-9c3d-46c2-8e3c-8fe9d699ee82"},"vehicle_type_id":"4","last_reported":1751480143,"current_range_meters":12000,"station_id":"ce4bhgh2rcd13ifvqfa0","pricing_plan_id":"cebpf4jnsgd1na2vs0mg"},{"bike_id":"8f703902-65cb-430e-919b-98d73a71e42f","system_id":"levelo_inurba_marseille","lat":43.26212,"lon":5.3744,"is_reserved":false,"is_disabled":false,"rental_uris":{"android":"levelo://app?vid=8f703902-65cb-430e-919b-98d73a71e42f","ios":"levelo://app?vid=8f703902-65cb-430e-919b-98d73a71e42f"},"vehicle_type_id":"4","last_reported":1751480143,"current_range_meters":12000,"station_id":"ce4bhgp2rcd13ifvqfc0","pricing_plan_id":"cebpf4jnsgd1na2vs0mg"},{"bike_id":"f00e3044-9bd1-48b5-b342-151af21b34fa","system_id":"levelo_inurba_marseille","lat":43.299823,"lon":5.374199,"is_reserved":false,"is_disabled":false,"rental_uris":{"android":"levelo://app?vid=f00e3044-9bd1-48b5-b342-151af21b34fa","ios":"levelo://app?vid=f00e3044-9bd1-48b5-b342-151af21b34fa"},"vehicle_type_id":"4","last_reported":1751480143,"current_range_meters":12400,"station_id":"","pricing_plan_id":"cebpf4jnsgd1na2vs0mg"},{"bike_id":"06bb1293-77e2-44a3-9e10-1607407328dc","system_id":"levelo_inurba_marseille","lat":43.28436,"lon":5.34982,"is_reserved":false,"is_disabled":false,"rental_uris":{"android":"levelo://app?vid=06bb1293-77e2-44a3-9e10-1607407328dc","ios":"levelo://app?vid=06bb1293-77e2-44a3-9e10-1607407328dc"},"vehicle_type_id":"4","last_reported":1751480143,"current_range_meters":12400,"station_id":"ce4bhbh2rcd13ifvqepg","pricing_plan_id":"cebpf4jnsgd1na2vs0mg"},{"bike_id":"a8c9d475-99f9-45a2-b92a-a9d6d738c48e","system_id":"levelo_inurba_marseille","lat":43.28421,"lon":5.34989,"is_reserved":false,"is_disabled":false,"rental_uris":{"android":"levelo://app?vid=a8c9d475-99f9-45a2-b92a-a9d6d738c48e","ios":"levelo://app?vid=a8c9d475-99f9-45a2-b92a-a9d6d738c48e"},"vehicle_type_id":"4","last_reported":1751480143,"current_range_meters":12400,"station_id":"ce4bhbh2rcd13ifvqepg","pricing_plan_id":"cebpf4jnsgd1na2vs0mg"},{"bike_id":"c1b44335-2c20-4553-bd77-28e1455d1cb8","system_id":"levelo_inurba_marseille","lat":43.28611,"lon":5.35103,"is_reserved":false,"is_disabled":false,"rental_uris":{"android":"levelo://app?vid=c1b44335-2c20-4553-bd77-28e1455d1cb8","ios":"levelo://app?vid=c1b44335-2c20-4553-bd77-28e1455d1cb8"},"vehicle_type_id":"4","last_reported":1751480143,"current_range_meters":12400,"station_id":"ce4bhch2rcd13ifvqeug","pricing_plan_id":"cebpf4jnsgd1na2vs0mg"},{"bike_id":"b28aa0a0-791c-4a08-9a16-c7bf6ea0ed5a","system_id":"levelo_inurba_marseille","lat":43.225,"lon":5.34773,"is_reserved":false,"is_disabled":false,"rental_uris":{"android":"levelo://app?vid=b28aa0a0-791c-4a08-9a16-c7bf6ea0ed5a","ios":"levelo://app?vid=b28aa0a0-791c-4a08-9a16-c7bf6ea0ed5a"},"vehicle_type_id":"4","last_reported":1751480143,"current_range_meters":12400,"station_id":"st_cvj5dfep6f1abm77gieg","pricing_plan_id":"cebpf4jnsgd1na2vs0mg"},{"bike_id":"d16b9dec-c438-4000-91c8-6cda5b0545dc","system_id":"levelo_inurba_marseille","lat":43.24894,"lon":5.37514,"is_reserved":false,"is_disabled":false,"rental_uris":{"android":"levelo://app?vid=d16b9dec-c438-4000-91c8-6cda5b0545dc","ios":"levelo://app?vid=d16b9dec-c438-4000-91c8-6cda5b0545dc"},"vehicle_type_id":"4","last_reported":1751480143,"current_range_meters":12800,"station_id":"","pricing_plan_id":"cebpf4jnsgd1na2vs0mg"},{"bike_id":"bf00a211-3496-4df0-8e4e-99767047ca09","system_id":"levelo_inurba_marseille","lat":43.29986,"lon":5.37582,"is_reserved":false,"is_disabled":false,"rental_uris":{"android":"levelo://app?vid=bf00a211-3496-4df0-8e4e-99767047ca09","ios":"levelo://app?vid=bf00a211-3496-4df0-8e4e-99767047ca09"},"vehicle_type_id":"4","last_reported":1751480143,"current_range_meters":12800,"station_id":"","pricing_plan_id":"cebpf4jnsgd1na2vs0mg"},{"bike_id":"471769d9-3f22-4fd4-ad6c-a8e34f11dc0c","system_id":"levelo_inurba_marseille","lat":43.27373,"lon":5.36263,"is_reserved":false,"is_disabled":false,"rental_uris":{"android":"levelo://app?vid=471769d9-3f22-4fd4-ad6c-a8e34f11dc0c","ios":"levelo://app?vid=471769d9-3f22-4fd4-ad6c-a8e34f11dc0c"},"vehicle_type_id":"4","last_reported":1751480143,"current_range_meters":12800,"station_id":"ce4bhbh2rcd13ifvqeo0","pricing_plan_id":"cebpf4jnsgd1na2vs0mg"},{"bike_id":"f65bf15d-c036-42cb-8d71-137cf5f63dc1","system_id":"levelo_inurba_marseille","lat":43.28621,"lon":5.35107,"is_reserved":false,"is_disabled":false,"rental_uris":{"android":"levelo://app?vid=f65bf15d-c036-42cb-8d71-137cf5f63dc1","ios":"levelo://app?vid=f65bf15d-c036-42cb-8d71-137cf5f63dc1"},"vehicle_type_id":"4","last_reported":1751480143,"current_range_meters":12800,"station_id":"ce4bhch2rcd13ifvqeug","pricing_plan_id":"cebpf4jnsgd1na2vs0mg"},{"bike_id":"4ec47514-90b8-41c4-b295-518d6f600122","system_id":"levelo_inurba_marseille","lat":43.2862,"lon":5.35111,"is_reserved":false,"is_disabled":false,"rental_uris":{"android":"levelo://app?vid=4ec47514-90b8-41c4-b295-518d6f600122","ios":"levelo://app?vid=4ec47514-90b8-41c4-b295-518d6f600122"},"vehicle_type_id":"4","last_reported":1751480143,"current_range_meters":12800,"station_id":"ce4bhch2rcd13ifvqeug","pricing_plan_id":"cebpf4jnsgd1na2vs0mg"},{"bike_id":"c544654c-4729-4428-8c51-2c7b8e0ff09f","system_id":"levelo_inurba_marseille","lat":43.31778,"lon":5.39008,"is_reserved":false,"is_disabled":false,"rental_uris":{"android":"levelo://app?vid=c544654c-4729-4428-8c51-2c7b8e0ff09f","ios":"levelo://app?vid=c544654c-4729-4428-8c51-2c7b8e0ff09f"},"vehicle_type_id":"4","last_reported":1751480143,"current_range_meters":12800,"station_id":"ce4bhqp2rcd13ifvqhng","pricing_plan_id":"cebpf4jnsgd1na2vs0mg"},{"bike_id":"f4eec383-ac02-4187-be83-15d83d357bc6","system_id":"levelo_inurba_marseille","lat":43.29724,"lon":5.37698,"is_reserved":false,"is_disabled":false,"rental_uris":{"android":"levelo://app?vid=f4eec383-ac02-4187-be83-15d83d357bc6","ios":"levelo://app?vid=f4eec383-ac02-4187-be83-15d83d357bc6"},"vehicle_type_id":"4","last_reported":1751480143,"current_range_meters":13600,"station_id":"ce4bgkh2rcd13ifvqbl0","pricing_plan_id":"cebpf4jnsgd1na2vs0mg"},{"bike_id":"455d5d0c-1a79-4d85-b931-82e7876c5fd6","system_id":"levelo_inurba_marseille","lat":43.30528,"lon":5.36697,"is_reserved":false,"is_disabled":false,"rental_uris":{"android":"levelo://app?vid=455d5d0c-1a79-4d85-b931-82e7876c5fd6","ios":"levelo://app?vid=455d5d0c-1a79-4d85-b931-82e7876c5fd6"},"vehicle_type_id":"4","last_reported":1751480143,"current_range_meters":13600,"station_id":"ce4bgrp2rcd13ifvqc9g","pricing_plan_id":"cebpf4jnsgd1na2vs0mg"},{"bike_id":"26e37d11-d113-4f0b-bef4-8b30c044a183","system_id":"levelo_inurba_marseille","lat":43.28425,"lon":5.34985,"is_reserved":false,"is_disabled":false,"rental_uris":{"android":"levelo://app?vid=26e37d11-d113-4f0b-bef4-8b30c044a183","ios":"levelo://app?vid=26e37d11-d113-4f0b-bef4-8b30c044a183"},"vehicle_type_id":"4","last_reported":1751480143,"current_range_meters":13600,"station_id":"ce4bhbh2rcd13ifvqepg","pricing_plan_id":"cebpf4jnsgd1na2vs0mg"},{"bike_id":"7d1bbfbb-c70e-48d3-8f4b-baf5b1ca8b77","system_id":"levelo_inurba_marseille","lat":43.284199,"lon":5.349908,"is_reserved":false,"is_disabled":false,"rental_uris":{"android":"levelo://app?vid=7d1bbfbb-c70e-48d3-8f4b-baf5b1ca8b77","ios":"levelo://app?vid=7d1bbfbb-c70e-48d3-8f4b-baf5b1ca8b77"},"vehicle_type_id":"4","last_reported":1751480143,"current_range_meters":13600,"station_id":"ce4bhbh2rcd13ifvqepg","pricing_plan_id":"cebpf4jnsgd1na2vs0mg"},{"bike_id":"7e62b058-a7ed-4634-80f1-04d3de596de7","system_id":"levelo_inurba_marseille","lat":43.29869,"lon":5.36803,"is_reserved":false,"is_disabled":false,"rental_uris":{"android":"levelo://app?vid=7e62b058-a7ed-4634-80f1-04d3de596de7","ios":"levelo://app?vid=7e62b058-a7ed-4634-80f1-04d3de596de7"},"vehicle_type_id":"4","last_reported":1751480143,"current_range_meters":14000,"station_id":"","pricing_plan_id":"cebpf4jnsgd1na2vs0mg"},{"bike_id":"db68245c-172e-4b78-9388-9a4d09b57f3c","system_id":"levelo_inurba_marseille","lat":43.27372,"lon":5.36257,"is_reserved":false,"is_disabled":false,"rental_uris":{"android":"levelo://app?vid=db68245c-172e-4b78-9388-9a4d09b57f3c","ios":"levelo://app?vid=db68245c-172e-4b78-9388-9a4d09b57f3c"},"vehicle_type_id":"4","last_reported":1751480143,"current_range_meters":14000,"station_id":"ce4bhbh2rcd13ifvqeo0","pricing_plan_id":"cebpf4jnsgd1na2vs0mg"},{"bike_id":"115e6c67-6838-4c42-9ea4-8082deffd16f","system_id":"levelo_inurba_marseille","lat":43.28631,"lon":5.35101,"is_reserved":false,"is_disabled":false,"rental_uris":{"android":"levelo://app?vid=115e6c67-6838-4c42-9ea4-8082deffd16f","ios":"levelo://app?vid=115e6c67-6838-4c42-9ea4-8082deffd16f"},"vehicle_type_id":"4","last_reported":1751480143,"current_range_meters":14000,"station_id":"ce4bhch2rcd13ifvqeug","pricing_plan_id":"cebpf4jnsgd1na2vs0mg"},{"bike_id":"fedb7387-9ef5-4796-97a5-d3cdc7b72957","system_id":"levelo_inurba_marseille","lat":43.28618,"lon":5.35112,"is_reserved":false,"is_disabled":false,"rental_uris":{"android":"levelo://app?vid=fedb7387-9ef5-4796-97a5-d3cdc7b72957","ios":"levelo://app?vid=fedb7387-9ef5-4796-97a5-d3cdc7b72957"},"vehicle_type_id":"4","last_reported":1751480143,"current_range_meters":14000,"station_id":"ce4bhch2rcd13ifvqeug","pricing_plan_id":"cebpf4jnsgd1na2vs0mg"},{"bike_id":"3aa36e75-2098-4342-b13d-51520768bbf7","system_id":"levelo_inurba_marseille","lat":43.26193,"lon":5.37448,"is_reserved":false,"is_disabled":false,"rental_uris":{"android":"levelo://app?vid=3aa36e75-2098-4342-b13d-51520768bbf7","ios":"levelo://app?vid=3aa36e75-2098-4342-b13d-51520768bbf7"},"vehicle_type_id":"4","last_reported":1751480143,"current_range_meters":14000,"station_id":"ce4bhgp2rcd13ifvqfc0","pricing_plan_id":"cebpf4jnsgd1na2vs0mg"},{"bike_id":"eecf4e7d-1d3f-4019-89a5-0c3fb596933f","system_id":"levelo_inurba_marseille","lat":43.22931,"lon":5.35373,"is_reserved":false,"is_disabled":false,"rental_uris":{"android":"levelo://app?vid=eecf4e7d-1d3f-4019-89a5-0c3fb596933f","ios":"levelo://app?vid=eecf4e7d-1d3f-4019-89a5-0c3fb596933f"},"vehicle_type_id":"4","last_reported":1751480143,"current_range_meters":14000,"station_id":"cpo3532slgdg3j2ikp40","pricing_plan_id":"cebpf4jnsgd1na2vs0mg"},{"bike_id":"b50da02d-1fb5-4383-a93d-332785610080","system_id":"levelo_inurba_marseille","lat":43.2179,"lon":5.34577,"is_reserved":false,"is_disabled":false,"rental_uris":{"android":"levelo://app?vid=b50da02d-1fb5-4383-a93d-332785610080","ios":"levelo://app?vid=b50da02d-1fb5-4383-a93d-332785610080"},"vehicle_type_id":"4","last_reported":1751480143,"current_range_meters":14400,"station_id":"","pricing_plan_id":"cebpf4jnsgd1na2vs0mg"},{"bike_id":"19228bcb-14d9-4381-9cec-a973037a502a","system_id":"levelo_inurba_marseille","lat":43.28621,"lon":5.35112,"is_reserved":false,"is_disabled":false,"rental_uris":{"android":"levelo://app?vid=19228bcb-14d9-4381-9cec-a973037a502a","ios":"levelo://app?vid=19228bcb-14d9-4381-9cec-a973037a502a"},"vehicle_type_id":"4","last_reported":1751480143,"current_range_meters":14400,"station_id":"ce4bhch2rcd13ifvqeug","pricing_plan_id":"cebpf4jnsgd1na2vs0mg"},{"bike_id":"17ad145c-f881-4017-969d-c8638a36a818","system_id":"levelo_inurba_marseille","lat":43.26556,"lon":5.38973,"is_reserved":false,"is_disabled":false,"rental_uris":{"android":"levelo://app?vid=17ad145c-f881-4017-969d-c8638a36a818","ios":"levelo://app?vid=17ad145c-f881-4017-969d-c8638a36a818"},"vehicle_type_id":"4","last_reported":1751480143,"current_range_meters":14400,"station_id":"ce4bhe12rcd13ifvqf30","pricing_plan_id":"cebpf4jnsgd1na2vs0mg"},{"bike_id":"c3406fc8-f038-49dc-bc8b-5342ea154048","system_id":"levelo_inurba_marseille","lat":43.27815,"lon":5.40716,"is_reserved":false,"is_disabled":false,"rental_uris":{"android":"levelo://app?vid=c3406fc8-f038-49dc-bc8b-5342ea154048","ios":"levelo://app?vid=c3406fc8-f038-49dc-bc8b-5342ea154048"},"vehicle_type_id":"4","last_reported":1751480143,"current_range_meters":14400,"station_id":"ce4bhnh2rcd13ifvqgtg","pricing_plan_id":"cebpf4jnsgd1na2vs0mg"},{"bike_id":"52afa911-345b-4738-93d5-6ab8109aaded","system_id":"levelo_inurba_marseille","lat":43.28159,"lon":5.42644,"is_reserved":false,"is_disabled":false,"rental_uris":{"android":"levelo://app?vid=52afa911-345b-4738-93d5-6ab8109aaded","ios":"levelo://app?vid=52afa911-345b-4738-93d5-6ab8109aaded"},"vehicle_type_id":"4","last_reported":1751480143,"current_range_meters":14400,"station_id":"ce4bhnh2rcd13ifvqgug","pricing_plan_id":"cebpf4jnsgd1na2vs0mg"},{"bike_id":"bcfd0eda-b9ab-4bec-9ca3-3f2b86617415","system_id":"levelo_inurba_marseille","lat":43.21196,"lon":5.35061,"is_reserved":false,"is_disabled":false,"rental_uris":{"android":"levelo://app?vid=bcfd0eda-b9ab-4bec-9ca3-3f2b86617415","ios":"levelo://app?vid=bcfd0eda-b9ab-4bec-9ca3-3f2b86617415"},"vehicle_type_id":"4","last_reported":1751480143,"current_range_meters":14400,"station_id":"st_cvj6sg6p6f1abm77japg","pricing_plan_id":"cebpf4jnsgd1na2vs0mg"},{"bike_id":"b018e07a-7cdf-4f20-b9f0-a61f02c5ecef","system_id":"levelo_inurba_marseille","lat":43.21189,"lon":5.35068,"is_reserved":false,"is_disabled":false,"rental_uris":{"android":"levelo://app?vid=b018e07a-7cdf-4f20-b9f0-a61f02c5ecef","ios":"levelo://app?vid=b018e07a-7cdf-4f20-b9f0-a61f02c5ecef"},"vehicle_type_id":"4","last_reported":1751480143,"current_range_meters":14400,"station_id":"st_cvj6sg6p6f1abm77japg","pricing_plan_id":"cebpf4jnsgd1na2vs0mg"},{"bike_id":"66c0ab6c-a77c-4406-98da-eb1e105d5014","system_id":"levelo_inurba_marseille","lat":43.28434,"lon":5.34989,"is_reserved":false,"is_disabled":false,"rental_uris":{"android":"levelo://app?vid=66c0ab6c-a77c-4406-98da-eb1e105d5014","ios":"levelo://app?vid=66c0ab6c-a77c-4406-98da-eb1e105d5014"},"vehicle_type_id":"4","last_reported":1751480143,"current_range_meters":14800,"station_id":"ce4bhbh2rcd13ifvqepg","pricing_plan_id":"cebpf4jnsgd1na2vs0mg"},{"bike_id":"56eb3fdf-ea87-4fcf-85df-3680fa66363e","system_id":"levelo_inurba_marseille","lat":43.22518,"lon":5.34799,"is_reserved":false,"is_disabled":false,"rental_uris":{"android":"levelo://app?vid=56eb3fdf-ea87-4fcf-85df-3680fa66363e","ios":"levelo://app?vid=56eb3fdf-ea87-4fcf-85df-3680fa66363e"},"vehicle_type_id":"4","last_reported":1751480143,"current_range_meters":14800,"station_id":"st_cvj5dfep6f1abm77gieg","pricing_plan_id":"cebpf4jnsgd1na2vs0mg"},{"bike_id":"110be0f7-19b6-4419-935c-8afdb1f29359","system_id":"levelo_inurba_marseille","lat":43.21214,"lon":5.35007,"is_reserved":false,"is_disabled":false,"rental_uris":{"android":"levelo://app?vid=110be0f7-19b6-4419-935c-8afdb1f29359","ios":"levelo://app?vid=110be0f7-19b6-4419-935c-8afdb1f29359"},"vehicle_type_id":"4","last_reported":1751480143,"current_range_meters":15200,"station_id":"","pricing_plan_id":"cebpf4jnsgd1na2vs0mg"},{"bike_id":"16a8afe6-e43e-4d1b-a7bd-ed83d113735a","system_id":"levelo_inurba_marseille","lat":43.32436,"lon":5.41185,"is_reserved":false,"is_disabled":false,"rental_uris":{"android":"levelo://app?vid=16a8afe6-e43e-4d1b-a7bd-ed83d113735a","ios":"levelo://app?vid=16a8afe6-e43e-4d1b-a7bd-ed83d113735a"},"vehicle_type_id":"4","last_reported":1751480143,"current_range_meters":15200,"station_id":"","pricing_plan_id":"cebpf4jnsgd1na2vs0mg"},{"bike_id":"a8461757-70f4-47a1-bdd1-56d550698f53","system_id":"levelo_inurba_marseille","lat":43.2971,"lon":5.37699,"is_reserved":false,"is_disabled":false,"rental_uris":{"android":"levelo://app?vid=a8461757-70f4-47a1-bdd1-56d550698f53","ios":"levelo://app?vid=a8461757-70f4-47a1-bdd1-56d550698f53"},"vehicle_type_id":"4","last_reported":1751480143,"current_range_meters":15200,"station_id":"ce4bgkh2rcd13ifvqbl0","pricing_plan_id":"cebpf4jnsgd1na2vs0mg"},{"bike_id":"e7b9aaed-7e16-4b6b-922f-9aa24c3be178","system_id":"levelo_inurba_marseille","lat":43.31328,"lon":5.39691,"is_reserved":false,"is_disabled":false,"rental_uris":{"android":"levelo://app?vid=e7b9aaed-7e16-4b6b-922f-9aa24c3be178","ios":"levelo://app?vid=e7b9aaed-7e16-4b6b-922f-9aa24c3be178"},"vehicle_type_id":"4","last_reported":1751480143,"current_range_meters":15200,"station_id":"ce4bgvp2rcd13ifvqcu0","pricing_plan_id":"cebpf4jnsgd1na2vs0mg"},{"bike_id":"d0662380-6c57-48cb-bca9-0e06c31eaa27","system_id":"levelo_inurba_marseille","lat":43.27363,"lon":5.36233,"is_reserved":false,"is_disabled":false,"rental_uris":{"android":"levelo://app?vid=d0662380-6c57-48cb-bca9-0e06c31eaa27","ios":"levelo://app?vid=d0662380-6c57-48cb-bca9-0e06c31eaa27"},"vehicle_type_id":"4","last_reported":1751480143,"current_range_meters":15200,"station_id":"ce4bhbh2rcd13ifvqeo0","pricing_plan_id":"cebpf4jnsgd1na2vs0mg"},{"bike_id":"331745a6-416e-4697-a3b9-8b6ec98fb01a","system_id":"levelo_inurba_marseille","lat":43.28423,"lon":5.34982,"is_reserved":false,"is_disabled":false,"rental_uris":{"android":"levelo://app?vid=331745a6-416e-4697-a3b9-8b6ec98fb01a","ios":"levelo://app?vid=331745a6-416e-4697-a3b9-8b6ec98fb01a"},"vehicle_type_id":"4","last_reported":1751480143,"current_range_meters":15200,"station_id":"ce4bhbh2rcd13ifvqepg","pricing_plan_id":"cebpf4jnsgd1na2vs0mg"},{"bike_id":"a4fa0864-a85b-4e58-80fb-f707fbcf1f52","system_id":"levelo_inurba_marseille","lat":43.28408,"lon":5.34993,"is_reserved":false,"is_disabled":false,"rental_uris":{"android":"levelo://app?vid=a4fa0864-a85b-4e58-80fb-f707fbcf1f52","ios":"levelo://app?vid=a4fa0864-a85b-4e58-80fb-f707fbcf1f52"},"vehicle_type_id":"4","last_reported":1751480143,"current_range_meters":15200,"station_id":"ce4bhbh2rcd13ifvqepg","pricing_plan_id":"cebpf4jnsgd1na2vs0mg"},{"bike_id":"d9c7d075-4d2f-47ad-ab59-c8d0f7c36398","system_id":"levelo_inurba_marseille","lat":43.28429,"lon":5.34982,"is_reserved":false,"is_disabled":false,"rental_uris":{"android":"levelo://app?vid=d9c7d075-4d2f-47ad-ab59-c8d0f7c36398","ios":"levelo://app?vid=d9c7d075-4d2f-47ad-ab59-c8d0f7c36398"},"vehicle_type_id":"4","last_reported":1751480143,"current_range_meters":15200,"station_id":"ce4bhbh2rcd13ifvqepg","pricing_plan_id":"cebpf4jnsgd1na2vs0mg"},{"bike_id":"3bac4b2c-7470-4424-bc3f-533b0f83c590","system_id":"levelo_inurba_marseille","lat":43.28415,"lon":5.3499,"is_reserved":false,"is_disabled":false,"rental_uris":{"android":"levelo://app?vid=3bac4b2c-7470-4424-bc3f-533b0f83c590","ios":"levelo://app?vid=3bac4b2c-7470-4424-bc3f-533b0f83c590"},"vehicle_type_id":"4","last_reported":1751480143,"current_range_meters":15200,"station_id":"ce4bhbh2rcd13ifvqepg","pricing_plan_id":"cebpf4jnsgd1na2vs0mg"},{"bike_id":"473d1ca9-1a51-4ba5-bd78-fb30f467aab7","system_id":"levelo_inurba_marseille","lat":43.28423,"lon":5.34988,"is_reserved":false,"is_disabled":false,"rental_uris":{"android":"levelo://app?vid=473d1ca9-1a51-4ba5-bd78-fb30f467aab7","ios":"levelo://app?vid=473d1ca9-1a51-4ba5-bd78-fb30f467aab7"},"vehicle_type_id":"4","last_reported":1751480143,"current_range_meters":15200,"station_id":"ce4bhbh2rcd13ifvqepg","pricing_plan_id":"cebpf4jnsgd1na2vs0mg"},{"bike_id":"5b7c37ba-ef92-4204-a5cf-ab47f46d17fe","system_id":"levelo_inurba_marseille","lat":43.28611,"lon":5.35102,"is_reserved":false,"is_disabled":false,"rental_uris":{"android":"levelo://app?vid=5b7c37ba-ef92-4204-a5cf-ab47f46d17fe","ios":"levelo://app?vid=5b7c37ba-ef92-4204-a5cf-ab47f46d17fe"},"vehicle_type_id":"4","last_reported":1751480143,"current_range_meters":15200,"station_id":"ce4bhch2rcd13ifvqeug","pricing_plan_id":"cebpf4jnsgd1na2vs0mg"},{"bike_id":"8e959f1b-c92a-4852-a036-77eeea1e469d","system_id":"levelo_inurba_marseille","lat":43.28638,"lon":5.35121,"is_reserved":false,"is_disabled":false,"rental_uris":{"android":"levelo://app?vid=8e959f1b-c92a-4852-a036-77eeea1e469d","ios":"levelo://app?vid=8e959f1b-c92a-4852-a036-77eeea1e469d"},"vehicle_type_id":"4","last_reported":1751480143,"current_range_meters":15200,"station_id":"ce4bhch2rcd13ifvqeug","pricing_plan_id":"cebpf4jnsgd1na2vs0mg"},{"bike_id":"752a7229-d138-4522-8787-0bb67b470949","system_id":"levelo_inurba_marseille","lat":43.31865,"lon":5.37632,"is_reserved":false,"is_disabled":false,"rental_uris":{"android":"levelo://app?vid=752a7229-d138-4522-8787-0bb67b470949","ios":"levelo://app?vid=752a7229-d138-4522-8787-0bb67b470949"},"vehicle_type_id":"4","last_reported":1751480143,"current_range_meters":16000,"station_id":"","pricing_plan_id":"cebpf4jnsgd1na2vs0mg"},{"bike_id":"a0cef316-ad95-4855-8f78-a31341a2b90e","system_id":"levelo_inurba_marseille","lat":43.31274,"lon":5.37751,"is_reserved":false,"is_disabled":false,"rental_uris":{"android":"levelo://app?vid=a0cef316-ad95-4855-8f78-a31341a2b90e","ios":"levelo://app?vid=a0cef316-ad95-4855-8f78-a31341a2b90e"},"vehicle_type_id":"4","last_reported":1751480143,"current_range_meters":16000,"station_id":"","pricing_plan_id":"cebpf4jnsgd1na2vs0mg"},{"bike_id":"c5e094ee-7885-42b9-806d-7288db0f9ebc","system_id":"levelo_inurba_marseille","lat":43.27376,"lon":5.3624,"is_reserved":false,"is_disabled":false,"rental_uris":{"android":"levelo://app?vid=c5e094ee-7885-42b9-806d-7288db0f9ebc","ios":"levelo://app?vid=c5e094ee-7885-42b9-806d-7288db0f9ebc"},"vehicle_type_id":"4","last_reported":1751480143,"current_range_meters":16000,"station_id":"ce4bhbh2rcd13ifvqeo0","pricing_plan_id":"cebpf4jnsgd1na2vs0mg"},{"bike_id":"29273d9f-e864-4b78-882a-1670632a65bd","system_id":"levelo_inurba_marseille","lat":43.28276,"lon":5.35068,"is_reserved":false,"is_disabled":false,"rental_uris":{"android":"levelo://app?vid=29273d9f-e864-4b78-882a-1670632a65bd","ios":"levelo://app?vid=29273d9f-e864-4b78-882a-1670632a65bd"},"vehicle_type_id":"4","last_reported":1751480143,"current_range_meters":16000,"station_id":"ce4bhbp2rcd13ifvqerg","pricing_plan_id":"cebpf4jnsgd1na2vs0mg"},{"bike_id":"92757ef9-0d97-482f-bf7d-3b03c4cab8db","system_id":"levelo_inurba_marseille","lat":43.2863,"lon":5.35111,"is_reserved":false,"is_disabled":false,"rental_uris":{"android":"levelo://app?vid=92757ef9-0d97-482f-bf7d-3b03c4cab8db","ios":"levelo://app?vid=92757ef9-0d97-482f-bf7d-3b03c4cab8db"},"vehicle_type_id":"4","last_reported":1751480143,"current_range_meters":16000,"station_id":"ce4bhch2rcd13ifvqeug","pricing_plan_id":"cebpf4jnsgd1na2vs0mg"},{"bike_id":"e89b31d2-9539-4885-9093-abfaa4170159","system_id":"levelo_inurba_marseille","lat":43.32479,"lon":5.36569,"is_reserved":false,"is_disabled":false,"rental_uris":{"android":"levelo://app?vid=e89b31d2-9539-4885-9093-abfaa4170159","ios":"levelo://app?vid=e89b31d2-9539-4885-9093-abfaa4170159"},"vehicle_type_id":"4","last_reported":1751480143,"current_range_meters":16000,"station_id":"ce4bhs12rcd13ifvqhvg","pricing_plan_id":"cebpf4jnsgd1na2vs0mg"},{"bike_id":"959e6f20-8ed0-4d36-bc1d-3efb82d6190b","system_id":"levelo_inurba_marseille","lat":43.21197,"lon":5.35073,"is_reserved":false,"is_disabled":false,"rental_uris":{"android":"levelo://app?vid=959e6f20-8ed0-4d36-bc1d-3efb82d6190b","ios":"levelo://app?vid=959e6f20-8ed0-4d36-bc1d-3efb82d6190b"},"vehicle_type_id":"4","last_reported":1751480143,"current_range_meters":16000,"station_id":"st_cvj6sg6p6f1abm77japg","pricing_plan_id":"cebpf4jnsgd1na2vs0mg"},{"bike_id":"0e030323-4386-4e72-9a0d-0f6a2ff539de","system_id":"levelo_inurba_marseille","lat":43.29612,"lon":5.40547,"is_reserved":false,"is_disabled":false,"rental_uris":{"android":"levelo://app?vid=0e030323-4386-4e72-9a0d-0f6a2ff539de","ios":"levelo://app?vid=0e030323-4386-4e72-9a0d-0f6a2ff539de"},"vehicle_type_id":"4","last_reported":1751480143,"current_range_meters":16400,"station_id":"ce4bh0h2rcd13ifvqd60","pricing_plan_id":"cebpf4jnsgd1na2vs0mg"},{"bike_id":"64264557-e288-4283-b1a1-623a1310cfc5","system_id":"levelo_inurba_marseille","lat":43.28701,"lon":5.37375,"is_reserved":false,"is_disabled":false,"rental_uris":{"android":"levelo://app?vid=64264557-e288-4283-b1a1-623a1310cfc5","ios":"levelo://app?vid=64264557-e288-4283-b1a1-623a1310cfc5"},"vehicle_type_id":"4","last_reported":1751480143,"current_range_meters":16400,"station_id":"ce4bh3p2rcd13ifvqdq0","pricing_plan_id":"cebpf4jnsgd1na2vs0mg"},{"bike_id":"c0250866-11d0-420e-b0f3-1bce39b8d140","system_id":"levelo_inurba_marseille","lat":43.28633,"lon":5.35085,"is_reserved":false,"is_disabled":false,"rental_uris":{"android":"levelo://app?vid=c0250866-11d0-420e-b0f3-1bce39b8d140","ios":"levelo://app?vid=c0250866-11d0-420e-b0f3-1bce39b8d140"},"vehicle_type_id":"4","last_reported":1751480143,"current_range_meters":16400,"station_id":"ce4bhch2rcd13ifvqeug","pricing_plan_id":"cebpf4jnsgd1na2vs0mg"},{"bike_id":"a44e29fa-a3c4-456a-9b85-cb2bafbd51bd","system_id":"levelo_inurba_marseille","lat":43.21761,"lon":5.34596,"is_reserved":false,"is_disabled":false,"rental_uris":{"android":"levelo://app?vid=a44e29fa-a3c4-456a-9b85-cb2bafbd51bd","ios":"levelo://app?vid=a44e29fa-a3c4-456a-9b85-cb2bafbd51bd"},"vehicle_type_id":"4","last_reported":1751480143,"current_range_meters":16400,"station_id":"st_cvj6r9ubvosntc0bgbag","pricing_plan_id":"cebpf4jnsgd1na2vs0mg"},{"bike_id":"09a94feb-8911-4d3d-9f22-a7f611710ea1","system_id":"levelo_inurba_marseille","lat":43.211927,"lon":5.350746,"is_reserved":false,"is_disabled":false,"rental_uris":{"android":"levelo://app?vid=09a94feb-8911-4d3d-9f22-a7f611710ea1","ios":"levelo://app?vid=09a94feb-8911-4d3d-9f22-a7f611710ea1"},"vehicle_type_id":"4","last_reported":1751480143,"current_range_meters":16400,"station_id":"st_cvj6sg6p6f1abm77japg","pricing_plan_id":"cebpf4jnsgd1na2vs0mg"},{"bike_id":"63072e0c-9f69-4913-be48-96789ec98037","system_id":"levelo_inurba_marseille","lat":43.33432,"lon":5.40069,"is_reserved":false,"is_disabled":false,"rental_uris":{"android":"levelo://app?vid=63072e0c-9f69-4913-be48-96789ec98037","ios":"levelo://app?vid=63072e0c-9f69-4913-be48-96789ec98037"},"vehicle_type_id":"4","last_reported":1751480143,"current_range_meters":16800,"station_id":"","pricing_plan_id":"cebpf4jnsgd1na2vs0mg"},{"bike_id":"66d1f79a-cd61-4cbb-8134-4ad3b1ff5ffa","system_id":"levelo_inurba_marseille","lat":43.298,"lon":5.40393,"is_reserved":false,"is_disabled":false,"rental_uris":{"android":"levelo://app?vid=66d1f79a-cd61-4cbb-8134-4ad3b1ff5ffa","ios":"levelo://app?vid=66d1f79a-cd61-4cbb-8134-4ad3b1ff5ffa"},"vehicle_type_id":"4","last_reported":1751480143,"current_range_meters":16800,"station_id":"ce4bh112rcd13ifvqd90","pricing_plan_id":"cebpf4jnsgd1na2vs0mg"},{"bike_id":"f4d29537-f6ca-4d09-b749-036d7617eb51","system_id":"levelo_inurba_marseille","lat":43.24177,"lon":5.36384,"is_reserved":false,"is_disabled":false,"rental_uris":{"android":"levelo://app?vid=f4d29537-f6ca-4d09-b749-036d7617eb51","ios":"levelo://app?vid=f4d29537-f6ca-4d09-b749-036d7617eb51"},"vehicle_type_id":"4","last_reported":1751480143,"current_range_meters":16800,"station_id":"cpo36qri1sfpv3e86is0","pricing_plan_id":"cebpf4jnsgd1na2vs0mg"},{"bike_id":"8bf0d992-d2a0-428e-940a-091ee9b7c2a4","system_id":"levelo_inurba_marseille","lat":43.21194,"lon":5.35069,"is_reserved":false,"is_disabled":false,"rental_uris":{"android":"levelo://app?vid=8bf0d992-d2a0-428e-940a-091ee9b7c2a4","ios":"levelo://app?vid=8bf0d992-d2a0-428e-940a-091ee9b7c2a4"},"vehicle_type_id":"4","last_reported":1751480143,"current_range_meters":16800,"station_id":"st_cvj6sg6p6f1abm77japg","pricing_plan_id":"cebpf4jnsgd1na2vs0mg"},{"bike_id":"c10a4283-320d-4e64-8d75-ff83e94026ba","system_id":"levelo_inurba_marseille","lat":43.21194,"lon":5.3506,"is_reserved":false,"is_disabled":false,"rental_uris":{"android":"levelo://app?vid=c10a4283-320d-4e64-8d75-ff83e94026ba","ios":"levelo://app?vid=c10a4283-320d-4e64-8d75-ff83e94026ba"},"vehicle_type_id":"4","last_reported":1751480143,"current_range_meters":16800,"station_id":"st_cvj6sg6p6f1abm77japg","pricing_plan_id":"cebpf4jnsgd1na2vs0mg"},{"bike_id":"8a74f5cd-9efa-4362-bea7-a32db4dcc85c","system_id":"levelo_inurba_marseille","lat":43.211923,"lon":5.350786,"is_reserved":false,"is_disabled":false,"rental_uris":{"android":"levelo://app?vid=8a74f5cd-9efa-4362-bea7-a32db4dcc85c","ios":"levelo://app?vid=8a74f5cd-9efa-4362-bea7-a32db4dcc85c"},"vehicle_type_id":"4","last_reported":1751480143,"current_range_meters":16800,"station_id":"st_cvj6sg6p6f1abm77japg","pricing_plan_id":"cebpf4jnsgd1na2vs0mg"},{"bike_id":"693d80d0-0bd0-4611-929b-8314957db991","system_id":"levelo_inurba_marseille","lat":43.21194,"lon":5.35071,"is_reserved":false,"is_disabled":false,"rental_uris":{"android":"levelo://app?vid=693d80d0-0bd0-4611-929b-8314957db991","ios":"levelo://app?vid=693d80d0-0bd0-4611-929b-8314957db991"},"vehicle_type_id":"4","last_reported":1751480143,"current_range_meters":16800,"station_id":"st_cvj6sg6p6f1abm77japg","pricing_plan_id":"cebpf4jnsgd1na2vs0mg"},{"bike_id":"6d2da863-a742-45db-855b-55a94467cfa4","system_id":"levelo_inurba_marseille","lat":43.32594,"lon":5.42733,"is_reserved":false,"is_disabled":false,"rental_uris":{"android":"levelo://app?vid=6d2da863-a742-45db-855b-55a94467cfa4","ios":"levelo://app?vid=6d2da863-a742-45db-855b-55a94467cfa4"},"vehicle_type_id":"4","last_reported":1751480143,"current_range_meters":17200,"station_id":"","pricing_plan_id":"cebpf4jnsgd1na2vs0mg"},{"bike_id":"bca9a6d9-ad0a-4796-9d99-77d00f156931","system_id":"levelo_inurba_marseille","lat":43.28414,"lon":5.34976,"is_reserved":false,"is_disabled":false,"rental_uris":{"android":"levelo://app?vid=bca9a6d9-ad0a-4796-9d99-77d00f156931","ios":"levelo://app?vid=bca9a6d9-ad0a-4796-9d99-77d00f156931"},"vehicle_type_id":"4","last_reported":1751480143,"current_range_meters":17200,"station_id":"ce4bhbh2rcd13ifvqepg","pricing_plan_id":"cebpf4jnsgd1na2vs0mg"},{"bike_id":"ff2eed52-76b4-4357-b31a-0d511595ff47","system_id":"levelo_inurba_marseille","lat":43.28427,"lon":5.34977,"is_reserved":false,"is_disabled":false,"rental_uris":{"android":"levelo://app?vid=ff2eed52-76b4-4357-b31a-0d511595ff47","ios":"levelo://app?vid=ff2eed52-76b4-4357-b31a-0d511595ff47"},"vehicle_type_id":"4","last_reported":1751480143,"current_range_meters":17600,"station_id":"ce4bhbh2rcd13ifvqepg","pricing_plan_id":"cebpf4jnsgd1na2vs0mg"},{"bike_id":"2ea773ef-38dc-4d08-98e1-94889e1bf05e","system_id":"levelo_inurba_marseille","lat":43.28624,"lon":5.35106,"is_reserved":false,"is_disabled":false,"rental_uris":{"android":"levelo://app?vid=2ea773ef-38dc-4d08-98e1-94889e1bf05e","ios":"levelo://app?vid=2ea773ef-38dc-4d08-98e1-94889e1bf05e"},"vehicle_type_id":"4","last_reported":1751480143,"current_range_meters":17600,"station_id":"ce4bhch2rcd13ifvqeug","pricing_plan_id":"cebpf4jnsgd1na2vs0mg"},{"bike_id":"a65e93c1-5dcc-401d-8280-28bb84b21e6d","system_id":"levelo_inurba_marseille","lat":43.24387,"lon":5.37059,"is_reserved":false,"is_disabled":false,"rental_uris":{"android":"levelo://app?vid=a65e93c1-5dcc-401d-8280-28bb84b21e6d","ios":"levelo://app?vid=a65e93c1-5dcc-401d-8280-28bb84b21e6d"},"vehicle_type_id":"4","last_reported":1751480143,"current_range_meters":17600,"station_id":"ce4bhhh2rcd13ifvqfk0","pricing_plan_id":"cebpf4jnsgd1na2vs0mg"},{"bike_id":"3aef33fe-170b-477d-b53d-50076f9de469","system_id":"levelo_inurba_marseille","lat":43.26229,"lon":5.40451,"is_reserved":false,"is_disabled":false,"rental_uris":{"android":"levelo://app?vid=3aef33fe-170b-477d-b53d-50076f9de469","ios":"levelo://app?vid=3aef33fe-170b-477d-b53d-50076f9de469"},"vehicle_type_id":"4","last_reported":1751480143,"current_range_meters":17600,"station_id":"ce4bhmh2rcd13ifvqgmg","pricing_plan_id":"cebpf4jnsgd1na2vs0mg"},{"bike_id":"912d67f3-78e7-48fd-8929-37f0572cfee4","system_id":"levelo_inurba_marseille","lat":43.26358,"lon":5.3738,"is_reserved":false,"is_disabled":false,"rental_uris":{"android":"levelo://app?vid=912d67f3-78e7-48fd-8929-37f0572cfee4","ios":"levelo://app?vid=912d67f3-78e7-48fd-8929-37f0572cfee4"},"vehicle_type_id":"4","last_reported":1751480143,"current_range_meters":18000,"station_id":"","pricing_plan_id":"cebpf4jnsgd1na2vs0mg"},{"bike_id":"704485df-bcef-44ee-ad21-df8b7f2879ec","system_id":"levelo_inurba_marseille","lat":43.275,"lon":5.42456,"is_reserved":false,"is_disabled":false,"rental_uris":{"android":"levelo://app?vid=704485df-bcef-44ee-ad21-df8b7f2879ec","ios":"levelo://app?vid=704485df-bcef-44ee-ad21-df8b7f2879ec"},"vehicle_type_id":"4","last_reported":1751480143,"current_range_meters":18000,"station_id":"ce4bhn92rcd13ifvqgrg","pricing_plan_id":"cebpf4jnsgd1na2vs0mg"},{"bike_id":"68e309f4-b1e4-4f3a-b754-9a7df441dc33","system_id":"levelo_inurba_marseille","lat":43.2819,"lon":5.42612,"is_reserved":false,"is_disabled":false,"rental_uris":{"android":"levelo://app?vid=68e309f4-b1e4-4f3a-b754-9a7df441dc33","ios":"levelo://app?vid=68e309f4-b1e4-4f3a-b754-9a7df441dc33"},"vehicle_type_id":"4","last_reported":1751480143,"current_range_meters":18000,"station_id":"ce4bhnh2rcd13ifvqgug","pricing_plan_id":"cebpf4jnsgd1na2vs0mg"},{"bike_id":"10b0b860-bb51-4240-bd79-57112e19f6af","system_id":"levelo_inurba_marseille","lat":43.21764,"lon":5.34597,"is_reserved":false,"is_disabled":false,"rental_uris":{"android":"levelo://app?vid=10b0b860-bb51-4240-bd79-57112e19f6af","ios":"levelo://app?vid=10b0b860-bb51-4240-bd79-57112e19f6af"},"vehicle_type_id":"4","last_reported":1751480143,"current_range_meters":18000,"station_id":"st_cvj6r9ubvosntc0bgbag","pricing_plan_id":"cebpf4jnsgd1na2vs0mg"},{"bike_id":"0f590c2a-c81e-469d-a7d1-2741de3642a2","system_id":"levelo_inurba_marseille","lat":43.21197,"lon":5.3507,"is_reserved":false,"is_disabled":false,"rental_uris":{"android":"levelo://app?vid=0f590c2a-c81e-469d-a7d1-2741de3642a2","ios":"levelo://app?vid=0f590c2a-c81e-469d-a7d1-2741de3642a2"},"vehicle_type_id":"4","last_reported":1751480143,"current_range_meters":18000,"station_id":"st_cvj6sg6p6f1abm77japg","pricing_plan_id":"cebpf4jnsgd1na2vs0mg"},{"bike_id":"ba154a12-11bd-42a5-958a-5992f5d043d1","system_id":"levelo_inurba_marseille","lat":43.30463,"lon":5.36964,"is_reserved":false,"is_disabled":false,"rental_uris":{"android":"levelo://app?vid=ba154a12-11bd-42a5-958a-5992f5d043d1","ios":"levelo://app?vid=ba154a12-11bd-42a5-958a-5992f5d043d1"},"vehicle_type_id":"4","last_reported":1751480143,"current_range_meters":18800,"station_id":"","pricing_plan_id":"cebpf4jnsgd1na2vs0mg"},{"bike_id":"d821e1cb-b21f-46f0-9b42-55f752bfda8c","system_id":"levelo_inurba_marseille","lat":43.29935,"lon":5.36544,"is_reserved":false,"is_disabled":false,"rental_uris":{"android":"levelo://app?vid=d821e1cb-b21f-46f0-9b42-55f752bfda8c","ios":"levelo://app?vid=d821e1cb-b21f-46f0-9b42-55f752bfda8c"},"vehicle_type_id":"4","last_reported":1751480143,"current_range_meters":18800,"station_id":"ce4bgm92rcd13ifvqbr0","pricing_plan_id":"cebpf4jnsgd1na2vs0mg"},{"bike_id":"756d70f9-325b-4453-8d80-2de2871c3217","system_id":"levelo_inurba_marseille","lat":43.28417,"lon":5.34989,"is_reserved":false,"is_disabled":false,"rental_uris":{"android":"levelo://app?vid=756d70f9-325b-4453-8d80-2de2871c3217","ios":"levelo://app?vid=756d70f9-325b-4453-8d80-2de2871c3217"},"vehicle_type_id":"4","last_reported":1751480143,"current_range_meters":18800,"station_id":"ce4bhbh2rcd13ifvqepg","pricing_plan_id":"cebpf4jnsgd1na2vs0mg"},{"bike_id":"88da0a8a-c235-4518-8971-4d82c75fdca3","system_id":"levelo_inurba_marseille","lat":43.284199,"lon":5.349994,"is_reserved":false,"is_disabled":false,"rental_uris":{"android":"levelo://app?vid=88da0a8a-c235-4518-8971-4d82c75fdca3","ios":"levelo://app?vid=88da0a8a-c235-4518-8971-4d82c75fdca3"},"vehicle_type_id":"4","last_reported":1751480143,"current_range_meters":18800,"station_id":"ce4bhbh2rcd13ifvqepg","pricing_plan_id":"cebpf4jnsgd1na2vs0mg"},{"bike_id":"3d7f8e9b-4213-40e4-a3e7-78d54f706b9f","system_id":"levelo_inurba_marseille","lat":43.2842,"lon":5.34987,"is_reserved":false,"is_disabled":false,"rental_uris":{"android":"levelo://app?vid=3d7f8e9b-4213-40e4-a3e7-78d54f706b9f","ios":"levelo://app?vid=3d7f8e9b-4213-40e4-a3e7-78d54f706b9f"},"vehicle_type_id":"4","last_reported":1751480143,"current_range_meters":18800,"station_id":"ce4bhbh2rcd13ifvqepg","pricing_plan_id":"cebpf4jnsgd1na2vs0mg"},{"bike_id":"2b7bd2c8-d1b2-4343-a26e-43e4322bae6f","system_id":"levelo_inurba_marseille","lat":43.28411,"lon":5.34996,"is_reserved":false,"is_disabled":false,"rental_uris":{"android":"levelo://app?vid=2b7bd2c8-d1b2-4343-a26e-43e4322bae6f","ios":"levelo://app?vid=2b7bd2c8-d1b2-4343-a26e-43e4322bae6f"},"vehicle_type_id":"4","last_reported":1751480143,"current_range_meters":18800,"station_id":"ce4bhbh2rcd13ifvqepg","pricing_plan_id":"cebpf4jnsgd1na2vs0mg"},{"bike_id":"42d67590-34b2-45f7-bbcc-773c40041700","system_id":"levelo_inurba_marseille","lat":43.27361,"lon":5.36231,"is_reserved":false,"is_disabled":false,"rental_uris":{"android":"levelo://app?vid=42d67590-34b2-45f7-bbcc-773c40041700","ios":"levelo://app?vid=42d67590-34b2-45f7-bbcc-773c40041700"},"vehicle_type_id":"4","last_reported":1751480143,"current_range_meters":19200,"station_id":"ce4bhbh2rcd13ifvqeo0","pricing_plan_id":"cebpf4jnsgd1na2vs0mg"},{"bike_id":"5eff832e-c78a-448d-99c0-d4ac89c64acc","system_id":"levelo_inurba_marseille","lat":43.28631,"lon":5.35073,"is_reserved":false,"is_disabled":false,"rental_uris":{"android":"levelo://app?vid=5eff832e-c78a-448d-99c0-d4ac89c64acc","ios":"levelo://app?vid=5eff832e-c78a-448d-99c0-d4ac89c64acc"},"vehicle_type_id":"4","last_reported":1751480143,"current_range_meters":19200,"station_id":"ce4bhch2rcd13ifvqeug","pricing_plan_id":"cebpf4jnsgd1na2vs0mg"},{"bike_id":"f5e58e05-94ef-43c0-ae1b-f713901c3bed","system_id":"levelo_inurba_marseille","lat":43.28618,"lon":5.35108,"is_reserved":false,"is_disabled":false,"rental_uris":{"android":"levelo://app?vid=f5e58e05-94ef-43c0-ae1b-f713901c3bed","ios":"levelo://app?vid=f5e58e05-94ef-43c0-ae1b-f713901c3bed"},"vehicle_type_id":"4","last_reported":1751480143,"current_range_meters":19200,"station_id":"ce4bhch2rcd13ifvqeug","pricing_plan_id":"cebpf4jnsgd1na2vs0mg"},{"bike_id":"a9f5f727-8e7d-4dd3-926a-5d32d0aa1510","system_id":"levelo_inurba_marseille","lat":43.28621,"lon":5.35111,"is_reserved":false,"is_disabled":false,"rental_uris":{"android":"levelo://app?vid=a9f5f727-8e7d-4dd3-926a-5d32d0aa1510","ios":"levelo://app?vid=a9f5f727-8e7d-4dd3-926a-5d32d0aa1510"},"vehicle_type_id":"4","last_reported":1751480143,"current_range_meters":19200,"station_id":"ce4bhch2rcd13ifvqeug","pricing_plan_id":"cebpf4jnsgd1na2vs0mg"},{"bike_id":"d7eb42dd-1291-458b-978f-486fe89680a6","system_id":"levelo_inurba_marseille","lat":43.248098,"lon":5.374576,"is_reserved":false,"is_disabled":false,"rental_uris":{"android":"levelo://app?vid=d7eb42dd-1291-458b-978f-486fe89680a6","ios":"levelo://app?vid=d7eb42dd-1291-458b-978f-486fe89680a6"},"vehicle_type_id":"4","last_reported":1751480143,"current_range_meters":19200,"station_id":"ce4bhgh2rcd13ifvqfb0","pricing_plan_id":"cebpf4jnsgd1na2vs0mg"},{"bike_id":"cf11fe81-1d96-4f7f-a0fa-cad6a486d01d","system_id":"levelo_inurba_marseille","lat":43.28152,"lon":5.42615,"is_reserved":false,"is_disabled":false,"rental_uris":{"android":"levelo://app?vid=cf11fe81-1d96-4f7f-a0fa-cad6a486d01d","ios":"levelo://app?vid=cf11fe81-1d96-4f7f-a0fa-cad6a486d01d"},"vehicle_type_id":"4","last_reported":1751480143,"current_range_meters":19200,"station_id":"ce4bhnh2rcd13ifvqgug","pricing_plan_id":"cebpf4jnsgd1na2vs0mg"},{"bike_id":"48a8b866-9a64-4b58-8b3a-d988de0d4af0","system_id":"levelo_inurba_marseille","lat":43.24172,"lon":5.36401,"is_reserved":false,"is_disabled":false,"rental_uris":{"android":"levelo://app?vid=48a8b866-9a64-4b58-8b3a-d988de0d4af0","ios":"levelo://app?vid=48a8b866-9a64-4b58-8b3a-d988de0d4af0"},"vehicle_type_id":"4","last_reported":1751480143,"current_range_meters":19200,"station_id":"cpo36qri1sfpv3e86is0","pricing_plan_id":"cebpf4jnsgd1na2vs0mg"},{"bike_id":"37b84a38-055a-4a6e-a56a-8ff3d0c1b2ec","system_id":"levelo_inurba_marseille","lat":43.211938,"lon":5.35093,"is_reserved":false,"is_disabled":false,"rental_uris":{"android":"levelo://app?vid=37b84a38-055a-4a6e-a56a-8ff3d0c1b2ec","ios":"levelo://app?vid=37b84a38-055a-4a6e-a56a-8ff3d0c1b2ec"},"vehicle_type_id":"4","last_reported":1751480143,"current_range_meters":19200,"station_id":"st_cvj6sg6p6f1abm77japg","pricing_plan_id":"cebpf4jnsgd1na2vs0mg"},{"bike_id":"ff05c14e-5608-4f70-a8f4-8073cb308274","system_id":"levelo_inurba_marseille","lat":43.29207,"lon":5.39318,"is_reserved":false,"is_disabled":false,"rental_uris":{"android":"levelo://app?vid=ff05c14e-5608-4f70-a8f4-8073cb308274","ios":"levelo://app?vid=ff05c14e-5608-4f70-a8f4-8073cb308274"},"vehicle_type_id":"4","last_reported":1751480143,"current_range_meters":19600,"station_id":"ce4bh192rcd13ifvqdd0","pricing_plan_id":"cebpf4jnsgd1na2vs0mg"},{"bike_id":"aa8ddeaa-7e9e-4793-a744-3011cfc6c1fb","system_id":"levelo_inurba_marseille","lat":43.27377,"lon":5.36261,"is_reserved":false,"is_disabled":false,"rental_uris":{"android":"levelo://app?vid=aa8ddeaa-7e9e-4793-a744-3011cfc6c1fb","ios":"levelo://app?vid=aa8ddeaa-7e9e-4793-a744-3011cfc6c1fb"},"vehicle_type_id":"4","last_reported":1751480143,"current_range_meters":19600,"station_id":"ce4bhbh2rcd13ifvqeo0","pricing_plan_id":"cebpf4jnsgd1na2vs0mg"},{"bike_id":"db714f02-8001-440b-a547-d12772041185","system_id":"levelo_inurba_marseille","lat":43.29223,"lon":5.3603,"is_reserved":false,"is_disabled":false,"rental_uris":{"android":"levelo://app?vid=db714f02-8001-440b-a547-d12772041185","ios":"levelo://app?vid=db714f02-8001-440b-a547-d12772041185"},"vehicle_type_id":"4","last_reported":1751480143,"current_range_meters":19600,"station_id":"ce4bhbh2rcd13ifvqeqg","pricing_plan_id":"cebpf4jnsgd1na2vs0mg"},{"bike_id":"f2444b85-9156-423d-9bd7-9f663f4f21b5","system_id":"levelo_inurba_marseille","lat":43.28601,"lon":5.35093,"is_reserved":false,"is_disabled":false,"rental_uris":{"android":"levelo://app?vid=f2444b85-9156-423d-9bd7-9f663f4f21b5","ios":"levelo://app?vid=f2444b85-9156-423d-9bd7-9f663f4f21b5"},"vehicle_type_id":"4","last_reported":1751480143,"current_range_meters":19600,"station_id":"ce4bhch2rcd13ifvqeug","pricing_plan_id":"cebpf4jnsgd1na2vs0mg"},{"bike_id":"d719dba5-2cfd-4bd0-8ab8-2954eb1c3cfa","system_id":"levelo_inurba_marseille","lat":43.24811,"lon":5.37458,"is_reserved":false,"is_disabled":false,"rental_uris":{"android":"levelo://app?vid=d719dba5-2cfd-4bd0-8ab8-2954eb1c3cfa","ios":"levelo://app?vid=d719dba5-2cfd-4bd0-8ab8-2954eb1c3cfa"},"vehicle_type_id":"4","last_reported":1751480143,"current_range_meters":19600,"station_id":"ce4bhgh2rcd13ifvqfb0","pricing_plan_id":"cebpf4jnsgd1na2vs0mg"},{"bike_id":"4ee0c84b-5139-4ef4-b8fe-2befea0f720e","system_id":"levelo_inurba_marseille","lat":43.24386,"lon":5.37058,"is_reserved":false,"is_disabled":false,"rental_uris":{"android":"levelo://app?vid=4ee0c84b-5139-4ef4-b8fe-2befea0f720e","ios":"levelo://app?vid=4ee0c84b-5139-4ef4-b8fe-2befea0f720e"},"vehicle_type_id":"4","last_reported":1751480143,"current_range_meters":19600,"station_id":"ce4bhhh2rcd13ifvqfk0","pricing_plan_id":"cebpf4jnsgd1na2vs0mg"},{"bike_id":"3d63bec8-5572-4df0-8971-da63a844af9b","system_id":"levelo_inurba_marseille","lat":43.26215,"lon":5.37909,"is_reserved":false,"is_disabled":false,"rental_uris":{"android":"levelo://app?vid=3d63bec8-5572-4df0-8971-da63a844af9b","ios":"levelo://app?vid=3d63bec8-5572-4df0-8971-da63a844af9b"},"vehicle_type_id":"4","last_reported":1751480143,"current_range_meters":19600,"station_id":"ce4bhjp2rcd13ifvqg90","pricing_plan_id":"cebpf4jnsgd1na2vs0mg"},{"bike_id":"21e2c51d-4563-4efd-afbf-0ddeff93c862","system_id":"levelo_inurba_marseille","lat":43.217507,"lon":5.346021,"is_reserved":false,"is_disabled":false,"rental_uris":{"android":"levelo://app?vid=21e2c51d-4563-4efd-afbf-0ddeff93c862","ios":"levelo://app?vid=21e2c51d-4563-4efd-afbf-0ddeff93c862"},"vehicle_type_id":"4","last_reported":1751480143,"current_range_meters":19600,"station_id":"st_cvj6r9ubvosntc0bgbag","pricing_plan_id":"cebpf4jnsgd1na2vs0mg"},{"bike_id":"4d4995e7-0bba-4ac2-a238-afd84a5e99b5","system_id":"levelo_inurba_marseille","lat":43.304848,"lon":5.398345,"is_reserved":false,"is_disabled":false,"rental_uris":{"android":"levelo://app?vid=4d4995e7-0bba-4ac2-a238-afd84a5e99b5","ios":"levelo://app?vid=4d4995e7-0bba-4ac2-a238-afd84a5e99b5"},"vehicle_type_id":"4","last_reported":1751480143,"current_range_meters":20000,"station_id":"","pricing_plan_id":"cebpf4jnsgd1na2vs0mg"},{"bike_id":"7e21e8f2-09c8-4cc5-8113-278ebd23888d","system_id":"levelo_inurba_marseille","lat":43.21223,"lon":5.35051,"is_reserved":false,"is_disabled":false,"rental_uris":{"android":"levelo://app?vid=7e21e8f2-09c8-4cc5-8113-278ebd23888d","ios":"levelo://app?vid=7e21e8f2-09c8-4cc5-8113-278ebd23888d"},"vehicle_type_id":"4","last_reported":1751480143,"current_range_meters":20000,"station_id":"","pricing_plan_id":"cebpf4jnsgd1na2vs0mg"},{"bike_id":"50bb0fdb-2cc1-4d8d-af26-b7febba54985","system_id":"levelo_inurba_marseille","lat":43.274139,"lon":5.39007,"is_reserved":false,"is_disabled":false,"rental_uris":{"android":"levelo://app?vid=50bb0fdb-2cc1-4d8d-af26-b7febba54985","ios":"levelo://app?vid=50bb0fdb-2cc1-4d8d-af26-b7febba54985"},"vehicle_type_id":"4","last_reported":1751480143,"current_range_meters":20000,"station_id":"","pricing_plan_id":"cebpf4jnsgd1na2vs0mg"},{"bike_id":"58dffcea-c54b-48ff-afd0-ee4a472fee41","system_id":"levelo_inurba_marseille","lat":43.28274,"lon":5.35062,"is_reserved":false,"is_disabled":false,"rental_uris":{"android":"levelo://app?vid=58dffcea-c54b-48ff-afd0-ee4a472fee41","ios":"levelo://app?vid=58dffcea-c54b-48ff-afd0-ee4a472fee41"},"vehicle_type_id":"4","last_reported":1751480143,"current_range_meters":20000,"station_id":"","pricing_plan_id":"cebpf4jnsgd1na2vs0mg"},{"bike_id":"18872a84-6dfe-4a55-82df-e91b6b92e1f8","system_id":"levelo_inurba_marseille","lat":43.29945,"lon":5.36546,"is_reserved":false,"is_disabled":false,"rental_uris":{"android":"levelo://app?vid=18872a84-6dfe-4a55-82df-e91b6b92e1f8","ios":"levelo://app?vid=18872a84-6dfe-4a55-82df-e91b6b92e1f8"},"vehicle_type_id":"4","last_reported":1751480143,"current_range_meters":20000,"station_id":"ce4bgm92rcd13ifvqbr0","pricing_plan_id":"cebpf4jnsgd1na2vs0mg"},{"bike_id":"4d67b851-bb92-4761-9d13-373b2b7bed79","system_id":"levelo_inurba_marseille","lat":43.273616,"lon":5.385101,"is_reserved":false,"is_disabled":false,"rental_uris":{"android":"levelo://app?vid=4d67b851-bb92-4761-9d13-373b2b7bed79","ios":"levelo://app?vid=4d67b851-bb92-4761-9d13-373b2b7bed79"},"vehicle_type_id":"4","last_reported":1751480143,"current_range_meters":20000,"station_id":"ce4bh412rcd13ifvqdr0","pricing_plan_id":"cebpf4jnsgd1na2vs0mg"},{"bike_id":"92ce571e-8bb4-4eab-9f9e-809fb7433bc6","system_id":"levelo_inurba_marseille","lat":43.2737,"lon":5.36232,"is_reserved":false,"is_disabled":false,"rental_uris":{"android":"levelo://app?vid=92ce571e-8bb4-4eab-9f9e-809fb7433bc6","ios":"levelo://app?vid=92ce571e-8bb4-4eab-9f9e-809fb7433bc6"},"vehicle_type_id":"4","last_reported":1751480143,"current_range_meters":20000,"station_id":"ce4bhbh2rcd13ifvqeo0","pricing_plan_id":"cebpf4jnsgd1na2vs0mg"},{"bike_id":"9c4f9a2d-b455-431d-a8b6-b8f482f5e447","system_id":"levelo_inurba_marseille","lat":43.25508,"lon":5.37624,"is_reserved":false,"is_disabled":false,"rental_uris":{"android":"levelo://app?vid=9c4f9a2d-b455-431d-a8b6-b8f482f5e447","ios":"levelo://app?vid=9c4f9a2d-b455-431d-a8b6-b8f482f5e447"},"vehicle_type_id":"4","last_reported":1751480143,"current_range_meters":20000,"station_id":"ce4bhh12rcd13ifvqff0","pricing_plan_id":"cebpf4jnsgd1na2vs0mg"},{"bike_id":"a6715104-7492-4ec6-a996-23050baf8551","system_id":"levelo_inurba_marseille","lat":43.22516,"lon":5.34771,"is_reserved":false,"is_disabled":false,"rental_uris":{"android":"levelo://app?vid=a6715104-7492-4ec6-a996-23050baf8551","ios":"levelo://app?vid=a6715104-7492-4ec6-a996-23050baf8551"},"vehicle_type_id":"4","last_reported":1751480143,"current_range_meters":20000,"station_id":"st_cvj5dfep6f1abm77gieg","pricing_plan_id":"cebpf4jnsgd1na2vs0mg"},{"bike_id":"8f868f42-19df-4e4d-b3e0-a0a82996908a","system_id":"levelo_inurba_marseille","lat":43.28415,"lon":5.34995,"is_reserved":false,"is_disabled":false,"rental_uris":{"android":"levelo://app?vid=8f868f42-19df-4e4d-b3e0-a0a82996908a","ios":"levelo://app?vid=8f868f42-19df-4e4d-b3e0-a0a82996908a"},"vehicle_type_id":"4","last_reported":1751480143,"current_range_meters":20400,"station_id":"ce4bhbh2rcd13ifvqepg","pricing_plan_id":"cebpf4jnsgd1na2vs0mg"},{"bike_id":"0fe755ed-390c-4e0a-b281-2728111f44cc","system_id":"levelo_inurba_marseille","lat":43.28278,"lon":5.35072,"is_reserved":false,"is_disabled":false,"rental_uris":{"android":"levelo://app?vid=0fe755ed-390c-4e0a-b281-2728111f44cc","ios":"levelo://app?vid=0fe755ed-390c-4e0a-b281-2728111f44cc"},"vehicle_type_id":"4","last_reported":1751480143,"current_range_meters":20400,"station_id":"ce4bhbp2rcd13ifvqerg","pricing_plan_id":"cebpf4jnsgd1na2vs0mg"},{"bike_id":"de447828-5e9f-46fb-8399-124e8fff08b3","system_id":"levelo_inurba_marseille","lat":43.25088,"lon":5.39524,"is_reserved":false,"is_disabled":false,"rental_uris":{"android":"levelo://app?vid=de447828-5e9f-46fb-8399-124e8fff08b3","ios":"levelo://app?vid=de447828-5e9f-46fb-8399-124e8fff08b3"},"vehicle_type_id":"4","last_reported":1751480143,"current_range_meters":20400,"station_id":"ce4bhm12rcd13ifvqgkg","pricing_plan_id":"cebpf4jnsgd1na2vs0mg"},{"bike_id":"3dc356e6-98e7-4332-9d76-7fb5ca548e76","system_id":"levelo_inurba_marseille","lat":43.24178,"lon":5.36397,"is_reserved":false,"is_disabled":false,"rental_uris":{"android":"levelo://app?vid=3dc356e6-98e7-4332-9d76-7fb5ca548e76","ios":"levelo://app?vid=3dc356e6-98e7-4332-9d76-7fb5ca548e76"},"vehicle_type_id":"4","last_reported":1751480143,"current_range_meters":20400,"station_id":"cpo36qri1sfpv3e86is0","pricing_plan_id":"cebpf4jnsgd1na2vs0mg"},{"bike_id":"4133a128-498f-4833-be65-a8cfce0b7ca0","system_id":"levelo_inurba_marseille","lat":43.28418,"lon":5.34996,"is_reserved":false,"is_disabled":false,"rental_uris":{"android":"levelo://app?vid=4133a128-498f-4833-be65-a8cfce0b7ca0","ios":"levelo://app?vid=4133a128-498f-4833-be65-a8cfce0b7ca0"},"vehicle_type_id":"4","last_reported":1751480143,"current_range_meters":20800,"station_id":"ce4bhbh2rcd13ifvqepg","pricing_plan_id":"cebpf4jnsgd1na2vs0mg"},{"bike_id":"f1d60942-f1e1-4d98-9fd4-53066a986a39","system_id":"levelo_inurba_marseille","lat":43.2863,"lon":5.35092,"is_reserved":false,"is_disabled":false,"rental_uris":{"android":"levelo://app?vid=f1d60942-f1e1-4d98-9fd4-53066a986a39","ios":"levelo://app?vid=f1d60942-f1e1-4d98-9fd4-53066a986a39"},"vehicle_type_id":"4","last_reported":1751480143,"current_range_meters":20800,"station_id":"ce4bhch2rcd13ifvqeug","pricing_plan_id":"cebpf4jnsgd1na2vs0mg"},{"bike_id":"cc04118e-9312-4bf8-9106-d64e829afbaa","system_id":"levelo_inurba_marseille","lat":43.21209,"lon":5.35057,"is_reserved":false,"is_disabled":false,"rental_uris":{"android":"levelo://app?vid=cc04118e-9312-4bf8-9106-d64e829afbaa","ios":"levelo://app?vid=cc04118e-9312-4bf8-9106-d64e829afbaa"},"vehicle_type_id":"4","last_reported":1751480143,"current_range_meters":20800,"station_id":"st_cvj6sg6p6f1abm77japg","pricing_plan_id":"cebpf4jnsgd1na2vs0mg"},{"bike_id":"b2ce53ca-166b-417e-9d70-9bee393f75bb","system_id":"levelo_inurba_marseille","lat":43.21225,"lon":5.35077,"is_reserved":false,"is_disabled":false,"rental_uris":{"android":"levelo://app?vid=b2ce53ca-166b-417e-9d70-9bee393f75bb","ios":"levelo://app?vid=b2ce53ca-166b-417e-9d70-9bee393f75bb"},"vehicle_type_id":"4","last_reported":1751480143,"current_range_meters":20800,"station_id":"st_cvj6sg6p6f1abm77japg","pricing_plan_id":"cebpf4jnsgd1na2vs0mg"},{"bike_id":"e2853727-47c1-4ea8-bca7-daf7e106074b","system_id":"levelo_inurba_marseille","lat":43.29705,"lon":5.36606,"is_reserved":false,"is_disabled":false,"rental_uris":{"android":"levelo://app?vid=e2853727-47c1-4ea8-bca7-daf7e106074b","ios":"levelo://app?vid=e2853727-47c1-4ea8-bca7-daf7e106074b"},"vehicle_type_id":"4","last_reported":1751480143,"current_range_meters":21600,"station_id":"ce4bgn12rcd13ifvqbt0","pricing_plan_id":"cebpf4jnsgd1na2vs0mg"},{"bike_id":"e3b6487b-9243-4828-88ea-e6095aec794f","system_id":"levelo_inurba_marseille","lat":43.313538,"lon":5.396969,"is_reserved":false,"is_disabled":false,"rental_uris":{"android":"levelo://app?vid=e3b6487b-9243-4828-88ea-e6095aec794f","ios":"levelo://app?vid=e3b6487b-9243-4828-88ea-e6095aec794f"},"vehicle_type_id":"4","last_reported":1751480143,"current_range_meters":21600,"station_id":"ce4bgvp2rcd13ifvqcu0","pricing_plan_id":"cebpf4jnsgd1na2vs0mg"},{"bike_id":"bced8670-7718-40a0-8565-f22b92dd139e","system_id":"levelo_inurba_marseille","lat":43.30646,"lon":5.40098,"is_reserved":false,"is_disabled":false,"rental_uris":{"android":"levelo://app?vid=bced8670-7718-40a0-8565-f22b92dd139e","ios":"levelo://app?vid=bced8670-7718-40a0-8565-f22b92dd139e"},"vehicle_type_id":"4","last_reported":1751480143,"current_range_meters":21600,"station_id":"ce4bh112rcd13ifvqda0","pricing_plan_id":"cebpf4jnsgd1na2vs0mg"},{"bike_id":"ec66d75f-c615-40f8-bbb1-8f9ad41dbee6","system_id":"levelo_inurba_marseille","lat":43.27371,"lon":5.36249,"is_reserved":false,"is_disabled":false,"rental_uris":{"android":"levelo://app?vid=ec66d75f-c615-40f8-bbb1-8f9ad41dbee6","ios":"levelo://app?vid=ec66d75f-c615-40f8-bbb1-8f9ad41dbee6"},"vehicle_type_id":"4","last_reported":1751480143,"current_range_meters":21600,"station_id":"ce4bhbh2rcd13ifvqeo0","pricing_plan_id":"cebpf4jnsgd1na2vs0mg"},{"bike_id":"58f66f98-668b-4689-8ec9-a3b07ca9f165","system_id":"levelo_inurba_marseille","lat":43.27174,"lon":5.40997,"is_reserved":false,"is_disabled":false,"rental_uris":{"android":"levelo://app?vid=58f66f98-668b-4689-8ec9-a3b07ca9f165","ios":"levelo://app?vid=58f66f98-668b-4689-8ec9-a3b07ca9f165"},"vehicle_type_id":"4","last_reported":1751480143,"current_range_meters":21600,"station_id":"ce4bhl12rcd13ifvqgf0","pricing_plan_id":"cebpf4jnsgd1na2vs0mg"},{"bike_id":"1c8ab180-05fd-405f-9922-b2b2c2d5142f","system_id":"levelo_inurba_marseille","lat":43.337873,"lon":5.38124,"is_reserved":false,"is_disabled":false,"rental_uris":{"android":"levelo://app?vid=1c8ab180-05fd-405f-9922-b2b2c2d5142f","ios":"levelo://app?vid=1c8ab180-05fd-405f-9922-b2b2c2d5142f"},"vehicle_type_id":"4","last_reported":1751480143,"current_range_meters":22000,"station_id":"","pricing_plan_id":"cebpf4jnsgd1na2vs0mg"},