{"last_updated":1758899392,"ttl":60,"version":"2.2","data":{"bikes":[{"bike_id":"ceb753dd-0dcb-47a4-82ef-392473109760","system_id":"levelo_inurba_marseille","lat":43.26783,"lon":5.394163,"is_reserved":false,"is_disabled":false,"rental_uris":{"android":"levelo://app?vid=ceb753dd-0dcb-47a4-82ef-392473109760","ios":"levelo://app?vid=ceb753dd-0dcb-47a4-82ef-392473109760"},"vehicle_type_id":"4","last_reported":1758899392,"current_range_meters":2800,"station_id":"ce4bhh12rcd13ifvqfg0","pricing_plan_id":"cebpf4jnsgd1na2vs0mg"},{"bike_id":"097f6b99-d288-405d-80e3-e42a1e879aea","system_id":"levelo_inurba_marseille","lat":43.260282,"lon":5.375533,"is_reserved":false,"is_disabled":false,"rental_uris":{"android":"levelo://app?vid=097f6b99-d288-405d-80e3-e42a1e879aea","ios":"levelo://app?vid=097f6b99-d288-405d-80e3-e42a1e879aea"},"vehicle_type_id":"4","last_reported":1758899392,"current_range_meters":2800,"station_id":"ce4bhgh2rcd13ifvqfa0","pricing_plan_id":"cebpf4jnsgd1na2vs0mg"},{"bike_id":"f8cc451b-4eb9-4bb9-97d7-a8734f4c2828","system_id":"levelo_inurba_marseille","lat":43.29253,"lon":5.40146,"is_reserved":false,"is_disabled":false,"rental_uris":{"android":"levelo://app?vid=f8cc451b-4eb9-4bb9-97d7-a8734f4c2828","ios":"levelo://app?vid=f8cc451b-4eb9-4bb9-97d7-a8734f4c2828"},"vehicle_type_id":"4","last_reported":1758899392,"current_range_meters":2800,"station_id":"ce4bh312rcd13ifvqdk0","pricing_plan_id":"cebpf4jnsgd1na2vs0mg"},{"bike_id":"e0928ade-1397-4c0c-be95-b81a370c9a4b","system_id":"levelo_inurba_marseille","lat":43.27943,"lon":5.4105,"is_reserved":false,"is_disabled":false,"rental_uris":{"android":"levelo://app?vid=e0928ade-1397-4c0c-be95-b81a370c9a4b","ios":"levelo://app?vid=e0928ade-1397-4c0c-be95-b81a370c9a4b"},"vehicle_type_id":"4","last_reported":1758899392,"current_range_meters":2800,"station_id":"ce4bhnp2rcd13ifvqh0g","pricing_plan_id":"cebpf4jnsgd1na2vs0mg"},{"bike_id":"92c564ca-205a-4382-912e-cade0cc9b30e","system_id":"levelo_inurba_marseille","lat":43.298165,"lon":5.381079,"is_reserved":false,"is_disabled":false,"rental_uris":{"android":"levelo://app?vid=92c564ca-205a-4382-912e-cade0cc9b30e","ios":"levelo://app?vid=92c564ca-205a-4382-912e-cade0cc9b30e"},"vehicle_type_id":"4","last_reported":1758899392,"current_range_meters":1600,"station_id":"ce4bgip2rcd13ifvqbb0","pricing_plan_id":"cebpf4jnsgd1na2vs0mg"},{"bike_id":"565a0112-5b88-4a6f-8df7-08b703407b4f","system_id":"levelo_inurba_marseille","lat":43.21192,"lon":5.35068,"is_reserved":false,"is_disabled":false,"rental_uris":{"android":"levelo://app?vid=565a0112-5b88-4a6f-8df7-08b703407b4f","ios":"levelo://app?vid=565a0112-5b88-4a6f-8df7-08b703407b4f"},"vehicle_type_id":"4","last_reported":1758899392,"current_range_meters":3200,"station_id":"","pricing_plan_id":"cebpf4jnsgd1na2vs0mg"},{"bike_id":"f8fa31cb-8ba9-420e-afac-516925c115bc","system_id":"levelo_inurba_marseille","lat":43.30427,"lon":5.38907,"is_reserved":false,"is_disabled":false,"rental_uris":{"android":"levelo://app?vid=f8fa31cb-8ba9-420e-afac-516925c115bc","ios":"levelo://app?vid=f8fa31cb-8ba9-420e-afac-516925c115bc"},"vehicle_type_id":"4","last_reported":1758899392,"current_range_meters":3200,"station_id":"ce4bgk12rcd13ifvqbi0","pricing_plan_id":"cebpf4jnsgd1na2vs0mg"},{"bike_id":"438ead59-de14-4fa0-a61d-03a70a4122ae","system_id":"levelo_inurba_marseille","lat":43.97269,"lon":4.89111,"is_reserved":false,"is_disabled":true,"rental_uris":{"android":"levelo://app?vid=438ead59-de14-4fa0-a61d-03a70a4122ae","ios":"levelo://app?vid=438ead59-de14-4fa0-a61d-03a70a4122ae"},"vehicle_type_id":"4","last_reported":1758899392,"current_range_meters":3200,"station_id":"","pricing_plan_id":"cebpf4jnsgd1na2vs0mg"},{"bike_id":"d8c886f8-2299-49e3-8cb9-837b27442238","system_id":"levelo_inurba_marseille","lat":43.23182,"lon":5.39984,"is_reserved":false,"is_disabled":false,"rental_uris":{"android":"levelo://app?vid=d8c886f8-2299-49e3-8cb9-837b27442238","ios":"levelo://app?vid=d8c886f8-2299-49e3-8cb9-837b27442238"},"vehicle_type_id":"4","last_reported":1758899392,"current_range_meters":3200,"station_id":"ce4bhn12rcd13ifvqgqg","pricing_plan_id":"cebpf4jnsgd1na2vs0mg"},{"bike_id":"f3b11220-c67a-4edc-a42d-892053e67bd8","system_id":"levelo_inurba_marseille","lat":43.30431,"lon":5.38891,"is_reserved":false,"is_disabled":false,"rental_uris":{"android":"levelo://app?vid=f3b11220-c67a-4edc-a42d-892053e67bd8","ios":"levelo://app?vid=f3b11220-c67a-4edc-a42d-892053e67bd8"},"vehicle_type_id":"4","last_reported":1758899392,"current_range_meters":3600,"station_id":"ce4bgk12rcd13ifvqbi0","pricing_plan_id":"cebpf4jnsgd1na2vs0mg"},{"bike_id":"0b455add-c78f-4e9a-9561-863a2cbf7ae4","system_id":"levelo_inurba_marseille","lat":43.24662,"lon":5.38165,"is_reserved":false,"is_disabled":false,"rental_uris":{"android":"levelo://app?vid=0b455add-c78f-4e9a-9561-863a2cbf7ae4","ios":"levelo://app?vid=0b455add-c78f-4e9a-9561-863a2cbf7ae4"},"vehicle_type_id":"4","last_reported":1758899392,"current_range_meters":3600,"station_id":"ce4bhih2rcd13ifvqfr0","pricing_plan_id":"cebpf4jnsgd1na2vs0mg"},{"bike_id":"fde870d0-11d1-462e-864b-57791c1f7efe","system_id":"levelo_inurba_marseille","lat":43.2842,"lon":5.34987,"is_reserved":false,"is_disabled":false,"rental_uris":{"android":"levelo://app?vid=fde870d0-11d1-462e-864b-57791c1f7efe","ios":"levelo://app?vid=fde870d0-11d1-462e-864b-57791c1f7efe"},"vehicle_type_id":"4","last_reported":1758899392,"current_range_meters":3600,"station_id":"ce4bhbh2rcd13ifvqepg","pricing_plan_id":"cebpf4jnsgd1na2vs0mg"},{"bike_id":"7a9abc5c-0a9b-4783-ab94-fe37c9b4f759","system_id":"levelo_inurba_marseille","lat":43.2558,"lon":5.38231,"is_reserved":false,"is_disabled":false,"rental_uris":{"android":"levelo://app?vid=7a9abc5c-0a9b-4783-ab94-fe37c9b4f759","ios":"levelo://app?vid=7a9abc5c-0a9b-4783-ab94-fe37c9b4f759"},"vehicle_type_id":"4","last_reported":1758899392,"current_range_meters":4000,"station_id":"ce4bhih2rcd13ifvqfs0","pricing_plan_id":"cebpf4jnsgd1na2vs0mg"},{"bike_id":"d6d8a2d9-6ac4-41a0-8b95-62b182da1caa","system_id":"levelo_inurba_marseille","lat":43.26804,"lon":5.40267,"is_reserved":false,"is_disabled":false,"rental_uris":{"android":"levelo://app?vid=d6d8a2d9-6ac4-41a0-8b95-62b182da1caa","ios":"levelo://app?vid=d6d8a2d9-6ac4-41a0-8b95-62b182da1caa"},"vehicle_type_id":"4","last_reported":1758899392,"current_range_meters":3600,"station_id":"ce501612rcd8frsf0b60","pricing_plan_id":"cebpf4jnsgd1na2vs0mg"},{"bike_id":"0c81b40b-1c40-4984-9001-de11236803c2","system_id":"levelo_inurba_marseille","lat":43.25067,"lon":5.39519,"is_reserved":false,"is_disabled":false,"rental_uris":{"android":"levelo://app?vid=0c81b40b-1c40-4984-9001-de11236803c2","ios":"levelo://app?vid=0c81b40b-1c40-4984-9001-de11236803c2"},"vehicle_type_id":"4","last_reported":1758899392,"current_range_meters":4000,"station_id":"ce4bhm12rcd13ifvqgkg","pricing_plan_id":"cebpf4jnsgd1na2vs0mg"},{"bike_id":"4cf66e36-c62b-4c39-96e5-8f3360da4c30","system_id":"levelo_inurba_marseille","lat":43.23176,"lon":5.39986,"is_reserved":false,"is_disabled":false,"rental_uris":{"android":"levelo://app?vid=4cf66e36-c62b-4c39-96e5-8f3360da4c30","ios":"levelo://app?vid=4cf66e36-c62b-4c39-96e5-8f3360da4c30"},"vehicle_type_id":"4","last_reported":1758899392,"current_range_meters":4000,"station_id":"ce4bhn12rcd13ifvqgqg","pricing_plan_id":"cebpf4jnsgd1na2vs0mg"},{"bike_id":"5001b619-8a21-45c9-8930-9794a5346fdb","system_id":"levelo_inurba_marseille","lat":43.28754,"lon":5.38563,"is_reserved":false,"is_disabled":false,"rental_uris":{"android":"levelo://app?vid=5001b619-8a21-45c9-8930-9794a5346fdb","ios":"levelo://app?vid=5001b619-8a21-45c9-8930-9794a5346fdb"},"vehicle_type_id":"4","last_reported":1758899392,"current_range_meters":4800,"station_id":"","pricing_plan_id":"cebpf4jnsgd1na2vs0mg"},{"bike_id":"4f060a97-f6f5-46aa-a45f-d02de751949f","system_id":"levelo_inurba_marseille","lat":43.24996,"lon":5.38926,"is_reserved":false,"is_disabled":false,"rental_uris":{"android":"levelo://app?vid=4f060a97-f6f5-46aa-a45f-d02de751949f","ios":"levelo://app?vid=4f060a97-f6f5-46aa-a45f-d02de751949f"},"vehicle_type_id":"4","last_reported":1758899392,"current_range_meters":5600,"station_id":"ce4bhgp2rcd13ifvqfd0","pricing_plan_id":"cebpf4jnsgd1na2vs0mg"},{"bike_id":"7ac5556f-7a8c-4275-8b39-00f4002190d4","system_id":"levelo_inurba_marseille","lat":43.29253,"lon":5.3762,"is_reserved":false,"is_disabled":false,"rental_uris":{"android":"levelo://app?vid=7ac5556f-7a8c-4275-8b39-00f4002190d4","ios":"levelo://app?vid=7ac5556f-7a8c-4275-8b39-00f4002190d4"},"vehicle_type_id":"4","last_reported":1758899392,"current_range_meters":5600,"station_id":"ce4bgi12rcd13ifvqb80","pricing_plan_id":"cebpf4jnsgd1na2vs0mg"},{"bike_id":"89b7424d-7df4-4aba-a49c-215125c218be","system_id":"levelo_inurba_marseille","lat":43.262402,"lon":5.381618,"is_reserved":false,"is_disabled":false,"rental_uris":{"android":"levelo://app?vid=89b7424d-7df4-4aba-a49c-215125c218be","ios":"levelo://app?vid=89b7424d-7df4-4aba-a49c-215125c218be"},"vehicle_type_id":"4","last_reported":1758899392,"current_range_meters":5600,"station_id":"","pricing_plan_id":"cebpf4jnsgd1na2vs0mg"},{"bike_id":"194c48d5-6849-45bf-8a89-f8fcfbf6ac7f","system_id":"levelo_inurba_marseille","lat":43.22553,"lon":5.4163,"is_reserved":false,"is_disabled":false,"rental_uris":{"android":"levelo://app?vid=194c48d5-6849-45bf-8a89-f8fcfbf6ac7f","ios":"levelo://app?vid=194c48d5-6849-45bf-8a89-f8fcfbf6ac7f"},"vehicle_type_id":"4","last_reported":1758899392,"current_range_meters":5600,"station_id":"st_d2o4gvlbi1j2169b742g","pricing_plan_id":"cebpf4jnsgd1na2vs0mg"},{"bike_id":"d67ee456-9032-4c3f-b1c4-c6832fc41679","system_id":"levelo_inurba_marseille","lat":43.28667,"lon":5.38659,"is_reserved":false,"is_disabled":false,"rental_uris":{"android":"levelo://app?vid=d67ee456-9032-4c3f-b1c4-c6832fc41679","ios":"levelo://app?vid=d67ee456-9032-4c3f-b1c4-c6832fc41679"},"vehicle_type_id":"4","last_reported":1758899392,"current_range_meters":5600,"station_id":"ce4bh492rcd13ifvqdug","pricing_plan_id":"cebpf4jnsgd1na2vs0mg"},{"bike_id":"62d7c452-6707-42fe-adcd-30fa8f6ba61d","system_id":"levelo_inurba_marseille","lat":43.26929,"lon":5.38915,"is_reserved":false,"is_disabled":false,"rental_uris":{"android":"levelo://app?vid=62d7c452-6707-42fe-adcd-30fa8f6ba61d","ios":"levelo://app?vid=62d7c452-6707-42fe-adcd-30fa8f6ba61d"},"vehicle_type_id":"4","last_reported":1758899392,"current_range_meters":5600,"station_id":"ce4bhhh2rcd13ifvqfl0","pricing_plan_id":"cebpf4jnsgd1na2vs0mg"},{"bike_id":"9c39260b-2738-4c18-8b0f-16a047f96afa","system_id":"levelo_inurba_marseille","lat":43.241803,"lon":5.397329,"is_reserved":false,"is_disabled":false,"rental_uris":{"android":"levelo://app?vid=9c39260b-2738-4c18-8b0f-16a047f96afa","ios":"levelo://app?vid=9c39260b-2738-4c18-8b0f-16a047f96afa"},"vehicle_type_id":"4","last_reported":1758899392,"current_range_meters":5600,"station_id":"ce4bhn12rcd13ifvqgpg","pricing_plan_id":"cebpf4jnsgd1na2vs0mg"},{"bike_id":"f93acc51-47d2-49ce-94c8-abcb36e4c3b0","system_id":"levelo_inurba_marseille","lat":43.28464,"lon":5.3589,"is_reserved":false,"is_disabled":false,"rental_uris":{"android":"levelo://app?vid=f93acc51-47d2-49ce-94c8-abcb36e4c3b0","ios":"levelo://app?vid=f93acc51-47d2-49ce-94c8-abcb36e4c3b0"},"vehicle_type_id":"4","last_reported":1758899392,"current_range_meters":5600,"station_id":"ce4bhah2rcd13ifvqei0","pricing_plan_id":"cebpf4jnsgd1na2vs0mg"},{"bike_id":"a809bd48-19fa-4e6b-9673-d178d1b73a53","system_id":"levelo_inurba_marseille","lat":43.298755,"lon":5.397249,"is_reserved":false,"is_disabled":false,"rental_uris":{"android":"levelo://app?vid=a809bd48-19fa-4e6b-9673-d178d1b73a53","ios":"levelo://app?vid=a809bd48-19fa-4e6b-9673-d178d1b73a53"},"vehicle_type_id":"4","last_reported":1758899392,"current_range_meters":6000,"station_id":"","pricing_plan_id":"cebpf4jnsgd1na2vs0mg"},{"bike_id":"35f43f0a-913e-4df8-8896-48a5e777ad40","system_id":"levelo_inurba_marseille","lat":43.30554,"lon":5.36527,"is_reserved":false,"is_disabled":false,"rental_uris":{"android":"levelo://app?vid=35f43f0a-913e-4df8-8896-48a5e777ad40","ios":"levelo://app?vid=35f43f0a-913e-4df8-8896-48a5e777ad40"},"vehicle_type_id":"4","last_reported":1758899392,"current_range_meters":6000,"station_id":"ce4bgs12rcd13ifvqcag","pricing_plan_id":"cebpf4jnsgd1na2vs0mg"},{"bike_id":"fe6c0350-cd40-4735-8c7a-1b87508af55c","system_id":"levelo_inurba_marseille","lat":43.29008,"lon":5.35609,"is_reserved":false,"is_disabled":false,"rental_uris":{"android":"levelo://app?vid=fe6c0350-cd40-4735-8c7a-1b87508af55c","ios":"levelo://app?vid=fe6c0350-cd40-4735-8c7a-1b87508af55c"},"vehicle_type_id":"4","last_reported":1758899392,"current_range_meters":6000,"station_id":"ce4bhb92rcd13ifvqen0","pricing_plan_id":"cebpf4jnsgd1na2vs0mg"},{"bike_id":"676621e5-a51f-4be8-8e4e-7a328cf9c513","system_id":"levelo_inurba_marseille","lat":43.303006,"lon":5.368976,"is_reserved":false,"is_disabled":false,"rental_uris":{"android":"levelo://app?vid=676621e5-a51f-4be8-8e4e-7a328cf9c513","ios":"levelo://app?vid=676621e5-a51f-4be8-8e4e-7a328cf9c513"},"vehicle_type_id":"4","last_reported":1758899392,"current_range_meters":6400,"station_id":"ce4bgqh2rcd13ifvqc5g","pricing_plan_id":"cebpf4jnsgd1na2vs0mg"},{"bike_id":"0c6b59cc-7abf-490b-8cac-942e33278b82","system_id":"levelo_inurba_marseille","lat":43.284921,"lon":5.385611,"is_reserved":false,"is_disabled":false,"rental_uris":{"android":"levelo://app?vid=0c6b59cc-7abf-490b-8cac-942e33278b82","ios":"levelo://app?vid=0c6b59cc-7abf-490b-8cac-942e33278b82"},"vehicle_type_id":"4","last_reported":1758899392,"current_range_meters":6400,"station_id":"ce4bh8p2rcd13ifvqeb0","pricing_plan_id":"cebpf4jnsgd1na2vs0mg"},{"bike_id":"f1782cf5-982c-4e59-868e-146d9186e50e","system_id":"levelo_inurba_marseille","lat":43.30931,"lon":5.40142,"is_reserved":false,"is_disabled":true,"rental_uris":{"android":"levelo://app?vid=f1782cf5-982c-4e59-868e-146d9186e50e","ios":"levelo://app?vid=f1782cf5-982c-4e59-868e-146d9186e50e"},"vehicle_type_id":"4","last_reported":1758899392,"current_range_meters":6800,"station_id":"ce4bgvp2rcd13ifvqct0","pricing_plan_id":"cebpf4jnsgd1na2vs0mg"},{"bike_id":"09f62ba6-af65-412e-aa52-83df4d376991","system_id":"levelo_inurba_marseille","lat":43.31093,"lon":5.36779,"is_reserved":false,"is_disabled":false,"rental_uris":{"android":"levelo://app?vid=09f62ba6-af65-412e-aa52-83df4d376991","ios":"levelo://app?vid=09f62ba6-af65-412e-aa52-83df4d376991"},"vehicle_type_id":"4","last_reported":1758899392,"current_range_meters":6800,"station_id":"","pricing_plan_id":"cebpf4jnsgd1na2vs0mg"},{"bike_id":"842d7847-8e0b-4b03-adef-ec29a15b7a79","system_id":"levelo_inurba_marseille","lat":43.286189,"lon":5.351103,"is_reserved":false,"is_disabled":false,"rental_uris":{"android":"levelo://app?vid=842d7847-8e0b-4b03-adef-ec29a15b7a79","ios":"levelo://app?vid=842d7847-8e0b-4b03-adef-ec29a15b7a79"},"vehicle_type_id":"4","last_reported":1758899392,"current_range_meters":6800,"station_id":"ce4bhch2rcd13ifvqeug","pricing_plan_id":"cebpf4jnsgd1na2vs0mg"},{"bike_id":"7c86c343-5754-4684-9d3d-e2b6252d4526","system_id":"levelo_inurba_marseille","lat":43.25002,"lon":5.38923,"is_reserved":false,"is_disabled":false,"rental_uris":{"android":"levelo://app?vid=7c86c343-5754-4684-9d3d-e2b6252d4526","ios":"levelo://app?vid=7c86c343-5754-4684-9d3d-e2b6252d4526"},"vehicle_type_id":"4","last_reported":1758899392,"current_range_meters":6800,"station_id":"ce4bhgp2rcd13ifvqfd0","pricing_plan_id":"cebpf4jnsgd1na2vs0mg"},{"bike_id":"93bfb564-7093-4da7-83aa-a96b7079db75","system_id":"levelo_inurba_marseille","lat":43.28265,"lon":5.35063,"is_reserved":false,"is_disabled":false,"rental_uris":{"android":"levelo://app?vid=93bfb564-7093-4da7-83aa-a96b7079db75","ios":"levelo://app?vid=93bfb564-7093-4da7-83aa-a96b7079db75"},"vehicle_type_id":"4","last_reported":1758899392,"current_range_meters":6800,"station_id":"ce4bhbp2rcd13ifvqerg","pricing_plan_id":"cebpf4jnsgd1na2vs0mg"},{"bike_id":"b9fa14e6-cc11-4c72-af49-0a21fcca7ee7","system_id":"levelo_inurba_marseille","lat":43.28862,"lon":5.35852,"is_reserved":false,"is_disabled":false,"rental_uris":{"android":"levelo://app?vid=b9fa14e6-cc11-4c72-af49-0a21fcca7ee7","ios":"levelo://app?vid=b9fa14e6-cc11-4c72-af49-0a21fcca7ee7"},"vehicle_type_id":"4","last_reported":1758899392,"current_range_meters":6800,"station_id":"ce4bhb12rcd13ifvqem0","pricing_plan_id":"cebpf4jnsgd1na2vs0mg"},{"bike_id":"379911e0-a8b9-4b05-96ac-c75be54d3c45","system_id":"levelo_inurba_marseille","lat":43.28832,"lon":5.42495,"is_reserved":false,"is_disabled":false,"rental_uris":{"android":"levelo://app?vid=379911e0-a8b9-4b05-96ac-c75be54d3c45","ios":"levelo://app?vid=379911e0-a8b9-4b05-96ac-c75be54d3c45"},"vehicle_type_id":"4","last_reported":1758899392,"current_range_meters":6800,"station_id":"","pricing_plan_id":"cebpf4jnsgd1na2vs0mg"},{"bike_id":"30d06926-2cec-4692-a683-f226153f38ad","system_id":"levelo_inurba_marseille","lat":43.27946,"lon":5.41049,"is_reserved":false,"is_disabled":false,"rental_uris":{"android":"levelo://app?vid=30d06926-2cec-4692-a683-f226153f38ad","ios":"levelo://app?vid=30d06926-2cec-4692-a683-f226153f38ad"},"vehicle_type_id":"4","last_reported":1758899392,"current_range_meters":6800,"station_id":"ce4bhnp2rcd13ifvqh0g","pricing_plan_id":"cebpf4jnsgd1na2vs0mg"},{"bike_id":"7f49961a-3cb4-4cc7-9e84-7be0957bee48","system_id":"levelo_inurba_marseille","lat":43.23177,"lon":5.40005,"is_reserved":false,"is_disabled":false,"rental_uris":{"android":"levelo://app?vid=7f49961a-3cb4-4cc7-9e84-7be0957bee48","ios":"levelo://app?vid=7f49961a-3cb4-4cc7-9e84-7be0957bee48"},"vehicle_type_id":"4","last_reported":1758899392,"current_range_meters":6800,"station_id":"ce4bhn12rcd13ifvqgqg","pricing_plan_id":"cebpf4jnsgd1na2vs0mg"},{"bike_id":"29be5067-d113-431d-abcf-bb9ad8536488","system_id":"levelo_inurba_marseille","lat":43.29805,"lon":5.38783,"is_reserved":false,"is_disabled":false,"rental_uris":{"android":"levelo://app?vid=29be5067-d113-431d-abcf-bb9ad8536488","ios":"levelo://app?vid=29be5067-d113-431d-abcf-bb9ad8536488"},"vehicle_type_id":"4","last_reported":1758899392,"current_range_meters":7200,"station_id":"","pricing_plan_id":"cebpf4jnsgd1na2vs0mg"},{"bike_id":"ebe48c38-5fa4-4ff1-8b84-103c40e093e9","system_id":"levelo_inurba_marseille","lat":43.24071,"lon":5.37765,"is_reserved":false,"is_disabled":false,"rental_uris":{"android":"levelo://app?vid=ebe48c38-5fa4-4ff1-8b84-103c40e093e9","ios":"levelo://app?vid=ebe48c38-5fa4-4ff1-8b84-103c40e093e9"},"vehicle_type_id":"4","last_reported":1758899392,"current_range_meters":7200,"station_id":"ce4bhnp2rcd13ifvqgvg","pricing_plan_id":"cebpf4jnsgd1na2vs0mg"},{"bike_id":"e2891804-26aa-4ea1-a726-0d1933e2fa9c","system_id":"levelo_inurba_marseille","lat":43.241657,"lon":5.363919,"is_reserved":false,"is_disabled":false,"rental_uris":{"android":"levelo://app?vid=e2891804-26aa-4ea1-a726-0d1933e2fa9c","ios":"levelo://app?vid=e2891804-26aa-4ea1-a726-0d1933e2fa9c"},"vehicle_type_id":"4","last_reported":1758899392,"current_range_meters":7200,"station_id":"cpo36qri1sfpv3e86is0","pricing_plan_id":"cebpf4jnsgd1na2vs0mg"},{"bike_id":"c8357883-63c3-45a5-b3e7-cf420e073461","system_id":"levelo_inurba_marseille","lat":43.309,"lon":5.37188,"is_reserved":false,"is_disabled":false,"rental_uris":{"android":"levelo://app?vid=c8357883-63c3-45a5-b3e7-cf420e073461","ios":"levelo://app?vid=c8357883-63c3-45a5-b3e7-cf420e073461"},"vehicle_type_id":"4","last_reported":1758899392,"current_range_meters":7200,"station_id":"ce4bguh2rcd13ifvqckg","pricing_plan_id":"cebpf4jnsgd1na2vs0mg"},{"bike_id":"8eae954c-dab6-4303-94f5-569e1c483f62","system_id":"levelo_inurba_marseille","lat":43.29462,"lon":5.40737,"is_reserved":false,"is_disabled":false,"rental_uris":{"android":"levelo://app?vid=8eae954c-dab6-4303-94f5-569e1c483f62","ios":"levelo://app?vid=8eae954c-dab6-4303-94f5-569e1c483f62"},"vehicle_type_id":"4","last_reported":1758899392,"current_range_meters":8000,"station_id":"","pricing_plan_id":"cebpf4jnsgd1na2vs0mg"},{"bike_id":"7636e7ec-e668-438f-8421-65776f0d7e4f","system_id":"levelo_inurba_marseille","lat":43.28622,"lon":5.35087,"is_reserved":false,"is_disabled":false,"rental_uris":{"android":"levelo://app?vid=7636e7ec-e668-438f-8421-65776f0d7e4f","ios":"levelo://app?vid=7636e7ec-e668-438f-8421-65776f0d7e4f"},"vehicle_type_id":"4","last_reported":1758899392,"current_range_meters":8400,"station_id":"ce4bhch2rcd13ifvqeug","pricing_plan_id":"cebpf4jnsgd1na2vs0mg"},{"bike_id":"003515e8-8117-44bb-979d-5f47e8d50fda","system_id":"levelo_inurba_marseille","lat":43.30622,"lon":5.37584,"is_reserved":false,"is_disabled":false,"rental_uris":{"android":"levelo://app?vid=003515e8-8117-44bb-979d-5f47e8d50fda","ios":"levelo://app?vid=003515e8-8117-44bb-979d-5f47e8d50fda"},"vehicle_type_id":"4","last_reported":1758899392,"current_range_meters":8400,"station_id":"","pricing_plan_id":"cebpf4jnsgd1na2vs0mg"},{"bike_id":"9f59a18c-9211-406f-8775-1d09c878178c","system_id":"levelo_inurba_marseille","lat":43.30543,"lon":5.36534,"is_reserved":false,"is_disabled":false,"rental_uris":{"android":"levelo://app?vid=9f59a18c-9211-406f-8775-1d09c878178c","ios":"levelo://app?vid=9f59a18c-9211-406f-8775-1d09c878178c"},"vehicle_type_id":"4","last_reported":1758899392,"current_range_meters":8400,"station_id":"ce4bgs12rcd13ifvqcag","pricing_plan_id":"cebpf4jnsgd1na2vs0mg"},{"bike_id":"c24f0169-438c-4a5d-b44c-4ff17dc09711","system_id":"levelo_inurba_marseille","lat":43.25581,"lon":5.38243,"is_reserved":false,"is_disabled":false,"rental_uris":{"android":"levelo://app?vid=c24f0169-438c-4a5d-b44c-4ff17dc09711","ios":"levelo://app?vid=c24f0169-438c-4a5d-b44c-4ff17dc09711"},"vehicle_type_id":"4","last_reported":1758899392,"current_range_meters":5600,"station_id":"ce4bhih2rcd13ifvqfs0","pricing_plan_id":"cebpf4jnsgd1na2vs0mg"},{"bike_id":"d7f9e1df-8b0f-4a8d-ad58-d349030d8c25","system_id":"levelo_inurba_marseille","lat":43.29615,"lon":5.37809,"is_reserved":false,"is_disabled":false,"rental_uris":{"android":"levelo://app?vid=d7f9e1df-8b0f-4a8d-ad58-d349030d8c25","ios":"levelo://app?vid=d7f9e1df-8b0f-4a8d-ad58-d349030d8c25"},"vehicle_type_id":"4","last_reported":1758899392,"current_range_meters":8400,"station_id":"","pricing_plan_id":"cebpf4jnsgd1na2vs0mg"},{"bike_id":"aef011f5-8b93-403a-ae54-feedb4cabd28","system_id":"levelo_inurba_marseille","lat":43.30596,"lon":5.37239,"is_reserved":false,"is_disabled":true,"rental_uris":{"android":"levelo://app?vid=aef011f5-8b93-403a-ae54-feedb4cabd28","ios":"levelo://app?vid=aef011f5-8b93-403a-ae54-feedb4cabd28"},"vehicle_type_id":"4","last_reported":1758899392,"current_range_meters":8400,"station_id":"ce4bgqh2rcd13ifvqc4g","pricing_plan_id":"cebpf4jnsgd1na2vs0mg"},{"bike_id":"a3469afa-9526-4794-8fb3-6f5fbd62e4cf","system_id":"levelo_inurba_marseille","lat":43.31314,"lon":5.3971,"is_reserved":false,"is_disabled":false,"rental_uris":{"android":"levelo://app?vid=a3469afa-9526-4794-8fb3-6f5fbd62e4cf","ios":"levelo://app?vid=a3469afa-9526-4794-8fb3-6f5fbd62e4cf"},"vehicle_type_id":"4","last_reported":1758899392,"current_range_meters":8400,"station_id":"ce4bgvp2rcd13ifvqcu0","pricing_plan_id":"cebpf4jnsgd1na2vs0mg"},{"bike_id":"212de2eb-8bbc-413c-b204-9fe1facd76e8","system_id":"levelo_inurba_marseille","lat":43.31318,"lon":5.3782,"is_reserved":false,"is_disabled":false,"rental_uris":{"android":"levelo://app?vid=212de2eb-8bbc-413c-b204-9fe1facd76e8","ios":"levelo://app?vid=212de2eb-8bbc-413c-b204-9fe1facd76e8"},"vehicle_type_id":"4","last_reported":1758899392,"current_range_meters":8400,"station_id":"","pricing_plan_id":"cebpf4jnsgd1na2vs0mg"},{"bike_id":"f3ab3759-ee6b-439f-a05c-ba37c9d8b00e","system_id":"levelo_inurba_marseille","lat":43.28266,"lon":5.3506,"is_reserved":false,"is_disabled":false,"rental_uris":{"android":"levelo://app?vid=f3ab3759-ee6b-439f-a05c-ba37c9d8b00e","ios":"levelo://app?vid=f3ab3759-ee6b-439f-a05c-ba37c9d8b00e"},"vehicle_type_id":"4","last_reported":1758899392,"current_range_meters":6400,"station_id":"ce4bhbp2rcd13ifvqerg","pricing_plan_id":"cebpf4jnsgd1na2vs0mg"},{"bike_id":"339534b4-d6ce-428f-97c9-087d1b58c7b3","system_id":"levelo_inurba_marseille","lat":43.32688,"lon":5.40289,"is_reserved":false,"is_disabled":false,"rental_uris":{"android":"levelo://app?vid=339534b4-d6ce-428f-97c9-087d1b58c7b3","ios":"levelo://app?vid=339534b4-d6ce-428f-97c9-087d1b58c7b3"},"vehicle_type_id":"4","last_reported":1758899392,"current_range_meters":8400,"station_id":"","pricing_plan_id":"cebpf4jnsgd1na2vs0mg"},{"bike_id":"7d1387cb-fd39-4b73-bb23-7159f9fde49d","system_id":"levelo_inurba_marseille","lat":43.22542,"lon":5.41639,"is_reserved":false,"is_disabled":false,"rental_uris":{"android":"levelo://app?vid=7d1387cb-fd39-4b73-bb23-7159f9fde49d","ios":"levelo://app?vid=7d1387cb-fd39-4b73-bb23-7159f9fde49d"},"vehicle_type_id":"4","last_reported":1758899392,"current_range_meters":8800,"station_id":"st_d2o4gvlbi1j2169b742g","pricing_plan_id":"cebpf4jnsgd1na2vs0mg"},{"bike_id":"c42f0188-b7bf-488e-ab1c-119703479dea","system_id":"levelo_inurba_marseille","lat":43.262065,"lon":5.379046,"is_reserved":false,"is_disabled":false,"rental_uris":{"android":"levelo://app?vid=c42f0188-b7bf-488e-ab1c-119703479dea","ios":"levelo://app?vid=c42f0188-b7bf-488e-ab1c-119703479dea"},"vehicle_type_id":"4","last_reported":1758899392,"current_range_meters":8400,"station_id":"ce4bhjp2rcd13ifvqg90","pricing_plan_id":"cebpf4jnsgd1na2vs0mg"},{"bike_id":"83758f63-102b-480d-93a5-980453d36a8b","system_id":"levelo_inurba_marseille","lat":43.28567,"lon":5.39498,"is_reserved":false,"is_disabled":false,"rental_uris":{"android":"levelo://app?vid=83758f63-102b-480d-93a5-980453d36a8b","ios":"levelo://app?vid=83758f63-102b-480d-93a5-980453d36a8b"},"vehicle_type_id":"4","last_reported":1758899392,"current_range_meters":8800,"station_id":"ce4bh292rcd13ifvqdg0","pricing_plan_id":"cebpf4jnsgd1na2vs0mg"},{"bike_id":"6a72c68f-77d6-4552-bf29-d4de966cea1e","system_id":"levelo_inurba_marseille","lat":43.32717,"lon":5.39184,"is_reserved":false,"is_disabled":false,"rental_uris":{"android":"levelo://app?vid=6a72c68f-77d6-4552-bf29-d4de966cea1e","ios":"levelo://app?vid=6a72c68f-77d6-4552-bf29-d4de966cea1e"},"vehicle_type_id":"4","last_reported":1758899392,"current_range_meters":8800,"station_id":"","pricing_plan_id":"cebpf4jnsgd1na2vs0mg"},{"bike_id":"174dfb4f-f618-4c2f-be1c-ae0d6b405e94","system_id":"levelo_inurba_marseille","lat":43.297,"lon":5.38268,"is_reserved":false,"is_disabled":false,"rental_uris":{"android":"levelo://app?vid=174dfb4f-f618-4c2f-be1c-ae0d6b405e94","ios":"levelo://app?vid=174dfb4f-f618-4c2f-be1c-ae0d6b405e94"},"vehicle_type_id":"4","last_reported":1758899392,"current_range_meters":9200,"station_id":"","pricing_plan_id":"cebpf4jnsgd1na2vs0mg"},{"bike_id":"f897d300-643c-4c7a-951b-f56d70ef23ca","system_id":"levelo_inurba_marseille","lat":43.30334,"lon":5.39077,"is_reserved":false,"is_disabled":false,"rental_uris":{"android":"levelo://app?vid=f897d300-643c-4c7a-951b-f56d70ef23ca","ios":"levelo://app?vid=f897d300-643c-4c7a-951b-f56d70ef23ca"},"vehicle_type_id":"4","last_reported":1758899392,"current_range_meters":9200,"station_id":"","pricing_plan_id":"cebpf4jnsgd1na2vs0mg"},{"bike_id":"d1607466-8785-4ec5-968f-efe8b19d2a58","system_id":"levelo_inurba_marseille","lat":43.29633,"lon":5.406,"is_reserved":false,"is_disabled":false,"rental_uris":{"android":"levelo://app?vid=d1607466-8785-4ec5-968f-efe8b19d2a58","ios":"levelo://app?vid=d1607466-8785-4ec5-968f-efe8b19d2a58"},"vehicle_type_id":"4","last_reported":1758899392,"current_range_meters":9200,"station_id":"ce4bh0h2rcd13ifvqd60","pricing_plan_id":"cebpf4jnsgd1na2vs0mg"},{"bike_id":"18d4f177-83d4-45b9-ab0c-dac5a1ac3cd5","system_id":"levelo_inurba_marseille","lat":43.2861,"lon":5.37045,"is_reserved":false,"is_disabled":false,"rental_uris":{"android":"levelo://app?vid=18d4f177-83d4-45b9-ab0c-dac5a1ac3cd5","ios":"levelo://app?vid=18d4f177-83d4-45b9-ab0c-dac5a1ac3cd5"},"vehicle_type_id":"4","last_reported":1758899392,"current_range_meters":9200,"station_id":"ce4bht12rcd13ifvqi60","pricing_plan_id":"cebpf4jnsgd1na2vs0mg"},{"bike_id":"a94cbbeb-5faf-4c64-9d82-4a850d884587","system_id":"levelo_inurba_marseille","lat":43.3018,"lon":5.36615,"is_reserved":false,"is_disabled":false,"rental_uris":{"android":"levelo://app?vid=a94cbbeb-5faf-4c64-9d82-4a850d884587","ios":"levelo://app?vid=a94cbbeb-5faf-4c64-9d82-4a850d884587"},"vehicle_type_id":"4","last_reported":1758899392,"current_range_meters":8800,"station_id":"ce4bgrh2rcd13ifvqc8g","pricing_plan_id":"cebpf4jnsgd1na2vs0mg"},{"bike_id":"8b7cbc0d-9db4-44fa-a796-4c78e5315e04","system_id":"levelo_inurba_marseille","lat":43.30779,"lon":5.37653,"is_reserved":false,"is_disabled":false,"rental_uris":{"android":"levelo://app?vid=8b7cbc0d-9db4-44fa-a796-4c78e5315e04","ios":"levelo://app?vid=8b7cbc0d-9db4-44fa-a796-4c78e5315e04"},"vehicle_type_id":"4","last_reported":1758899392,"current_range_meters":9200,"station_id":"ce4bgv92rcd13ifvqcq0","pricing_plan_id":"cebpf4jnsgd1na2vs0mg"},{"bike_id":"dbbbb311-0dd8-42be-ae8b-bea2d44dcedf","system_id":"levelo_inurba_marseille","lat":43.29612,"lon":5.37712,"is_reserved":false,"is_disabled":false,"rental_uris":{"android":"levelo://app?vid=dbbbb311-0dd8-42be-ae8b-bea2d44dcedf","ios":"levelo://app?vid=dbbbb311-0dd8-42be-ae8b-bea2d44dcedf"},"vehicle_type_id":"4","last_reported":1758899392,"current_range_meters":9600,"station_id":"ce4bgi92rcd13ifvqb90","pricing_plan_id":"cebpf4jnsgd1na2vs0mg"},{"bike_id":"9c48351c-471e-42ec-9f01-08811a59bf5c","system_id":"levelo_inurba_marseille","lat":43.29837,"lon":5.36271,"is_reserved":false,"is_disabled":false,"rental_uris":{"android":"levelo://app?vid=9c48351c-471e-42ec-9f01-08811a59bf5c","ios":"levelo://app?vid=9c48351c-471e-42ec-9f01-08811a59bf5c"},"vehicle_type_id":"4","last_reported":1758899392,"current_range_meters":9200,"station_id":"ce4bgpp2rcd13ifvqc3g","pricing_plan_id":"cebpf4jnsgd1na2vs0mg"},{"bike_id":"c7f6a08b-c655-4213-b2ba-7d02e7f382fe","system_id":"levelo_inurba_marseille","lat":43.27988,"lon":5.39483,"is_reserved":false,"is_disabled":false,"rental_uris":{"android":"levelo://app?vid=c7f6a08b-c655-4213-b2ba-7d02e7f382fe","ios":"levelo://app?vid=c7f6a08b-c655-4213-b2ba-7d02e7f382fe"},"vehicle_type_id":"4","last_reported":1758899392,"current_range_meters":9600,"station_id":"","pricing_plan_id":"cebpf4jnsgd1na2vs0mg"},{"bike_id":"882e4f92-2702-4653-8d49-fc52409c70e9","system_id":"levelo_inurba_marseille","lat":43.266815,"lon":5.382695,"is_reserved":false,"is_disabled":false,"rental_uris":{"android":"levelo://app?vid=882e4f92-2702-4653-8d49-fc52409c70e9","ios":"levelo://app?vid=882e4f92-2702-4653-8d49-fc52409c70e9"},"vehicle_type_id":"4","last_reported":1758899392,"current_range_meters":9600,"station_id":"ce4bhg92rcd13ifvqf90","pricing_plan_id":"cebpf4jnsgd1na2vs0mg"},{"bike_id":"e5303607-da03-4ac7-b81e-b332ede84cf7","system_id":"levelo_inurba_marseille","lat":43.31315,"lon":5.37815,"is_reserved":false,"is_disabled":false,"rental_uris":{"android":"levelo://app?vid=e5303607-da03-4ac7-b81e-b332ede84cf7","ios":"levelo://app?vid=e5303607-da03-4ac7-b81e-b332ede84cf7"},"vehicle_type_id":"4","last_reported":1758899392,"current_range_meters":9600,"station_id":"","pricing_plan_id":"cebpf4jnsgd1na2vs0mg"},{"bike_id":"14817726-f271-468b-a545-74a73be6a25a","system_id":"levelo_inurba_marseille","lat":43.28997,"lon":5.35596,"is_reserved":false,"is_disabled":false,"rental_uris":{"android":"levelo://app?vid=14817726-f271-468b-a545-74a73be6a25a","ios":"levelo://app?vid=14817726-f271-468b-a545-74a73be6a25a"},"vehicle_type_id":"4","last_reported":1758899392,"current_range_meters":8400,"station_id":"ce4bhb92rcd13ifvqen0","pricing_plan_id":"cebpf4jnsgd1na2vs0mg"},{"bike_id":"22e1526a-5d94-480e-9eef-c281aa35345c","system_id":"levelo_inurba_marseille","lat":43.21171,"lon":5.35062,"is_reserved":false,"is_disabled":false,"rental_uris":{"android":"levelo://app?vid=22e1526a-5d94-480e-9eef-c281aa35345c","ios":"levelo://app?vid=22e1526a-5d94-480e-9eef-c281aa35345c"},"vehicle_type_id":"4","last_reported":1758899392,"current_range_meters":10000,"station_id":"","pricing_plan_id":"cebpf4jnsgd1na2vs0mg"},{"bike_id":"d11e46ec-4d69-4270-b29b-98684b1815bc","system_id":"levelo_inurba_marseille","lat":43.30789,"lon":5.37649,"is_reserved":false,"is_disabled":false,"rental_uris":{"android":"levelo://app?vid=d11e46ec-4d69-4270-b29b-98684b1815bc","ios":"levelo://app?vid=d11e46ec-4d69-4270-b29b-98684b1815bc"},"vehicle_type_id":"4","last_reported":1758899392,"current_range_meters":10000,"station_id":"ce4bgv92rcd13ifvqcq0","pricing_plan_id":"cebpf4jnsgd1na2vs0mg"},{"bike_id":"96d9d290-3482-406b-a187-2a8b12ccabb2","system_id":"levelo_inurba_marseille","lat":43.28992,"lon":5.37126,"is_reserved":false,"is_disabled":false,"rental_uris":{"android":"levelo://app?vid=96d9d290-3482-406b-a187-2a8b12ccabb2","ios":"levelo://app?vid=96d9d290-3482-406b-a187-2a8b12ccabb2"},"vehicle_type_id":"4","last_reported":1758899392,"current_range_meters":10000,"station_id":"","pricing_plan_id":"cebpf4jnsgd1na2vs0mg"},{"bike_id":"62529f44-1407-45b5-a57d-0e6b577d523f","system_id":"levelo_inurba_marseille","lat":43.317239,"lon":5.423946,"is_reserved":false,"is_disabled":true,"rental_uris":{"android":"levelo://app?vid=62529f44-1407-45b5-a57d-0e6b577d523f","ios":"levelo://app?vid=62529f44-1407-45b5-a57d-0e6b577d523f"},"vehicle_type_id":"4","last_reported":1758899392,"current_range_meters":10000,"station_id":"ce4bhp92rcd13ifvqhbg","pricing_plan_id":"cebpf4jnsgd1na2vs0mg"},{"bike_id":"fd1364a5-ff73-488a-b72e-592513140002","system_id":"levelo_inurba_marseille","lat":43.25087,"lon":5.39528,"is_reserved":false,"is_disabled":false,"rental_uris":{"android":"levelo://app?vid=fd1364a5-ff73-488a-b72e-592513140002","ios":"levelo://app?vid=fd1364a5-ff73-488a-b72e-592513140002"},"vehicle_type_id":"4","last_reported":1758899392,"current_range_meters":10000,"station_id":"ce4bhm12rcd13ifvqgkg","pricing_plan_id":"cebpf4jnsgd1na2vs0mg"},{"bike_id":"75d61fed-4c35-4a21-8c0c-2bbc58cab569","system_id":"levelo_inurba_marseille","lat":43.2826,"lon":5.350596,"is_reserved":false,"is_disabled":false,"rental_uris":{"android":"levelo://app?vid=75d61fed-4c35-4a21-8c0c-2bbc58cab569","ios":"levelo://app?vid=75d61fed-4c35-4a21-8c0c-2bbc58cab569"},"vehicle_type_id":"4","last_reported":1758899392,"current_range_meters":10000,"station_id":"ce4bhbp2rcd13ifvqerg","pricing_plan_id":"cebpf4jnsgd1na2vs0mg"},{"bike_id":"6a53b7a5-933f-44b8-ba5b-3942298c2811","system_id":"levelo_inurba_marseille","lat":43.25506,"lon":5.37652,"is_reserved":false,"is_disabled":false,"rental_uris":{"android":"levelo://app?vid=6a53b7a5-933f-44b8-ba5b-3942298c2811","ios":"levelo://app?vid=6a53b7a5-933f-44b8-ba5b-3942298c2811"},"vehicle_type_id":"4","last_reported":1758899392,"current_range_meters":10800,"station_id":"ce4bhh12rcd13ifvqff0","pricing_plan_id":"cebpf4jnsgd1na2vs0mg"},{"bike_id":"4228a67b-6d63-483e-933a-d70835a16c1f","system_id":"levelo_inurba_marseille","lat":43.27368,"lon":5.36261,"is_reserved":false,"is_disabled":false,"rental_uris":{"android":"levelo://app?vid=4228a67b-6d63-483e-933a-d70835a16c1f","ios":"levelo://app?vid=4228a67b-6d63-483e-933a-d70835a16c1f"},"vehicle_type_id":"4","last_reported":1758899392,"current_range_meters":10800,"station_id":"ce4bhbh2rcd13ifvqeo0","pricing_plan_id":"cebpf4jnsgd1na2vs0mg"},{"bike_id":"465f6d1d-1d91-4137-9241-414fdc83ed72","system_id":"levelo_inurba_marseille","lat":43.22566,"lon":5.41627,"is_reserved":false,"is_disabled":false,"rental_uris":{"android":"levelo://app?vid=465f6d1d-1d91-4137-9241-414fdc83ed72","ios":"levelo://app?vid=465f6d1d-1d91-4137-9241-414fdc83ed72"},"vehicle_type_id":"4","last_reported":1758899392,"current_range_meters":10800,"station_id":"st_d2o4gvlbi1j2169b742g","pricing_plan_id":"cebpf4jnsgd1na2vs0mg"},{"bike_id":"cf93287a-376a-4faa-a62c-40cde8c69619","system_id":"levelo_inurba_marseille","lat":43.26028,"lon":5.37549,"is_reserved":false,"is_disabled":false,"rental_uris":{"android":"levelo://app?vid=cf93287a-376a-4faa-a62c-40cde8c69619","ios":"levelo://app?vid=cf93287a-376a-4faa-a62c-40cde8c69619"},"vehicle_type_id":"4","last_reported":1758899392,"current_range_meters":10800,"station_id":"ce4bhgh2rcd13ifvqfa0","pricing_plan_id":"cebpf4jnsgd1na2vs0mg"},{"bike_id":"041cd397-24ab-4e04-af23-07b961e161f4","system_id":"levelo_inurba_marseille","lat":43.337444,"lon":5.374475,"is_reserved":false,"is_disabled":false,"rental_uris":{"android":"levelo://app?vid=041cd397-24ab-4e04-af23-07b961e161f4","ios":"levelo://app?vid=041cd397-24ab-4e04-af23-07b961e161f4"},"vehicle_type_id":"4","last_reported":1758899392,"current_range_meters":10800,"station_id":"","pricing_plan_id":"cebpf4jnsgd1na2vs0mg"},{"bike_id":"70b7ea01-eb7d-4ad4-9d7b-08819c9c9cd3","system_id":"levelo_inurba_marseille","lat":43.337444,"lon":5.374475,"is_reserved":false,"is_disabled":true,"rental_uris":{"android":"levelo://app?vid=70b7ea01-eb7d-4ad4-9d7b-08819c9c9cd3","ios":"levelo://app?vid=70b7ea01-eb7d-4ad4-9d7b-08819c9c9cd3"},"vehicle_type_id":"4","last_reported":1758899392,"current_range_meters":11200,"station_id":"ce4bhih2rcd13ifvqfs0","pricing_plan_id":"cebpf4jnsgd1na2vs0mg"},{"bike_id":"b0934032-3d3c-44e1-985e-e72b8cee3491","system_id":"levelo_inurba_marseille","lat":43.24636,"lon":5.43145,"is_reserved":false,"is_disabled":false,"rental_uris":{"android":"levelo://app?vid=b0934032-3d3c-44e1-985e-e72b8cee3491","ios":"levelo://app?vid=b0934032-3d3c-44e1-985e-e72b8cee3491"},"vehicle_type_id":"4","last_reported":1758899392,"current_range_meters":11600,"station_id":"st_d2m6c4gdas8pm72e190g","pricing_plan_id":"cebpf4jnsgd1na2vs0mg"},{"bike_id":"05af8d3b-1869-419a-a4be-3e5263a60450","system_id":"levelo_inurba_marseille","lat":43.2826,"lon":5.35066,"is_reserved":false,"is_disabled":false,"rental_uris":{"android":"levelo://app?vid=05af8d3b-1869-419a-a4be-3e5263a60450","ios":"levelo://app?vid=05af8d3b-1869-419a-a4be-3e5263a60450"},"vehicle_type_id":"4","last_reported":1758899392,"current_range_meters":11200,"station_id":"ce4bhbp2rcd13ifvqerg","pricing_plan_id":"cebpf4jnsgd1na2vs0mg"},{"bike_id":"8fb6b312-30ed-4765-90d6-32ed783bc889","system_id":"levelo_inurba_marseille","lat":43.29966,"lon":5.41334,"is_reserved":false,"is_disabled":true,"rental_uris":{"android":"levelo://app?vid=8fb6b312-30ed-4765-90d6-32ed783bc889","ios":"levelo://app?vid=8fb6b312-30ed-4765-90d6-32ed783bc889"},"vehicle_type_id":"4","last_reported":1758899392,"current_range_meters":11600,"station_id":"ce4bhp12rcd13ifvqh9g","pricing_plan_id":"cebpf4jnsgd1na2vs0mg"},{"bike_id":"c9fc5d88-0911-4f38-920f-089cf465ebb8","system_id":"levelo_inurba_marseille","lat":43.30779,"lon":5.37651,"is_reserved":false,"is_disabled":false,"rental_uris":{"android":"levelo://app?vid=c9fc5d88-0911-4f38-920f-089cf465ebb8","ios":"levelo://app?vid=c9fc5d88-0911-4f38-920f-089cf465ebb8"},"vehicle_type_id":"4","last_reported":1758899392,"current_range_meters":12000,"station_id":"ce4bgv92rcd13ifvqcq0","pricing_plan_id":"cebpf4jnsgd1na2vs0mg"},{"bike_id":"75611fb7-df45-4d9f-9db0-a181136cc424","system_id":"levelo_inurba_marseille","lat":43.21753,"lon":5.34597,"is_reserved":false,"is_disabled":true,"rental_uris":{"android":"levelo://app?vid=75611fb7-df45-4d9f-9db0-a181136cc424","ios":"levelo://app?vid=75611fb7-df45-4d9f-9db0-a181136cc424"},"vehicle_type_id":"4","last_reported":1758899392,"current_range_meters":12000,"station_id":"st_cvj6r9ubvosntc0bgbag","pricing_plan_id":"cebpf4jnsgd1na2vs0mg"},{"bike_id":"5f4c1771-3ea2-496d-9dfd-4cacd704caac","system_id":"levelo_inurba_marseille","lat":43.28613,"lon":5.35103,"is_reserved":false,"is_disabled":false,"rental_uris":{"android":"levelo://app?vid=5f4c1771-3ea2-496d-9dfd-4cacd704caac","ios":"levelo://app?vid=5f4c1771-3ea2-496d-9dfd-4cacd704caac"},"vehicle_type_id":"4","last_reported":1758899392,"current_range_meters":12000,"station_id":"ce4bhch2rcd13ifvqeug","pricing_plan_id":"cebpf4jnsgd1na2vs0mg"},{"bike_id":"474efabd-bb75-4ad1-92fc-6bd4e720a369","system_id":"levelo_inurba_marseille","lat":43.26038,"lon":5.37546,"is_reserved":false,"is_disabled":false,"rental_uris":{"android":"levelo://app?vid=474efabd-bb75-4ad1-92fc-6bd4e720a369","ios":"levelo://app?vid=474efabd-bb75-4ad1-92fc-6bd4e720a369"},"vehicle_type_id":"4","last_reported":1758899392,"current_range_meters":12000,"station_id":"ce4bhgh2rcd13ifvqfa0","pricing_plan_id":"cebpf4jnsgd1na2vs0mg"},{"bike_id":"b01b5bc6-6834-41fb-be97-f5b6fb7e9ec8","system_id":"levelo_inurba_marseille","lat":43.26326,"lon":5.39827,"is_reserved":false,"is_disabled":false,"rental_uris":{"android":"levelo://app?vid=b01b5bc6-6834-41fb-be97-f5b6fb7e9ec8","ios":"levelo://app?vid=b01b5bc6-6834-41fb-be97-f5b6fb7e9ec8"},"vehicle_type_id":"4","last_reported":1758899392,"current_range_meters":12000,"station_id":"","pricing_plan_id":"cebpf4jnsgd1na2vs0mg"},{"bike_id":"93cdd1ef-410c-419e-a0ed-bde38bbbb7f7","system_id":"levelo_inurba_marseille","lat":43.25337,"lon":5.42173,"is_reserved":false,"is_disabled":false,"rental_uris":{"android":"levelo://app?vid=93cdd1ef-410c-419e-a0ed-bde38bbbb7f7","ios":"levelo://app?vid=93cdd1ef-410c-419e-a0ed-bde38bbbb7f7"},"vehicle_type_id":"4","last_reported":1758899392,"current_range_meters":12000,"station_id":"st_d2m65c5bi1j21697t3ng","pricing_plan_id":"cebpf4jnsgd1na2vs0mg"},{"bike_id":"c73d0f42-1d6e-4200-9c7f-4707365bac70","system_id":"levelo_inurba_marseille","lat":43.27073,"lon":5.42274,"is_reserved":false,"is_disabled":false,"rental_uris":{"android":"levelo://app?vid=c73d0f42-1d6e-4200-9c7f-4707365bac70","ios":"levelo://app?vid=c73d0f42-1d6e-4200-9c7f-4707365bac70"},"vehicle_type_id":"4","last_reported":1758899392,"current_range_meters":12000,"station_id":"ce4bhk92rcd13ifvqgb0","pricing_plan_id":"cebpf4jnsgd1na2vs0mg"},{"bike_id":"a57b3feb-2354-42fe-87fd-e8fcee3a0260","system_id":"levelo_inurba_marseille","lat":43.26953,"lon":5.40241,"is_reserved":false,"is_disabled":false,"rental_uris":{"android":"levelo://app?vid=a57b3feb-2354-42fe-87fd-e8fcee3a0260","ios":"levelo://app?vid=a57b3feb-2354-42fe-87fd-e8fcee3a0260"},"vehicle_type_id":"4","last_reported":1758899392,"current_range_meters":12000,"station_id":"","pricing_plan_id":"cebpf4jnsgd1na2vs0mg"},{"bike_id":"ed9c1b6f-0cc7-47fb-a193-bb02351072ff","system_id":"levelo_inurba_marseille","lat":43.254958,"lon":5.376427,"is_reserved":false,"is_disabled":false,"rental_uris":{"android":"levelo://app?vid=ed9c1b6f-0cc7-47fb-a193-bb02351072ff","ios":"levelo://app?vid=ed9c1b6f-0cc7-47fb-a193-bb02351072ff"},"vehicle_type_id":"4","last_reported":1758899392,"current_range_meters":12400,"station_id":"","pricing_plan_id":"cebpf4jnsgd1na2vs0mg"},{"bike_id":"7dad2cf0-a677-4b0a-b405-4593d728f1b2","system_id":"levelo_inurba_marseille","lat":43.30557,"lon":5.36559,"is_reserved":false,"is_disabled":false,"rental_uris":{"android":"levelo://app?vid=7dad2cf0-a677-4b0a-b405-4593d728f1b2","ios":"levelo://app?vid=7dad2cf0-a677-4b0a-b405-4593d728f1b2"},"vehicle_type_id":"4","last_reported":1758899392,"current_range_meters":12400,"station_id":"ce4bgs12rcd13ifvqcag","pricing_plan_id":"cebpf4jnsgd1na2vs0mg"},{"bike_id":"c975862c-3721-4ac1-a6a4-5b86cf0364aa","system_id":"levelo_inurba_marseille","lat":43.21195,"lon":5.35073,"is_reserved":false,"is_disabled":false,"rental_uris":{"android":"levelo://app?vid=c975862c-3721-4ac1-a6a4-5b86cf0364aa","ios":"levelo://app?vid=c975862c-3721-4ac1-a6a4-5b86cf0364aa"},"vehicle_type_id":"4","last_reported":1758899392,"current_range_meters":12400,"station_id":"st_cvj6sg6p6f1abm77japg","pricing_plan_id":"cebpf4jnsgd1na2vs0mg"},{"bike_id":"a639c491-c436-478a-8d5d-bd2c30b918ff","system_id":"levelo_inurba_marseille","lat":43.29749,"lon":5.37235,"is_reserved":false,"is_disabled":false,"rental_uris":{"android":"levelo://app?vid=a639c491-c436-478a-8d5d-bd2c30b918ff","ios":"levelo://app?vid=a639c491-c436-478a-8d5d-bd2c30b918ff"},"vehicle_type_id":"4","last_reported":1758899392,"current_range_meters":12400,"station_id":"","pricing_plan_id":"cebpf4jnsgd1na2vs0mg"},{"bike_id":"8baeac13-7e80-456d-83aa-12e0372d0df5","system_id":"levelo_inurba_marseille","lat":43.32452,"lon":5.3754,"is_reserved":false,"is_disabled":false,"rental_uris":{"android":"levelo://app?vid=8baeac13-7e80-456d-83aa-12e0372d0df5","ios":"levelo://app?vid=8baeac13-7e80-456d-83aa-12e0372d0df5"},"vehicle_type_id":"4","last_reported":1758899392,"current_range_meters":12400,"station_id":"","pricing_plan_id":"cebpf4jnsgd1na2vs0mg"},{"bike_id":"0ef81889-2d7f-4e70-b480-0b08f55cbfba","system_id":"levelo_inurba_marseille","lat":43.30853,"lon":5.36821,"is_reserved":false,"is_disabled":false,"rental_uris":{"android":"levelo://app?vid=0ef81889-2d7f-4e70-b480-0b08f55cbfba","ios":"levelo://app?vid=0ef81889-2d7f-4e70-b480-0b08f55cbfba"},"vehicle_type_id":"4","last_reported":1758899392,"current_range_meters":12400,"station_id":"","pricing_plan_id":"cebpf4jnsgd1na2vs0mg"},{"bike_id":"df649d25-1f44-4471-8cdd-9566da8ef9b9","system_id":"levelo_inurba_marseille","lat":43.32169,"lon":5.3879,"is_reserved":false,"is_disabled":false,"rental_uris":{"android":"levelo://app?vid=df649d25-1f44-4471-8cdd-9566da8ef9b9","ios":"levelo://app?vid=df649d25-1f44-4471-8cdd-9566da8ef9b9"},"vehicle_type_id":"4","last_reported":1758899392,"current_range_meters":12800,"station_id":"","pricing_plan_id":"cebpf4jnsgd1na2vs0mg"},{"bike_id":"280349c2-7d75-4732-844a-272770d12d07","system_id":"levelo_inurba_marseille","lat":43.24944,"lon":5.405,"is_reserved":false,"is_disabled":false,"rental_uris":{"android":"levelo://app?vid=280349c2-7d75-4732-844a-272770d12d07","ios":"levelo://app?vid=280349c2-7d75-4732-844a-272770d12d07"},"vehicle_type_id":"4","last_reported":1758899392,"current_range_meters":12800,"station_id":"st_d2ngiaodas8pm72gd1h0","pricing_plan_id":"cebpf4jnsgd1na2vs0mg"},{"bike_id":"31836451-05c0-42fc-ab6c-8ef52e3f5fd4","system_id":"levelo_inurba_marseille","lat":43.276679,"lon":5.388677,"is_reserved":false,"is_disabled":false,"rental_uris":{"android":"levelo://app?vid=31836451-05c0-42fc-ab6c-8ef52e3f5fd4","ios":"levelo://app?vid=31836451-05c0-42fc-ab6c-8ef52e3f5fd4"},"vehicle_type_id":"4","last_reported":1758899392,"current_range_meters":12800,"station_id":"","pricing_plan_id":"cebpf4jnsgd1na2vs0mg"},{"bike_id":"2cdcc61f-f514-43c4-a99a-d52b5798303f","system_id":"levelo_inurba_marseille","lat":43.27176,"lon":5.41001,"is_reserved":false,"is_disabled":false,"rental_uris":{"android":"levelo://app?vid=2cdcc61f-f514-43c4-a99a-d52b5798303f","ios":"levelo://app?vid=2cdcc61f-f514-43c4-a99a-d52b5798303f"},"vehicle_type_id":"4","last_reported":1758899392,"current_range_meters":12800,"station_id":"ce4bhl12rcd13ifvqgf0","pricing_plan_id":"cebpf4jnsgd1na2vs0mg"},{"bike_id":"1d5d14cf-15e7-4470-bff9-613bb9abe120","system_id":"levelo_inurba_marseille","lat":43.33494,"lon":5.42049,"is_reserved":false,"is_disabled":false,"rental_uris":{"android":"levelo://app?vid=1d5d14cf-15e7-4470-bff9-613bb9abe120","ios":"levelo://app?vid=1d5d14cf-15e7-4470-bff9-613bb9abe120"},"vehicle_type_id":"4","last_reported":1758899392,"current_range_meters":12800,"station_id":"","pricing_plan_id":"cebpf4jnsgd1na2vs0mg"},{"bike_id":"12d3f245-3043-42c5-aa23-8089a4bf564a","system_id":"levelo_inurba_marseille","lat":43.30792,"lon":5.43531,"is_reserved":false,"is_disabled":false,"rental_uris":{"android":"levelo://app?vid=12d3f245-3043-42c5-aa23-8089a4bf564a","ios":"levelo://app?vid=12d3f245-3043-42c5-aa23-8089a4bf564a"},"vehicle_type_id":"4","last_reported":1758899392,"current_range_meters":12800,"station_id":"ce4bhph2rcd13ifvqheg","pricing_plan_id":"cebpf4jnsgd1na2vs0mg"},{"bike_id":"5d944089-7d4d-485d-8e5e-fe9c9b3dd7de","system_id":"levelo_inurba_marseille","lat":43.22557,"lon":5.41621,"is_reserved":false,"is_disabled":false,"rental_uris":{"android":"levelo://app?vid=5d944089-7d4d-485d-8e5e-fe9c9b3dd7de","ios":"levelo://app?vid=5d944089-7d4d-485d-8e5e-fe9c9b3dd7de"},"vehicle_type_id":"4","last_reported":1758899392,"current_range_meters":12800,"station_id":"st_d2o4gvlbi1j2169b742g","pricing_plan_id":"cebpf4jnsgd1na2vs0mg"},{"bike_id":"6363afe3-4635-4bc1-9d98-73b5cc56c642","system_id":"levelo_inurba_marseille","lat":43.30435,"lon":5.38879,"is_reserved":false,"is_disabled":false,"rental_uris":{"android":"levelo://app?vid=6363afe3-4635-4bc1-9d98-73b5cc56c642","ios":"levelo://app?vid=6363afe3-4635-4bc1-9d98-73b5cc56c642"},"vehicle_type_id":"4","last_reported":1758899392,"current_range_meters":13600,"station_id":"ce4bgk12rcd13ifvqbi0","pricing_plan_id":"cebpf4jnsgd1na2vs0mg"},{"bike_id":"46f9b484-6f08-4ebe-8cac-3f01deda53fc","system_id":"levelo_inurba_marseille","lat":43.32646,"lon":5.41004,"is_reserved":false,"is_disabled":false,"rental_uris":{"android":"levelo://app?vid=46f9b484-6f08-4ebe-8cac-3f01deda53fc","ios":"levelo://app?vid=46f9b484-6f08-4ebe-8cac-3f01deda53fc"},"vehicle_type_id":"4","last_reported":1758899392,"current_range_meters":13600,"station_id":"ce4bhpp2rcd13ifvqhgg","pricing_plan_id":"cebpf4jnsgd1na2vs0mg"},{"bike_id":"08fe2b08-b3fa-43f8-ae73-04061f76318d","system_id":"levelo_inurba_marseille","lat":43.305552,"lon":5.365395,"is_reserved":false,"is_disabled":false,"rental_uris":{"android":"levelo://app?vid=08fe2b08-b3fa-43f8-ae73-04061f76318d","ios":"levelo://app?vid=08fe2b08-b3fa-43f8-ae73-04061f76318d"},"vehicle_type_id":"4","last_reported":1758899392,"current_range_meters":13600,"station_id":"","pricing_plan_id":"cebpf4jnsgd1na2vs0mg"},{"bike_id":"10b8d871-07e9-4114-9eb9-6bcce40e7beb","system_id":"levelo_inurba_marseille","lat":43.27045,"lon":5.392226,"is_reserved":false,"is_disabled":false,"rental_uris":{"android":"levelo://app?vid=10b8d871-07e9-4114-9eb9-6bcce40e7beb","ios":"levelo://app?vid=10b8d871-07e9-4114-9eb9-6bcce40e7beb"},"vehicle_type_id":"4","last_reported":1758899392,"current_range_meters":13600,"station_id":"ce4bhe12rcd13ifvqf30","pricing_plan_id":"cebpf4jnsgd1na2vs0mg"},{"bike_id":"4b28eb42-6566-45c0-bb06-eede757dfaad","system_id":"levelo_inurba_marseille","lat":43.25576,"lon":5.38229,"is_reserved":false,"is_disabled":false,"rental_uris":{"android":"levelo://app?vid=4b28eb42-6566-45c0-bb06-eede757dfaad","ios":"levelo://app?vid=4b28eb42-6566-45c0-bb06-eede757dfaad"},"vehicle_type_id":"4","last_reported":1758899392,"current_range_meters":13600,"station_id":"ce4bhih2rcd13ifvqfs0","pricing_plan_id":"cebpf4jnsgd1na2vs0mg"},{"bike_id":"f9e21fc1-be7d-42a8-9eff-6458e73f3db9","system_id":"levelo_inurba_marseille","lat":43.32375,"lon":5.3674,"is_reserved":false,"is_disabled":false,"rental_uris":{"android":"levelo://app?vid=f9e21fc1-be7d-42a8-9eff-6458e73f3db9","ios":"levelo://app?vid=f9e21fc1-be7d-42a8-9eff-6458e73f3db9"},"vehicle_type_id":"4","last_reported":1758899392,"current_range_meters":13600,"station_id":"ce4bhsh2rcd13ifvqi2g","pricing_plan_id":"cebpf4jnsgd1na2vs0mg"},{"bike_id":"45e07bae-690f-4ff3-a8bd-511d32841972","system_id":"levelo_inurba_marseille","lat":43.25112,"lon":5.40318,"is_reserved":false,"is_disabled":false,"rental_uris":{"android":"levelo://app?vid=45e07bae-690f-4ff3-a8bd-511d32841972","ios":"levelo://app?vid=45e07bae-690f-4ff3-a8bd-511d32841972"},"vehicle_type_id":"4","last_reported":1758899392,"current_range_meters":14000,"station_id":"ce4bhlh2rcd13ifvqgig","pricing_plan_id":"cebpf4jnsgd1na2vs0mg"},{"bike_id":"fd18a301-a9dd-4600-afce-c6b935fa8b40","system_id":"levelo_inurba_marseille","lat":43.26198,"lon":5.37464,"is_reserved":false,"is_disabled":false,"rental_uris":{"android":"levelo://app?vid=fd18a301-a9dd-4600-afce-c6b935fa8b40","ios":"levelo://app?vid=fd18a301-a9dd-4600-afce-c6b935fa8b40"},"vehicle_type_id":"4","last_reported":1758899392,"current_range_meters":14000,"station_id":"ce4bhgp2rcd13ifvqfc0","pricing_plan_id":"cebpf4jnsgd1na2vs0mg"},{"bike_id":"7d8d1b6e-f17d-4ea2-aead-408fb9ecc07d","system_id":"levelo_inurba_marseille","lat":43.31708,"lon":5.43709,"is_reserved":false,"is_disabled":false,"rental_uris":{"android":"levelo://app?vid=7d8d1b6e-f17d-4ea2-aead-408fb9ecc07d","ios":"levelo://app?vid=7d8d1b6e-f17d-4ea2-aead-408fb9ecc07d"},"vehicle_type_id":"4","last_reported":1758899392,"current_range_meters":14000,"station_id":"ce4bhp92rcd13ifvqhcg","pricing_plan_id":"cebpf4jnsgd1na2vs0mg"},{"bike_id":"08292ac0-f4a0-4778-9703-5ac015ee1e3a","system_id":"levelo_inurba_marseille","lat":43.24619,"lon":5.4314,"is_reserved":false,"is_disabled":false,"rental_uris":{"android":"levelo://app?vid=08292ac0-f4a0-4778-9703-5ac015ee1e3a","ios":"levelo://app?vid=08292ac0-f4a0-4778-9703-5ac015ee1e3a"},"vehicle_type_id":"4","last_reported":1758899392,"current_range_meters":14000,"station_id":"st_d2m6c4gdas8pm72e190g","pricing_plan_id":"cebpf4jnsgd1na2vs0mg"},{"bike_id":"97f14d44-422e-481b-9c06-0faf01a6d2b8","system_id":"levelo_inurba_marseille","lat":43.30561,"lon":5.36546,"is_reserved":false,"is_disabled":false,"rental_uris":{"android":"levelo://app?vid=97f14d44-422e-481b-9c06-0faf01a6d2b8","ios":"levelo://app?vid=97f14d44-422e-481b-9c06-0faf01a6d2b8"},"vehicle_type_id":"4","last_reported":1758899392,"current_range_meters":14000,"station_id":"ce4bgs12rcd13ifvqcag","pricing_plan_id":"cebpf4jnsgd1na2vs0mg"},{"bike_id":"f59933d2-584b-4d31-b540-f48162f472e1","system_id":"levelo_inurba_marseille","lat":43.28624,"lon":5.35092,"is_reserved":false,"is_disabled":false,"rental_uris":{"android":"levelo://app?vid=f59933d2-584b-4d31-b540-f48162f472e1","ios":"levelo://app?vid=f59933d2-584b-4d31-b540-f48162f472e1"},"vehicle_type_id":"4","last_reported":1758899392,"current_range_meters":14000,"station_id":"ce4bhch2rcd13ifvqeug","pricing_plan_id":"cebpf4jnsgd1na2vs0mg"},{"bike_id":"9a4f92ed-e086-4038-a651-bbe0613f80bd","system_id":"levelo_inurba_marseille","lat":43.22568,"lon":5.41624,"is_reserved":false,"is_disabled":false,"rental_uris":{"android":"levelo://app?vid=9a4f92ed-e086-4038-a651-bbe0613f80bd","ios":"levelo://app?vid=9a4f92ed-e086-4038-a651-bbe0613f80bd"},"vehicle_type_id":"4","last_reported":1758899392,"current_range_meters":14000,"station_id":"st_d2o4gvlbi1j2169b742g","pricing_plan_id":"cebpf4jnsgd1na2vs0mg"},{"bike_id":"580d48f9-16a5-4a7f-a77a-0ffc3cf52aea","system_id":"levelo_inurba_marseille","lat":43.29595,"lon":5.38094,"is_reserved":false,"is_disabled":false,"rental_uris":{"android":"levelo://app?vid=580d48f9-16a5-4a7f-a77a-0ffc3cf52aea","ios":"levelo://app?vid=580d48f9-16a5-4a7f-a77a-0ffc3cf52aea"},"vehicle_type_id":"4","last_reported":1758899392,"current_range_meters":14000,"station_id":"ce4bgl12rcd13ifvqbo0","pricing_plan_id":"cebpf4jnsgd1na2vs0mg"},{"bike_id":"467b4306-5fd8-484e-9a4b-cf8eb50151ba","system_id":"levelo_inurba_marseille","lat":43.3229,"lon":5.38254,"is_reserved":false,"is_disabled":false,"rental_uris":{"android":"levelo://app?vid=467b4306-5fd8-484e-9a4b-cf8eb50151ba","ios":"levelo://app?vid=467b4306-5fd8-484e-9a4b-cf8eb50151ba"},"vehicle_type_id":"4","last_reported":1758899392,"current_range_meters":14400,"station_id":"ce4bhr12rcd13ifvqhqg","pricing_plan_id":"cebpf4jnsgd1na2vs0mg"},{"bike_id":"9dcadebc-a9ea-48d7-a815-250846fc3ee9","system_id":"levelo_inurba_marseille","lat":43.28697,"lon":5.39986,"is_reserved":false,"is_disabled":false,"rental_uris":{"android":"levelo://app?vid=9dcadebc-a9ea-48d7-a815-250846fc3ee9","ios":"levelo://app?vid=9dcadebc-a9ea-48d7-a815-250846fc3ee9"},"vehicle_type_id":"4","last_reported":1758899392,"current_range_meters":14400,"station_id":"ce4bho92rcd13ifvqh3g","pricing_plan_id":"cebpf4jnsgd1na2vs0mg"},{"bike_id":"4407f0c7-f8f2-44c4-b16c-74d5984e3278","system_id":"levelo_inurba_marseille","lat":43.25579,"lon":5.38231,"is_reserved":false,"is_disabled":true,"rental_uris":{"android":"levelo://app?vid=4407f0c7-f8f2-44c4-b16c-74d5984e3278","ios":"levelo://app?vid=4407f0c7-f8f2-44c4-b16c-74d5984e3278"},"vehicle_type_id":"4","last_reported":1758899392,"current_range_meters":14400,"station_id":"ce4bhih2rcd13ifvqfs0","pricing_plan_id":"cebpf4jnsgd1na2vs0mg"},{"bike_id":"d83db798-4585-4d56-9103-401f9923a77e","system_id":"levelo_inurba_marseille","lat":43.30775,"lon":5.37662,"is_reserved":false,"is_disabled":false,"rental_uris":{"android":"levelo://app?vid=d83db798-4585-4d56-9103-401f9923a77e","ios":"levelo://app?vid=d83db798-4585-4d56-9103-401f9923a77e"},"vehicle_type_id":"4","last_reported":1758899392,"current_range_meters":14400,"station_id":"ce4bgv92rcd13ifvqcq0","pricing_plan_id":"cebpf4jnsgd1na2vs0mg"},{"bike_id":"b2b60c4e-615f-4a48-a413-4a63ed70b48a","system_id":"levelo_inurba_marseille","lat":43.2495,"lon":5.40487,"is_reserved":false,"is_disabled":false,"rental_uris":{"android":"levelo://app?vid=b2b60c4e-615f-4a48-a413-4a63ed70b48a","ios":"levelo://app?vid=b2b60c4e-615f-4a48-a413-4a63ed70b48a"},"vehicle_type_id":"4","last_reported":1758899392,"current_range_meters":14400,"station_id":"st_d2ngiaodas8pm72gd1h0","pricing_plan_id":"cebpf4jnsgd1na2vs0mg"},{"bike_id":"caca043d-62fa-409d-9d28-cf0cdfaca1f3","system_id":"levelo_inurba_marseille","lat":43.27365,"lon":5.36261,"is_reserved":false,"is_disabled":false,"rental_uris":{"android":"levelo://app?vid=caca043d-62fa-409d-9d28-cf0cdfaca1f3","ios":"levelo://app?vid=caca043d-62fa-409d-9d28-cf0cdfaca1f3"},"vehicle_type_id":"4","last_reported":1758899392,"current_range_meters":14800,"station_id":"ce4bhbh2rcd13ifvqeo0","pricing_plan_id":"cebpf4jnsgd1na2vs0mg"},{"bike_id":"6f4e9f07-f90c-457a-8ecc-5db7c9ee72ad","system_id":"levelo_inurba_marseille","lat":43.28158,"lon":5.42645,"is_reserved":false,"is_disabled":false,"rental_uris":{"android":"levelo://app?vid=6f4e9f07-f90c-457a-8ecc-5db7c9ee72ad","ios":"levelo://app?vid=6f4e9f07-f90c-457a-8ecc-5db7c9ee72ad"},"vehicle_type_id":"4","last_reported":1758899392,"current_range_meters":14800,"station_id":"ce4bhnh2rcd13ifvqgug","pricing_plan_id":"cebpf4jnsgd1na2vs0mg"},{"bike_id":"0064974e-02bb-40bc-8149-ba249ea4de7d","system_id":"levelo_inurba_marseille","lat":43.30524,"lon":5.36548,"is_reserved":false,"is_disabled":false,"rental_uris":{"android":"levelo://app?vid=0064974e-02bb-40bc-8149-ba249ea4de7d","ios":"levelo://app?vid=0064974e-02bb-40bc-8149-ba249ea4de7d"},"vehicle_type_id":"4","last_reported":1758899392,"current_range_meters":14800,"station_id":"ce4bgs12rcd13ifvqcag","pricing_plan_id":"cebpf4jnsgd1na2vs0mg"},{"bike_id":"f626f457-0696-4e32-af9e-687030f53c6d","system_id":"levelo_inurba_marseille","lat":43.33778,"lon":5.37518,"is_reserved":false,"is_disabled":false,"rental_uris":{"android":"levelo://app?vid=f626f457-0696-4e32-af9e-687030f53c6d","ios":"levelo://app?vid=f626f457-0696-4e32-af9e-687030f53c6d"},"vehicle_type_id":"4","last_reported":1758899392,"current_range_meters":14800,"station_id":"","pricing_plan_id":"cebpf4jnsgd1na2vs0mg"},{"bike_id":"c31a435d-2375-44e6-88bf-ac89966e9da4","system_id":"levelo_inurba_marseille","lat":43.25871,"lon":5.39893,"is_reserved":false,"is_disabled":false,"rental_uris":{"android":"levelo://app?vid=c31a435d-2375-44e6-88bf-ac89966e9da4","ios":"levelo://app?vid=c31a435d-2375-44e6-88bf-ac89966e9da4"},"vehicle_type_id":"4","last_reported":1758899392,"current_range_meters":14800,"station_id":"ce4bhl92rcd13ifvqghg","pricing_plan_id":"cebpf4jnsgd1na2vs0mg"},{"bike_id":"6dacd337-663c-4bb9-9da1-b012fa0d2fa0","system_id":"levelo_inurba_marseille","lat":43.30772,"lon":5.37627,"is_reserved":false,"is_disabled":false,"rental_uris":{"android":"levelo://app?vid=6dacd337-663c-4bb9-9da1-b012fa0d2fa0","ios":"levelo://app?vid=6dacd337-663c-4bb9-9da1-b012fa0d2fa0"},"vehicle_type_id":"4","last_reported":1758899392,"current_range_meters":14800,"station_id":"ce4bgv92rcd13ifvqcq0","pricing_plan_id":"cebpf4jnsgd1na2vs0mg"},{"bike_id":"9c6fdaba-29b1-4850-a090-7840bdd73847","system_id":"levelo_inurba_marseille","lat":43.2319,"lon":5.35562,"is_reserved":false,"is_disabled":false,"rental_uris":{"android":"levelo://app?vid=9c6fdaba-29b1-4850-a090-7840bdd73847","ios":"levelo://app?vid=9c6fdaba-29b1-4850-a090-7840bdd73847"},"vehicle_type_id":"4","last_reported":1758899392,"current_range_meters":14800,"station_id":"ce4bhu92rcd13ifvqi70","pricing_plan_id":"cebpf4jnsgd1na2vs0mg"},{"bike_id":"c91aa95c-ae83-4f8a-bef3-89f188e39bfa","system_id":"levelo_inurba_marseille","lat":43.22556,"lon":5.41647,"is_reserved":false,"is_disabled":false,"rental_uris":{"android":"levelo://app?vid=c91aa95c-ae83-4f8a-bef3-89f188e39bfa","ios":"levelo://app?vid=c91aa95c-ae83-4f8a-bef3-89f188e39bfa"},"vehicle_type_id":"4","last_reported":1758899392,"current_range_meters":14800,"station_id":"st_d2o4gvlbi1j2169b742g","pricing_plan_id":"cebpf4jnsgd1na2vs0mg"},{"bike_id":"be09b477-4e1c-4043-aa09-a7c39aaf0615","system_id":"levelo_inurba_marseille","lat":43.32494,"lon":5.36588,"is_reserved":false,"is_disabled":false,"rental_uris":{"android":"levelo://app?vid=be09b477-4e1c-4043-aa09-a7c39aaf0615","ios":"levelo://app?vid=be09b477-4e1c-4043-aa09-a7c39aaf0615"},"vehicle_type_id":"4","last_reported":1758899392,"current_range_meters":15200,"station_id":"ce4bhs12rcd13ifvqhvg","pricing_plan_id":"cebpf4jnsgd1na2vs0mg"},{"bike_id":"63d52c35-c9c9-44eb-9780-1b2f9145123b","system_id":"levelo_inurba_marseille","lat":43.29627,"lon":5.377037,"is_reserved":false,"is_disabled":false,"rental_uris":{"android":"levelo://app?vid=63d52c35-c9c9-44eb-9780-1b2f9145123b","ios":"levelo://app?vid=63d52c35-c9c9-44eb-9780-1b2f9145123b"},"vehicle_type_id":"4","last_reported":1758899392,"current_range_meters":15200,"station_id":"","pricing_plan_id":"cebpf4jnsgd1na2vs0mg"},{"bike_id":"abe1be30-2a02-49c9-8d08-709b35c8f54f","system_id":"levelo_inurba_marseille","lat":43.25932,"lon":5.40908,"is_reserved":false,"is_disabled":false,"rental_uris":{"android":"levelo://app?vid=abe1be30-2a02-49c9-8d08-709b35c8f54f","ios":"levelo://app?vid=abe1be30-2a02-49c9-8d08-709b35c8f54f"},"vehicle_type_id":"4","last_reported":1758899392,"current_range_meters":15200,"station_id":"ce4bhm92rcd13ifvqglg","pricing_plan_id":"cebpf4jnsgd1na2vs0mg"},{"bike_id":"9bb4db31-0bf9-4171-bca1-76cb045f53a3","system_id":"levelo_inurba_marseille","lat":43.26924,"lon":5.389081,"is_reserved":false,"is_disabled":true,"rental_uris":{"android":"levelo://app?vid=9bb4db31-0bf9-4171-bca1-76cb045f53a3","ios":"levelo://app?vid=9bb4db31-0bf9-4171-bca1-76cb045f53a3"},"vehicle_type_id":"4","last_reported":1758899392,"current_range_meters":15200,"station_id":"ce4bhhh2rcd13ifvqfl0","pricing_plan_id":"cebpf4jnsgd1na2vs0mg"},{"bike_id":"fee74e98-eb52-4f66-a612-109c75f34aa6","system_id":"levelo_inurba_marseille","lat":43.29599,"lon":5.37948,"is_reserved":false,"is_disabled":false,"rental_uris":{"android":"levelo://app?vid=fee74e98-eb52-4f66-a612-109c75f34aa6","ios":"levelo://app?vid=fee74e98-eb52-4f66-a612-109c75f34aa6"},"vehicle_type_id":"4","last_reported":1758899392,"current_range_meters":15200,"station_id":"","pricing_plan_id":"cebpf4jnsgd1na2vs0mg"},{"bike_id":"51653686-7279-4513-8522-ff328bcc05d1","system_id":"levelo_inurba_marseille","lat":43.27998,"lon":5.41667,"is_reserved":false,"is_disabled":false,"rental_uris":{"android":"levelo://app?vid=51653686-7279-4513-8522-ff328bcc05d1","ios":"levelo://app?vid=51653686-7279-4513-8522-ff328bcc05d1"},"vehicle_type_id":"4","last_reported":1758899392,"current_range_meters":15200,"station_id":"ce4bho12rcd13ifvqh1g","pricing_plan_id":"cebpf4jnsgd1na2vs0mg"},{"bike_id":"2a416e7a-1803-402e-9523-74bfe690bd54","system_id":"levelo_inurba_marseille","lat":43.32365,"lon":5.36767,"is_reserved":false,"is_disabled":false,"rental_uris":{"android":"levelo://app?vid=2a416e7a-1803-402e-9523-74bfe690bd54","ios":"levelo://app?vid=2a416e7a-1803-402e-9523-74bfe690bd54"},"vehicle_type_id":"4","last_reported":1758899392,"current_range_meters":15200,"station_id":"ce4bhsh2rcd13ifvqi2g","pricing_plan_id":"cebpf4jnsgd1na2vs0mg"},{"bike_id":"3652de56-c611-41c6-aa03-7fef6136da9d","system_id":"levelo_inurba_marseille","lat":43.25007,"lon":5.38925,"is_reserved":false,"is_disabled":false,"rental_uris":{"android":"levelo://app?vid=3652de56-c611-41c6-aa03-7fef6136da9d","ios":"levelo://app?vid=3652de56-c611-41c6-aa03-7fef6136da9d"},"vehicle_type_id":"4","last_reported":1758899392,"current_range_meters":16000,"station_id":"ce4bhgp2rcd13ifvqfd0","pricing_plan_id":"cebpf4jnsgd1na2vs0mg"},{"bike_id":"15b8abb9-1b82-439d-bef4-2444276aa7c3","system_id":"levelo_inurba_marseille","lat":43.31073,"lon":5.38342,"is_reserved":false,"is_disabled":true,"rental_uris":{"android":"levelo://app?vid=15b8abb9-1b82-439d-bef4-2444276aa7c3","ios":"levelo://app?vid=15b8abb9-1b82-439d-bef4-2444276aa7c3"},"vehicle_type_id":"4","last_reported":1758899392,"current_range_meters":16000,"station_id":"ce4bgv92rcd13ifvqcr0","pricing_plan_id":"cebpf4jnsgd1na2vs0mg"},{"bike_id":"95963ff8-8414-4e68-a54c-e61e14ff8996","system_id":"levelo_inurba_marseille","lat":43.24669,"lon":5.38159,"is_reserved":false,"is_disabled":false,"rental_uris":{"android":"levelo://app?vid=95963ff8-8414-4e68-a54c-e61e14ff8996","ios":"levelo://app?vid=95963ff8-8414-4e68-a54c-e61e14ff8996"},"vehicle_type_id":"4","last_reported":1758899392,"current_range_meters":16000,"station_id":"ce4bhih2rcd13ifvqfr0","pricing_plan_id":"cebpf4jnsgd1na2vs0mg"},{"bike_id":"85782661-163d-4a8b-b5a4-1f0a766faaa2","system_id":"levelo_inurba_marseille","lat":43.24637,"lon":5.43144,"is_reserved":false,"is_disabled":false,"rental_uris":{"android":"levelo://app?vid=85782661-163d-4a8b-b5a4-1f0a766faaa2","ios":"levelo://app?vid=85782661-163d-4a8b-b5a4-1f0a766faaa2"},"vehicle_type_id":"4","last_reported":1758899392,"current_range_meters":16000,"station_id":"st_d2m6c4gdas8pm72e190g","pricing_plan_id":"cebpf4jnsgd1na2vs0mg"},{"bike_id":"3cca746f-fac4-450b-bb9c-94a2c2908362","system_id":"levelo_inurba_marseille","lat":43.28991,"lon":5.37835,"is_reserved":false,"is_disabled":false,"rental_uris":{"android":"levelo://app?vid=3cca746f-fac4-450b-bb9c-94a2c2908362","ios":"levelo://app?vid=3cca746f-fac4-450b-bb9c-94a2c2908362"},"vehicle_type_id":"4","last_reported":1758899392,"current_range_meters":16000,"station_id":"ce4bh9p2rcd13ifvqed0","pricing_plan_id":"cebpf4jnsgd1na2vs0mg"},{"bike_id":"01bf55f2-4ac6-46f6-8504-3267bf31e1a6","system_id":"levelo_inurba_marseille","lat":43.2973,"lon":5.381787,"is_reserved":false,"is_disabled":false,"rental_uris":{"android":"levelo://app?vid=01bf55f2-4ac6-46f6-8504-3267bf31e1a6","ios":"levelo://app?vid=01bf55f2-4ac6-46f6-8504-3267bf31e1a6"},"vehicle_type_id":"4","last_reported":1758899392,"current_range_meters":16000,"station_id":"","pricing_plan_id":"cebpf4jnsgd1na2vs0mg"},{"bike_id":"bdf98283-e040-4f5f-94a3-6c902d369273","system_id":"levelo_inurba_marseille","lat":43.29714,"lon":5.377,"is_reserved":false,"is_disabled":true,"rental_uris":{"android":"levelo://app?vid=bdf98283-e040-4f5f-94a3-6c902d369273","ios":"levelo://app?vid=bdf98283-e040-4f5f-94a3-6c902d369273"},"vehicle_type_id":"4","last_reported":1758899392,"current_range_meters":16000,"station_id":"ce4bgkh2rcd13ifvqbl0","pricing_plan_id":"cebpf4jnsgd1na2vs0mg"},{"bike_id":"d797771b-18c2-46d0-8f08-8f540e16b982","system_id":"levelo_inurba_marseille","lat":43.24385,"lon":5.37054,"is_reserved":false,"is_disabled":false,"rental_uris":{"android":"levelo://app?vid=d797771b-18c2-46d0-8f08-8f540e16b982","ios":"levelo://app?vid=d797771b-18c2-46d0-8f08-8f540e16b982"},"vehicle_type_id":"4","last_reported":1758899392,"current_range_meters":16000,"station_id":"ce4bhhh2rcd13ifvqfk0","pricing_plan_id":"cebpf4jnsgd1na2vs0mg"},{"bike_id":"e9965d7f-c60b-4fbd-96cd-93282f8867aa","system_id":"levelo_inurba_marseille","lat":43.25342,"lon":5.42159,"is_reserved":false,"is_disabled":false,"rental_uris":{"android":"levelo://app?vid=e9965d7f-c60b-4fbd-96cd-93282f8867aa","ios":"levelo://app?vid=e9965d7f-c60b-4fbd-96cd-93282f8867aa"},"vehicle_type_id":"4","last_reported":1758899392,"current_range_meters":16000,"station_id":"st_d2m65c5bi1j21697t3ng","pricing_plan_id":"cebpf4jnsgd1na2vs0mg"},{"bike_id":"41fbe864-b9c2-4b8a-a22b-e40ee788b52e","system_id":"levelo_inurba_marseille","lat":43.25064,"lon":5.39547,"is_reserved":false,"is_disabled":false,"rental_uris":{"android":"levelo://app?vid=41fbe864-b9c2-4b8a-a22b-e40ee788b52e","ios":"levelo://app?vid=41fbe864-b9c2-4b8a-a22b-e40ee788b52e"},"vehicle_type_id":"4","last_reported":1758899392,"current_range_meters":16000,"station_id":"ce4bhm12rcd13ifvqgkg","pricing_plan_id":"cebpf4jnsgd1na2vs0mg"},{"bike_id":"d3a36542-5175-4fc9-b08e-9279161fcfef","system_id":"levelo_inurba_marseille","lat":43.281198,"lon":5.381893,"is_reserved":false,"is_disabled":false,"rental_uris":{"android":"levelo://app?vid=d3a36542-5175-4fc9-b08e-9279161fcfef","ios":"levelo://app?vid=d3a36542-5175-4fc9-b08e-9279161fcfef"},"vehicle_type_id":"4","last_reported":1758899392,"current_range_meters":16000,"station_id":"ce4bh412rcd13ifvqds0","pricing_plan_id":"cebpf4jnsgd1na2vs0mg"},{"bike_id":"69681139-fe75-4275-a8e7-8e06618b8ce0","system_id":"levelo_inurba_marseille","lat":43.23193,"lon":5.39976,"is_reserved":false,"is_disabled":false,"rental_uris":{"android":"levelo://app?vid=69681139-fe75-4275-a8e7-8e06618b8ce0","ios":"levelo://app?vid=69681139-fe75-4275-a8e7-8e06618b8ce0"},"vehicle_type_id":"4","last_reported":1758899392,"current_range_meters":16400,"station_id":"ce4bhn12rcd13ifvqgqg","pricing_plan_id":"cebpf4jnsgd1na2vs0mg"},{"bike_id":"227d6ec1-43d1-4e2f-895a-773dcf3932c3","system_id":"levelo_inurba_marseille","lat":43.29048,"lon":5.35891,"is_reserved":false,"is_disabled":false,"rental_uris":{"android":"levelo://app?vid=227d6ec1-43d1-4e2f-895a-773dcf3932c3","ios":"levelo://app?vid=227d6ec1-43d1-4e2f-895a-773dcf3932c3"},"vehicle_type_id":"4","last_reported":1758899392,"current_range_meters":12800,"station_id":"ce4bha92rcd13ifvqeg0","pricing_plan_id":"cebpf4jnsgd1na2vs0mg"},{"bike_id":"aadc9511-a4d9-4aec-95b0-6640600900b1","system_id":"levelo_inurba_marseille","lat":43.28421,"lon":5.34985,"is_reserved":false,"is_disabled":false,"rental_uris":{"android":"levelo://app?vid=aadc9511-a4d9-4aec-95b0-6640600900b1","ios":"levelo://app?vid=aadc9511-a4d9-4aec-95b0-6640600900b1"},"vehicle_type_id":"4","last_reported":1758899392,"current_range_meters":16400,"station_id":"ce4bhbh2rcd13ifvqepg","pricing_plan_id":"cebpf4jnsgd1na2vs0mg"},{"bike_id":"2b75f638-f285-4bbb-9ecb-f459f4f15629","system_id":"levelo_inurba_marseille","lat":43.28273,"lon":5.35068,"is_reserved":false,"is_disabled":false,"rental_uris":{"android":"levelo://app?vid=2b75f638-f285-4bbb-9ecb-f459f4f15629","ios":"levelo://app?vid=2b75f638-f285-4bbb-9ecb-f459f4f15629"},"vehicle_type_id":"4","last_reported":1758899392,"current_range_meters":16400,"station_id":"ce4bhbp2rcd13ifvqerg","pricing_plan_id":"cebpf4jnsgd1na2vs0mg"},{"bike_id":"bb6e4e98-0a93-4265-92a4-62c6f5cae36c","system_id":"levelo_inurba_marseille","lat":43.29817,"lon":5.38095,"is_reserved":false,"is_disabled":false,"rental_uris":{"android":"levelo://app?vid=bb6e4e98-0a93-4265-92a4-62c6f5cae36c","ios":"levelo://app?vid=bb6e4e98-0a93-4265-92a4-62c6f5cae36c"},"vehicle_type_id":"4","last_reported":1758899392,"current_range_meters":16400,"station_id":"ce4bgip2rcd13ifvqbb0","pricing_plan_id":"cebpf4jnsgd1na2vs0mg"},{"bike_id":"175ed984-4779-4b98-920a-039ca300eaa4","system_id":"levelo_inurba_marseille","lat":43.27288,"lon":5.40812,"is_reserved":false,"is_disabled":false,"rental_uris":{"android":"levelo://app?vid=175ed984-4779-4b98-920a-039ca300eaa4","ios":"levelo://app?vid=175ed984-4779-4b98-920a-039ca300eaa4"},"vehicle_type_id":"4","last_reported":1758899392,"current_range_meters":16800,"station_id":"","pricing_plan_id":"cebpf4jnsgd1na2vs0mg"},{"bike_id":"8cf842e4-76c1-4a82-ad31-66529da65dba","system_id":"levelo_inurba_marseille","lat":43.26679,"lon":5.40215,"is_reserved":false,"is_disabled":false,"rental_uris":{"android":"levelo://app?vid=8cf842e4-76c1-4a82-ad31-66529da65dba","ios":"levelo://app?vid=8cf842e4-76c1-4a82-ad31-66529da65dba"},"vehicle_type_id":"4","last_reported":1758899392,"current_range_meters":16800,"station_id":"","pricing_plan_id":"cebpf4jnsgd1na2vs0mg"},{"bike_id":"68bbf054-c2b3-4a71-a7fa-c40779bb86fe","system_id":"levelo_inurba_marseille","lat":43.30332,"lon":5.40444,"is_reserved":false,"is_disabled":true,"rental_uris":{"android":"levelo://app?vid=68bbf054-c2b3-4a71-a7fa-c40779bb86fe","ios":"levelo://app?vid=68bbf054-c2b3-4a71-a7fa-c40779bb86fe"},"vehicle_type_id":"4","last_reported":1758899392,"current_range_meters":16800,"station_id":"ce4bh012rcd13ifvqd10","pricing_plan_id":"cebpf4jnsgd1na2vs0mg"},{"bike_id":"934ea1ec-b7f6-49a1-9efa-287317d4eb22","system_id":"levelo_inurba_marseille","lat":43.29048,"lon":5.35914,"is_reserved":false,"is_disabled":false,"rental_uris":{"android":"levelo://app?vid=934ea1ec-b7f6-49a1-9efa-287317d4eb22","ios":"levelo://app?vid=934ea1ec-b7f6-49a1-9efa-287317d4eb22"},"vehicle_type_id":"4","last_reported":1758899392,"current_range_meters":16800,"station_id":"","pricing_plan_id":"cebpf4jnsgd1na2vs0mg"},{"bike_id":"7f7c18ad-2aef-4731-977f-1de73d3d9bba","system_id":"levelo_inurba_marseille","lat":43.27371,"lon":5.36238,"is_reserved":false,"is_disabled":false,"rental_uris":{"android":"levelo://app?vid=7f7c18ad-2aef-4731-977f-1de73d3d9bba","ios":"levelo://app?vid=7f7c18ad-2aef-4731-977f-1de73d3d9bba"},"vehicle_type_id":"4","last_reported":1758899392,"current_range_meters":16800,"station_id":"ce4bhbh2rcd13ifvqeo0","pricing_plan_id":"cebpf4jnsgd1na2vs0mg"},{"bike_id":"a6187c30-1c11-4309-be70-335b3ca8c646","system_id":"levelo_inurba_marseille","lat":43.21155,"lon":5.35084,"is_reserved":false,"is_disabled":false,"rental_uris":{"android":"levelo://app?vid=a6187c30-1c11-4309-be70-335b3ca8c646","ios":"levelo://app?vid=a6187c30-1c11-4309-be70-335b3ca8c646"},"vehicle_type_id":"4","last_reported":1758899392,"current_range_meters":16800,"station_id":"","pricing_plan_id":"cebpf4jnsgd1na2vs0mg"},{"bike_id":"5c82dd5d-a4f2-4cf8-9bf5-e422fc8f22b5","system_id":"levelo_inurba_marseille","lat":43.26553,"lon":5.37294,"is_reserved":false,"is_disabled":false,"rental_uris":{"android":"levelo://app?vid=5c82dd5d-a4f2-4cf8-9bf5-e422fc8f22b5","ios":"levelo://app?vid=5c82dd5d-a4f2-4cf8-9bf5-e422fc8f22b5"},"vehicle_type_id":"4","last_reported":1758899392,"current_range_meters":16800,"station_id":"ce4bhg12rcd13ifvqf70","pricing_plan_id":"cebpf4jnsgd1na2vs0mg"},{"bike_id":"7f249506-fe7f-4ad9-be64-67212f4f10f8","system_id":"levelo_inurba_marseille","lat":43.32497,"lon":5.36563,"is_reserved":false,"is_disabled":false,"rental_uris":{"android":"levelo://app?vid=7f249506-fe7f-4ad9-be64-67212f4f10f8","ios":"levelo://app?vid=7f249506-fe7f-4ad9-be64-67212f4f10f8"},"vehicle_type_id":"4","last_reported":1758899392,"current_range_meters":16800,"station_id":"ce4bhs12rcd13ifvqhvg","pricing_plan_id":"cebpf4jnsgd1na2vs0mg"},{"bike_id":"63c0879c-e69b-4e84-9806-c068fbaee754","system_id":"levelo_inurba_marseille","lat":43.2294,"lon":5.35378,"is_reserved":false,"is_disabled":false,"rental_uris":{"android":"levelo://app?vid=63c0879c-e69b-4e84-9806-c068fbaee754","ios":"levelo://app?vid=63c0879c-e69b-4e84-9806-c068fbaee754"},"vehicle_type_id":"4","last_reported":1758899392,"current_range_meters":16800,"station_id":"cpo3532slgdg3j2ikp40","pricing_plan_id":"cebpf4jnsgd1na2vs0mg"},{"bike_id":"59d1ef66-928a-42ea-809a-869ac3d6f273","system_id":"levelo_inurba_marseille","lat":43.29535,"lon":5.375,"is_reserved":false,"is_disabled":false,"rental_uris":{"android":"levelo://app?vid=59d1ef66-928a-42ea-809a-869ac3d6f273","ios":"levelo://app?vid=59d1ef66-928a-42ea-809a-869ac3d6f273"},"vehicle_type_id":"4","last_reported":1758899392,"current_range_meters":16800,"station_id":"ce4bgkp2rcd13ifvqbmg","pricing_plan_id":"cebpf4jnsgd1na2vs0mg"},{"bike_id":"6d2a1dc4-7b5d-439d-b4b1-e7643025a4c6","system_id":"levelo_inurba_marseille","lat":43.29598,"lon":5.38097,"is_reserved":false,"is_disabled":false,"rental_uris":{"android":"levelo://app?vid=6d2a1dc4-7b5d-439d-b4b1-e7643025a4c6","ios":"levelo://app?vid=6d2a1dc4-7b5d-439d-b4b1-e7643025a4c6"},"vehicle_type_id":"4","last_reported":1758899392,"current_range_meters":16800,"station_id":"ce4bgl12rcd13ifvqbo0","pricing_plan_id":"cebpf4jnsgd1na2vs0mg"},{"bike_id":"80bdba63-46f3-4274-b0d9-d9711409b6a8","system_id":"levelo_inurba_marseille","lat":43.270752,"lon":5.402497,"is_reserved":false,"is_disabled":false,"rental_uris":{"android":"levelo://app?vid=80bdba63-46f3-4274-b0d9-d9711409b6a8","ios":"levelo://app?vid=80bdba63-46f3-4274-b0d9-d9711409b6a8"},"vehicle_type_id":"4","last_reported":1758899392,"current_range_meters":16800,"station_id":"","pricing_plan_id":"cebpf4jnsgd1na2vs0mg"},{"bike_id":"2db7330a-3066-4d8c-b390-7a6d889b8fae","system_id":"levelo_inurba_marseille","lat":43.29035,"lon":5.37573,"is_reserved":false,"is_disabled":false,"rental_uris":{"android":"levelo://app?vid=2db7330a-3066-4d8c-b390-7a6d889b8fae","ios":"levelo://app?vid=2db7330a-3066-4d8c-b390-7a6d889b8fae"},"vehicle_type_id":"4","last_reported":1758899392,"current_range_meters":16800,"station_id":"ce4bh692rcd13ifvqe90","pricing_plan_id":"cebpf4jnsgd1na2vs0mg"},{"bike_id":"ee925a9c-c600-454e-8837-0da5956fd25f","system_id":"levelo_inurba_marseille","lat":43.22949,"lon":5.35355,"is_reserved":false,"is_disabled":false,"rental_uris":{"android":"levelo://app?vid=ee925a9c-c600-454e-8837-0da5956fd25f","ios":"levelo://app?vid=ee925a9c-c600-454e-8837-0da5956fd25f"},"vehicle_type_id":"4","last_reported":1758899392,"current_range_meters":16800,"station_id":"cpo3532slgdg3j2ikp40","pricing_plan_id":"cebpf4jnsgd1na2vs0mg"},{"bike_id":"18ac6148-54e3-4b5f-9dc4-6b8c49ac968f","system_id":"levelo_inurba_marseille","lat":43.3054,"lon":5.36521,"is_reserved":false,"is_disabled":false,"rental_uris":{"android":"levelo://app?vid=18ac6148-54e3-4b5f-9dc4-6b8c49ac968f","ios":"levelo://app?vid=18ac6148-54e3-4b5f-9dc4-6b8c49ac968f"},"vehicle_type_id":"4","last_reported":1758899392,"current_range_meters":17200,"station_id":"ce4bgs12rcd13ifvqcag","pricing_plan_id":"cebpf4jnsgd1na2vs0mg"},{"bike_id":"7fe8796f-3eab-40c0-aa11-8fc45c34f669","system_id":"levelo_inurba_marseille","lat":43.26214,"lon":5.37461,"is_reserved":false,"is_disabled":false,"rental_uris":{"android":"levelo://app?vid=7fe8796f-3eab-40c0-aa11-8fc45c34f669","ios":"levelo://app?vid=7fe8796f-3eab-40c0-aa11-8fc45c34f669"},"vehicle_type_id":"4","last_reported":1758899392,"current_range_meters":17200,"station_id":"ce4bhgp2rcd13ifvqfc0","pricing_plan_id":"cebpf4jnsgd1na2vs0mg"},{"bike_id":"4b875ff3-e176-459e-a55f-218ed0dfcd71","system_id":"levelo_inurba_marseille","lat":43.27331,"lon":5.36269,"is_reserved":false,"is_disabled":false,"rental_uris":{"android":"levelo://app?vid=4b875ff3-e176-459e-a55f-218ed0dfcd71","ios":"levelo://app?vid=4b875ff3-e176-459e-a55f-218ed0dfcd71"},"vehicle_type_id":"4","last_reported":1758899392,"current_range_meters":17200,"station_id":"ce4bhbh2rcd13ifvqeo0","pricing_plan_id":"cebpf4jnsgd1na2vs0mg"},{"bike_id":"46c9ec24-1a56-425b-9569-11b2c5106248","system_id":"levelo_inurba_marseille","lat":43.31368,"lon":5.38499,"is_reserved":false,"is_disabled":false,"rental_uris":{"android":"levelo://app?vid=46c9ec24-1a56-425b-9569-11b2c5106248","ios":"levelo://app?vid=46c9ec24-1a56-425b-9569-11b2c5106248"},"vehicle_type_id":"4","last_reported":1758899392,"current_range_meters":17200,"station_id":"ce4bgt92rcd13ifvqcf0","pricing_plan_id":"cebpf4jnsgd1na2vs0mg"},{"bike_id":"40671cea-5fa4-4b34-ae7b-b7e5e1035365","system_id":"levelo_inurba_marseille","lat":43.250906,"lon":5.403156,"is_reserved":false,"is_disabled":false,"rental_uris":{"android":"levelo://app?vid=40671cea-5fa4-4b34-ae7b-b7e5e1035365","ios":"levelo://app?vid=40671cea-5fa4-4b34-ae7b-b7e5e1035365"},"vehicle_type_id":"4","last_reported":1758899392,"current_range_meters":17200,"station_id":"ce4bhlh2rcd13ifvqgig","pricing_plan_id":"cebpf4jnsgd1na2vs0mg"},{"bike_id":"371fd6e1-ff4a-4143-98fe-3368993b3f11","system_id":"levelo_inurba_marseille","lat":43.2118,"lon":5.351,"is_reserved":false,"is_disabled":false,"rental_uris":{"android":"levelo://app?vid=371fd6e1-ff4a-4143-98fe-3368993b3f11","ios":"levelo://app?vid=371fd6e1-ff4a-4143-98fe-3368993b3f11"},"vehicle_type_id":"4","last_reported":1758899392,"current_range_meters":17200,"station_id":"st_cvj6sg6p6f1abm77japg","pricing_plan_id":"cebpf4jnsgd1na2vs0mg"},{"bike_id":"ee140b63-0ab1-4d17-ac07-6e8e40943377","system_id":"levelo_inurba_marseille","lat":43.31494,"lon":5.37311,"is_reserved":false,"is_disabled":false,"rental_uris":{"android":"levelo://app?vid=ee140b63-0ab1-4d17-ac07-6e8e40943377","ios":"levelo://app?vid=ee140b63-0ab1-4d17-ac07-6e8e40943377"},"vehicle_type_id":"4","last_reported":1758899392,"current_range_meters":17200,"station_id":"ce4bgt12rcd13ifvqcd0","pricing_plan_id":"cebpf4jnsgd1na2vs0mg"},{"bike_id":"1f7faa2d-3fdc-4978-ac48-cdb7ebf3b5ca","system_id":"levelo_inurba_marseille","lat":43.30315,"lon":5.36889,"is_reserved":false,"is_disabled":false,"rental_uris":{"android":"levelo://app?vid=1f7faa2d-3fdc-4978-ac48-cdb7ebf3b5ca","ios":"levelo://app?vid=1f7faa2d-3fdc-4978-ac48-cdb7ebf3b5ca"},"vehicle_type_id":"4","last_reported":1758899392,"current_range_meters":17200,"station_id":"ce4bgqh2rcd13ifvqc5g","pricing_plan_id":"cebpf4jnsgd1na2vs0mg"},{"bike_id":"f3cb47e7-b196-4859-ac40-b613f3efdb9e","system_id":"levelo_inurba_marseille","lat":43.25875,"lon":5.39916,"is_reserved":false,"is_disabled":false,"rental_uris":{"android":"levelo://app?vid=f3cb47e7-b196-4859-ac40-b613f3efdb9e","ios":"levelo://app?vid=f3cb47e7-b196-4859-ac40-b613f3efdb9e"},"vehicle_type_id":"4","last_reported":1758899392,"current_range_meters":17600,"station_id":"ce4bhl92rcd13ifvqghg","pricing_plan_id":"cebpf4jnsgd1na2vs0mg"},{"bike_id":"cd6a2b90-af07-4efc-b55e-f6b72e95cbc3","system_id":"levelo_inurba_marseille","lat":43.28675,"lon":5.36329,"is_reserved":false,"is_disabled":false,"rental_uris":{"android":"levelo://app?vid=cd6a2b90-af07-4efc-b55e-f6b72e95cbc3","ios":"levelo://app?vid=cd6a2b90-af07-4efc-b55e-f6b72e95cbc3"},"vehicle_type_id":"4","last_reported":1758899392,"current_range_meters":17600,"station_id":"ce4bhah2rcd13ifvqej0","pricing_plan_id":"cebpf4jnsgd1na2vs0mg"},{"bike_id":"4e7136b0-0d47-4672-bb80-907cf72eb561","system_id":"levelo_inurba_marseille","lat":43.25499,"lon":5.37669,"is_reserved":false,"is_disabled":false,"rental_uris":{"android":"levelo://app?vid=4e7136b0-0d47-4672-bb80-907cf72eb561","ios":"levelo://app?vid=4e7136b0-0d47-4672-bb80-907cf72eb561"},"vehicle_type_id":"4","last_reported":1758899392,"current_range_meters":17200,"station_id":"ce4bhh12rcd13ifvqff0","pricing_plan_id":"cebpf4jnsgd1na2vs0mg"},{"bike_id":"c2f36b74-26ef-4e09-bf6b-7f373b8673f5","system_id":"levelo_inurba_marseille","lat":43.2861,"lon":5.35104,"is_reserved":false,"is_disabled":false,"rental_uris":{"android":"levelo://app?vid=c2f36b74-26ef-4e09-bf6b-7f373b8673f5","ios":"levelo://app?vid=c2f36b74-26ef-4e09-bf6b-7f373b8673f5"},"vehicle_type_id":"4","last_reported":1758899392,"current_range_meters":17600,"station_id":"ce4bhch2rcd13ifvqeug","pricing_plan_id":"cebpf4jnsgd1na2vs0mg"},{"bike_id":"c3e4eb6c-d62e-4131-be68-cf6a90ff81da","system_id":"levelo_inurba_marseille","lat":43.23175,"lon":5.39985,"is_reserved":false,"is_disabled":false,"rental_uris":{"android":"levelo://app?vid=c3e4eb6c-d62e-4131-be68-cf6a90ff81da","ios":"levelo://app?vid=c3e4eb6c-d62e-4131-be68-cf6a90ff81da"},"vehicle_type_id":"4","last_reported":1758899392,"current_range_meters":17600,"station_id":"ce4bhn12rcd13ifvqgqg","pricing_plan_id":"cebpf4jnsgd1na2vs0mg"},{"bike_id":"7f09bc43-02a6-468a-9182-731c83281b4a","system_id":"levelo_inurba_marseille","lat":43.26358,"lon":5.37501,"is_reserved":false,"is_disabled":false,"rental_uris":{"android":"levelo://app?vid=7f09bc43-02a6-468a-9182-731c83281b4a","ios":"levelo://app?vid=7f09bc43-02a6-468a-9182-731c83281b4a"},"vehicle_type_id":"4","last_reported":1758899392,"current_range_meters":17600,"station_id":"","pricing_plan_id":"cebpf4jnsgd1na2vs0mg"},{"bike_id":"052c59a7-1cc4-4bbc-97f5-180981a63118","system_id":"levelo_inurba_marseille","lat":43.24626,"lon":5.43148,"is_reserved":false,"is_disabled":false,"rental_uris":{"android":"levelo://app?vid=052c59a7-1cc4-4bbc-97f5-180981a63118","ios":"levelo://app?vid=052c59a7-1cc4-4bbc-97f5-180981a63118"},"vehicle_type_id":"4","last_reported":1758899392,"current_range_meters":17600,"station_id":"st_d2m6c4gdas8pm72e190g","pricing_plan_id":"cebpf4jnsgd1na2vs0mg"},{"bike_id":"00494059-65d2-4aa0-9e57-8baa3f33d16c","system_id":"levelo_inurba_marseille","lat":43.33148,"lon":5.38181,"is_reserved":false,"is_disabled":false,"rental_uris":{"android":"levelo://app?vid=00494059-65d2-4aa0-9e57-8baa3f33d16c","ios":"levelo://app?vid=00494059-65d2-4aa0-9e57-8baa3f33d16c"},"vehicle_type_id":"4","last_reported":1758899392,"current_range_meters":17600,"station_id":"","pricing_plan_id":"cebpf4jnsgd1na2vs0mg"},{"bike_id":"03350417-1098-4d6c-b8fe-9e64358744bf","system_id":"levelo_inurba_marseille","lat":43.31044,"lon":5.37585,"is_reserved":false,"is_disabled":false,"rental_uris":{"android":"levelo://app?vid=03350417-1098-4d6c-b8fe-9e64358744bf","ios":"levelo://app?vid=03350417-1098-4d6c-b8fe-9e64358744bf"},"vehicle_type_id":"4","last_reported":1758899392,"current_range_meters":17600,"station_id":"","pricing_plan_id":"cebpf4jnsgd1na2vs0mg"},{"bike_id":"afb5f42c-bc92-4753-b8b5-463a6aed8244","system_id":"levelo_inurba_marseille","lat":43.29875,"lon":5.39738,"is_reserved":false,"is_disabled":false,"rental_uris":{"android":"levelo://app?vid=afb5f42c-bc92-4753-b8b5-463a6aed8244","ios":"levelo://app?vid=afb5f42c-bc92-4753-b8b5-463a6aed8244"},"vehicle_type_id":"4","last_reported":1758899392,"current_range_meters":17600,"station_id":"","pricing_plan_id":"cebpf4jnsgd1na2vs0mg"},{"bike_id":"9554b6f2-2eec-4fd4-86ee-ed29bc2c41b6","system_id":"levelo_inurba_marseille","lat":43.28574,"lon":5.39485,"is_reserved":false,"is_disabled":false,"rental_uris":{"android":"levelo://app?vid=9554b6f2-2eec-4fd4-86ee-ed29bc2c41b6","ios":"levelo://app?vid=9554b6f2-2eec-4fd4-86ee-ed29bc2c41b6"},"vehicle_type_id":"4","last_reported":1758899392,"current_range_meters":18000,"station_id":"ce4bh292rcd13ifvqdg0","pricing_plan_id":"cebpf4jnsgd1na2vs0mg"},{"bike_id":"3f20fd1c-8386-448e-bbf5-a969a0ac577e","system_id":"levelo_inurba_marseille","lat":43.27999,"lon":5.40018,"is_reserved":false,"is_disabled":false,"rental_uris":{"android":"levelo://app?vid=3f20fd1c-8386-448e-bbf5-a969a0ac577e","ios":"levelo://app?vid=3f20fd1c-8386-448e-bbf5-a969a0ac577e"},"vehicle_type_id":"4","last_reported":1758899392,"current_range_meters":18000,"station_id":"ce4bho92rcd13ifvqh4g","pricing_plan_id":"cebpf4jnsgd1na2vs0mg"},{"bike_id":"f7d02cdd-1af8-489d-84e6-2169828dbac6","system_id":"levelo_inurba_marseille","lat":43.30546,"lon":5.36708,"is_reserved":false,"is_disabled":false,"rental_uris":{"android":"levelo://app?vid=f7d02cdd-1af8-489d-84e6-2169828dbac6","ios":"levelo://app?vid=f7d02cdd-1af8-489d-84e6-2169828dbac6"},"vehicle_type_id":"4","last_reported":1758899392,"current_range_meters":18000,"station_id":"ce4bgrp2rcd13ifvqc9g","pricing_plan_id":"cebpf4jnsgd1na2vs0mg"},{"bike_id":"5bb42022-0e19-48bc-a5b4-218bb1d7482e","system_id":"levelo_inurba_marseille","lat":43.31273,"lon":5.3774,"is_reserved":false,"is_disabled":false,"rental_uris":{"android":"levelo://app?vid=5bb42022-0e19-48bc-a5b4-218bb1d7482e","ios":"levelo://app?vid=5bb42022-0e19-48bc-a5b4-218bb1d7482e"},"vehicle_type_id":"4","last_reported":1758899392,"current_range_meters":18000,"station_id":"","pricing_plan_id":"cebpf4jnsgd1na2vs0mg"},{"bike_id":"e2f092f4-72a7-4c5b-8809-c1e1beb9e3d1","system_id":"levelo_inurba_marseille","lat":43.30428,"lon":5.38887,"is_reserved":false,"is_disabled":false,"rental_uris":{"android":"levelo://app?vid=e2f092f4-72a7-4c5b-8809-c1e1beb9e3d1","ios":"levelo://app?vid=e2f092f4-72a7-4c5b-8809-c1e1beb9e3d1"},"vehicle_type_id":"4","last_reported":1758899392,"current_range_meters":18000,"station_id":"ce4bgk12rcd13ifvqbi0","pricing_plan_id":"cebpf4jnsgd1na2vs0mg"},{"bike_id":"57985cd2-968f-45c6-9b6b-174f1258b1c3","system_id":"levelo_inurba_marseille","lat":43.31171,"lon":5.37738,"is_reserved":false,"is_disabled":false,"rental_uris":{"android":"levelo://app?vid=57985cd2-968f-45c6-9b6b-174f1258b1c3","ios":"levelo://app?vid=57985cd2-968f-45c6-9b6b-174f1258b1c3"},"vehicle_type_id":"4","last_reported":1758899392,"current_range_meters":18000,"station_id":"","pricing_plan_id":"cebpf4jnsgd1na2vs0mg"},{"bike_id":"46ac5fb6-ac2e-43e8-84c9-c4e46889ea29","system_id":"levelo_inurba_marseille","lat":43.2117,"lon":5.35089,"is_reserved":false,"is_disabled":false,"rental_uris":{"android":"levelo://app?vid=46ac5fb6-ac2e-43e8-84c9-c4e46889ea29","ios":"levelo://app?vid=46ac5fb6-ac2e-43e8-84c9-c4e46889ea29"},"vehicle_type_id":"4","last_reported":1758899392,"current_range_meters":18000,"station_id":"st_cvj6sg6p6f1abm77japg","pricing_plan_id":"cebpf4jnsgd1na2vs0mg"},{"bike_id":"7424e12d-60f2-4dd7-a94f-1e1ae78d8b6f","system_id":"levelo_inurba_marseille","lat":43.27485,"lon":5.42453,"is_reserved":false,"is_disabled":false,"rental_uris":{"android":"levelo://app?vid=7424e12d-60f2-4dd7-a94f-1e1ae78d8b6f","ios":"levelo://app?vid=7424e12d-60f2-4dd7-a94f-1e1ae78d8b6f"},"vehicle_type_id":"4","last_reported":1758899392,"current_range_meters":18000,"station_id":"ce4bhn92rcd13ifvqgrg","pricing_plan_id":"cebpf4jnsgd1na2vs0mg"},{"bike_id":"8a7e10f4-601c-44f4-9775-3f8ace29091b","system_id":"levelo_inurba_marseille","lat":43.28426,"lon":5.34985,"is_reserved":false,"is_disabled":false,"rental_uris":{"android":"levelo://app?vid=8a7e10f4-601c-44f4-9775-3f8ace29091b","ios":"levelo://app?vid=8a7e10f4-601c-44f4-9775-3f8ace29091b"},"vehicle_type_id":"4","last_reported":1758899392,"current_range_meters":18800,"station_id":"ce4bhbh2rcd13ifvqepg","pricing_plan_id":"cebpf4jnsgd1na2vs0mg"},{"bike_id":"9feae468-b8bd-422a-8fcb-2d68fc5ee82c","system_id":"levelo_inurba_marseille","lat":43.33381,"lon":5.42024,"is_reserved":false,"is_disabled":false,"rental_uris":{"android":"levelo://app?vid=9feae468-b8bd-422a-8fcb-2d68fc5ee82c","ios":"levelo://app?vid=9feae468-b8bd-422a-8fcb-2d68fc5ee82c"},"vehicle_type_id":"4","last_reported":1758899392,"current_range_meters":18800,"station_id":"","pricing_plan_id":"cebpf4jnsgd1na2vs0mg"},{"bike_id":"327c041e-5c9e-4b0d-a97c-a2dbaab036ae","system_id":"levelo_inurba_marseille","lat":43.32813,"lon":5.4113,"is_reserved":false,"is_disabled":false,"rental_uris":{"android":"levelo://app?vid=327c041e-5c9e-4b0d-a97c-a2dbaab036ae","ios":"levelo://app?vid=327c041e-5c9e-4b0d-a97c-a2dbaab036ae"},"vehicle_type_id":"4","last_reported":1758899392,"current_range_meters":18800,"station_id":"","pricing_plan_id":"cebpf4jnsgd1na2vs0mg"},{"bike_id":"0445961a-8d71-4a5e-9617-3ea41ebff69a","system_id":"levelo_inurba_marseille","lat":43.24171,"lon":5.36401,"is_reserved":false,"is_disabled":false,"rental_uris":{"android":"levelo://app?vid=0445961a-8d71-4a5e-9617-3ea41ebff69a","ios":"levelo://app?vid=0445961a-8d71-4a5e-9617-3ea41ebff69a"},"vehicle_type_id":"4","last_reported":1758899392,"current_range_meters":18800,"station_id":"cpo36qri1sfpv3e86is0","pricing_plan_id":"cebpf4jnsgd1na2vs0mg"},{"bike_id":"85c7ac65-0172-4766-8977-f4ba34ed9c93","system_id":"levelo_inurba_marseille","lat":43.25326,"lon":5.42181,"is_reserved":false,"is_disabled":false,"rental_uris":{"android":"levelo://app?vid=85c7ac65-0172-4766-8977-f4ba34ed9c93","ios":"levelo://app?vid=85c7ac65-0172-4766-8977-f4ba34ed9c93"},"vehicle_type_id":"4","last_reported":1758899392,"current_range_meters":18800,"station_id":"st_d2m65c5bi1j21697t3ng","pricing_plan_id":"cebpf4jnsgd1na2vs0mg"},{"bike_id":"62ce66cb-1635-4a69-a130-1a65a75f4da4","system_id":"levelo_inurba_marseille","lat":43.29211,"lon":5.3603,"is_reserved":false,"is_disabled":false,"rental_uris":{"android":"levelo://app?vid=62ce66cb-1635-4a69-a130-1a65a75f4da4","ios":"levelo://app?vid=62ce66cb-1635-4a69-a130-1a65a75f4da4"},"vehicle_type_id":"4","last_reported":1758899392,"current_range_meters":18800,"station_id":"ce4bhbh2rcd13ifvqeqg","pricing_plan_id":"cebpf4jnsgd1na2vs0mg"},{"bike_id":"d8c6609d-ab67-40c8-accc-4223b9ba2cbb","system_id":"levelo_inurba_marseille","lat":43.29717,"lon":5.37701,"is_reserved":false,"is_disabled":false,"rental_uris":{"android":"levelo://app?vid=d8c6609d-ab67-40c8-accc-4223b9ba2cbb","ios":"levelo://app?vid=d8c6609d-ab67-40c8-accc-4223b9ba2cbb"},"vehicle_type_id":"4","last_reported":1758899392,"current_range_meters":18800,"station_id":"ce4bgkh2rcd13ifvqbl0","pricing_plan_id":"cebpf4jnsgd1na2vs0mg"},{"bike_id":"661fd210-a8fb-4260-93f0-dad20cdee8b3","system_id":"levelo_inurba_marseille","lat":43.30552,"lon":5.36538,"is_reserved":false,"is_disabled":false,"rental_uris":{"android":"levelo://app?vid=661fd210-a8fb-4260-93f0-dad20cdee8b3","ios":"levelo://app?vid=661fd210-a8fb-4260-93f0-dad20cdee8b3"},"vehicle_type_id":"4","last_reported":1758899392,"current_range_meters":19200,"station_id":"ce4bgs12rcd13ifvqcag","pricing_plan_id":"cebpf4jnsgd1na2vs0mg"},{"bike_id":"cd912daa-ab07-4619-8e8a-8faee3ae37dd","system_id":"levelo_inurba_marseille","lat":43.2678,"lon":5.39414,"is_reserved":false,"is_disabled":false,"rental_uris":{"android":"levelo://app?vid=cd912daa-ab07-4619-8e8a-8faee3ae37dd","ios":"levelo://app?vid=cd912daa-ab07-4619-8e8a-8faee3ae37dd"},"vehicle_type_id":"4","last_reported":1758899392,"current_range_meters":19200,"station_id":"ce4bhh12rcd13ifvqfg0","pricing_plan_id":"cebpf4jnsgd1na2vs0mg"},{"bike_id":"b6721f14-833b-40cb-8800-764e088f0391","system_id":"levelo_inurba_marseille","lat":43.2992,"lon":5.37484,"is_reserved":false,"is_disabled":false,"rental_uris":{"android":"levelo://app?vid=b6721f14-833b-40cb-8800-764e088f0391","ios":"levelo://app?vid=b6721f14-833b-40cb-8800-764e088f0391"},"vehicle_type_id":"4","last_reported":1758899392,"current_range_meters":18800,"station_id":"ce4bgjh2rcd13ifvqbg0","pricing_plan_id":"cebpf4jnsgd1na2vs0mg"},{"bike_id":"d7f3c78e-d374-4c30-9e1b-7b99c76b24d1","system_id":"levelo_inurba_marseille","lat":43.32367,"lon":5.38877,"is_reserved":false,"is_disabled":false,"rental_uris":{"android":"levelo://app?vid=d7f3c78e-d374-4c30-9e1b-7b99c76b24d1","ios":"levelo://app?vid=d7f3c78e-d374-4c30-9e1b-7b99c76b24d1"},"vehicle_type_id":"4","last_reported":1758899392,"current_range_meters":19200,"station_id":"ce4bhqp2rcd13ifvqhog","pricing_plan_id":"cebpf4jnsgd1na2vs0mg"},{"bike_id":"deaeee05-2216-4e40-b3d8-5436f1f6e18b","system_id":"levelo_inurba_marseille","lat":43.265699,"lon":5.390034,"is_reserved":false,"is_disabled":false,"rental_uris":{"android":"levelo://app?vid=deaeee05-2216-4e40-b3d8-5436f1f6e18b","ios":"levelo://app?vid=deaeee05-2216-4e40-b3d8-5436f1f6e18b"},"vehicle_type_id":"4","last_reported":1758899392,"current_range_meters":19200,"station_id":"ce4bhe12rcd13ifvqf30","pricing_plan_id":"cebpf4jnsgd1na2vs0mg"},{"bike_id":"24249dba-d4f7-424d-9830-663bf87be704","system_id":"levelo_inurba_marseille","lat":43.28668,"lon":5.38675,"is_reserved":false,"is_disabled":false,"rental_uris":{"android":"levelo://app?vid=24249dba-d4f7-424d-9830-663bf87be704","ios":"levelo://app?vid=24249dba-d4f7-424d-9830-663bf87be704"},"vehicle_type_id":"4","last_reported":1758899392,"current_range_meters":19200,"station_id":"ce4bh492rcd13ifvqdug","pricing_plan_id":"cebpf4jnsgd1na2vs0mg"},{"bike_id":"82115a18-6cd4-48f2-87ee-746c22595cee","system_id":"levelo_inurba_marseille","lat":43.30157,"lon":5.38096,"is_reserved":false,"is_disabled":true,"rental_uris":{"android":"levelo://app?vid=82115a18-6cd4-48f2-87ee-746c22595cee","ios":"levelo://app?vid=82115a18-6cd4-48f2-87ee-746c22595cee"},"vehicle_type_id":"4","last_reported":1758899392,"current_range_meters":19200,"station_id":"ce4bgjp2rcd13ifvqbh0","pricing_plan_id":"cebpf4jnsgd1na2vs0mg"},{"bike_id":"5de5a448-9e06-4293-af32-48e8256dee6d","system_id":"levelo_inurba_marseille","lat":43.33778,"lon":5.37409,"is_reserved":false,"is_disabled":false,"rental_uris":{"android":"levelo://app?vid=5de5a448-9e06-4293-af32-48e8256dee6d","ios":"levelo://app?vid=5de5a448-9e06-4293-af32-48e8256dee6d"},"vehicle_type_id":"4","last_reported":1758899392,"current_range_meters":19200,"station_id":"","pricing_plan_id":"cebpf4jnsgd1na2vs0mg"},{"bike_id":"b0dc0f44-bdc8-4fdd-a26a-9c1856643ed5","system_id":"levelo_inurba_marseille","lat":43.28782,"lon":5.38551,"is_reserved":false,"is_disabled":false,"rental_uris":{"android":"levelo://app?vid=b0dc0f44-bdc8-4fdd-a26a-9c1856643ed5","ios":"levelo://app?vid=b0dc0f44-bdc8-4fdd-a26a-9c1856643ed5"},"vehicle_type_id":"4","last_reported":1758899392,"current_range_meters":19200,"station_id":"","pricing_plan_id":"cebpf4jnsgd1na2vs0mg"},{"bike_id":"1e8641b5-3091-448d-9c9c-fbf5a237c0d3","system_id":"levelo_inurba_marseille","lat":43.27564,"lon":5.38425,"is_reserved":false,"is_disabled":false,"rental_uris":{"android":"levelo://app?vid=1e8641b5-3091-448d-9c9c-fbf5a237c0d3","ios":"levelo://app?vid=1e8641b5-3091-448d-9c9c-fbf5a237c0d3"},"vehicle_type_id":"4","last_reported":1758899392,"current_range_meters":19200,"station_id":"ce4bhh92rcd13ifvqfi0","pricing_plan_id":"cebpf4jnsgd1na2vs0mg"},{"bike_id":"534a761b-a464-4ff7-aa1d-1181d2f2c818","system_id":"levelo_inurba_marseille","lat":43.30786,"lon":5.37648,"is_reserved":false,"is_disabled":false,"rental_uris":{"android":"levelo://app?vid=534a761b-a464-4ff7-aa1d-1181d2f2c818","ios":"levelo://app?vid=534a761b-a464-4ff7-aa1d-1181d2f2c818"},"vehicle_type_id":"4","last_reported":1758899392,"current_range_meters":19200,"station_id":"ce4bgv92rcd13ifvqcq0","pricing_plan_id":"cebpf4jnsgd1na2vs0mg"},{"bike_id":"c89019aa-0923-427c-bb2f-056ece4bcaca","system_id":"levelo_inurba_marseille","lat":43.29526,"lon":5.3904,"is_reserved":false,"is_disabled":false,"rental_uris":{"android":"levelo://app?vid=c89019aa-0923-427c-bb2f-056ece4bcaca","ios":"levelo://app?vid=c89019aa-0923-427c-bb2f-056ece4bcaca"},"vehicle_type_id":"4","last_reported":1758899392,"current_range_meters":19200,"station_id":"ce4bh3p2rcd13ifvqdp0","pricing_plan_id":"cebpf4jnsgd1na2vs0mg"},{"bike_id":"4ab5caf3-d186-4796-bd0e-7d1f41057528","system_id":"levelo_inurba_marseille","lat":43.28613,"lon":5.35102,"is_reserved":false,"is_disabled":false,"rental_uris":{"android":"levelo://app?vid=4ab5caf3-d186-4796-bd0e-7d1f41057528","ios":"levelo://app?vid=4ab5caf3-d186-4796-bd0e-7d1f41057528"},"vehicle_type_id":"4","last_reported":1758899392,"current_range_meters":19600,"station_id":"ce4bhch2rcd13ifvqeug","pricing_plan_id":"cebpf4jnsgd1na2vs0mg"},{"bike_id":"f856e2e9-eeb1-4560-8207-5e846cd895d3","system_id":"levelo_inurba_marseille","lat":43.33004,"lon":5.39046,"is_reserved":false,"is_disabled":false,"rental_uris":{"android":"levelo://app?vid=f856e2e9-eeb1-4560-8207-5e846cd895d3","ios":"levelo://app?vid=f856e2e9-eeb1-4560-8207-5e846cd895d3"},"vehicle_type_id":"4","last_reported":1758899392,"current_range_meters":19600,"station_id":"ce4bhr92rcd13ifvqhrg","pricing_plan_id":"cebpf4jnsgd1na2vs0mg"},{"bike_id":"75a1808b-f036-45a0-9b9e-d8442cdf8f90","system_id":"levelo_inurba_marseille","lat":43.24985,"lon":5.38939,"is_reserved":false,"is_disabled":false,"rental_uris":{"android":"levelo://app?vid=75a1808b-f036-45a0-9b9e-d8442cdf8f90","ios":"levelo://app?vid=75a1808b-f036-45a0-9b9e-d8442cdf8f90"},"vehicle_type_id":"4","last_reported":1758899392,"current_range_meters":20000,"station_id":"ce4bhgp2rcd13ifvqfd0","pricing_plan_id":"cebpf4jnsgd1na2vs0mg"},{"bike_id":"4d5b4831-f4b7-457f-ac5f-177f1c74b001","system_id":"levelo_inurba_marseille","lat":43.22561,"lon":5.41628,"is_reserved":false,"is_disabled":false,"rental_uris":{"android":"levelo://app?vid=4d5b4831-f4b7-457f-ac5f-177f1c74b001","ios":"levelo://app?vid=4d5b4831-f4b7-457f-ac5f-177f1c74b001"},"vehicle_type_id":"4","last_reported":1758899392,"current_range_meters":20000,"station_id":"st_d2o4gvlbi1j2169b742g","pricing_plan_id":"cebpf4jnsgd1na2vs0mg"},{"bike_id":"28ca637d-7ae4-4c35-a0ca-94a3a7db730e","system_id":"levelo_inurba_marseille","lat":43.314948,"lon":5.373115,"is_reserved":false,"is_disabled":false,"rental_uris":{"android":"levelo://app?vid=28ca637d-7ae4-4c35-a0ca-94a3a7db730e","ios":"levelo://app?vid=28ca637d-7ae4-4c35-a0ca-94a3a7db730e"},"vehicle_type_id":"4","last_reported":1758899392,"current_range_meters":20000,"station_id":"ce4bgt12rcd13ifvqcd0","pricing_plan_id":"cebpf4jnsgd1na2vs0mg"},{"bike_id":"a70e9583-40e1-47ed-aee4-1ddd6a6c9ada","system_id":"levelo_inurba_marseille","lat":43.30536,"lon":5.36537,"is_reserved":false,"is_disabled":false,"rental_uris":{"android":"levelo://app?vid=a70e9583-40e1-47ed-aee4-1ddd6a6c9ada","ios":"levelo://app?vid=a70e9583-40e1-47ed-aee4-1ddd6a6c9ada"},