{"last_updated":1758049652,"ttl":60,"version":"2.2","data":{"bikes":[{"bike_id":"7a780d08-5ddd-409a-ad7d-cd00b76213d7","system_id":"levelo_inurba_marseille","lat":43.24395,"lon":5.37046,"is_reserved":false,"is_disabled":false,"rental_uris":{"android":"levelo://app?vid=7a780d08-5ddd-409a-ad7d-cd00b76213d7","ios":"levelo://app?vid=7a780d08-5ddd-409a-ad7d-cd00b76213d7"},"vehicle_type_id":"4","last_reported":1758049652,"current_range_meters":2800,"station_id":"ce4bhhh2rcd13ifvqfk0","pricing_plan_id":"cebpf4jnsgd1na2vs0mg"},{"bike_id":"71b6a6d7-551f-43e8-8ecd-d67e92e8e264","system_id":"levelo_inurba_marseille","lat":43.28713,"lon":5.37952,"is_reserved":false,"is_disabled":false,"rental_uris":{"android":"levelo://app?vid=71b6a6d7-551f-43e8-8ecd-d67e92e8e264","ios":"levelo://app?vid=71b6a6d7-551f-43e8-8ecd-d67e92e8e264"},"vehicle_type_id":"4","last_reported":1758049652,"current_range_meters":2800,"station_id":"ce4bh9p2rcd13ifvqec0","pricing_plan_id":"cebpf4jnsgd1na2vs0mg"},{"bike_id":"7ad91be7-8f85-4501-a88e-bc59aa216c05","system_id":"levelo_inurba_marseille","lat":43.29713,"lon":5.36608,"is_reserved":false,"is_disabled":false,"rental_uris":{"android":"levelo://app?vid=7ad91be7-8f85-4501-a88e-bc59aa216c05","ios":"levelo://app?vid=7ad91be7-8f85-4501-a88e-bc59aa216c05"},"vehicle_type_id":"4","last_reported":1758049652,"current_range_meters":2800,"station_id":"ce4bgn12rcd13ifvqbt0","pricing_plan_id":"cebpf4jnsgd1na2vs0mg"},{"bike_id":"95a67af4-fd1f-4b52-8c77-5168d18dfb7d","system_id":"levelo_inurba_marseille","lat":43.28474,"lon":5.38536,"is_reserved":false,"is_disabled":false,"rental_uris":{"android":"levelo://app?vid=95a67af4-fd1f-4b52-8c77-5168d18dfb7d","ios":"levelo://app?vid=95a67af4-fd1f-4b52-8c77-5168d18dfb7d"},"vehicle_type_id":"4","last_reported":1758049652,"current_range_meters":2000,"station_id":"ce4bh8p2rcd13ifvqeb0","pricing_plan_id":"cebpf4jnsgd1na2vs0mg"},{"bike_id":"c37933c6-f301-4e72-ae28-b86236887c46","system_id":"levelo_inurba_marseille","lat":43.225329,"lon":5.348362,"is_reserved":false,"is_disabled":false,"rental_uris":{"android":"levelo://app?vid=c37933c6-f301-4e72-ae28-b86236887c46","ios":"levelo://app?vid=c37933c6-f301-4e72-ae28-b86236887c46"},"vehicle_type_id":"4","last_reported":1758049652,"current_range_meters":2800,"station_id":"","pricing_plan_id":"cebpf4jnsgd1na2vs0mg"},{"bike_id":"03809294-3a3e-4efa-afda-0ac11dcf72fc","system_id":"levelo_inurba_marseille","lat":43.3375,"lon":5.37467,"is_reserved":false,"is_disabled":false,"rental_uris":{"android":"levelo://app?vid=03809294-3a3e-4efa-afda-0ac11dcf72fc","ios":"levelo://app?vid=03809294-3a3e-4efa-afda-0ac11dcf72fc"},"vehicle_type_id":"4","last_reported":1758049652,"current_range_meters":2800,"station_id":"","pricing_plan_id":"cebpf4jnsgd1na2vs0mg"},{"bike_id":"d88c39fa-c060-4f94-a7b0-47a496bc015d","system_id":"levelo_inurba_marseille","lat":43.25088,"lon":5.39519,"is_reserved":false,"is_disabled":false,"rental_uris":{"android":"levelo://app?vid=d88c39fa-c060-4f94-a7b0-47a496bc015d","ios":"levelo://app?vid=d88c39fa-c060-4f94-a7b0-47a496bc015d"},"vehicle_type_id":"4","last_reported":1758049652,"current_range_meters":3200,"station_id":"ce4bhm12rcd13ifvqgkg","pricing_plan_id":"cebpf4jnsgd1na2vs0mg"},{"bike_id":"3081a8c2-567d-429a-b6e3-b165f3dd426c","system_id":"levelo_inurba_marseille","lat":43.29531,"lon":5.38549,"is_reserved":false,"is_disabled":false,"rental_uris":{"android":"levelo://app?vid=3081a8c2-567d-429a-b6e3-b165f3dd426c","ios":"levelo://app?vid=3081a8c2-567d-429a-b6e3-b165f3dd426c"},"vehicle_type_id":"4","last_reported":1758049652,"current_range_meters":3200,"station_id":"ce4bgih2rcd13ifvqba0","pricing_plan_id":"cebpf4jnsgd1na2vs0mg"},{"bike_id":"fd4050f9-91b3-4ce5-b328-ae2f2f22d50d","system_id":"levelo_inurba_marseille","lat":43.23963,"lon":5.36624,"is_reserved":false,"is_disabled":false,"rental_uris":{"android":"levelo://app?vid=fd4050f9-91b3-4ce5-b328-ae2f2f22d50d","ios":"levelo://app?vid=fd4050f9-91b3-4ce5-b328-ae2f2f22d50d"},"vehicle_type_id":"4","last_reported":1758049652,"current_range_meters":3200,"station_id":"ce4bhi12rcd13ifvqfp0","pricing_plan_id":"cebpf4jnsgd1na2vs0mg"},{"bike_id":"d765e876-dc94-417e-ad8c-0ac49bf5261a","system_id":"levelo_inurba_marseille","lat":43.33447,"lon":5.3638,"is_reserved":false,"is_disabled":false,"rental_uris":{"android":"levelo://app?vid=d765e876-dc94-417e-ad8c-0ac49bf5261a","ios":"levelo://app?vid=d765e876-dc94-417e-ad8c-0ac49bf5261a"},"vehicle_type_id":"4","last_reported":1758049652,"current_range_meters":3200,"station_id":"","pricing_plan_id":"cebpf4jnsgd1na2vs0mg"},{"bike_id":"3b7afd66-abe6-4850-a160-92a8d516c0a2","system_id":"levelo_inurba_marseille","lat":43.29301,"lon":5.37167,"is_reserved":false,"is_disabled":false,"rental_uris":{"android":"levelo://app?vid=3b7afd66-abe6-4850-a160-92a8d516c0a2","ios":"levelo://app?vid=3b7afd66-abe6-4850-a160-92a8d516c0a2"},"vehicle_type_id":"4","last_reported":1758049652,"current_range_meters":3200,"station_id":"ce4bgh92rcd13ifvqb40","pricing_plan_id":"cebpf4jnsgd1na2vs0mg"},{"bike_id":"ebbd30a4-9653-4f9a-ac36-9ebf204ffb79","system_id":"levelo_inurba_marseille","lat":43.31519,"lon":5.38036,"is_reserved":false,"is_disabled":false,"rental_uris":{"android":"levelo://app?vid=ebbd30a4-9653-4f9a-ac36-9ebf204ffb79","ios":"levelo://app?vid=ebbd30a4-9653-4f9a-ac36-9ebf204ffb79"},"vehicle_type_id":"4","last_reported":1758049652,"current_range_meters":2800,"station_id":"ce4bhsp2rcd13ifvqi50","pricing_plan_id":"cebpf4jnsgd1na2vs0mg"},{"bike_id":"33bb1785-d459-4f3b-9518-672a188c6a87","system_id":"levelo_inurba_marseille","lat":43.337444,"lon":5.374475,"is_reserved":false,"is_disabled":false,"rental_uris":{"android":"levelo://app?vid=33bb1785-d459-4f3b-9518-672a188c6a87","ios":"levelo://app?vid=33bb1785-d459-4f3b-9518-672a188c6a87"},"vehicle_type_id":"4","last_reported":1758049652,"current_range_meters":3200,"station_id":"","pricing_plan_id":"cebpf4jnsgd1na2vs0mg"},{"bike_id":"e790969b-c787-4652-b62d-8dbcd8a064e7","system_id":"levelo_inurba_marseille","lat":43.29094,"lon":5.38152,"is_reserved":false,"is_disabled":false,"rental_uris":{"android":"levelo://app?vid=e790969b-c787-4652-b62d-8dbcd8a064e7","ios":"levelo://app?vid=e790969b-c787-4652-b62d-8dbcd8a064e7"},"vehicle_type_id":"4","last_reported":1758049652,"current_range_meters":3200,"station_id":"ce4bh512rcd13ifvqe2g","pricing_plan_id":"cebpf4jnsgd1na2vs0mg"},{"bike_id":"ea90a598-8a56-4e9c-895c-5f12f1dbc912","system_id":"levelo_inurba_marseille","lat":43.305334,"lon":5.365584,"is_reserved":false,"is_disabled":false,"rental_uris":{"android":"levelo://app?vid=ea90a598-8a56-4e9c-895c-5f12f1dbc912","ios":"levelo://app?vid=ea90a598-8a56-4e9c-895c-5f12f1dbc912"},"vehicle_type_id":"4","last_reported":1758049652,"current_range_meters":3200,"station_id":"ce4bgs12rcd13ifvqcag","pricing_plan_id":"cebpf4jnsgd1na2vs0mg"},{"bike_id":"b7619240-b515-4baf-83dd-9abcadaca0e1","system_id":"levelo_inurba_marseille","lat":43.30305,"lon":5.39202,"is_reserved":false,"is_disabled":false,"rental_uris":{"android":"levelo://app?vid=b7619240-b515-4baf-83dd-9abcadaca0e1","ios":"levelo://app?vid=b7619240-b515-4baf-83dd-9abcadaca0e1"},"vehicle_type_id":"4","last_reported":1758049652,"current_range_meters":3200,"station_id":"ce4bgkh2rcd13ifvqbk0","pricing_plan_id":"cebpf4jnsgd1na2vs0mg"},{"bike_id":"63c2bec2-56ae-42d4-a965-91defc1f04e9","system_id":"levelo_inurba_marseille","lat":43.29697,"lon":5.38016,"is_reserved":false,"is_disabled":false,"rental_uris":{"android":"levelo://app?vid=63c2bec2-56ae-42d4-a965-91defc1f04e9","ios":"levelo://app?vid=63c2bec2-56ae-42d4-a965-91defc1f04e9"},"vehicle_type_id":"4","last_reported":1758049652,"current_range_meters":3600,"station_id":"","pricing_plan_id":"cebpf4jnsgd1na2vs0mg"},{"bike_id":"d6bc1739-c271-4189-8c73-24da9ce9c408","system_id":"levelo_inurba_marseille","lat":43.266372,"lon":5.382542,"is_reserved":false,"is_disabled":false,"rental_uris":{"android":"levelo://app?vid=d6bc1739-c271-4189-8c73-24da9ce9c408","ios":"levelo://app?vid=d6bc1739-c271-4189-8c73-24da9ce9c408"},"vehicle_type_id":"4","last_reported":1758049652,"current_range_meters":3600,"station_id":"ce4bhg92rcd13ifvqf90","pricing_plan_id":"cebpf4jnsgd1na2vs0mg"},{"bike_id":"2828e058-9171-4ab9-9e16-ce6b889ec301","system_id":"levelo_inurba_marseille","lat":43.21201,"lon":5.35066,"is_reserved":false,"is_disabled":false,"rental_uris":{"android":"levelo://app?vid=2828e058-9171-4ab9-9e16-ce6b889ec301","ios":"levelo://app?vid=2828e058-9171-4ab9-9e16-ce6b889ec301"},"vehicle_type_id":"4","last_reported":1758049652,"current_range_meters":3600,"station_id":"st_cvj6sg6p6f1abm77japg","pricing_plan_id":"cebpf4jnsgd1na2vs0mg"},{"bike_id":"df21a0d7-45f7-45b6-a422-9d3af9d10d2f","system_id":"levelo_inurba_marseille","lat":43.251249,"lon":5.403045,"is_reserved":false,"is_disabled":true,"rental_uris":{"android":"levelo://app?vid=df21a0d7-45f7-45b6-a422-9d3af9d10d2f","ios":"levelo://app?vid=df21a0d7-45f7-45b6-a422-9d3af9d10d2f"},"vehicle_type_id":"4","last_reported":1758049652,"current_range_meters":3600,"station_id":"","pricing_plan_id":"cebpf4jnsgd1na2vs0mg"},{"bike_id":"8a226193-5e22-4605-8afa-4aa962e33e34","system_id":"levelo_inurba_marseille","lat":43.23966,"lon":5.36639,"is_reserved":false,"is_disabled":false,"rental_uris":{"android":"levelo://app?vid=8a226193-5e22-4605-8afa-4aa962e33e34","ios":"levelo://app?vid=8a226193-5e22-4605-8afa-4aa962e33e34"},"vehicle_type_id":"4","last_reported":1758049652,"current_range_meters":3600,"station_id":"ce4bhi12rcd13ifvqfp0","pricing_plan_id":"cebpf4jnsgd1na2vs0mg"},{"bike_id":"94c3130f-73f7-44ab-a0fb-fb365e6e6312","system_id":"levelo_inurba_marseille","lat":43.309601,"lon":5.390426,"is_reserved":false,"is_disabled":false,"rental_uris":{"android":"levelo://app?vid=94c3130f-73f7-44ab-a0fb-fb365e6e6312","ios":"levelo://app?vid=94c3130f-73f7-44ab-a0fb-fb365e6e6312"},"vehicle_type_id":"4","last_reported":1758049652,"current_range_meters":3600,"station_id":"ce4bgup2rcd13ifvqco0","pricing_plan_id":"cebpf4jnsgd1na2vs0mg"},{"bike_id":"bf09880c-a8c1-4cb6-be68-520aa645e850","system_id":"levelo_inurba_marseille","lat":43.29589,"lon":5.38121,"is_reserved":false,"is_disabled":false,"rental_uris":{"android":"levelo://app?vid=bf09880c-a8c1-4cb6-be68-520aa645e850","ios":"levelo://app?vid=bf09880c-a8c1-4cb6-be68-520aa645e850"},"vehicle_type_id":"4","last_reported":1758049652,"current_range_meters":3600,"station_id":"ce4bgl12rcd13ifvqbo0","pricing_plan_id":"cebpf4jnsgd1na2vs0mg"},{"bike_id":"009ac0a5-0eea-4a4b-8c17-60e875bc8c04","system_id":"levelo_inurba_marseille","lat":43.28605,"lon":5.35094,"is_reserved":false,"is_disabled":false,"rental_uris":{"android":"levelo://app?vid=009ac0a5-0eea-4a4b-8c17-60e875bc8c04","ios":"levelo://app?vid=009ac0a5-0eea-4a4b-8c17-60e875bc8c04"},"vehicle_type_id":"4","last_reported":1758049652,"current_range_meters":3600,"station_id":"ce4bhch2rcd13ifvqeug","pricing_plan_id":"cebpf4jnsgd1na2vs0mg"},{"bike_id":"e8fd5cd5-c9f1-42ae-a40a-c3e25d4366d2","system_id":"levelo_inurba_marseille","lat":43.28846,"lon":5.35851,"is_reserved":false,"is_disabled":true,"rental_uris":{"android":"levelo://app?vid=e8fd5cd5-c9f1-42ae-a40a-c3e25d4366d2","ios":"levelo://app?vid=e8fd5cd5-c9f1-42ae-a40a-c3e25d4366d2"},"vehicle_type_id":"4","last_reported":1758049652,"current_range_meters":3600,"station_id":"ce4bhb12rcd13ifvqem0","pricing_plan_id":"cebpf4jnsgd1na2vs0mg"},{"bike_id":"191e4dad-68d8-4e34-b8c2-e895af8315f3","system_id":"levelo_inurba_marseille","lat":43.29531,"lon":5.38556,"is_reserved":false,"is_disabled":false,"rental_uris":{"android":"levelo://app?vid=191e4dad-68d8-4e34-b8c2-e895af8315f3","ios":"levelo://app?vid=191e4dad-68d8-4e34-b8c2-e895af8315f3"},"vehicle_type_id":"4","last_reported":1758049652,"current_range_meters":3600,"station_id":"ce4bgih2rcd13ifvqba0","pricing_plan_id":"cebpf4jnsgd1na2vs0mg"},{"bike_id":"3e78ef90-7d03-4d01-b054-79354f7c8863","system_id":"levelo_inurba_marseille","lat":43.29955,"lon":5.41331,"is_reserved":false,"is_disabled":false,"rental_uris":{"android":"levelo://app?vid=3e78ef90-7d03-4d01-b054-79354f7c8863","ios":"levelo://app?vid=3e78ef90-7d03-4d01-b054-79354f7c8863"},"vehicle_type_id":"4","last_reported":1758049652,"current_range_meters":3600,"station_id":"ce4bhp12rcd13ifvqh9g","pricing_plan_id":"cebpf4jnsgd1na2vs0mg"},{"bike_id":"a234c8d6-1e23-409a-95bc-672a869cb12e","system_id":"levelo_inurba_marseille","lat":43.3265,"lon":5.40343,"is_reserved":false,"is_disabled":false,"rental_uris":{"android":"levelo://app?vid=a234c8d6-1e23-409a-95bc-672a869cb12e","ios":"levelo://app?vid=a234c8d6-1e23-409a-95bc-672a869cb12e"},"vehicle_type_id":"4","last_reported":1758049652,"current_range_meters":3600,"station_id":"","pricing_plan_id":"cebpf4jnsgd1na2vs0mg"},{"bike_id":"ecc5342b-642f-495b-b557-8cb75ffda0a6","system_id":"levelo_inurba_marseille","lat":43.321033,"lon":5.367693,"is_reserved":false,"is_disabled":false,"rental_uris":{"android":"levelo://app?vid=ecc5342b-642f-495b-b557-8cb75ffda0a6","ios":"levelo://app?vid=ecc5342b-642f-495b-b557-8cb75ffda0a6"},"vehicle_type_id":"4","last_reported":1758049652,"current_range_meters":4000,"station_id":"ce4bhrh2rcd13ifvqhug","pricing_plan_id":"cebpf4jnsgd1na2vs0mg"},{"bike_id":"d0da757a-2e74-4227-b30f-1766f9ffd821","system_id":"levelo_inurba_marseille","lat":43.31466,"lon":5.37302,"is_reserved":false,"is_disabled":false,"rental_uris":{"android":"levelo://app?vid=d0da757a-2e74-4227-b30f-1766f9ffd821","ios":"levelo://app?vid=d0da757a-2e74-4227-b30f-1766f9ffd821"},"vehicle_type_id":"4","last_reported":1758049652,"current_range_meters":4000,"station_id":"ce4bgt12rcd13ifvqcd0","pricing_plan_id":"cebpf4jnsgd1na2vs0mg"},{"bike_id":"77461217-f8fd-4340-9131-27dc513899c5","system_id":"levelo_inurba_marseille","lat":43.29777,"lon":5.39337,"is_reserved":false,"is_disabled":false,"rental_uris":{"android":"levelo://app?vid=77461217-f8fd-4340-9131-27dc513899c5","ios":"levelo://app?vid=77461217-f8fd-4340-9131-27dc513899c5"},"vehicle_type_id":"4","last_reported":1758049652,"current_range_meters":4000,"station_id":"chh1huq6cuj3fo74tm60","pricing_plan_id":"cebpf4jnsgd1na2vs0mg"},{"bike_id":"62c6e828-034f-4131-8b3b-58136c4bacbc","system_id":"levelo_inurba_marseille","lat":43.27059,"lon":5.40267,"is_reserved":false,"is_disabled":false,"rental_uris":{"android":"levelo://app?vid=62c6e828-034f-4131-8b3b-58136c4bacbc","ios":"levelo://app?vid=62c6e828-034f-4131-8b3b-58136c4bacbc"},"vehicle_type_id":"4","last_reported":1758049652,"current_range_meters":4000,"station_id":"ce4bhk92rcd13ifvqgc0","pricing_plan_id":"cebpf4jnsgd1na2vs0mg"},{"bike_id":"f66ac874-8ff7-496a-b627-70e4defdd5ce","system_id":"levelo_inurba_marseille","lat":43.301256,"lon":5.365188,"is_reserved":false,"is_disabled":false,"rental_uris":{"android":"levelo://app?vid=f66ac874-8ff7-496a-b627-70e4defdd5ce","ios":"levelo://app?vid=f66ac874-8ff7-496a-b627-70e4defdd5ce"},"vehicle_type_id":"4","last_reported":1758049652,"current_range_meters":4000,"station_id":"","pricing_plan_id":"cebpf4jnsgd1na2vs0mg"},{"bike_id":"dd32f779-e928-424d-999f-b730cf475fa7","system_id":"levelo_inurba_marseille","lat":43.22399,"lon":5.34657,"is_reserved":false,"is_disabled":false,"rental_uris":{"android":"levelo://app?vid=dd32f779-e928-424d-999f-b730cf475fa7","ios":"levelo://app?vid=dd32f779-e928-424d-999f-b730cf475fa7"},"vehicle_type_id":"4","last_reported":1758049652,"current_range_meters":4400,"station_id":"","pricing_plan_id":"cebpf4jnsgd1na2vs0mg"},{"bike_id":"e68c17f8-0de1-4195-8947-1a1cdd46996d","system_id":"levelo_inurba_marseille","lat":43.28019,"lon":5.36967,"is_reserved":false,"is_disabled":false,"rental_uris":{"android":"levelo://app?vid=e68c17f8-0de1-4195-8947-1a1cdd46996d","ios":"levelo://app?vid=e68c17f8-0de1-4195-8947-1a1cdd46996d"},"vehicle_type_id":"4","last_reported":1758049652,"current_range_meters":4400,"station_id":"ce4bha12rcd13ifvqef0","pricing_plan_id":"cebpf4jnsgd1na2vs0mg"},{"bike_id":"efafb515-9d03-4e0d-9811-3004b4e306eb","system_id":"levelo_inurba_marseille","lat":43.29255,"lon":5.38432,"is_reserved":false,"is_disabled":false,"rental_uris":{"android":"levelo://app?vid=efafb515-9d03-4e0d-9811-3004b4e306eb","ios":"levelo://app?vid=efafb515-9d03-4e0d-9811-3004b4e306eb"},"vehicle_type_id":"4","last_reported":1758049652,"current_range_meters":4400,"station_id":"ce4bh692rcd13ifvqea0","pricing_plan_id":"cebpf4jnsgd1na2vs0mg"},{"bike_id":"b874a405-0cb2-4568-a8f3-2a2bd28fee30","system_id":"levelo_inurba_marseille","lat":43.29189,"lon":5.3932,"is_reserved":false,"is_disabled":false,"rental_uris":{"android":"levelo://app?vid=b874a405-0cb2-4568-a8f3-2a2bd28fee30","ios":"levelo://app?vid=b874a405-0cb2-4568-a8f3-2a2bd28fee30"},"vehicle_type_id":"4","last_reported":1758049652,"current_range_meters":4400,"station_id":"ce4bh192rcd13ifvqdd0","pricing_plan_id":"cebpf4jnsgd1na2vs0mg"},{"bike_id":"47af0b06-c934-4bbd-9d5f-430a36279797","system_id":"levelo_inurba_marseille","lat":43.28864,"lon":5.35877,"is_reserved":false,"is_disabled":false,"rental_uris":{"android":"levelo://app?vid=47af0b06-c934-4bbd-9d5f-430a36279797","ios":"levelo://app?vid=47af0b06-c934-4bbd-9d5f-430a36279797"},"vehicle_type_id":"4","last_reported":1758049652,"current_range_meters":4400,"station_id":"ce4bhb12rcd13ifvqem0","pricing_plan_id":"cebpf4jnsgd1na2vs0mg"},{"bike_id":"3c2c2538-70ea-470c-9f6c-db01b4a9ec3b","system_id":"levelo_inurba_marseille","lat":43.30424,"lon":5.41292,"is_reserved":false,"is_disabled":false,"rental_uris":{"android":"levelo://app?vid=3c2c2538-70ea-470c-9f6c-db01b4a9ec3b","ios":"levelo://app?vid=3c2c2538-70ea-470c-9f6c-db01b4a9ec3b"},"vehicle_type_id":"4","last_reported":1758049652,"current_range_meters":4800,"station_id":"ce4bhop2rcd13ifvqh8g","pricing_plan_id":"cebpf4jnsgd1na2vs0mg"},{"bike_id":"23c6ba88-3bee-46fc-b2dc-5684a021c89c","system_id":"levelo_inurba_marseille","lat":43.30968,"lon":5.39055,"is_reserved":false,"is_disabled":false,"rental_uris":{"android":"levelo://app?vid=23c6ba88-3bee-46fc-b2dc-5684a021c89c","ios":"levelo://app?vid=23c6ba88-3bee-46fc-b2dc-5684a021c89c"},"vehicle_type_id":"4","last_reported":1758049652,"current_range_meters":4800,"station_id":"ce4bgup2rcd13ifvqco0","pricing_plan_id":"cebpf4jnsgd1na2vs0mg"},{"bike_id":"e741714a-d17b-4483-8e1f-cae4ca046d3d","system_id":"levelo_inurba_marseille","lat":43.29629,"lon":5.40594,"is_reserved":false,"is_disabled":false,"rental_uris":{"android":"levelo://app?vid=e741714a-d17b-4483-8e1f-cae4ca046d3d","ios":"levelo://app?vid=e741714a-d17b-4483-8e1f-cae4ca046d3d"},"vehicle_type_id":"4","last_reported":1758049652,"current_range_meters":4800,"station_id":"ce4bh0h2rcd13ifvqd60","pricing_plan_id":"cebpf4jnsgd1na2vs0mg"},{"bike_id":"dfd24ab1-2794-42de-87f8-4ea6fe56e7e5","system_id":"levelo_inurba_marseille","lat":43.300757,"lon":5.38675,"is_reserved":false,"is_disabled":false,"rental_uris":{"android":"levelo://app?vid=dfd24ab1-2794-42de-87f8-4ea6fe56e7e5","ios":"levelo://app?vid=dfd24ab1-2794-42de-87f8-4ea6fe56e7e5"},"vehicle_type_id":"4","last_reported":1758049652,"current_range_meters":4800,"station_id":"ce4bhc92rcd13ifvqetg","pricing_plan_id":"cebpf4jnsgd1na2vs0mg"},{"bike_id":"a7620aff-72c1-4595-923f-36ef154a98dc","system_id":"levelo_inurba_marseille","lat":43.2927,"lon":5.36853,"is_reserved":false,"is_disabled":false,"rental_uris":{"android":"levelo://app?vid=a7620aff-72c1-4595-923f-36ef154a98dc","ios":"levelo://app?vid=a7620aff-72c1-4595-923f-36ef154a98dc"},"vehicle_type_id":"4","last_reported":1758049652,"current_range_meters":4800,"station_id":"ce4bhbp2rcd13ifvqesg","pricing_plan_id":"cebpf4jnsgd1na2vs0mg"},{"bike_id":"bc068c29-32dd-497f-a01b-f2a42ed38a80","system_id":"levelo_inurba_marseille","lat":43.24809,"lon":5.37464,"is_reserved":false,"is_disabled":false,"rental_uris":{"android":"levelo://app?vid=bc068c29-32dd-497f-a01b-f2a42ed38a80","ios":"levelo://app?vid=bc068c29-32dd-497f-a01b-f2a42ed38a80"},"vehicle_type_id":"4","last_reported":1758049652,"current_range_meters":5600,"station_id":"ce4bhgh2rcd13ifvqfb0","pricing_plan_id":"cebpf4jnsgd1na2vs0mg"},{"bike_id":"661752dc-e618-4683-81fb-8430ee8fda8f","system_id":"levelo_inurba_marseille","lat":43.25331,"lon":5.42189,"is_reserved":false,"is_disabled":false,"rental_uris":{"android":"levelo://app?vid=661752dc-e618-4683-81fb-8430ee8fda8f","ios":"levelo://app?vid=661752dc-e618-4683-81fb-8430ee8fda8f"},"vehicle_type_id":"4","last_reported":1758049652,"current_range_meters":5600,"station_id":"st_d2m65c5bi1j21697t3ng","pricing_plan_id":"cebpf4jnsgd1na2vs0mg"},{"bike_id":"54ec36b0-7cbc-4345-8d08-d52d176caba9","system_id":"levelo_inurba_marseille","lat":43.301237,"lon":5.398619,"is_reserved":false,"is_disabled":false,"rental_uris":{"android":"levelo://app?vid=54ec36b0-7cbc-4345-8d08-d52d176caba9","ios":"levelo://app?vid=54ec36b0-7cbc-4345-8d08-d52d176caba9"},"vehicle_type_id":"4","last_reported":1758049652,"current_range_meters":5600,"station_id":"ce4bh0h2rcd13ifvqd40","pricing_plan_id":"cebpf4jnsgd1na2vs0mg"},{"bike_id":"1142c08a-9723-486f-819a-3aaa16736cb7","system_id":"levelo_inurba_marseille","lat":43.28214,"lon":5.43906,"is_reserved":false,"is_disabled":false,"rental_uris":{"android":"levelo://app?vid=1142c08a-9723-486f-819a-3aaa16736cb7","ios":"levelo://app?vid=1142c08a-9723-486f-819a-3aaa16736cb7"},"vehicle_type_id":"4","last_reported":1758049652,"current_range_meters":5600,"station_id":"","pricing_plan_id":"cebpf4jnsgd1na2vs0mg"},{"bike_id":"f8e2a70e-a493-4a87-a7e0-9a1efab9c834","system_id":"levelo_inurba_marseille","lat":43.25079,"lon":5.39522,"is_reserved":false,"is_disabled":false,"rental_uris":{"android":"levelo://app?vid=f8e2a70e-a493-4a87-a7e0-9a1efab9c834","ios":"levelo://app?vid=f8e2a70e-a493-4a87-a7e0-9a1efab9c834"},"vehicle_type_id":"4","last_reported":1758049652,"current_range_meters":5600,"station_id":"ce4bhm12rcd13ifvqgkg","pricing_plan_id":"cebpf4jnsgd1na2vs0mg"},{"bike_id":"77faf194-b589-44cf-adc6-ac20b750a1bc","system_id":"levelo_inurba_marseille","lat":43.29541,"lon":5.38539,"is_reserved":false,"is_disabled":false,"rental_uris":{"android":"levelo://app?vid=77faf194-b589-44cf-adc6-ac20b750a1bc","ios":"levelo://app?vid=77faf194-b589-44cf-adc6-ac20b750a1bc"},"vehicle_type_id":"4","last_reported":1758049652,"current_range_meters":5600,"station_id":"ce4bgih2rcd13ifvqba0","pricing_plan_id":"cebpf4jnsgd1na2vs0mg"},{"bike_id":"76de90c0-0eff-446d-96ae-86c4d92166a8","system_id":"levelo_inurba_marseille","lat":43.29967,"lon":5.371685,"is_reserved":false,"is_disabled":false,"rental_uris":{"android":"levelo://app?vid=76de90c0-0eff-446d-96ae-86c4d92166a8","ios":"levelo://app?vid=76de90c0-0eff-446d-96ae-86c4d92166a8"},"vehicle_type_id":"4","last_reported":1758049652,"current_range_meters":5600,"station_id":"ce4bgr92rcd13ifvqc7g","pricing_plan_id":"cebpf4jnsgd1na2vs0mg"},{"bike_id":"da335fd6-8081-4447-ad7f-59809b219079","system_id":"levelo_inurba_marseille","lat":43.29298,"lon":5.37447,"is_reserved":false,"is_disabled":false,"rental_uris":{"android":"levelo://app?vid=da335fd6-8081-4447-ad7f-59809b219079","ios":"levelo://app?vid=da335fd6-8081-4447-ad7f-59809b219079"},"vehicle_type_id":"4","last_reported":1758049652,"current_range_meters":5600,"station_id":"ce4bgi12rcd13ifvqb70","pricing_plan_id":"cebpf4jnsgd1na2vs0mg"},{"bike_id":"6ed456bd-40fc-4583-a5ab-8f5077e3afb9","system_id":"levelo_inurba_marseille","lat":43.28356,"lon":5.38113,"is_reserved":false,"is_disabled":false,"rental_uris":{"android":"levelo://app?vid=6ed456bd-40fc-4583-a5ab-8f5077e3afb9","ios":"levelo://app?vid=6ed456bd-40fc-4583-a5ab-8f5077e3afb9"},"vehicle_type_id":"4","last_reported":1758049652,"current_range_meters":5600,"station_id":"ce4bh412rcd13ifvqdr0","pricing_plan_id":"cebpf4jnsgd1na2vs0mg"},{"bike_id":"31e10e27-32a0-4638-9ac1-5c267049d29d","system_id":"levelo_inurba_marseille","lat":43.28368,"lon":5.38636,"is_reserved":false,"is_disabled":false,"rental_uris":{"android":"levelo://app?vid=31e10e27-32a0-4638-9ac1-5c267049d29d","ios":"levelo://app?vid=31e10e27-32a0-4638-9ac1-5c267049d29d"},"vehicle_type_id":"4","last_reported":1758049652,"current_range_meters":5600,"station_id":"ce4bh492rcd13ifvqdvg","pricing_plan_id":"cebpf4jnsgd1na2vs0mg"},{"bike_id":"df188e3f-912e-4a01-8d37-2e8da7362dc1","system_id":"levelo_inurba_marseille","lat":43.29937,"lon":5.36547,"is_reserved":false,"is_disabled":false,"rental_uris":{"android":"levelo://app?vid=df188e3f-912e-4a01-8d37-2e8da7362dc1","ios":"levelo://app?vid=df188e3f-912e-4a01-8d37-2e8da7362dc1"},"vehicle_type_id":"4","last_reported":1758049652,"current_range_meters":5600,"station_id":"ce4bgm92rcd13ifvqbr0","pricing_plan_id":"cebpf4jnsgd1na2vs0mg"},{"bike_id":"27bc6b0c-c22e-494b-ab92-4e390584592b","system_id":"levelo_inurba_marseille","lat":43.3373,"lon":5.37469,"is_reserved":false,"is_disabled":false,"rental_uris":{"android":"levelo://app?vid=27bc6b0c-c22e-494b-ab92-4e390584592b","ios":"levelo://app?vid=27bc6b0c-c22e-494b-ab92-4e390584592b"},"vehicle_type_id":"4","last_reported":1758049652,"current_range_meters":5600,"station_id":"","pricing_plan_id":"cebpf4jnsgd1na2vs0mg"},{"bike_id":"76be16c5-ac3e-4068-b506-2263b01e5456","system_id":"levelo_inurba_marseille","lat":43.29311,"lon":5.37184,"is_reserved":false,"is_disabled":false,"rental_uris":{"android":"levelo://app?vid=76be16c5-ac3e-4068-b506-2263b01e5456","ios":"levelo://app?vid=76be16c5-ac3e-4068-b506-2263b01e5456"},"vehicle_type_id":"4","last_reported":1758049652,"current_range_meters":6000,"station_id":"ce4bgh92rcd13ifvqb40","pricing_plan_id":"cebpf4jnsgd1na2vs0mg"},{"bike_id":"611452e3-84dd-4e75-bbe1-05f0c8657ec2","system_id":"levelo_inurba_marseille","lat":43.29534,"lon":5.38532,"is_reserved":false,"is_disabled":false,"rental_uris":{"android":"levelo://app?vid=611452e3-84dd-4e75-bbe1-05f0c8657ec2","ios":"levelo://app?vid=611452e3-84dd-4e75-bbe1-05f0c8657ec2"},"vehicle_type_id":"4","last_reported":1758049652,"current_range_meters":6000,"station_id":"ce4bgih2rcd13ifvqba0","pricing_plan_id":"cebpf4jnsgd1na2vs0mg"},{"bike_id":"f43ab4d4-8a36-4b97-8221-0c5f42c36023","system_id":"levelo_inurba_marseille","lat":43.240779,"lon":5.377473,"is_reserved":false,"is_disabled":true,"rental_uris":{"android":"levelo://app?vid=f43ab4d4-8a36-4b97-8221-0c5f42c36023","ios":"levelo://app?vid=f43ab4d4-8a36-4b97-8221-0c5f42c36023"},"vehicle_type_id":"4","last_reported":1758049652,"current_range_meters":6000,"station_id":"","pricing_plan_id":"cebpf4jnsgd1na2vs0mg"},{"bike_id":"8c32f4b7-77fe-4371-b162-18ad021eb8b2","system_id":"levelo_inurba_marseille","lat":43.21757,"lon":5.346,"is_reserved":false,"is_disabled":false,"rental_uris":{"android":"levelo://app?vid=8c32f4b7-77fe-4371-b162-18ad021eb8b2","ios":"levelo://app?vid=8c32f4b7-77fe-4371-b162-18ad021eb8b2"},"vehicle_type_id":"4","last_reported":1758049652,"current_range_meters":6000,"station_id":"st_cvj6r9ubvosntc0bgbag","pricing_plan_id":"cebpf4jnsgd1na2vs0mg"},{"bike_id":"57127154-7e15-4346-89ed-ab9d76ef9c2c","system_id":"levelo_inurba_marseille","lat":43.28838,"lon":5.36326,"is_reserved":false,"is_disabled":false,"rental_uris":{"android":"levelo://app?vid=57127154-7e15-4346-89ed-ab9d76ef9c2c","ios":"levelo://app?vid=57127154-7e15-4346-89ed-ab9d76ef9c2c"},"vehicle_type_id":"4","last_reported":1758049652,"current_range_meters":6000,"station_id":"","pricing_plan_id":"cebpf4jnsgd1na2vs0mg"},{"bike_id":"e7a329bd-ed66-4ac7-aaba-63f2810ddd86","system_id":"levelo_inurba_marseille","lat":43.31859,"lon":5.37206,"is_reserved":false,"is_disabled":true,"rental_uris":{"android":"levelo://app?vid=e7a329bd-ed66-4ac7-aaba-63f2810ddd86","ios":"levelo://app?vid=e7a329bd-ed66-4ac7-aaba-63f2810ddd86"},"vehicle_type_id":"4","last_reported":1758049652,"current_range_meters":6400,"station_id":"","pricing_plan_id":"cebpf4jnsgd1na2vs0mg"},{"bike_id":"0242b814-990e-4a5e-9cdc-1359633b8d7d","system_id":"levelo_inurba_marseille","lat":43.29192,"lon":5.39326,"is_reserved":false,"is_disabled":false,"rental_uris":{"android":"levelo://app?vid=0242b814-990e-4a5e-9cdc-1359633b8d7d","ios":"levelo://app?vid=0242b814-990e-4a5e-9cdc-1359633b8d7d"},"vehicle_type_id":"4","last_reported":1758049652,"current_range_meters":6400,"station_id":"ce4bh192rcd13ifvqdd0","pricing_plan_id":"cebpf4jnsgd1na2vs0mg"},{"bike_id":"35a06957-b6a9-4764-b07a-71973807c136","system_id":"levelo_inurba_marseille","lat":43.28412,"lon":5.37506,"is_reserved":false,"is_disabled":false,"rental_uris":{"android":"levelo://app?vid=35a06957-b6a9-4764-b07a-71973807c136","ios":"levelo://app?vid=35a06957-b6a9-4764-b07a-71973807c136"},"vehicle_type_id":"4","last_reported":1758049652,"current_range_meters":6400,"station_id":"ce4bh412rcd13ifvqds0","pricing_plan_id":"cebpf4jnsgd1na2vs0mg"},{"bike_id":"f1dadaf9-1ef9-4bf0-999d-396bd3836409","system_id":"levelo_inurba_marseille","lat":43.28935,"lon":5.36637,"is_reserved":false,"is_disabled":false,"rental_uris":{"android":"levelo://app?vid=f1dadaf9-1ef9-4bf0-999d-396bd3836409","ios":"levelo://app?vid=f1dadaf9-1ef9-4bf0-999d-396bd3836409"},"vehicle_type_id":"4","last_reported":1758049652,"current_range_meters":6400,"station_id":"ce4bhap2rcd13ifvqek0","pricing_plan_id":"cebpf4jnsgd1na2vs0mg"},{"bike_id":"e9d42c5b-2eeb-4956-bf69-1565cbf09cc0","system_id":"levelo_inurba_marseille","lat":43.287016,"lon":5.373922,"is_reserved":false,"is_disabled":true,"rental_uris":{"android":"levelo://app?vid=e9d42c5b-2eeb-4956-bf69-1565cbf09cc0","ios":"levelo://app?vid=e9d42c5b-2eeb-4956-bf69-1565cbf09cc0"},"vehicle_type_id":"4","last_reported":1758049652,"current_range_meters":6400,"station_id":"ce4bh3p2rcd13ifvqdq0","pricing_plan_id":"cebpf4jnsgd1na2vs0mg"},{"bike_id":"f4465e75-0697-48fb-b518-61b66821fad7","system_id":"levelo_inurba_marseille","lat":43.28984,"lon":5.37125,"is_reserved":false,"is_disabled":false,"rental_uris":{"android":"levelo://app?vid=f4465e75-0697-48fb-b518-61b66821fad7","ios":"levelo://app?vid=f4465e75-0697-48fb-b518-61b66821fad7"},"vehicle_type_id":"4","last_reported":1758049652,"current_range_meters":6400,"station_id":"","pricing_plan_id":"cebpf4jnsgd1na2vs0mg"},{"bike_id":"68bd300e-f2f2-4141-88f7-22c7f14ce81c","system_id":"levelo_inurba_marseille","lat":43.29529,"lon":5.38553,"is_reserved":false,"is_disabled":false,"rental_uris":{"android":"levelo://app?vid=68bd300e-f2f2-4141-88f7-22c7f14ce81c","ios":"levelo://app?vid=68bd300e-f2f2-4141-88f7-22c7f14ce81c"},"vehicle_type_id":"4","last_reported":1758049652,"current_range_meters":6800,"station_id":"ce4bgih2rcd13ifvqba0","pricing_plan_id":"cebpf4jnsgd1na2vs0mg"},{"bike_id":"bddbb84d-2548-404c-afd1-77ee0a09f93f","system_id":"levelo_inurba_marseille","lat":43.29538,"lon":5.37511,"is_reserved":false,"is_disabled":false,"rental_uris":{"android":"levelo://app?vid=bddbb84d-2548-404c-afd1-77ee0a09f93f","ios":"levelo://app?vid=bddbb84d-2548-404c-afd1-77ee0a09f93f"},"vehicle_type_id":"4","last_reported":1758049652,"current_range_meters":6800,"station_id":"ce4bgkp2rcd13ifvqbmg","pricing_plan_id":"cebpf4jnsgd1na2vs0mg"},{"bike_id":"f69da56d-19d3-46d3-bce7-1509627c285b","system_id":"levelo_inurba_marseille","lat":43.30298,"lon":5.36892,"is_reserved":false,"is_disabled":false,"rental_uris":{"android":"levelo://app?vid=f69da56d-19d3-46d3-bce7-1509627c285b","ios":"levelo://app?vid=f69da56d-19d3-46d3-bce7-1509627c285b"},"vehicle_type_id":"4","last_reported":1758049652,"current_range_meters":6800,"station_id":"ce4bgqh2rcd13ifvqc5g","pricing_plan_id":"cebpf4jnsgd1na2vs0mg"},{"bike_id":"a53016a1-528f-49a5-ab23-30927da549a0","system_id":"levelo_inurba_marseille","lat":43.25108,"lon":5.40332,"is_reserved":false,"is_disabled":true,"rental_uris":{"android":"levelo://app?vid=a53016a1-528f-49a5-ab23-30927da549a0","ios":"levelo://app?vid=a53016a1-528f-49a5-ab23-30927da549a0"},"vehicle_type_id":"4","last_reported":1758049652,"current_range_meters":6800,"station_id":"ce4bhlh2rcd13ifvqgig","pricing_plan_id":"cebpf4jnsgd1na2vs0mg"},{"bike_id":"79991bcd-0810-4135-b5ba-d83ba480638e","system_id":"levelo_inurba_marseille","lat":43.26215,"lon":5.37445,"is_reserved":false,"is_disabled":false,"rental_uris":{"android":"levelo://app?vid=79991bcd-0810-4135-b5ba-d83ba480638e","ios":"levelo://app?vid=79991bcd-0810-4135-b5ba-d83ba480638e"},"vehicle_type_id":"4","last_reported":1758049652,"current_range_meters":6800,"station_id":"ce4bhgp2rcd13ifvqfc0","pricing_plan_id":"cebpf4jnsgd1na2vs0mg"},{"bike_id":"5014881f-56b2-4dbc-965e-3bd258011b45","system_id":"levelo_inurba_marseille","lat":43.21745,"lon":5.34611,"is_reserved":false,"is_disabled":true,"rental_uris":{"android":"levelo://app?vid=5014881f-56b2-4dbc-965e-3bd258011b45","ios":"levelo://app?vid=5014881f-56b2-4dbc-965e-3bd258011b45"},"vehicle_type_id":"4","last_reported":1758049652,"current_range_meters":6800,"station_id":"st_cvj6r9ubvosntc0bgbag","pricing_plan_id":"cebpf4jnsgd1na2vs0mg"},{"bike_id":"f7825ce6-de89-45bf-831f-3599d0d91c3c","system_id":"levelo_inurba_marseille","lat":43.31395,"lon":5.36777,"is_reserved":false,"is_disabled":false,"rental_uris":{"android":"levelo://app?vid=f7825ce6-de89-45bf-831f-3599d0d91c3c","ios":"levelo://app?vid=f7825ce6-de89-45bf-831f-3599d0d91c3c"},"vehicle_type_id":"4","last_reported":1758049652,"current_range_meters":6800,"station_id":"","pricing_plan_id":"cebpf4jnsgd1na2vs0mg"},{"bike_id":"2bf01396-6254-4fe2-a055-f398cb24e835","system_id":"levelo_inurba_marseille","lat":43.28408,"lon":5.37512,"is_reserved":false,"is_disabled":false,"rental_uris":{"android":"levelo://app?vid=2bf01396-6254-4fe2-a055-f398cb24e835","ios":"levelo://app?vid=2bf01396-6254-4fe2-a055-f398cb24e835"},"vehicle_type_id":"4","last_reported":1758049652,"current_range_meters":6800,"station_id":"ce4bh412rcd13ifvqds0","pricing_plan_id":"cebpf4jnsgd1na2vs0mg"},{"bike_id":"e1f2055e-603a-4b18-a4cf-4b82d3dab6b5","system_id":"levelo_inurba_marseille","lat":43.29104,"lon":5.40116,"is_reserved":false,"is_disabled":false,"rental_uris":{"android":"levelo://app?vid=e1f2055e-603a-4b18-a4cf-4b82d3dab6b5","ios":"levelo://app?vid=e1f2055e-603a-4b18-a4cf-4b82d3dab6b5"},"vehicle_type_id":"4","last_reported":1758049652,"current_range_meters":6800,"station_id":"","pricing_plan_id":"cebpf4jnsgd1na2vs0mg"},{"bike_id":"13d32666-d94f-41f6-83eb-f3a1e138579e","system_id":"levelo_inurba_marseille","lat":43.28142,"lon":5.35031,"is_reserved":false,"is_disabled":false,"rental_uris":{"android":"levelo://app?vid=13d32666-d94f-41f6-83eb-f3a1e138579e","ios":"levelo://app?vid=13d32666-d94f-41f6-83eb-f3a1e138579e"},"vehicle_type_id":"4","last_reported":1758049652,"current_range_meters":6800,"station_id":"","pricing_plan_id":"cebpf4jnsgd1na2vs0mg"},{"bike_id":"e21423ee-d84d-452c-adc7-70e854670817","system_id":"levelo_inurba_marseille","lat":43.26146,"lon":5.37862,"is_reserved":false,"is_disabled":false,"rental_uris":{"android":"levelo://app?vid=e21423ee-d84d-452c-adc7-70e854670817","ios":"levelo://app?vid=e21423ee-d84d-452c-adc7-70e854670817"},"vehicle_type_id":"4","last_reported":1758049652,"current_range_meters":6800,"station_id":"","pricing_plan_id":"cebpf4jnsgd1na2vs0mg"},{"bike_id":"c2f29fbc-79f0-429d-8349-a08db42d0db5","system_id":"levelo_inurba_marseille","lat":43.29261,"lon":5.36855,"is_reserved":false,"is_disabled":false,"rental_uris":{"android":"levelo://app?vid=c2f29fbc-79f0-429d-8349-a08db42d0db5","ios":"levelo://app?vid=c2f29fbc-79f0-429d-8349-a08db42d0db5"},"vehicle_type_id":"4","last_reported":1758049652,"current_range_meters":7200,"station_id":"ce4bhbp2rcd13ifvqesg","pricing_plan_id":"cebpf4jnsgd1na2vs0mg"},{"bike_id":"40344a7c-3353-41d0-8493-2bab328aab55","system_id":"levelo_inurba_marseille","lat":43.30148,"lon":5.41741,"is_reserved":false,"is_disabled":false,"rental_uris":{"android":"levelo://app?vid=40344a7c-3353-41d0-8493-2bab328aab55","ios":"levelo://app?vid=40344a7c-3353-41d0-8493-2bab328aab55"},"vehicle_type_id":"4","last_reported":1758049652,"current_range_meters":7200,"station_id":"","pricing_plan_id":"cebpf4jnsgd1na2vs0mg"},{"bike_id":"322c1f5a-85db-4ef6-bcd4-1b5c417c8ee0","system_id":"levelo_inurba_marseille","lat":43.3377,"lon":5.37488,"is_reserved":false,"is_disabled":false,"rental_uris":{"android":"levelo://app?vid=322c1f5a-85db-4ef6-bcd4-1b5c417c8ee0","ios":"levelo://app?vid=322c1f5a-85db-4ef6-bcd4-1b5c417c8ee0"},"vehicle_type_id":"4","last_reported":1758049652,"current_range_meters":7200,"station_id":"","pricing_plan_id":"cebpf4jnsgd1na2vs0mg"},{"bike_id":"cbb7e3b0-24ee-405c-9e4c-0d28ea731a9b","system_id":"levelo_inurba_marseille","lat":43.30339,"lon":5.40435,"is_reserved":false,"is_disabled":false,"rental_uris":{"android":"levelo://app?vid=cbb7e3b0-24ee-405c-9e4c-0d28ea731a9b","ios":"levelo://app?vid=cbb7e3b0-24ee-405c-9e4c-0d28ea731a9b"},"vehicle_type_id":"4","last_reported":1758049652,"current_range_meters":7200,"station_id":"ce4bh012rcd13ifvqd10","pricing_plan_id":"cebpf4jnsgd1na2vs0mg"},{"bike_id":"7ee586f6-edc2-476e-a0ac-98825c7787b2","system_id":"levelo_inurba_marseille","lat":43.29033,"lon":5.38641,"is_reserved":false,"is_disabled":false,"rental_uris":{"android":"levelo://app?vid=7ee586f6-edc2-476e-a0ac-98825c7787b2","ios":"levelo://app?vid=7ee586f6-edc2-476e-a0ac-98825c7787b2"},"vehicle_type_id":"4","last_reported":1758049652,"current_range_meters":7200,"station_id":"ce4bh4p2rcd13ifvqe0g","pricing_plan_id":"cebpf4jnsgd1na2vs0mg"},{"bike_id":"a03685f3-ce2a-4173-938f-bac43a1ac1f6","system_id":"levelo_inurba_marseille","lat":43.29531,"lon":5.38546,"is_reserved":false,"is_disabled":false,"rental_uris":{"android":"levelo://app?vid=a03685f3-ce2a-4173-938f-bac43a1ac1f6","ios":"levelo://app?vid=a03685f3-ce2a-4173-938f-bac43a1ac1f6"},"vehicle_type_id":"4","last_reported":1758049652,"current_range_meters":7200,"station_id":"ce4bgih2rcd13ifvqba0","pricing_plan_id":"cebpf4jnsgd1na2vs0mg"},{"bike_id":"04c266fc-3c2c-450f-bc6b-03b1fd6b6666","system_id":"levelo_inurba_marseille","lat":43.29066,"lon":5.37153,"is_reserved":false,"is_disabled":true,"rental_uris":{"android":"levelo://app?vid=04c266fc-3c2c-450f-bc6b-03b1fd6b6666","ios":"levelo://app?vid=04c266fc-3c2c-450f-bc6b-03b1fd6b6666"},"vehicle_type_id":"4","last_reported":1758049652,"current_range_meters":8000,"station_id":"ce4bh5p2rcd13ifvqe4g","pricing_plan_id":"cebpf4jnsgd1na2vs0mg"},{"bike_id":"eaabb56a-e2f5-45c0-a4cf-740b2f8e9605","system_id":"levelo_inurba_marseille","lat":43.30901,"lon":5.39637,"is_reserved":false,"is_disabled":false,"rental_uris":{"android":"levelo://app?vid=eaabb56a-e2f5-45c0-a4cf-740b2f8e9605","ios":"levelo://app?vid=eaabb56a-e2f5-45c0-a4cf-740b2f8e9605"},"vehicle_type_id":"4","last_reported":1758049652,"current_range_meters":8000,"station_id":"ce4bh012rcd13ifvqcv0","pricing_plan_id":"cebpf4jnsgd1na2vs0mg"},{"bike_id":"d818ffce-d6c4-4f39-ae87-10e02446a46c","system_id":"levelo_inurba_marseille","lat":43.240817,"lon":5.377497,"is_reserved":false,"is_disabled":true,"rental_uris":{"android":"levelo://app?vid=d818ffce-d6c4-4f39-ae87-10e02446a46c","ios":"levelo://app?vid=d818ffce-d6c4-4f39-ae87-10e02446a46c"},"vehicle_type_id":"4","last_reported":1758049652,"current_range_meters":8000,"station_id":"ce4bhnp2rcd13ifvqgvg","pricing_plan_id":"cebpf4jnsgd1na2vs0mg"},{"bike_id":"e6aedd6c-e788-49c7-ad4d-7441dba51e2b","system_id":"levelo_inurba_marseille","lat":43.29361,"lon":5.37854,"is_reserved":false,"is_disabled":false,"rental_uris":{"android":"levelo://app?vid=e6aedd6c-e788-49c7-ad4d-7441dba51e2b","ios":"levelo://app?vid=e6aedd6c-e788-49c7-ad4d-7441dba51e2b"},"vehicle_type_id":"4","last_reported":1758049652,"current_range_meters":8400,"station_id":"ce4bgjh2rcd13ifvqbf0","pricing_plan_id":"cebpf4jnsgd1na2vs0mg"},{"bike_id":"2c86946c-f59a-4398-9b0d-1a0f238a2b10","system_id":"levelo_inurba_marseille","lat":43.27553,"lon":5.38432,"is_reserved":false,"is_disabled":false,"rental_uris":{"android":"levelo://app?vid=2c86946c-f59a-4398-9b0d-1a0f238a2b10","ios":"levelo://app?vid=2c86946c-f59a-4398-9b0d-1a0f238a2b10"},"vehicle_type_id":"4","last_reported":1758049652,"current_range_meters":8400,"station_id":"ce4bhh92rcd13ifvqfi0","pricing_plan_id":"cebpf4jnsgd1na2vs0mg"},{"bike_id":"01c7b48e-bd4f-4597-beec-08acaf4f2e03","system_id":"levelo_inurba_marseille","lat":43.29245,"lon":5.37625,"is_reserved":false,"is_disabled":false,"rental_uris":{"android":"levelo://app?vid=01c7b48e-bd4f-4597-beec-08acaf4f2e03","ios":"levelo://app?vid=01c7b48e-bd4f-4597-beec-08acaf4f2e03"},"vehicle_type_id":"4","last_reported":1758049652,"current_range_meters":8400,"station_id":"ce4bgi12rcd13ifvqb80","pricing_plan_id":"cebpf4jnsgd1na2vs0mg"},{"bike_id":"37768300-b6c1-4fef-9544-61dd1342476e","system_id":"levelo_inurba_marseille","lat":43.29096,"lon":5.38151,"is_reserved":false,"is_disabled":false,"rental_uris":{"android":"levelo://app?vid=37768300-b6c1-4fef-9544-61dd1342476e","ios":"levelo://app?vid=37768300-b6c1-4fef-9544-61dd1342476e"},"vehicle_type_id":"4","last_reported":1758049652,"current_range_meters":8400,"station_id":"ce4bh512rcd13ifvqe2g","pricing_plan_id":"cebpf4jnsgd1na2vs0mg"},{"bike_id":"34539d66-9bce-4d1c-8b94-78e2e11c6e1a","system_id":"levelo_inurba_marseille","lat":43.28863,"lon":5.42518,"is_reserved":false,"is_disabled":false,"rental_uris":{"android":"levelo://app?vid=34539d66-9bce-4d1c-8b94-78e2e11c6e1a","ios":"levelo://app?vid=34539d66-9bce-4d1c-8b94-78e2e11c6e1a"},"vehicle_type_id":"4","last_reported":1758049652,"current_range_meters":8400,"station_id":"","pricing_plan_id":"cebpf4jnsgd1na2vs0mg"},{"bike_id":"5a8aebd3-a566-4948-82c8-58dfe18fea75","system_id":"levelo_inurba_marseille","lat":43.29521,"lon":5.38543,"is_reserved":false,"is_disabled":false,"rental_uris":{"android":"levelo://app?vid=5a8aebd3-a566-4948-82c8-58dfe18fea75","ios":"levelo://app?vid=5a8aebd3-a566-4948-82c8-58dfe18fea75"},"vehicle_type_id":"4","last_reported":1758049652,"current_range_meters":8400,"station_id":"ce4bgih2rcd13ifvqba0","pricing_plan_id":"cebpf4jnsgd1na2vs0mg"},{"bike_id":"82a6672f-c163-484c-a368-2f6ae437d79d","system_id":"levelo_inurba_marseille","lat":43.29196,"lon":5.39329,"is_reserved":false,"is_disabled":false,"rental_uris":{"android":"levelo://app?vid=82a6672f-c163-484c-a368-2f6ae437d79d","ios":"levelo://app?vid=82a6672f-c163-484c-a368-2f6ae437d79d"},"vehicle_type_id":"4","last_reported":1758049652,"current_range_meters":8400,"station_id":"ce4bh192rcd13ifvqdd0","pricing_plan_id":"cebpf4jnsgd1na2vs0mg"},{"bike_id":"0d01efa4-da85-46da-a695-7960dca44b79","system_id":"levelo_inurba_marseille","lat":43.31329,"lon":5.39703,"is_reserved":false,"is_disabled":false,"rental_uris":{"android":"levelo://app?vid=0d01efa4-da85-46da-a695-7960dca44b79","ios":"levelo://app?vid=0d01efa4-da85-46da-a695-7960dca44b79"},"vehicle_type_id":"4","last_reported":1758049652,"current_range_meters":8400,"station_id":"ce4bgvp2rcd13ifvqcu0","pricing_plan_id":"cebpf4jnsgd1na2vs0mg"},{"bike_id":"536a3268-ee93-493b-9729-c195c0f6cc93","system_id":"levelo_inurba_marseille","lat":43.28574,"lon":5.3951,"is_reserved":false,"is_disabled":false,"rental_uris":{"android":"levelo://app?vid=536a3268-ee93-493b-9729-c195c0f6cc93","ios":"levelo://app?vid=536a3268-ee93-493b-9729-c195c0f6cc93"},"vehicle_type_id":"4","last_reported":1758049652,"current_range_meters":8400,"station_id":"ce4bh292rcd13ifvqdg0","pricing_plan_id":"cebpf4jnsgd1na2vs0mg"},{"bike_id":"9a75894a-1d26-4ea0-a5b0-9b1939e742a1","system_id":"levelo_inurba_marseille","lat":43.21749,"lon":5.34597,"is_reserved":false,"is_disabled":false,"rental_uris":{"android":"levelo://app?vid=9a75894a-1d26-4ea0-a5b0-9b1939e742a1","ios":"levelo://app?vid=9a75894a-1d26-4ea0-a5b0-9b1939e742a1"},"vehicle_type_id":"4","last_reported":1758049652,"current_range_meters":8400,"station_id":"st_cvj6r9ubvosntc0bgbag","pricing_plan_id":"cebpf4jnsgd1na2vs0mg"},{"bike_id":"c19de7d6-60a6-40fe-8f6b-f92c3d478a99","system_id":"levelo_inurba_marseille","lat":43.29039,"lon":5.3863,"is_reserved":false,"is_disabled":false,"rental_uris":{"android":"levelo://app?vid=c19de7d6-60a6-40fe-8f6b-f92c3d478a99","ios":"levelo://app?vid=c19de7d6-60a6-40fe-8f6b-f92c3d478a99"},"vehicle_type_id":"4","last_reported":1758049652,"current_range_meters":8400,"station_id":"ce4bh4p2rcd13ifvqe0g","pricing_plan_id":"cebpf4jnsgd1na2vs0mg"},{"bike_id":"6dff3863-c5c6-49f7-ba91-361dbddb2a80","system_id":"levelo_inurba_marseille","lat":43.26059,"lon":5.39401,"is_reserved":false,"is_disabled":false,"rental_uris":{"android":"levelo://app?vid=6dff3863-c5c6-49f7-ba91-361dbddb2a80","ios":"levelo://app?vid=6dff3863-c5c6-49f7-ba91-361dbddb2a80"},"vehicle_type_id":"4","last_reported":1758049652,"current_range_meters":8400,"station_id":"ce4bhh92rcd13ifvqfj0","pricing_plan_id":"cebpf4jnsgd1na2vs0mg"},{"bike_id":"cda40dfa-0c99-42d9-a434-7c2f69e71eeb","system_id":"levelo_inurba_marseille","lat":43.2924,"lon":5.38461,"is_reserved":false,"is_disabled":false,"rental_uris":{"android":"levelo://app?vid=cda40dfa-0c99-42d9-a434-7c2f69e71eeb","ios":"levelo://app?vid=cda40dfa-0c99-42d9-a434-7c2f69e71eeb"},"vehicle_type_id":"4","last_reported":1758049652,"current_range_meters":8400,"station_id":"ce4bh692rcd13ifvqea0","pricing_plan_id":"cebpf4jnsgd1na2vs0mg"},{"bike_id":"c428648a-d57d-4969-8ede-5bd29b711fcb","system_id":"levelo_inurba_marseille","lat":43.286858,"lon":5.374003,"is_reserved":false,"is_disabled":false,"rental_uris":{"android":"levelo://app?vid=c428648a-d57d-4969-8ede-5bd29b711fcb","ios":"levelo://app?vid=c428648a-d57d-4969-8ede-5bd29b711fcb"},"vehicle_type_id":"4","last_reported":1758049652,"current_range_meters":8800,"station_id":"ce4bh3p2rcd13ifvqdq0","pricing_plan_id":"cebpf4jnsgd1na2vs0mg"},{"bike_id":"2fc6780e-7c53-4103-901f-d3fe693009c1","system_id":"levelo_inurba_marseille","lat":43.28618,"lon":5.39473,"is_reserved":false,"is_disabled":false,"rental_uris":{"android":"levelo://app?vid=2fc6780e-7c53-4103-901f-d3fe693009c1","ios":"levelo://app?vid=2fc6780e-7c53-4103-901f-d3fe693009c1"},"vehicle_type_id":"4","last_reported":1758049652,"current_range_meters":8800,"station_id":"ce4bh292rcd13ifvqdg0","pricing_plan_id":"cebpf4jnsgd1na2vs0mg"},{"bike_id":"ac4223a6-10e8-406f-a618-f510cf79b04b","system_id":"levelo_inurba_marseille","lat":43.29272,"lon":5.368563,"is_reserved":false,"is_disabled":false,"rental_uris":{"android":"levelo://app?vid=ac4223a6-10e8-406f-a618-f510cf79b04b","ios":"levelo://app?vid=ac4223a6-10e8-406f-a618-f510cf79b04b"},"vehicle_type_id":"4","last_reported":1758049652,"current_range_meters":8800,"station_id":"ce4bhbp2rcd13ifvqesg","pricing_plan_id":"cebpf4jnsgd1na2vs0mg"},{"bike_id":"cf283429-6ecb-4a01-b3b4-9e617f9480db","system_id":"levelo_inurba_marseille","lat":43.29246,"lon":5.38441,"is_reserved":false,"is_disabled":false,"rental_uris":{"android":"levelo://app?vid=cf283429-6ecb-4a01-b3b4-9e617f9480db","ios":"levelo://app?vid=cf283429-6ecb-4a01-b3b4-9e617f9480db"},"vehicle_type_id":"4","last_reported":1758049652,"current_range_meters":8800,"station_id":"ce4bh692rcd13ifvqea0","pricing_plan_id":"cebpf4jnsgd1na2vs0mg"},{"bike_id":"a155e67d-bec0-4326-ae57-c035ef5e1c81","system_id":"levelo_inurba_marseille","lat":43.29884,"lon":5.43656,"is_reserved":false,"is_disabled":false,"rental_uris":{"android":"levelo://app?vid=a155e67d-bec0-4326-ae57-c035ef5e1c81","ios":"levelo://app?vid=a155e67d-bec0-4326-ae57-c035ef5e1c81"},"vehicle_type_id":"4","last_reported":1758049652,"current_range_meters":8800,"station_id":"ce4bhpp2rcd13ifvqhfg","pricing_plan_id":"cebpf4jnsgd1na2vs0mg"},{"bike_id":"3f31a35f-aac4-41ef-9e0e-acd3c3fdd234","system_id":"levelo_inurba_marseille","lat":43.2871,"lon":5.38807,"is_reserved":false,"is_disabled":false,"rental_uris":{"android":"levelo://app?vid=3f31a35f-aac4-41ef-9e0e-acd3c3fdd234","ios":"levelo://app?vid=3f31a35f-aac4-41ef-9e0e-acd3c3fdd234"},"vehicle_type_id":"4","last_reported":1758049652,"current_range_meters":8800,"station_id":"","pricing_plan_id":"cebpf4jnsgd1na2vs0mg"},{"bike_id":"24134c4f-7420-49cc-a4b9-fce39e8b3a82","system_id":"levelo_inurba_marseille","lat":43.27054,"lon":5.40267,"is_reserved":false,"is_disabled":true,"rental_uris":{"android":"levelo://app?vid=24134c4f-7420-49cc-a4b9-fce39e8b3a82","ios":"levelo://app?vid=24134c4f-7420-49cc-a4b9-fce39e8b3a82"},"vehicle_type_id":"4","last_reported":1758049652,"current_range_meters":8800,"station_id":"ce4bhk92rcd13ifvqgc0","pricing_plan_id":"cebpf4jnsgd1na2vs0mg"},{"bike_id":"c07e7a2d-d8a6-4efd-8723-e965be4d1a74","system_id":"levelo_inurba_marseille","lat":43.22533,"lon":5.348367,"is_reserved":false,"is_disabled":false,"rental_uris":{"android":"levelo://app?vid=c07e7a2d-d8a6-4efd-8723-e965be4d1a74","ios":"levelo://app?vid=c07e7a2d-d8a6-4efd-8723-e965be4d1a74"},"vehicle_type_id":"4","last_reported":1758049652,"current_range_meters":8800,"station_id":"","pricing_plan_id":"cebpf4jnsgd1na2vs0mg"},{"bike_id":"2f28ebf1-55ee-4b4d-ba48-d38edbc31306","system_id":"levelo_inurba_marseille","lat":43.28036,"lon":5.36944,"is_reserved":false,"is_disabled":false,"rental_uris":{"android":"levelo://app?vid=2f28ebf1-55ee-4b4d-ba48-d38edbc31306","ios":"levelo://app?vid=2f28ebf1-55ee-4b4d-ba48-d38edbc31306"},"vehicle_type_id":"4","last_reported":1758049652,"current_range_meters":8800,"station_id":"ce4bha12rcd13ifvqef0","pricing_plan_id":"cebpf4jnsgd1na2vs0mg"},{"bike_id":"6dee75c1-5723-4dfc-88ce-64411d4c992e","system_id":"levelo_inurba_marseille","lat":43.29527,"lon":5.38547,"is_reserved":false,"is_disabled":false,"rental_uris":{"android":"levelo://app?vid=6dee75c1-5723-4dfc-88ce-64411d4c992e","ios":"levelo://app?vid=6dee75c1-5723-4dfc-88ce-64411d4c992e"},"vehicle_type_id":"4","last_reported":1758049652,"current_range_meters":8800,"station_id":"ce4bgih2rcd13ifvqba0","pricing_plan_id":"cebpf4jnsgd1na2vs0mg"},{"bike_id":"4bb30eed-bc1d-4508-ac95-fb51331c85c3","system_id":"levelo_inurba_marseille","lat":43.29262,"lon":5.38443,"is_reserved":false,"is_disabled":false,"rental_uris":{"android":"levelo://app?vid=4bb30eed-bc1d-4508-ac95-fb51331c85c3","ios":"levelo://app?vid=4bb30eed-bc1d-4508-ac95-fb51331c85c3"},"vehicle_type_id":"4","last_reported":1758049652,"current_range_meters":9200,"station_id":"ce4bh692rcd13ifvqea0","pricing_plan_id":"cebpf4jnsgd1na2vs0mg"},{"bike_id":"7d1189a5-4d24-4ada-ac4c-b4baa9806321","system_id":"levelo_inurba_marseille","lat":43.29538,"lon":5.38545,"is_reserved":false,"is_disabled":false,"rental_uris":{"android":"levelo://app?vid=7d1189a5-4d24-4ada-ac4c-b4baa9806321","ios":"levelo://app?vid=7d1189a5-4d24-4ada-ac4c-b4baa9806321"},"vehicle_type_id":"4","last_reported":1758049652,"current_range_meters":9200,"station_id":"ce4bgih2rcd13ifvqba0","pricing_plan_id":"cebpf4jnsgd1na2vs0mg"},{"bike_id":"8e8089f6-a97e-46c3-b7c0-3b7c4482a2cb","system_id":"levelo_inurba_marseille","lat":43.29786,"lon":5.39357,"is_reserved":false,"is_disabled":true,"rental_uris":{"android":"levelo://app?vid=8e8089f6-a97e-46c3-b7c0-3b7c4482a2cb","ios":"levelo://app?vid=8e8089f6-a97e-46c3-b7c0-3b7c4482a2cb"},"vehicle_type_id":"4","last_reported":1758049652,"current_range_meters":9200,"station_id":"chh1huq6cuj3fo74tm60","pricing_plan_id":"cebpf4jnsgd1na2vs0mg"},{"bike_id":"45008e83-3713-412f-9e07-86a1788e67ca","system_id":"levelo_inurba_marseille","lat":43.29488,"lon":5.39021,"is_reserved":false,"is_disabled":false,"rental_uris":{"android":"levelo://app?vid=45008e83-3713-412f-9e07-86a1788e67ca","ios":"levelo://app?vid=45008e83-3713-412f-9e07-86a1788e67ca"},"vehicle_type_id":"4","last_reported":1758049652,"current_range_meters":9200,"station_id":"ce4bh3p2rcd13ifvqdp0","pricing_plan_id":"cebpf4jnsgd1na2vs0mg"},{"bike_id":"32b86c3c-80e2-4293-887d-eb8a88145d90","system_id":"levelo_inurba_marseille","lat":43.22927,"lon":5.3538,"is_reserved":false,"is_disabled":false,"rental_uris":{"android":"levelo://app?vid=32b86c3c-80e2-4293-887d-eb8a88145d90","ios":"levelo://app?vid=32b86c3c-80e2-4293-887d-eb8a88145d90"},"vehicle_type_id":"4","last_reported":1758049652,"current_range_meters":9200,"station_id":"cpo3532slgdg3j2ikp40","pricing_plan_id":"cebpf4jnsgd1na2vs0mg"},{"bike_id":"6630d8b9-ca82-49d9-b9cb-0ea3b7cea16f","system_id":"levelo_inurba_marseille","lat":43.313312,"lon":5.396883,"is_reserved":false,"is_disabled":false,"rental_uris":{"android":"levelo://app?vid=6630d8b9-ca82-49d9-b9cb-0ea3b7cea16f","ios":"levelo://app?vid=6630d8b9-ca82-49d9-b9cb-0ea3b7cea16f"},"vehicle_type_id":"4","last_reported":1758049652,"current_range_meters":9200,"station_id":"ce4bgvp2rcd13ifvqcu0","pricing_plan_id":"cebpf4jnsgd1na2vs0mg"},{"bike_id":"cd02c080-8936-4e2b-af4d-301cbe8eb8f1","system_id":"levelo_inurba_marseille","lat":43.30051,"lon":5.40349,"is_reserved":false,"is_disabled":false,"rental_uris":{"android":"levelo://app?vid=cd02c080-8936-4e2b-af4d-301cbe8eb8f1","ios":"levelo://app?vid=cd02c080-8936-4e2b-af4d-301cbe8eb8f1"},"vehicle_type_id":"4","last_reported":1758049652,"current_range_meters":9200,"station_id":"","pricing_plan_id":"cebpf4jnsgd1na2vs0mg"},{"bike_id":"7a2aa06f-7824-4a00-b62e-e8e38b953def","system_id":"levelo_inurba_marseille","lat":43.28482,"lon":5.38416,"is_reserved":false,"is_disabled":false,"rental_uris":{"android":"levelo://app?vid=7a2aa06f-7824-4a00-b62e-e8e38b953def","ios":"levelo://app?vid=7a2aa06f-7824-4a00-b62e-e8e38b953def"},"vehicle_type_id":"4","last_reported":1758049652,"current_range_meters":9200,"station_id":"ce4bh512rcd13ifvqe3g","pricing_plan_id":"cebpf4jnsgd1na2vs0mg"},{"bike_id":"a9f13996-cedb-42ef-8189-8cba3aa4b434","system_id":"levelo_inurba_marseille","lat":43.21189,"lon":5.35087,"is_reserved":false,"is_disabled":false,"rental_uris":{"android":"levelo://app?vid=a9f13996-cedb-42ef-8189-8cba3aa4b434","ios":"levelo://app?vid=a9f13996-cedb-42ef-8189-8cba3aa4b434"},"vehicle_type_id":"4","last_reported":1758049652,"current_range_meters":9200,"station_id":"st_cvj6sg6p6f1abm77japg","pricing_plan_id":"cebpf4jnsgd1na2vs0mg"},{"bike_id":"ca65b341-e9e4-4cbe-bbde-ad1744ba6f24","system_id":"levelo_inurba_marseille","lat":43.26945,"lon":5.38914,"is_reserved":false,"is_disabled":false,"rental_uris":{"android":"levelo://app?vid=ca65b341-e9e4-4cbe-bbde-ad1744ba6f24","ios":"levelo://app?vid=ca65b341-e9e4-4cbe-bbde-ad1744ba6f24"},"vehicle_type_id":"4","last_reported":1758049652,"current_range_meters":9200,"station_id":"ce4bhhh2rcd13ifvqfl0","pricing_plan_id":"cebpf4jnsgd1na2vs0mg"},{"bike_id":"31c9b0b9-3c0b-4583-b58f-faf77f7f4aaf","system_id":"levelo_inurba_marseille","lat":43.2903,"lon":5.38639,"is_reserved":false,"is_disabled":false,"rental_uris":{"android":"levelo://app?vid=31c9b0b9-3c0b-4583-b58f-faf77f7f4aaf","ios":"levelo://app?vid=31c9b0b9-3c0b-4583-b58f-faf77f7f4aaf"},"vehicle_type_id":"4","last_reported":1758049652,"current_range_meters":9200,"station_id":"ce4bh4p2rcd13ifvqe0g","pricing_plan_id":"cebpf4jnsgd1na2vs0mg"},{"bike_id":"906cda24-c539-4d47-8de3-9c63a9aaf336","system_id":"levelo_inurba_marseille","lat":43.30954,"lon":5.39044,"is_reserved":false,"is_disabled":false,"rental_uris":{"android":"levelo://app?vid=906cda24-c539-4d47-8de3-9c63a9aaf336","ios":"levelo://app?vid=906cda24-c539-4d47-8de3-9c63a9aaf336"},"vehicle_type_id":"4","last_reported":1758049652,"current_range_meters":9200,"station_id":"ce4bgup2rcd13ifvqco0","pricing_plan_id":"cebpf4jnsgd1na2vs0mg"},{"bike_id":"1b0b7d1e-e664-40b5-9a4c-ce7363061447","system_id":"levelo_inurba_marseille","lat":43.29506,"lon":5.38558,"is_reserved":false,"is_disabled":false,"rental_uris":{"android":"levelo://app?vid=1b0b7d1e-e664-40b5-9a4c-ce7363061447","ios":"levelo://app?vid=1b0b7d1e-e664-40b5-9a4c-ce7363061447"},"vehicle_type_id":"4","last_reported":1758049652,"current_range_meters":9200,"station_id":"ce4bgih2rcd13ifvqba0","pricing_plan_id":"cebpf4jnsgd1na2vs0mg"},{"bike_id":"f6a037d0-bff0-4e06-9272-58e4a7ef69b2","system_id":"levelo_inurba_marseille","lat":43.29259,"lon":5.38476,"is_reserved":false,"is_disabled":false,"rental_uris":{"android":"levelo://app?vid=f6a037d0-bff0-4e06-9272-58e4a7ef69b2","ios":"levelo://app?vid=f6a037d0-bff0-4e06-9272-58e4a7ef69b2"},"vehicle_type_id":"4","last_reported":1758049652,"current_range_meters":9600,"station_id":"ce4bh692rcd13ifvqea0","pricing_plan_id":"cebpf4jnsgd1na2vs0mg"},{"bike_id":"b32911f4-485f-47c3-a5a4-8b39a6cfba5e","system_id":"levelo_inurba_marseille","lat":43.28926,"lon":5.38389,"is_reserved":false,"is_disabled":false,"rental_uris":{"android":"levelo://app?vid=b32911f4-485f-47c3-a5a4-8b39a6cfba5e","ios":"levelo://app?vid=b32911f4-485f-47c3-a5a4-8b39a6cfba5e"},"vehicle_type_id":"4","last_reported":1758049652,"current_range_meters":9600,"station_id":"ce4bh612rcd13ifvqe6g","pricing_plan_id":"cebpf4jnsgd1na2vs0mg"},{"bike_id":"e32534e2-2d70-4904-b678-855c7320e6c0","system_id":"levelo_inurba_marseille","lat":43.2887,"lon":5.42525,"is_reserved":false,"is_disabled":false,"rental_uris":{"android":"levelo://app?vid=e32534e2-2d70-4904-b678-855c7320e6c0","ios":"levelo://app?vid=e32534e2-2d70-4904-b678-855c7320e6c0"},"vehicle_type_id":"4","last_reported":1758049652,"current_range_meters":9600,"station_id":"","pricing_plan_id":"cebpf4jnsgd1na2vs0mg"},{"bike_id":"166d0740-551f-4b41-ba2a-cb7a6a98d02c","system_id":"levelo_inurba_marseille","lat":43.2468,"lon":5.40299,"is_reserved":false,"is_disabled":false,"rental_uris":{"android":"levelo://app?vid=166d0740-551f-4b41-ba2a-cb7a6a98d02c","ios":"levelo://app?vid=166d0740-551f-4b41-ba2a-cb7a6a98d02c"},"vehicle_type_id":"4","last_reported":1758049652,"current_range_meters":9600,"station_id":"","pricing_plan_id":"cebpf4jnsgd1na2vs0mg"},{"bike_id":"6c778418-eec5-4630-acd7-c21c8999ac92","system_id":"levelo_inurba_marseille","lat":43.2894,"lon":5.38389,"is_reserved":false,"is_disabled":false,"rental_uris":{"android":"levelo://app?vid=6c778418-eec5-4630-acd7-c21c8999ac92","ios":"levelo://app?vid=6c778418-eec5-4630-acd7-c21c8999ac92"},"vehicle_type_id":"4","last_reported":1758049652,"current_range_meters":9600,"station_id":"ce4bh612rcd13ifvqe6g","pricing_plan_id":"cebpf4jnsgd1na2vs0mg"},{"bike_id":"50eb7069-3607-4b20-98c8-5985e915995e","system_id":"levelo_inurba_marseille","lat":43.24169,"lon":5.39731,"is_reserved":false,"is_disabled":false,"rental_uris":{"android":"levelo://app?vid=50eb7069-3607-4b20-98c8-5985e915995e","ios":"levelo://app?vid=50eb7069-3607-4b20-98c8-5985e915995e"},"vehicle_type_id":"4","last_reported":1758049652,"current_range_meters":9600,"station_id":"ce4bhn12rcd13ifvqgpg","pricing_plan_id":"cebpf4jnsgd1na2vs0mg"},{"bike_id":"9ed722a9-be14-4306-ad7d-14023d4f108e","system_id":"levelo_inurba_marseille","lat":43.29272,"lon":5.3845,"is_reserved":false,"is_disabled":false,"rental_uris":{"android":"levelo://app?vid=9ed722a9-be14-4306-ad7d-14023d4f108e","ios":"levelo://app?vid=9ed722a9-be14-4306-ad7d-14023d4f108e"},"vehicle_type_id":"4","last_reported":1758049652,"current_range_meters":9600,"station_id":"ce4bh692rcd13ifvqea0","pricing_plan_id":"cebpf4jnsgd1na2vs0mg"},{"bike_id":"5161c147-9a77-48ce-ab1f-7473ab4d7b0d","system_id":"levelo_inurba_marseille","lat":43.29536,"lon":5.38537,"is_reserved":false,"is_disabled":false,"rental_uris":{"android":"levelo://app?vid=5161c147-9a77-48ce-ab1f-7473ab4d7b0d","ios":"levelo://app?vid=5161c147-9a77-48ce-ab1f-7473ab4d7b0d"},"vehicle_type_id":"4","last_reported":1758049652,"current_range_meters":9600,"station_id":"ce4bgih2rcd13ifvqba0","pricing_plan_id":"cebpf4jnsgd1na2vs0mg"},{"bike_id":"8978e21f-e389-4a27-a4e3-b678be4a37a3","system_id":"levelo_inurba_marseille","lat":43.29876,"lon":5.389,"is_reserved":false,"is_disabled":false,"rental_uris":{"android":"levelo://app?vid=8978e21f-e389-4a27-a4e3-b678be4a37a3","ios":"levelo://app?vid=8978e21f-e389-4a27-a4e3-b678be4a37a3"},"vehicle_type_id":"4","last_reported":1758049652,"current_range_meters":9600,"station_id":"ce4bh392rcd13ifvqdl0","pricing_plan_id":"cebpf4jnsgd1na2vs0mg"},{"bike_id":"77246e06-46b3-406d-9b69-b9b3e2cbdee1","system_id":"levelo_inurba_marseille","lat":43.2806,"lon":5.38631,"is_reserved":false,"is_disabled":false,"rental_uris":{"android":"levelo://app?vid=77246e06-46b3-406d-9b69-b9b3e2cbdee1","ios":"levelo://app?vid=77246e06-46b3-406d-9b69-b9b3e2cbdee1"},"vehicle_type_id":"4","last_reported":1758049652,"current_range_meters":9600,"station_id":"","pricing_plan_id":"cebpf4jnsgd1na2vs0mg"},{"bike_id":"e5c0f9fa-aa79-401b-ac6b-a846850c5345","system_id":"levelo_inurba_marseille","lat":43.27849,"lon":5.38513,"is_reserved":false,"is_disabled":false,"rental_uris":{"android":"levelo://app?vid=e5c0f9fa-aa79-401b-ac6b-a846850c5345","ios":"levelo://app?vid=e5c0f9fa-aa79-401b-ac6b-a846850c5345"},"vehicle_type_id":"4","last_reported":1758049652,"current_range_meters":9600,"station_id":"","pricing_plan_id":"cebpf4jnsgd1na2vs0mg"},{"bike_id":"e824d254-16a6-4ae4-983a-05af083f4c81","system_id":"levelo_inurba_marseille","lat":43.21753,"lon":5.34607,"is_reserved":false,"is_disabled":false,"rental_uris":{"android":"levelo://app?vid=e824d254-16a6-4ae4-983a-05af083f4c81","ios":"levelo://app?vid=e824d254-16a6-4ae4-983a-05af083f4c81"},"vehicle_type_id":"4","last_reported":1758049652,"current_range_meters":10000,"station_id":"","pricing_plan_id":"cebpf4jnsgd1na2vs0mg"},{"bike_id":"d7b053ab-2912-4f16-abf7-c47be8c4e15a","system_id":"levelo_inurba_marseille","lat":43.26551,"lon":5.37296,"is_reserved":false,"is_disabled":true,"rental_uris":{"android":"levelo://app?vid=d7b053ab-2912-4f16-abf7-c47be8c4e15a","ios":"levelo://app?vid=d7b053ab-2912-4f16-abf7-c47be8c4e15a"},"vehicle_type_id":"4","last_reported":1758049652,"current_range_meters":10000,"station_id":"ce4bhg12rcd13ifvqf70","pricing_plan_id":"cebpf4jnsgd1na2vs0mg"},{"bike_id":"8ef8bf7d-8a91-4724-8c2e-ddeef723e28a","system_id":"levelo_inurba_marseille","lat":43.27033,"lon":5.37929,"is_reserved":false,"is_disabled":false,"rental_uris":{"android":"levelo://app?vid=8ef8bf7d-8a91-4724-8c2e-ddeef723e28a","ios":"levelo://app?vid=8ef8bf7d-8a91-4724-8c2e-ddeef723e28a"},"vehicle_type_id":"4","last_reported":1758049652,"current_range_meters":10000,"station_id":"","pricing_plan_id":"cebpf4jnsgd1na2vs0mg"},{"bike_id":"3533a8d6-e5c3-4f95-81b6-96cdb8a694e2","system_id":"levelo_inurba_marseille","lat":43.28425,"lon":5.3753,"is_reserved":false,"is_disabled":false,"rental_uris":{"android":"levelo://app?vid=3533a8d6-e5c3-4f95-81b6-96cdb8a694e2","ios":"levelo://app?vid=3533a8d6-e5c3-4f95-81b6-96cdb8a694e2"},"vehicle_type_id":"4","last_reported":1758049652,"current_range_meters":10000,"station_id":"ce4bh412rcd13ifvqds0","pricing_plan_id":"cebpf4jnsgd1na2vs0mg"},{"bike_id":"4144b63d-19a1-458a-8b36-d33687e6047d","system_id":"levelo_inurba_marseille","lat":43.29263,"lon":5.38429,"is_reserved":false,"is_disabled":false,"rental_uris":{"android":"levelo://app?vid=4144b63d-19a1-458a-8b36-d33687e6047d","ios":"levelo://app?vid=4144b63d-19a1-458a-8b36-d33687e6047d"},"vehicle_type_id":"4","last_reported":1758049652,"current_range_meters":10000,"station_id":"ce4bh692rcd13ifvqea0","pricing_plan_id":"cebpf4jnsgd1na2vs0mg"},{"bike_id":"336c74d9-d9c9-46d7-a94b-134b36ad023a","system_id":"levelo_inurba_marseille","lat":43.29935,"lon":5.37834,"is_reserved":false,"is_disabled":false,"rental_uris":{"android":"levelo://app?vid=336c74d9-d9c9-46d7-a94b-134b36ad023a","ios":"levelo://app?vid=336c74d9-d9c9-46d7-a94b-134b36ad023a"},"vehicle_type_id":"4","last_reported":1758049652,"current_range_meters":10000,"station_id":"","pricing_plan_id":"cebpf4jnsgd1na2vs0mg"},{"bike_id":"52547c74-c0e9-4d6f-b224-92201979afe3","system_id":"levelo_inurba_marseille","lat":43.3212,"lon":5.3678,"is_reserved":false,"is_disabled":false,"rental_uris":{"android":"levelo://app?vid=52547c74-c0e9-4d6f-b224-92201979afe3","ios":"levelo://app?vid=52547c74-c0e9-4d6f-b224-92201979afe3"},"vehicle_type_id":"4","last_reported":1758049652,"current_range_meters":10000,"station_id":"ce4bhrh2rcd13ifvqhug","pricing_plan_id":"cebpf4jnsgd1na2vs0mg"},{"bike_id":"ab6cdc64-55a9-4546-84c6-773f2758fdd5","system_id":"levelo_inurba_marseille","lat":43.29256,"lon":5.38451,"is_reserved":false,"is_disabled":false,"rental_uris":{"android":"levelo://app?vid=ab6cdc64-55a9-4546-84c6-773f2758fdd5","ios":"levelo://app?vid=ab6cdc64-55a9-4546-84c6-773f2758fdd5"},"vehicle_type_id":"4","last_reported":1758049652,"current_range_meters":10000,"station_id":"ce4bh692rcd13ifvqea0","pricing_plan_id":"cebpf4jnsgd1na2vs0mg"},{"bike_id":"cea0a1e2-df7e-4cb1-be5d-ab30e9212317","system_id":"levelo_inurba_marseille","lat":43.21753,"lon":5.34604,"is_reserved":false,"is_disabled":false,"rental_uris":{"android":"levelo://app?vid=cea0a1e2-df7e-4cb1-be5d-ab30e9212317","ios":"levelo://app?vid=cea0a1e2-df7e-4cb1-be5d-ab30e9212317"},"vehicle_type_id":"4","last_reported":1758049652,"current_range_meters":10800,"station_id":"","pricing_plan_id":"cebpf4jnsgd1na2vs0mg"},{"bike_id":"5fa6271e-baa9-43b4-a384-0c174226da68","system_id":"levelo_inurba_marseille","lat":43.29536,"lon":5.37501,"is_reserved":false,"is_disabled":false,"rental_uris":{"android":"levelo://app?vid=5fa6271e-baa9-43b4-a384-0c174226da68","ios":"levelo://app?vid=5fa6271e-baa9-43b4-a384-0c174226da68"},"vehicle_type_id":"4","last_reported":1758049652,"current_range_meters":10800,"station_id":"ce4bgkp2rcd13ifvqbmg","pricing_plan_id":"cebpf4jnsgd1na2vs0mg"},{"bike_id":"a05fdb49-e038-4a84-8ea1-52f3eaaf07b1","system_id":"levelo_inurba_marseille","lat":43.22567,"lon":5.41661,"is_reserved":false,"is_disabled":false,"rental_uris":{"android":"levelo://app?vid=a05fdb49-e038-4a84-8ea1-52f3eaaf07b1","ios":"levelo://app?vid=a05fdb49-e038-4a84-8ea1-52f3eaaf07b1"},"vehicle_type_id":"4","last_reported":1758049652,"current_range_meters":10800,"station_id":"st_d2o4gvlbi1j2169b742g","pricing_plan_id":"cebpf4jnsgd1na2vs0mg"},{"bike_id":"8a5fcd26-5814-4c9c-a378-8c91e99cdab0","system_id":"levelo_inurba_marseille","lat":43.29249,"lon":5.38439,"is_reserved":false,"is_disabled":false,"rental_uris":{"android":"levelo://app?vid=8a5fcd26-5814-4c9c-a378-8c91e99cdab0","ios":"levelo://app?vid=8a5fcd26-5814-4c9c-a378-8c91e99cdab0"},"vehicle_type_id":"4","last_reported":1758049652,"current_range_meters":10800,"station_id":"ce4bh692rcd13ifvqea0","pricing_plan_id":"cebpf4jnsgd1na2vs0mg"},{"bike_id":"4962c650-24fb-4ff7-aa88-01ee51896963","system_id":"levelo_inurba_marseille","lat":43.29266,"lon":5.38444,"is_reserved":false,"is_disabled":false,"rental_uris":{"android":"levelo://app?vid=4962c650-24fb-4ff7-aa88-01ee51896963","ios":"levelo://app?vid=4962c650-24fb-4ff7-aa88-01ee51896963"},"vehicle_type_id":"4","last_reported":1758049652,"current_range_meters":10800,"station_id":"ce4bh692rcd13ifvqea0","pricing_plan_id":"cebpf4jnsgd1na2vs0mg"},{"bike_id":"87434c00-e7fa-4f0e-bb52-7bd5ff0180d9","system_id":"levelo_inurba_marseille","lat":43.29295,"lon":5.37179,"is_reserved":false,"is_disabled":false,"rental_uris":{"android":"levelo://app?vid=87434c00-e7fa-4f0e-bb52-7bd5ff0180d9","ios":"levelo://app?vid=87434c00-e7fa-4f0e-bb52-7bd5ff0180d9"},"vehicle_type_id":"4","last_reported":1758049652,"current_range_meters":10800,"station_id":"ce4bgh92rcd13ifvqb40","pricing_plan_id":"cebpf4jnsgd1na2vs0mg"},{"bike_id":"2bed0138-9ac3-4164-90ee-5bfaf418733f","system_id":"levelo_inurba_marseille","lat":43.28923,"lon":5.38414,"is_reserved":false,"is_disabled":true,"rental_uris":{"android":"levelo://app?vid=2bed0138-9ac3-4164-90ee-5bfaf418733f","ios":"levelo://app?vid=2bed0138-9ac3-4164-90ee-5bfaf418733f"},"vehicle_type_id":"4","last_reported":1758049652,"current_range_meters":10800,"station_id":"ce4bh612rcd13ifvqe6g","pricing_plan_id":"cebpf4jnsgd1na2vs0mg"},{"bike_id":"eec66263-66a6-4c0d-b9a0-057fbf62a4c2","system_id":"levelo_inurba_marseille","lat":43.298937,"lon":5.436723,"is_reserved":false,"is_disabled":false,"rental_uris":{"android":"levelo://app?vid=eec66263-66a6-4c0d-b9a0-057fbf62a4c2","ios":"levelo://app?vid=eec66263-66a6-4c0d-b9a0-057fbf62a4c2"},"vehicle_type_id":"4","last_reported":1758049652,"current_range_meters":10800,"station_id":"ce4bhpp2rcd13ifvqhfg","pricing_plan_id":"cebpf4jnsgd1na2vs0mg"},{"bike_id":"90dc302f-73e8-4480-a3ef-8847f7096f76","system_id":"levelo_inurba_marseille","lat":43.29277,"lon":5.38439,"is_reserved":false,"is_disabled":false,"rental_uris":{"android":"levelo://app?vid=90dc302f-73e8-4480-a3ef-8847f7096f76","ios":"levelo://app?vid=90dc302f-73e8-4480-a3ef-8847f7096f76"},"vehicle_type_id":"4","last_reported":1758049652,"current_range_meters":11200,"station_id":"ce4bh692rcd13ifvqea0","pricing_plan_id":"cebpf4jnsgd1na2vs0mg"},{"bike_id":"fd2cc279-de65-4f3b-b6cb-d2771ebf6c8a","system_id":"levelo_inurba_marseille","lat":43.29254,"lon":5.38438,"is_reserved":false,"is_disabled":false,"rental_uris":{"android":"levelo://app?vid=fd2cc279-de65-4f3b-b6cb-d2771ebf6c8a","ios":"levelo://app?vid=fd2cc279-de65-4f3b-b6cb-d2771ebf6c8a"},"vehicle_type_id":"4","last_reported":1758049652,"current_range_meters":11200,"station_id":"ce4bh692rcd13ifvqea0","pricing_plan_id":"cebpf4jnsgd1na2vs0mg"},{"bike_id":"11e6929a-6591-4285-a4ed-adf786fdd368","system_id":"levelo_inurba_marseille","lat":43.29267,"lon":5.38441,"is_reserved":false,"is_disabled":false,"rental_uris":{"android":"levelo://app?vid=11e6929a-6591-4285-a4ed-adf786fdd368","ios":"levelo://app?vid=11e6929a-6591-4285-a4ed-adf786fdd368"},"vehicle_type_id":"4","last_reported":1758049652,"current_range_meters":11200,"station_id":"","pricing_plan_id":"cebpf4jnsgd1na2vs0mg"},{"bike_id":"c5620ffc-9f62-406e-b2a1-9d9ffef511f7","system_id":"levelo_inurba_marseille","lat":43.29531,"lon":5.38552,"is_reserved":false,"is_disabled":false,"rental_uris":{"android":"levelo://app?vid=c5620ffc-9f62-406e-b2a1-9d9ffef511f7","ios":"levelo://app?vid=c5620ffc-9f62-406e-b2a1-9d9ffef511f7"},"vehicle_type_id":"4","last_reported":1758049652,"current_range_meters":11200,"station_id":"ce4bgih2rcd13ifvqba0","pricing_plan_id":"cebpf4jnsgd1na2vs0mg"},{"bike_id":"b5294393-b939-4022-b1c4-531d88c81673","system_id":"levelo_inurba_marseille","lat":43.29261,"lon":5.38446,"is_reserved":false,"is_disabled":false,"rental_uris":{"android":"levelo://app?vid=b5294393-b939-4022-b1c4-531d88c81673","ios":"levelo://app?vid=b5294393-b939-4022-b1c4-531d88c81673"},"vehicle_type_id":"4","last_reported":1758049652,"current_range_meters":11200,"station_id":"ce4bh692rcd13ifvqea0","pricing_plan_id":"cebpf4jnsgd1na2vs0mg"},{"bike_id":"e81b758a-10fc-4b73-8d3d-78cfa438af67","system_id":"levelo_inurba_marseille","lat":43.27827,"lon":5.40712,"is_reserved":false,"is_disabled":false,"rental_uris":{"android":"levelo://app?vid=e81b758a-10fc-4b73-8d3d-78cfa438af67","ios":"levelo://app?vid=e81b758a-10fc-4b73-8d3d-78cfa438af67"},"vehicle_type_id":"4","last_reported":1758049652,"current_range_meters":11200,"station_id":"ce4bhnh2rcd13ifvqgtg","pricing_plan_id":"cebpf4jnsgd1na2vs0mg"},{"bike_id":"5e8f0828-0a7b-48d6-af2b-92380bffa897","system_id":"levelo_inurba_marseille","lat":43.23185,"lon":5.39994,"is_reserved":false,"is_disabled":false,"rental_uris":{"android":"levelo://app?vid=5e8f0828-0a7b-48d6-af2b-92380bffa897","ios":"levelo://app?vid=5e8f0828-0a7b-48d6-af2b-92380bffa897"},"vehicle_type_id":"4","last_reported":1758049652,"current_range_meters":11200,"station_id":"ce4bhn12rcd13ifvqgqg","pricing_plan_id":"cebpf4jnsgd1na2vs0mg"},{"bike_id":"5bac7cd6-bf0e-4162-9a51-8545934d952d","system_id":"levelo_inurba_marseille","lat":43.30293,"lon":5.3689,"is_reserved":false,"is_disabled":false,"rental_uris":{"android":"levelo://app?vid=5bac7cd6-bf0e-4162-9a51-8545934d952d","ios":"levelo://app?vid=5bac7cd6-bf0e-4162-9a51-8545934d952d"},"vehicle_type_id":"4","last_reported":1758049652,"current_range_meters":11600,"station_id":"ce4bgqh2rcd13ifvqc5g","pricing_plan_id":"cebpf4jnsgd1na2vs0mg"},{"bike_id":"1b6a995d-34ac-45d5-9528-44d2f8bbd183","system_id":"levelo_inurba_marseille","lat":43.28515,"lon":5.35924,"is_reserved":false,"is_disabled":false,"rental_uris":{"android":"levelo://app?vid=1b6a995d-34ac-45d5-9528-44d2f8bbd183","ios":"levelo://app?vid=1b6a995d-34ac-45d5-9528-44d2f8bbd183"},"vehicle_type_id":"4","last_reported":1758049652,"current_range_meters":11600,"station_id":"","pricing_plan_id":"cebpf4jnsgd1na2vs0mg"},{"bike_id":"5404a574-c18c-466b-bf42-8f3238c0c146","system_id":"levelo_inurba_marseille","lat":43.29509,"lon":5.38536,"is_reserved":false,"is_disabled":false,"rental_uris":{"android":"levelo://app?vid=5404a574-c18c-466b-bf42-8f3238c0c146","ios":"levelo://app?vid=5404a574-c18c-466b-bf42-8f3238c0c146"},"vehicle_type_id":"4","last_reported":1758049652,"current_range_meters":11600,"station_id":"ce4bgih2rcd13ifvqba0","pricing_plan_id":"cebpf4jnsgd1na2vs0mg"},{"bike_id":"949ff803-6dfe-4e24-a559-2e7798455f7d","system_id":"levelo_inurba_marseille","lat":43.23895,"lon":5.399354,"is_reserved":false,"is_disabled":false,"rental_uris":{"android":"levelo://app?vid=949ff803-6dfe-4e24-a559-2e7798455f7d","ios":"levelo://app?vid=949ff803-6dfe-4e24-a559-2e7798455f7d"},"vehicle_type_id":"4","last_reported":1758049652,"current_range_meters":11600,"station_id":"ce4bhn12rcd13ifvqgqg","pricing_plan_id":"cebpf4jnsgd1na2vs0mg"},{"bike_id":"b67873d6-c916-4891-ba70-867de063b6ae","system_id":"levelo_inurba_marseille","lat":43.25861,"lon":5.39914,"is_reserved":false,"is_disabled":false,"rental_uris":{"android":"levelo://app?vid=b67873d6-c916-4891-ba70-867de063b6ae","ios":"levelo://app?vid=b67873d6-c916-4891-ba70-867de063b6ae"},"vehicle_type_id":"4","last_reported":1758049652,"current_range_meters":11600,"station_id":"ce4bhl92rcd13ifvqghg","pricing_plan_id":"cebpf4jnsgd1na2vs0mg"},{"bike_id":"d2e73f8a-9760-436a-b8f4-3ffcffe1dabd","system_id":"levelo_inurba_marseille","lat":43.299116,"lon":5.380926,"is_reserved":false,"is_disabled":false,"rental_uris":{"android":"levelo://app?vid=d2e73f8a-9760-436a-b8f4-3ffcffe1dabd","ios":"levelo://app?vid=d2e73f8a-9760-436a-b8f4-3ffcffe1dabd"},"vehicle_type_id":"4","last_reported":1758049652,"current_range_meters":11600,"station_id":"ce4bgj12rcd13ifvqbc0","pricing_plan_id":"cebpf4jnsgd1na2vs0mg"},{"bike_id":"218a3b01-2802-4a90-9359-7a3da360539c","system_id":"levelo_inurba_marseille","lat":43.28586,"lon":5.39497,"is_reserved":false,"is_disabled":false,"rental_uris":{"android":"levelo://app?vid=218a3b01-2802-4a90-9359-7a3da360539c","ios":"levelo://app?vid=218a3b01-2802-4a90-9359-7a3da360539c"},"vehicle_type_id":"4","last_reported":1758049652,"current_range_meters":11600,"station_id":"ce4bh292rcd13ifvqdg0","pricing_plan_id":"cebpf4jnsgd1na2vs0mg"},{"bike_id":"c3830524-ee6d-475c-88e3-0ff4ec0f7a95","system_id":"levelo_inurba_marseille","lat":43.29262,"lon":5.38445,"is_reserved":false,"is_disabled":false,"rental_uris":{"android":"levelo://app?vid=c3830524-ee6d-475c-88e3-0ff4ec0f7a95","ios":"levelo://app?vid=c3830524-ee6d-475c-88e3-0ff4ec0f7a95"},"vehicle_type_id":"4","last_reported":1758049652,"current_range_meters":11600,"station_id":"ce4bh692rcd13ifvqea0","pricing_plan_id":"cebpf4jnsgd1na2vs0mg"},{"bike_id":"46e42f02-6b1a-4866-a440-e0c62d7a2434","system_id":"levelo_inurba_marseille","lat":43.29528,"lon":5.38535,"is_reserved":false,"is_disabled":false,"rental_uris":{"android":"levelo://app?vid=46e42f02-6b1a-4866-a440-e0c62d7a2434","ios":"levelo://app?vid=46e42f02-6b1a-4866-a440-e0c62d7a2434"},"vehicle_type_id":"4","last_reported":1758049652,"current_range_meters":11600,"station_id":"ce4bgih2rcd13ifvqba0","pricing_plan_id":"cebpf4jnsgd1na2vs0mg"},{"bike_id":"a8095c70-0ea0-4a9a-934b-570905375a9b","system_id":"levelo_inurba_marseille","lat":43.26753,"lon":5.37816,"is_reserved":false,"is_disabled":false,"rental_uris":{"android":"levelo://app?vid=a8095c70-0ea0-4a9a-934b-570905375a9b","ios":"levelo://app?vid=a8095c70-0ea0-4a9a-934b-570905375a9b"},"vehicle_type_id":"4","last_reported":1758049652,"current_range_meters":12000,"station_id":"","pricing_plan_id":"cebpf4jnsgd1na2vs0mg"},{"bike_id":"4c70b6ba-1376-4775-8247-c41b9ccd75f0","system_id":"levelo_inurba_marseille","lat":43.2925,"lon":5.40912,"is_reserved":false,"is_disabled":true,"rental_uris":{"android":"levelo://app?vid=4c70b6ba-1376-4775-8247-c41b9ccd75f0","ios":"levelo://app?vid=4c70b6ba-1376-4775-8247-c41b9ccd75f0"},"vehicle_type_id":"4","last_reported":1758049652,"current_range_meters":12000,"station_id":"ce4bh192rcd13ifvqdc0","pricing_plan_id":"cebpf4jnsgd1na2vs0mg"},{"bike_id":"e031047f-df31-458e-ae81-c74827c4bfdb","system_id":"levelo_inurba_marseille","lat":43.29547,"lon":5.42286,"is_reserved":false,"is_disabled":false,"rental_uris":{"android":"levelo://app?vid=e031047f-df31-458e-ae81-c74827c4bfdb","ios":"levelo://app?vid=e031047f-df31-458e-ae81-c74827c4bfdb"},"vehicle_type_id":"4","last_reported":1758049652,"current_range_meters":12000,"station_id":"ce4bhph2rcd13ifvqhdg","pricing_plan_id":"cebpf4jnsgd1na2vs0mg"},{"bike_id":"6b020b3f-cfb5-4da1-a242-e1720033f573","system_id":"levelo_inurba_marseille","lat":43.267007,"lon":5.38984,"is_reserved":false,"is_disabled":false,"rental_uris":{"android":"levelo://app?vid=6b020b3f-cfb5-4da1-a242-e1720033f573","ios":"levelo://app?vid=6b020b3f-cfb5-4da1-a242-e1720033f573"},"vehicle_type_id":"4","last_reported":1758049652,"current_range_meters":12000,"station_id":"ce4bhh92rcd13ifvqfj0","pricing_plan_id":"cebpf4jnsgd1na2vs0mg"},{"bike_id":"3b26aa0d-3679-4b4c-9b55-1096f6d08a9d","system_id":"levelo_inurba_marseille","lat":43.31316,"lon":5.39467,"is_reserved":false,"is_disabled":false,"rental_uris":{"android":"levelo://app?vid=3b26aa0d-3679-4b4c-9b55-1096f6d08a9d","ios":"levelo://app?vid=3b26aa0d-3679-4b4c-9b55-1096f6d08a9d"},"vehicle_type_id":"4","last_reported":1758049652,"current_range_meters":12000,"station_id":"","pricing_plan_id":"cebpf4jnsgd1na2vs0mg"},{"bike_id":"0b530ca0-5abe-456a-80f2-061626fcc9b1","system_id":"levelo_inurba_marseille","lat":43.29973,"lon":5.38223,"is_reserved":false,"is_disabled":false,"rental_uris":{"android":"levelo://app?vid=0b530ca0-5abe-456a-80f2-061626fcc9b1","ios":"levelo://app?vid=0b530ca0-5abe-456a-80f2-061626fcc9b1"},"vehicle_type_id":"4","last_reported":1758049652,"current_range_meters":12000,"station_id":"","pricing_plan_id":"cebpf4jnsgd1na2vs0mg"},{"bike_id":"1232d8b9-b6fc-4292-aec4-77ec849a4503","system_id":"levelo_inurba_marseille","lat":43.29529,"lon":5.38539,"is_reserved":false,"is_disabled":false,"rental_uris":{"android":"levelo://app?vid=1232d8b9-b6fc-4292-aec4-77ec849a4503","ios":"levelo://app?vid=1232d8b9-b6fc-4292-aec4-77ec849a4503"},"vehicle_type_id":"4","last_reported":1758049652,"current_range_meters":12000,"station_id":"ce4bgih2rcd13ifvqba0","pricing_plan_id":"cebpf4jnsgd1na2vs0mg"},{"bike_id":"2ba6d751-735d-4f3f-b471-7e3f5bc5e1b1","system_id":"levelo_inurba_marseille","lat":43.321022,"lon":5.367857,"is_reserved":false,"is_disabled":false,"rental_uris":{"android":"levelo://app?vid=2ba6d751-735d-4f3f-b471-7e3f5bc5e1b1","ios":"levelo://app?vid=2ba6d751-735d-4f3f-b471-7e3f5bc5e1b1"},"vehicle_type_id":"4","last_reported":1758049652,"current_range_meters":12000,"station_id":"ce4bhrh2rcd13ifvqhug","pricing_plan_id":"cebpf4jnsgd1na2vs0mg"},{"bike_id":"89470f34-f600-40a5-a7d4-8222b4f2fbfb","system_id":"levelo_inurba_marseille","lat":43.26578,"lon":5.39007,"is_reserved":false,"is_disabled":false,"rental_uris":{"android":"levelo://app?vid=89470f34-f600-40a5-a7d4-8222b4f2fbfb","ios":"levelo://app?vid=89470f34-f600-40a5-a7d4-8222b4f2fbfb"},"vehicle_type_id":"4","last_reported":1758049652,"current_range_meters":12400,"station_id":"ce4bhe12rcd13ifvqf30","pricing_plan_id":"cebpf4jnsgd1na2vs0mg"},{"bike_id":"3780f8a4-d5f2-441c-af36-d971584876a5","system_id":"levelo_inurba_marseille","lat":43.29541,"lon":5.38532,"is_reserved":false,"is_disabled":false,"rental_uris":{"android":"levelo://app?vid=3780f8a4-d5f2-441c-af36-d971584876a5","ios":"levelo://app?vid=3780f8a4-d5f2-441c-af36-d971584876a5"},"vehicle_type_id":"4","last_reported":1758049652,"current_range_meters":12400,"station_id":"ce4bgih2rcd13ifvqba0","pricing_plan_id":"cebpf4jnsgd1na2vs0mg"},{"bike_id":"7c057664-8998-40a1-8b69-3bafcfcbd1ec","system_id":"levelo_inurba_marseille","lat":43.290935,"lon":5.381297,"is_reserved":false,"is_disabled":false,"rental_uris":{"android":"levelo://app?vid=7c057664-8998-40a1-8b69-3bafcfcbd1ec","ios":"levelo://app?vid=7c057664-8998-40a1-8b69-3bafcfcbd1ec"},"vehicle_type_id":"4","last_reported":1758049652,"current_range_meters":12400,"station_id":"ce4bh512rcd13ifvqe2g","pricing_plan_id":"cebpf4jnsgd1na2vs0mg"},{"bike_id":"7203b3b1-b3b4-4f88-8515-e1f40e950399","system_id":"levelo_inurba_marseille","lat":43.2977,"lon":5.39337,"is_reserved":false,"is_disabled":false,"rental_uris":{"android":"levelo://app?vid=7203b3b1-b3b4-4f88-8515-e1f40e950399","ios":"levelo://app?vid=7203b3b1-b3b4-4f88-8515-e1f40e950399"},"vehicle_type_id":"4","last_reported":1758049652,"current_range_meters":12400,"station_id":"chh1huq6cuj3fo74tm60","pricing_plan_id":"cebpf4jnsgd1na2vs0mg"},{"bike_id":"0ede21be-37d9-4495-b672-80274a6292be","system_id":"levelo_inurba_marseille","lat":43.35059,"lon":5.34071,"is_reserved":false,"is_disabled":false,"rental_uris":{"android":"levelo://app?vid=0ede21be-37d9-4495-b672-80274a6292be","ios":"levelo://app?vid=0ede21be-37d9-4495-b672-80274a6292be"},"vehicle_type_id":"4","last_reported":1758049652,"current_range_meters":12400,"station_id":"","pricing_plan_id":"cebpf4jnsgd1na2vs0mg"},{"bike_id":"9ed68948-78fb-4999-b846-a777efb76356","system_id":"levelo_inurba_marseille","lat":43.30585,"lon":5.39346,"is_reserved":false,"is_disabled":false,"rental_uris":{"android":"levelo://app?vid=9ed68948-78fb-4999-b846-a777efb76356","ios":"levelo://app?vid=9ed68948-78fb-4999-b846-a777efb76356"},"vehicle_type_id":"4","last_reported":1758049652,"current_range_meters":12400,"station_id":"ce4bh0p2rcd13ifvqd80","pricing_plan_id":"cebpf4jnsgd1na2vs0mg"},{"bike_id":"ece07351-e21d-4c48-bd8e-d6076d0d6379","system_id":"levelo_inurba_marseille","lat":43.28477,"lon":5.37506,"is_reserved":false,"is_disabled":false,"rental_uris":{"android":"levelo://app?vid=ece07351-e21d-4c48-bd8e-d6076d0d6379","ios":"levelo://app?vid=ece07351-e21d-4c48-bd8e-d6076d0d6379"},"vehicle_type_id":"4","last_reported":1758049652,"current_range_meters":12800,"station_id":"","pricing_plan_id":"cebpf4jnsgd1na2vs0mg"},{"bike_id":"6a1665e1-806c-429c-a084-950fd9b4265a","system_id":"levelo_inurba_marseille","lat":43.29526,"lon":5.38536,"is_reserved":false,"is_disabled":false,"rental_uris":{"android":"levelo://app?vid=6a1665e1-806c-429c-a084-950fd9b4265a","ios":"levelo://app?vid=6a1665e1-806c-429c-a084-950fd9b4265a"},"vehicle_type_id":"4","last_reported":1758049652,"current_range_meters":12800,"station_id":"ce4bgih2rcd13ifvqba0","pricing_plan_id":"cebpf4jnsgd1na2vs0mg"},{"bike_id":"23e1572e-7ccb-4eea-8020-599035749c9e","system_id":"levelo_inurba_marseille","lat":43.23851,"lon":5.36556,"is_reserved":false,"is_disabled":false,"rental_uris":{"android":"levelo://app?vid=23e1572e-7ccb-4eea-8020-599035749c9e","ios":"levelo://app?vid=23e1572e-7ccb-4eea-8020-599035749c9e"},"vehicle_type_id":"4","last_reported":1758049652,"current_range_meters":12800,"station_id":"","pricing_plan_id":"cebpf4jnsgd1na2vs0mg"},{"bike_id":"738e9474-7fa1-477d-95be-2b35ede9d3f0","system_id":"levelo_inurba_marseille","lat":43.22571,"lon":5.41632,"is_reserved":false,"is_disabled":false,"rental_uris":{"android":"levelo://app?vid=738e9474-7fa1-477d-95be-2b35ede9d3f0","ios":"levelo://app?vid=738e9474-7fa1-477d-95be-2b35ede9d3f0"},"vehicle_type_id":"4","last_reported":1758049652,"current_range_meters":12800,"station_id":"st_d2o4gvlbi1j2169b742g","pricing_plan_id":"cebpf4jnsgd1na2vs0mg"},{"bike_id":"c4ad9b1c-67e0-470c-9662-d5b3cf07580a","system_id":"levelo_inurba_marseille","lat":43.29519,"lon":5.38529,"is_reserved":false,"is_disabled":false,"rental_uris":{"android":"levelo://app?vid=c4ad9b1c-67e0-470c-9662-d5b3cf07580a","ios":"levelo://app?vid=c4ad9b1c-67e0-470c-9662-d5b3cf07580a"},"vehicle_type_id":"4","last_reported":1758049652,"current_range_meters":12800,"station_id":"ce4bgih2rcd13ifvqba0","pricing_plan_id":"cebpf4jnsgd1na2vs0mg"},{"bike_id":"034ffc90-630a-49f2-982c-234e27cedb9e","system_id":"levelo_inurba_marseille","lat":43.29532,"lon":5.38545,"is_reserved":false,"is_disabled":false,"rental_uris":{"android":"levelo://app?vid=034ffc90-630a-49f2-982c-234e27cedb9e","ios":"levelo://app?vid=034ffc90-630a-49f2-982c-234e27cedb9e"},"vehicle_type_id":"4","last_reported":1758049652,"current_range_meters":12800,"station_id":"ce4bgih2rcd13ifvqba0","pricing_plan_id":"cebpf4jnsgd1na2vs0mg"},{"bike_id":"01f63ef4-1901-4c5f-92b2-2b57b1511962","system_id":"levelo_inurba_marseille","lat":43.27419,"lon":5.3941,"is_reserved":false,"is_disabled":false,"rental_uris":{"android":"levelo://app?vid=01f63ef4-1901-4c5f-92b2-2b57b1511962","ios":"levelo://app?vid=01f63ef4-1901-4c5f-92b2-2b57b1511962"},"vehicle_type_id":"4","last_reported":1758049652,"current_range_meters":12800,"station_id":"ce4bhdp2rcd13ifvqf20","pricing_plan_id":"cebpf4jnsgd1na2vs0mg"},{"bike_id":"99b1f494-78e2-48ab-b861-45d187280170","system_id":"levelo_inurba_marseille","lat":43.23189,"lon":5.39984,"is_reserved":false,"is_disabled":false,"rental_uris":{"android":"levelo://app?vid=99b1f494-78e2-48ab-b861-45d187280170","ios":"levelo://app?vid=99b1f494-78e2-48ab-b861-45d187280170"},"vehicle_type_id":"4","last_reported":1758049652,"current_range_meters":13600,"station_id":"ce4bhn12rcd13ifvqgqg","pricing_plan_id":"cebpf4jnsgd1na2vs0mg"},{"bike_id":"06707ba8-bbb4-425d-bc1e-4e105f447755","system_id":"levelo_inurba_marseille","lat":43.25076,"lon":5.39521,"is_reserved":false,"is_disabled":false,"rental_uris":{"android":"levelo://app?vid=06707ba8-bbb4-425d-bc1e-4e105f447755","ios":"levelo://app?vid=06707ba8-bbb4-425d-bc1e-4e105f447755"},"vehicle_type_id":"4","last_reported":1758049652,"current_range_meters":13600,"station_id":"ce4bhm12rcd13ifvqgkg","pricing_plan_id":"cebpf4jnsgd1na2vs0mg"},{"bike_id":"31f511c7-5088-4534-9bd5-9cce0442d874","system_id":"levelo_inurba_marseille","lat":43.25329,"lon":5.4217,"is_reserved":false,"is_disabled":false,"rental_uris":{"android":"levelo://app?vid=31f511c7-5088-4534-9bd5-9cce0442d874","ios":"levelo://app?vid=31f511c7-5088-4534-9bd5-9cce0442d874"},"vehicle_type_id":"4","last_reported":1758049652,"current_range_meters":13600,"station_id":"st_d2m65c5bi1j21697t3ng","pricing_plan_id":"cebpf4jnsgd1na2vs0mg"},{"bike_id":"a20305c3-1291-4951-91c0-102694e33104","system_id":"levelo_inurba_marseille","lat":43.25822,"lon":5.39429,"is_reserved":false,"is_disabled":false,"rental_uris":{"android":"levelo://app?vid=a20305c3-1291-4951-91c0-102694e33104","ios":"levelo://app?vid=a20305c3-1291-4951-91c0-102694e33104"},"vehicle_type_id":"4","last_reported":1758049652,"current_range_meters":13600,"station_id":"ce4bhip2rcd13ifvqft0","pricing_plan_id":"cebpf4jnsgd1na2vs0mg"},{"bike_id":"8722eefd-bcca-4e94-a8cb-3c2298ebf6f4","system_id":"levelo_inurba_marseille","lat":43.294465,"lon":5.375894,"is_reserved":false,"is_disabled":false,"rental_uris":{"android":"levelo://app?vid=8722eefd-bcca-4e94-a8cb-3c2298ebf6f4","ios":"levelo://app?vid=8722eefd-bcca-4e94-a8cb-3c2298ebf6f4"},"vehicle_type_id":"4","last_reported":1758049652,"current_range_meters":13600,"station_id":"ce4bh2p2rcd13ifvqdi0","pricing_plan_id":"cebpf4jnsgd1na2vs0mg"},{"bike_id":"583c2900-00f5-4b70-9599-2842868f2f31","system_id":"levelo_inurba_marseille","lat":43.29526,"lon":5.3903,"is_reserved":false,"is_disabled":false,"rental_uris":{"android":"levelo://app?vid=583c2900-00f5-4b70-9599-2842868f2f31","ios":"levelo://app?vid=583c2900-00f5-4b70-9599-2842868f2f31"},"vehicle_type_id":"4","last_reported":1758049652,"current_range_meters":13600,"station_id":"ce4bh3p2rcd13ifvqdp0","pricing_plan_id":"cebpf4jnsgd1na2vs0mg"},{"bike_id":"33402864-f5e0-47e4-8687-c925adfc3d24","system_id":"levelo_inurba_marseille","lat":43.24171,"lon":5.36402,"is_reserved":false,"is_disabled":false,"rental_uris":{"android":"levelo://app?vid=33402864-f5e0-47e4-8687-c925adfc3d24","ios":"levelo://app?vid=33402864-f5e0-47e4-8687-c925adfc3d24"},"vehicle_type_id":"4","last_reported":1758049652,"current_range_meters":13600,"station_id":"cpo36qri1sfpv3e86is0","pricing_plan_id":"cebpf4jnsgd1na2vs0mg"},{"bike_id":"a730cead-2310-48eb-b2f6-2242d2acc42c","system_id":"levelo_inurba_marseille","lat":43.29299,"lon":5.37462,"is_reserved":false,"is_disabled":false,"rental_uris":{"android":"levelo://app?vid=a730cead-2310-48eb-b2f6-2242d2acc42c","ios":"levelo://app?vid=a730cead-2310-48eb-b2f6-2242d2acc42c"},"vehicle_type_id":"4","last_reported":1758049652,"current_range_meters":14000,"station_id":"ce4bgi12rcd13ifvqb70","pricing_plan_id":"cebpf4jnsgd1na2vs0mg"},{"bike_id":"d93a2c0d-1d4c-48ef-81f1-65d5a13e58f0","system_id":"levelo_inurba_marseille","lat":43.273118,"lon":5.391101,"is_reserved":false,"is_disabled":false,"rental_uris":{"android":"levelo://app?vid=d93a2c0d-1d4c-48ef-81f1-65d5a13e58f0","ios":"levelo://app?vid=d93a2c0d-1d4c-48ef-81f1-65d5a13e58f0"},"vehicle_type_id":"4","last_reported":1758049652,"current_range_meters":14000,"station_id":"","pricing_plan_id":"cebpf4jnsgd1na2vs0mg"},{"bike_id":"56ec33ee-2816-4e06-b9ec-7c2237ee5a0c","system_id":"levelo_inurba_marseille","lat":43.2871,"lon":5.37392,"is_reserved":false,"is_disabled":false,"rental_uris":{"android":"levelo://app?vid=56ec33ee-2816-4e06-b9ec-7c2237ee5a0c","ios":"levelo://app?vid=56ec33ee-2816-4e06-b9ec-7c2237ee5a0c"},"vehicle_type_id":"4","last_reported":1758049652,"current_range_meters":14000,"station_id":"ce4bh3p2rcd13ifvqdq0","pricing_plan_id":"cebpf4jnsgd1na2vs0mg"},{"bike_id":"5f70cdaa-a853-4b0c-97be-36cca489f288","system_id":"levelo_inurba_marseille","lat":43.25119,"lon":5.40317,"is_reserved":false,"is_disabled":false,"rental_uris":{"android":"levelo://app?vid=5f70cdaa-a853-4b0c-97be-36cca489f288","ios":"levelo://app?vid=5f70cdaa-a853-4b0c-97be-36cca489f288"},"vehicle_type_id":"4","last_reported":1758049652,"current_range_meters":14000,"station_id":"ce4bhlh2rcd13ifvqgig","pricing_plan_id":"cebpf4jnsgd1na2vs0mg"},{"bike_id":"fa21e73d-c8aa-4f36-8ba1-a3558c27b218","system_id":"levelo_inurba_marseille","lat":43.28419,"lon":5.37522,"is_reserved":false,"is_disabled":false,"rental_uris":{"android":"levelo://app?vid=fa21e73d-c8aa-4f36-8ba1-a3558c27b218","ios":"levelo://app?vid=fa21e73d-c8aa-4f36-8ba1-a3558c27b218"},"vehicle_type_id":"4","last_reported":1758049652,"current_range_meters":14000,"station_id":"ce4bh412rcd13ifvqds0","pricing_plan_id":"cebpf4jnsgd1na2vs0mg"},{"bike_id":"1b8daad9-3829-40f8-98e4-16772fa3fc49","system_id":"levelo_inurba_marseille","lat":43.29543,"lon":5.38545,"is_reserved":false,"is_disabled":false,"rental_uris":{"android":"levelo://app?vid=1b8daad9-3829-40f8-98e4-16772fa3fc49","ios":"levelo://app?vid=1b8daad9-3829-40f8-98e4-16772fa3fc49"},"vehicle_type_id":"4","last_reported":1758049652,"current_range_meters":14000,"station_id":"ce4bgih2rcd13ifvqba0","pricing_plan_id":"cebpf4jnsgd1na2vs0mg"},{"bike_id":"a677a305-b439-4871-98c9-d30ace339d4a","system_id":"levelo_inurba_marseille","lat":43.29271,"lon":5.38437,"is_reserved":false,"is_disabled":false,"rental_uris":{"android":"levelo://app?vid=a677a305-b439-4871-98c9-d30ace339d4a","ios":"levelo://app?vid=a677a305-b439-4871-98c9-d30ace339d4a"},"vehicle_type_id":"4","last_reported":1758049652,"current_range_meters":14000,"station_id":"ce4bh692rcd13ifvqea0","pricing_plan_id":"cebpf4jnsgd1na2vs0mg"},{"bike_id":"76e349fa-bc9b-47a4-9c39-43f8ccd1efae","system_id":"levelo_inurba_marseille","lat":43.28043,"lon":5.36946,"is_reserved":false,"is_disabled":true,"rental_uris":{"android":"levelo://app?vid=76e349fa-bc9b-47a4-9c39-43f8ccd1efae","ios":"levelo://app?vid=76e349fa-bc9b-47a4-9c39-43f8ccd1efae"},"vehicle_type_id":"4","last_reported":1758049652,"current_range_meters":14000,"station_id":"ce4bha12rcd13ifvqef0","pricing_plan_id":"cebpf4jnsgd1na2vs0mg"},{"bike_id":"abdb25b3-3d97-46a8-8a51-63788e944e60","system_id":"levelo_inurba_marseille","lat":43.28686,"lon":5.38666,"is_reserved":false,"is_disabled":false,"rental_uris":{"android":"levelo://app?vid=abdb25b3-3d97-46a8-8a51-63788e944e60","ios":"levelo://app?vid=abdb25b3-3d97-46a8-8a51-63788e944e60"},"vehicle_type_id":"4","last_reported":1758049652,"current_range_meters":14000,"station_id":"ce4bh492rcd13ifvqdug","pricing_plan_id":"cebpf4jnsgd1na2vs0mg"},{"bike_id":"43812842-88f0-47f0-80e3-dcbede939e6e","system_id":"levelo_inurba_marseille","lat":43.29257,"lon":5.3845,"is_reserved":false,"is_disabled":false,"rental_uris":{"android":"levelo://app?vid=43812842-88f0-47f0-80e3-dcbede939e6e","ios":"levelo://app?vid=43812842-88f0-47f0-80e3-dcbede939e6e"},"vehicle_type_id":"4","last_reported":1758049652,"current_range_meters":14000,"station_id":"ce4bh692rcd13ifvqea0","pricing_plan_id":"cebpf4jnsgd1na2vs0mg"},{"bike_id":"5c0b2341-c41a-4f62-9e5f-92e6a593fad9","system_id":"levelo_inurba_marseille","lat":43.33792,"lon":5.37429,"is_reserved":false,"is_disabled":false,"rental_uris":{"android":"levelo://app?vid=5c0b2341-c41a-4f62-9e5f-92e6a593fad9","ios":"levelo://app?vid=5c0b2341-c41a-4f62-9e5f-92e6a593fad9"},"vehicle_type_id":"4","last_reported":1758049652,"current_range_meters":14400,"station_id":"","pricing_plan_id":"cebpf4jnsgd1na2vs0mg"},{"bike_id":"88afaa1b-722c-4e66-b0b1-2089195415c6","system_id":"levelo_inurba_marseille","lat":43.32356,"lon":5.389,"is_reserved":false,"is_disabled":false,"rental_uris":{"android":"levelo://app?vid=88afaa1b-722c-4e66-b0b1-2089195415c6","ios":"levelo://app?vid=88afaa1b-722c-4e66-b0b1-2089195415c6"},"vehicle_type_id":"4","last_reported":1758049652,"current_range_meters":14400,"station_id":"ce4bhqp2rcd13ifvqhog","pricing_plan_id":"cebpf4jnsgd1na2vs0mg"},{"bike_id":"11555ead-152a-4e2f-ac3e-7aaa852c50e5","system_id":"levelo_inurba_marseille","lat":43.225326,"lon":5.348358,"is_reserved":false,"is_disabled":false,"rental_uris":{"android":"levelo://app?vid=11555ead-152a-4e2f-ac3e-7aaa852c50e5","ios":"levelo://app?vid=11555ead-152a-4e2f-ac3e-7aaa852c50e5"},"vehicle_type_id":"4","last_reported":1758049652,"current_range_meters":14400,"station_id":"","pricing_plan_id":"cebpf4jnsgd1na2vs0mg"},{"bike_id":"8f4ad0b8-766d-4695-bb86-4d7675cfc837","system_id":"levelo_inurba_marseille","lat":43.24811,"lon":5.37463,"is_reserved":false,"is_disabled":false,"rental_uris":{"android":"levelo://app?vid=8f4ad0b8-766d-4695-bb86-4d7675cfc837","ios":"levelo://app?vid=8f4ad0b8-766d-4695-bb86-4d7675cfc837"},"vehicle_type_id":"4","last_reported":1758049652,"current_range_meters":14400,"station_id":"ce4bhgh2rcd13ifvqfb0","pricing_plan_id":"cebpf4jnsgd1na2vs0mg"},{"bike_id":"14debadb-7e1e-4275-a3de-829f1bd2403f","system_id":"levelo_inurba_marseille","lat":43.31033,"lon":5.38356,"is_reserved":false,"is_disabled":true,"rental_uris":{"android":"levelo://app?vid=14debadb-7e1e-4275-a3de-829f1bd2403f","ios":"levelo://app?vid=14debadb-7e1e-4275-a3de-829f1bd2403f"},"vehicle_type_id":"4","last_reported":1758049652,"current_range_meters":14400,"station_id":"","pricing_plan_id":"cebpf4jnsgd1na2vs0mg"},{"bike_id":"8af53353-2322-4db0-b73e-995429d628d4","system_id":"levelo_inurba_marseille","lat":43.25123,"lon":5.40316,"is_reserved":false,"is_disabled":false,"rental_uris":{"android":"levelo://app?vid=8af53353-2322-4db0-b73e-995429d628d4","ios":"levelo://app?vid=8af53353-2322-4db0-b73e-995429d628d4"},"vehicle_type_id":"4","last_reported":1758049652,"current_range_meters":14400,"station_id":"ce4bhlh2rcd13ifvqgig","pricing_plan_id":"cebpf4jnsgd1na2vs0mg"},{"bike_id":"82e0bfcc-bba2-4c2c-9484-d3ca3b13a18b","system_id":"levelo_inurba_marseille","lat":43.29448,"lon":5.3756,"is_reserved":false,"is_disabled":false,"rental_uris":{"android":"levelo://app?vid=82e0bfcc-bba2-4c2c-9484-d3ca3b13a18b","ios":"levelo://app?vid=82e0bfcc-bba2-4c2c-9484-d3ca3b13a18b"},"vehicle_type_id":"4","last_reported":1758049652,"current_range_meters":14400,"station_id":"","pricing_plan_id":"cebpf4jnsgd1na2vs0mg"},{"bike_id":"64b1deee-ef02-45e9-a66a-3e5e20b8d612","system_id":"levelo_inurba_marseille","lat":43.299284,"lon":5.385203,"is_reserved":false,"is_disabled":false,"rental_uris":{"android":"levelo://app?vid=64b1deee-ef02-45e9-a66a-3e5e20b8d612","ios":"levelo://app?vid=64b1deee-ef02-45e9-a66a-3e5e20b8d612"},"vehicle_type_id":"4","last_reported":1758049652,"current_range_meters":14400,"station_id":"ce4bgop2rcd13ifvqc1g","pricing_plan_id":"cebpf4jnsgd1na2vs0mg"},{"bike_id":"3f4c950d-0547-45aa-b580-672600f39c7b","system_id":"levelo_inurba_marseille","lat":43.29301,"lon":5.37459,"is_reserved":false,"is_disabled":false,"rental_uris":{"android":"levelo://app?vid=3f4c950d-0547-45aa-b580-672600f39c7b","ios":"levelo://app?vid=3f4c950d-0547-45aa-b580-672600f39c7b"},"vehicle_type_id":"4","last_reported":1758049652,"current_range_meters":14400,"station_id":"ce4bgi12rcd13ifvqb70","pricing_plan_id":"cebpf4jnsgd1na2vs0mg"},{"bike_id":"95b16418-1fed-482c-9cbc-f6b0439b8748","system_id":"levelo_inurba_marseille","lat":43.295251,"lon":5.385391,"is_reserved":false,"is_disabled":false,"rental_uris":{"android":"levelo://app?vid=95b16418-1fed-482c-9cbc-f6b0439b8748","ios":"levelo://app?vid=95b16418-1fed-482c-9cbc-f6b0439b8748"},"vehicle_type_id":"4","last_reported":1758049652,"current_range_meters":14400,"station_id":"ce4bgih2rcd13ifvqba0","pricing_plan_id":"cebpf4jnsgd1na2vs0mg"},{"bike_id":"40495e59-b743-486e-987c-cb0c3ab2f191","system_id":"levelo_inurba_marseille","lat":43.330443,"lon":5.410415,"is_reserved":false,"is_disabled":false,"rental_uris":{"android":"levelo://app?vid=40495e59-b743-486e-987c-cb0c3ab2f191","ios":"levelo://app?vid=40495e59-b743-486e-987c-cb0c3ab2f191"},"vehicle_type_id":"4","last_reported":1758049652,"current_range_meters":14400,"station_id":"","pricing_plan_id":"cebpf4jnsgd1na2vs0mg"},{"bike_id":"feb852ef-8739-49ae-a02d-c2ec0ffadd8b","system_id":"levelo_inurba_marseille","lat":43.30595,"lon":5.39361,"is_reserved":false,"is_disabled":false,"rental_uris":{"android":"levelo://app?vid=feb852ef-8739-49ae-a02d-c2ec0ffadd8b","ios":"levelo://app?vid=feb852ef-8739-49ae-a02d-c2ec0ffadd8b"},"vehicle_type_id":"4","last_reported":1758049652,"current_range_meters":14400,"station_id":"ce4bh0p2rcd13ifvqd80","pricing_plan_id":"cebpf4jnsgd1na2vs0mg"},{"bike_id":"c8298fe6-8a38-4cbe-8fc1-5b4bd0e2bb06","system_id":"levelo_inurba_marseille","lat":43.22931,"lon":5.35381,"is_reserved":false,"is_disabled":false,"rental_uris":{"android":"levelo://app?vid=c8298fe6-8a38-4cbe-8fc1-5b4bd0e2bb06","ios":"levelo://app?vid=c8298fe6-8a38-4cbe-8fc1-5b4bd0e2bb06"},"vehicle_type_id":"4","last_reported":1758049652,"current_range_meters":14400,"station_id":"cpo3532slgdg3j2ikp40","pricing_plan_id":"cebpf4jnsgd1na2vs0mg"},{"bike_id":"41d60169-96e0-4d91-a133-20ac05fc74ed","system_id":"levelo_inurba_marseille","lat":43.287,"lon":5.37392,"is_reserved":false,"is_disabled":false,"rental_uris":{"android":"levelo://app?vid=41d60169-96e0-4d91-a133-20ac05fc74ed","ios":"levelo://app?vid=41d60169-96e0-4d91-a133-20ac05fc74ed"},"vehicle_type_id":"4","last_reported":1758049652,"current_range_meters":14800,"station_id":"ce4bh3p2rcd13ifvqdq0","pricing_plan_id":"cebpf4jnsgd1na2vs0mg"},{"bike_id":"003515e8-8117-44bb-979d-5f47e8d50fda","system_id":"levelo_inurba_marseille","lat":43.3059,"lon":5.37574,"is_reserved":false,"is_disabled":false,"rental_uris":{"android":"levelo://app?vid=003515e8-8117-44bb-979d-5f47e8d50fda","ios":"levelo://app?vid=003515e8-8117-44bb-979d-5f47e8d50fda"},"vehicle_type_id":"4","last_reported":1758049652,"current_range_meters":14800,"station_id":"","pricing_plan_id":"cebpf4jnsgd1na2vs0mg"},{"bike_id":"e633abad-34b5-466b-ba47-17770d52c995","system_id":"levelo_inurba_marseille","lat":43.26951,"lon":5.38635,"is_reserved":false,"is_disabled":false,"rental_uris":{"android":"levelo://app?vid=e633abad-34b5-466b-ba47-17770d52c995","ios":"levelo://app?vid=e633abad-34b5-466b-ba47-17770d52c995"},"vehicle_type_id":"4","last_reported":1758049652,"current_range_meters":14800,"station_id":"ce4bhh92rcd13ifvqfh0","pricing_plan_id":"cebpf4jnsgd1na2vs0mg"},{"bike_id":"fd3b4146-0073-4a79-82a9-bfaee63ff612","system_id":"levelo_inurba_marseille","lat":43.29434,"lon":5.38609,"is_reserved":false,"is_disabled":false,"rental_uris":{"android":"levelo://app?vid=fd3b4146-0073-4a79-82a9-bfaee63ff612","ios":"levelo://app?vid=fd3b4146-0073-4a79-82a9-bfaee63ff612"},"vehicle_type_id":"4","last_reported":1758049652,"current_range_meters":14800,"station_id":"","pricing_plan_id":"cebpf4jnsgd1na2vs0mg"},{"bike_id":"ef68e4ac-4246-4420-8a0c-68568348f03e","system_id":"levelo_inurba_marseille","lat":43.29271,"lon":5.38446,"is_reserved":false,"is_disabled":false,"rental_uris":{"android":"levelo://app?vid=ef68e4ac-4246-4420-8a0c-68568348f03e","ios":"levelo://app?vid=ef68e4ac-4246-4420-8a0c-68568348f03e"},"vehicle_type_id":"4","last_reported":1758049652,"current_range_meters":14800,"station_id":"ce4bh692rcd13ifvqea0","pricing_plan_id":"cebpf4jnsgd1na2vs0mg"},