{"last_updated":1761293683,"ttl":60,"version":"2.2","data":{"bikes":[{"bike_id":"e6f4e10e-6d72-487a-8252-3250c4b27f98","system_id":"levelo_inurba_marseille","lat":43.21178,"lon":5.35077,"is_reserved":false,"is_disabled":false,"rental_uris":{"android":"levelo://app?vid=e6f4e10e-6d72-487a-8252-3250c4b27f98","ios":"levelo://app?vid=e6f4e10e-6d72-487a-8252-3250c4b27f98"},"vehicle_type_id":"4","last_reported":1761293683,"current_range_meters":2800,"station_id":"st_cvj6sg6p6f1abm77japg","pricing_plan_id":"cebpf4jnsgd1na2vs0mg"},{"bike_id":"475147e1-2ba6-4090-bcdd-279fe6b1861b","system_id":"levelo_inurba_marseille","lat":43.279623,"lon":5.387652,"is_reserved":false,"is_disabled":false,"rental_uris":{"android":"levelo://app?vid=475147e1-2ba6-4090-bcdd-279fe6b1861b","ios":"levelo://app?vid=475147e1-2ba6-4090-bcdd-279fe6b1861b"},"vehicle_type_id":"4","last_reported":1761293683,"current_range_meters":3200,"station_id":"ce4bhg12rcd13ifvqf80","pricing_plan_id":"cebpf4jnsgd1na2vs0mg"},{"bike_id":"c52ec30d-b40c-4c3d-976d-1c1135f73d8c","system_id":"levelo_inurba_marseille","lat":43.305458,"lon":5.367032,"is_reserved":false,"is_disabled":true,"rental_uris":{"android":"levelo://app?vid=c52ec30d-b40c-4c3d-976d-1c1135f73d8c","ios":"levelo://app?vid=c52ec30d-b40c-4c3d-976d-1c1135f73d8c"},"vehicle_type_id":"4","last_reported":1761293683,"current_range_meters":3600,"station_id":"","pricing_plan_id":"cebpf4jnsgd1na2vs0mg"},{"bike_id":"42ff1fd7-0ae2-4c9b-bb71-4e602b26476f","system_id":"levelo_inurba_marseille","lat":43.23154,"lon":5.43704,"is_reserved":false,"is_disabled":false,"rental_uris":{"android":"levelo://app?vid=42ff1fd7-0ae2-4c9b-bb71-4e602b26476f","ios":"levelo://app?vid=42ff1fd7-0ae2-4c9b-bb71-4e602b26476f"},"vehicle_type_id":"4","last_reported":1761293683,"current_range_meters":3600,"station_id":"ce4bhmp2rcd13ifvqgog","pricing_plan_id":"cebpf4jnsgd1na2vs0mg"},{"bike_id":"ff3ba630-dc04-489c-b422-8721b9ddc862","system_id":"levelo_inurba_marseille","lat":43.29815,"lon":5.37797,"is_reserved":false,"is_disabled":false,"rental_uris":{"android":"levelo://app?vid=ff3ba630-dc04-489c-b422-8721b9ddc862","ios":"levelo://app?vid=ff3ba630-dc04-489c-b422-8721b9ddc862"},"vehicle_type_id":"4","last_reported":1761293683,"current_range_meters":3600,"station_id":"","pricing_plan_id":"cebpf4jnsgd1na2vs0mg"},{"bike_id":"30a35467-9330-4aef-b934-aa888fcac462","system_id":"levelo_inurba_marseille","lat":43.31337,"lon":5.36723,"is_reserved":false,"is_disabled":false,"rental_uris":{"android":"levelo://app?vid=30a35467-9330-4aef-b934-aa888fcac462","ios":"levelo://app?vid=30a35467-9330-4aef-b934-aa888fcac462"},"vehicle_type_id":"4","last_reported":1761293683,"current_range_meters":3600,"station_id":"ce4bgr92rcd13ifvqc6g","pricing_plan_id":"cebpf4jnsgd1na2vs0mg"},{"bike_id":"dc1111c9-f771-40f9-a12e-17c92306e799","system_id":"levelo_inurba_marseille","lat":43.31481,"lon":5.36583,"is_reserved":false,"is_disabled":false,"rental_uris":{"android":"levelo://app?vid=dc1111c9-f771-40f9-a12e-17c92306e799","ios":"levelo://app?vid=dc1111c9-f771-40f9-a12e-17c92306e799"},"vehicle_type_id":"4","last_reported":1761293683,"current_range_meters":3600,"station_id":"","pricing_plan_id":"cebpf4jnsgd1na2vs0mg"},{"bike_id":"b5427706-a408-4166-88d4-5a4de36339a0","system_id":"levelo_inurba_marseille","lat":43.29024,"lon":5.38132,"is_reserved":false,"is_disabled":false,"rental_uris":{"android":"levelo://app?vid=b5427706-a408-4166-88d4-5a4de36339a0","ios":"levelo://app?vid=b5427706-a408-4166-88d4-5a4de36339a0"},"vehicle_type_id":"4","last_reported":1761293683,"current_range_meters":3600,"station_id":"ce4bh4p2rcd13ifvqe1g","pricing_plan_id":"cebpf4jnsgd1na2vs0mg"},{"bike_id":"82576c51-8b9b-43eb-aa43-fc4a18c9ea5b","system_id":"levelo_inurba_marseille","lat":43.2176,"lon":5.34598,"is_reserved":false,"is_disabled":false,"rental_uris":{"android":"levelo://app?vid=82576c51-8b9b-43eb-aa43-fc4a18c9ea5b","ios":"levelo://app?vid=82576c51-8b9b-43eb-aa43-fc4a18c9ea5b"},"vehicle_type_id":"4","last_reported":1761293683,"current_range_meters":4000,"station_id":"st_cvj6r9ubvosntc0bgbag","pricing_plan_id":"cebpf4jnsgd1na2vs0mg"},{"bike_id":"5154a955-0975-48d8-b36b-2902c7d3f227","system_id":"levelo_inurba_marseille","lat":43.27611,"lon":5.36107,"is_reserved":false,"is_disabled":false,"rental_uris":{"android":"levelo://app?vid=5154a955-0975-48d8-b36b-2902c7d3f227","ios":"levelo://app?vid=5154a955-0975-48d8-b36b-2902c7d3f227"},"vehicle_type_id":"4","last_reported":1761293683,"current_range_meters":4000,"station_id":"ce4bgj92rcd13ifvqbe0","pricing_plan_id":"cebpf4jnsgd1na2vs0mg"},{"bike_id":"f41ab472-f30b-41f5-a828-9333938cfc6a","system_id":"levelo_inurba_marseille","lat":43.30946,"lon":5.39064,"is_reserved":false,"is_disabled":false,"rental_uris":{"android":"levelo://app?vid=f41ab472-f30b-41f5-a828-9333938cfc6a","ios":"levelo://app?vid=f41ab472-f30b-41f5-a828-9333938cfc6a"},"vehicle_type_id":"4","last_reported":1761293683,"current_range_meters":4400,"station_id":"ce4bgup2rcd13ifvqco0","pricing_plan_id":"cebpf4jnsgd1na2vs0mg"},{"bike_id":"2bee3bab-9e2e-4506-bc49-7a4200eb5083","system_id":"levelo_inurba_marseille","lat":43.30305,"lon":5.39207,"is_reserved":false,"is_disabled":false,"rental_uris":{"android":"levelo://app?vid=2bee3bab-9e2e-4506-bc49-7a4200eb5083","ios":"levelo://app?vid=2bee3bab-9e2e-4506-bc49-7a4200eb5083"},"vehicle_type_id":"4","last_reported":1761293683,"current_range_meters":4400,"station_id":"ce4bgkh2rcd13ifvqbk0","pricing_plan_id":"cebpf4jnsgd1na2vs0mg"},{"bike_id":"2a2dee77-d12b-4cac-9a6a-a6f3a6501641","system_id":"levelo_inurba_marseille","lat":43.308214,"lon":5.403671,"is_reserved":false,"is_disabled":false,"rental_uris":{"android":"levelo://app?vid=2a2dee77-d12b-4cac-9a6a-a6f3a6501641","ios":"levelo://app?vid=2a2dee77-d12b-4cac-9a6a-a6f3a6501641"},"vehicle_type_id":"4","last_reported":1761293683,"current_range_meters":4400,"station_id":"ce4bh112rcd13ifvqda0","pricing_plan_id":"cebpf4jnsgd1na2vs0mg"},{"bike_id":"bb66f165-676b-4876-bdef-5b02a4997558","system_id":"levelo_inurba_marseille","lat":43.30956,"lon":5.39062,"is_reserved":false,"is_disabled":false,"rental_uris":{"android":"levelo://app?vid=bb66f165-676b-4876-bdef-5b02a4997558","ios":"levelo://app?vid=bb66f165-676b-4876-bdef-5b02a4997558"},"vehicle_type_id":"4","last_reported":1761293683,"current_range_meters":4400,"station_id":"ce4bgup2rcd13ifvqco0","pricing_plan_id":"cebpf4jnsgd1na2vs0mg"},{"bike_id":"f3efb067-32db-4fd5-a6c7-ed1c6ebbf69d","system_id":"levelo_inurba_marseille","lat":43.211875,"lon":5.350803,"is_reserved":false,"is_disabled":false,"rental_uris":{"android":"levelo://app?vid=f3efb067-32db-4fd5-a6c7-ed1c6ebbf69d","ios":"levelo://app?vid=f3efb067-32db-4fd5-a6c7-ed1c6ebbf69d"},"vehicle_type_id":"4","last_reported":1761293683,"current_range_meters":4400,"station_id":"st_cvj6sg6p6f1abm77japg","pricing_plan_id":"cebpf4jnsgd1na2vs0mg"},{"bike_id":"33e9f939-6fda-4004-85c7-17d0e3416aff","system_id":"levelo_inurba_marseille","lat":43.26328,"lon":5.39647,"is_reserved":false,"is_disabled":false,"rental_uris":{"android":"levelo://app?vid=33e9f939-6fda-4004-85c7-17d0e3416aff","ios":"levelo://app?vid=33e9f939-6fda-4004-85c7-17d0e3416aff"},"vehicle_type_id":"4","last_reported":1761293683,"current_range_meters":4400,"station_id":"","pricing_plan_id":"cebpf4jnsgd1na2vs0mg"},{"bike_id":"dec5519d-8ba3-4dba-9cce-d060e2af4031","system_id":"levelo_inurba_marseille","lat":43.31474,"lon":5.37272,"is_reserved":false,"is_disabled":false,"rental_uris":{"android":"levelo://app?vid=dec5519d-8ba3-4dba-9cce-d060e2af4031","ios":"levelo://app?vid=dec5519d-8ba3-4dba-9cce-d060e2af4031"},"vehicle_type_id":"4","last_reported":1761293683,"current_range_meters":4800,"station_id":"ce4bgt12rcd13ifvqcd0","pricing_plan_id":"cebpf4jnsgd1na2vs0mg"},{"bike_id":"4563b386-40fd-4e79-86fc-0745bc9fbf68","system_id":"levelo_inurba_marseille","lat":43.299703,"lon":5.384932,"is_reserved":false,"is_disabled":false,"rental_uris":{"android":"levelo://app?vid=4563b386-40fd-4e79-86fc-0745bc9fbf68","ios":"levelo://app?vid=4563b386-40fd-4e79-86fc-0745bc9fbf68"},"vehicle_type_id":"4","last_reported":1761293683,"current_range_meters":4800,"station_id":"ce4bgj92rcd13ifvqbd0","pricing_plan_id":"cebpf4jnsgd1na2vs0mg"},{"bike_id":"37d01fc8-4b4d-4652-a489-1254eb9d4c80","system_id":"levelo_inurba_marseille","lat":43.34076,"lon":5.40411,"is_reserved":false,"is_disabled":false,"rental_uris":{"android":"levelo://app?vid=37d01fc8-4b4d-4652-a489-1254eb9d4c80","ios":"levelo://app?vid=37d01fc8-4b4d-4652-a489-1254eb9d4c80"},"vehicle_type_id":"4","last_reported":1761293683,"current_range_meters":4800,"station_id":"","pricing_plan_id":"cebpf4jnsgd1na2vs0mg"},{"bike_id":"de886441-9b45-405b-8322-37f25502cc22","system_id":"levelo_inurba_marseille","lat":43.29965,"lon":5.37183,"is_reserved":false,"is_disabled":false,"rental_uris":{"android":"levelo://app?vid=de886441-9b45-405b-8322-37f25502cc22","ios":"levelo://app?vid=de886441-9b45-405b-8322-37f25502cc22"},"vehicle_type_id":"4","last_reported":1761293683,"current_range_meters":4800,"station_id":"ce4bgr92rcd13ifvqc7g","pricing_plan_id":"cebpf4jnsgd1na2vs0mg"},{"bike_id":"b60aea4a-75b7-4c69-98ed-c01308fd32cc","system_id":"levelo_inurba_marseille","lat":43.269541,"lon":5.386384,"is_reserved":false,"is_disabled":false,"rental_uris":{"android":"levelo://app?vid=b60aea4a-75b7-4c69-98ed-c01308fd32cc","ios":"levelo://app?vid=b60aea4a-75b7-4c69-98ed-c01308fd32cc"},"vehicle_type_id":"4","last_reported":1761293683,"current_range_meters":4800,"station_id":"ce4bhh92rcd13ifvqfh0","pricing_plan_id":"cebpf4jnsgd1na2vs0mg"},{"bike_id":"de88b060-a8d3-4631-9b2a-19bac33a1a68","system_id":"levelo_inurba_marseille","lat":43.307419,"lon":5.424305,"is_reserved":false,"is_disabled":false,"rental_uris":{"android":"levelo://app?vid=de88b060-a8d3-4631-9b2a-19bac33a1a68","ios":"levelo://app?vid=de88b060-a8d3-4631-9b2a-19bac33a1a68"},"vehicle_type_id":"4","last_reported":1761293683,"current_range_meters":4800,"station_id":"st_cvj6ca6bvosntc0bfgr0","pricing_plan_id":"cebpf4jnsgd1na2vs0mg"},{"bike_id":"aee9ce70-60ef-46f3-b2de-34602bad317b","system_id":"levelo_inurba_marseille","lat":43.27373,"lon":5.36254,"is_reserved":false,"is_disabled":false,"rental_uris":{"android":"levelo://app?vid=aee9ce70-60ef-46f3-b2de-34602bad317b","ios":"levelo://app?vid=aee9ce70-60ef-46f3-b2de-34602bad317b"},"vehicle_type_id":"4","last_reported":1761293683,"current_range_meters":5600,"station_id":"ce4bhbh2rcd13ifvqeo0","pricing_plan_id":"cebpf4jnsgd1na2vs0mg"},{"bike_id":"da83231d-40a9-4f6e-a50c-353e5acddcdf","system_id":"levelo_inurba_marseille","lat":43.31703,"lon":5.37759,"is_reserved":false,"is_disabled":false,"rental_uris":{"android":"levelo://app?vid=da83231d-40a9-4f6e-a50c-353e5acddcdf","ios":"levelo://app?vid=da83231d-40a9-4f6e-a50c-353e5acddcdf"},"vehicle_type_id":"4","last_reported":1761293683,"current_range_meters":5600,"station_id":"ce4bgth2rcd13ifvqch0","pricing_plan_id":"cebpf4jnsgd1na2vs0mg"},{"bike_id":"1b53e2aa-2fdd-4f4a-b400-5ad00b991da0","system_id":"levelo_inurba_marseille","lat":43.28839,"lon":5.39298,"is_reserved":false,"is_disabled":false,"rental_uris":{"android":"levelo://app?vid=1b53e2aa-2fdd-4f4a-b400-5ad00b991da0","ios":"levelo://app?vid=1b53e2aa-2fdd-4f4a-b400-5ad00b991da0"},"vehicle_type_id":"4","last_reported":1761293683,"current_range_meters":5600,"station_id":"ce4bh2p2rcd13ifvqdi0","pricing_plan_id":"cebpf4jnsgd1na2vs0mg"},{"bike_id":"6e641208-3689-4c2a-8927-f41865762964","system_id":"levelo_inurba_marseille","lat":43.29003,"lon":5.35608,"is_reserved":false,"is_disabled":false,"rental_uris":{"android":"levelo://app?vid=6e641208-3689-4c2a-8927-f41865762964","ios":"levelo://app?vid=6e641208-3689-4c2a-8927-f41865762964"},"vehicle_type_id":"4","last_reported":1761293683,"current_range_meters":6000,"station_id":"ce4bhb92rcd13ifvqen0","pricing_plan_id":"cebpf4jnsgd1na2vs0mg"},{"bike_id":"3aa8c3e6-230d-4538-ac39-2b944611f536","system_id":"levelo_inurba_marseille","lat":43.31447,"lon":5.36713,"is_reserved":false,"is_disabled":true,"rental_uris":{"android":"levelo://app?vid=3aa8c3e6-230d-4538-ac39-2b944611f536","ios":"levelo://app?vid=3aa8c3e6-230d-4538-ac39-2b944611f536"},"vehicle_type_id":"4","last_reported":1761293683,"current_range_meters":6000,"station_id":"","pricing_plan_id":"cebpf4jnsgd1na2vs0mg"},{"bike_id":"f35670f7-dc2b-4003-84ac-459b0da35f77","system_id":"levelo_inurba_marseille","lat":43.265571,"lon":5.373111,"is_reserved":false,"is_disabled":false,"rental_uris":{"android":"levelo://app?vid=f35670f7-dc2b-4003-84ac-459b0da35f77","ios":"levelo://app?vid=f35670f7-dc2b-4003-84ac-459b0da35f77"},"vehicle_type_id":"4","last_reported":1761293683,"current_range_meters":6400,"station_id":"ce4bhg12rcd13ifvqf70","pricing_plan_id":"cebpf4jnsgd1na2vs0mg"},{"bike_id":"a062e9f7-86f6-4c20-9309-11aa99fbeee9","system_id":"levelo_inurba_marseille","lat":43.26558,"lon":5.3904,"is_reserved":false,"is_disabled":false,"rental_uris":{"android":"levelo://app?vid=a062e9f7-86f6-4c20-9309-11aa99fbeee9","ios":"levelo://app?vid=a062e9f7-86f6-4c20-9309-11aa99fbeee9"},"vehicle_type_id":"4","last_reported":1761293683,"current_range_meters":6400,"station_id":"ce4bhe12rcd13ifvqf30","pricing_plan_id":"cebpf4jnsgd1na2vs0mg"},{"bike_id":"25330c85-a182-4553-a5ec-deab81dc033a","system_id":"levelo_inurba_marseille","lat":43.2954,"lon":5.37512,"is_reserved":false,"is_disabled":false,"rental_uris":{"android":"levelo://app?vid=25330c85-a182-4553-a5ec-deab81dc033a","ios":"levelo://app?vid=25330c85-a182-4553-a5ec-deab81dc033a"},"vehicle_type_id":"4","last_reported":1761293683,"current_range_meters":6400,"station_id":"ce4bgkp2rcd13ifvqbmg","pricing_plan_id":"cebpf4jnsgd1na2vs0mg"},{"bike_id":"285dd874-bd16-44c1-9b43-116f4135f2c1","system_id":"levelo_inurba_marseille","lat":43.28874,"lon":5.42534,"is_reserved":false,"is_disabled":false,"rental_uris":{"android":"levelo://app?vid=285dd874-bd16-44c1-9b43-116f4135f2c1","ios":"levelo://app?vid=285dd874-bd16-44c1-9b43-116f4135f2c1"},"vehicle_type_id":"4","last_reported":1761293683,"current_range_meters":6400,"station_id":"st_d3b462108ojc7389ooeg","pricing_plan_id":"cebpf4jnsgd1na2vs0mg"},{"bike_id":"b6ddbf1a-02d3-4cce-a604-0bd40139fbb5","system_id":"levelo_inurba_marseille","lat":43.336076,"lon":5.410374,"is_reserved":false,"is_disabled":false,"rental_uris":{"android":"levelo://app?vid=b6ddbf1a-02d3-4cce-a604-0bd40139fbb5","ios":"levelo://app?vid=b6ddbf1a-02d3-4cce-a604-0bd40139fbb5"},"vehicle_type_id":"4","last_reported":1761293683,"current_range_meters":6800,"station_id":"ce4bhqh2rcd13ifvqhmg","pricing_plan_id":"cebpf4jnsgd1na2vs0mg"},{"bike_id":"aa5c39ca-5467-4d85-a1f8-b790dbb0979e","system_id":"levelo_inurba_marseille","lat":43.30974,"lon":5.38594,"is_reserved":false,"is_disabled":false,"rental_uris":{"android":"levelo://app?vid=aa5c39ca-5467-4d85-a1f8-b790dbb0979e","ios":"levelo://app?vid=aa5c39ca-5467-4d85-a1f8-b790dbb0979e"},"vehicle_type_id":"4","last_reported":1761293683,"current_range_meters":6800,"station_id":"","pricing_plan_id":"cebpf4jnsgd1na2vs0mg"},{"bike_id":"4eae2ec4-8862-466e-a3d9-395cca4276d0","system_id":"levelo_inurba_marseille","lat":43.303778,"lon":5.375945,"is_reserved":false,"is_disabled":false,"rental_uris":{"android":"levelo://app?vid=4eae2ec4-8862-466e-a3d9-395cca4276d0","ios":"levelo://app?vid=4eae2ec4-8862-466e-a3d9-395cca4276d0"},"vehicle_type_id":"4","last_reported":1761293683,"current_range_meters":6800,"station_id":"","pricing_plan_id":"cebpf4jnsgd1na2vs0mg"},{"bike_id":"3167c122-43fa-497a-bf85-d0a6522abe7a","system_id":"levelo_inurba_marseille","lat":43.32757,"lon":5.37518,"is_reserved":false,"is_disabled":false,"rental_uris":{"android":"levelo://app?vid=3167c122-43fa-497a-bf85-d0a6522abe7a","ios":"levelo://app?vid=3167c122-43fa-497a-bf85-d0a6522abe7a"},"vehicle_type_id":"4","last_reported":1761293683,"current_range_meters":7200,"station_id":"","pricing_plan_id":"cebpf4jnsgd1na2vs0mg"},{"bike_id":"e516c4e2-68e1-4e4c-a60c-633cbf5ac4f7","system_id":"levelo_inurba_marseille","lat":43.311107,"lon":5.377624,"is_reserved":false,"is_disabled":false,"rental_uris":{"android":"levelo://app?vid=e516c4e2-68e1-4e4c-a60c-633cbf5ac4f7","ios":"levelo://app?vid=e516c4e2-68e1-4e4c-a60c-633cbf5ac4f7"},"vehicle_type_id":"4","last_reported":1761293683,"current_range_meters":7200,"station_id":"","pricing_plan_id":"cebpf4jnsgd1na2vs0mg"},{"bike_id":"cd0cadb0-3b2e-465b-9d15-7d593ef08f95","system_id":"levelo_inurba_marseille","lat":43.26368,"lon":5.39671,"is_reserved":false,"is_disabled":false,"rental_uris":{"android":"levelo://app?vid=cd0cadb0-3b2e-465b-9d15-7d593ef08f95","ios":"levelo://app?vid=cd0cadb0-3b2e-465b-9d15-7d593ef08f95"},"vehicle_type_id":"4","last_reported":1761293683,"current_range_meters":7200,"station_id":"","pricing_plan_id":"cebpf4jnsgd1na2vs0mg"},{"bike_id":"c8c0fa58-a519-4343-9887-b0c694f93aef","system_id":"levelo_inurba_marseille","lat":43.28863,"lon":5.425123,"is_reserved":false,"is_disabled":false,"rental_uris":{"android":"levelo://app?vid=c8c0fa58-a519-4343-9887-b0c694f93aef","ios":"levelo://app?vid=c8c0fa58-a519-4343-9887-b0c694f93aef"},"vehicle_type_id":"4","last_reported":1761293683,"current_range_meters":8000,"station_id":"st_d3b462108ojc7389ooeg","pricing_plan_id":"cebpf4jnsgd1na2vs0mg"},{"bike_id":"9eb76964-9177-4eff-9495-a563bd756e8c","system_id":"levelo_inurba_marseille","lat":43.289397,"lon":5.366353,"is_reserved":false,"is_disabled":true,"rental_uris":{"android":"levelo://app?vid=9eb76964-9177-4eff-9495-a563bd756e8c","ios":"levelo://app?vid=9eb76964-9177-4eff-9495-a563bd756e8c"},"vehicle_type_id":"4","last_reported":1761293683,"current_range_meters":8000,"station_id":"ce4bhap2rcd13ifvqek0","pricing_plan_id":"cebpf4jnsgd1na2vs0mg"},{"bike_id":"1dfcac1f-3ebd-4793-b03c-00c4ed322a7b","system_id":"levelo_inurba_marseille","lat":43.2549,"lon":5.37645,"is_reserved":false,"is_disabled":false,"rental_uris":{"android":"levelo://app?vid=1dfcac1f-3ebd-4793-b03c-00c4ed322a7b","ios":"levelo://app?vid=1dfcac1f-3ebd-4793-b03c-00c4ed322a7b"},"vehicle_type_id":"4","last_reported":1761293683,"current_range_meters":8000,"station_id":"ce4bhh12rcd13ifvqff0","pricing_plan_id":"cebpf4jnsgd1na2vs0mg"},{"bike_id":"fc9d7d2f-ff21-4918-bc30-aa5280f19ca4","system_id":"levelo_inurba_marseille","lat":43.2619,"lon":5.37446,"is_reserved":false,"is_disabled":false,"rental_uris":{"android":"levelo://app?vid=fc9d7d2f-ff21-4918-bc30-aa5280f19ca4","ios":"levelo://app?vid=fc9d7d2f-ff21-4918-bc30-aa5280f19ca4"},"vehicle_type_id":"4","last_reported":1761293683,"current_range_meters":8000,"station_id":"ce4bhgp2rcd13ifvqfc0","pricing_plan_id":"cebpf4jnsgd1na2vs0mg"},{"bike_id":"d903f979-169e-46c5-963f-4923180198d6","system_id":"levelo_inurba_marseille","lat":43.30552,"lon":5.36564,"is_reserved":false,"is_disabled":false,"rental_uris":{"android":"levelo://app?vid=d903f979-169e-46c5-963f-4923180198d6","ios":"levelo://app?vid=d903f979-169e-46c5-963f-4923180198d6"},"vehicle_type_id":"4","last_reported":1761293683,"current_range_meters":8000,"station_id":"ce4bgs12rcd13ifvqcag","pricing_plan_id":"cebpf4jnsgd1na2vs0mg"},{"bike_id":"4c017ac4-6f05-4881-b514-968f593a8e4c","system_id":"levelo_inurba_marseille","lat":43.23778,"lon":5.36631,"is_reserved":false,"is_disabled":false,"rental_uris":{"android":"levelo://app?vid=4c017ac4-6f05-4881-b514-968f593a8e4c","ios":"levelo://app?vid=4c017ac4-6f05-4881-b514-968f593a8e4c"},"vehicle_type_id":"4","last_reported":1761293683,"current_range_meters":8400,"station_id":"st_d3nk18o9ro0c73en2l3g","pricing_plan_id":"cebpf4jnsgd1na2vs0mg"},{"bike_id":"1ba575a5-fe9f-49ba-a4be-d712301e67eb","system_id":"levelo_inurba_marseille","lat":43.31333,"lon":5.36764,"is_reserved":false,"is_disabled":false,"rental_uris":{"android":"levelo://app?vid=1ba575a5-fe9f-49ba-a4be-d712301e67eb","ios":"levelo://app?vid=1ba575a5-fe9f-49ba-a4be-d712301e67eb"},"vehicle_type_id":"4","last_reported":1761293683,"current_range_meters":8400,"station_id":"ce4bgr92rcd13ifvqc6g","pricing_plan_id":"cebpf4jnsgd1na2vs0mg"},{"bike_id":"49bc4802-a8b3-4203-8ccf-469f733aab48","system_id":"levelo_inurba_marseille","lat":43.30467,"lon":5.37906,"is_reserved":false,"is_disabled":false,"rental_uris":{"android":"levelo://app?vid=49bc4802-a8b3-4203-8ccf-469f733aab48","ios":"levelo://app?vid=49bc4802-a8b3-4203-8ccf-469f733aab48"},"vehicle_type_id":"4","last_reported":1761293683,"current_range_meters":8400,"station_id":"ce4bgup2rcd13ifvqcn0","pricing_plan_id":"cebpf4jnsgd1na2vs0mg"},{"bike_id":"b4f83acd-5ec1-40ff-92d1-e9054814aa0b","system_id":"levelo_inurba_marseille","lat":43.32351,"lon":5.36745,"is_reserved":false,"is_disabled":false,"rental_uris":{"android":"levelo://app?vid=b4f83acd-5ec1-40ff-92d1-e9054814aa0b","ios":"levelo://app?vid=b4f83acd-5ec1-40ff-92d1-e9054814aa0b"},"vehicle_type_id":"4","last_reported":1761293683,"current_range_meters":8400,"station_id":"ce4bhsh2rcd13ifvqi2g","pricing_plan_id":"cebpf4jnsgd1na2vs0mg"},{"bike_id":"ec9665a2-32ab-42b2-9bdf-cf94d158a9c2","system_id":"levelo_inurba_marseille","lat":43.301124,"lon":5.370964,"is_reserved":false,"is_disabled":false,"rental_uris":{"android":"levelo://app?vid=ec9665a2-32ab-42b2-9bdf-cf94d158a9c2","ios":"levelo://app?vid=ec9665a2-32ab-42b2-9bdf-cf94d158a9c2"},"vehicle_type_id":"4","last_reported":1761293683,"current_range_meters":8800,"station_id":"","pricing_plan_id":"cebpf4jnsgd1na2vs0mg"},{"bike_id":"a84ac13f-c967-4dd3-8e0e-d6f64aff52a6","system_id":"levelo_inurba_marseille","lat":43.26943,"lon":5.38639,"is_reserved":false,"is_disabled":false,"rental_uris":{"android":"levelo://app?vid=a84ac13f-c967-4dd3-8e0e-d6f64aff52a6","ios":"levelo://app?vid=a84ac13f-c967-4dd3-8e0e-d6f64aff52a6"},"vehicle_type_id":"4","last_reported":1761293683,"current_range_meters":8800,"station_id":"ce4bhh92rcd13ifvqfh0","pricing_plan_id":"cebpf4jnsgd1na2vs0mg"},{"bike_id":"0f9a3fc1-d43b-4a2e-928b-f5a5dbebb9e8","system_id":"levelo_inurba_marseille","lat":43.27316,"lon":5.39086,"is_reserved":false,"is_disabled":false,"rental_uris":{"android":"levelo://app?vid=0f9a3fc1-d43b-4a2e-928b-f5a5dbebb9e8","ios":"levelo://app?vid=0f9a3fc1-d43b-4a2e-928b-f5a5dbebb9e8"},"vehicle_type_id":"4","last_reported":1761293683,"current_range_meters":8800,"station_id":"ce4bhgp2rcd13ifvqfe0","pricing_plan_id":"cebpf4jnsgd1na2vs0mg"},{"bike_id":"32e7919e-26d8-4f7d-b229-086147816fa4","system_id":"levelo_inurba_marseille","lat":43.301286,"lon":5.38775,"is_reserved":false,"is_disabled":false,"rental_uris":{"android":"levelo://app?vid=32e7919e-26d8-4f7d-b229-086147816fa4","ios":"levelo://app?vid=32e7919e-26d8-4f7d-b229-086147816fa4"},"vehicle_type_id":"4","last_reported":1761293683,"current_range_meters":8800,"station_id":"","pricing_plan_id":"cebpf4jnsgd1na2vs0mg"},{"bike_id":"e970d21e-df4c-4d8a-9dcc-b09959ead2d8","system_id":"levelo_inurba_marseille","lat":43.339262,"lon":5.397555,"is_reserved":false,"is_disabled":false,"rental_uris":{"android":"levelo://app?vid=e970d21e-df4c-4d8a-9dcc-b09959ead2d8","ios":"levelo://app?vid=e970d21e-df4c-4d8a-9dcc-b09959ead2d8"},"vehicle_type_id":"4","last_reported":1761293683,"current_range_meters":8800,"station_id":"","pricing_plan_id":"cebpf4jnsgd1na2vs0mg"},{"bike_id":"9f9db3a2-a8aa-437f-983a-b6a126b76ca4","system_id":"levelo_inurba_marseille","lat":43.27212,"lon":5.3918,"is_reserved":false,"is_disabled":false,"rental_uris":{"android":"levelo://app?vid=9f9db3a2-a8aa-437f-983a-b6a126b76ca4","ios":"levelo://app?vid=9f9db3a2-a8aa-437f-983a-b6a126b76ca4"},"vehicle_type_id":"4","last_reported":1761293683,"current_range_meters":9200,"station_id":"ce4bhhp2rcd13ifvqfm0","pricing_plan_id":"cebpf4jnsgd1na2vs0mg"},{"bike_id":"e9e73a7f-98a6-4e19-9541-14687737a607","system_id":"levelo_inurba_marseille","lat":43.3042,"lon":5.39742,"is_reserved":false,"is_disabled":false,"rental_uris":{"android":"levelo://app?vid=e9e73a7f-98a6-4e19-9541-14687737a607","ios":"levelo://app?vid=e9e73a7f-98a6-4e19-9541-14687737a607"},"vehicle_type_id":"4","last_reported":1761293683,"current_range_meters":9200,"station_id":"ce4bh092rcd13ifvqd20","pricing_plan_id":"cebpf4jnsgd1na2vs0mg"},{"bike_id":"e5589035-b7fa-4b3c-91df-cec51718364c","system_id":"levelo_inurba_marseille","lat":43.31358,"lon":5.38486,"is_reserved":false,"is_disabled":false,"rental_uris":{"android":"levelo://app?vid=e5589035-b7fa-4b3c-91df-cec51718364c","ios":"levelo://app?vid=e5589035-b7fa-4b3c-91df-cec51718364c"},"vehicle_type_id":"4","last_reported":1761293683,"current_range_meters":9200,"station_id":"ce4bgt92rcd13ifvqcf0","pricing_plan_id":"cebpf4jnsgd1na2vs0mg"},{"bike_id":"00fd3c6a-780c-49dc-9993-d4de69c9b57a","system_id":"levelo_inurba_marseille","lat":43.31053,"lon":5.37457,"is_reserved":false,"is_disabled":false,"rental_uris":{"android":"levelo://app?vid=00fd3c6a-780c-49dc-9993-d4de69c9b57a","ios":"levelo://app?vid=00fd3c6a-780c-49dc-9993-d4de69c9b57a"},"vehicle_type_id":"4","last_reported":1761293683,"current_range_meters":9200,"station_id":"","pricing_plan_id":"cebpf4jnsgd1na2vs0mg"},{"bike_id":"1aaa028d-93d8-4a20-8355-7a4b17d8620a","system_id":"levelo_inurba_marseille","lat":43.276312,"lon":5.392036,"is_reserved":false,"is_disabled":false,"rental_uris":{"android":"levelo://app?vid=1aaa028d-93d8-4a20-8355-7a4b17d8620a","ios":"levelo://app?vid=1aaa028d-93d8-4a20-8355-7a4b17d8620a"},"vehicle_type_id":"4","last_reported":1761293683,"current_range_meters":9200,"station_id":"","pricing_plan_id":"cebpf4jnsgd1na2vs0mg"},{"bike_id":"e96035ce-3f75-42c7-bc07-32e4ba0bd41a","system_id":"levelo_inurba_marseille","lat":43.30489,"lon":5.36938,"is_reserved":false,"is_disabled":false,"rental_uris":{"android":"levelo://app?vid=e96035ce-3f75-42c7-bc07-32e4ba0bd41a","ios":"levelo://app?vid=e96035ce-3f75-42c7-bc07-32e4ba0bd41a"},"vehicle_type_id":"4","last_reported":1761293683,"current_range_meters":9600,"station_id":"","pricing_plan_id":"cebpf4jnsgd1na2vs0mg"},{"bike_id":"3782ff9e-2ea3-432a-9989-fe22557ebcc8","system_id":"levelo_inurba_marseille","lat":43.29968,"lon":5.38496,"is_reserved":false,"is_disabled":false,"rental_uris":{"android":"levelo://app?vid=3782ff9e-2ea3-432a-9989-fe22557ebcc8","ios":"levelo://app?vid=3782ff9e-2ea3-432a-9989-fe22557ebcc8"},"vehicle_type_id":"4","last_reported":1761293683,"current_range_meters":9600,"station_id":"ce4bgj92rcd13ifvqbd0","pricing_plan_id":"cebpf4jnsgd1na2vs0mg"},{"bike_id":"f30d474c-592d-470d-816b-bf7526dcf767","system_id":"levelo_inurba_marseille","lat":43.308292,"lon":5.381222,"is_reserved":false,"is_disabled":false,"rental_uris":{"android":"levelo://app?vid=f30d474c-592d-470d-816b-bf7526dcf767","ios":"levelo://app?vid=f30d474c-592d-470d-816b-bf7526dcf767"},"vehicle_type_id":"4","last_reported":1761293683,"current_range_meters":9600,"station_id":"ce4bgt12rcd13ifvqce0","pricing_plan_id":"cebpf4jnsgd1na2vs0mg"},{"bike_id":"5bfe3393-a368-4dc1-ba71-98b9fe9629e9","system_id":"levelo_inurba_marseille","lat":43.28454,"lon":5.35904,"is_reserved":false,"is_disabled":false,"rental_uris":{"android":"levelo://app?vid=5bfe3393-a368-4dc1-ba71-98b9fe9629e9","ios":"levelo://app?vid=5bfe3393-a368-4dc1-ba71-98b9fe9629e9"},"vehicle_type_id":"4","last_reported":1761293683,"current_range_meters":10000,"station_id":"ce4bhah2rcd13ifvqei0","pricing_plan_id":"cebpf4jnsgd1na2vs0mg"},{"bike_id":"67e1d8e1-8245-4319-98c5-3ebea64cfc22","system_id":"levelo_inurba_marseille","lat":43.27156,"lon":5.39178,"is_reserved":false,"is_disabled":false,"rental_uris":{"android":"levelo://app?vid=67e1d8e1-8245-4319-98c5-3ebea64cfc22","ios":"levelo://app?vid=67e1d8e1-8245-4319-98c5-3ebea64cfc22"},"vehicle_type_id":"4","last_reported":1761293683,"current_range_meters":10000,"station_id":"","pricing_plan_id":"cebpf4jnsgd1na2vs0mg"},{"bike_id":"bda3ed1a-3199-4eb8-8229-577855d09dbb","system_id":"levelo_inurba_marseille","lat":43.3163,"lon":5.37876,"is_reserved":false,"is_disabled":true,"rental_uris":{"android":"levelo://app?vid=bda3ed1a-3199-4eb8-8229-577855d09dbb","ios":"levelo://app?vid=bda3ed1a-3199-4eb8-8229-577855d09dbb"},"vehicle_type_id":"4","last_reported":1761293683,"current_range_meters":10000,"station_id":"","pricing_plan_id":"cebpf4jnsgd1na2vs0mg"},{"bike_id":"323bf2de-3bb4-4b4c-b330-b19ea807dbf5","system_id":"levelo_inurba_marseille","lat":43.32994,"lon":5.42962,"is_reserved":false,"is_disabled":false,"rental_uris":{"android":"levelo://app?vid=323bf2de-3bb4-4b4c-b330-b19ea807dbf5","ios":"levelo://app?vid=323bf2de-3bb4-4b4c-b330-b19ea807dbf5"},"vehicle_type_id":"4","last_reported":1761293683,"current_range_meters":10000,"station_id":"","pricing_plan_id":"cebpf4jnsgd1na2vs0mg"},{"bike_id":"c81f341c-d0ad-4648-8109-a18c310b8472","system_id":"levelo_inurba_marseille","lat":43.24165,"lon":5.36395,"is_reserved":false,"is_disabled":false,"rental_uris":{"android":"levelo://app?vid=c81f341c-d0ad-4648-8109-a18c310b8472","ios":"levelo://app?vid=c81f341c-d0ad-4648-8109-a18c310b8472"},"vehicle_type_id":"4","last_reported":1761293683,"current_range_meters":10000,"station_id":"cpo36qri1sfpv3e86is0","pricing_plan_id":"cebpf4jnsgd1na2vs0mg"},{"bike_id":"7404ac2f-0a0b-4f3f-9204-89f278012d89","system_id":"levelo_inurba_marseille","lat":43.29092,"lon":5.38173,"is_reserved":false,"is_disabled":false,"rental_uris":{"android":"levelo://app?vid=7404ac2f-0a0b-4f3f-9204-89f278012d89","ios":"levelo://app?vid=7404ac2f-0a0b-4f3f-9204-89f278012d89"},"vehicle_type_id":"4","last_reported":1761293683,"current_range_meters":10800,"station_id":"ce4bh512rcd13ifvqe2g","pricing_plan_id":"cebpf4jnsgd1na2vs0mg"},{"bike_id":"3e4783b6-28d8-4737-a4ef-6a1b0da02476","system_id":"levelo_inurba_marseille","lat":43.29447,"lon":5.4071,"is_reserved":false,"is_disabled":false,"rental_uris":{"android":"levelo://app?vid=3e4783b6-28d8-4737-a4ef-6a1b0da02476","ios":"levelo://app?vid=3e4783b6-28d8-4737-a4ef-6a1b0da02476"},"vehicle_type_id":"4","last_reported":1761293683,"current_range_meters":10800,"station_id":"","pricing_plan_id":"cebpf4jnsgd1na2vs0mg"},{"bike_id":"3db2a5d9-814a-4963-b579-0c2256c81bd5","system_id":"levelo_inurba_marseille","lat":43.24179,"lon":5.397224,"is_reserved":false,"is_disabled":false,"rental_uris":{"android":"levelo://app?vid=3db2a5d9-814a-4963-b579-0c2256c81bd5","ios":"levelo://app?vid=3db2a5d9-814a-4963-b579-0c2256c81bd5"},"vehicle_type_id":"4","last_reported":1761293683,"current_range_meters":10800,"station_id":"ce4bhn12rcd13ifvqgpg","pricing_plan_id":"cebpf4jnsgd1na2vs0mg"},{"bike_id":"18127bb5-2c78-4b87-bcb7-445a6ec0c546","system_id":"levelo_inurba_marseille","lat":43.30944,"lon":5.39036,"is_reserved":false,"is_disabled":false,"rental_uris":{"android":"levelo://app?vid=18127bb5-2c78-4b87-bcb7-445a6ec0c546","ios":"levelo://app?vid=18127bb5-2c78-4b87-bcb7-445a6ec0c546"},"vehicle_type_id":"4","last_reported":1761293683,"current_range_meters":10800,"station_id":"ce4bgup2rcd13ifvqco0","pricing_plan_id":"cebpf4jnsgd1na2vs0mg"},{"bike_id":"d01b313a-a288-4140-bd5b-4b6c370a49ac","system_id":"levelo_inurba_marseille","lat":43.27053,"lon":5.40255,"is_reserved":false,"is_disabled":false,"rental_uris":{"android":"levelo://app?vid=d01b313a-a288-4140-bd5b-4b6c370a49ac","ios":"levelo://app?vid=d01b313a-a288-4140-bd5b-4b6c370a49ac"},"vehicle_type_id":"4","last_reported":1761293683,"current_range_meters":10800,"station_id":"ce4bhk92rcd13ifvqgc0","pricing_plan_id":"cebpf4jnsgd1na2vs0mg"},{"bike_id":"6956ea8a-de0a-4ca3-a0f3-37828e4d810c","system_id":"levelo_inurba_marseille","lat":43.25118,"lon":5.40314,"is_reserved":false,"is_disabled":false,"rental_uris":{"android":"levelo://app?vid=6956ea8a-de0a-4ca3-a0f3-37828e4d810c","ios":"levelo://app?vid=6956ea8a-de0a-4ca3-a0f3-37828e4d810c"},"vehicle_type_id":"4","last_reported":1761293683,"current_range_meters":10800,"station_id":"ce4bhlh2rcd13ifvqgig","pricing_plan_id":"cebpf4jnsgd1na2vs0mg"},{"bike_id":"4cdea850-21e7-440f-b9a5-0bf0ba38fd05","system_id":"levelo_inurba_marseille","lat":43.270555,"lon":5.402597,"is_reserved":false,"is_disabled":false,"rental_uris":{"android":"levelo://app?vid=4cdea850-21e7-440f-b9a5-0bf0ba38fd05","ios":"levelo://app?vid=4cdea850-21e7-440f-b9a5-0bf0ba38fd05"},"vehicle_type_id":"4","last_reported":1761293683,"current_range_meters":10800,"station_id":"ce4bhk92rcd13ifvqgc0","pricing_plan_id":"cebpf4jnsgd1na2vs0mg"},{"bike_id":"d78eb837-b102-4db4-b967-7e27e7618a15","system_id":"levelo_inurba_marseille","lat":43.229289,"lon":5.353765,"is_reserved":false,"is_disabled":false,"rental_uris":{"android":"levelo://app?vid=d78eb837-b102-4db4-b967-7e27e7618a15","ios":"levelo://app?vid=d78eb837-b102-4db4-b967-7e27e7618a15"},"vehicle_type_id":"4","last_reported":1761293683,"current_range_meters":10800,"station_id":"cpo3532slgdg3j2ikp40","pricing_plan_id":"cebpf4jnsgd1na2vs0mg"},{"bike_id":"fd0675d6-64ea-49dd-8e82-d5218b16af26","system_id":"levelo_inurba_marseille","lat":43.26019,"lon":5.3756,"is_reserved":false,"is_disabled":false,"rental_uris":{"android":"levelo://app?vid=fd0675d6-64ea-49dd-8e82-d5218b16af26","ios":"levelo://app?vid=fd0675d6-64ea-49dd-8e82-d5218b16af26"},"vehicle_type_id":"4","last_reported":1761293683,"current_range_meters":11200,"station_id":"ce4bhgh2rcd13ifvqfa0","pricing_plan_id":"cebpf4jnsgd1na2vs0mg"},{"bike_id":"f0764640-ec1d-486f-9e1c-59043e66eb76","system_id":"levelo_inurba_marseille","lat":43.21735,"lon":5.34618,"is_reserved":false,"is_disabled":false,"rental_uris":{"android":"levelo://app?vid=f0764640-ec1d-486f-9e1c-59043e66eb76","ios":"levelo://app?vid=f0764640-ec1d-486f-9e1c-59043e66eb76"},"vehicle_type_id":"4","last_reported":1761293683,"current_range_meters":11200,"station_id":"st_cvj6r9ubvosntc0bgbag","pricing_plan_id":"cebpf4jnsgd1na2vs0mg"},{"bike_id":"316c843e-0abd-49e3-b3e9-3f61b02a5647","system_id":"levelo_inurba_marseille","lat":43.288611,"lon":5.425169,"is_reserved":false,"is_disabled":false,"rental_uris":{"android":"levelo://app?vid=316c843e-0abd-49e3-b3e9-3f61b02a5647","ios":"levelo://app?vid=316c843e-0abd-49e3-b3e9-3f61b02a5647"},"vehicle_type_id":"4","last_reported":1761293683,"current_range_meters":11600,"station_id":"st_d3b462108ojc7389ooeg","pricing_plan_id":"cebpf4jnsgd1na2vs0mg"},{"bike_id":"b96b3118-6692-4399-83aa-684fe968ab53","system_id":"levelo_inurba_marseille","lat":43.241746,"lon":5.363859,"is_reserved":false,"is_disabled":false,"rental_uris":{"android":"levelo://app?vid=b96b3118-6692-4399-83aa-684fe968ab53","ios":"levelo://app?vid=b96b3118-6692-4399-83aa-684fe968ab53"},"vehicle_type_id":"4","last_reported":1761293683,"current_range_meters":11600,"station_id":"cpo36qri1sfpv3e86is0","pricing_plan_id":"cebpf4jnsgd1na2vs0mg"},{"bike_id":"5a5238f8-a48d-4405-a073-fd8bc9cd6033","system_id":"levelo_inurba_marseille","lat":43.31178,"lon":5.38723,"is_reserved":false,"is_disabled":false,"rental_uris":{"android":"levelo://app?vid=5a5238f8-a48d-4405-a073-fd8bc9cd6033","ios":"levelo://app?vid=5a5238f8-a48d-4405-a073-fd8bc9cd6033"},"vehicle_type_id":"4","last_reported":1761293683,"current_range_meters":12000,"station_id":"ce4bgv12rcd13ifvqcp0","pricing_plan_id":"cebpf4jnsgd1na2vs0mg"},{"bike_id":"1b8f5470-9e56-4952-a85d-54348ff1b2a7","system_id":"levelo_inurba_marseille","lat":43.28849,"lon":5.39326,"is_reserved":false,"is_disabled":false,"rental_uris":{"android":"levelo://app?vid=1b8f5470-9e56-4952-a85d-54348ff1b2a7","ios":"levelo://app?vid=1b8f5470-9e56-4952-a85d-54348ff1b2a7"},"vehicle_type_id":"4","last_reported":1761293683,"current_range_meters":12000,"station_id":"ce4bh2p2rcd13ifvqdi0","pricing_plan_id":"cebpf4jnsgd1na2vs0mg"},{"bike_id":"e26dfb7e-dd10-4a34-9650-ea81c34fe349","system_id":"levelo_inurba_marseille","lat":43.26678,"lon":5.38266,"is_reserved":false,"is_disabled":false,"rental_uris":{"android":"levelo://app?vid=e26dfb7e-dd10-4a34-9650-ea81c34fe349","ios":"levelo://app?vid=e26dfb7e-dd10-4a34-9650-ea81c34fe349"},"vehicle_type_id":"4","last_reported":1761293683,"current_range_meters":12000,"station_id":"ce4bhg92rcd13ifvqf90","pricing_plan_id":"cebpf4jnsgd1na2vs0mg"},{"bike_id":"b9764ed2-f91a-421e-b54e-d7527bd8af22","system_id":"levelo_inurba_marseille","lat":43.29811,"lon":5.36588,"is_reserved":false,"is_disabled":false,"rental_uris":{"android":"levelo://app?vid=b9764ed2-f91a-421e-b54e-d7527bd8af22","ios":"levelo://app?vid=b9764ed2-f91a-421e-b54e-d7527bd8af22"},"vehicle_type_id":"4","last_reported":1761293683,"current_range_meters":12000,"station_id":"","pricing_plan_id":"cebpf4jnsgd1na2vs0mg"},{"bike_id":"8bcacd78-80de-4026-af75-b37ebe3030fe","system_id":"levelo_inurba_marseille","lat":43.334756,"lon":5.404255,"is_reserved":false,"is_disabled":false,"rental_uris":{"android":"levelo://app?vid=8bcacd78-80de-4026-af75-b37ebe3030fe","ios":"levelo://app?vid=8bcacd78-80de-4026-af75-b37ebe3030fe"},"vehicle_type_id":"4","last_reported":1761293683,"current_range_meters":12000,"station_id":"","pricing_plan_id":"cebpf4jnsgd1na2vs0mg"},{"bike_id":"2842f5fd-7b05-4b47-909c-5ee54d7d3bc5","system_id":"levelo_inurba_marseille","lat":43.32468,"lon":5.42796,"is_reserved":false,"is_disabled":false,"rental_uris":{"android":"levelo://app?vid=2842f5fd-7b05-4b47-909c-5ee54d7d3bc5","ios":"levelo://app?vid=2842f5fd-7b05-4b47-909c-5ee54d7d3bc5"},"vehicle_type_id":"4","last_reported":1761293683,"current_range_meters":12000,"station_id":"","pricing_plan_id":"cebpf4jnsgd1na2vs0mg"},{"bike_id":"6844db38-03a9-4f91-b6d0-a4ec531bee4c","system_id":"levelo_inurba_marseille","lat":43.30129,"lon":5.37426,"is_reserved":false,"is_disabled":false,"rental_uris":{"android":"levelo://app?vid=6844db38-03a9-4f91-b6d0-a4ec531bee4c","ios":"levelo://app?vid=6844db38-03a9-4f91-b6d0-a4ec531bee4c"},"vehicle_type_id":"4","last_reported":1761293683,"current_range_meters":12000,"station_id":"ce4bgs92rcd13ifvqcc0","pricing_plan_id":"cebpf4jnsgd1na2vs0mg"},{"bike_id":"9881c788-42a8-46f5-8ccc-580a73583155","system_id":"levelo_inurba_marseille","lat":43.3208,"lon":5.40899,"is_reserved":false,"is_disabled":true,"rental_uris":{"android":"levelo://app?vid=9881c788-42a8-46f5-8ccc-580a73583155","ios":"levelo://app?vid=9881c788-42a8-46f5-8ccc-580a73583155"},"vehicle_type_id":"4","last_reported":1761293683,"current_range_meters":12000,"station_id":"","pricing_plan_id":"cebpf4jnsgd1na2vs0mg"},{"bike_id":"c184ad00-f2e0-48f2-8b07-281ff8c3c1af","system_id":"levelo_inurba_marseille","lat":43.312362,"lon":5.369076,"is_reserved":false,"is_disabled":false,"rental_uris":{"android":"levelo://app?vid=c184ad00-f2e0-48f2-8b07-281ff8c3c1af","ios":"levelo://app?vid=c184ad00-f2e0-48f2-8b07-281ff8c3c1af"},"vehicle_type_id":"4","last_reported":1761293683,"current_range_meters":12400,"station_id":"ce4bgl92rcd13ifvqbq0","pricing_plan_id":"cebpf4jnsgd1na2vs0mg"},{"bike_id":"0b9b57bc-7a8a-4239-9bf8-8db0d41132b5","system_id":"levelo_inurba_marseille","lat":43.30157,"lon":5.37419,"is_reserved":false,"is_disabled":false,"rental_uris":{"android":"levelo://app?vid=0b9b57bc-7a8a-4239-9bf8-8db0d41132b5","ios":"levelo://app?vid=0b9b57bc-7a8a-4239-9bf8-8db0d41132b5"},"vehicle_type_id":"4","last_reported":1761293683,"current_range_meters":12400,"station_id":"ce4bgs92rcd13ifvqcc0","pricing_plan_id":"cebpf4jnsgd1na2vs0mg"},{"bike_id":"c12a786b-d447-4373-876a-58fc20f19148","system_id":"levelo_inurba_marseille","lat":43.29898,"lon":5.43658,"is_reserved":false,"is_disabled":false,"rental_uris":{"android":"levelo://app?vid=c12a786b-d447-4373-876a-58fc20f19148","ios":"levelo://app?vid=c12a786b-d447-4373-876a-58fc20f19148"},"vehicle_type_id":"4","last_reported":1761293683,"current_range_meters":12400,"station_id":"ce4bhpp2rcd13ifvqhfg","pricing_plan_id":"cebpf4jnsgd1na2vs0mg"},{"bike_id":"e986eb56-ca00-4dbf-ada0-578bc3d8f529","system_id":"levelo_inurba_marseille","lat":43.273361,"lon":5.414547,"is_reserved":false,"is_disabled":false,"rental_uris":{"android":"levelo://app?vid=e986eb56-ca00-4dbf-ada0-578bc3d8f529","ios":"levelo://app?vid=e986eb56-ca00-4dbf-ada0-578bc3d8f529"},"vehicle_type_id":"4","last_reported":1761293683,"current_range_meters":12800,"station_id":"","pricing_plan_id":"cebpf4jnsgd1na2vs0mg"},{"bike_id":"d10b22fa-7672-4128-97f0-5cbf4295b17c","system_id":"levelo_inurba_marseille","lat":43.29341,"lon":5.39337,"is_reserved":false,"is_disabled":false,"rental_uris":{"android":"levelo://app?vid=d10b22fa-7672-4128-97f0-5cbf4295b17c","ios":"levelo://app?vid=d10b22fa-7672-4128-97f0-5cbf4295b17c"},"vehicle_type_id":"4","last_reported":1761293683,"current_range_meters":12800,"station_id":"","pricing_plan_id":"cebpf4jnsgd1na2vs0mg"},{"bike_id":"b5acd9d3-3e0b-4141-bbd7-a4c8c8c0cc0d","system_id":"levelo_inurba_marseille","lat":43.273621,"lon":5.362392,"is_reserved":false,"is_disabled":false,"rental_uris":{"android":"levelo://app?vid=b5acd9d3-3e0b-4141-bbd7-a4c8c8c0cc0d","ios":"levelo://app?vid=b5acd9d3-3e0b-4141-bbd7-a4c8c8c0cc0d"},"vehicle_type_id":"4","last_reported":1761293683,"current_range_meters":12800,"station_id":"ce4bhbh2rcd13ifvqeo0","pricing_plan_id":"cebpf4jnsgd1na2vs0mg"},{"bike_id":"6b25e934-7e52-440b-9273-bd19d026e696","system_id":"levelo_inurba_marseille","lat":43.30457,"lon":5.37919,"is_reserved":false,"is_disabled":false,"rental_uris":{"android":"levelo://app?vid=6b25e934-7e52-440b-9273-bd19d026e696","ios":"levelo://app?vid=6b25e934-7e52-440b-9273-bd19d026e696"},"vehicle_type_id":"4","last_reported":1761293683,"current_range_meters":13600,"station_id":"ce4bgup2rcd13ifvqcn0","pricing_plan_id":"cebpf4jnsgd1na2vs0mg"},{"bike_id":"302d8ab1-8899-4e7f-8a7e-84efa895362d","system_id":"levelo_inurba_marseille","lat":43.2927,"lon":5.37441,"is_reserved":false,"is_disabled":false,"rental_uris":{"android":"levelo://app?vid=302d8ab1-8899-4e7f-8a7e-84efa895362d","ios":"levelo://app?vid=302d8ab1-8899-4e7f-8a7e-84efa895362d"},"vehicle_type_id":"4","last_reported":1761293683,"current_range_meters":13600,"station_id":"ce4bgi12rcd13ifvqb70","pricing_plan_id":"cebpf4jnsgd1na2vs0mg"},{"bike_id":"2e516aa3-da3f-4cd4-8d7a-1dc8bf5d8ddd","system_id":"levelo_inurba_marseille","lat":43.321048,"lon":5.36751,"is_reserved":false,"is_disabled":false,"rental_uris":{"android":"levelo://app?vid=2e516aa3-da3f-4cd4-8d7a-1dc8bf5d8ddd","ios":"levelo://app?vid=2e516aa3-da3f-4cd4-8d7a-1dc8bf5d8ddd"},"vehicle_type_id":"4","last_reported":1761293683,"current_range_meters":13600,"station_id":"ce4bhrh2rcd13ifvqhug","pricing_plan_id":"cebpf4jnsgd1na2vs0mg"},{"bike_id":"1ab3fd92-e62f-4a99-8fd9-0cd2667b5074","system_id":"levelo_inurba_marseille","lat":43.27913,"lon":5.39572,"is_reserved":false,"is_disabled":false,"rental_uris":{"android":"levelo://app?vid=1ab3fd92-e62f-4a99-8fd9-0cd2667b5074","ios":"levelo://app?vid=1ab3fd92-e62f-4a99-8fd9-0cd2667b5074"},"vehicle_type_id":"4","last_reported":1761293683,"current_range_meters":13600,"station_id":"ce4bhf92rcd13ifvqf40","pricing_plan_id":"cebpf4jnsgd1na2vs0mg"},{"bike_id":"c2ea652d-1b0a-4cee-b1ef-98f94d68bf31","system_id":"levelo_inurba_marseille","lat":43.34139,"lon":5.40907,"is_reserved":false,"is_disabled":false,"rental_uris":{"android":"levelo://app?vid=c2ea652d-1b0a-4cee-b1ef-98f94d68bf31","ios":"levelo://app?vid=c2ea652d-1b0a-4cee-b1ef-98f94d68bf31"},"vehicle_type_id":"4","last_reported":1761293683,"current_range_meters":13600,"station_id":"ce4bhqh2rcd13ifvqhlg","pricing_plan_id":"cebpf4jnsgd1na2vs0mg"},{"bike_id":"49205a8f-4198-4c0b-b7d7-97a9473705ce","system_id":"levelo_inurba_marseille","lat":43.32122,"lon":5.36812,"is_reserved":false,"is_disabled":false,"rental_uris":{"android":"levelo://app?vid=49205a8f-4198-4c0b-b7d7-97a9473705ce","ios":"levelo://app?vid=49205a8f-4198-4c0b-b7d7-97a9473705ce"},"vehicle_type_id":"4","last_reported":1761293683,"current_range_meters":14000,"station_id":"","pricing_plan_id":"cebpf4jnsgd1na2vs0mg"},{"bike_id":"82a6ac02-8c08-4f93-844a-981cd0f715d0","system_id":"levelo_inurba_marseille","lat":43.255048,"lon":5.376598,"is_reserved":false,"is_disabled":false,"rental_uris":{"android":"levelo://app?vid=82a6ac02-8c08-4f93-844a-981cd0f715d0","ios":"levelo://app?vid=82a6ac02-8c08-4f93-844a-981cd0f715d0"},"vehicle_type_id":"4","last_reported":1761293683,"current_range_meters":14000,"station_id":"ce4bhh12rcd13ifvqff0","pricing_plan_id":"cebpf4jnsgd1na2vs0mg"},{"bike_id":"b65077fb-6753-43cc-8575-9553e6f3cd0c","system_id":"levelo_inurba_marseille","lat":43.32469,"lon":5.36573,"is_reserved":false,"is_disabled":false,"rental_uris":{"android":"levelo://app?vid=b65077fb-6753-43cc-8575-9553e6f3cd0c","ios":"levelo://app?vid=b65077fb-6753-43cc-8575-9553e6f3cd0c"},"vehicle_type_id":"4","last_reported":1761293683,"current_range_meters":14000,"station_id":"ce4bhs12rcd13ifvqhvg","pricing_plan_id":"cebpf4jnsgd1na2vs0mg"},{"bike_id":"d9ecb998-ceaa-4a39-8aba-9f0e44069447","system_id":"levelo_inurba_marseille","lat":43.32147,"lon":5.38731,"is_reserved":false,"is_disabled":false,"rental_uris":{"android":"levelo://app?vid=d9ecb998-ceaa-4a39-8aba-9f0e44069447","ios":"levelo://app?vid=d9ecb998-ceaa-4a39-8aba-9f0e44069447"},"vehicle_type_id":"4","last_reported":1761293683,"current_range_meters":14000,"station_id":"","pricing_plan_id":"cebpf4jnsgd1na2vs0mg"},{"bike_id":"f1241289-c0fd-41da-b516-5b1a7409203b","system_id":"levelo_inurba_marseille","lat":43.23149,"lon":5.43721,"is_reserved":false,"is_disabled":false,"rental_uris":{"android":"levelo://app?vid=f1241289-c0fd-41da-b516-5b1a7409203b","ios":"levelo://app?vid=f1241289-c0fd-41da-b516-5b1a7409203b"},"vehicle_type_id":"4","last_reported":1761293683,"current_range_meters":14400,"station_id":"ce4bhmp2rcd13ifvqgog","pricing_plan_id":"cebpf4jnsgd1na2vs0mg"},{"bike_id":"dfc041f6-a962-4c93-8a58-0f138abbf1a2","system_id":"levelo_inurba_marseille","lat":43.26315,"lon":5.4041,"is_reserved":false,"is_disabled":false,"rental_uris":{"android":"levelo://app?vid=dfc041f6-a962-4c93-8a58-0f138abbf1a2","ios":"levelo://app?vid=dfc041f6-a962-4c93-8a58-0f138abbf1a2"},"vehicle_type_id":"4","last_reported":1761293683,"current_range_meters":14400,"station_id":"","pricing_plan_id":"cebpf4jnsgd1na2vs0mg"},{"bike_id":"de4b8ab5-285e-474a-b521-72ccb626a9fe","system_id":"levelo_inurba_marseille","lat":43.32246,"lon":5.38357,"is_reserved":false,"is_disabled":false,"rental_uris":{"android":"levelo://app?vid=de4b8ab5-285e-474a-b521-72ccb626a9fe","ios":"levelo://app?vid=de4b8ab5-285e-474a-b521-72ccb626a9fe"},"vehicle_type_id":"4","last_reported":1761293683,"current_range_meters":14400,"station_id":"ce4bhr12rcd13ifvqhqg","pricing_plan_id":"cebpf4jnsgd1na2vs0mg"},{"bike_id":"30c20775-7e7c-4dd5-b544-8b63c9979e48","system_id":"levelo_inurba_marseille","lat":43.29211,"lon":5.36025,"is_reserved":false,"is_disabled":false,"rental_uris":{"android":"levelo://app?vid=30c20775-7e7c-4dd5-b544-8b63c9979e48","ios":"levelo://app?vid=30c20775-7e7c-4dd5-b544-8b63c9979e48"},"vehicle_type_id":"4","last_reported":1761293683,"current_range_meters":14400,"station_id":"ce4bhbh2rcd13ifvqeqg","pricing_plan_id":"cebpf4jnsgd1na2vs0mg"},{"bike_id":"0c216ec5-2d75-4ee4-a223-b0d23bee74b5","system_id":"levelo_inurba_marseille","lat":43.24652,"lon":5.38901,"is_reserved":false,"is_disabled":false,"rental_uris":{"android":"levelo://app?vid=0c216ec5-2d75-4ee4-a223-b0d23bee74b5","ios":"levelo://app?vid=0c216ec5-2d75-4ee4-a223-b0d23bee74b5"},"vehicle_type_id":"4","last_reported":1761293683,"current_range_meters":14400,"station_id":"ce4bhg12rcd13ifvqf60","pricing_plan_id":"cebpf4jnsgd1na2vs0mg"},{"bike_id":"b82aa972-da68-4f95-87c7-ebee292f36bd","system_id":"levelo_inurba_marseille","lat":43.24166,"lon":5.36395,"is_reserved":false,"is_disabled":false,"rental_uris":{"android":"levelo://app?vid=b82aa972-da68-4f95-87c7-ebee292f36bd","ios":"levelo://app?vid=b82aa972-da68-4f95-87c7-ebee292f36bd"},"vehicle_type_id":"4","last_reported":1761293683,"current_range_meters":14400,"station_id":"cpo36qri1sfpv3e86is0","pricing_plan_id":"cebpf4jnsgd1na2vs0mg"},{"bike_id":"0773640e-24fb-492b-b167-d16d2b7c2899","system_id":"levelo_inurba_marseille","lat":43.28116,"lon":5.3785,"is_reserved":false,"is_disabled":false,"rental_uris":{"android":"levelo://app?vid=0773640e-24fb-492b-b167-d16d2b7c2899","ios":"levelo://app?vid=0773640e-24fb-492b-b167-d16d2b7c2899"},"vehicle_type_id":"4","last_reported":1761293683,"current_range_meters":14400,"station_id":"ce4bha12rcd13ifvqee0","pricing_plan_id":"cebpf4jnsgd1na2vs0mg"},{"bike_id":"ee0c4e58-049c-47d9-aeed-456eb7e323fb","system_id":"levelo_inurba_marseille","lat":43.29198,"lon":5.35802,"is_reserved":false,"is_disabled":false,"rental_uris":{"android":"levelo://app?vid=ee0c4e58-049c-47d9-aeed-456eb7e323fb","ios":"levelo://app?vid=ee0c4e58-049c-47d9-aeed-456eb7e323fb"},"vehicle_type_id":"4","last_reported":1761293683,"current_range_meters":14400,"station_id":"ce4bhb12rcd13ifvqel0","pricing_plan_id":"cebpf4jnsgd1na2vs0mg"},{"bike_id":"49c88eb1-18b5-42cc-aab1-cb913bda0353","system_id":"levelo_inurba_marseille","lat":43.33611,"lon":5.41034,"is_reserved":false,"is_disabled":true,"rental_uris":{"android":"levelo://app?vid=49c88eb1-18b5-42cc-aab1-cb913bda0353","ios":"levelo://app?vid=49c88eb1-18b5-42cc-aab1-cb913bda0353"},"vehicle_type_id":"4","last_reported":1761293683,"current_range_meters":14400,"station_id":"ce4bhqh2rcd13ifvqhmg","pricing_plan_id":"cebpf4jnsgd1na2vs0mg"},{"bike_id":"83a459a0-bb40-4840-b3a9-c7fe1c921302","system_id":"levelo_inurba_marseille","lat":43.30142,"lon":5.38081,"is_reserved":false,"is_disabled":false,"rental_uris":{"android":"levelo://app?vid=83a459a0-bb40-4840-b3a9-c7fe1c921302","ios":"levelo://app?vid=83a459a0-bb40-4840-b3a9-c7fe1c921302"},"vehicle_type_id":"4","last_reported":1761293683,"current_range_meters":14800,"station_id":"ce4bgjp2rcd13ifvqbh0","pricing_plan_id":"cebpf4jnsgd1na2vs0mg"},{"bike_id":"bd739e16-d751-4a48-aae5-cefbc0cea2d2","system_id":"levelo_inurba_marseille","lat":43.33784,"lon":5.37427,"is_reserved":false,"is_disabled":false,"rental_uris":{"android":"levelo://app?vid=bd739e16-d751-4a48-aae5-cefbc0cea2d2","ios":"levelo://app?vid=bd739e16-d751-4a48-aae5-cefbc0cea2d2"},"vehicle_type_id":"4","last_reported":1761293683,"current_range_meters":14800,"station_id":"","pricing_plan_id":"cebpf4jnsgd1na2vs0mg"},{"bike_id":"b20a0e46-b401-4673-b2e5-b0b634512e08","system_id":"levelo_inurba_marseille","lat":43.26779,"lon":5.39427,"is_reserved":false,"is_disabled":false,"rental_uris":{"android":"levelo://app?vid=b20a0e46-b401-4673-b2e5-b0b634512e08","ios":"levelo://app?vid=b20a0e46-b401-4673-b2e5-b0b634512e08"},"vehicle_type_id":"4","last_reported":1761293683,"current_range_meters":14800,"station_id":"ce4bhh12rcd13ifvqfg0","pricing_plan_id":"cebpf4jnsgd1na2vs0mg"},{"bike_id":"75552eb5-38a2-43ca-9291-cacb859b6f73","system_id":"levelo_inurba_marseille","lat":43.284215,"lon":5.349847,"is_reserved":false,"is_disabled":false,"rental_uris":{"android":"levelo://app?vid=75552eb5-38a2-43ca-9291-cacb859b6f73","ios":"levelo://app?vid=75552eb5-38a2-43ca-9291-cacb859b6f73"},"vehicle_type_id":"4","last_reported":1761293683,"current_range_meters":15200,"station_id":"","pricing_plan_id":"cebpf4jnsgd1na2vs0mg"},{"bike_id":"9ec0ca17-f83e-4010-89b6-33c0aeffe552","system_id":"levelo_inurba_marseille","lat":43.28492,"lon":5.38559,"is_reserved":false,"is_disabled":false,"rental_uris":{"android":"levelo://app?vid=9ec0ca17-f83e-4010-89b6-33c0aeffe552","ios":"levelo://app?vid=9ec0ca17-f83e-4010-89b6-33c0aeffe552"},"vehicle_type_id":"4","last_reported":1761293683,"current_range_meters":15200,"station_id":"ce4bh8p2rcd13ifvqeb0","pricing_plan_id":"cebpf4jnsgd1na2vs0mg"},{"bike_id":"e03a5a6f-7e12-4e31-b0cb-0ea8688866f9","system_id":"levelo_inurba_marseille","lat":43.2923,"lon":5.37152,"is_reserved":false,"is_disabled":false,"rental_uris":{"android":"levelo://app?vid=e03a5a6f-7e12-4e31-b0cb-0ea8688866f9","ios":"levelo://app?vid=e03a5a6f-7e12-4e31-b0cb-0ea8688866f9"},"vehicle_type_id":"4","last_reported":1761293683,"current_range_meters":15200,"station_id":"","pricing_plan_id":"cebpf4jnsgd1na2vs0mg"},{"bike_id":"47f09c0c-92a9-44eb-a23c-69934b3ff134","system_id":"levelo_inurba_marseille","lat":43.30119,"lon":5.43116,"is_reserved":false,"is_disabled":false,"rental_uris":{"android":"levelo://app?vid=47f09c0c-92a9-44eb-a23c-69934b3ff134","ios":"levelo://app?vid=47f09c0c-92a9-44eb-a23c-69934b3ff134"},"vehicle_type_id":"4","last_reported":1761293683,"current_range_meters":15200,"station_id":"st_d3js3co5814s73ftftug","pricing_plan_id":"cebpf4jnsgd1na2vs0mg"},{"bike_id":"764563dd-e368-48f5-a186-3a29a8a5295d","system_id":"levelo_inurba_marseille","lat":43.259297,"lon":5.40907,"is_reserved":false,"is_disabled":false,"rental_uris":{"android":"levelo://app?vid=764563dd-e368-48f5-a186-3a29a8a5295d","ios":"levelo://app?vid=764563dd-e368-48f5-a186-3a29a8a5295d"},"vehicle_type_id":"4","last_reported":1761293683,"current_range_meters":15200,"station_id":"ce4bhm92rcd13ifvqglg","pricing_plan_id":"cebpf4jnsgd1na2vs0mg"},{"bike_id":"ef096c7f-2d04-45e7-91e4-52578045f579","system_id":"levelo_inurba_marseille","lat":43.23192,"lon":5.40013,"is_reserved":false,"is_disabled":true,"rental_uris":{"android":"levelo://app?vid=ef096c7f-2d04-45e7-91e4-52578045f579","ios":"levelo://app?vid=ef096c7f-2d04-45e7-91e4-52578045f579"},"vehicle_type_id":"4","last_reported":1761293683,"current_range_meters":16000,"station_id":"ce4bhn12rcd13ifvqgqg","pricing_plan_id":"cebpf4jnsgd1na2vs0mg"},{"bike_id":"f8c755d7-1bb8-4fcd-bb3f-74aeb49951cc","system_id":"levelo_inurba_marseille","lat":43.31379,"lon":5.37898,"is_reserved":false,"is_disabled":false,"rental_uris":{"android":"levelo://app?vid=f8c755d7-1bb8-4fcd-bb3f-74aeb49951cc","ios":"levelo://app?vid=f8c755d7-1bb8-4fcd-bb3f-74aeb49951cc"},"vehicle_type_id":"4","last_reported":1761293683,"current_range_meters":16000,"station_id":"","pricing_plan_id":"cebpf4jnsgd1na2vs0mg"},{"bike_id":"3cb7792b-43db-41f0-96a4-9a586e0436bb","system_id":"levelo_inurba_marseille","lat":43.28609,"lon":5.37058,"is_reserved":false,"is_disabled":false,"rental_uris":{"android":"levelo://app?vid=3cb7792b-43db-41f0-96a4-9a586e0436bb","ios":"levelo://app?vid=3cb7792b-43db-41f0-96a4-9a586e0436bb"},"vehicle_type_id":"4","last_reported":1761293683,"current_range_meters":16000,"station_id":"ce4bht12rcd13ifvqi60","pricing_plan_id":"cebpf4jnsgd1na2vs0mg"},{"bike_id":"41083e20-40ce-47c0-afcf-569bdd1626a2","system_id":"levelo_inurba_marseille","lat":43.24175,"lon":5.39731,"is_reserved":false,"is_disabled":false,"rental_uris":{"android":"levelo://app?vid=41083e20-40ce-47c0-afcf-569bdd1626a2","ios":"levelo://app?vid=41083e20-40ce-47c0-afcf-569bdd1626a2"},"vehicle_type_id":"4","last_reported":1761293683,"current_range_meters":16000,"station_id":"ce4bhn12rcd13ifvqgpg","pricing_plan_id":"cebpf4jnsgd1na2vs0mg"},{"bike_id":"34620a6d-6cbe-45b0-a540-768a36ac4c42","system_id":"levelo_inurba_marseille","lat":43.25931,"lon":5.40915,"is_reserved":false,"is_disabled":false,"rental_uris":{"android":"levelo://app?vid=34620a6d-6cbe-45b0-a540-768a36ac4c42","ios":"levelo://app?vid=34620a6d-6cbe-45b0-a540-768a36ac4c42"},"vehicle_type_id":"4","last_reported":1761293683,"current_range_meters":16400,"station_id":"ce4bhm92rcd13ifvqglg","pricing_plan_id":"cebpf4jnsgd1na2vs0mg"},{"bike_id":"8d37e86e-0fcb-4934-9c24-f827e9ccc08f","system_id":"levelo_inurba_marseille","lat":43.23151,"lon":5.43721,"is_reserved":false,"is_disabled":false,"rental_uris":{"android":"levelo://app?vid=8d37e86e-0fcb-4934-9c24-f827e9ccc08f","ios":"levelo://app?vid=8d37e86e-0fcb-4934-9c24-f827e9ccc08f"},"vehicle_type_id":"4","last_reported":1761293683,"current_range_meters":16400,"station_id":"ce4bhmp2rcd13ifvqgog","pricing_plan_id":"cebpf4jnsgd1na2vs0mg"},{"bike_id":"f2a88201-ec4d-40e7-856a-1b850d1e932e","system_id":"levelo_inurba_marseille","lat":43.27826,"lon":5.40691,"is_reserved":false,"is_disabled":false,"rental_uris":{"android":"levelo://app?vid=f2a88201-ec4d-40e7-856a-1b850d1e932e","ios":"levelo://app?vid=f2a88201-ec4d-40e7-856a-1b850d1e932e"},"vehicle_type_id":"4","last_reported":1761293683,"current_range_meters":16400,"station_id":"ce4bhnh2rcd13ifvqgtg","pricing_plan_id":"cebpf4jnsgd1na2vs0mg"},{"bike_id":"0f8f891d-6b35-4726-ba06-6f32fedc649e","system_id":"levelo_inurba_marseille","lat":43.3096,"lon":5.3905,"is_reserved":false,"is_disabled":false,"rental_uris":{"android":"levelo://app?vid=0f8f891d-6b35-4726-ba06-6f32fedc649e","ios":"levelo://app?vid=0f8f891d-6b35-4726-ba06-6f32fedc649e"},"vehicle_type_id":"4","last_reported":1761293683,"current_range_meters":16400,"station_id":"ce4bgup2rcd13ifvqco0","pricing_plan_id":"cebpf4jnsgd1na2vs0mg"},{"bike_id":"9d0e2618-e334-4663-b1b9-89ca245f3667","system_id":"levelo_inurba_marseille","lat":43.3057,"lon":5.36561,"is_reserved":false,"is_disabled":false,"rental_uris":{"android":"levelo://app?vid=9d0e2618-e334-4663-b1b9-89ca245f3667","ios":"levelo://app?vid=9d0e2618-e334-4663-b1b9-89ca245f3667"},"vehicle_type_id":"4","last_reported":1761293683,"current_range_meters":16400,"station_id":"ce4bgs12rcd13ifvqcag","pricing_plan_id":"cebpf4jnsgd1na2vs0mg"},{"bike_id":"8e7186e9-e052-4030-a83b-1c1eb47fd46c","system_id":"levelo_inurba_marseille","lat":43.21748,"lon":5.34608,"is_reserved":false,"is_disabled":false,"rental_uris":{"android":"levelo://app?vid=8e7186e9-e052-4030-a83b-1c1eb47fd46c","ios":"levelo://app?vid=8e7186e9-e052-4030-a83b-1c1eb47fd46c"},"vehicle_type_id":"4","last_reported":1761293683,"current_range_meters":16400,"station_id":"","pricing_plan_id":"cebpf4jnsgd1na2vs0mg"},{"bike_id":"c9cf8a2d-6667-4af2-bec0-e699b24f6ad0","system_id":"levelo_inurba_marseille","lat":43.296229,"lon":5.377253,"is_reserved":false,"is_disabled":false,"rental_uris":{"android":"levelo://app?vid=c9cf8a2d-6667-4af2-bec0-e699b24f6ad0","ios":"levelo://app?vid=c9cf8a2d-6667-4af2-bec0-e699b24f6ad0"},"vehicle_type_id":"4","last_reported":1761293683,"current_range_meters":16400,"station_id":"ce4bgi92rcd13ifvqb90","pricing_plan_id":"cebpf4jnsgd1na2vs0mg"},{"bike_id":"e4d9d28d-de5d-4eba-b45f-0315c6967297","system_id":"levelo_inurba_marseille","lat":43.25084,"lon":5.39516,"is_reserved":false,"is_disabled":false,"rental_uris":{"android":"levelo://app?vid=e4d9d28d-de5d-4eba-b45f-0315c6967297","ios":"levelo://app?vid=e4d9d28d-de5d-4eba-b45f-0315c6967297"},"vehicle_type_id":"4","last_reported":1761293683,"current_range_meters":16400,"station_id":"ce4bhm12rcd13ifvqgkg","pricing_plan_id":"cebpf4jnsgd1na2vs0mg"},{"bike_id":"7afdca3b-3319-420a-a728-cd8d4741e2ab","system_id":"levelo_inurba_marseille","lat":43.2593,"lon":5.40913,"is_reserved":false,"is_disabled":false,"rental_uris":{"android":"levelo://app?vid=7afdca3b-3319-420a-a728-cd8d4741e2ab","ios":"levelo://app?vid=7afdca3b-3319-420a-a728-cd8d4741e2ab"},"vehicle_type_id":"4","last_reported":1761293683,"current_range_meters":16400,"station_id":"ce4bhm92rcd13ifvqglg","pricing_plan_id":"cebpf4jnsgd1na2vs0mg"},{"bike_id":"249615da-bae2-4bb3-9506-b338b9fb85b7","system_id":"levelo_inurba_marseille","lat":43.2974,"lon":5.37663,"is_reserved":false,"is_disabled":true,"rental_uris":{"android":"levelo://app?vid=249615da-bae2-4bb3-9506-b338b9fb85b7","ios":"levelo://app?vid=249615da-bae2-4bb3-9506-b338b9fb85b7"},"vehicle_type_id":"4","last_reported":1761293683,"current_range_meters":16800,"station_id":"ce4bgkh2rcd13ifvqbl0","pricing_plan_id":"cebpf4jnsgd1na2vs0mg"},{"bike_id":"dde114a4-8805-4784-b02d-0d744116457b","system_id":"levelo_inurba_marseille","lat":43.229345,"lon":5.353839,"is_reserved":false,"is_disabled":false,"rental_uris":{"android":"levelo://app?vid=dde114a4-8805-4784-b02d-0d744116457b","ios":"levelo://app?vid=dde114a4-8805-4784-b02d-0d744116457b"},"vehicle_type_id":"4","last_reported":1761293683,"current_range_meters":16800,"station_id":"cpo3532slgdg3j2ikp40","pricing_plan_id":"cebpf4jnsgd1na2vs0mg"},{"bike_id":"91caf086-fb66-47eb-a1ca-0f4dde4dd497","system_id":"levelo_inurba_marseille","lat":43.33617,"lon":5.41006,"is_reserved":false,"is_disabled":false,"rental_uris":{"android":"levelo://app?vid=91caf086-fb66-47eb-a1ca-0f4dde4dd497","ios":"levelo://app?vid=91caf086-fb66-47eb-a1ca-0f4dde4dd497"},"vehicle_type_id":"4","last_reported":1761293683,"current_range_meters":17200,"station_id":"ce4bhqh2rcd13ifvqhmg","pricing_plan_id":"cebpf4jnsgd1na2vs0mg"},{"bike_id":"51f5c8c2-4020-440f-b660-182f7627d50e","system_id":"levelo_inurba_marseille","lat":43.270717,"lon":5.422795,"is_reserved":false,"is_disabled":true,"rental_uris":{"android":"levelo://app?vid=51f5c8c2-4020-440f-b660-182f7627d50e","ios":"levelo://app?vid=51f5c8c2-4020-440f-b660-182f7627d50e"},"vehicle_type_id":"4","last_reported":1761293683,"current_range_meters":17200,"station_id":"ce4bhk92rcd13ifvqgb0","pricing_plan_id":"cebpf4jnsgd1na2vs0mg"},{"bike_id":"4f5c5045-2f2c-4ab7-ad8b-eeba1d52fe66","system_id":"levelo_inurba_marseille","lat":43.31579,"lon":5.37202,"is_reserved":false,"is_disabled":false,"rental_uris":{"android":"levelo://app?vid=4f5c5045-2f2c-4ab7-ad8b-eeba1d52fe66","ios":"levelo://app?vid=4f5c5045-2f2c-4ab7-ad8b-eeba1d52fe66"},"vehicle_type_id":"4","last_reported":1761293683,"current_range_meters":17200,"station_id":"","pricing_plan_id":"cebpf4jnsgd1na2vs0mg"},{"bike_id":"002c3a75-9482-4c52-be26-223785bf0991","system_id":"levelo_inurba_marseille","lat":43.30358,"lon":5.40758,"is_reserved":false,"is_disabled":false,"rental_uris":{"android":"levelo://app?vid=002c3a75-9482-4c52-be26-223785bf0991","ios":"levelo://app?vid=002c3a75-9482-4c52-be26-223785bf0991"},"vehicle_type_id":"4","last_reported":1761293683,"current_range_meters":17200,"station_id":"","pricing_plan_id":"cebpf4jnsgd1na2vs0mg"},{"bike_id":"60c90323-3ea4-443e-b313-d68210b4dfba","system_id":"levelo_inurba_marseille","lat":43.297073,"lon":5.376849,"is_reserved":false,"is_disabled":false,"rental_uris":{"android":"levelo://app?vid=60c90323-3ea4-443e-b313-d68210b4dfba","ios":"levelo://app?vid=60c90323-3ea4-443e-b313-d68210b4dfba"},"vehicle_type_id":"4","last_reported":1761293683,"current_range_meters":17200,"station_id":"ce4bgkh2rcd13ifvqbl0","pricing_plan_id":"cebpf4jnsgd1na2vs0mg"},{"bike_id":"8ae1a895-256a-42ff-81e2-1ddef1dcb177","system_id":"levelo_inurba_marseille","lat":43.23128,"lon":5.43703,"is_reserved":false,"is_disabled":false,"rental_uris":{"android":"levelo://app?vid=8ae1a895-256a-42ff-81e2-1ddef1dcb177","ios":"levelo://app?vid=8ae1a895-256a-42ff-81e2-1ddef1dcb177"},"vehicle_type_id":"4","last_reported":1761293683,"current_range_meters":17200,"station_id":"ce4bhmp2rcd13ifvqgog","pricing_plan_id":"cebpf4jnsgd1na2vs0mg"},{"bike_id":"ce6cd538-c766-4c96-b93f-5b786164e4be","system_id":"levelo_inurba_marseille","lat":43.30882,"lon":5.37211,"is_reserved":false,"is_disabled":false,"rental_uris":{"android":"levelo://app?vid=ce6cd538-c766-4c96-b93f-5b786164e4be","ios":"levelo://app?vid=ce6cd538-c766-4c96-b93f-5b786164e4be"},"vehicle_type_id":"4","last_reported":1761293683,"current_range_meters":17200,"station_id":"ce4bguh2rcd13ifvqckg","pricing_plan_id":"cebpf4jnsgd1na2vs0mg"},{"bike_id":"be88eaa4-e674-44f9-9199-3901304dd644","system_id":"levelo_inurba_marseille","lat":43.21757,"lon":5.34595,"is_reserved":false,"is_disabled":false,"rental_uris":{"android":"levelo://app?vid=be88eaa4-e674-44f9-9199-3901304dd644","ios":"levelo://app?vid=be88eaa4-e674-44f9-9199-3901304dd644"},"vehicle_type_id":"4","last_reported":1761293683,"current_range_meters":17600,"station_id":"st_cvj6r9ubvosntc0bgbag","pricing_plan_id":"cebpf4jnsgd1na2vs0mg"},{"bike_id":"0f640445-b7c2-4dab-bfd8-f47d334584a8","system_id":"levelo_inurba_marseille","lat":43.273691,"lon":5.393243,"is_reserved":false,"is_disabled":false,"rental_uris":{"android":"levelo://app?vid=0f640445-b7c2-4dab-bfd8-f47d334584a8","ios":"levelo://app?vid=0f640445-b7c2-4dab-bfd8-f47d334584a8"},"vehicle_type_id":"4","last_reported":1761293683,"current_range_meters":17600,"station_id":"ce4bhdp2rcd13ifvqf20","pricing_plan_id":"cebpf4jnsgd1na2vs0mg"},{"bike_id":"17585014-36d0-4d96-ab97-1812e8c7fbe7","system_id":"levelo_inurba_marseille","lat":43.31667,"lon":5.38241,"is_reserved":false,"is_disabled":false,"rental_uris":{"android":"levelo://app?vid=17585014-36d0-4d96-ab97-1812e8c7fbe7","ios":"levelo://app?vid=17585014-36d0-4d96-ab97-1812e8c7fbe7"},"vehicle_type_id":"4","last_reported":1761293683,"current_range_meters":17600,"station_id":"","pricing_plan_id":"cebpf4jnsgd1na2vs0mg"},{"bike_id":"75eebb0f-2447-4bf8-b846-45b5b359059b","system_id":"levelo_inurba_marseille","lat":43.33769,"lon":5.37496,"is_reserved":false,"is_disabled":false,"rental_uris":{"android":"levelo://app?vid=75eebb0f-2447-4bf8-b846-45b5b359059b","ios":"levelo://app?vid=75eebb0f-2447-4bf8-b846-45b5b359059b"},"vehicle_type_id":"4","last_reported":1761293683,"current_range_meters":17600,"station_id":"","pricing_plan_id":"cebpf4jnsgd1na2vs0mg"},{"bike_id":"b8c97daa-9d25-46f3-82b1-f49b563fc2e4","system_id":"levelo_inurba_marseille","lat":43.240708,"lon":5.377627,"is_reserved":false,"is_disabled":false,"rental_uris":{"android":"levelo://app?vid=b8c97daa-9d25-46f3-82b1-f49b563fc2e4","ios":"levelo://app?vid=b8c97daa-9d25-46f3-82b1-f49b563fc2e4"},"vehicle_type_id":"4","last_reported":1761293683,"current_range_meters":17600,"station_id":"ce4bhnp2rcd13ifvqgvg","pricing_plan_id":"cebpf4jnsgd1na2vs0mg"},{"bike_id":"f962b86a-1e58-4d90-997a-7f29e9bc92cb","system_id":"levelo_inurba_marseille","lat":43.2731,"lon":5.39085,"is_reserved":false,"is_disabled":false,"rental_uris":{"android":"levelo://app?vid=f962b86a-1e58-4d90-997a-7f29e9bc92cb","ios":"levelo://app?vid=f962b86a-1e58-4d90-997a-7f29e9bc92cb"},"vehicle_type_id":"4","last_reported":1761293683,"current_range_meters":17600,"station_id":"ce4bhgp2rcd13ifvqfe0","pricing_plan_id":"cebpf4jnsgd1na2vs0mg"},{"bike_id":"417d2345-c4c6-4ccd-bc5c-2eafc961607b","system_id":"levelo_inurba_marseille","lat":43.25466,"lon":5.37548,"is_reserved":false,"is_disabled":false,"rental_uris":{"android":"levelo://app?vid=417d2345-c4c6-4ccd-bc5c-2eafc961607b","ios":"levelo://app?vid=417d2345-c4c6-4ccd-bc5c-2eafc961607b"},"vehicle_type_id":"4","last_reported":1761293683,"current_range_meters":18000,"station_id":"ce4bhh12rcd13ifvqff0","pricing_plan_id":"cebpf4jnsgd1na2vs0mg"},{"bike_id":"9d964ec4-c537-4f1d-b21c-451d3f46b1bf","system_id":"levelo_inurba_marseille","lat":43.299072,"lon":5.378617,"is_reserved":false,"is_disabled":false,"rental_uris":{"android":"levelo://app?vid=9d964ec4-c537-4f1d-b21c-451d3f46b1bf","ios":"levelo://app?vid=9d964ec4-c537-4f1d-b21c-451d3f46b1bf"},"vehicle_type_id":"4","last_reported":1761293683,"current_range_meters":18000,"station_id":"","pricing_plan_id":"cebpf4jnsgd1na2vs0mg"},{"bike_id":"8bb7bee9-5e62-432b-8c49-b661a9775620","system_id":"levelo_inurba_marseille","lat":43.25944,"lon":5.40908,"is_reserved":false,"is_disabled":false,"rental_uris":{"android":"levelo://app?vid=8bb7bee9-5e62-432b-8c49-b661a9775620","ios":"levelo://app?vid=8bb7bee9-5e62-432b-8c49-b661a9775620"},"vehicle_type_id":"4","last_reported":1761293683,"current_range_meters":18000,"station_id":"ce4bhm92rcd13ifvqglg","pricing_plan_id":"cebpf4jnsgd1na2vs0mg"},{"bike_id":"8119312a-c29a-4735-8ca3-256b4b8dee80","system_id":"levelo_inurba_marseille","lat":43.26796,"lon":5.39374,"is_reserved":false,"is_disabled":false,"rental_uris":{"android":"levelo://app?vid=8119312a-c29a-4735-8ca3-256b4b8dee80","ios":"levelo://app?vid=8119312a-c29a-4735-8ca3-256b4b8dee80"},"vehicle_type_id":"4","last_reported":1761293683,"current_range_meters":18000,"station_id":"ce4bhh12rcd13ifvqfg0","pricing_plan_id":"cebpf4jnsgd1na2vs0mg"},{"bike_id":"42b124a7-8475-4c97-92ae-677c06472cbe","system_id":"levelo_inurba_marseille","lat":43.30132,"lon":5.37417,"is_reserved":false,"is_disabled":false,"rental_uris":{"android":"levelo://app?vid=42b124a7-8475-4c97-92ae-677c06472cbe","ios":"levelo://app?vid=42b124a7-8475-4c97-92ae-677c06472cbe"},"vehicle_type_id":"4","last_reported":1761293683,"current_range_meters":18000,"station_id":"ce4bgs92rcd13ifvqcc0","pricing_plan_id":"cebpf4jnsgd1na2vs0mg"},{"bike_id":"753906aa-05b0-4376-a92a-89020807764c","system_id":"levelo_inurba_marseille","lat":43.336107,"lon":5.410399,"is_reserved":false,"is_disabled":false,"rental_uris":{"android":"levelo://app?vid=753906aa-05b0-4376-a92a-89020807764c","ios":"levelo://app?vid=753906aa-05b0-4376-a92a-89020807764c"},"vehicle_type_id":"4","last_reported":1761293683,"current_range_meters":18800,"station_id":"ce4bhqh2rcd13ifvqhmg","pricing_plan_id":"cebpf4jnsgd1na2vs0mg"},{"bike_id":"8d881a98-71e9-421e-9e11-c692cd36b6d1","system_id":"levelo_inurba_marseille","lat":43.27815,"lon":5.40721,"is_reserved":false,"is_disabled":false,"rental_uris":{"android":"levelo://app?vid=8d881a98-71e9-421e-9e11-c692cd36b6d1","ios":"levelo://app?vid=8d881a98-71e9-421e-9e11-c692cd36b6d1"},"vehicle_type_id":"4","last_reported":1761293683,"current_range_meters":18800,"station_id":"ce4bhnh2rcd13ifvqgtg","pricing_plan_id":"cebpf4jnsgd1na2vs0mg"},{"bike_id":"25c41e3b-519a-40ac-8edd-4141b9ca9f82","system_id":"levelo_inurba_marseille","lat":43.240741,"lon":5.377582,"is_reserved":false,"is_disabled":false,"rental_uris":{"android":"levelo://app?vid=25c41e3b-519a-40ac-8edd-4141b9ca9f82","ios":"levelo://app?vid=25c41e3b-519a-40ac-8edd-4141b9ca9f82"},"vehicle_type_id":"4","last_reported":1761293683,"current_range_meters":18800,"station_id":"ce4bhnp2rcd13ifvqgvg","pricing_plan_id":"cebpf4jnsgd1na2vs0mg"},{"bike_id":"7ac89373-bb8c-4e96-b632-6afabf595ae7","system_id":"levelo_inurba_marseille","lat":43.28619,"lon":5.35104,"is_reserved":false,"is_disabled":false,"rental_uris":{"android":"levelo://app?vid=7ac89373-bb8c-4e96-b632-6afabf595ae7","ios":"levelo://app?vid=7ac89373-bb8c-4e96-b632-6afabf595ae7"},"vehicle_type_id":"4","last_reported":1761293683,"current_range_meters":19200,"station_id":"ce4bhch2rcd13ifvqeug","pricing_plan_id":"cebpf4jnsgd1na2vs0mg"},{"bike_id":"1ff5ed0f-2a79-45a2-905f-643edf75a268","system_id":"levelo_inurba_marseille","lat":43.240794,"lon":5.377492,"is_reserved":false,"is_disabled":false,"rental_uris":{"android":"levelo://app?vid=1ff5ed0f-2a79-45a2-905f-643edf75a268","ios":"levelo://app?vid=1ff5ed0f-2a79-45a2-905f-643edf75a268"},"vehicle_type_id":"4","last_reported":1761293683,"current_range_meters":19200,"station_id":"ce4bhnp2rcd13ifvqgvg","pricing_plan_id":"cebpf4jnsgd1na2vs0mg"},{"bike_id":"2f61b0ea-6744-4684-82de-da8e9128756f","system_id":"levelo_inurba_marseille","lat":43.290351,"lon":5.375639,"is_reserved":false,"is_disabled":false,"rental_uris":{"android":"levelo://app?vid=2f61b0ea-6744-4684-82de-da8e9128756f","ios":"levelo://app?vid=2f61b0ea-6744-4684-82de-da8e9128756f"},"vehicle_type_id":"4","last_reported":1761293683,"current_range_meters":19200,"station_id":"","pricing_plan_id":"cebpf4jnsgd1na2vs0mg"},{"bike_id":"1e04bd5e-dba9-4c39-b5e3-df33312b1ae1","system_id":"levelo_inurba_marseille","lat":43.270642,"lon":5.382985,"is_reserved":false,"is_disabled":false,"rental_uris":{"android":"levelo://app?vid=1e04bd5e-dba9-4c39-b5e3-df33312b1ae1","ios":"levelo://app?vid=1e04bd5e-dba9-4c39-b5e3-df33312b1ae1"},"vehicle_type_id":"4","last_reported":1761293683,"current_range_meters":19200,"station_id":"st_d3n2fo6cfp8s73cte1j0","pricing_plan_id":"cebpf4jnsgd1na2vs0mg"},{"bike_id":"aa9b299c-4180-4d3b-b347-177acd75eec4","system_id":"levelo_inurba_marseille","lat":43.30546,"lon":5.36541,"is_reserved":false,"is_disabled":false,"rental_uris":{"android":"levelo://app?vid=aa9b299c-4180-4d3b-b347-177acd75eec4","ios":"levelo://app?vid=aa9b299c-4180-4d3b-b347-177acd75eec4"},"vehicle_type_id":"4","last_reported":1761293683,"current_range_meters":19200,"station_id":"ce4bgs12rcd13ifvqcag","pricing_plan_id":"cebpf4jnsgd1na2vs0mg"},{"bike_id":"05671d9c-e63a-4542-a1a7-01e7da0ef5a5","system_id":"levelo_inurba_marseille","lat":43.26944,"lon":5.38632,"is_reserved":false,"is_disabled":false,"rental_uris":{"android":"levelo://app?vid=05671d9c-e63a-4542-a1a7-01e7da0ef5a5","ios":"levelo://app?vid=05671d9c-e63a-4542-a1a7-01e7da0ef5a5"},"vehicle_type_id":"4","last_reported":1761293683,"current_range_meters":19200,"station_id":"ce4bhh92rcd13ifvqfh0","pricing_plan_id":"cebpf4jnsgd1na2vs0mg"},{"bike_id":"c3bbc46a-795a-427e-bf6e-d8a93095fb4f","system_id":"levelo_inurba_marseille","lat":43.23197,"lon":5.39978,"is_reserved":false,"is_disabled":false,"rental_uris":{"android":"levelo://app?vid=c3bbc46a-795a-427e-bf6e-d8a93095fb4f","ios":"levelo://app?vid=c3bbc46a-795a-427e-bf6e-d8a93095fb4f"},"vehicle_type_id":"4","last_reported":1761293683,"current_range_meters":19200,"station_id":"ce4bhn12rcd13ifvqgqg","pricing_plan_id":"cebpf4jnsgd1na2vs0mg"},{"bike_id":"f34b1382-6891-4e13-892b-cd84608321c6","system_id":"levelo_inurba_marseille","lat":43.31726,"lon":5.42402,"is_reserved":false,"is_disabled":false,"rental_uris":{"android":"levelo://app?vid=f34b1382-6891-4e13-892b-cd84608321c6","ios":"levelo://app?vid=f34b1382-6891-4e13-892b-cd84608321c6"},"vehicle_type_id":"4","last_reported":1761293683,"current_range_meters":19200,"station_id":"ce4bhp92rcd13ifvqhbg","pricing_plan_id":"cebpf4jnsgd1na2vs0mg"},{"bike_id":"1af48167-4976-45b9-b39c-aa5da1242fee","system_id":"levelo_inurba_marseille","lat":43.27992,"lon":5.41665,"is_reserved":false,"is_disabled":false,"rental_uris":{"android":"levelo://app?vid=1af48167-4976-45b9-b39c-aa5da1242fee","ios":"levelo://app?vid=1af48167-4976-45b9-b39c-aa5da1242fee"},"vehicle_type_id":"4","last_reported":1761293683,"current_range_meters":19600,"station_id":"ce4bho12rcd13ifvqh1g","pricing_plan_id":"cebpf4jnsgd1na2vs0mg"},{"bike_id":"abbf52bc-9bde-4a40-9d12-0ac531182ea6","system_id":"levelo_inurba_marseille","lat":43.240742,"lon":5.377644,"is_reserved":false,"is_disabled":false,"rental_uris":{"android":"levelo://app?vid=abbf52bc-9bde-4a40-9d12-0ac531182ea6","ios":"levelo://app?vid=abbf52bc-9bde-4a40-9d12-0ac531182ea6"},"vehicle_type_id":"4","last_reported":1761293683,"current_range_meters":19600,"station_id":"ce4bhnp2rcd13ifvqgvg","pricing_plan_id":"cebpf4jnsgd1na2vs0mg"},{"bike_id":"f4e0d705-d465-47a5-9a58-6cb32dc695a4","system_id":"levelo_inurba_marseille","lat":43.25934,"lon":5.40912,"is_reserved":false,"is_disabled":false,"rental_uris":{"android":"levelo://app?vid=f4e0d705-d465-47a5-9a58-6cb32dc695a4","ios":"levelo://app?vid=f4e0d705-d465-47a5-9a58-6cb32dc695a4"},"vehicle_type_id":"4","last_reported":1761293683,"current_range_meters":19600,"station_id":"ce4bhm92rcd13ifvqglg","pricing_plan_id":"cebpf4jnsgd1na2vs0mg"},{"bike_id":"984fab6f-d464-4307-88c6-9cb9049be542","system_id":"levelo_inurba_marseille","lat":43.29195,"lon":5.3575,"is_reserved":false,"is_disabled":false,"rental_uris":{"android":"levelo://app?vid=984fab6f-d464-4307-88c6-9cb9049be542","ios":"levelo://app?vid=984fab6f-d464-4307-88c6-9cb9049be542"},"vehicle_type_id":"4","last_reported":1761293683,"current_range_meters":19600,"station_id":"ce4bhb12rcd13ifvqel0","pricing_plan_id":"cebpf4jnsgd1na2vs0mg"},{"bike_id":"0bee0626-b9a8-413e-bed7-d82dc19927df","system_id":"levelo_inurba_marseille","lat":43.31484,"lon":5.37305,"is_reserved":false,"is_disabled":false,"rental_uris":{"android":"levelo://app?vid=0bee0626-b9a8-413e-bed7-d82dc19927df","ios":"levelo://app?vid=0bee0626-b9a8-413e-bed7-d82dc19927df"},"vehicle_type_id":"4","last_reported":1761293683,"current_range_meters":19600,"station_id":"ce4bgt12rcd13ifvqcd0","pricing_plan_id":"cebpf4jnsgd1na2vs0mg"},{"bike_id":"0a1ef8ec-ec02-4a95-9a73-210d55bc02ee","system_id":"levelo_inurba_marseille","lat":43.24991,"lon":5.38936,"is_reserved":false,"is_disabled":false,"rental_uris":{"android":"levelo://app?vid=0a1ef8ec-ec02-4a95-9a73-210d55bc02ee","ios":"levelo://app?vid=0a1ef8ec-ec02-4a95-9a73-210d55bc02ee"},"vehicle_type_id":"4","last_reported":1761293683,"current_range_meters":19600,"station_id":"ce4bhgp2rcd13ifvqfd0","pricing_plan_id":"cebpf4jnsgd1na2vs0mg"},{"bike_id":"8171a5ad-10d0-474d-84ea-0457d7a4574e","system_id":"levelo_inurba_marseille","lat":43.24177,"lon":5.39731,"is_reserved":false,"is_disabled":false,"rental_uris":{"android":"levelo://app?vid=8171a5ad-10d0-474d-84ea-0457d7a4574e","ios":"levelo://app?vid=8171a5ad-10d0-474d-84ea-0457d7a4574e"},"vehicle_type_id":"4","last_reported":1761293683,"current_range_meters":19600,"station_id":"ce4bhn12rcd13ifvqgpg","pricing_plan_id":"cebpf4jnsgd1na2vs0mg"},{"bike_id":"9489737c-7c2c-4f83-bc76-e520af4d2990","system_id":"levelo_inurba_marseille","lat":43.3237,"lon":5.38882,"is_reserved":false,"is_disabled":false,"rental_uris":{"android":"levelo://app?vid=9489737c-7c2c-4f83-bc76-e520af4d2990","ios":"levelo://app?vid=9489737c-7c2c-4f83-bc76-e520af4d2990"},"vehicle_type_id":"4","last_reported":1761293683,"current_range_meters":19600,"station_id":"ce4bhqp2rcd13ifvqhog","pricing_plan_id":"cebpf4jnsgd1na2vs0mg"},{"bike_id":"92d55843-3f2f-4f67-b9fd-cb2d3a3f1823","system_id":"levelo_inurba_marseille","lat":43.24071,"lon":5.37742,"is_reserved":false,"is_disabled":true,"rental_uris":{"android":"levelo://app?vid=92d55843-3f2f-4f67-b9fd-cb2d3a3f1823","ios":"levelo://app?vid=92d55843-3f2f-4f67-b9fd-cb2d3a3f1823"},"vehicle_type_id":"4","last_reported":1761293683,"current_range_meters":19600,"station_id":"ce4bhnp2rcd13ifvqgvg","pricing_plan_id":"cebpf4jnsgd1na2vs0mg"},{"bike_id":"8e92164c-deff-4fbd-9f4e-43ff81933572","system_id":"levelo_inurba_marseille","lat":43.29832,"lon":5.42021,"is_reserved":false,"is_disabled":false,"rental_uris":{"android":"levelo://app?vid=8e92164c-deff-4fbd-9f4e-43ff81933572","ios":"levelo://app?vid=8e92164c-deff-4fbd-9f4e-43ff81933572"},"vehicle_type_id":"4","last_reported":1761293683,"current_range_meters":19600,"station_id":"","pricing_plan_id":"cebpf4jnsgd1na2vs0mg"},{"bike_id":"d811c50f-5d3e-4c4a-87ce-041c93e48252","system_id":"levelo_inurba_marseille","lat":43.30629,"lon":5.40084,"is_reserved":false,"is_disabled":false,"rental_uris":{"android":"levelo://app?vid=d811c50f-5d3e-4c4a-87ce-041c93e48252","ios":"levelo://app?vid=d811c50f-5d3e-4c4a-87ce-041c93e48252"},"vehicle_type_id":"4","last_reported":1761293683,"current_range_meters":19600,"station_id":"ce4bh112rcd13ifvqda0","pricing_plan_id":"cebpf4jnsgd1na2vs0mg"},{"bike_id":"bcae74e3-6b39-45d5-928a-2d2e21f4df91","system_id":"levelo_inurba_marseille","lat":43.24076,"lon":5.37737,"is_reserved":false,"is_disabled":false,"rental_uris":{"android":"levelo://app?vid=bcae74e3-6b39-45d5-928a-2d2e21f4df91","ios":"levelo://app?vid=bcae74e3-6b39-45d5-928a-2d2e21f4df91"},"vehicle_type_id":"4","last_reported":1761293683,"current_range_meters":19600,"station_id":"ce4bhnp2rcd13ifvqgvg","pricing_plan_id":"cebpf4jnsgd1na2vs0mg"},{"bike_id":"73a84e4b-1dc4-4293-ac07-8c8f95c6e770","system_id":"levelo_inurba_marseille","lat":43.31123,"lon":5.37799,"is_reserved":false,"is_disabled":true,"rental_uris":{"android":"levelo://app?vid=73a84e4b-1dc4-4293-ac07-8c8f95c6e770","ios":"levelo://app?vid=73a84e4b-1dc4-4293-ac07-8c8f95c6e770"},"vehicle_type_id":"4","last_reported":1761293683,"current_range_meters":20000,"station_id":"ce4bgt92rcd13ifvqcg0","pricing_plan_id":"cebpf4jnsgd1na2vs0mg"},{"bike_id":"bfaea6f8-ccc6-44a7-83a6-9d7d9a7e60cc","system_id":"levelo_inurba_marseille","lat":43.263959,"lon":5.397515,"is_reserved":false,"is_disabled":false,"rental_uris":{"android":"levelo://app?vid=bfaea6f8-ccc6-44a7-83a6-9d7d9a7e60cc","ios":"levelo://app?vid=bfaea6f8-ccc6-44a7-83a6-9d7d9a7e60cc"},"vehicle_type_id":"4","last_reported":1761293683,"current_range_meters":20000,"station_id":"","pricing_plan_id":"cebpf4jnsgd1na2vs0mg"},{"bike_id":"85b42b4b-997e-4fbf-b50e-714fc05c6d7d","system_id":"levelo_inurba_marseille","lat":43.27768,"lon":5.375912,"is_reserved":false,"is_disabled":false,"rental_uris":{"android":"levelo://app?vid=85b42b4b-997e-4fbf-b50e-714fc05c6d7d","ios":"levelo://app?vid=85b42b4b-997e-4fbf-b50e-714fc05c6d7d"},"vehicle_type_id":"4","last_reported":1761293683,"current_range_meters":20000,"station_id":"","pricing_plan_id":"cebpf4jnsgd1na2vs0mg"},{"bike_id":"b9c8c43d-1621-4310-ac8a-831f9d693fc1","system_id":"levelo_inurba_marseille","lat":43.211918,"lon":5.350835,"is_reserved":false,"is_disabled":true,"rental_uris":{"android":"levelo://app?vid=b9c8c43d-1621-4310-ac8a-831f9d693fc1","ios":"levelo://app?vid=b9c8c43d-1621-4310-ac8a-831f9d693fc1"},"vehicle_type_id":"4","last_reported":1761293683,"current_range_meters":20000,"station_id":"st_cvj6sg6p6f1abm77japg","pricing_plan_id":"cebpf4jnsgd1na2vs0mg"},{"bike_id":"1d91d2c9-29d3-4c7d-a6a8-29c5c39d1cce","system_id":"levelo_inurba_marseille","lat":43.21744,"lon":5.34609,"is_reserved":false,"is_disabled":false,"rental_uris":{"android":"levelo://app?vid=1d91d2c9-29d3-4c7d-a6a8-29c5c39d1cce","ios":"levelo://app?vid=1d91d2c9-29d3-4c7d-a6a8-29c5c39d1cce"},"vehicle_type_id":"4","last_reported":1761293683,"current_range_meters":20000,"station_id":"st_cvj6r9ubvosntc0bgbag","pricing_plan_id":"cebpf4jnsgd1na2vs0mg"},{"bike_id":"85831b0c-ac03-4a31-ad4b-6acd383c62ca","system_id":"levelo_inurba_marseille","lat":43.27704,"lon":5.38861,"is_reserved":false,"is_disabled":false,"rental_uris":{"android":"levelo://app?vid=85831b0c-ac03-4a31-ad4b-6acd383c62ca","ios":"levelo://app?vid=85831b0c-ac03-4a31-ad4b-6acd383c62ca"},"vehicle_type_id":"4","last_reported":1761293683,"current_range_meters":20000,"station_id":"ce4bhi12rcd13ifvqfo0","pricing_plan_id":"cebpf4jnsgd1na2vs0mg"},{"bike_id":"16596cdb-186e-47d8-a3ec-bb6571def4b7","system_id":"levelo_inurba_marseille","lat":43.25923,"lon":5.40916,"is_reserved":false,"is_disabled":false,"rental_uris":{"android":"levelo://app?vid=16596cdb-186e-47d8-a3ec-bb6571def4b7","ios":"levelo://app?vid=16596cdb-186e-47d8-a3ec-bb6571def4b7"},"vehicle_type_id":"4","last_reported":1761293683,"current_range_meters":20000,"station_id":"ce4bhm92rcd13ifvqglg","pricing_plan_id":"cebpf4jnsgd1na2vs0mg"},{"bike_id":"d4605ced-cd39-4ae0-aff0-f0e1429292c0","system_id":"levelo_inurba_marseille","lat":43.28725,"lon":5.37953,"is_reserved":false,"is_disabled":false,"rental_uris":{"android":"levelo://app?vid=d4605ced-cd39-4ae0-aff0-f0e1429292c0","ios":"levelo://app?vid=d4605ced-cd39-4ae0-aff0-f0e1429292c0"},"vehicle_type_id":"4","last_reported":1761293683,"current_range_meters":20000,"station_id":"ce4bh9p2rcd13ifvqec0","pricing_plan_id":"cebpf4jnsgd1na2vs0mg"},{"bike_id":"95cea411-2249-4432-a271-ea27f33e9b1b","system_id":"levelo_inurba_marseille","lat":43.31682,"lon":5.40466,"is_reserved":false,"is_disabled":false,"rental_uris":{"android":"levelo://app?vid=95cea411-2249-4432-a271-ea27f33e9b1b","ios":"levelo://app?vid=95cea411-2249-4432-a271-ea27f33e9b1b"},"vehicle_type_id":"4","last_reported":1761293683,"current_range_meters":20000,"station_id":"ce4bh012rcd13ifvqd00","pricing_plan_id":"cebpf4jnsgd1na2vs0mg"},{"bike_id":"dd37467e-bc57-4410-8097-ef79f298d925","system_id":"levelo_inurba_marseille","lat":43.28369,"lon":5.38636,"is_reserved":false,"is_disabled":false,"rental_uris":{"android":"levelo://app?vid=dd37467e-bc57-4410-8097-ef79f298d925","ios":"levelo://app?vid=dd37467e-bc57-4410-8097-ef79f298d925"},"vehicle_type_id":"4","last_reported":1761293683,"current_range_meters":20000,"station_id":"ce4bh492rcd13ifvqdvg","pricing_plan_id":"cebpf4jnsgd1na2vs0mg"},{"bike_id":"2e059b71-95d7-4778-b77b-0e06ad139c11","system_id":"levelo_inurba_marseille","lat":43.27996,"lon":5.41663,"is_reserved":false,"is_disabled":false,"rental_uris":{"android":"levelo://app?vid=2e059b71-95d7-4778-b77b-0e06ad139c11","ios":"levelo://app?vid=2e059b71-95d7-4778-b77b-0e06ad139c11"},"vehicle_type_id":"4","last_reported":1761293683,"current_range_meters":20000,"station_id":"ce4bho12rcd13ifvqh1g","pricing_plan_id":"cebpf4jnsgd1na2vs0mg"},{"bike_id":"75514aab-2791-4756-9ebe-702fdafac63f","system_id":"levelo_inurba_marseille","lat":43.31285,"lon":5.36852,"is_reserved":false,"is_disabled":true,"rental_uris":{"android":"levelo://app?vid=75514aab-2791-4756-9ebe-702fdafac63f","ios":"levelo://app?vid=75514aab-2791-4756-9ebe-702fdafac63f"},"vehicle_type_id":"4","last_reported":1761293683,"current_range_meters":20400,"station_id":"ce4bgl92rcd13ifvqbq0","pricing_plan_id":"cebpf4jnsgd1na2vs0mg"},{"bike_id":"344c5d03-e58d-4f08-8663-f59a32ab2cb5","system_id":"levelo_inurba_marseille","lat":43.317563,"lon":5.390181,"is_reserved":false,"is_disabled":false,"rental_uris":{"android":"levelo://app?vid=344c5d03-e58d-4f08-8663-f59a32ab2cb5","ios":"levelo://app?vid=344c5d03-e58d-4f08-8663-f59a32ab2cb5"},"vehicle_type_id":"4","last_reported":1761293683,"current_range_meters":20400,"station_id":"ce4bhqp2rcd13ifvqhng","pricing_plan_id":"cebpf4jnsgd1na2vs0mg"},{"bike_id":"05a41d5b-5136-4a4d-ad6a-882394cf4af1","system_id":"levelo_inurba_marseille","lat":43.279453,"lon":5.410524,"is_reserved":false,"is_disabled":false,"rental_uris":{"android":"levelo://app?vid=05a41d5b-5136-4a4d-ad6a-882394cf4af1","ios":"levelo://app?vid=05a41d5b-5136-4a4d-ad6a-882394cf4af1"},"vehicle_type_id":"4","last_reported":1761293683,"current_range_meters":20400,"station_id":"ce4bhnp2rcd13ifvqh0g","pricing_plan_id":"cebpf4jnsgd1na2vs0mg"},{"bike_id":"a90ce8c2-0832-4ef9-8b11-2308d0728ab7","system_id":"levelo_inurba_marseille","lat":43.30181,"lon":5.36627,"is_reserved":false,"is_disabled":false,"rental_uris":{"android":"levelo://app?vid=a90ce8c2-0832-4ef9-8b11-2308d0728ab7","ios":"levelo://app?vid=a90ce8c2-0832-4ef9-8b11-2308d0728ab7"},"vehicle_type_id":"4","last_reported":1761293683,"current_range_meters":20400,"station_id":"ce4bgrh2rcd13ifvqc8g","pricing_plan_id":"cebpf4jnsgd1na2vs0mg"},{"bike_id":"afbb9d56-7833-460a-a482-c892605353be","system_id":"levelo_inurba_marseille","lat":43.2894,"lon":5.3962,"is_reserved":false,"is_disabled":false,"rental_uris":{"android":"levelo://app?vid=afbb9d56-7833-460a-a482-c892605353be","ios":"levelo://app?vid=afbb9d56-7833-460a-a482-c892605353be"},"vehicle_type_id":"4","last_reported":1761293683,"current_range_meters":20400,"station_id":"ce4bh3h2rcd13ifvqdn0","pricing_plan_id":"cebpf4jnsgd1na2vs0mg"},{"bike_id":"eec197c3-9146-4942-bfc2-b26b699ad249","system_id":"levelo_inurba_marseille","lat":43.279431,"lon":5.410436,"is_reserved":false,"is_disabled":false,"rental_uris":{"android":"levelo://app?vid=eec197c3-9146-4942-bfc2-b26b699ad249","ios":"levelo://app?vid=eec197c3-9146-4942-bfc2-b26b699ad249"},"vehicle_type_id":"4","last_reported":1761293683,"current_range_meters":20400,"station_id":"ce4bhnp2rcd13ifvqh0g","pricing_plan_id":"cebpf4jnsgd1na2vs0mg"},{"bike_id":"5a88517b-9ddf-4e5b-ab27-7f6c0834e8cc","system_id":"levelo_inurba_marseille","lat":43.31356,"lon":5.36723,"is_reserved":false,"is_disabled":false,"rental_uris":{"android":"levelo://app?vid=5a88517b-9ddf-4e5b-ab27-7f6c0834e8cc","ios":"levelo://app?vid=5a88517b-9ddf-4e5b-ab27-7f6c0834e8cc"},"vehicle_type_id":"4","last_reported":1761293683,"current_range_meters":20400,"station_id":"ce4bgr92rcd13ifvqc6g","pricing_plan_id":"cebpf4jnsgd1na2vs0mg"},{"bike_id":"e65262a3-092b-4ac3-86f4-6cdb641bce98","system_id":"levelo_inurba_marseille","lat":43.27213,"lon":5.39191,"is_reserved":false,"is_disabled":false,"rental_uris":{"android":"levelo://app?vid=e65262a3-092b-4ac3-86f4-6cdb641bce98","ios":"levelo://app?vid=e65262a3-092b-4ac3-86f4-6cdb641bce98"},"vehicle_type_id":"4","last_reported":1761293683,"current_range_meters":20800,"station_id":"ce4bhhp2rcd13ifvqfm0","pricing_plan_id":"cebpf4jnsgd1na2vs0mg"},{"bike_id":"ba9a9429-bfde-4653-87f1-2b95b92f5e70","system_id":"levelo_inurba_marseille","lat":43.285317,"lon":5.440981,"is_reserved":false,"is_disabled":false,"rental_uris":{"android":"levelo://app?vid=ba9a9429-bfde-4653-87f1-2b95b92f5e70","ios":"levelo://app?vid=ba9a9429-bfde-4653-87f1-2b95b92f5e70"},"vehicle_type_id":"4","last_reported":1761293683,"current_range_meters":20800,"station_id":"st_d3j3df2ikq2c7380ej80","pricing_plan_id":"cebpf4jnsgd1na2vs0mg"},{"bike_id":"87c7b988-57e8-4ef5-9b16-433c7953227b","system_id":"levelo_inurba_marseille","lat":43.31341,"lon":5.3672,"is_reserved":false,"is_disabled":false,"rental_uris":{"android":"levelo://app?vid=87c7b988-57e8-4ef5-9b16-433c7953227b","ios":"levelo://app?vid=87c7b988-57e8-4ef5-9b16-433c7953227b"},"vehicle_type_id":"4","last_reported":1761293683,"current_range_meters":20800,"station_id":"ce4bgr92rcd13ifvqc6g","pricing_plan_id":"cebpf4jnsgd1na2vs0mg"},{"bike_id":"b2e20cd2-c54c-4e77-b03f-069ffaf8b17b","system_id":"levelo_inurba_marseille","lat":43.21754,"lon":5.34599,"is_reserved":false,"is_disabled":false,"rental_uris":{"android":"levelo://app?vid=b2e20cd2-c54c-4e77-b03f-069ffaf8b17b","ios":"levelo://app?vid=b2e20cd2-c54c-4e77-b03f-069ffaf8b17b"},"vehicle_type_id":"4","last_reported":1761293683,"current_range_meters":20800,"station_id":"st_cvj6r9ubvosntc0bgbag","pricing_plan_id":"cebpf4jnsgd1na2vs0mg"},{"bike_id":"0bfa5ed0-4d28-44b3-a2ad-a6cf643aa94b","system_id":"levelo_inurba_marseille","lat":43.27845,"lon":5.392,"is_reserved":false,"is_disabled":false,"rental_uris":{"android":"levelo://app?vid=0bfa5ed0-4d28-44b3-a2ad-a6cf643aa94b","ios":"levelo://app?vid=0bfa5ed0-4d28-44b3-a2ad-a6cf643aa94b"},"vehicle_type_id":"4","last_reported":1761293683,"current_range_meters":20800,"station_id":"ce4bhjp2rcd13ifvqga0","pricing_plan_id":"cebpf4jnsgd1na2vs0mg"},{"bike_id":"c4b16079-ed72-47e2-b23d-921680c6484a","system_id":"levelo_inurba_marseille","lat":43.27066,"lon":5.42277,"is_reserved":false,"is_disabled":false,"rental_uris":{"android":"levelo://app?vid=c4b16079-ed72-47e2-b23d-921680c6484a","ios":"levelo://app?vid=c4b16079-ed72-47e2-b23d-921680c6484a"},"vehicle_type_id":"4","last_reported":1761293683,"current_range_meters":20800,"station_id":"ce4bhk92rcd13ifvqgb0","pricing_plan_id":"cebpf4jnsgd1na2vs0mg"},{"bike_id":"8c35a7e4-8378-4fdf-b42f-02e88b6199ca","system_id":"levelo_inurba_marseille","lat":43.32111,"lon":5.36762,"is_reserved":false,"is_disabled":false,"rental_uris":{"android":"levelo://app?vid=8c35a7e4-8378-4fdf-b42f-02e88b6199ca","ios":"levelo://app?vid=8c35a7e4-8378-4fdf-b42f-02e88b6199ca"},"vehicle_type_id":"4","last_reported":1761293683,"current_range_meters":20800,"station_id":"ce4bhrh2rcd13ifvqhug","pricing_plan_id":"cebpf4jnsgd1na2vs0mg"},{"bike_id":"25f1e229-0697-4b40-b10e-f842a05171cf","system_id":"levelo_inurba_marseille","lat":43.24191,"lon":5.39739,"is_reserved":false,"is_disabled":false,"rental_uris":{"android":"levelo://app?vid=25f1e229-0697-4b40-b10e-f842a05171cf","ios":"levelo://app?vid=25f1e229-0697-4b40-b10e-f842a05171cf"},"vehicle_type_id":"4","last_reported":1761293683,"current_range_meters":20800,"station_id":"ce4bhn12rcd13ifvqgpg","pricing_plan_id":"cebpf4jnsgd1na2vs0mg"},{"bike_id":"dab36927-4328-48fa-bffb-145a737de07e","system_id":"levelo_inurba_marseille","lat":43.30802,"lon":5.4353,"is_reserved":false,"is_disabled":true,"rental_uris":{"android":"levelo://app?vid=dab36927-4328-48fa-bffb-145a737de07e","ios":"levelo://app?vid=dab36927-4328-48fa-bffb-145a737de07e"},"vehicle_type_id":"4","last_reported":1761293683,"current_range_meters":21600,"station_id":"ce4bhph2rcd13ifvqheg","pricing_plan_id":"cebpf4jnsgd1na2vs0mg"},{"bike_id":"7b780362-b3ee-434c-9c61-9d1a307e3f56","system_id":"levelo_inurba_marseille","lat":43.287074,"lon":5.373785,"is_reserved":false,"is_disabled":false,"rental_uris":{"android":"levelo://app?vid=7b780362-b3ee-434c-9c61-9d1a307e3f56","ios":"levelo://app?vid=7b780362-b3ee-434c-9c61-9d1a307e3f56"},"vehicle_type_id":"4","last_reported":1761293683,"current_range_meters":21600,"station_id":"","pricing_plan_id":"cebpf4jnsgd1na2vs0mg"},{"bike_id":"73069b31-82a2-4124-9498-419aeff86536","system_id":"levelo_inurba_marseille","lat":43.257211,"lon":5.41105,"is_reserved":false,"is_disabled":false,"rental_uris":{"android":"levelo://app?vid=73069b31-82a2-4124-9498-419aeff86536","ios":"levelo://app?vid=73069b31-82a2-4124-9498-419aeff86536"},"vehicle_type_id":"4","last_reported":1761293683,"current_range_meters":21600,"station_id":"ce4bhkp2rcd13ifvqgd0","pricing_plan_id":"cebpf4jnsgd1na2vs0mg"},{"bike_id":"23b599d2-5b51-4ea8-8c67-c73e8cb7bb1b","system_id":"levelo_inurba_marseille","lat":43.29024,"lon":5.39976,"is_reserved":false,"is_disabled":false,"rental_uris":{"android":"levelo://app?vid=23b599d2-5b51-4ea8-8c67-c73e8cb7bb1b","ios":"levelo://app?vid=23b599d2-5b51-4ea8-8c67-c73e8cb7bb1b"},"vehicle_type_id":"4","last_reported":1761293683,"current_range_meters":21600,"station_id":"ce4bh392rcd13ifvqdm0","pricing_plan_id":"cebpf4jnsgd1na2vs0mg"},{"bike_id":"4b336ac8-f146-4ba2-b0c6-7f5de28835f3","system_id":"levelo_inurba_marseille","lat":43.279413,"lon":5.410369,"is_reserved":false,"is_disabled":false,"rental_uris":{"android":"levelo://app?vid=4b336ac8-f146-4ba2-b0c6-7f5de28835f3","ios":"levelo://app?vid=4b336ac8-f146-4ba2-b0c6-7f5de28835f3"},"vehicle_type_id":"4","last_reported":1761293683,"current_range_meters":21600,"station_id":"ce4bhnp2rcd13ifvqh0g","pricing_plan_id":"cebpf4jnsgd1na2vs0mg"},{"bike_id":"a6e7ad9f-cc49-480f-95d8-fe9e38e3f9c1","system_id":"levelo_inurba_marseille","lat":43.27418,"lon":5.39414,"is_reserved":false,"is_disabled":false,"rental_uris":{"android":"levelo://app?vid=a6e7ad9f-cc49-480f-95d8-fe9e38e3f9c1","ios":"levelo://app?vid=a6e7ad9f-cc49-480f-95d8-fe9e38e3f9c1"},"vehicle_type_id":"4","last_reported":1761293683,"current_range_meters":21600,"station_id":"ce4bhdp2rcd13ifvqf20","pricing_plan_id":"cebpf4jnsgd1na2vs0mg"},{"bike_id":"7197a611-1585-4149-ac46-84ed170d5298","system_id":"levelo_inurba_marseille","lat":43.23189,"lon":5.39977,"is_reserved":false,"is_disabled":false,"rental_uris":{"android":"levelo://app?vid=7197a611-1585-4149-ac46-84ed170d5298","ios":"levelo://app?vid=7197a611-1585-4149-ac46-84ed170d5298"},"vehicle_type_id":"4","last_reported":1761293683,"current_range_meters":21600,"station_id":"ce4bhn12rcd13ifvqgqg","pricing_plan_id":"cebpf4jnsgd1na2vs0mg"},{"bike_id":"53a40c10-d402-41dc-a549-1f4e952d8062","system_id":"levelo_inurba_marseille","lat":43.32473,"lon":5.36569,"is_reserved":false,"is_disabled":false,"rental_uris":{"android":"levelo://app?vid=53a40c10-d402-41dc-a549-1f4e952d8062","ios":"levelo://app?vid=53a40c10-d402-41dc-a549-1f4e952d8062"},"vehicle_type_id":"4","last_reported":1761293683,"current_range_meters":21600,"station_id":"ce4bhs12rcd13ifvqhvg","pricing_plan_id":"cebpf4jnsgd1na2vs0mg"},{"bike_id":"4bf2aad4-ba18-40e9-8644-4c26e7f4069f","system_id":"levelo_inurba_marseille","lat":43.29214,"lon":5.36062,"is_reserved":false,"is_disabled":false,"rental_uris":{"android":"levelo://app?vid=4bf2aad4-ba18-40e9-8644-4c26e7f4069f","ios":"levelo://app?vid=4bf2aad4-ba18-40e9-8644-4c26e7f4069f"},"vehicle_type_id":"4","last_reported":1761293683,"current_range_meters":22000,"station_id":"ce4bhbh2rcd13ifvqeqg","pricing_plan_id":"cebpf4jnsgd1na2vs0mg"},{"bike_id":"62f0a2f8-d352-4580-a096-e8ce56ffccdb","system_id":"levelo_inurba_marseille","lat":43.32111,"lon":5.36746,"is_reserved":false,"is_disabled":false,"rental_uris":{"android":"levelo://app?vid=62f0a2f8-d352-4580-a096-e8ce56ffccdb","ios":"levelo://app?vid=62f0a2f8-d352-4580-a096-e8ce56ffccdb"},"vehicle_type_id":"4","last_reported":1761293683,"current_range_meters":22000,"station_id":"ce4bhrh2rcd13ifvqhug","pricing_plan_id":"cebpf4jnsgd1na2vs0mg"},{"bike_id":"36ef565d-595c-4fe5-832e-9069968fcd08","system_id":"levelo_inurba_marseille","lat":43.32538,"lon":5.4145,"is_reserved":false,"is_disabled":true,"rental_uris":{"android":"levelo://app?vid=36ef565d-595c-4fe5-832e-9069968fcd08","ios":"levelo://app?vid=36ef565d-595c-4fe5-832e-9069968fcd08"},"vehicle_type_id":"4","last_reported":1761293683,"current_range_meters":22000,"station_id":"ce4bhq12rcd13ifvqhhg","pricing_plan_id":"cebpf4jnsgd1na2vs0mg"},{"bike_id":"a48b489a-127e-4aab-97a2-25cf37e655c9","system_id":"levelo_inurba_marseille","lat":43.30943,"lon":5.40286,"is_reserved":false,"is_disabled":false,"rental_uris":{"android":"levelo://app?vid=a48b489a-127e-4aab-97a2-25cf37e655c9","ios":"levelo://app?vid=a48b489a-127e-4aab-97a2-25cf37e655c9"},"vehicle_type_id":"4","last_reported":1761293683,"current_range_meters":22000,"station_id":"","pricing_plan_id":"cebpf4jnsgd1na2vs0mg"},{"bike_id":"f5532a6c-1e06-475a-ac2c-2afc6059d602","system_id":"levelo_inurba_marseille","lat":43.267792,"lon":5.394188,"is_reserved":false,"is_disabled":false,"rental_uris":{"android":"levelo://app?vid=f5532a6c-1e06-475a-ac2c-2afc6059d602","ios":"levelo://app?vid=f5532a6c-1e06-475a-ac2c-2afc6059d602"},"vehicle_type_id":"4","last_reported":1761293683,"current_range_meters":22000,"station_id":"ce4bh392rcd13ifvqdm0","pricing_plan_id":"cebpf4jnsgd1na2vs0mg"},{"bike_id":"4c2cd850-f8be-4920-9c53-c224c5d6214b","system_id":"levelo_inurba_marseille","lat":43.27818,"lon":5.40704,"is_reserved":false,"is_disabled":false,"rental_uris":{"android":"levelo://app?vid=4c2cd850-f8be-4920-9c53-c224c5d6214b","ios":"levelo://app?vid=4c2cd850-f8be-4920-9c53-c224c5d6214b"},"vehicle_type_id":"4","last_reported":1761293683,"current_range_meters":22000,"station_id":"ce4bhnh2rcd13ifvqgtg","pricing_plan_id":"cebpf4jnsgd1na2vs0mg"},{"bike_id":"0a2d74eb-71ff-4321-8aec-de4e195a8764","system_id":"levelo_inurba_marseille","lat":43.27684,"lon":5.38905,"is_reserved":false,"is_disabled":false,"rental_uris":{"android":"levelo://app?vid=0a2d74eb-71ff-4321-8aec-de4e195a8764","ios":"levelo://app?vid=0a2d74eb-71ff-4321-8aec-de4e195a8764"},"vehicle_type_id":"4","last_reported":1761293683,"current_range_meters":22000,"station_id":"ce4bhi12rcd13ifvqfo0","pricing_plan_id":"cebpf4jnsgd1na2vs0mg"},{"bike_id":"795fba2d-0722-410a-b716-401f3aba24f3","system_id":"levelo_inurba_marseille","lat":43.26786,"lon":5.39412,"is_reserved":false,"is_disabled":false,"rental_uris":{"android":"levelo://app?vid=795fba2d-0722-410a-b716-401f3aba24f3","ios":"levelo://app?vid=795fba2d-0722-410a-b716-401f3aba24f3"},"vehicle_type_id":"4","last_reported":1761293683,"current_range_meters":22000,"station_id":"ce4bhh12rcd13ifvqfg0","pricing_plan_id":"cebpf4jnsgd1na2vs0mg"},{"bike_id":"9dde16d9-b76f-4bc7-8122-96de160903fa","system_id":"levelo_inurba_marseille","lat":43.28535,"lon":5.44125,"is_reserved":false,"is_disabled":false,"rental_uris":{"android":"levelo://app?vid=9dde16d9-b76f-4bc7-8122-96de160903fa","ios":"levelo://app?vid=9dde16d9-b76f-4bc7-8122-96de160903fa"},"vehicle_type_id":"4","last_reported":1761293683,"current_range_meters":22000,"station_id":"st_d3j3df2ikq2c7380ej80","pricing_plan_id":"cebpf4jnsgd1na2vs0mg"},{"bike_id":"a4898587-b493-4cb8-bd8f-c44fc897b526","system_id":"levelo_inurba_marseille","lat":43.312259,"lon":5.368555,"is_reserved":false,"is_disabled":true,"rental_uris":{"android":"levelo://app?vid=a4898587-b493-4cb8-bd8f-c44fc897b526","ios":"levelo://app?vid=a4898587-b493-4cb8-bd8f-c44fc897b526"},"vehicle_type_id":"4","last_reported":1761293683,"current_range_meters":22400,"station_id":"","pricing_plan_id":"cebpf4jnsgd1na2vs0mg"},{"bike_id":"8372f69a-ec4b-40a4-b95c-efb1d65a36d8","system_id":"levelo_inurba_marseille","lat":43.304643,"lon":5.379106,"is_reserved":false,"is_disabled":false,"rental_uris":{"android":"levelo://app?vid=8372f69a-ec4b-40a4-b95c-efb1d65a36d8","ios":"levelo://app?vid=8372f69a-ec4b-40a4-b95c-efb1d65a36d8"},"vehicle_type_id":"4","last_reported":1761293683,"current_range_meters":22400,"station_id":"ce4bgup2rcd13ifvqcn0","pricing_plan_id":"cebpf4jnsgd1na2vs0mg"},{"bike_id":"8414ae98-3227-49d8-afd8-5cd478e67b11","system_id":"levelo_inurba_marseille","lat":43.240801,"lon":5.377191,"is_reserved":false,"is_disabled":false,"rental_uris":{"android":"levelo://app?vid=8414ae98-3227-49d8-afd8-5cd478e67b11","ios":"levelo://app?vid=8414ae98-3227-49d8-afd8-5cd478e67b11"},"vehicle_type_id":"4","last_reported":1761293683,"current_range_meters":22400,"station_id":"ce4bhnp2rcd13ifvqgvg","pricing_plan_id":"cebpf4jnsgd1na2vs0mg"},{"bike_id":"4de7f712-0258-4ad0-a796-da860a7f7c86","system_id":"levelo_inurba_marseille","lat":43.30536,"lon":5.36516,"is_reserved":false,"is_disabled":false,"rental_uris":{"android":"levelo://app?vid=4de7f712-0258-4ad0-a796-da860a7f7c86","ios":"levelo://app?vid=4de7f712-0258-4ad0-a796-da860a7f7c86"},"vehicle_type_id":"4","last_reported":1761293683,"current_range_meters":22400,"station_id":"ce4bgs12rcd13ifvqcag","pricing_plan_id":"cebpf4jnsgd1na2vs0mg"},{"bike_id":"1a70d9c3-47c6-4bf9-8f72-0245459fc374","system_id":"levelo_inurba_marseille","lat":43.21771,"lon":5.34594,"is_reserved":false,"is_disabled":false,"rental_uris":{"android":"levelo://app?vid=1a70d9c3-47c6-4bf9-8f72-0245459fc374","ios":"levelo://app?vid=1a70d9c3-47c6-4bf9-8f72-0245459fc374"},"vehicle_type_id":"4","last_reported":1761293683,"current_range_meters":22400,"station_id":"st_cvj6r9ubvosntc0bgbag","pricing_plan_id":"cebpf4jnsgd1na2vs0mg"},