{"last_updated":1706911579,"ttl":30,"version":"2.2","data":{"bikes":[{"bike_id":"a8fa0af4-897f-4ca3-8973-e597b19c2041","system_id":"levelo_inurba_marseille","lat":43.309076,"lon":5.368465,"is_reserved":false,"is_disabled":false,"rental_uris":{"android":"levelo://app?vid=a8fa0af4-897f-4ca3-8973-e597b19c2041","ios":"levelo://app?vid=a8fa0af4-897f-4ca3-8973-e597b19c2041"},"vehicle_type_id":"4","last_reported":1706911579,"current_range_meters":2400,"station_id":"ce4bgn92rcd13ifvqbvg","pricing_plan_id":"free"},{"bike_id":"006d9cb0-a6b9-4547-a968-e79429007b3a","system_id":"levelo_inurba_marseille","lat":43.309076,"lon":5.368465,"is_reserved":false,"is_disabled":false,"rental_uris":{"android":"levelo://app?vid=006d9cb0-a6b9-4547-a968-e79429007b3a","ios":"levelo://app?vid=006d9cb0-a6b9-4547-a968-e79429007b3a"},"vehicle_type_id":"4","last_reported":1706911579,"current_range_meters":8000,"station_id":"ce4bgn92rcd13ifvqbvg","pricing_plan_id":"free"},{"bike_id":"8075556e-9c83-4ece-b92f-e5e90a5fd8a2","system_id":"levelo_inurba_marseille","lat":43.31306,"lon":5.37258,"is_reserved":false,"is_disabled":false,"rental_uris":{"android":"levelo://app?vid=8075556e-9c83-4ece-b92f-e5e90a5fd8a2","ios":"levelo://app?vid=8075556e-9c83-4ece-b92f-e5e90a5fd8a2"},"vehicle_type_id":"4","last_reported":1706911579,"current_range_meters":7200,"station_id":"","pricing_plan_id":"free"},{"bike_id":"5a39e319-e3b3-4088-8eb8-368da2144e4a","system_id":"levelo_inurba_marseille","lat":43.314811,"lon":5.373103,"is_reserved":false,"is_disabled":false,"rental_uris":{"android":"levelo://app?vid=5a39e319-e3b3-4088-8eb8-368da2144e4a","ios":"levelo://app?vid=5a39e319-e3b3-4088-8eb8-368da2144e4a"},"vehicle_type_id":"4","last_reported":1706911579,"current_range_meters":30400,"station_id":"ce4bgt12rcd13ifvqcd0","pricing_plan_id":"free"},{"bike_id":"2a2e6507-acec-4233-b32d-38cfc6a35f67","system_id":"levelo_inurba_marseille","lat":43.313291,"lon":5.396838,"is_reserved":false,"is_disabled":false,"rental_uris":{"android":"levelo://app?vid=2a2e6507-acec-4233-b32d-38cfc6a35f67","ios":"levelo://app?vid=2a2e6507-acec-4233-b32d-38cfc6a35f67"},"vehicle_type_id":"4","last_reported":1706911579,"current_range_meters":8000,"station_id":"ce4bgvp2rcd13ifvqcu0","pricing_plan_id":"free"},{"bike_id":"fee198ce-2782-42e6-a278-338dd03c9a94","system_id":"levelo_inurba_marseille","lat":43.309039,"lon":5.371797,"is_reserved":false,"is_disabled":false,"rental_uris":{"android":"levelo://app?vid=fee198ce-2782-42e6-a278-338dd03c9a94","ios":"levelo://app?vid=fee198ce-2782-42e6-a278-338dd03c9a94"},"vehicle_type_id":"4","last_reported":1706911579,"current_range_meters":18400,"station_id":"ce4bguh2rcd13ifvqckg","pricing_plan_id":"free"},{"bike_id":"4935c2bb-fa9e-412b-9ac1-51d8f5e7ba5e","system_id":"levelo_inurba_marseille","lat":43.30863,"lon":5.37155,"is_reserved":false,"is_disabled":false,"rental_uris":{"android":"levelo://app?vid=4935c2bb-fa9e-412b-9ac1-51d8f5e7ba5e","ios":"levelo://app?vid=4935c2bb-fa9e-412b-9ac1-51d8f5e7ba5e"},"vehicle_type_id":"4","last_reported":1706911579,"current_range_meters":0,"station_id":"","pricing_plan_id":"free"},{"bike_id":"9e59cb60-202d-4b59-b078-ddc2c639230e","system_id":"levelo_inurba_marseille","lat":43.305706,"lon":5.365654,"is_reserved":false,"is_disabled":false,"rental_uris":{"android":"levelo://app?vid=9e59cb60-202d-4b59-b078-ddc2c639230e","ios":"levelo://app?vid=9e59cb60-202d-4b59-b078-ddc2c639230e"},"vehicle_type_id":"4","last_reported":1706911579,"current_range_meters":21200,"station_id":"ce4bgs12rcd13ifvqcag","pricing_plan_id":"free"},{"bike_id":"9c8ea81f-d80e-440d-808d-8ed7acd00905","system_id":"levelo_inurba_marseille","lat":43.305714,"lon":5.365633,"is_reserved":false,"is_disabled":false,"rental_uris":{"android":"levelo://app?vid=9c8ea81f-d80e-440d-808d-8ed7acd00905","ios":"levelo://app?vid=9c8ea81f-d80e-440d-808d-8ed7acd00905"},"vehicle_type_id":"4","last_reported":1706911579,"current_range_meters":13600,"station_id":"ce4bgs12rcd13ifvqcag","pricing_plan_id":"free"},{"bike_id":"f2233325-60da-4d5d-a8a1-ba7ffdf384a9","system_id":"levelo_inurba_marseille","lat":43.305706,"lon":5.365654,"is_reserved":false,"is_disabled":false,"rental_uris":{"android":"levelo://app?vid=f2233325-60da-4d5d-a8a1-ba7ffdf384a9","ios":"levelo://app?vid=f2233325-60da-4d5d-a8a1-ba7ffdf384a9"},"vehicle_type_id":"4","last_reported":1706911579,"current_range_meters":20800,"station_id":"ce4bgs12rcd13ifvqcag","pricing_plan_id":"free"},{"bike_id":"a3b5ffbb-6c42-43f8-8082-ed8023617dff","system_id":"levelo_inurba_marseille","lat":43.31118,"lon":5.37773,"is_reserved":false,"is_disabled":false,"rental_uris":{"android":"levelo://app?vid=a3b5ffbb-6c42-43f8-8082-ed8023617dff","ios":"levelo://app?vid=a3b5ffbb-6c42-43f8-8082-ed8023617dff"},"vehicle_type_id":"4","last_reported":1706911579,"current_range_meters":3600,"station_id":"ce4bgt92rcd13ifvqcg0","pricing_plan_id":"free"},{"bike_id":"bca9e367-0133-4373-858a-c0148c5c19d1","system_id":"levelo_inurba_marseille","lat":43.311125,"lon":5.377624,"is_reserved":false,"is_disabled":false,"rental_uris":{"android":"levelo://app?vid=bca9e367-0133-4373-858a-c0148c5c19d1","ios":"levelo://app?vid=bca9e367-0133-4373-858a-c0148c5c19d1"},"vehicle_type_id":"4","last_reported":1706911579,"current_range_meters":28400,"station_id":"ce4bgt92rcd13ifvqcg0","pricing_plan_id":"free"},{"bike_id":"3adfefd7-2e3e-4f0a-a6b8-a0613d1259d7","system_id":"levelo_inurba_marseille","lat":43.31117,"lon":5.37777,"is_reserved":false,"is_disabled":false,"rental_uris":{"android":"levelo://app?vid=3adfefd7-2e3e-4f0a-a6b8-a0613d1259d7","ios":"levelo://app?vid=3adfefd7-2e3e-4f0a-a6b8-a0613d1259d7"},"vehicle_type_id":"4","last_reported":1706911579,"current_range_meters":19200,"station_id":"ce4bgt92rcd13ifvqcg0","pricing_plan_id":"free"},{"bike_id":"c91671d6-de7c-4415-8bcb-22246a9e4d8b","system_id":"levelo_inurba_marseille","lat":43.307945,"lon":5.376487,"is_reserved":false,"is_disabled":false,"rental_uris":{"android":"levelo://app?vid=c91671d6-de7c-4415-8bcb-22246a9e4d8b","ios":"levelo://app?vid=c91671d6-de7c-4415-8bcb-22246a9e4d8b"},"vehicle_type_id":"4","last_reported":1706911579,"current_range_meters":27600,"station_id":"ce4bgv92rcd13ifvqcq0","pricing_plan_id":"free"},{"bike_id":"793a6182-bb41-4a42-9317-17c9919f3baa","system_id":"levelo_inurba_marseille","lat":43.307945,"lon":5.376487,"is_reserved":false,"is_disabled":false,"rental_uris":{"android":"levelo://app?vid=793a6182-bb41-4a42-9317-17c9919f3baa","ios":"levelo://app?vid=793a6182-bb41-4a42-9317-17c9919f3baa"},"vehicle_type_id":"4","last_reported":1706911579,"current_range_meters":2000,"station_id":"ce4bgv92rcd13ifvqcq0","pricing_plan_id":"free"},{"bike_id":"2295bdf0-b945-48a1-b7b3-5cd2c65aa77b","system_id":"levelo_inurba_marseille","lat":43.30789,"lon":5.376505,"is_reserved":false,"is_disabled":false,"rental_uris":{"android":"levelo://app?vid=2295bdf0-b945-48a1-b7b3-5cd2c65aa77b","ios":"levelo://app?vid=2295bdf0-b945-48a1-b7b3-5cd2c65aa77b"},"vehicle_type_id":"4","last_reported":1706911579,"current_range_meters":16400,"station_id":"","pricing_plan_id":"free"},{"bike_id":"6132a412-ad44-4070-82af-5684b840e2f3","system_id":"levelo_inurba_marseille","lat":43.307945,"lon":5.376487,"is_reserved":false,"is_disabled":false,"rental_uris":{"android":"levelo://app?vid=6132a412-ad44-4070-82af-5684b840e2f3","ios":"levelo://app?vid=6132a412-ad44-4070-82af-5684b840e2f3"},"vehicle_type_id":"4","last_reported":1706911579,"current_range_meters":15200,"station_id":"ce4bgv92rcd13ifvqcq0","pricing_plan_id":"free"},{"bike_id":"3fd6b355-cd17-4e44-a4ed-1c6a0b48a8ac","system_id":"levelo_inurba_marseille","lat":43.307945,"lon":5.376487,"is_reserved":false,"is_disabled":false,"rental_uris":{"android":"levelo://app?vid=3fd6b355-cd17-4e44-a4ed-1c6a0b48a8ac","ios":"levelo://app?vid=3fd6b355-cd17-4e44-a4ed-1c6a0b48a8ac"},"vehicle_type_id":"4","last_reported":1706911579,"current_range_meters":9200,"station_id":"ce4bgv92rcd13ifvqcq0","pricing_plan_id":"free"},{"bike_id":"956baefa-276e-4952-83b1-dd8a9f77b0d2","system_id":"levelo_inurba_marseille","lat":43.307945,"lon":5.376487,"is_reserved":false,"is_disabled":false,"rental_uris":{"android":"levelo://app?vid=956baefa-276e-4952-83b1-dd8a9f77b0d2","ios":"levelo://app?vid=956baefa-276e-4952-83b1-dd8a9f77b0d2"},"vehicle_type_id":"4","last_reported":1706911579,"current_range_meters":5600,"station_id":"ce4bgv92rcd13ifvqcq0","pricing_plan_id":"free"},{"bike_id":"600e6c56-502c-498c-9b74-2ede5b850d18","system_id":"levelo_inurba_marseille","lat":43.307945,"lon":5.376487,"is_reserved":false,"is_disabled":false,"rental_uris":{"android":"levelo://app?vid=600e6c56-502c-498c-9b74-2ede5b850d18","ios":"levelo://app?vid=600e6c56-502c-498c-9b74-2ede5b850d18"},"vehicle_type_id":"4","last_reported":1706911579,"current_range_meters":27200,"station_id":"ce4bgv92rcd13ifvqcq0","pricing_plan_id":"free"},{"bike_id":"6c88268f-a2a7-465d-8a0f-f73b9031ffd3","system_id":"levelo_inurba_marseille","lat":43.317075,"lon":5.377367,"is_reserved":false,"is_disabled":false,"rental_uris":{"android":"levelo://app?vid=6c88268f-a2a7-465d-8a0f-f73b9031ffd3","ios":"levelo://app?vid=6c88268f-a2a7-465d-8a0f-f73b9031ffd3"},"vehicle_type_id":"4","last_reported":1706911579,"current_range_meters":0,"station_id":"ce4bgth2rcd13ifvqch0","pricing_plan_id":"free"},{"bike_id":"999edf58-e3e3-4653-8556-d4cfa02487c2","system_id":"levelo_inurba_marseille","lat":43.31697,"lon":5.37748,"is_reserved":false,"is_disabled":false,"rental_uris":{"android":"levelo://app?vid=999edf58-e3e3-4653-8556-d4cfa02487c2","ios":"levelo://app?vid=999edf58-e3e3-4653-8556-d4cfa02487c2"},"vehicle_type_id":"4","last_reported":1706911579,"current_range_meters":0,"station_id":"ce4bgth2rcd13ifvqch0","pricing_plan_id":"free"},{"bike_id":"0f833ad1-607f-417a-a09f-4998cd54a18f","system_id":"levelo_inurba_marseille","lat":43.317127,"lon":5.377502,"is_reserved":false,"is_disabled":false,"rental_uris":{"android":"levelo://app?vid=0f833ad1-607f-417a-a09f-4998cd54a18f","ios":"levelo://app?vid=0f833ad1-607f-417a-a09f-4998cd54a18f"},"vehicle_type_id":"4","last_reported":1706911579,"current_range_meters":0,"station_id":"ce4bgth2rcd13ifvqch0","pricing_plan_id":"free"},{"bike_id":"55d2f762-0c29-4f6e-a5d9-bb2efb902b59","system_id":"levelo_inurba_marseille","lat":43.303046,"lon":5.368981,"is_reserved":false,"is_disabled":false,"rental_uris":{"android":"levelo://app?vid=55d2f762-0c29-4f6e-a5d9-bb2efb902b59","ios":"levelo://app?vid=55d2f762-0c29-4f6e-a5d9-bb2efb902b59"},"vehicle_type_id":"4","last_reported":1706911579,"current_range_meters":7600,"station_id":"ce4bgqh2rcd13ifvqc5g","pricing_plan_id":"free"},{"bike_id":"c81085a5-cd68-4bca-9506-574815927090","system_id":"levelo_inurba_marseille","lat":43.30304,"lon":5.368987,"is_reserved":false,"is_disabled":false,"rental_uris":{"android":"levelo://app?vid=c81085a5-cd68-4bca-9506-574815927090","ios":"levelo://app?vid=c81085a5-cd68-4bca-9506-574815927090"},"vehicle_type_id":"4","last_reported":1706911579,"current_range_meters":22800,"station_id":"ce4bgqh2rcd13ifvqc5g","pricing_plan_id":"free"},{"bike_id":"23b8c604-c5c8-4d73-8d2b-42bcbc1f3bca","system_id":"levelo_inurba_marseille","lat":43.30304,"lon":5.368987,"is_reserved":false,"is_disabled":false,"rental_uris":{"android":"levelo://app?vid=23b8c604-c5c8-4d73-8d2b-42bcbc1f3bca","ios":"levelo://app?vid=23b8c604-c5c8-4d73-8d2b-42bcbc1f3bca"},"vehicle_type_id":"4","last_reported":1706911579,"current_range_meters":12800,"station_id":"ce4bgqh2rcd13ifvqc5g","pricing_plan_id":"free"},{"bike_id":"963ca9b6-5691-4683-bd64-5ec33f753d91","system_id":"levelo_inurba_marseille","lat":43.30304,"lon":5.368987,"is_reserved":false,"is_disabled":false,"rental_uris":{"android":"levelo://app?vid=963ca9b6-5691-4683-bd64-5ec33f753d91","ios":"levelo://app?vid=963ca9b6-5691-4683-bd64-5ec33f753d91"},"vehicle_type_id":"4","last_reported":1706911579,"current_range_meters":16400,"station_id":"ce4bgqh2rcd13ifvqc5g","pricing_plan_id":"free"},{"bike_id":"1a602077-a2da-4c0c-a77b-f923a08d5789","system_id":"levelo_inurba_marseille","lat":43.315293,"lon":5.380349,"is_reserved":false,"is_disabled":false,"rental_uris":{"android":"levelo://app?vid=1a602077-a2da-4c0c-a77b-f923a08d5789","ios":"levelo://app?vid=1a602077-a2da-4c0c-a77b-f923a08d5789"},"vehicle_type_id":"4","last_reported":1706911579,"current_range_meters":29200,"station_id":"ce4bhsp2rcd13ifvqi50","pricing_plan_id":"free"},{"bike_id":"da9d8b73-e4eb-4d26-82d2-b4644779f7dd","system_id":"levelo_inurba_marseille","lat":43.301939,"lon":5.366286,"is_reserved":false,"is_disabled":false,"rental_uris":{"android":"levelo://app?vid=da9d8b73-e4eb-4d26-82d2-b4644779f7dd","ios":"levelo://app?vid=da9d8b73-e4eb-4d26-82d2-b4644779f7dd"},"vehicle_type_id":"4","last_reported":1706911579,"current_range_meters":17600,"station_id":"ce4bgrh2rcd13ifvqc8g","pricing_plan_id":"free"},{"bike_id":"a6cec105-62e9-42be-9dcb-4c641758a8f0","system_id":"levelo_inurba_marseille","lat":43.301939,"lon":5.366286,"is_reserved":false,"is_disabled":false,"rental_uris":{"android":"levelo://app?vid=a6cec105-62e9-42be-9dcb-4c641758a8f0","ios":"levelo://app?vid=a6cec105-62e9-42be-9dcb-4c641758a8f0"},"vehicle_type_id":"4","last_reported":1706911579,"current_range_meters":25600,"station_id":"ce4bgrh2rcd13ifvqc8g","pricing_plan_id":"free"},{"bike_id":"2b906c46-7ba1-4775-9c28-62e4fc26a296","system_id":"levelo_inurba_marseille","lat":43.308012,"lon":5.381511,"is_reserved":false,"is_disabled":false,"rental_uris":{"android":"levelo://app?vid=2b906c46-7ba1-4775-9c28-62e4fc26a296","ios":"levelo://app?vid=2b906c46-7ba1-4775-9c28-62e4fc26a296"},"vehicle_type_id":"4","last_reported":1706911579,"current_range_meters":0,"station_id":"ce4bgt12rcd13ifvqce0","pricing_plan_id":"free"},{"bike_id":"fc80cbb6-df50-498b-b192-06a0fb357549","system_id":"levelo_inurba_marseille","lat":43.30803,"lon":5.38148,"is_reserved":false,"is_disabled":false,"rental_uris":{"android":"levelo://app?vid=fc80cbb6-df50-498b-b192-06a0fb357549","ios":"levelo://app?vid=fc80cbb6-df50-498b-b192-06a0fb357549"},"vehicle_type_id":"4","last_reported":1706911579,"current_range_meters":4800,"station_id":"ce4bgt12rcd13ifvqce0","pricing_plan_id":"free"},{"bike_id":"eae5ee13-1a05-486f-b500-b75228d5d5f3","system_id":"levelo_inurba_marseille","lat":43.304606,"lon":5.379026,"is_reserved":false,"is_disabled":false,"rental_uris":{"android":"levelo://app?vid=eae5ee13-1a05-486f-b500-b75228d5d5f3","ios":"levelo://app?vid=eae5ee13-1a05-486f-b500-b75228d5d5f3"},"vehicle_type_id":"4","last_reported":1706911579,"current_range_meters":6000,"station_id":"ce4bgup2rcd13ifvqcn0","pricing_plan_id":"free"},{"bike_id":"c829652e-e086-4603-a8a6-0278668b9e64","system_id":"levelo_inurba_marseille","lat":43.31069,"lon":5.38348,"is_reserved":false,"is_disabled":false,"rental_uris":{"android":"levelo://app?vid=c829652e-e086-4603-a8a6-0278668b9e64","ios":"levelo://app?vid=c829652e-e086-4603-a8a6-0278668b9e64"},"vehicle_type_id":"4","last_reported":1706911579,"current_range_meters":16000,"station_id":"ce4bgv92rcd13ifvqcr0","pricing_plan_id":"free"},{"bike_id":"dbf1a8f0-edf9-4392-a6a8-024912b1d2f2","system_id":"levelo_inurba_marseille","lat":43.324771,"lon":5.36557,"is_reserved":false,"is_disabled":false,"rental_uris":{"android":"levelo://app?vid=dbf1a8f0-edf9-4392-a6a8-024912b1d2f2","ios":"levelo://app?vid=dbf1a8f0-edf9-4392-a6a8-024912b1d2f2"},"vehicle_type_id":"4","last_reported":1706911579,"current_range_meters":1200,"station_id":"ce4bhs12rcd13ifvqhvg","pricing_plan_id":"free"},{"bike_id":"89477423-b9e8-49c8-8d78-04c9b090cb74","system_id":"levelo_inurba_marseille","lat":43.310804,"lon":5.38359,"is_reserved":false,"is_disabled":false,"rental_uris":{"android":"levelo://app?vid=89477423-b9e8-49c8-8d78-04c9b090cb74","ios":"levelo://app?vid=89477423-b9e8-49c8-8d78-04c9b090cb74"},"vehicle_type_id":"4","last_reported":1706911579,"current_range_meters":14800,"station_id":"ce4bgv92rcd13ifvqcr0","pricing_plan_id":"free"},{"bike_id":"1223bdf3-4c95-4a9a-b98e-9c0e8c3f34b8","system_id":"levelo_inurba_marseille","lat":43.310804,"lon":5.38359,"is_reserved":false,"is_disabled":false,"rental_uris":{"android":"levelo://app?vid=1223bdf3-4c95-4a9a-b98e-9c0e8c3f34b8","ios":"levelo://app?vid=1223bdf3-4c95-4a9a-b98e-9c0e8c3f34b8"},"vehicle_type_id":"4","last_reported":1706911579,"current_range_meters":1200,"station_id":"ce4bgv92rcd13ifvqcr0","pricing_plan_id":"free"},{"bike_id":"0070468a-ea24-470b-b55f-914888b585a4","system_id":"levelo_inurba_marseille","lat":43.310804,"lon":5.38359,"is_reserved":false,"is_disabled":false,"rental_uris":{"android":"levelo://app?vid=0070468a-ea24-470b-b55f-914888b585a4","ios":"levelo://app?vid=0070468a-ea24-470b-b55f-914888b585a4"},"vehicle_type_id":"4","last_reported":1706911579,"current_range_meters":2400,"station_id":"ce4bgv92rcd13ifvqcr0","pricing_plan_id":"free"},{"bike_id":"b84a0076-24f6-4d7a-83b6-da086d02eec9","system_id":"levelo_inurba_marseille","lat":43.302784,"lon":5.377158,"is_reserved":false,"is_disabled":false,"rental_uris":{"android":"levelo://app?vid=b84a0076-24f6-4d7a-83b6-da086d02eec9","ios":"levelo://app?vid=b84a0076-24f6-4d7a-83b6-da086d02eec9"},"vehicle_type_id":"4","last_reported":1706911579,"current_range_meters":0,"station_id":"ce4bguh2rcd13ifvqcj0","pricing_plan_id":"free"},{"bike_id":"5301e721-ba6e-4e3f-9607-8f8cd4ef9972","system_id":"levelo_inurba_marseille","lat":43.302737,"lon":5.377023,"is_reserved":false,"is_disabled":false,"rental_uris":{"android":"levelo://app?vid=5301e721-ba6e-4e3f-9607-8f8cd4ef9972","ios":"levelo://app?vid=5301e721-ba6e-4e3f-9607-8f8cd4ef9972"},"vehicle_type_id":"4","last_reported":1706911579,"current_range_meters":11600,"station_id":"ce4bguh2rcd13ifvqcj0","pricing_plan_id":"free"},{"bike_id":"60359010-f135-4c3b-9e8e-88de805842da","system_id":"levelo_inurba_marseille","lat":43.301429,"lon":5.37413,"is_reserved":false,"is_disabled":false,"rental_uris":{"android":"levelo://app?vid=60359010-f135-4c3b-9e8e-88de805842da","ios":"levelo://app?vid=60359010-f135-4c3b-9e8e-88de805842da"},"vehicle_type_id":"4","last_reported":1706911579,"current_range_meters":13200,"station_id":"ce4bgs92rcd13ifvqcc0","pricing_plan_id":"free"},{"bike_id":"d6c6117f-570d-4943-9f4e-85244eb92b89","system_id":"levelo_inurba_marseille","lat":43.3199,"lon":5.381553,"is_reserved":false,"is_disabled":false,"rental_uris":{"android":"levelo://app?vid=d6c6117f-570d-4943-9f4e-85244eb92b89","ios":"levelo://app?vid=d6c6117f-570d-4943-9f4e-85244eb92b89"},"vehicle_type_id":"4","last_reported":1706911579,"current_range_meters":11600,"station_id":"ce4bhr12rcd13ifvqhpg","pricing_plan_id":"free"},{"bike_id":"106a407c-36e6-462b-9265-604bd28d927b","system_id":"levelo_inurba_marseille","lat":43.319935,"lon":5.381699,"is_reserved":false,"is_disabled":false,"rental_uris":{"android":"levelo://app?vid=106a407c-36e6-462b-9265-604bd28d927b","ios":"levelo://app?vid=106a407c-36e6-462b-9265-604bd28d927b"},"vehicle_type_id":"4","last_reported":1706911579,"current_range_meters":14400,"station_id":"ce4bhr12rcd13ifvqhpg","pricing_plan_id":"free"},{"bike_id":"dc7eb389-de1d-44d8-91e8-3334ec5a7aa2","system_id":"levelo_inurba_marseille","lat":43.313571,"lon":5.384829,"is_reserved":false,"is_disabled":false,"rental_uris":{"android":"levelo://app?vid=dc7eb389-de1d-44d8-91e8-3334ec5a7aa2","ios":"levelo://app?vid=dc7eb389-de1d-44d8-91e8-3334ec5a7aa2"},"vehicle_type_id":"4","last_reported":1706911579,"current_range_meters":13600,"station_id":"ce4bgt92rcd13ifvqcf0","pricing_plan_id":"free"},{"bike_id":"3dfccb5d-f33c-411e-923a-f38a51b2ded8","system_id":"levelo_inurba_marseille","lat":43.313571,"lon":5.384829,"is_reserved":false,"is_disabled":false,"rental_uris":{"android":"levelo://app?vid=3dfccb5d-f33c-411e-923a-f38a51b2ded8","ios":"levelo://app?vid=3dfccb5d-f33c-411e-923a-f38a51b2ded8"},"vehicle_type_id":"4","last_reported":1706911579,"current_range_meters":21600,"station_id":"ce4bgt92rcd13ifvqcf0","pricing_plan_id":"free"},{"bike_id":"fc02dd47-3f6c-4370-9ff3-ea2aea38ef40","system_id":"levelo_inurba_marseille","lat":43.313571,"lon":5.384829,"is_reserved":false,"is_disabled":false,"rental_uris":{"android":"levelo://app?vid=fc02dd47-3f6c-4370-9ff3-ea2aea38ef40","ios":"levelo://app?vid=fc02dd47-3f6c-4370-9ff3-ea2aea38ef40"},"vehicle_type_id":"4","last_reported":1706911579,"current_range_meters":17600,"station_id":"ce4bgt92rcd13ifvqcf0","pricing_plan_id":"free"},{"bike_id":"301629ab-6389-4d9d-add4-609511b9a5b9","system_id":"levelo_inurba_marseille","lat":43.313571,"lon":5.384829,"is_reserved":false,"is_disabled":false,"rental_uris":{"android":"levelo://app?vid=301629ab-6389-4d9d-add4-609511b9a5b9","ios":"levelo://app?vid=301629ab-6389-4d9d-add4-609511b9a5b9"},"vehicle_type_id":"4","last_reported":1706911579,"current_range_meters":18800,"station_id":"ce4bgt92rcd13ifvqcf0","pricing_plan_id":"free"},{"bike_id":"4423e192-b3e7-44d9-ac8b-124416752f38","system_id":"levelo_inurba_marseille","lat":43.313571,"lon":5.384829,"is_reserved":false,"is_disabled":false,"rental_uris":{"android":"levelo://app?vid=4423e192-b3e7-44d9-ac8b-124416752f38","ios":"levelo://app?vid=4423e192-b3e7-44d9-ac8b-124416752f38"},"vehicle_type_id":"4","last_reported":1706911579,"current_range_meters":9200,"station_id":"ce4bgt92rcd13ifvqcf0","pricing_plan_id":"free"},{"bike_id":"5134c7a4-0fe6-4671-8ff1-65e0ad508bf7","system_id":"levelo_inurba_marseille","lat":43.313571,"lon":5.384829,"is_reserved":false,"is_disabled":false,"rental_uris":{"android":"levelo://app?vid=5134c7a4-0fe6-4671-8ff1-65e0ad508bf7","ios":"levelo://app?vid=5134c7a4-0fe6-4671-8ff1-65e0ad508bf7"},"vehicle_type_id":"4","last_reported":1706911579,"current_range_meters":4400,"station_id":"ce4bgt92rcd13ifvqcf0","pricing_plan_id":"free"},{"bike_id":"d044613f-7b3b-4798-a318-312429e32d2d","system_id":"levelo_inurba_marseille","lat":43.313571,"lon":5.384829,"is_reserved":false,"is_disabled":false,"rental_uris":{"android":"levelo://app?vid=d044613f-7b3b-4798-a318-312429e32d2d","ios":"levelo://app?vid=d044613f-7b3b-4798-a318-312429e32d2d"},"vehicle_type_id":"4","last_reported":1706911579,"current_range_meters":6400,"station_id":"ce4bgt92rcd13ifvqcf0","pricing_plan_id":"free"},{"bike_id":"84acf02a-8f22-4cd6-9b38-6942a44ceec5","system_id":"levelo_inurba_marseille","lat":43.313571,"lon":5.384829,"is_reserved":false,"is_disabled":false,"rental_uris":{"android":"levelo://app?vid=84acf02a-8f22-4cd6-9b38-6942a44ceec5","ios":"levelo://app?vid=84acf02a-8f22-4cd6-9b38-6942a44ceec5"},"vehicle_type_id":"4","last_reported":1706911579,"current_range_meters":17600,"station_id":"ce4bgt92rcd13ifvqcf0","pricing_plan_id":"free"},{"bike_id":"ca546138-f283-42b6-98e3-9b65eb3d453b","system_id":"levelo_inurba_marseille","lat":43.299724,"lon":5.371829,"is_reserved":false,"is_disabled":false,"rental_uris":{"android":"levelo://app?vid=ca546138-f283-42b6-98e3-9b65eb3d453b","ios":"levelo://app?vid=ca546138-f283-42b6-98e3-9b65eb3d453b"},"vehicle_type_id":"4","last_reported":1706911579,"current_range_meters":12800,"station_id":"ce4bgr92rcd13ifvqc7g","pricing_plan_id":"free"},{"bike_id":"b83f8521-a99d-47f9-9e6d-f8bb3b49b983","system_id":"levelo_inurba_marseille","lat":43.305364,"lon":5.384119,"is_reserved":false,"is_disabled":false,"rental_uris":{"android":"levelo://app?vid=b83f8521-a99d-47f9-9e6d-f8bb3b49b983","ios":"levelo://app?vid=b83f8521-a99d-47f9-9e6d-f8bb3b49b983"},"vehicle_type_id":"4","last_reported":1706911579,"current_range_meters":8400,"station_id":"ce4bgg92rcd13ifvqb30","pricing_plan_id":"free"},{"bike_id":"ee08fad7-ba81-4bdd-a684-212c3fee00aa","system_id":"levelo_inurba_marseille","lat":43.299243,"lon":5.374807,"is_reserved":false,"is_disabled":false,"rental_uris":{"android":"levelo://app?vid=ee08fad7-ba81-4bdd-a684-212c3fee00aa","ios":"levelo://app?vid=ee08fad7-ba81-4bdd-a684-212c3fee00aa"},"vehicle_type_id":"4","last_reported":1706911579,"current_range_meters":24000,"station_id":"ce4bgjh2rcd13ifvqbg0","pricing_plan_id":"free"},{"bike_id":"817fdec0-cdad-4773-97cc-a30c8b8749b0","system_id":"levelo_inurba_marseille","lat":43.31179,"lon":5.38708,"is_reserved":false,"is_disabled":false,"rental_uris":{"android":"levelo://app?vid=817fdec0-cdad-4773-97cc-a30c8b8749b0","ios":"levelo://app?vid=817fdec0-cdad-4773-97cc-a30c8b8749b0"},"vehicle_type_id":"4","last_reported":1706911579,"current_range_meters":18000,"station_id":"ce4bgv12rcd13ifvqcp0","pricing_plan_id":"free"},{"bike_id":"3d4f3d84-51f3-4229-83fe-3be49c001beb","system_id":"levelo_inurba_marseille","lat":43.31171,"lon":5.38711,"is_reserved":false,"is_disabled":false,"rental_uris":{"android":"levelo://app?vid=3d4f3d84-51f3-4229-83fe-3be49c001beb","ios":"levelo://app?vid=3d4f3d84-51f3-4229-83fe-3be49c001beb"},"vehicle_type_id":"4","last_reported":1706911579,"current_range_meters":0,"station_id":"ce4bgv12rcd13ifvqcp0","pricing_plan_id":"free"},{"bike_id":"0d390c9c-2995-4c63-8b69-3be8d6a78183","system_id":"levelo_inurba_marseille","lat":43.311722,"lon":5.387247,"is_reserved":false,"is_disabled":false,"rental_uris":{"android":"levelo://app?vid=0d390c9c-2995-4c63-8b69-3be8d6a78183","ios":"levelo://app?vid=0d390c9c-2995-4c63-8b69-3be8d6a78183"},"vehicle_type_id":"4","last_reported":1706911579,"current_range_meters":10800,"station_id":"ce4bgv12rcd13ifvqcp0","pricing_plan_id":"free"},{"bike_id":"8081cb9b-9817-4414-8802-7e71f4991282","system_id":"levelo_inurba_marseille","lat":43.31176,"lon":5.38714,"is_reserved":false,"is_disabled":false,"rental_uris":{"android":"levelo://app?vid=8081cb9b-9817-4414-8802-7e71f4991282","ios":"levelo://app?vid=8081cb9b-9817-4414-8802-7e71f4991282"},"vehicle_type_id":"4","last_reported":1706911579,"current_range_meters":0,"station_id":"ce4bgv12rcd13ifvqcp0","pricing_plan_id":"free"},{"bike_id":"fa932f8f-fcac-420c-8595-9eaed6f9528b","system_id":"levelo_inurba_marseille","lat":43.311722,"lon":5.387247,"is_reserved":false,"is_disabled":false,"rental_uris":{"android":"levelo://app?vid=fa932f8f-fcac-420c-8595-9eaed6f9528b","ios":"levelo://app?vid=fa932f8f-fcac-420c-8595-9eaed6f9528b"},"vehicle_type_id":"4","last_reported":1706911579,"current_range_meters":24000,"station_id":"ce4bgv12rcd13ifvqcp0","pricing_plan_id":"free"},{"bike_id":"bc33351a-f903-4dc0-8465-9a0f8cef89fd","system_id":"levelo_inurba_marseille","lat":43.29912,"lon":5.37477,"is_reserved":false,"is_disabled":false,"rental_uris":{"android":"levelo://app?vid=bc33351a-f903-4dc0-8465-9a0f8cef89fd","ios":"levelo://app?vid=bc33351a-f903-4dc0-8465-9a0f8cef89fd"},"vehicle_type_id":"4","last_reported":1706911579,"current_range_meters":0,"station_id":"ce4bgjh2rcd13ifvqbg0","pricing_plan_id":"free"},{"bike_id":"e544a8cb-9126-4c85-a57a-b40c62ba6606","system_id":"levelo_inurba_marseille","lat":43.311722,"lon":5.387247,"is_reserved":false,"is_disabled":false,"rental_uris":{"android":"levelo://app?vid=e544a8cb-9126-4c85-a57a-b40c62ba6606","ios":"levelo://app?vid=e544a8cb-9126-4c85-a57a-b40c62ba6606"},"vehicle_type_id":"4","last_reported":1706911579,"current_range_meters":28400,"station_id":"ce4bgv12rcd13ifvqcp0","pricing_plan_id":"free"},{"bike_id":"f3a6b36f-702f-4662-8ff7-d959fcbc6177","system_id":"levelo_inurba_marseille","lat":43.299243,"lon":5.374807,"is_reserved":false,"is_disabled":false,"rental_uris":{"android":"levelo://app?vid=f3a6b36f-702f-4662-8ff7-d959fcbc6177","ios":"levelo://app?vid=f3a6b36f-702f-4662-8ff7-d959fcbc6177"},"vehicle_type_id":"4","last_reported":1706911579,"current_range_meters":13200,"station_id":"ce4bgjh2rcd13ifvqbg0","pricing_plan_id":"free"},{"bike_id":"a949a12d-7dee-406d-b3c0-51cbee7cf722","system_id":"levelo_inurba_marseille","lat":43.322872,"lon":5.382756,"is_reserved":false,"is_disabled":false,"rental_uris":{"android":"levelo://app?vid=a949a12d-7dee-406d-b3c0-51cbee7cf722","ios":"levelo://app?vid=a949a12d-7dee-406d-b3c0-51cbee7cf722"},"vehicle_type_id":"4","last_reported":1706911579,"current_range_meters":20000,"station_id":"ce4bhr12rcd13ifvqhqg","pricing_plan_id":"free"},{"bike_id":"c1c821b1-46e9-4095-ab28-696a5cc48552","system_id":"levelo_inurba_marseille","lat":43.322872,"lon":5.382756,"is_reserved":false,"is_disabled":false,"rental_uris":{"android":"levelo://app?vid=c1c821b1-46e9-4095-ab28-696a5cc48552","ios":"levelo://app?vid=c1c821b1-46e9-4095-ab28-696a5cc48552"},"vehicle_type_id":"4","last_reported":1706911579,"current_range_meters":8000,"station_id":"ce4bhr12rcd13ifvqhqg","pricing_plan_id":"free"},{"bike_id":"02e37b27-5863-4c78-9d44-465544029690","system_id":"levelo_inurba_marseille","lat":43.322872,"lon":5.382756,"is_reserved":false,"is_disabled":false,"rental_uris":{"android":"levelo://app?vid=02e37b27-5863-4c78-9d44-465544029690","ios":"levelo://app?vid=02e37b27-5863-4c78-9d44-465544029690"},"vehicle_type_id":"4","last_reported":1706911579,"current_range_meters":22000,"station_id":"ce4bhr12rcd13ifvqhqg","pricing_plan_id":"free"},{"bike_id":"65cdfc14-d57a-452e-8dc5-c02b0bdb56dd","system_id":"levelo_inurba_marseille","lat":43.322872,"lon":5.382756,"is_reserved":false,"is_disabled":false,"rental_uris":{"android":"levelo://app?vid=65cdfc14-d57a-452e-8dc5-c02b0bdb56dd","ios":"levelo://app?vid=65cdfc14-d57a-452e-8dc5-c02b0bdb56dd"},"vehicle_type_id":"4","last_reported":1706911579,"current_range_meters":30000,"station_id":"ce4bhr12rcd13ifvqhqg","pricing_plan_id":"free"},{"bike_id":"b5d7b2cb-266e-4133-b32f-f491e5a88e3f","system_id":"levelo_inurba_marseille","lat":43.322872,"lon":5.382756,"is_reserved":false,"is_disabled":false,"rental_uris":{"android":"levelo://app?vid=b5d7b2cb-266e-4133-b32f-f491e5a88e3f","ios":"levelo://app?vid=b5d7b2cb-266e-4133-b32f-f491e5a88e3f"},"vehicle_type_id":"4","last_reported":1706911579,"current_range_meters":21200,"station_id":"ce4bhr12rcd13ifvqhqg","pricing_plan_id":"free"},{"bike_id":"1900e2ea-9239-49b1-933e-57903fa99707","system_id":"levelo_inurba_marseille","lat":43.32826,"lon":5.36695,"is_reserved":false,"is_disabled":false,"rental_uris":{"android":"levelo://app?vid=1900e2ea-9239-49b1-933e-57903fa99707","ios":"levelo://app?vid=1900e2ea-9239-49b1-933e-57903fa99707"},"vehicle_type_id":"4","last_reported":1706911579,"current_range_meters":17200,"station_id":"ce4bhs92rcd13ifvqi0g","pricing_plan_id":"free"},{"bike_id":"ab22a9f9-4426-4a48-9339-d0847e65fb60","system_id":"levelo_inurba_marseille","lat":43.328371,"lon":5.366909,"is_reserved":false,"is_disabled":false,"rental_uris":{"android":"levelo://app?vid=ab22a9f9-4426-4a48-9339-d0847e65fb60","ios":"levelo://app?vid=ab22a9f9-4426-4a48-9339-d0847e65fb60"},"vehicle_type_id":"4","last_reported":1706911579,"current_range_meters":8000,"station_id":"ce4bhs92rcd13ifvqi0g","pricing_plan_id":"free"},{"bike_id":"a7bfceb0-51de-4318-908b-e1b2856c4f57","system_id":"levelo_inurba_marseille","lat":43.297163,"lon":5.365866,"is_reserved":false,"is_disabled":false,"rental_uris":{"android":"levelo://app?vid=a7bfceb0-51de-4318-908b-e1b2856c4f57","ios":"levelo://app?vid=a7bfceb0-51de-4318-908b-e1b2856c4f57"},"vehicle_type_id":"4","last_reported":1706911579,"current_range_meters":31200,"station_id":"ce4bgn12rcd13ifvqbt0","pricing_plan_id":"free"},{"bike_id":"fb421499-93dc-4191-99f1-af744c87bd69","system_id":"levelo_inurba_marseille","lat":43.297163,"lon":5.365866,"is_reserved":false,"is_disabled":false,"rental_uris":{"android":"levelo://app?vid=fb421499-93dc-4191-99f1-af744c87bd69","ios":"levelo://app?vid=fb421499-93dc-4191-99f1-af744c87bd69"},"vehicle_type_id":"4","last_reported":1706911579,"current_range_meters":22000,"station_id":"ce4bgn12rcd13ifvqbt0","pricing_plan_id":"free"},{"bike_id":"ca820d75-b780-4c39-9f7b-cdbd2031e16b","system_id":"levelo_inurba_marseille","lat":43.297163,"lon":5.365866,"is_reserved":false,"is_disabled":false,"rental_uris":{"android":"levelo://app?vid=ca820d75-b780-4c39-9f7b-cdbd2031e16b","ios":"levelo://app?vid=ca820d75-b780-4c39-9f7b-cdbd2031e16b"},"vehicle_type_id":"4","last_reported":1706911579,"current_range_meters":18400,"station_id":"ce4bgn12rcd13ifvqbt0","pricing_plan_id":"free"},{"bike_id":"bfaeaf5a-db07-4781-b209-a1c345eb49a5","system_id":"levelo_inurba_marseille","lat":43.297163,"lon":5.365866,"is_reserved":false,"is_disabled":false,"rental_uris":{"android":"levelo://app?vid=bfaeaf5a-db07-4781-b209-a1c345eb49a5","ios":"levelo://app?vid=bfaeaf5a-db07-4781-b209-a1c345eb49a5"},"vehicle_type_id":"4","last_reported":1706911579,"current_range_meters":6800,"station_id":"ce4bgn12rcd13ifvqbt0","pricing_plan_id":"free"},{"bike_id":"b3e9daa0-5c1b-44ae-bc4e-d36df710bad2","system_id":"levelo_inurba_marseille","lat":43.29714,"lon":5.37695,"is_reserved":false,"is_disabled":false,"rental_uris":{"android":"levelo://app?vid=b3e9daa0-5c1b-44ae-bc4e-d36df710bad2","ios":"levelo://app?vid=b3e9daa0-5c1b-44ae-bc4e-d36df710bad2"},"vehicle_type_id":"4","last_reported":1706911579,"current_range_meters":16400,"station_id":"","pricing_plan_id":"free"},{"bike_id":"f3ca71c7-c8d3-4888-8bcf-4bc486a71f89","system_id":"levelo_inurba_marseille","lat":43.296935,"lon":5.376544,"is_reserved":false,"is_disabled":false,"rental_uris":{"android":"levelo://app?vid=f3ca71c7-c8d3-4888-8bcf-4bc486a71f89","ios":"levelo://app?vid=f3ca71c7-c8d3-4888-8bcf-4bc486a71f89"},"vehicle_type_id":"4","last_reported":1706911579,"current_range_meters":17600,"station_id":"ce4bgkh2rcd13ifvqbl0","pricing_plan_id":"free"},{"bike_id":"6bd28e52-985f-4426-b7a5-dd3644503d35","system_id":"levelo_inurba_marseille","lat":43.309474,"lon":5.390204,"is_reserved":false,"is_disabled":false,"rental_uris":{"android":"levelo://app?vid=6bd28e52-985f-4426-b7a5-dd3644503d35","ios":"levelo://app?vid=6bd28e52-985f-4426-b7a5-dd3644503d35"},"vehicle_type_id":"4","last_reported":1706911579,"current_range_meters":14800,"station_id":"ce4bgup2rcd13ifvqco0","pricing_plan_id":"free"},{"bike_id":"4fa38ecf-650a-451f-9d78-6183ae057a03","system_id":"levelo_inurba_marseille","lat":43.299028,"lon":5.381509,"is_reserved":false,"is_disabled":false,"rental_uris":{"android":"levelo://app?vid=4fa38ecf-650a-451f-9d78-6183ae057a03","ios":"levelo://app?vid=4fa38ecf-650a-451f-9d78-6183ae057a03"},"vehicle_type_id":"4","last_reported":1706911579,"current_range_meters":4800,"station_id":"ce4bgj12rcd13ifvqbc0","pricing_plan_id":"free"},{"bike_id":"9a460e8a-ca6a-4eed-a18f-de78b9257f69","system_id":"levelo_inurba_marseille","lat":43.296935,"lon":5.376544,"is_reserved":false,"is_disabled":false,"rental_uris":{"android":"levelo://app?vid=9a460e8a-ca6a-4eed-a18f-de78b9257f69","ios":"levelo://app?vid=9a460e8a-ca6a-4eed-a18f-de78b9257f69"},"vehicle_type_id":"4","last_reported":1706911579,"current_range_meters":9600,"station_id":"ce4bgkh2rcd13ifvqbl0","pricing_plan_id":"free"},{"bike_id":"397875e9-6480-491a-8b49-3a78a07339a7","system_id":"levelo_inurba_marseille","lat":43.309589,"lon":5.390258,"is_reserved":false,"is_disabled":false,"rental_uris":{"android":"levelo://app?vid=397875e9-6480-491a-8b49-3a78a07339a7","ios":"levelo://app?vid=397875e9-6480-491a-8b49-3a78a07339a7"},"vehicle_type_id":"4","last_reported":1706911579,"current_range_meters":0,"station_id":"ce4bgup2rcd13ifvqco0","pricing_plan_id":"free"},{"bike_id":"6dfd19d6-da61-4ff3-88c5-c1467079fdd0","system_id":"levelo_inurba_marseille","lat":43.30951,"lon":5.39031,"is_reserved":false,"is_disabled":false,"rental_uris":{"android":"levelo://app?vid=6dfd19d6-da61-4ff3-88c5-c1467079fdd0","ios":"levelo://app?vid=6dfd19d6-da61-4ff3-88c5-c1467079fdd0"},"vehicle_type_id":"4","last_reported":1706911579,"current_range_meters":0,"station_id":"ce4bgup2rcd13ifvqco0","pricing_plan_id":"free"},{"bike_id":"2a2bb158-5339-436a-8507-280d8c574036","system_id":"levelo_inurba_marseille","lat":43.30958,"lon":5.39034,"is_reserved":false,"is_disabled":false,"rental_uris":{"android":"levelo://app?vid=2a2bb158-5339-436a-8507-280d8c574036","ios":"levelo://app?vid=2a2bb158-5339-436a-8507-280d8c574036"},"vehicle_type_id":"4","last_reported":1706911579,"current_range_meters":0,"station_id":"ce4bgup2rcd13ifvqco0","pricing_plan_id":"free"},{"bike_id":"642d6723-e5b8-4670-b8fe-3ba898c7a5d3","system_id":"levelo_inurba_marseille","lat":43.309589,"lon":5.390258,"is_reserved":false,"is_disabled":false,"rental_uris":{"android":"levelo://app?vid=642d6723-e5b8-4670-b8fe-3ba898c7a5d3","ios":"levelo://app?vid=642d6723-e5b8-4670-b8fe-3ba898c7a5d3"},"vehicle_type_id":"4","last_reported":1706911579,"current_range_meters":0,"station_id":"ce4bgup2rcd13ifvqco0","pricing_plan_id":"free"},{"bike_id":"97cfc09a-8091-45f0-992b-4818308e4264","system_id":"levelo_inurba_marseille","lat":43.30952,"lon":5.39037,"is_reserved":false,"is_disabled":false,"rental_uris":{"android":"levelo://app?vid=97cfc09a-8091-45f0-992b-4818308e4264","ios":"levelo://app?vid=97cfc09a-8091-45f0-992b-4818308e4264"},"vehicle_type_id":"4","last_reported":1706911579,"current_range_meters":0,"station_id":"ce4bgup2rcd13ifvqco0","pricing_plan_id":"free"},{"bike_id":"6717cb07-a2bf-46d1-ba83-09e9386dc5e6","system_id":"levelo_inurba_marseille","lat":43.317557,"lon":5.390173,"is_reserved":false,"is_disabled":false,"rental_uris":{"android":"levelo://app?vid=6717cb07-a2bf-46d1-ba83-09e9386dc5e6","ios":"levelo://app?vid=6717cb07-a2bf-46d1-ba83-09e9386dc5e6"},"vehicle_type_id":"4","last_reported":1706911579,"current_range_meters":23200,"station_id":"ce4bhqp2rcd13ifvqhng","pricing_plan_id":"free"},{"bike_id":"a58d93ca-bdc9-4969-ad76-287ea92adedb","system_id":"levelo_inurba_marseille","lat":43.317557,"lon":5.390173,"is_reserved":false,"is_disabled":false,"rental_uris":{"android":"levelo://app?vid=a58d93ca-bdc9-4969-ad76-287ea92adedb","ios":"levelo://app?vid=a58d93ca-bdc9-4969-ad76-287ea92adedb"},"vehicle_type_id":"4","last_reported":1706911579,"current_range_meters":31200,"station_id":"ce4bhqp2rcd13ifvqhng","pricing_plan_id":"free"},{"bike_id":"106fe314-0813-4817-8722-724f217949ab","system_id":"levelo_inurba_marseille","lat":43.317557,"lon":5.390173,"is_reserved":false,"is_disabled":false,"rental_uris":{"android":"levelo://app?vid=106fe314-0813-4817-8722-724f217949ab","ios":"levelo://app?vid=106fe314-0813-4817-8722-724f217949ab"},"vehicle_type_id":"4","last_reported":1706911579,"current_range_meters":26800,"station_id":"ce4bhqp2rcd13ifvqhng","pricing_plan_id":"free"},{"bike_id":"aaee9df6-2bd3-419f-9a0a-fb04ee96325a","system_id":"levelo_inurba_marseille","lat":43.317557,"lon":5.390173,"is_reserved":false,"is_disabled":false,"rental_uris":{"android":"levelo://app?vid=aaee9df6-2bd3-419f-9a0a-fb04ee96325a","ios":"levelo://app?vid=aaee9df6-2bd3-419f-9a0a-fb04ee96325a"},"vehicle_type_id":"4","last_reported":1706911579,"current_range_meters":31200,"station_id":"ce4bhqp2rcd13ifvqhng","pricing_plan_id":"free"},{"bike_id":"cdd0a5e1-97e9-4609-aa8c-b9db9e70b7f9","system_id":"levelo_inurba_marseille","lat":43.317557,"lon":5.390173,"is_reserved":false,"is_disabled":false,"rental_uris":{"android":"levelo://app?vid=cdd0a5e1-97e9-4609-aa8c-b9db9e70b7f9","ios":"levelo://app?vid=cdd0a5e1-97e9-4609-aa8c-b9db9e70b7f9"},"vehicle_type_id":"4","last_reported":1706911579,"current_range_meters":17600,"station_id":"ce4bhqp2rcd13ifvqhng","pricing_plan_id":"free"},{"bike_id":"86eba5ee-3f3e-465e-879d-a26eca611b6f","system_id":"levelo_inurba_marseille","lat":43.319143,"lon":5.389913,"is_reserved":false,"is_disabled":false,"rental_uris":{"android":"levelo://app?vid=86eba5ee-3f3e-465e-879d-a26eca611b6f","ios":"levelo://app?vid=86eba5ee-3f3e-465e-879d-a26eca611b6f"},"vehicle_type_id":"4","last_reported":1706911579,"current_range_meters":24400,"station_id":"","pricing_plan_id":"free"},{"bike_id":"2edae2e0-75c0-4d70-a398-fe4ac84740f7","system_id":"levelo_inurba_marseille","lat":43.295748,"lon":5.37522,"is_reserved":false,"is_disabled":false,"rental_uris":{"android":"levelo://app?vid=2edae2e0-75c0-4d70-a398-fe4ac84740f7","ios":"levelo://app?vid=2edae2e0-75c0-4d70-a398-fe4ac84740f7"},"vehicle_type_id":"4","last_reported":1706911579,"current_range_meters":23200,"station_id":"ce4bgh92rcd13ifvqb50","pricing_plan_id":"free"},{"bike_id":"cd741160-94bd-413b-920c-486d3dd18117","system_id":"levelo_inurba_marseille","lat":43.295748,"lon":5.37522,"is_reserved":false,"is_disabled":false,"rental_uris":{"android":"levelo://app?vid=cd741160-94bd-413b-920c-486d3dd18117","ios":"levelo://app?vid=cd741160-94bd-413b-920c-486d3dd18117"},"vehicle_type_id":"4","last_reported":1706911579,"current_range_meters":0,"station_id":"ce4bgh92rcd13ifvqb50","pricing_plan_id":"free"},{"bike_id":"4c8ea85d-fedf-4caa-8771-dcc09e5ebc02","system_id":"levelo_inurba_marseille","lat":43.295748,"lon":5.37522,"is_reserved":false,"is_disabled":false,"rental_uris":{"android":"levelo://app?vid=4c8ea85d-fedf-4caa-8771-dcc09e5ebc02","ios":"levelo://app?vid=4c8ea85d-fedf-4caa-8771-dcc09e5ebc02"},"vehicle_type_id":"4","last_reported":1706911579,"current_range_meters":23600,"station_id":"ce4bgh92rcd13ifvqb50","pricing_plan_id":"free"},{"bike_id":"b3053746-476f-4951-8422-bda2758eb1d8","system_id":"levelo_inurba_marseille","lat":43.304274,"lon":5.388873,"is_reserved":false,"is_disabled":false,"rental_uris":{"android":"levelo://app?vid=b3053746-476f-4951-8422-bda2758eb1d8","ios":"levelo://app?vid=b3053746-476f-4951-8422-bda2758eb1d8"},"vehicle_type_id":"4","last_reported":1706911579,"current_range_meters":0,"station_id":"ce4bgk12rcd13ifvqbi0","pricing_plan_id":"free"},{"bike_id":"9dddc66c-e00e-48d9-b1de-0cd143d33c1c","system_id":"levelo_inurba_marseille","lat":43.304274,"lon":5.388873,"is_reserved":false,"is_disabled":false,"rental_uris":{"android":"levelo://app?vid=9dddc66c-e00e-48d9-b1de-0cd143d33c1c","ios":"levelo://app?vid=9dddc66c-e00e-48d9-b1de-0cd143d33c1c"},"vehicle_type_id":"4","last_reported":1706911579,"current_range_meters":18800,"station_id":"ce4bgk12rcd13ifvqbi0","pricing_plan_id":"free"},{"bike_id":"46bd241f-3bb3-4e52-8e2f-ab6f6a2d3113","system_id":"levelo_inurba_marseille","lat":43.295748,"lon":5.37522,"is_reserved":false,"is_disabled":false,"rental_uris":{"android":"levelo://app?vid=46bd241f-3bb3-4e52-8e2f-ab6f6a2d3113","ios":"levelo://app?vid=46bd241f-3bb3-4e52-8e2f-ab6f6a2d3113"},"vehicle_type_id":"4","last_reported":1706911579,"current_range_meters":2000,"station_id":"ce4bgh92rcd13ifvqb50","pricing_plan_id":"free"},{"bike_id":"a9cd68d8-9917-43c4-9a1c-49d54b0925ed","system_id":"levelo_inurba_marseille","lat":43.295279,"lon":5.375048,"is_reserved":false,"is_disabled":false,"rental_uris":{"android":"levelo://app?vid=a9cd68d8-9917-43c4-9a1c-49d54b0925ed","ios":"levelo://app?vid=a9cd68d8-9917-43c4-9a1c-49d54b0925ed"},"vehicle_type_id":"4","last_reported":1706911579,"current_range_meters":13600,"station_id":"ce4bgkp2rcd13ifvqbmg","pricing_plan_id":"free"},{"bike_id":"bd7baa57-26d7-4c18-b549-ec7ad71dded2","system_id":"levelo_inurba_marseille","lat":43.31103,"lon":5.39326,"is_reserved":false,"is_disabled":false,"rental_uris":{"android":"levelo://app?vid=bd7baa57-26d7-4c18-b549-ec7ad71dded2","ios":"levelo://app?vid=bd7baa57-26d7-4c18-b549-ec7ad71dded2"},"vehicle_type_id":"4","last_reported":1706911579,"current_range_meters":2800,"station_id":"","pricing_plan_id":"free"},{"bike_id":"2f639903-b097-46b0-8494-0017af56b0e6","system_id":"levelo_inurba_marseille","lat":43.32365,"lon":5.388742,"is_reserved":false,"is_disabled":false,"rental_uris":{"android":"levelo://app?vid=2f639903-b097-46b0-8494-0017af56b0e6","ios":"levelo://app?vid=2f639903-b097-46b0-8494-0017af56b0e6"},"vehicle_type_id":"4","last_reported":1706911579,"current_range_meters":20400,"station_id":"ce4bhqp2rcd13ifvqhog","pricing_plan_id":"free"},{"bike_id":"11d92546-2528-492a-a49e-9a0a5d945886","system_id":"levelo_inurba_marseille","lat":43.32365,"lon":5.38878,"is_reserved":false,"is_disabled":false,"rental_uris":{"android":"levelo://app?vid=11d92546-2528-492a-a49e-9a0a5d945886","ios":"levelo://app?vid=11d92546-2528-492a-a49e-9a0a5d945886"},"vehicle_type_id":"4","last_reported":1706911579,"current_range_meters":8400,"station_id":"ce4bhqp2rcd13ifvqhog","pricing_plan_id":"free"},{"bike_id":"13b9c551-9d4a-4e3d-8b94-3ec930896106","system_id":"levelo_inurba_marseille","lat":43.32362,"lon":5.38881,"is_reserved":false,"is_disabled":false,"rental_uris":{"android":"levelo://app?vid=13b9c551-9d4a-4e3d-8b94-3ec930896106","ios":"levelo://app?vid=13b9c551-9d4a-4e3d-8b94-3ec930896106"},"vehicle_type_id":"4","last_reported":1706911579,"current_range_meters":2400,"station_id":"ce4bhqp2rcd13ifvqhog","pricing_plan_id":"free"},{"bike_id":"81b0db2a-d7d3-47f0-a95d-ba7da6ca0e0e","system_id":"levelo_inurba_marseille","lat":43.32365,"lon":5.38882,"is_reserved":false,"is_disabled":false,"rental_uris":{"android":"levelo://app?vid=81b0db2a-d7d3-47f0-a95d-ba7da6ca0e0e","ios":"levelo://app?vid=81b0db2a-d7d3-47f0-a95d-ba7da6ca0e0e"},"vehicle_type_id":"4","last_reported":1706911579,"current_range_meters":0,"station_id":"ce4bhqp2rcd13ifvqhog","pricing_plan_id":"free"},{"bike_id":"2867005b-b9b0-4312-8b91-edb88d7a8842","system_id":"levelo_inurba_marseille","lat":43.32362,"lon":5.38886,"is_reserved":false,"is_disabled":false,"rental_uris":{"android":"levelo://app?vid=2867005b-b9b0-4312-8b91-edb88d7a8842","ios":"levelo://app?vid=2867005b-b9b0-4312-8b91-edb88d7a8842"},"vehicle_type_id":"4","last_reported":1706911579,"current_range_meters":0,"station_id":"ce4bhqp2rcd13ifvqhog","pricing_plan_id":"free"},{"bike_id":"1aca591f-66c1-4cab-8b35-fdb227e8bbbc","system_id":"levelo_inurba_marseille","lat":43.32367,"lon":5.388836,"is_reserved":false,"is_disabled":false,"rental_uris":{"android":"levelo://app?vid=1aca591f-66c1-4cab-8b35-fdb227e8bbbc","ios":"levelo://app?vid=1aca591f-66c1-4cab-8b35-fdb227e8bbbc"},"vehicle_type_id":"4","last_reported":1706911579,"current_range_meters":800,"station_id":"ce4bhqp2rcd13ifvqhog","pricing_plan_id":"free"},{"bike_id":"e3ee28ba-cab5-40e7-ba5c-728151521cef","system_id":"levelo_inurba_marseille","lat":43.32366,"lon":5.38884,"is_reserved":false,"is_disabled":false,"rental_uris":{"android":"levelo://app?vid=e3ee28ba-cab5-40e7-ba5c-728151521cef","ios":"levelo://app?vid=e3ee28ba-cab5-40e7-ba5c-728151521cef"},"vehicle_type_id":"4","last_reported":1706911579,"current_range_meters":9600,"station_id":"ce4bhqp2rcd13ifvqhog","pricing_plan_id":"free"},{"bike_id":"522745f2-6505-4a93-9a55-5c66eaece61d","system_id":"levelo_inurba_marseille","lat":43.32366,"lon":5.38884,"is_reserved":false,"is_disabled":false,"rental_uris":{"android":"levelo://app?vid=522745f2-6505-4a93-9a55-5c66eaece61d","ios":"levelo://app?vid=522745f2-6505-4a93-9a55-5c66eaece61d"},"vehicle_type_id":"4","last_reported":1706911579,"current_range_meters":5200,"station_id":"ce4bhqp2rcd13ifvqhog","pricing_plan_id":"free"},{"bike_id":"e512050a-6529-4225-a927-b67d6c06029f","system_id":"levelo_inurba_marseille","lat":43.323673,"lon":5.388837,"is_reserved":false,"is_disabled":false,"rental_uris":{"android":"levelo://app?vid=e512050a-6529-4225-a927-b67d6c06029f","ios":"levelo://app?vid=e512050a-6529-4225-a927-b67d6c06029f"},"vehicle_type_id":"4","last_reported":1706911579,"current_range_meters":0,"station_id":"ce4bhqp2rcd13ifvqhog","pricing_plan_id":"free"},{"bike_id":"80aebc65-9276-4106-9147-2143e4c2833e","system_id":"levelo_inurba_marseille","lat":43.32363,"lon":5.38888,"is_reserved":false,"is_disabled":false,"rental_uris":{"android":"levelo://app?vid=80aebc65-9276-4106-9147-2143e4c2833e","ios":"levelo://app?vid=80aebc65-9276-4106-9147-2143e4c2833e"},"vehicle_type_id":"4","last_reported":1706911579,"current_range_meters":10000,"station_id":"ce4bhqp2rcd13ifvqhog","pricing_plan_id":"free"},{"bike_id":"81a48434-30d3-4355-a668-7d3953e7fa82","system_id":"levelo_inurba_marseille","lat":43.32367,"lon":5.388836,"is_reserved":false,"is_disabled":false,"rental_uris":{"android":"levelo://app?vid=81a48434-30d3-4355-a668-7d3953e7fa82","ios":"levelo://app?vid=81a48434-30d3-4355-a668-7d3953e7fa82"},"vehicle_type_id":"4","last_reported":1706911579,"current_range_meters":0,"station_id":"ce4bhqp2rcd13ifvqhog","pricing_plan_id":"free"},{"bike_id":"a763ba73-be1b-47fe-b1b9-a14bd81f3a01","system_id":"levelo_inurba_marseille","lat":43.32367,"lon":5.388836,"is_reserved":false,"is_disabled":false,"rental_uris":{"android":"levelo://app?vid=a763ba73-be1b-47fe-b1b9-a14bd81f3a01","ios":"levelo://app?vid=a763ba73-be1b-47fe-b1b9-a14bd81f3a01"},"vehicle_type_id":"4","last_reported":1706911579,"current_range_meters":22800,"station_id":"ce4bhqp2rcd13ifvqhog","pricing_plan_id":"free"},{"bike_id":"cabe25cb-ec0b-4dc3-8feb-44741e6dd484","system_id":"levelo_inurba_marseille","lat":43.323672,"lon":5.388882,"is_reserved":false,"is_disabled":false,"rental_uris":{"android":"levelo://app?vid=cabe25cb-ec0b-4dc3-8feb-44741e6dd484","ios":"levelo://app?vid=cabe25cb-ec0b-4dc3-8feb-44741e6dd484"},"vehicle_type_id":"4","last_reported":1706911579,"current_range_meters":6000,"station_id":"ce4bhqp2rcd13ifvqhog","pricing_plan_id":"free"},{"bike_id":"44412611-1df1-41d1-a1a2-71e4de692709","system_id":"levelo_inurba_marseille","lat":43.32372,"lon":5.38889,"is_reserved":false,"is_disabled":false,"rental_uris":{"android":"levelo://app?vid=44412611-1df1-41d1-a1a2-71e4de692709","ios":"levelo://app?vid=44412611-1df1-41d1-a1a2-71e4de692709"},"vehicle_type_id":"4","last_reported":1706911579,"current_range_meters":23200,"station_id":"ce4bhqp2rcd13ifvqhog","pricing_plan_id":"free"},{"bike_id":"a88d7e98-ded5-4cda-9476-c135ae1668e8","system_id":"levelo_inurba_marseille","lat":43.29602,"lon":5.381084,"is_reserved":false,"is_disabled":false,"rental_uris":{"android":"levelo://app?vid=a88d7e98-ded5-4cda-9476-c135ae1668e8","ios":"levelo://app?vid=a88d7e98-ded5-4cda-9476-c135ae1668e8"},"vehicle_type_id":"4","last_reported":1706911579,"current_range_meters":9600,"station_id":"ce4bgl12rcd13ifvqbo0","pricing_plan_id":"free"},{"bike_id":"07d93afe-373e-493c-be84-e9629f1f65e3","system_id":"levelo_inurba_marseille","lat":43.29288,"lon":5.3684,"is_reserved":false,"is_disabled":false,"rental_uris":{"android":"levelo://app?vid=07d93afe-373e-493c-be84-e9629f1f65e3","ios":"levelo://app?vid=07d93afe-373e-493c-be84-e9629f1f65e3"},"vehicle_type_id":"4","last_reported":1706911579,"current_range_meters":4800,"station_id":"","pricing_plan_id":"free"},{"bike_id":"e3bc401c-74da-410c-9a03-299084b0c62b","system_id":"levelo_inurba_marseille","lat":43.292749,"lon":5.368398,"is_reserved":false,"is_disabled":false,"rental_uris":{"android":"levelo://app?vid=e3bc401c-74da-410c-9a03-299084b0c62b","ios":"levelo://app?vid=e3bc401c-74da-410c-9a03-299084b0c62b"},"vehicle_type_id":"4","last_reported":1706911579,"current_range_meters":30000,"station_id":"ce4bhbp2rcd13ifvqesg","pricing_plan_id":"free"},{"bike_id":"db7fcd4f-dde1-408c-a870-906b40d37b79","system_id":"levelo_inurba_marseille","lat":43.292749,"lon":5.368402,"is_reserved":false,"is_disabled":false,"rental_uris":{"android":"levelo://app?vid=db7fcd4f-dde1-408c-a870-906b40d37b79","ios":"levelo://app?vid=db7fcd4f-dde1-408c-a870-906b40d37b79"},"vehicle_type_id":"4","last_reported":1706911579,"current_range_meters":4000,"station_id":"ce4bhbp2rcd13ifvqesg","pricing_plan_id":"free"},{"bike_id":"e4cca626-7905-47c7-bbaa-8460d2e32bf8","system_id":"levelo_inurba_marseille","lat":43.29303,"lon":5.371888,"is_reserved":false,"is_disabled":false,"rental_uris":{"android":"levelo://app?vid=e4cca626-7905-47c7-bbaa-8460d2e32bf8","ios":"levelo://app?vid=e4cca626-7905-47c7-bbaa-8460d2e32bf8"},"vehicle_type_id":"4","last_reported":1706911579,"current_range_meters":0,"station_id":"ce4bgh92rcd13ifvqb40","pricing_plan_id":"free"},{"bike_id":"9ffa8d96-0e7f-4588-b025-6311387f91b4","system_id":"levelo_inurba_marseille","lat":43.292715,"lon":5.368373,"is_reserved":false,"is_disabled":false,"rental_uris":{"android":"levelo://app?vid=9ffa8d96-0e7f-4588-b025-6311387f91b4","ios":"levelo://app?vid=9ffa8d96-0e7f-4588-b025-6311387f91b4"},"vehicle_type_id":"4","last_reported":1706911579,"current_range_meters":0,"station_id":"ce4bhbp2rcd13ifvqesg","pricing_plan_id":"free"},{"bike_id":"0242626d-2cea-430c-8bae-8bbfa09cf0cb","system_id":"levelo_inurba_marseille","lat":43.292749,"lon":5.368398,"is_reserved":false,"is_disabled":false,"rental_uris":{"android":"levelo://app?vid=0242626d-2cea-430c-8bae-8bbfa09cf0cb","ios":"levelo://app?vid=0242626d-2cea-430c-8bae-8bbfa09cf0cb"},"vehicle_type_id":"4","last_reported":1706911579,"current_range_meters":0,"station_id":"ce4bhbp2rcd13ifvqesg","pricing_plan_id":"free"},{"bike_id":"eebc7da2-bb86-48d6-8827-86b934602dc3","system_id":"levelo_inurba_marseille","lat":43.304606,"lon":5.379026,"is_reserved":false,"is_disabled":false,"rental_uris":{"android":"levelo://app?vid=eebc7da2-bb86-48d6-8827-86b934602dc3","ios":"levelo://app?vid=eebc7da2-bb86-48d6-8827-86b934602dc3"},"vehicle_type_id":"4","last_reported":1706911579,"current_range_meters":4400,"station_id":"ce4bgup2rcd13ifvqcn0","pricing_plan_id":"free"},{"bike_id":"22a2795b-e608-46c6-b86c-243a38ebcb03","system_id":"levelo_inurba_marseille","lat":43.29305,"lon":5.37459,"is_reserved":false,"is_disabled":false,"rental_uris":{"android":"levelo://app?vid=22a2795b-e608-46c6-b86c-243a38ebcb03","ios":"levelo://app?vid=22a2795b-e608-46c6-b86c-243a38ebcb03"},"vehicle_type_id":"4","last_reported":1706911579,"current_range_meters":0,"station_id":"","pricing_plan_id":"free"},{"bike_id":"e01b8aa0-3e32-4bd2-871c-11dc8566548a","system_id":"levelo_inurba_marseille","lat":43.305994,"lon":5.393687,"is_reserved":false,"is_disabled":false,"rental_uris":{"android":"levelo://app?vid=e01b8aa0-3e32-4bd2-871c-11dc8566548a","ios":"levelo://app?vid=e01b8aa0-3e32-4bd2-871c-11dc8566548a"},"vehicle_type_id":"4","last_reported":1706911579,"current_range_meters":25200,"station_id":"ce4bh0p2rcd13ifvqd80","pricing_plan_id":"free"},{"bike_id":"bcab7625-d36c-4095-83f1-59795927cc64","system_id":"levelo_inurba_marseille","lat":43.29287,"lon":5.3746,"is_reserved":false,"is_disabled":false,"rental_uris":{"android":"levelo://app?vid=bcab7625-d36c-4095-83f1-59795927cc64","ios":"levelo://app?vid=bcab7625-d36c-4095-83f1-59795927cc64"},"vehicle_type_id":"4","last_reported":1706911579,"current_range_meters":0,"station_id":"ce4bgi12rcd13ifvqb70","pricing_plan_id":"free"},{"bike_id":"7e6db439-387c-4e86-aab4-02e8c05b2712","system_id":"levelo_inurba_marseille","lat":43.29285,"lon":5.37455,"is_reserved":false,"is_disabled":false,"rental_uris":{"android":"levelo://app?vid=7e6db439-387c-4e86-aab4-02e8c05b2712","ios":"levelo://app?vid=7e6db439-387c-4e86-aab4-02e8c05b2712"},"vehicle_type_id":"4","last_reported":1706911579,"current_range_meters":0,"station_id":"ce4bgi12rcd13ifvqb70","pricing_plan_id":"free"},{"bike_id":"7ddfc2ad-ecdd-4f61-a9ed-d390ad196a3a","system_id":"levelo_inurba_marseille","lat":43.292311,"lon":5.360731,"is_reserved":false,"is_disabled":false,"rental_uris":{"android":"levelo://app?vid=7ddfc2ad-ecdd-4f61-a9ed-d390ad196a3a","ios":"levelo://app?vid=7ddfc2ad-ecdd-4f61-a9ed-d390ad196a3a"},"vehicle_type_id":"4","last_reported":1706911579,"current_range_meters":9600,"station_id":"ce4bhbh2rcd13ifvqeqg","pricing_plan_id":"free"},{"bike_id":"ffb6bc24-9426-4233-af54-edb2b4f58247","system_id":"levelo_inurba_marseille","lat":43.292311,"lon":5.360731,"is_reserved":false,"is_disabled":false,"rental_uris":{"android":"levelo://app?vid=ffb6bc24-9426-4233-af54-edb2b4f58247","ios":"levelo://app?vid=ffb6bc24-9426-4233-af54-edb2b4f58247"},"vehicle_type_id":"4","last_reported":1706911579,"current_range_meters":17600,"station_id":"ce4bhbh2rcd13ifvqeqg","pricing_plan_id":"free"},{"bike_id":"b8d741ad-4f4a-4125-aa9b-6edd295f11a1","system_id":"levelo_inurba_marseille","lat":43.29224,"lon":5.36052,"is_reserved":false,"is_disabled":false,"rental_uris":{"android":"levelo://app?vid=b8d741ad-4f4a-4125-aa9b-6edd295f11a1","ios":"levelo://app?vid=b8d741ad-4f4a-4125-aa9b-6edd295f11a1"},"vehicle_type_id":"4","last_reported":1706911579,"current_range_meters":0,"station_id":"ce4bhbh2rcd13ifvqeqg","pricing_plan_id":"free"},{"bike_id":"b2109d30-c97a-422a-a3fd-a6e9712e6c0d","system_id":"levelo_inurba_marseille","lat":43.291675,"lon":5.371583,"is_reserved":false,"is_disabled":false,"rental_uris":{"android":"levelo://app?vid=b2109d30-c97a-422a-a3fd-a6e9712e6c0d","ios":"levelo://app?vid=b2109d30-c97a-422a-a3fd-a6e9712e6c0d"},"vehicle_type_id":"4","last_reported":1706911579,"current_range_meters":30000,"station_id":"ce4bha92rcd13ifvqeh0","pricing_plan_id":"free"},{"bike_id":"0f6c4419-7854-4df8-b95a-411ef15b5051","system_id":"levelo_inurba_marseille","lat":43.309038,"lon":5.396546,"is_reserved":false,"is_disabled":false,"rental_uris":{"android":"levelo://app?vid=0f6c4419-7854-4df8-b95a-411ef15b5051","ios":"levelo://app?vid=0f6c4419-7854-4df8-b95a-411ef15b5051"},"vehicle_type_id":"4","last_reported":1706911579,"current_range_meters":0,"station_id":"ce4bh012rcd13ifvqcv0","pricing_plan_id":"free"},{"bike_id":"c621328d-fe6f-496a-ba67-af6e2ccae257","system_id":"levelo_inurba_marseille","lat":43.309047,"lon":5.396551,"is_reserved":false,"is_disabled":false,"rental_uris":{"android":"levelo://app?vid=c621328d-fe6f-496a-ba67-af6e2ccae257","ios":"levelo://app?vid=c621328d-fe6f-496a-ba67-af6e2ccae257"},"vehicle_type_id":"4","last_reported":1706911579,"current_range_meters":16400,"station_id":"ce4bh012rcd13ifvqcv0","pricing_plan_id":"free"},{"bike_id":"4a2ef070-db7f-4c4b-bc9c-0dbaf1163ad8","system_id":"levelo_inurba_marseille","lat":43.309038,"lon":5.396546,"is_reserved":false,"is_disabled":false,"rental_uris":{"android":"levelo://app?vid=4a2ef070-db7f-4c4b-bc9c-0dbaf1163ad8","ios":"levelo://app?vid=4a2ef070-db7f-4c4b-bc9c-0dbaf1163ad8"},"vehicle_type_id":"4","last_reported":1706911579,"current_range_meters":8800,"station_id":"ce4bh012rcd13ifvqcv0","pricing_plan_id":"free"},{"bike_id":"de8d2740-3766-4439-bf5c-1e84605a6d9b","system_id":"levelo_inurba_marseille","lat":43.309047,"lon":5.396551,"is_reserved":false,"is_disabled":false,"rental_uris":{"android":"levelo://app?vid=de8d2740-3766-4439-bf5c-1e84605a6d9b","ios":"levelo://app?vid=de8d2740-3766-4439-bf5c-1e84605a6d9b"},"vehicle_type_id":"4","last_reported":1706911579,"current_range_meters":31200,"station_id":"ce4bh012rcd13ifvqcv0","pricing_plan_id":"free"},{"bike_id":"94549a1c-392b-4389-9513-b7fd6987b023","system_id":"levelo_inurba_marseille","lat":43.313291,"lon":5.396838,"is_reserved":false,"is_disabled":false,"rental_uris":{"android":"levelo://app?vid=94549a1c-392b-4389-9513-b7fd6987b023","ios":"levelo://app?vid=94549a1c-392b-4389-9513-b7fd6987b023"},"vehicle_type_id":"4","last_reported":1706911579,"current_range_meters":12000,"station_id":"ce4bgvp2rcd13ifvqcu0","pricing_plan_id":"free"},{"bike_id":"f97a1990-e026-4ff2-8540-87287c0e2f99","system_id":"levelo_inurba_marseille","lat":43.291881,"lon":5.358085,"is_reserved":false,"is_disabled":false,"rental_uris":{"android":"levelo://app?vid=f97a1990-e026-4ff2-8540-87287c0e2f99","ios":"levelo://app?vid=f97a1990-e026-4ff2-8540-87287c0e2f99"},"vehicle_type_id":"4","last_reported":1706911579,"current_range_meters":0,"station_id":"ce4bhb12rcd13ifvqel0","pricing_plan_id":"free"},{"bike_id":"d2d2d962-d13f-47c6-bca5-e63cb852a68f","system_id":"levelo_inurba_marseille","lat":43.309047,"lon":5.396551,"is_reserved":false,"is_disabled":false,"rental_uris":{"android":"levelo://app?vid=d2d2d962-d13f-47c6-bca5-e63cb852a68f","ios":"levelo://app?vid=d2d2d962-d13f-47c6-bca5-e63cb852a68f"},"vehicle_type_id":"4","last_reported":1706911579,"current_range_meters":13600,"station_id":"ce4bh012rcd13ifvqcv0","pricing_plan_id":"free"},{"bike_id":"503eabd9-d11d-447d-82e1-1dd32d594b2c","system_id":"levelo_inurba_marseille","lat":43.313291,"lon":5.396838,"is_reserved":false,"is_disabled":false,"rental_uris":{"android":"levelo://app?vid=503eabd9-d11d-447d-82e1-1dd32d594b2c","ios":"levelo://app?vid=503eabd9-d11d-447d-82e1-1dd32d594b2c"},"vehicle_type_id":"4","last_reported":1706911579,"current_range_meters":21600,"station_id":"ce4bgvp2rcd13ifvqcu0","pricing_plan_id":"free"},{"bike_id":"8f6d25c4-5720-49e2-901c-58b7ad6d9c8f","system_id":"levelo_inurba_marseille","lat":43.309038,"lon":5.396546,"is_reserved":false,"is_disabled":false,"rental_uris":{"android":"levelo://app?vid=8f6d25c4-5720-49e2-901c-58b7ad6d9c8f","ios":"levelo://app?vid=8f6d25c4-5720-49e2-901c-58b7ad6d9c8f"},"vehicle_type_id":"4","last_reported":1706911579,"current_range_meters":21200,"station_id":"ce4bh012rcd13ifvqcv0","pricing_plan_id":"free"},{"bike_id":"aceb6d8b-63c6-4723-888f-e7774e512ec4","system_id":"levelo_inurba_marseille","lat":43.309038,"lon":5.396546,"is_reserved":false,"is_disabled":false,"rental_uris":{"android":"levelo://app?vid=aceb6d8b-63c6-4723-888f-e7774e512ec4","ios":"levelo://app?vid=aceb6d8b-63c6-4723-888f-e7774e512ec4"},"vehicle_type_id":"4","last_reported":1706911579,"current_range_meters":9600,"station_id":"ce4bh012rcd13ifvqcv0","pricing_plan_id":"free"},{"bike_id":"cf225569-58ad-4df6-970e-ada45ec3143e","system_id":"levelo_inurba_marseille","lat":43.309047,"lon":5.396551,"is_reserved":false,"is_disabled":false,"rental_uris":{"android":"levelo://app?vid=cf225569-58ad-4df6-970e-ada45ec3143e","ios":"levelo://app?vid=cf225569-58ad-4df6-970e-ada45ec3143e"},"vehicle_type_id":"4","last_reported":1706911579,"current_range_meters":26800,"station_id":"ce4bh012rcd13ifvqcv0","pricing_plan_id":"free"},{"bike_id":"f4ba1029-0104-436a-be6e-bd8a157def75","system_id":"levelo_inurba_marseille","lat":43.309047,"lon":5.396551,"is_reserved":false,"is_disabled":false,"rental_uris":{"android":"levelo://app?vid=f4ba1029-0104-436a-be6e-bd8a157def75","ios":"levelo://app?vid=f4ba1029-0104-436a-be6e-bd8a157def75"},"vehicle_type_id":"4","last_reported":1706911579,"current_range_meters":2400,"station_id":"ce4bh012rcd13ifvqcv0","pricing_plan_id":"free"},{"bike_id":"cb4984df-d08f-4f5b-9330-7d8434aca7ca","system_id":"levelo_inurba_marseille","lat":43.290779,"lon":5.371482,"is_reserved":false,"is_disabled":false,"rental_uris":{"android":"levelo://app?vid=cb4984df-d08f-4f5b-9330-7d8434aca7ca","ios":"levelo://app?vid=cb4984df-d08f-4f5b-9330-7d8434aca7ca"},"vehicle_type_id":"4","last_reported":1706911579,"current_range_meters":28400,"station_id":"ce4bh5p2rcd13ifvqe4g","pricing_plan_id":"free"},{"bike_id":"03cd59d2-6b6b-459b-b4ab-6b0b54c4b1ab","system_id":"levelo_inurba_marseille","lat":43.290779,"lon":5.371482,"is_reserved":false,"is_disabled":false,"rental_uris":{"android":"levelo://app?vid=03cd59d2-6b6b-459b-b4ab-6b0b54c4b1ab","ios":"levelo://app?vid=03cd59d2-6b6b-459b-b4ab-6b0b54c4b1ab"},"vehicle_type_id":"4","last_reported":1706911579,"current_range_meters":2400,"station_id":"ce4bh5p2rcd13ifvqe4g","pricing_plan_id":"free"},{"bike_id":"adf7a225-3328-451a-a516-0b4603f3a91e","system_id":"levelo_inurba_marseille","lat":43.302008,"lon":5.394694,"is_reserved":false,"is_disabled":false,"rental_uris":{"android":"levelo://app?vid=adf7a225-3328-451a-a516-0b4603f3a91e","ios":"levelo://app?vid=adf7a225-3328-451a-a516-0b4603f3a91e"},"vehicle_type_id":"4","last_reported":1706911579,"current_range_meters":31200,"station_id":"ce4bh0p2rcd13ifvqd70","pricing_plan_id":"free"},{"bike_id":"eba162c9-3c0a-4d5c-b8bb-48d6fdb40f6e","system_id":"levelo_inurba_marseille","lat":43.302008,"lon":5.394694,"is_reserved":false,"is_disabled":false,"rental_uris":{"android":"levelo://app?vid=eba162c9-3c0a-4d5c-b8bb-48d6fdb40f6e","ios":"levelo://app?vid=eba162c9-3c0a-4d5c-b8bb-48d6fdb40f6e"},"vehicle_type_id":"4","last_reported":1706911579,"current_range_meters":31200,"station_id":"ce4bh0p2rcd13ifvqd70","pricing_plan_id":"free"},{"bike_id":"7d3a0065-a360-4b3d-96cb-91b451a5416d","system_id":"levelo_inurba_marseille","lat":43.290624,"lon":5.359245,"is_reserved":false,"is_disabled":false,"rental_uris":{"android":"levelo://app?vid=7d3a0065-a360-4b3d-96cb-91b451a5416d","ios":"levelo://app?vid=7d3a0065-a360-4b3d-96cb-91b451a5416d"},"vehicle_type_id":"4","last_reported":1706911579,"current_range_meters":17600,"station_id":"ce4bha92rcd13ifvqeg0","pricing_plan_id":"free"},{"bike_id":"7c755874-04f4-49a7-881c-3dccfea2f0df","system_id":"levelo_inurba_marseille","lat":43.290441,"lon":5.359123,"is_reserved":false,"is_disabled":false,"rental_uris":{"android":"levelo://app?vid=7c755874-04f4-49a7-881c-3dccfea2f0df","ios":"levelo://app?vid=7c755874-04f4-49a7-881c-3dccfea2f0df"},"vehicle_type_id":"4","last_reported":1706911579,"current_range_meters":4800,"station_id":"","pricing_plan_id":"free"},{"bike_id":"9e96eaf3-100d-4f63-b966-6c90c5cc37f5","system_id":"levelo_inurba_marseille","lat":43.290319,"lon":5.375732,"is_reserved":false,"is_disabled":false,"rental_uris":{"android":"levelo://app?vid=9e96eaf3-100d-4f63-b966-6c90c5cc37f5","ios":"levelo://app?vid=9e96eaf3-100d-4f63-b966-6c90c5cc37f5"},"vehicle_type_id":"4","last_reported":1706911579,"current_range_meters":11600,"station_id":"ce4bh692rcd13ifvqe90","pricing_plan_id":"free"},{"bike_id":"87edd0f2-47a7-4154-b977-e56c7b7f74f1","system_id":"levelo_inurba_marseille","lat":43.29419,"lon":5.38624,"is_reserved":false,"is_disabled":false,"rental_uris":{"android":"levelo://app?vid=87edd0f2-47a7-4154-b977-e56c7b7f74f1","ios":"levelo://app?vid=87edd0f2-47a7-4154-b977-e56c7b7f74f1"},"vehicle_type_id":"4","last_reported":1706911579,"current_range_meters":0,"station_id":"ce4bh2h2rcd13ifvqdh0","pricing_plan_id":"free"},{"bike_id":"a9fc8622-fea9-439f-8644-c5b6ed4b50fc","system_id":"levelo_inurba_marseille","lat":43.294162,"lon":5.386292,"is_reserved":false,"is_disabled":false,"rental_uris":{"android":"levelo://app?vid=a9fc8622-fea9-439f-8644-c5b6ed4b50fc","ios":"levelo://app?vid=a9fc8622-fea9-439f-8644-c5b6ed4b50fc"},"vehicle_type_id":"4","last_reported":1706911579,"current_range_meters":20800,"station_id":"ce4bh2h2rcd13ifvqdh0","pricing_plan_id":"free"},{"bike_id":"66bc02e7-3304-4865-9194-44727a6f883e","system_id":"levelo_inurba_marseille","lat":43.29413,"lon":5.38621,"is_reserved":false,"is_disabled":false,"rental_uris":{"android":"levelo://app?vid=66bc02e7-3304-4865-9194-44727a6f883e","ios":"levelo://app?vid=66bc02e7-3304-4865-9194-44727a6f883e"},"vehicle_type_id":"4","last_reported":1706911579,"current_range_meters":0,"station_id":"ce4bh2h2rcd13ifvqdh0","pricing_plan_id":"free"},{"bike_id":"d43108aa-0c52-4389-a676-9c8444cdd793","system_id":"levelo_inurba_marseille","lat":43.292644,"lon":5.384257,"is_reserved":false,"is_disabled":false,"rental_uris":{"android":"levelo://app?vid=d43108aa-0c52-4389-a676-9c8444cdd793","ios":"levelo://app?vid=d43108aa-0c52-4389-a676-9c8444cdd793"},"vehicle_type_id":"4","last_reported":1706911579,"current_range_meters":14800,"station_id":"ce4bh692rcd13ifvqea0","pricing_plan_id":"free"},{"bike_id":"31afd07f-04d7-4189-89cb-522cdab17623","system_id":"levelo_inurba_marseille","lat":43.292642,"lon":5.384254,"is_reserved":false,"is_disabled":false,"rental_uris":{"android":"levelo://app?vid=31afd07f-04d7-4189-89cb-522cdab17623","ios":"levelo://app?vid=31afd07f-04d7-4189-89cb-522cdab17623"},"vehicle_type_id":"4","last_reported":1706911579,"current_range_meters":2800,"station_id":"ce4bh692rcd13ifvqea0","pricing_plan_id":"free"},{"bike_id":"c65b986d-3be7-4526-b5cb-daaf60578bf7","system_id":"levelo_inurba_marseille","lat":43.292644,"lon":5.384257,"is_reserved":false,"is_disabled":false,"rental_uris":{"android":"levelo://app?vid=c65b986d-3be7-4526-b5cb-daaf60578bf7","ios":"levelo://app?vid=c65b986d-3be7-4526-b5cb-daaf60578bf7"},"vehicle_type_id":"4","last_reported":1706911579,"current_range_meters":19600,"station_id":"ce4bh692rcd13ifvqea0","pricing_plan_id":"free"},{"bike_id":"a2da6b5b-acb7-465a-bf91-45982bebb36f","system_id":"levelo_inurba_marseille","lat":43.292642,"lon":5.384254,"is_reserved":false,"is_disabled":false,"rental_uris":{"android":"levelo://app?vid=a2da6b5b-acb7-465a-bf91-45982bebb36f","ios":"levelo://app?vid=a2da6b5b-acb7-465a-bf91-45982bebb36f"},"vehicle_type_id":"4","last_reported":1706911579,"current_range_meters":9200,"station_id":"ce4bh692rcd13ifvqea0","pricing_plan_id":"free"},{"bike_id":"225e8c8e-47bd-4028-bcf4-52349812c06d","system_id":"levelo_inurba_marseille","lat":43.292644,"lon":5.384257,"is_reserved":false,"is_disabled":false,"rental_uris":{"android":"levelo://app?vid=225e8c8e-47bd-4028-bcf4-52349812c06d","ios":"levelo://app?vid=225e8c8e-47bd-4028-bcf4-52349812c06d"},"vehicle_type_id":"4","last_reported":1706911579,"current_range_meters":0,"station_id":"ce4bh692rcd13ifvqea0","pricing_plan_id":"free"},{"bike_id":"2fa363cc-2315-4876-88c3-09748759a814","system_id":"levelo_inurba_marseille","lat":43.292701,"lon":5.384515,"is_reserved":false,"is_disabled":false,"rental_uris":{"android":"levelo://app?vid=2fa363cc-2315-4876-88c3-09748759a814","ios":"levelo://app?vid=2fa363cc-2315-4876-88c3-09748759a814"},"vehicle_type_id":"4","last_reported":1706911579,"current_range_meters":0,"station_id":"ce4bh692rcd13ifvqea0","pricing_plan_id":"free"},{"bike_id":"d5a2f2f4-0ad4-43ce-88da-f919106b1cc1","system_id":"levelo_inurba_marseille","lat":43.3031,"lon":5.39685,"is_reserved":false,"is_disabled":false,"rental_uris":{"android":"levelo://app?vid=d5a2f2f4-0ad4-43ce-88da-f919106b1cc1","ios":"levelo://app?vid=d5a2f2f4-0ad4-43ce-88da-f919106b1cc1"},"vehicle_type_id":"4","last_reported":1706911579,"current_range_meters":400,"station_id":"","pricing_plan_id":"free"},{"bike_id":"18f39d0b-e16e-4367-b33e-ca6725bc1806","system_id":"levelo_inurba_marseille","lat":43.304274,"lon":5.397513,"is_reserved":false,"is_disabled":false,"rental_uris":{"android":"levelo://app?vid=18f39d0b-e16e-4367-b33e-ca6725bc1806","ios":"levelo://app?vid=18f39d0b-e16e-4367-b33e-ca6725bc1806"},"vehicle_type_id":"4","last_reported":1706911579,"current_range_meters":4800,"station_id":"ce4bh092rcd13ifvqd20","pricing_plan_id":"free"},{"bike_id":"f9d5d05c-03c7-490f-94f5-7f3e107031f5","system_id":"levelo_inurba_marseille","lat":43.317557,"lon":5.390173,"is_reserved":false,"is_disabled":false,"rental_uris":{"android":"levelo://app?vid=f9d5d05c-03c7-490f-94f5-7f3e107031f5","ios":"levelo://app?vid=f9d5d05c-03c7-490f-94f5-7f3e107031f5"},"vehicle_type_id":"4","last_reported":1706911579,"current_range_meters":4400,"station_id":"ce4bhqp2rcd13ifvqhng","pricing_plan_id":"free"},{"bike_id":"5957583d-c4fc-4c66-9fd3-96336d666a65","system_id":"levelo_inurba_marseille","lat":43.289741,"lon":5.378306,"is_reserved":false,"is_disabled":false,"rental_uris":{"android":"levelo://app?vid=5957583d-c4fc-4c66-9fd3-96336d666a65","ios":"levelo://app?vid=5957583d-c4fc-4c66-9fd3-96336d666a65"},"vehicle_type_id":"4","last_reported":1706911579,"current_range_meters":19200,"station_id":"ce4bh9p2rcd13ifvqed0","pricing_plan_id":"free"},{"bike_id":"0a4418bf-4623-4093-88e3-d099782dc9e3","system_id":"levelo_inurba_marseille","lat":43.297815,"lon":5.393548,"is_reserved":false,"is_disabled":false,"rental_uris":{"android":"levelo://app?vid=0a4418bf-4623-4093-88e3-d099782dc9e3","ios":"levelo://app?vid=0a4418bf-4623-4093-88e3-d099782dc9e3"},"vehicle_type_id":"4","last_reported":1706911579,"current_range_meters":11600,"station_id":"chh1huq6cuj3fo74tm60","pricing_plan_id":"free"},{"bike_id":"20e1634a-09e2-402f-8a97-1a7a900faf8d","system_id":"levelo_inurba_marseille","lat":43.297815,"lon":5.393548,"is_reserved":false,"is_disabled":false,"rental_uris":{"android":"levelo://app?vid=20e1634a-09e2-402f-8a97-1a7a900faf8d","ios":"levelo://app?vid=20e1634a-09e2-402f-8a97-1a7a900faf8d"},"vehicle_type_id":"4","last_reported":1706911579,"current_range_meters":0,"station_id":"chh1huq6cuj3fo74tm60","pricing_plan_id":"free"},{"bike_id":"01cb2e9d-85f9-4238-a6f0-561b98186645","system_id":"levelo_inurba_marseille","lat":43.295169,"lon":5.390426,"is_reserved":false,"is_disabled":false,"rental_uris":{"android":"levelo://app?vid=01cb2e9d-85f9-4238-a6f0-561b98186645","ios":"levelo://app?vid=01cb2e9d-85f9-4238-a6f0-561b98186645"},"vehicle_type_id":"4","last_reported":1706911579,"current_range_meters":22000,"station_id":"ce4bh3p2rcd13ifvqdp0","pricing_plan_id":"free"},{"bike_id":"4186a1f1-4481-4512-a6f2-253aff1e6dc4","system_id":"levelo_inurba_marseille","lat":43.330442,"lon":5.389148,"is_reserved":false,"is_disabled":false,"rental_uris":{"android":"levelo://app?vid=4186a1f1-4481-4512-a6f2-253aff1e6dc4","ios":"levelo://app?vid=4186a1f1-4481-4512-a6f2-253aff1e6dc4"},"vehicle_type_id":"4","last_reported":1706911579,"current_range_meters":4000,"station_id":"ce4bhr92rcd13ifvqhrg","pricing_plan_id":"free"},{"bike_id":"a569bc82-2799-4d58-8f5c-19e0f6fce87d","system_id":"levelo_inurba_marseille","lat":43.330442,"lon":5.389148,"is_reserved":false,"is_disabled":false,"rental_uris":{"android":"levelo://app?vid=a569bc82-2799-4d58-8f5c-19e0f6fce87d","ios":"levelo://app?vid=a569bc82-2799-4d58-8f5c-19e0f6fce87d"},"vehicle_type_id":"4","last_reported":1706911579,"current_range_meters":5600,"station_id":"ce4bhr92rcd13ifvqhrg","pricing_plan_id":"free"},{"bike_id":"29fa78cb-ddcd-473b-afaa-62a18b90e67f","system_id":"levelo_inurba_marseille","lat":43.330442,"lon":5.389148,"is_reserved":false,"is_disabled":false,"rental_uris":{"android":"levelo://app?vid=29fa78cb-ddcd-473b-afaa-62a18b90e67f","ios":"levelo://app?vid=29fa78cb-ddcd-473b-afaa-62a18b90e67f"},"vehicle_type_id":"4","last_reported":1706911579,"current_range_meters":15600,"station_id":"ce4bhr92rcd13ifvqhrg","pricing_plan_id":"free"},{"bike_id":"8408af58-641e-4d85-a323-41042fbf38e9","system_id":"levelo_inurba_marseille","lat":43.290094,"lon":5.381264,"is_reserved":false,"is_disabled":false,"rental_uris":{"android":"levelo://app?vid=8408af58-641e-4d85-a323-41042fbf38e9","ios":"levelo://app?vid=8408af58-641e-4d85-a323-41042fbf38e9"},"vehicle_type_id":"4","last_reported":1706911579,"current_range_meters":16400,"station_id":"ce4bh4p2rcd13ifvqe1g","pricing_plan_id":"free"},{"bike_id":"6f32f75b-136a-4641-9ed4-89076e238bd8","system_id":"levelo_inurba_marseille","lat":43.2901,"lon":5.381269,"is_reserved":false,"is_disabled":false,"rental_uris":{"android":"levelo://app?vid=6f32f75b-136a-4641-9ed4-89076e238bd8","ios":"levelo://app?vid=6f32f75b-136a-4641-9ed4-89076e238bd8"},"vehicle_type_id":"4","last_reported":1706911579,"current_range_meters":0,"station_id":"ce4bh4p2rcd13ifvqe1g","pricing_plan_id":"free"},{"bike_id":"f06dd30d-1789-4498-aaa0-4ac723fb97c7","system_id":"levelo_inurba_marseille","lat":43.2901,"lon":5.381269,"is_reserved":false,"is_disabled":false,"rental_uris":{"android":"levelo://app?vid=f06dd30d-1789-4498-aaa0-4ac723fb97c7","ios":"levelo://app?vid=f06dd30d-1789-4498-aaa0-4ac723fb97c7"},"vehicle_type_id":"4","last_reported":1706911579,"current_range_meters":30400,"station_id":"ce4bh4p2rcd13ifvqe1g","pricing_plan_id":"free"},{"bike_id":"e9e2957d-a5dc-4c3c-9969-696b5788ce6d","system_id":"levelo_inurba_marseille","lat":43.2901,"lon":5.381269,"is_reserved":false,"is_disabled":false,"rental_uris":{"android":"levelo://app?vid=e9e2957d-a5dc-4c3c-9969-696b5788ce6d","ios":"levelo://app?vid=e9e2957d-a5dc-4c3c-9969-696b5788ce6d"},"vehicle_type_id":"4","last_reported":1706911579,"current_range_meters":6800,"station_id":"ce4bh4p2rcd13ifvqe1g","pricing_plan_id":"free"},{"bike_id":"8b2ee090-e9c7-40b5-b2e4-d2cf27f67ac7","system_id":"levelo_inurba_marseille","lat":43.288489,"lon":5.358426,"is_reserved":false,"is_disabled":false,"rental_uris":{"android":"levelo://app?vid=8b2ee090-e9c7-40b5-b2e4-d2cf27f67ac7","ios":"levelo://app?vid=8b2ee090-e9c7-40b5-b2e4-d2cf27f67ac7"},"vehicle_type_id":"4","last_reported":1706911579,"current_range_meters":0,"station_id":"ce4bhb12rcd13ifvqem0","pricing_plan_id":"free"},{"bike_id":"253e1e33-5a27-4a9c-9770-625b8bb3dcfd","system_id":"levelo_inurba_marseille","lat":43.312609,"lon":5.401662,"is_reserved":false,"is_disabled":false,"rental_uris":{"android":"levelo://app?vid=253e1e33-5a27-4a9c-9770-625b8bb3dcfd","ios":"levelo://app?vid=253e1e33-5a27-4a9c-9770-625b8bb3dcfd"},"vehicle_type_id":"4","last_reported":1706911579,"current_range_meters":0,"station_id":"ce4bh092rcd13ifvqd30","pricing_plan_id":"free"},{"bike_id":"2dfa196c-6c5c-4e7d-8a85-f7be22241efa","system_id":"levelo_inurba_marseille","lat":43.312609,"lon":5.401662,"is_reserved":false,"is_disabled":false,"rental_uris":{"android":"levelo://app?vid=2dfa196c-6c5c-4e7d-8a85-f7be22241efa","ios":"levelo://app?vid=2dfa196c-6c5c-4e7d-8a85-f7be22241efa"},"vehicle_type_id":"4","last_reported":1706911579,"current_range_meters":0,"station_id":"ce4bh092rcd13ifvqd30","pricing_plan_id":"free"},{"bike_id":"8bb262aa-a828-4328-a751-72000e38b5fa","system_id":"levelo_inurba_marseille","lat":43.309371,"lon":5.401449,"is_reserved":false,"is_disabled":false,"rental_uris":{"android":"levelo://app?vid=8bb262aa-a828-4328-a751-72000e38b5fa","ios":"levelo://app?vid=8bb262aa-a828-4328-a751-72000e38b5fa"},"vehicle_type_id":"4","last_reported":1706911579,"current_range_meters":6000,"station_id":"ce4bgvp2rcd13ifvqct0","pricing_plan_id":"free"},{"bike_id":"a693be26-d51d-4635-bbd8-1f98ddaeba30","system_id":"levelo_inurba_marseille","lat":43.337476,"lon":5.374478,"is_reserved":false,"is_disabled":false,"rental_uris":{"android":"levelo://app?vid=a693be26-d51d-4635-bbd8-1f98ddaeba30","ios":"levelo://app?vid=a693be26-d51d-4635-bbd8-1f98ddaeba30"},"vehicle_type_id":"4","last_reported":1706911579,"current_range_meters":28400,"station_id":"","pricing_plan_id":"free"},{"bike_id":"390ea1ba-da4d-4d9e-8096-9e7a9dee1635","system_id":"levelo_inurba_marseille","lat":43.30924,"lon":5.40142,"is_reserved":false,"is_disabled":false,"rental_uris":{"android":"levelo://app?vid=390ea1ba-da4d-4d9e-8096-9e7a9dee1635","ios":"levelo://app?vid=390ea1ba-da4d-4d9e-8096-9e7a9dee1635"},"vehicle_type_id":"4","last_reported":1706911579,"current_range_meters":27600,"station_id":"ce4bgvp2rcd13ifvqct0","pricing_plan_id":"free"},{"bike_id":"66bd3461-0691-40ae-b47a-4aa7890e1bf1","system_id":"levelo_inurba_marseille","lat":43.309371,"lon":5.401449,"is_reserved":false,"is_disabled":false,"rental_uris":{"android":"levelo://app?vid=66bd3461-0691-40ae-b47a-4aa7890e1bf1","ios":"levelo://app?vid=66bd3461-0691-40ae-b47a-4aa7890e1bf1"},"vehicle_type_id":"4","last_reported":1706911579,"current_range_meters":24000,"station_id":"ce4bgvp2rcd13ifvqct0","pricing_plan_id":"free"},{"bike_id":"bd740a52-b1ec-4c40-8bda-e9c4da3213c8","system_id":"levelo_inurba_marseille","lat":43.309371,"lon":5.401449,"is_reserved":false,"is_disabled":false,"rental_uris":{"android":"levelo://app?vid=bd740a52-b1ec-4c40-8bda-e9c4da3213c8","ios":"levelo://app?vid=bd740a52-b1ec-4c40-8bda-e9c4da3213c8"},"vehicle_type_id":"4","last_reported":1706911579,"current_range_meters":10800,"station_id":"ce4bgvp2rcd13ifvqct0","pricing_plan_id":"free"},{"bike_id":"c76e661a-8046-4e71-b684-4d17284bfb58","system_id":"levelo_inurba_marseille","lat":43.30642,"lon":5.401031,"is_reserved":false,"is_disabled":false,"rental_uris":{"android":"levelo://app?vid=c76e661a-8046-4e71-b684-4d17284bfb58","ios":"levelo://app?vid=c76e661a-8046-4e71-b684-4d17284bfb58"},"vehicle_type_id":"4","last_reported":1706911579,"current_range_meters":30800,"station_id":"ce4bh112rcd13ifvqda0","pricing_plan_id":"free"},{"bike_id":"0aca2214-6738-4ad0-ba13-439e119f904d","system_id":"levelo_inurba_marseille","lat":43.337596,"lon":5.374439,"is_reserved":false,"is_disabled":false,"rental_uris":{"android":"levelo://app?vid=0aca2214-6738-4ad0-ba13-439e119f904d","ios":"levelo://app?vid=0aca2214-6738-4ad0-ba13-439e119f904d"},"vehicle_type_id":"4","last_reported":1706911579,"current_range_meters":26000,"station_id":"","pricing_plan_id":"free"},{"bike_id":"fbd79014-8443-4fa8-a575-118d08a47cbc","system_id":"levelo_inurba_marseille","lat":43.33762,"lon":5.37432,"is_reserved":false,"is_disabled":false,"rental_uris":{"android":"levelo://app?vid=fbd79014-8443-4fa8-a575-118d08a47cbc","ios":"levelo://app?vid=fbd79014-8443-4fa8-a575-118d08a47cbc"},"vehicle_type_id":"4","last_reported":1706911579,"current_range_meters":25200,"station_id":"","pricing_plan_id":"free"},{"bike_id":"513347cb-f706-49bb-874e-0168082690f2","system_id":"levelo_inurba_marseille","lat":43.30642,"lon":5.401031,"is_reserved":false,"is_disabled":false,"rental_uris":{"android":"levelo://app?vid=513347cb-f706-49bb-874e-0168082690f2","ios":"levelo://app?vid=513347cb-f706-49bb-874e-0168082690f2"},"vehicle_type_id":"4","last_reported":1706911579,"current_range_meters":0,"station_id":"ce4bh112rcd13ifvqda0","pricing_plan_id":"free"},{"bike_id":"7c2e5fe5-16e0-4357-86d7-db3612155c2b","system_id":"levelo_inurba_marseille","lat":43.30642,"lon":5.401031,"is_reserved":false,"is_disabled":false,"rental_uris":{"android":"levelo://app?vid=7c2e5fe5-16e0-4357-86d7-db3612155c2b","ios":"levelo://app?vid=7c2e5fe5-16e0-4357-86d7-db3612155c2b"},"vehicle_type_id":"4","last_reported":1706911579,"current_range_meters":4800,"station_id":"ce4bh112rcd13ifvqda0","pricing_plan_id":"free"},{"bike_id":"e2d4d079-cc66-4f38-adc8-060273bea7e7","system_id":"levelo_inurba_marseille","lat":43.337647,"lon":5.374436,"is_reserved":false,"is_disabled":false,"rental_uris":{"android":"levelo://app?vid=e2d4d079-cc66-4f38-adc8-060273bea7e7","ios":"levelo://app?vid=e2d4d079-cc66-4f38-adc8-060273bea7e7"},"vehicle_type_id":"4","last_reported":1706911579,"current_range_meters":800,"station_id":"","pricing_plan_id":"free"},{"bike_id":"c0d52db0-3989-4ba8-9430-7506cdc3a535","system_id":"levelo_inurba_marseille","lat":43.306412,"lon":5.401035,"is_reserved":false,"is_disabled":false,"rental_uris":{"android":"levelo://app?vid=c0d52db0-3989-4ba8-9430-7506cdc3a535","ios":"levelo://app?vid=c0d52db0-3989-4ba8-9430-7506cdc3a535"},"vehicle_type_id":"4","last_reported":1706911579,"current_range_meters":8800,"station_id":"ce4bh112rcd13ifvqda0","pricing_plan_id":"free"},{"bike_id":"076e2a1c-0cf6-486c-a662-3ffded36caf0","system_id":"levelo_inurba_marseille","lat":43.306412,"lon":5.401035,"is_reserved":false,"is_disabled":false,"rental_uris":{"android":"levelo://app?vid=076e2a1c-0cf6-486c-a662-3ffded36caf0","ios":"levelo://app?vid=076e2a1c-0cf6-486c-a662-3ffded36caf0"},"vehicle_type_id":"4","last_reported":1706911579,"current_range_meters":22800,"station_id":"ce4bh112rcd13ifvqda0","pricing_plan_id":"free"},{"bike_id":"feae0470-1e25-4a23-971e-f1a307c8082f","system_id":"levelo_inurba_marseille","lat":43.301117,"lon":5.398795,"is_reserved":false,"is_disabled":false,"rental_uris":{"android":"levelo://app?vid=feae0470-1e25-4a23-971e-f1a307c8082f","ios":"levelo://app?vid=feae0470-1e25-4a23-971e-f1a307c8082f"},"vehicle_type_id":"4","last_reported":1706911579,"current_range_meters":800,"station_id":"ce4bh0h2rcd13ifvqd40","pricing_plan_id":"free"},{"bike_id":"ac5cac9a-e2b8-48b6-9bf6-cb631e9e1d39","system_id":"levelo_inurba_marseille","lat":43.301117,"lon":5.398795,"is_reserved":false,"is_disabled":false,"rental_uris":{"android":"levelo://app?vid=ac5cac9a-e2b8-48b6-9bf6-cb631e9e1d39","ios":"levelo://app?vid=ac5cac9a-e2b8-48b6-9bf6-cb631e9e1d39"},"vehicle_type_id":"4","last_reported":1706911579,"current_range_meters":10400,"station_id":"ce4bh0h2rcd13ifvqd40","pricing_plan_id":"free"},{"bike_id":"426147a3-5c01-4a2e-8ad7-555333246514","system_id":"levelo_inurba_marseille","lat":43.28807,"lon":5.37679,"is_reserved":false,"is_disabled":false,"rental_uris":{"android":"levelo://app?vid=426147a3-5c01-4a2e-8ad7-555333246514","ios":"levelo://app?vid=426147a3-5c01-4a2e-8ad7-555333246514"},"vehicle_type_id":"4","last_reported":1706911579,"current_range_meters":24000,"station_id":"","pricing_plan_id":"free"},{"bike_id":"28bc864d-7c69-4b7f-83e4-ae0c99064d0d","system_id":"levelo_inurba_marseille","lat":43.301117,"lon":5.398795,"is_reserved":false,"is_disabled":false,"rental_uris":{"android":"levelo://app?vid=28bc864d-7c69-4b7f-83e4-ae0c99064d0d","ios":"levelo://app?vid=28bc864d-7c69-4b7f-83e4-ae0c99064d0d"},"vehicle_type_id":"4","last_reported":1706911579,"current_range_meters":15200,"station_id":"ce4bh0h2rcd13ifvqd40","pricing_plan_id":"free"},{"bike_id":"9d9a902f-1c9a-4ffc-bfdd-99a4a1d66ebc","system_id":"levelo_inurba_marseille","lat":43.28727,"lon":5.36078,"is_reserved":false,"is_disabled":false,"rental_uris":{"android":"levelo://app?vid=9d9a902f-1c9a-4ffc-bfdd-99a4a1d66ebc","ios":"levelo://app?vid=9d9a902f-1c9a-4ffc-bfdd-99a4a1d66ebc"},"vehicle_type_id":"4","last_reported":1706911579,"current_range_meters":22800,"station_id":"cki0cbj6b192h4jlfktg","pricing_plan_id":"free"},{"bike_id":"179e5d58-3ae7-4555-b42e-c797a2949b80","system_id":"levelo_inurba_marseille","lat":43.286591,"lon":5.363346,"is_reserved":false,"is_disabled":false,"rental_uris":{"android":"levelo://app?vid=179e5d58-3ae7-4555-b42e-c797a2949b80","ios":"levelo://app?vid=179e5d58-3ae7-4555-b42e-c797a2949b80"},"vehicle_type_id":"4","last_reported":1706911579,"current_range_meters":14000,"station_id":"ce4bhah2rcd13ifvqej0","pricing_plan_id":"free"},{"bike_id":"b0f3ea7c-a3ae-4207-93a1-4ed65fa6874a","system_id":"levelo_inurba_marseille","lat":43.286591,"lon":5.363346,"is_reserved":false,"is_disabled":false,"rental_uris":{"android":"levelo://app?vid=b0f3ea7c-a3ae-4207-93a1-4ed65fa6874a","ios":"levelo://app?vid=b0f3ea7c-a3ae-4207-93a1-4ed65fa6874a"},"vehicle_type_id":"4","last_reported":1706911579,"current_range_meters":4400,"station_id":"ce4bhah2rcd13ifvqej0","pricing_plan_id":"free"},{"bike_id":"1236fdfe-e33d-45a1-a371-a61409f2b7e9","system_id":"levelo_inurba_marseille","lat":43.298681,"lon":5.397225,"is_reserved":false,"is_disabled":false,"rental_uris":{"android":"levelo://app?vid=1236fdfe-e33d-45a1-a371-a61409f2b7e9","ios":"levelo://app?vid=1236fdfe-e33d-45a1-a371-a61409f2b7e9"},"vehicle_type_id":"4","last_reported":1706911579,"current_range_meters":2800,"station_id":"ce4bh0h2rcd13ifvqd50","pricing_plan_id":"free"},{"bike_id":"6a9b3661-645f-41d4-aedf-d0aa9c636f86","system_id":"levelo_inurba_marseille","lat":43.286961,"lon":5.373785,"is_reserved":false,"is_disabled":false,"rental_uris":{"android":"levelo://app?vid=6a9b3661-645f-41d4-aedf-d0aa9c636f86","ios":"levelo://app?vid=6a9b3661-645f-41d4-aedf-d0aa9c636f86"},"vehicle_type_id":"4","last_reported":1706911579,"current_range_meters":24800,"station_id":"ce4bh3p2rcd13ifvqdq0","pricing_plan_id":"free"},{"bike_id":"2af7b858-7f90-426f-85d5-192f7e31c2bb","system_id":"levelo_inurba_marseille","lat":43.28665,"lon":5.36348,"is_reserved":false,"is_disabled":false,"rental_uris":{"android":"levelo://app?vid=2af7b858-7f90-426f-85d5-192f7e31c2bb","ios":"levelo://app?vid=2af7b858-7f90-426f-85d5-192f7e31c2bb"},"vehicle_type_id":"4","last_reported":1706911579,"current_range_meters":24000,"station_id":"ce4bhah2rcd13ifvqej0","pricing_plan_id":"free"},{"bike_id":"bd32dd80-5a8e-4363-a9bf-5732cdb3d2f2","system_id":"levelo_inurba_marseille","lat":43.298681,"lon":5.397225,"is_reserved":false,"is_disabled":false,"rental_uris":{"android":"levelo://app?vid=bd32dd80-5a8e-4363-a9bf-5732cdb3d2f2","ios":"levelo://app?vid=bd32dd80-5a8e-4363-a9bf-5732cdb3d2f2"},"vehicle_type_id":"4","last_reported":1706911579,"current_range_meters":14400,"station_id":"ce4bh0h2rcd13ifvqd50","pricing_plan_id":"free"},{"bike_id":"0e079454-b37d-4f6e-b78a-c812e787dc12","system_id":"levelo_inurba_marseille","lat":43.286961,"lon":5.373785,"is_reserved":false,"is_disabled":false,"rental_uris":{"android":"levelo://app?vid=0e079454-b37d-4f6e-b78a-c812e787dc12","ios":"levelo://app?vid=0e079454-b37d-4f6e-b78a-c812e787dc12"},"vehicle_type_id":"4","last_reported":1706911579,"current_range_meters":30000,"station_id":"ce4bh3p2rcd13ifvqdq0","pricing_plan_id":"free"},{"bike_id":"14575a7e-be7d-472a-b3a6-b4906e54736f","system_id":"levelo_inurba_marseille","lat":43.286591,"lon":5.363346,"is_reserved":false,"is_disabled":false,"rental_uris":{"android":"levelo://app?vid=14575a7e-be7d-472a-b3a6-b4906e54736f","ios":"levelo://app?vid=14575a7e-be7d-472a-b3a6-b4906e54736f"},"vehicle_type_id":"4","last_reported":1706911579,"current_range_meters":14000,"station_id":"ce4bhah2rcd13ifvqej0","pricing_plan_id":"free"},{"bike_id":"a390102e-fccb-43b0-979a-fa8b9bb5334f","system_id":"levelo_inurba_marseille","lat":43.286593,"lon":5.363346,"is_reserved":false,"is_disabled":false,"rental_uris":{"android":"levelo://app?vid=a390102e-fccb-43b0-979a-fa8b9bb5334f","ios":"levelo://app?vid=a390102e-fccb-43b0-979a-fa8b9bb5334f"},"vehicle_type_id":"4","last_reported":1706911579,"current_range_meters":20800,"station_id":"ce4bhah2rcd13ifvqej0","pricing_plan_id":"free"},{"bike_id":"d5634577-f33a-4e94-bf57-b99528573251","system_id":"levelo_inurba_marseille","lat":43.286961,"lon":5.373785,"is_reserved":false,"is_disabled":false,"rental_uris":{"android":"levelo://app?vid=d5634577-f33a-4e94-bf57-b99528573251","ios":"levelo://app?vid=d5634577-f33a-4e94-bf57-b99528573251"},"vehicle_type_id":"4","last_reported":1706911579,"current_range_meters":6400,"station_id":"ce4bh3p2rcd13ifvqdq0","pricing_plan_id":"free"},{"bike_id":"a04c9d26-d28c-4650-a41f-0d601b02f195","system_id":"levelo_inurba_marseille","lat":43.286591,"lon":5.363346,"is_reserved":false,"is_disabled":false,"rental_uris":{"android":"levelo://app?vid=a04c9d26-d28c-4650-a41f-0d601b02f195","ios":"levelo://app?vid=a04c9d26-d28c-4650-a41f-0d601b02f195"},"vehicle_type_id":"4","last_reported":1706911579,"current_range_meters":800,"station_id":"ce4bhah2rcd13ifvqej0","pricing_plan_id":"free"},{"bike_id":"8c360b2e-009b-4ffb-b357-1f00562773b9","system_id":"levelo_inurba_marseille","lat":43.286961,"lon":5.373785,"is_reserved":false,"is_disabled":false,"rental_uris":{"android":"levelo://app?vid=8c360b2e-009b-4ffb-b357-1f00562773b9","ios":"levelo://app?vid=8c360b2e-009b-4ffb-b357-1f00562773b9"},"vehicle_type_id":"4","last_reported":1706911579,"current_range_meters":27200,"station_id":"ce4bh3p2rcd13ifvqdq0","pricing_plan_id":"free"},{"bike_id":"c3754492-0f4c-4195-ac0f-b6f0a7d992d5","system_id":"levelo_inurba_marseille","lat":43.298681,"lon":5.397225,"is_reserved":false,"is_disabled":false,"rental_uris":{"android":"levelo://app?vid=c3754492-0f4c-4195-ac0f-b6f0a7d992d5","ios":"levelo://app?vid=c3754492-0f4c-4195-ac0f-b6f0a7d992d5"},"vehicle_type_id":"4","last_reported":1706911579,"current_range_meters":29200,"station_id":"ce4bh0h2rcd13ifvqd50","pricing_plan_id":"free"},{"bike_id":"72fdc476-829b-4927-b17f-8c3e11eed96e","system_id":"levelo_inurba_marseille","lat":43.290345,"lon":5.38646,"is_reserved":false,"is_disabled":false,"rental_uris":{"android":"levelo://app?vid=72fdc476-829b-4927-b17f-8c3e11eed96e","ios":"levelo://app?vid=72fdc476-829b-4927-b17f-8c3e11eed96e"},"vehicle_type_id":"4","last_reported":1706911579,"current_range_meters":4400,"station_id":"ce4bh4p2rcd13ifvqe0g","pricing_plan_id":"free"},{"bike_id":"c0d7c628-1b13-492b-a4f9-d3c4e8412e9b","system_id":"levelo_inurba_marseille","lat":43.302759,"lon":5.400793,"is_reserved":false,"is_disabled":false,"rental_uris":{"android":"levelo://app?vid=c0d7c628-1b13-492b-a4f9-d3c4e8412e9b","ios":"levelo://app?vid=c0d7c628-1b13-492b-a4f9-d3c4e8412e9b"},"vehicle_type_id":"4","last_reported":1706911579,"current_range_meters":3600,"station_id":"ce4bgvh2rcd13ifvqcs0","pricing_plan_id":"free"},{"bike_id":"cfaa3a71-22ca-4316-b0b5-2ed6ff46fcbb","system_id":"levelo_inurba_marseille","lat":43.289307,"lon":5.38406,"is_reserved":false,"is_disabled":false,"rental_uris":{"android":"levelo://app?vid=cfaa3a71-22ca-4316-b0b5-2ed6ff46fcbb","ios":"levelo://app?vid=cfaa3a71-22ca-4316-b0b5-2ed6ff46fcbb"},"vehicle_type_id":"4","last_reported":1706911579,"current_range_meters":20800,"station_id":"ce4bh612rcd13ifvqe6g","pricing_plan_id":"free"},{"bike_id":"0906f9c9-4c51-444e-9e62-5e5ed2a145e1","system_id":"levelo_inurba_marseille","lat":43.302561,"lon":5.40069,"is_reserved":false,"is_disabled":false,"rental_uris":{"android":"levelo://app?vid=0906f9c9-4c51-444e-9e62-5e5ed2a145e1","ios":"levelo://app?vid=0906f9c9-4c51-444e-9e62-5e5ed2a145e1"},"vehicle_type_id":"4","last_reported":1706911579,"current_range_meters":16000,"station_id":"ce4bgvh2rcd13ifvqcs0","pricing_plan_id":"free"},{"bike_id":"a4b0f2ce-10b6-4093-833e-d8becb540d19","system_id":"levelo_inurba_marseille","lat":43.30257,"lon":5.40072,"is_reserved":false,"is_disabled":false,"rental_uris":{"android":"levelo://app?vid=a4b0f2ce-10b6-4093-833e-d8becb540d19","ios":"levelo://app?vid=a4b0f2ce-10b6-4093-833e-d8becb540d19"},"vehicle_type_id":"4","last_reported":1706911579,"current_range_meters":0,"station_id":"ce4bgvh2rcd13ifvqcs0","pricing_plan_id":"free"},{"bike_id":"3a3a5a51-911a-4221-8f21-c349580f219c","system_id":"levelo_inurba_marseille","lat":43.302759,"lon":5.400793,"is_reserved":false,"is_disabled":false,"rental_uris":{"android":"levelo://app?vid=3a3a5a51-911a-4221-8f21-c349580f219c","ios":"levelo://app?vid=3a3a5a51-911a-4221-8f21-c349580f219c"},"vehicle_type_id":"4","last_reported":1706911579,"current_range_meters":2800,"station_id":"ce4bgvh2rcd13ifvqcs0","pricing_plan_id":"free"},{"bike_id":"72cc8f5b-7cfd-4937-baf7-7c2cd2f4940e","system_id":"levelo_inurba_marseille","lat":43.289307,"lon":5.38406,"is_reserved":false,"is_disabled":false,"rental_uris":{"android":"levelo://app?vid=72cc8f5b-7cfd-4937-baf7-7c2cd2f4940e","ios":"levelo://app?vid=72cc8f5b-7cfd-4937-baf7-7c2cd2f4940e"},"vehicle_type_id":"4","last_reported":1706911579,"current_range_meters":20000,"station_id":"ce4bh612rcd13ifvqe6g","pricing_plan_id":"free"},{"bike_id":"f09ac4e1-b45b-41f2-9cca-9f270270d713","system_id":"levelo_inurba_marseille","lat":43.30257,"lon":5.40076,"is_reserved":false,"is_disabled":false,"rental_uris":{"android":"levelo://app?vid=f09ac4e1-b45b-41f2-9cca-9f270270d713","ios":"levelo://app?vid=f09ac4e1-b45b-41f2-9cca-9f270270d713"},"vehicle_type_id":"4","last_reported":1706911579,"current_range_meters":31200,"station_id":"ce4bgvh2rcd13ifvqcs0","pricing_plan_id":"free"},{"bike_id":"6ae0d0a1-55ea-4fed-85a4-7dc794d954e0","system_id":"levelo_inurba_marseille","lat":43.30256,"lon":5.40078,"is_reserved":false,"is_disabled":false,"rental_uris":{"android":"levelo://app?vid=6ae0d0a1-55ea-4fed-85a4-7dc794d954e0","ios":"levelo://app?vid=6ae0d0a1-55ea-4fed-85a4-7dc794d954e0"},"vehicle_type_id":"4","last_reported":1706911579,"current_range_meters":1200,"station_id":"ce4bgvh2rcd13ifvqcs0","pricing_plan_id":"free"},{"bike_id":"81187463-0d06-4236-b02e-9dadb5f475d1","system_id":"levelo_inurba_marseille","lat":43.286039,"lon":5.370679,"is_reserved":false,"is_disabled":false,"rental_uris":{"android":"levelo://app?vid=81187463-0d06-4236-b02e-9dadb5f475d1","ios":"levelo://app?vid=81187463-0d06-4236-b02e-9dadb5f475d1"},"vehicle_type_id":"4","last_reported":1706911579,"current_range_meters":4400,"station_id":"ce4bht12rcd13ifvqi60","pricing_plan_id":"free"},{"bike_id":"5889e86f-239f-43b9-b792-889abafb4ef7","system_id":"levelo_inurba_marseille","lat":43.287184,"lon":5.37937,"is_reserved":false,"is_disabled":false,"rental_uris":{"android":"levelo://app?vid=5889e86f-239f-43b9-b792-889abafb4ef7","ios":"levelo://app?vid=5889e86f-239f-43b9-b792-889abafb4ef7"},"vehicle_type_id":"4","last_reported":1706911579,"current_range_meters":9200,"station_id":"ce4bh9p2rcd13ifvqec0","pricing_plan_id":"free"},{"bike_id":"6c86cba0-0d3f-4d1f-a7e9-efebb072bb97","system_id":"levelo_inurba_marseille","lat":43.287185,"lon":5.379373,"is_reserved":false,"is_disabled":false,"rental_uris":{"android":"levelo://app?vid=6c86cba0-0d3f-4d1f-a7e9-efebb072bb97","ios":"levelo://app?vid=6c86cba0-0d3f-4d1f-a7e9-efebb072bb97"},"vehicle_type_id":"4","last_reported":1706911579,"current_range_meters":22000,"station_id":"ce4bh9p2rcd13ifvqec0","pricing_plan_id":"free"},{"bike_id":"4c0f6ee8-ba6f-4cb5-a3e7-10567dd4af59","system_id":"levelo_inurba_marseille","lat":43.291994,"lon":5.392907,"is_reserved":false,"is_disabled":false,"rental_uris":{"android":"levelo://app?vid=4c0f6ee8-ba6f-4cb5-a3e7-10567dd4af59","ios":"levelo://app?vid=4c0f6ee8-ba6f-4cb5-a3e7-10567dd4af59"},"vehicle_type_id":"4","last_reported":1706911579,"current_range_meters":12800,"station_id":"ce4bh192rcd13ifvqdd0","pricing_plan_id":"free"},{"bike_id":"b8753ada-9228-43e4-ae6e-ea40e3fb67dc","system_id":"levelo_inurba_marseille","lat":43.291994,"lon":5.392907,"is_reserved":false,"is_disabled":false,"rental_uris":{"android":"levelo://app?vid=b8753ada-9228-43e4-ae6e-ea40e3fb67dc","ios":"levelo://app?vid=b8753ada-9228-43e4-ae6e-ea40e3fb67dc"},"vehicle_type_id":"4","last_reported":1706911579,"current_range_meters":17200,"station_id":"ce4bh192rcd13ifvqdd0","pricing_plan_id":"free"},{"bike_id":"3d3a14dc-276e-4f5e-8a5c-c589356fc94b","system_id":"levelo_inurba_marseille","lat":43.291994,"lon":5.392907,"is_reserved":false,"is_disabled":false,"rental_uris":{"android":"levelo://app?vid=3d3a14dc-276e-4f5e-8a5c-c589356fc94b","ios":"levelo://app?vid=3d3a14dc-276e-4f5e-8a5c-c589356fc94b"},"vehicle_type_id":"4","last_reported":1706911579,"current_range_meters":24000,"station_id":"ce4bh192rcd13ifvqdd0","pricing_plan_id":"free"},{"bike_id":"bf2a9f2d-08db-411a-a4c6-20cf77eb2d37","system_id":"levelo_inurba_marseille","lat":43.291994,"lon":5.392907,"is_reserved":false,"is_disabled":false,"rental_uris":{"android":"levelo://app?vid=bf2a9f2d-08db-411a-a4c6-20cf77eb2d37","ios":"levelo://app?vid=bf2a9f2d-08db-411a-a4c6-20cf77eb2d37"},"vehicle_type_id":"4","last_reported":1706911579,"current_range_meters":30000,"station_id":"ce4bh192rcd13ifvqdd0","pricing_plan_id":"free"},{"bike_id":"058129de-942f-4c13-bb79-b2e3ef030b1b","system_id":"levelo_inurba_marseille","lat":43.284538,"lon":5.358657,"is_reserved":false,"is_disabled":false,"rental_uris":{"android":"levelo://app?vid=058129de-942f-4c13-bb79-b2e3ef030b1b","ios":"levelo://app?vid=058129de-942f-4c13-bb79-b2e3ef030b1b"},"vehicle_type_id":"4","last_reported":1706911579,"current_range_meters":13600,"station_id":"ce4bhah2rcd13ifvqei0","pricing_plan_id":"free"},{"bike_id":"0f2199df-bb3c-4013-93f5-1fe3d7d585c8","system_id":"levelo_inurba_marseille","lat":43.284607,"lon":5.358963,"is_reserved":false,"is_disabled":false,"rental_uris":{"android":"levelo://app?vid=0f2199df-bb3c-4013-93f5-1fe3d7d585c8","ios":"levelo://app?vid=0f2199df-bb3c-4013-93f5-1fe3d7d585c8"},"vehicle_type_id":"4","last_reported":1706911579,"current_range_meters":19200,"station_id":"ce4bhah2rcd13ifvqei0","pricing_plan_id":"free"},{"bike_id":"4bc4bf2c-1a04-4722-b96c-2d4f79416704","system_id":"levelo_inurba_marseille","lat":43.284534,"lon":5.358662,"is_reserved":false,"is_disabled":false,"rental_uris":{"android":"levelo://app?vid=4bc4bf2c-1a04-4722-b96c-2d4f79416704","ios":"levelo://app?vid=4bc4bf2c-1a04-4722-b96c-2d4f79416704"},"vehicle_type_id":"4","last_reported":1706911579,"current_range_meters":11200,"station_id":"ce4bhah2rcd13ifvqei0","pricing_plan_id":"free"},{"bike_id":"cd383b40-ec04-486a-a437-547115ba9d84","system_id":"levelo_inurba_marseille","lat":43.284534,"lon":5.358662,"is_reserved":false,"is_disabled":false,"rental_uris":{"android":"levelo://app?vid=cd383b40-ec04-486a-a437-547115ba9d84","ios":"levelo://app?vid=cd383b40-ec04-486a-a437-547115ba9d84"},"vehicle_type_id":"4","last_reported":1706911579,"current_range_meters":15600,"station_id":"ce4bhah2rcd13ifvqei0","pricing_plan_id":"free"},{"bike_id":"292b2a80-b960-430c-8aa1-b225ec955f80","system_id":"levelo_inurba_marseille","lat":43.284534,"lon":5.358662,"is_reserved":false,"is_disabled":false,"rental_uris":{"android":"levelo://app?vid=292b2a80-b960-430c-8aa1-b225ec955f80","ios":"levelo://app?vid=292b2a80-b960-430c-8aa1-b225ec955f80"},"vehicle_type_id":"4","last_reported":1706911579,"current_range_meters":400,"station_id":"ce4bhah2rcd13ifvqei0","pricing_plan_id":"free"},{"bike_id":"92ada81d-575d-46e4-bad3-36cd86c310ae","system_id":"levelo_inurba_marseille","lat":43.284534,"lon":5.358662,"is_reserved":false,"is_disabled":false,"rental_uris":{"android":"levelo://app?vid=92ada81d-575d-46e4-bad3-36cd86c310ae","ios":"levelo://app?vid=92ada81d-575d-46e4-bad3-36cd86c310ae"},"vehicle_type_id":"4","last_reported":1706911579,"current_range_meters":9600,"station_id":"ce4bhah2rcd13ifvqei0","pricing_plan_id":"free"},{"bike_id":"31885d62-1ce8-4a9a-b224-6a4ce8009d0a","system_id":"levelo_inurba_marseille","lat":43.294314,"lon":5.397498,"is_reserved":false,"is_disabled":false,"rental_uris":{"android":"levelo://app?vid=31885d62-1ce8-4a9a-b224-6a4ce8009d0a","ios":"levelo://app?vid=31885d62-1ce8-4a9a-b224-6a4ce8009d0a"},"vehicle_type_id":"4","last_reported":1706911579,"current_range_meters":0,"station_id":"ce4bh3h2rcd13ifvqdo0","pricing_plan_id":"free"},{"bike_id":"7f479f29-1052-4eb6-b770-0ef3a7cdd61c","system_id":"levelo_inurba_marseille","lat":43.294314,"lon":5.397498,"is_reserved":false,"is_disabled":false,"rental_uris":{"android":"levelo://app?vid=7f479f29-1052-4eb6-b770-0ef3a7cdd61c","ios":"levelo://app?vid=7f479f29-1052-4eb6-b770-0ef3a7cdd61c"},"vehicle_type_id":"4","last_reported":1706911579,"current_range_meters":16400,"station_id":"ce4bh3h2rcd13ifvqdo0","pricing_plan_id":"free"},