{"last_updated":1700345160,"ttl":30,"version":"2.2","data":{"bikes":[{"bike_id":"2fb83260-d08d-4936-b786-c99586082e64","system_id":"levelo_inurba_marseille","lat":43.31341,"lon":5.367098,"is_reserved":false,"is_disabled":false,"rental_uris":{"android":"levelo://app?vid=2fb83260-d08d-4936-b786-c99586082e64","ios":"levelo://app?vid=2fb83260-d08d-4936-b786-c99586082e64"},"vehicle_type_id":"4","last_reported":1700345160,"current_range_meters":3600,"station_id":"ce4bgr92rcd13ifvqc6g","pricing_plan_id":"free"},{"bike_id":"943dfc2f-eec4-44b8-ae3a-bf8f278b58c3","system_id":"levelo_inurba_marseille","lat":43.311524,"lon":5.368903,"is_reserved":false,"is_disabled":false,"rental_uris":{"android":"levelo://app?vid=943dfc2f-eec4-44b8-ae3a-bf8f278b58c3","ios":"levelo://app?vid=943dfc2f-eec4-44b8-ae3a-bf8f278b58c3"},"vehicle_type_id":"4","last_reported":1700345160,"current_range_meters":0,"station_id":"","pricing_plan_id":"free"},{"bike_id":"86b3087e-7cd8-4671-8395-72cfab6ad53f","system_id":"levelo_inurba_marseille","lat":43.314811,"lon":5.373103,"is_reserved":false,"is_disabled":false,"rental_uris":{"android":"levelo://app?vid=86b3087e-7cd8-4671-8395-72cfab6ad53f","ios":"levelo://app?vid=86b3087e-7cd8-4671-8395-72cfab6ad53f"},"vehicle_type_id":"4","last_reported":1700345160,"current_range_meters":14000,"station_id":"ce4bgt12rcd13ifvqcd0","pricing_plan_id":"free"},{"bike_id":"7ddfd1e6-901e-4f3a-8c0b-4f8e0ac962b1","system_id":"levelo_inurba_marseille","lat":43.314917,"lon":5.373117,"is_reserved":false,"is_disabled":false,"rental_uris":{"android":"levelo://app?vid=7ddfd1e6-901e-4f3a-8c0b-4f8e0ac962b1","ios":"levelo://app?vid=7ddfd1e6-901e-4f3a-8c0b-4f8e0ac962b1"},"vehicle_type_id":"4","last_reported":1700345160,"current_range_meters":12400,"station_id":"ce4bgt12rcd13ifvqcd0","pricing_plan_id":"free"},{"bike_id":"3475d204-43b6-43d9-b615-ca1d0d58200e","system_id":"levelo_inurba_marseille","lat":43.30679,"lon":5.3679,"is_reserved":false,"is_disabled":false,"rental_uris":{"android":"levelo://app?vid=3475d204-43b6-43d9-b615-ca1d0d58200e","ios":"levelo://app?vid=3475d204-43b6-43d9-b615-ca1d0d58200e"},"vehicle_type_id":"4","last_reported":1700345160,"current_range_meters":13200,"station_id":"","pricing_plan_id":"free"},{"bike_id":"09ccbac6-0f01-4cfb-8bb8-da5484277d5c","system_id":"levelo_inurba_marseille","lat":43.319498,"lon":5.371008,"is_reserved":false,"is_disabled":false,"rental_uris":{"android":"levelo://app?vid=09ccbac6-0f01-4cfb-8bb8-da5484277d5c","ios":"levelo://app?vid=09ccbac6-0f01-4cfb-8bb8-da5484277d5c"},"vehicle_type_id":"4","last_reported":1700345160,"current_range_meters":3600,"station_id":"","pricing_plan_id":"free"},{"bike_id":"9de75f85-256c-4eeb-8a4b-aaa6d9ec3ace","system_id":"levelo_inurba_marseille","lat":43.305368,"lon":5.367343,"is_reserved":false,"is_disabled":false,"rental_uris":{"android":"levelo://app?vid=9de75f85-256c-4eeb-8a4b-aaa6d9ec3ace","ios":"levelo://app?vid=9de75f85-256c-4eeb-8a4b-aaa6d9ec3ace"},"vehicle_type_id":"4","last_reported":1700345160,"current_range_meters":2400,"station_id":"ce4bgrp2rcd13ifvqc9g","pricing_plan_id":"free"},{"bike_id":"dcbf9c93-0758-41cf-8699-4ede01d69428","system_id":"levelo_inurba_marseille","lat":43.308151,"lon":5.376594,"is_reserved":false,"is_disabled":false,"rental_uris":{"android":"levelo://app?vid=dcbf9c93-0758-41cf-8699-4ede01d69428","ios":"levelo://app?vid=dcbf9c93-0758-41cf-8699-4ede01d69428"},"vehicle_type_id":"4","last_reported":1700345160,"current_range_meters":14400,"station_id":"ce4bgv92rcd13ifvqcq0","pricing_plan_id":"free"},{"bike_id":"9c6cb93e-1760-40ad-b03f-91f534a7dbc3","system_id":"levelo_inurba_marseille","lat":43.317075,"lon":5.377367,"is_reserved":false,"is_disabled":false,"rental_uris":{"android":"levelo://app?vid=9c6cb93e-1760-40ad-b03f-91f534a7dbc3","ios":"levelo://app?vid=9c6cb93e-1760-40ad-b03f-91f534a7dbc3"},"vehicle_type_id":"4","last_reported":1700345160,"current_range_meters":27600,"station_id":"ce4bgth2rcd13ifvqch0","pricing_plan_id":"free"},{"bike_id":"6dfacf75-1489-4777-beb3-387c0914c022","system_id":"levelo_inurba_marseille","lat":43.31106,"lon":5.37922,"is_reserved":false,"is_disabled":false,"rental_uris":{"android":"levelo://app?vid=6dfacf75-1489-4777-beb3-387c0914c022","ios":"levelo://app?vid=6dfacf75-1489-4777-beb3-387c0914c022"},"vehicle_type_id":"4","last_reported":1700345160,"current_range_meters":20000,"station_id":"ce4bhr92rcd13ifvqhrg","pricing_plan_id":"free"},{"bike_id":"0f40eb85-975a-446c-85e4-3f94157372bc","system_id":"levelo_inurba_marseille","lat":43.324738,"lon":5.365677,"is_reserved":false,"is_disabled":false,"rental_uris":{"android":"levelo://app?vid=0f40eb85-975a-446c-85e4-3f94157372bc","ios":"levelo://app?vid=0f40eb85-975a-446c-85e4-3f94157372bc"},"vehicle_type_id":"4","last_reported":1700345160,"current_range_meters":400,"station_id":"ce4bhs12rcd13ifvqhvg","pricing_plan_id":"free"},{"bike_id":"8b2b575d-4158-4cba-bfd7-f115b3473754","system_id":"levelo_inurba_marseille","lat":43.301429,"lon":5.37413,"is_reserved":false,"is_disabled":false,"rental_uris":{"android":"levelo://app?vid=8b2b575d-4158-4cba-bfd7-f115b3473754","ios":"levelo://app?vid=8b2b575d-4158-4cba-bfd7-f115b3473754"},"vehicle_type_id":"4","last_reported":1700345160,"current_range_meters":15200,"station_id":"ce4bgs92rcd13ifvqcc0","pricing_plan_id":"free"},{"bike_id":"5a6db0fc-cfe2-47a7-ae76-d4e0529428ab","system_id":"levelo_inurba_marseille","lat":43.319844,"lon":5.38111,"is_reserved":false,"is_disabled":false,"rental_uris":{"android":"levelo://app?vid=5a6db0fc-cfe2-47a7-ae76-d4e0529428ab","ios":"levelo://app?vid=5a6db0fc-cfe2-47a7-ae76-d4e0529428ab"},"vehicle_type_id":"4","last_reported":1700345160,"current_range_meters":16400,"station_id":"ce4bhr12rcd13ifvqhpg","pricing_plan_id":"free"},{"bike_id":"b07df4dc-5dee-47d2-9384-cdf7d13ef59f","system_id":"levelo_inurba_marseille","lat":43.31756,"lon":5.38328,"is_reserved":false,"is_disabled":false,"rental_uris":{"android":"levelo://app?vid=b07df4dc-5dee-47d2-9384-cdf7d13ef59f","ios":"levelo://app?vid=b07df4dc-5dee-47d2-9384-cdf7d13ef59f"},"vehicle_type_id":"4","last_reported":1700345160,"current_range_meters":22000,"station_id":"","pricing_plan_id":"free"},{"bike_id":"abb5a752-dcd4-4467-a360-e886684f7426","system_id":"levelo_inurba_marseille","lat":43.319935,"lon":5.381699,"is_reserved":false,"is_disabled":false,"rental_uris":{"android":"levelo://app?vid=abb5a752-dcd4-4467-a360-e886684f7426","ios":"levelo://app?vid=abb5a752-dcd4-4467-a360-e886684f7426"},"vehicle_type_id":"4","last_reported":1700345160,"current_range_meters":800,"station_id":"ce4bhr12rcd13ifvqhpg","pricing_plan_id":"free"},{"bike_id":"a7a294bc-07f4-46a7-bc57-50ed12ea7aef","system_id":"levelo_inurba_marseille","lat":43.313571,"lon":5.384829,"is_reserved":false,"is_disabled":false,"rental_uris":{"android":"levelo://app?vid=a7a294bc-07f4-46a7-bc57-50ed12ea7aef","ios":"levelo://app?vid=a7a294bc-07f4-46a7-bc57-50ed12ea7aef"},"vehicle_type_id":"4","last_reported":1700345160,"current_range_meters":8400,"station_id":"ce4bgt92rcd13ifvqcf0","pricing_plan_id":"free"},{"bike_id":"8ba0146b-37f2-4226-b56f-b98018980890","system_id":"levelo_inurba_marseille","lat":43.313571,"lon":5.384829,"is_reserved":false,"is_disabled":false,"rental_uris":{"android":"levelo://app?vid=8ba0146b-37f2-4226-b56f-b98018980890","ios":"levelo://app?vid=8ba0146b-37f2-4226-b56f-b98018980890"},"vehicle_type_id":"4","last_reported":1700345160,"current_range_meters":27600,"station_id":"ce4bgt92rcd13ifvqcf0","pricing_plan_id":"free"},{"bike_id":"fe202d26-8484-4d9d-b8a6-d278566ecb23","system_id":"levelo_inurba_marseille","lat":43.313571,"lon":5.384829,"is_reserved":false,"is_disabled":false,"rental_uris":{"android":"levelo://app?vid=fe202d26-8484-4d9d-b8a6-d278566ecb23","ios":"levelo://app?vid=fe202d26-8484-4d9d-b8a6-d278566ecb23"},"vehicle_type_id":"4","last_reported":1700345160,"current_range_meters":8400,"station_id":"ce4bgt92rcd13ifvqcf0","pricing_plan_id":"free"},{"bike_id":"15693ee3-d003-4d40-a401-0ba9d6fc6292","system_id":"levelo_inurba_marseille","lat":43.299222,"lon":5.365554,"is_reserved":false,"is_disabled":false,"rental_uris":{"android":"levelo://app?vid=15693ee3-d003-4d40-a401-0ba9d6fc6292","ios":"levelo://app?vid=15693ee3-d003-4d40-a401-0ba9d6fc6292"},"vehicle_type_id":"4","last_reported":1700345160,"current_range_meters":0,"station_id":"ce4bgm92rcd13ifvqbr0","pricing_plan_id":"free"},{"bike_id":"e3cffe58-3cbb-4848-a735-e5bf4c053887","system_id":"levelo_inurba_marseille","lat":43.299724,"lon":5.371829,"is_reserved":false,"is_disabled":false,"rental_uris":{"android":"levelo://app?vid=e3cffe58-3cbb-4848-a735-e5bf4c053887","ios":"levelo://app?vid=e3cffe58-3cbb-4848-a735-e5bf4c053887"},"vehicle_type_id":"4","last_reported":1700345160,"current_range_meters":8000,"station_id":"ce4bgr92rcd13ifvqc7g","pricing_plan_id":"free"},{"bike_id":"5da9dea2-bd9f-4746-b637-56e44ea9e587","system_id":"levelo_inurba_marseille","lat":43.298489,"lon":5.362942,"is_reserved":false,"is_disabled":false,"rental_uris":{"android":"levelo://app?vid=5da9dea2-bd9f-4746-b637-56e44ea9e587","ios":"levelo://app?vid=5da9dea2-bd9f-4746-b637-56e44ea9e587"},"vehicle_type_id":"4","last_reported":1700345160,"current_range_meters":0,"station_id":"","pricing_plan_id":"free"},{"bike_id":"e6f74401-2dea-4868-a047-b220d94cac66","system_id":"levelo_inurba_marseille","lat":43.298433,"lon":5.362774,"is_reserved":false,"is_disabled":false,"rental_uris":{"android":"levelo://app?vid=e6f74401-2dea-4868-a047-b220d94cac66","ios":"levelo://app?vid=e6f74401-2dea-4868-a047-b220d94cac66"},"vehicle_type_id":"4","last_reported":1700345160,"current_range_meters":22800,"station_id":"ce4bgpp2rcd13ifvqc3g","pricing_plan_id":"free"},{"bike_id":"67b7b9ec-436a-4d23-8b2c-e6620194026a","system_id":"levelo_inurba_marseille","lat":43.31172,"lon":5.38708,"is_reserved":false,"is_disabled":false,"rental_uris":{"android":"levelo://app?vid=67b7b9ec-436a-4d23-8b2c-e6620194026a","ios":"levelo://app?vid=67b7b9ec-436a-4d23-8b2c-e6620194026a"},"vehicle_type_id":"4","last_reported":1700345160,"current_range_meters":0,"station_id":"ce4bgv12rcd13ifvqcp0","pricing_plan_id":"free"},{"bike_id":"8c76c6e2-5f6a-4818-85cb-8b750ab02a02","system_id":"levelo_inurba_marseille","lat":43.311722,"lon":5.387247,"is_reserved":false,"is_disabled":false,"rental_uris":{"android":"levelo://app?vid=8c76c6e2-5f6a-4818-85cb-8b750ab02a02","ios":"levelo://app?vid=8c76c6e2-5f6a-4818-85cb-8b750ab02a02"},"vehicle_type_id":"4","last_reported":1700345160,"current_range_meters":27200,"station_id":"ce4bgv12rcd13ifvqcp0","pricing_plan_id":"free"},{"bike_id":"15bd71c8-05ce-4334-806b-8deeb74c5f4e","system_id":"levelo_inurba_marseille","lat":43.311722,"lon":5.387247,"is_reserved":false,"is_disabled":false,"rental_uris":{"android":"levelo://app?vid=15bd71c8-05ce-4334-806b-8deeb74c5f4e","ios":"levelo://app?vid=15bd71c8-05ce-4334-806b-8deeb74c5f4e"},"vehicle_type_id":"4","last_reported":1700345160,"current_range_meters":6400,"station_id":"ce4bgv12rcd13ifvqcp0","pricing_plan_id":"free"},{"bike_id":"03280722-771f-4306-a97e-63b2b8ee3125","system_id":"levelo_inurba_marseille","lat":43.322872,"lon":5.382756,"is_reserved":false,"is_disabled":false,"rental_uris":{"android":"levelo://app?vid=03280722-771f-4306-a97e-63b2b8ee3125","ios":"levelo://app?vid=03280722-771f-4306-a97e-63b2b8ee3125"},"vehicle_type_id":"4","last_reported":1700345160,"current_range_meters":22400,"station_id":"ce4bhr12rcd13ifvqhqg","pricing_plan_id":"free"},{"bike_id":"b6d2a68d-db4e-46a1-b036-730037139be3","system_id":"levelo_inurba_marseille","lat":43.32831,"lon":5.36689,"is_reserved":false,"is_disabled":false,"rental_uris":{"android":"levelo://app?vid=b6d2a68d-db4e-46a1-b036-730037139be3","ios":"levelo://app?vid=b6d2a68d-db4e-46a1-b036-730037139be3"},"vehicle_type_id":"4","last_reported":1700345160,"current_range_meters":4000,"station_id":"ce4bhs92rcd13ifvqi0g","pricing_plan_id":"free"},{"bike_id":"971ef656-b95a-417d-b69d-a5ba3954e948","system_id":"levelo_inurba_marseille","lat":43.32837,"lon":5.36677,"is_reserved":false,"is_disabled":false,"rental_uris":{"android":"levelo://app?vid=971ef656-b95a-417d-b69d-a5ba3954e948","ios":"levelo://app?vid=971ef656-b95a-417d-b69d-a5ba3954e948"},"vehicle_type_id":"4","last_reported":1700345160,"current_range_meters":6000,"station_id":"ce4bhs92rcd13ifvqi0g","pricing_plan_id":"free"},{"bike_id":"edcc317d-a8b6-4323-bcb8-c4e72bea0e75","system_id":"levelo_inurba_marseille","lat":43.297163,"lon":5.365866,"is_reserved":false,"is_disabled":false,"rental_uris":{"android":"levelo://app?vid=edcc317d-a8b6-4323-bcb8-c4e72bea0e75","ios":"levelo://app?vid=edcc317d-a8b6-4323-bcb8-c4e72bea0e75"},"vehicle_type_id":"4","last_reported":1700345160,"current_range_meters":16000,"station_id":"ce4bgn12rcd13ifvqbt0","pricing_plan_id":"free"},{"bike_id":"b7826086-de5a-401a-aa21-ecbfcc44b66c","system_id":"levelo_inurba_marseille","lat":43.297163,"lon":5.365866,"is_reserved":false,"is_disabled":false,"rental_uris":{"android":"levelo://app?vid=b7826086-de5a-401a-aa21-ecbfcc44b66c","ios":"levelo://app?vid=b7826086-de5a-401a-aa21-ecbfcc44b66c"},"vehicle_type_id":"4","last_reported":1700345160,"current_range_meters":6400,"station_id":"ce4bgn12rcd13ifvqbt0","pricing_plan_id":"free"},{"bike_id":"aaee84bc-9d68-4cf7-b5b7-82e6534d72f3","system_id":"levelo_inurba_marseille","lat":43.297163,"lon":5.365866,"is_reserved":false,"is_disabled":false,"rental_uris":{"android":"levelo://app?vid=aaee84bc-9d68-4cf7-b5b7-82e6534d72f3","ios":"levelo://app?vid=aaee84bc-9d68-4cf7-b5b7-82e6534d72f3"},"vehicle_type_id":"4","last_reported":1700345160,"current_range_meters":0,"station_id":"ce4bgn12rcd13ifvqbt0","pricing_plan_id":"free"},{"bike_id":"bab6e1e8-0726-4f51-8b18-d54941f080d7","system_id":"levelo_inurba_marseille","lat":43.297013,"lon":5.37394,"is_reserved":false,"is_disabled":false,"rental_uris":{"android":"levelo://app?vid=bab6e1e8-0726-4f51-8b18-d54941f080d7","ios":"levelo://app?vid=bab6e1e8-0726-4f51-8b18-d54941f080d7"},"vehicle_type_id":"4","last_reported":1700345160,"current_range_meters":0,"station_id":"","pricing_plan_id":"free"},{"bike_id":"d447991a-59b4-4778-a190-7d2b0920a414","system_id":"levelo_inurba_marseille","lat":43.32215,"lon":5.38613,"is_reserved":false,"is_disabled":false,"rental_uris":{"android":"levelo://app?vid=d447991a-59b4-4778-a190-7d2b0920a414","ios":"levelo://app?vid=d447991a-59b4-4778-a190-7d2b0920a414"},"vehicle_type_id":"4","last_reported":1700345160,"current_range_meters":0,"station_id":"","pricing_plan_id":"free"},{"bike_id":"eec7b089-7c2f-498e-b88d-9fc953a39380","system_id":"levelo_inurba_marseille","lat":43.31757,"lon":5.39018,"is_reserved":false,"is_disabled":false,"rental_uris":{"android":"levelo://app?vid=eec7b089-7c2f-498e-b88d-9fc953a39380","ios":"levelo://app?vid=eec7b089-7c2f-498e-b88d-9fc953a39380"},"vehicle_type_id":"4","last_reported":1700345160,"current_range_meters":0,"station_id":"ce4bhqp2rcd13ifvqhng","pricing_plan_id":"free"},{"bike_id":"416d9943-f07e-495b-8f28-05ae82c1f6a3","system_id":"levelo_inurba_marseille","lat":43.31757,"lon":5.3902,"is_reserved":false,"is_disabled":false,"rental_uris":{"android":"levelo://app?vid=416d9943-f07e-495b-8f28-05ae82c1f6a3","ios":"levelo://app?vid=416d9943-f07e-495b-8f28-05ae82c1f6a3"},"vehicle_type_id":"4","last_reported":1700345160,"current_range_meters":0,"station_id":"ce4bhqp2rcd13ifvqhng","pricing_plan_id":"free"},{"bike_id":"d2dced52-b7fb-4d11-ad33-56be009e3364","system_id":"levelo_inurba_marseille","lat":43.321847,"lon":5.388263,"is_reserved":false,"is_disabled":false,"rental_uris":{"android":"levelo://app?vid=d2dced52-b7fb-4d11-ad33-56be009e3364","ios":"levelo://app?vid=d2dced52-b7fb-4d11-ad33-56be009e3364"},"vehicle_type_id":"4","last_reported":1700345160,"current_range_meters":17600,"station_id":"","pricing_plan_id":"free"},{"bike_id":"ec8d72d1-7cf3-4b16-8d41-44745b1b99b2","system_id":"levelo_inurba_marseille","lat":43.304274,"lon":5.388873,"is_reserved":false,"is_disabled":false,"rental_uris":{"android":"levelo://app?vid=ec8d72d1-7cf3-4b16-8d41-44745b1b99b2","ios":"levelo://app?vid=ec8d72d1-7cf3-4b16-8d41-44745b1b99b2"},"vehicle_type_id":"4","last_reported":1700345160,"current_range_meters":17600,"station_id":"ce4bgk12rcd13ifvqbi0","pricing_plan_id":"free"},{"bike_id":"67ffd28a-0325-489b-a10f-d90500122751","system_id":"levelo_inurba_marseille","lat":43.295748,"lon":5.37522,"is_reserved":false,"is_disabled":false,"rental_uris":{"android":"levelo://app?vid=67ffd28a-0325-489b-a10f-d90500122751","ios":"levelo://app?vid=67ffd28a-0325-489b-a10f-d90500122751"},"vehicle_type_id":"4","last_reported":1700345160,"current_range_meters":30400,"station_id":"ce4bgh92rcd13ifvqb50","pricing_plan_id":"free"},{"bike_id":"3e3e92fe-39b7-4933-99ff-3747b28b5d69","system_id":"levelo_inurba_marseille","lat":43.328154,"lon":5.380034,"is_reserved":false,"is_disabled":false,"rental_uris":{"android":"levelo://app?vid=3e3e92fe-39b7-4933-99ff-3747b28b5d69","ios":"levelo://app?vid=3e3e92fe-39b7-4933-99ff-3747b28b5d69"},"vehicle_type_id":"4","last_reported":1700345160,"current_range_meters":8400,"station_id":"","pricing_plan_id":"free"},{"bike_id":"b1c0c79c-9b67-4924-bf77-74d937a25ae3","system_id":"levelo_inurba_marseille","lat":43.299173,"lon":5.3853,"is_reserved":false,"is_disabled":false,"rental_uris":{"android":"levelo://app?vid=b1c0c79c-9b67-4924-bf77-74d937a25ae3","ios":"levelo://app?vid=b1c0c79c-9b67-4924-bf77-74d937a25ae3"},"vehicle_type_id":"4","last_reported":1700345160,"current_range_meters":0,"station_id":"","pricing_plan_id":"free"},{"bike_id":"e145a3f7-00ac-4f8f-bfe5-435bc38ccaf7","system_id":"levelo_inurba_marseille","lat":43.293801,"lon":5.363066,"is_reserved":false,"is_disabled":false,"rental_uris":{"android":"levelo://app?vid=e145a3f7-00ac-4f8f-bfe5-435bc38ccaf7","ios":"levelo://app?vid=e145a3f7-00ac-4f8f-bfe5-435bc38ccaf7"},"vehicle_type_id":"4","last_reported":1700345160,"current_range_meters":26000,"station_id":"","pricing_plan_id":"free"},{"bike_id":"c0e7d7b2-39c5-4286-a38b-f465bf1b2091","system_id":"levelo_inurba_marseille","lat":43.29899,"lon":5.38553,"is_reserved":false,"is_disabled":false,"rental_uris":{"android":"levelo://app?vid=c0e7d7b2-39c5-4286-a38b-f465bf1b2091","ios":"levelo://app?vid=c0e7d7b2-39c5-4286-a38b-f465bf1b2091"},"vehicle_type_id":"4","last_reported":1700345160,"current_range_meters":0,"station_id":"","pricing_plan_id":"free"},{"bike_id":"489903ae-1ffd-46f7-98d3-6a932b3e85b0","system_id":"levelo_inurba_marseille","lat":43.32366,"lon":5.38886,"is_reserved":false,"is_disabled":false,"rental_uris":{"android":"levelo://app?vid=489903ae-1ffd-46f7-98d3-6a932b3e85b0","ios":"levelo://app?vid=489903ae-1ffd-46f7-98d3-6a932b3e85b0"},"vehicle_type_id":"4","last_reported":1700345160,"current_range_meters":14800,"station_id":"ce4bhqp2rcd13ifvqhog","pricing_plan_id":"free"},{"bike_id":"252b7542-ce9b-4edd-9935-e5a672df25af","system_id":"levelo_inurba_marseille","lat":43.296138,"lon":5.381622,"is_reserved":false,"is_disabled":false,"rental_uris":{"android":"levelo://app?vid=252b7542-ce9b-4edd-9935-e5a672df25af","ios":"levelo://app?vid=252b7542-ce9b-4edd-9935-e5a672df25af"},"vehicle_type_id":"4","last_reported":1700345160,"current_range_meters":0,"station_id":"ce4bgl12rcd13ifvqbo0","pricing_plan_id":"free"},{"bike_id":"a832eda7-c060-45f6-b886-0749f77af93a","system_id":"levelo_inurba_marseille","lat":43.303002,"lon":5.392142,"is_reserved":false,"is_disabled":false,"rental_uris":{"android":"levelo://app?vid=a832eda7-c060-45f6-b886-0749f77af93a","ios":"levelo://app?vid=a832eda7-c060-45f6-b886-0749f77af93a"},"vehicle_type_id":"4","last_reported":1700345160,"current_range_meters":2400,"station_id":"ce4bgkh2rcd13ifvqbk0","pricing_plan_id":"free"},{"bike_id":"92be391d-a621-4516-8500-232b9483e099","system_id":"levelo_inurba_marseille","lat":43.306037,"lon":5.39316,"is_reserved":false,"is_disabled":false,"rental_uris":{"android":"levelo://app?vid=92be391d-a621-4516-8500-232b9483e099","ios":"levelo://app?vid=92be391d-a621-4516-8500-232b9483e099"},"vehicle_type_id":"4","last_reported":1700345160,"current_range_meters":0,"station_id":"ce4bh0p2rcd13ifvqd80","pricing_plan_id":"free"},{"bike_id":"4f191403-c2fd-4d4e-b18e-1fd2da502657","system_id":"levelo_inurba_marseille","lat":43.305994,"lon":5.393687,"is_reserved":false,"is_disabled":false,"rental_uris":{"android":"levelo://app?vid=4f191403-c2fd-4d4e-b18e-1fd2da502657","ios":"levelo://app?vid=4f191403-c2fd-4d4e-b18e-1fd2da502657"},"vehicle_type_id":"4","last_reported":1700345160,"current_range_meters":2400,"station_id":"ce4bh0p2rcd13ifvqd80","pricing_plan_id":"free"},{"bike_id":"a2b3558f-9d6a-4dea-9b02-78c3a4e2bb71","system_id":"levelo_inurba_marseille","lat":43.30088,"lon":5.39081,"is_reserved":false,"is_disabled":false,"rental_uris":{"android":"levelo://app?vid=a2b3558f-9d6a-4dea-9b02-78c3a4e2bb71","ios":"levelo://app?vid=a2b3558f-9d6a-4dea-9b02-78c3a4e2bb71"},"vehicle_type_id":"4","last_reported":1700345160,"current_range_meters":0,"station_id":"ce4bh192rcd13ifvqdb0","pricing_plan_id":"free"},{"bike_id":"786afbe7-ae1c-4641-93b3-eee911fd07e4","system_id":"levelo_inurba_marseille","lat":43.292868,"lon":5.377128,"is_reserved":false,"is_disabled":false,"rental_uris":{"android":"levelo://app?vid=786afbe7-ae1c-4641-93b3-eee911fd07e4","ios":"levelo://app?vid=786afbe7-ae1c-4641-93b3-eee911fd07e4"},"vehicle_type_id":"4","last_reported":1700345160,"current_range_meters":0,"station_id":"","pricing_plan_id":"free"},{"bike_id":"4eef38cc-64cf-4f4d-8d5b-99bd9d3b1b37","system_id":"levelo_inurba_marseille","lat":43.291675,"lon":5.371583,"is_reserved":false,"is_disabled":false,"rental_uris":{"android":"levelo://app?vid=4eef38cc-64cf-4f4d-8d5b-99bd9d3b1b37","ios":"levelo://app?vid=4eef38cc-64cf-4f4d-8d5b-99bd9d3b1b37"},"vehicle_type_id":"4","last_reported":1700345160,"current_range_meters":27200,"station_id":"ce4bha92rcd13ifvqeh0","pricing_plan_id":"free"},{"bike_id":"1045079f-fe33-4948-938b-51dceba28122","system_id":"levelo_inurba_marseille","lat":43.291631,"lon":5.371501,"is_reserved":false,"is_disabled":false,"rental_uris":{"android":"levelo://app?vid=1045079f-fe33-4948-938b-51dceba28122","ios":"levelo://app?vid=1045079f-fe33-4948-938b-51dceba28122"},"vehicle_type_id":"4","last_reported":1700345160,"current_range_meters":0,"station_id":"ce4bha92rcd13ifvqeh0","pricing_plan_id":"free"},{"bike_id":"76468b57-6bfa-4c52-88ad-9a1b2576a117","system_id":"levelo_inurba_marseille","lat":43.29872,"lon":5.389117,"is_reserved":false,"is_disabled":false,"rental_uris":{"android":"levelo://app?vid=76468b57-6bfa-4c52-88ad-9a1b2576a117","ios":"levelo://app?vid=76468b57-6bfa-4c52-88ad-9a1b2576a117"},"vehicle_type_id":"4","last_reported":1700345160,"current_range_meters":0,"station_id":"ce4bh392rcd13ifvqdl0","pricing_plan_id":"free"},{"bike_id":"dafa8b1e-fa43-4873-83d7-7eaa0a8b8e58","system_id":"levelo_inurba_marseille","lat":43.2916,"lon":5.37157,"is_reserved":false,"is_disabled":false,"rental_uris":{"android":"levelo://app?vid=dafa8b1e-fa43-4873-83d7-7eaa0a8b8e58","ios":"levelo://app?vid=dafa8b1e-fa43-4873-83d7-7eaa0a8b8e58"},"vehicle_type_id":"4","last_reported":1700345160,"current_range_meters":0,"station_id":"ce4bha92rcd13ifvqeh0","pricing_plan_id":"free"},{"bike_id":"0aa2722e-c32c-44dc-b5cf-8f0e83e8ce9d","system_id":"levelo_inurba_marseille","lat":43.3132,"lon":5.39691,"is_reserved":false,"is_disabled":false,"rental_uris":{"android":"levelo://app?vid=0aa2722e-c32c-44dc-b5cf-8f0e83e8ce9d","ios":"levelo://app?vid=0aa2722e-c32c-44dc-b5cf-8f0e83e8ce9d"},"vehicle_type_id":"4","last_reported":1700345160,"current_range_meters":19200,"station_id":"ce4bgvp2rcd13ifvqcu0","pricing_plan_id":"free"},{"bike_id":"a40fd974-3afa-4abc-b303-85332b96188b","system_id":"levelo_inurba_marseille","lat":43.31328,"lon":5.39694,"is_reserved":false,"is_disabled":false,"rental_uris":{"android":"levelo://app?vid=a40fd974-3afa-4abc-b303-85332b96188b","ios":"levelo://app?vid=a40fd974-3afa-4abc-b303-85332b96188b"},"vehicle_type_id":"4","last_reported":1700345160,"current_range_meters":6000,"station_id":"ce4bgvp2rcd13ifvqcu0","pricing_plan_id":"free"},{"bike_id":"c892bab2-c735-491c-becb-1eb0bb2df2dc","system_id":"levelo_inurba_marseille","lat":43.309038,"lon":5.396546,"is_reserved":false,"is_disabled":false,"rental_uris":{"android":"levelo://app?vid=c892bab2-c735-491c-becb-1eb0bb2df2dc","ios":"levelo://app?vid=c892bab2-c735-491c-becb-1eb0bb2df2dc"},"vehicle_type_id":"4","last_reported":1700345160,"current_range_meters":6800,"station_id":"ce4bh012rcd13ifvqcv0","pricing_plan_id":"free"},{"bike_id":"889ef46f-7089-4c48-a62c-f2900e70a922","system_id":"levelo_inurba_marseille","lat":43.290779,"lon":5.371482,"is_reserved":false,"is_disabled":false,"rental_uris":{"android":"levelo://app?vid=889ef46f-7089-4c48-a62c-f2900e70a922","ios":"levelo://app?vid=889ef46f-7089-4c48-a62c-f2900e70a922"},"vehicle_type_id":"4","last_reported":1700345160,"current_range_meters":800,"station_id":"ce4bh5p2rcd13ifvqe4g","pricing_plan_id":"free"},{"bike_id":"8e0d4e1e-2325-49a0-a300-7cfc50fe364e","system_id":"levelo_inurba_marseille","lat":43.289414,"lon":5.366311,"is_reserved":false,"is_disabled":false,"rental_uris":{"android":"levelo://app?vid=8e0d4e1e-2325-49a0-a300-7cfc50fe364e","ios":"levelo://app?vid=8e0d4e1e-2325-49a0-a300-7cfc50fe364e"},"vehicle_type_id":"4","last_reported":1700345160,"current_range_meters":0,"station_id":"ce4bhap2rcd13ifvqek0","pricing_plan_id":"free"},{"bike_id":"407c2ec0-11f4-4f51-b30b-bd225ac9a254","system_id":"levelo_inurba_marseille","lat":43.289363,"lon":5.396322,"is_reserved":false,"is_disabled":false,"rental_uris":{"android":"levelo://app?vid=407c2ec0-11f4-4f51-b30b-bd225ac9a254","ios":"levelo://app?vid=407c2ec0-11f4-4f51-b30b-bd225ac9a254"},"vehicle_type_id":"4","last_reported":1700345160,"current_range_meters":28800,"station_id":"ce4bh3h2rcd13ifvqdn0","pricing_plan_id":"free"},{"bike_id":"d999cd80-e6c2-4946-b513-dcf1f233b6e6","system_id":"levelo_inurba_marseille","lat":43.289363,"lon":5.396322,"is_reserved":false,"is_disabled":false,"rental_uris":{"android":"levelo://app?vid=d999cd80-e6c2-4946-b513-dcf1f233b6e6","ios":"levelo://app?vid=d999cd80-e6c2-4946-b513-dcf1f233b6e6"},"vehicle_type_id":"4","last_reported":1700345160,"current_range_meters":25200,"station_id":"ce4bh3h2rcd13ifvqdn0","pricing_plan_id":"free"},{"bike_id":"eba10b9f-575c-41bf-805f-7b5415a51151","system_id":"levelo_inurba_marseille","lat":43.289363,"lon":5.396322,"is_reserved":false,"is_disabled":false,"rental_uris":{"android":"levelo://app?vid=eba10b9f-575c-41bf-805f-7b5415a51151","ios":"levelo://app?vid=eba10b9f-575c-41bf-805f-7b5415a51151"},"vehicle_type_id":"4","last_reported":1700345160,"current_range_meters":21200,"station_id":"ce4bh3h2rcd13ifvqdn0","pricing_plan_id":"free"},{"bike_id":"e1718f3f-98d0-40d2-8e6f-16f204144a81","system_id":"levelo_inurba_marseille","lat":43.289363,"lon":5.396322,"is_reserved":false,"is_disabled":false,"rental_uris":{"android":"levelo://app?vid=e1718f3f-98d0-40d2-8e6f-16f204144a81","ios":"levelo://app?vid=e1718f3f-98d0-40d2-8e6f-16f204144a81"},"vehicle_type_id":"4","last_reported":1700345160,"current_range_meters":31200,"station_id":"ce4bh3h2rcd13ifvqdn0","pricing_plan_id":"free"},{"bike_id":"57ed2d20-b3b7-4895-926d-57103689ff50","system_id":"levelo_inurba_marseille","lat":43.289363,"lon":5.396322,"is_reserved":false,"is_disabled":false,"rental_uris":{"android":"levelo://app?vid=57ed2d20-b3b7-4895-926d-57103689ff50","ios":"levelo://app?vid=57ed2d20-b3b7-4895-926d-57103689ff50"},"vehicle_type_id":"4","last_reported":1700345160,"current_range_meters":28000,"station_id":"ce4bh3h2rcd13ifvqdn0","pricing_plan_id":"free"},{"bike_id":"1bf00cfa-d2d6-44ba-ae3c-8e74a422e22d","system_id":"levelo_inurba_marseille","lat":43.304296,"lon":5.397513,"is_reserved":false,"is_disabled":false,"rental_uris":{"android":"levelo://app?vid=1bf00cfa-d2d6-44ba-ae3c-8e74a422e22d","ios":"levelo://app?vid=1bf00cfa-d2d6-44ba-ae3c-8e74a422e22d"},"vehicle_type_id":"4","last_reported":1700345160,"current_range_meters":800,"station_id":"ce4bh092rcd13ifvqd20","pricing_plan_id":"free"},{"bike_id":"16ed2be5-bfbf-408f-ba5d-8b274535d913","system_id":"levelo_inurba_marseille","lat":43.330442,"lon":5.389148,"is_reserved":false,"is_disabled":false,"rental_uris":{"android":"levelo://app?vid=16ed2be5-bfbf-408f-ba5d-8b274535d913","ios":"levelo://app?vid=16ed2be5-bfbf-408f-ba5d-8b274535d913"},"vehicle_type_id":"4","last_reported":1700345160,"current_range_meters":26400,"station_id":"ce4bhr92rcd13ifvqhrg","pricing_plan_id":"free"},{"bike_id":"78bcfa10-507e-4cf8-aae4-239e691ce53f","system_id":"levelo_inurba_marseille","lat":43.33043,"lon":5.38924,"is_reserved":false,"is_disabled":false,"rental_uris":{"android":"levelo://app?vid=78bcfa10-507e-4cf8-aae4-239e691ce53f","ios":"levelo://app?vid=78bcfa10-507e-4cf8-aae4-239e691ce53f"},"vehicle_type_id":"4","last_reported":1700345160,"current_range_meters":20400,"station_id":"ce4bhr92rcd13ifvqhrg","pricing_plan_id":"free"},{"bike_id":"d381e49f-e8d1-4d82-b7fe-c779600cc992","system_id":"levelo_inurba_marseille","lat":43.288473,"lon":5.358407,"is_reserved":false,"is_disabled":false,"rental_uris":{"android":"levelo://app?vid=d381e49f-e8d1-4d82-b7fe-c779600cc992","ios":"levelo://app?vid=d381e49f-e8d1-4d82-b7fe-c779600cc992"},"vehicle_type_id":"4","last_reported":1700345160,"current_range_meters":0,"station_id":"ce4bhb12rcd13ifvqem0","pricing_plan_id":"free"},{"bike_id":"07202f70-50d7-46f0-a5bd-59712659d6a0","system_id":"levelo_inurba_marseille","lat":43.31251,"lon":5.40162,"is_reserved":false,"is_disabled":false,"rental_uris":{"android":"levelo://app?vid=07202f70-50d7-46f0-a5bd-59712659d6a0","ios":"levelo://app?vid=07202f70-50d7-46f0-a5bd-59712659d6a0"},"vehicle_type_id":"4","last_reported":1700345160,"current_range_meters":13200,"station_id":"","pricing_plan_id":"free"},{"bike_id":"ed95fae0-5138-4277-ba77-36f491fb90fd","system_id":"levelo_inurba_marseille","lat":43.309371,"lon":5.401449,"is_reserved":false,"is_disabled":false,"rental_uris":{"android":"levelo://app?vid=ed95fae0-5138-4277-ba77-36f491fb90fd","ios":"levelo://app?vid=ed95fae0-5138-4277-ba77-36f491fb90fd"},"vehicle_type_id":"4","last_reported":1700345160,"current_range_meters":800,"station_id":"ce4bgvp2rcd13ifvqct0","pricing_plan_id":"free"},{"bike_id":"4a1eeebc-381a-42de-a98e-f332397794af","system_id":"levelo_inurba_marseille","lat":43.30933,"lon":5.40142,"is_reserved":false,"is_disabled":false,"rental_uris":{"android":"levelo://app?vid=4a1eeebc-381a-42de-a98e-f332397794af","ios":"levelo://app?vid=4a1eeebc-381a-42de-a98e-f332397794af"},"vehicle_type_id":"4","last_reported":1700345160,"current_range_meters":5200,"station_id":"ce4bgvp2rcd13ifvqct0","pricing_plan_id":"free"},{"bike_id":"0243db20-ce9a-479f-9d7f-1a62609d3470","system_id":"levelo_inurba_marseille","lat":43.309335,"lon":5.401463,"is_reserved":false,"is_disabled":false,"rental_uris":{"android":"levelo://app?vid=0243db20-ce9a-479f-9d7f-1a62609d3470","ios":"levelo://app?vid=0243db20-ce9a-479f-9d7f-1a62609d3470"},"vehicle_type_id":"4","last_reported":1700345160,"current_range_meters":0,"station_id":"ce4bgvp2rcd13ifvqct0","pricing_plan_id":"free"},{"bike_id":"a9f72574-b125-4967-82d0-88e187ac2496","system_id":"levelo_inurba_marseille","lat":43.306412,"lon":5.401035,"is_reserved":false,"is_disabled":false,"rental_uris":{"android":"levelo://app?vid=a9f72574-b125-4967-82d0-88e187ac2496","ios":"levelo://app?vid=a9f72574-b125-4967-82d0-88e187ac2496"},"vehicle_type_id":"4","last_reported":1700345160,"current_range_meters":0,"station_id":"ce4bh112rcd13ifvqda0","pricing_plan_id":"free"},{"bike_id":"35dac713-0d64-45a8-85b2-d1a1c48f8ecf","system_id":"levelo_inurba_marseille","lat":43.30145,"lon":5.39856,"is_reserved":false,"is_disabled":false,"rental_uris":{"android":"levelo://app?vid=35dac713-0d64-45a8-85b2-d1a1c48f8ecf","ios":"levelo://app?vid=35dac713-0d64-45a8-85b2-d1a1c48f8ecf"},"vehicle_type_id":"4","last_reported":1700345160,"current_range_meters":23600,"station_id":"ce4bh0h2rcd13ifvqd40","pricing_plan_id":"free"},{"bike_id":"5fd8fa76-8cb8-44af-9e3a-716db74854c5","system_id":"levelo_inurba_marseille","lat":43.30137,"lon":5.3987,"is_reserved":false,"is_disabled":false,"rental_uris":{"android":"levelo://app?vid=5fd8fa76-8cb8-44af-9e3a-716db74854c5","ios":"levelo://app?vid=5fd8fa76-8cb8-44af-9e3a-716db74854c5"},"vehicle_type_id":"4","last_reported":1700345160,"current_range_meters":1200,"station_id":"ce4bh0h2rcd13ifvqd40","pricing_plan_id":"free"},{"bike_id":"41fccc44-cf19-43f5-afd0-e51eeeb2e509","system_id":"levelo_inurba_marseille","lat":43.301117,"lon":5.398795,"is_reserved":false,"is_disabled":false,"rental_uris":{"android":"levelo://app?vid=41fccc44-cf19-43f5-afd0-e51eeeb2e509","ios":"levelo://app?vid=41fccc44-cf19-43f5-afd0-e51eeeb2e509"},"vehicle_type_id":"4","last_reported":1700345160,"current_range_meters":17600,"station_id":"ce4bh0h2rcd13ifvqd40","pricing_plan_id":"free"},{"bike_id":"2f26bded-ed16-4a76-af18-99d688d522ef","system_id":"levelo_inurba_marseille","lat":43.30141,"lon":5.39882,"is_reserved":false,"is_disabled":false,"rental_uris":{"android":"levelo://app?vid=2f26bded-ed16-4a76-af18-99d688d522ef","ios":"levelo://app?vid=2f26bded-ed16-4a76-af18-99d688d522ef"},"vehicle_type_id":"4","last_reported":1700345160,"current_range_meters":1600,"station_id":"ce4bh0h2rcd13ifvqd40","pricing_plan_id":"free"},{"bike_id":"8e5cf5c8-1dc2-4e3c-a31e-02e895926b4b","system_id":"levelo_inurba_marseille","lat":43.28725,"lon":5.36095,"is_reserved":false,"is_disabled":false,"rental_uris":{"android":"levelo://app?vid=8e5cf5c8-1dc2-4e3c-a31e-02e895926b4b","ios":"levelo://app?vid=8e5cf5c8-1dc2-4e3c-a31e-02e895926b4b"},"vehicle_type_id":"4","last_reported":1700345160,"current_range_meters":15200,"station_id":"cki0cbj6b192h4jlfktg","pricing_plan_id":"free"},{"bike_id":"70aa7f9c-9f54-4d73-baea-40672d909afe","system_id":"levelo_inurba_marseille","lat":43.287227,"lon":5.36085,"is_reserved":false,"is_disabled":false,"rental_uris":{"android":"levelo://app?vid=70aa7f9c-9f54-4d73-baea-40672d909afe","ios":"levelo://app?vid=70aa7f9c-9f54-4d73-baea-40672d909afe"},"vehicle_type_id":"4","last_reported":1700345160,"current_range_meters":0,"station_id":"cki0cbj6b192h4jlfktg","pricing_plan_id":"free"},{"bike_id":"f5589b03-8248-464b-9149-0e370250beee","system_id":"levelo_inurba_marseille","lat":43.28727,"lon":5.36078,"is_reserved":false,"is_disabled":false,"rental_uris":{"android":"levelo://app?vid=f5589b03-8248-464b-9149-0e370250beee","ios":"levelo://app?vid=f5589b03-8248-464b-9149-0e370250beee"},"vehicle_type_id":"4","last_reported":1700345160,"current_range_meters":26800,"station_id":"cki0cbj6b192h4jlfktg","pricing_plan_id":"free"},{"bike_id":"85ae88ea-00da-4683-995e-4182dc8df8e3","system_id":"levelo_inurba_marseille","lat":43.287212,"lon":5.360793,"is_reserved":false,"is_disabled":false,"rental_uris":{"android":"levelo://app?vid=85ae88ea-00da-4683-995e-4182dc8df8e3","ios":"levelo://app?vid=85ae88ea-00da-4683-995e-4182dc8df8e3"},"vehicle_type_id":"4","last_reported":1700345160,"current_range_meters":0,"station_id":"cki0cbj6b192h4jlfktg","pricing_plan_id":"free"},{"bike_id":"01415aa6-4d5e-4406-a413-0fd7c809c541","system_id":"levelo_inurba_marseille","lat":43.28727,"lon":5.36078,"is_reserved":false,"is_disabled":false,"rental_uris":{"android":"levelo://app?vid=01415aa6-4d5e-4406-a413-0fd7c809c541","ios":"levelo://app?vid=01415aa6-4d5e-4406-a413-0fd7c809c541"},"vehicle_type_id":"4","last_reported":1700345160,"current_range_meters":20800,"station_id":"cki0cbj6b192h4jlfktg","pricing_plan_id":"free"},{"bike_id":"710ad6d0-3c67-4c9a-bad0-ed3d00aa3f51","system_id":"levelo_inurba_marseille","lat":43.286591,"lon":5.363346,"is_reserved":false,"is_disabled":false,"rental_uris":{"android":"levelo://app?vid=710ad6d0-3c67-4c9a-bad0-ed3d00aa3f51","ios":"levelo://app?vid=710ad6d0-3c67-4c9a-bad0-ed3d00aa3f51"},"vehicle_type_id":"4","last_reported":1700345160,"current_range_meters":0,"station_id":"ce4bhah2rcd13ifvqej0","pricing_plan_id":"free"},{"bike_id":"c4156c03-05db-434b-9335-f46db086271b","system_id":"levelo_inurba_marseille","lat":43.286593,"lon":5.363346,"is_reserved":false,"is_disabled":false,"rental_uris":{"android":"levelo://app?vid=c4156c03-05db-434b-9335-f46db086271b","ios":"levelo://app?vid=c4156c03-05db-434b-9335-f46db086271b"},"vehicle_type_id":"4","last_reported":1700345160,"current_range_meters":7200,"station_id":"ce4bhah2rcd13ifvqej0","pricing_plan_id":"free"},{"bike_id":"8e973357-5850-45c7-92bc-e430e020556e","system_id":"levelo_inurba_marseille","lat":43.302759,"lon":5.400793,"is_reserved":false,"is_disabled":false,"rental_uris":{"android":"levelo://app?vid=8e973357-5850-45c7-92bc-e430e020556e","ios":"levelo://app?vid=8e973357-5850-45c7-92bc-e430e020556e"},"vehicle_type_id":"4","last_reported":1700345160,"current_range_meters":14400,"station_id":"ce4bgvh2rcd13ifvqcs0","pricing_plan_id":"free"},{"bike_id":"686c2913-064e-4689-a711-00745f4620b7","system_id":"levelo_inurba_marseille","lat":43.302759,"lon":5.400793,"is_reserved":false,"is_disabled":false,"rental_uris":{"android":"levelo://app?vid=686c2913-064e-4689-a711-00745f4620b7","ios":"levelo://app?vid=686c2913-064e-4689-a711-00745f4620b7"},"vehicle_type_id":"4","last_reported":1700345160,"current_range_meters":29200,"station_id":"ce4bgvh2rcd13ifvqcs0","pricing_plan_id":"free"},{"bike_id":"4097ec2f-f6e1-43dc-abec-c2d50f48962f","system_id":"levelo_inurba_marseille","lat":43.302759,"lon":5.400793,"is_reserved":false,"is_disabled":false,"rental_uris":{"android":"levelo://app?vid=4097ec2f-f6e1-43dc-abec-c2d50f48962f","ios":"levelo://app?vid=4097ec2f-f6e1-43dc-abec-c2d50f48962f"},"vehicle_type_id":"4","last_reported":1700345160,"current_range_meters":1600,"station_id":"ce4bgvh2rcd13ifvqcs0","pricing_plan_id":"free"},{"bike_id":"cf785290-10d0-4bda-bf8c-dd74f4846eab","system_id":"levelo_inurba_marseille","lat":43.289307,"lon":5.38406,"is_reserved":false,"is_disabled":false,"rental_uris":{"android":"levelo://app?vid=cf785290-10d0-4bda-bf8c-dd74f4846eab","ios":"levelo://app?vid=cf785290-10d0-4bda-bf8c-dd74f4846eab"},"vehicle_type_id":"4","last_reported":1700345160,"current_range_meters":400,"station_id":"ce4bh612rcd13ifvqe6g","pricing_plan_id":"free"},{"bike_id":"9139ce8b-3875-483f-bcf2-ef42daeb6838","system_id":"levelo_inurba_marseille","lat":43.31646,"lon":5.40438,"is_reserved":false,"is_disabled":false,"rental_uris":{"android":"levelo://app?vid=9139ce8b-3875-483f-bcf2-ef42daeb6838","ios":"levelo://app?vid=9139ce8b-3875-483f-bcf2-ef42daeb6838"},"vehicle_type_id":"4","last_reported":1700345160,"current_range_meters":7600,"station_id":"ce4bh012rcd13ifvqd00","pricing_plan_id":"free"},{"bike_id":"0b46b1b4-f42b-4e67-9aef-2797da64a2b5","system_id":"levelo_inurba_marseille","lat":43.33112,"lon":5.396776,"is_reserved":false,"is_disabled":false,"rental_uris":{"android":"levelo://app?vid=0b46b1b4-f42b-4e67-9aef-2797da64a2b5","ios":"levelo://app?vid=0b46b1b4-f42b-4e67-9aef-2797da64a2b5"},"vehicle_type_id":"4","last_reported":1700345160,"current_range_meters":17200,"station_id":"","pricing_plan_id":"free"},{"bike_id":"d5f1a405-66e6-44dd-95ae-48d7bc5e7e53","system_id":"levelo_inurba_marseille","lat":43.284538,"lon":5.358657,"is_reserved":false,"is_disabled":false,"rental_uris":{"android":"levelo://app?vid=d5f1a405-66e6-44dd-95ae-48d7bc5e7e53","ios":"levelo://app?vid=d5f1a405-66e6-44dd-95ae-48d7bc5e7e53"},"vehicle_type_id":"4","last_reported":1700345160,"current_range_meters":23200,"station_id":"ce4bhah2rcd13ifvqei0","pricing_plan_id":"free"},{"bike_id":"4a96ea9f-08d4-4c56-8260-57216b0fc889","system_id":"levelo_inurba_marseille","lat":43.284538,"lon":5.358657,"is_reserved":false,"is_disabled":false,"rental_uris":{"android":"levelo://app?vid=4a96ea9f-08d4-4c56-8260-57216b0fc889","ios":"levelo://app?vid=4a96ea9f-08d4-4c56-8260-57216b0fc889"},"vehicle_type_id":"4","last_reported":1700345160,"current_range_meters":10800,"station_id":"ce4bhah2rcd13ifvqei0","pricing_plan_id":"free"},{"bike_id":"95876aef-c84c-47db-99f2-a3c4ba238a6f","system_id":"levelo_inurba_marseille","lat":43.284538,"lon":5.358657,"is_reserved":false,"is_disabled":false,"rental_uris":{"android":"levelo://app?vid=95876aef-c84c-47db-99f2-a3c4ba238a6f","ios":"levelo://app?vid=95876aef-c84c-47db-99f2-a3c4ba238a6f"},"vehicle_type_id":"4","last_reported":1700345160,"current_range_meters":2800,"station_id":"ce4bhah2rcd13ifvqei0","pricing_plan_id":"free"},{"bike_id":"621371b7-ef53-4b09-a8da-4ab507801a5c","system_id":"levelo_inurba_marseille","lat":43.284534,"lon":5.358662,"is_reserved":false,"is_disabled":false,"rental_uris":{"android":"levelo://app?vid=621371b7-ef53-4b09-a8da-4ab507801a5c","ios":"levelo://app?vid=621371b7-ef53-4b09-a8da-4ab507801a5c"},"vehicle_type_id":"4","last_reported":1700345160,"current_range_meters":11200,"station_id":"ce4bhah2rcd13ifvqei0","pricing_plan_id":"free"},{"bike_id":"99de5e8e-71b0-4ad2-b517-84e912871ac8","system_id":"levelo_inurba_marseille","lat":43.284538,"lon":5.358657,"is_reserved":false,"is_disabled":false,"rental_uris":{"android":"levelo://app?vid=99de5e8e-71b0-4ad2-b517-84e912871ac8","ios":"levelo://app?vid=99de5e8e-71b0-4ad2-b517-84e912871ac8"},"vehicle_type_id":"4","last_reported":1700345160,"current_range_meters":6400,"station_id":"ce4bhah2rcd13ifvqei0","pricing_plan_id":"free"},{"bike_id":"5e652d9d-c310-4a42-9d7f-dd12383980c4","system_id":"levelo_inurba_marseille","lat":43.284538,"lon":5.358657,"is_reserved":false,"is_disabled":false,"rental_uris":{"android":"levelo://app?vid=5e652d9d-c310-4a42-9d7f-dd12383980c4","ios":"levelo://app?vid=5e652d9d-c310-4a42-9d7f-dd12383980c4"},"vehicle_type_id":"4","last_reported":1700345160,"current_range_meters":0,"station_id":"ce4bhah2rcd13ifvqei0","pricing_plan_id":"free"},{"bike_id":"f0817559-1fd9-42b1-a032-7eb3bb4fd162","system_id":"levelo_inurba_marseille","lat":43.284534,"lon":5.358662,"is_reserved":false,"is_disabled":false,"rental_uris":{"android":"levelo://app?vid=f0817559-1fd9-42b1-a032-7eb3bb4fd162","ios":"levelo://app?vid=f0817559-1fd9-42b1-a032-7eb3bb4fd162"},"vehicle_type_id":"4","last_reported":1700345160,"current_range_meters":18800,"station_id":"ce4bhah2rcd13ifvqei0","pricing_plan_id":"free"},{"bike_id":"5ad3762e-98c7-4713-b667-13446714c1da","system_id":"levelo_inurba_marseille","lat":43.28617,"lon":5.35105,"is_reserved":false,"is_disabled":false,"rental_uris":{"android":"levelo://app?vid=5ad3762e-98c7-4713-b667-13446714c1da","ios":"levelo://app?vid=5ad3762e-98c7-4713-b667-13446714c1da"},"vehicle_type_id":"4","last_reported":1700345160,"current_range_meters":24400,"station_id":"ce4bhch2rcd13ifvqeug","pricing_plan_id":"free"},{"bike_id":"4c06bf48-1cfd-4969-b1c4-02ef6fb94e9f","system_id":"levelo_inurba_marseille","lat":43.283998,"lon":5.375062,"is_reserved":false,"is_disabled":false,"rental_uris":{"android":"levelo://app?vid=4c06bf48-1cfd-4969-b1c4-02ef6fb94e9f","ios":"levelo://app?vid=4c06bf48-1cfd-4969-b1c4-02ef6fb94e9f"},"vehicle_type_id":"4","last_reported":1700345160,"current_range_meters":14800,"station_id":"ce4bh412rcd13ifvqds0","pricing_plan_id":"free"},{"bike_id":"f5e7e833-7ea8-49ac-aa98-6ce0b2839956","system_id":"levelo_inurba_marseille","lat":43.283998,"lon":5.375062,"is_reserved":false,"is_disabled":false,"rental_uris":{"android":"levelo://app?vid=f5e7e833-7ea8-49ac-aa98-6ce0b2839956","ios":"levelo://app?vid=f5e7e833-7ea8-49ac-aa98-6ce0b2839956"},"vehicle_type_id":"4","last_reported":1700345160,"current_range_meters":2800,"station_id":"ce4bh412rcd13ifvqds0","pricing_plan_id":"free"},{"bike_id":"d94dfb15-e572-4e59-af3c-ee7cbd62cef5","system_id":"levelo_inurba_marseille","lat":43.295717,"lon":5.399697,"is_reserved":false,"is_disabled":false,"rental_uris":{"android":"levelo://app?vid=d94dfb15-e572-4e59-af3c-ee7cbd62cef5","ios":"levelo://app?vid=d94dfb15-e572-4e59-af3c-ee7cbd62cef5"},"vehicle_type_id":"4","last_reported":1700345160,"current_range_meters":12400,"station_id":"","pricing_plan_id":"free"},{"bike_id":"aec7761e-f697-4df3-bfcb-d96238ee77d3","system_id":"levelo_inurba_marseille","lat":43.283998,"lon":5.375062,"is_reserved":false,"is_disabled":false,"rental_uris":{"android":"levelo://app?vid=aec7761e-f697-4df3-bfcb-d96238ee77d3","ios":"levelo://app?vid=aec7761e-f697-4df3-bfcb-d96238ee77d3"},"vehicle_type_id":"4","last_reported":1700345160,"current_range_meters":22800,"station_id":"ce4bh412rcd13ifvqds0","pricing_plan_id":"free"},{"bike_id":"83817918-40fc-48a0-b4d2-4ca9f198594c","system_id":"levelo_inurba_marseille","lat":43.294538,"lon":5.39855,"is_reserved":false,"is_disabled":false,"rental_uris":{"android":"levelo://app?vid=83817918-40fc-48a0-b4d2-4ca9f198594c","ios":"levelo://app?vid=83817918-40fc-48a0-b4d2-4ca9f198594c"},"vehicle_type_id":"4","last_reported":1700345160,"current_range_meters":0,"station_id":"","pricing_plan_id":"free"},{"bike_id":"a5f72f03-421b-4a89-a964-d904aa6a0c23","system_id":"levelo_inurba_marseille","lat":43.283998,"lon":5.375062,"is_reserved":false,"is_disabled":false,"rental_uris":{"android":"levelo://app?vid=a5f72f03-421b-4a89-a964-d904aa6a0c23","ios":"levelo://app?vid=a5f72f03-421b-4a89-a964-d904aa6a0c23"},"vehicle_type_id":"4","last_reported":1700345160,"current_range_meters":29200,"station_id":"ce4bh412rcd13ifvqds0","pricing_plan_id":"free"},{"bike_id":"1bbca194-8efb-4939-93db-022c92a8c001","system_id":"levelo_inurba_marseille","lat":43.295713,"lon":5.399639,"is_reserved":false,"is_disabled":false,"rental_uris":{"android":"levelo://app?vid=1bbca194-8efb-4939-93db-022c92a8c001","ios":"levelo://app?vid=1bbca194-8efb-4939-93db-022c92a8c001"},"vehicle_type_id":"4","last_reported":1700345160,"current_range_meters":5600,"station_id":"ce4bh312rcd13ifvqdj0","pricing_plan_id":"free"},{"bike_id":"fa37f1fa-6821-4fd8-820b-b85152e80cf4","system_id":"levelo_inurba_marseille","lat":43.319179,"lon":5.407725,"is_reserved":false,"is_disabled":false,"rental_uris":{"android":"levelo://app?vid=fa37f1fa-6821-4fd8-820b-b85152e80cf4","ios":"levelo://app?vid=fa37f1fa-6821-4fd8-820b-b85152e80cf4"},"vehicle_type_id":"4","last_reported":1700345160,"current_range_meters":11200,"station_id":"ce4bhq12rcd13ifvqhig","pricing_plan_id":"free"},{"bike_id":"5974ad3b-da81-42ca-a08b-1b3632a47afa","system_id":"levelo_inurba_marseille","lat":43.33237,"lon":5.3985,"is_reserved":false,"is_disabled":false,"rental_uris":{"android":"levelo://app?vid=5974ad3b-da81-42ca-a08b-1b3632a47afa","ios":"levelo://app?vid=5974ad3b-da81-42ca-a08b-1b3632a47afa"},"vehicle_type_id":"4","last_reported":1700345160,"current_range_meters":4000,"station_id":"","pricing_plan_id":"free"},{"bike_id":"6364147f-5b0d-4e52-9491-e43b350f5c7a","system_id":"levelo_inurba_marseille","lat":43.33717,"lon":5.391857,"is_reserved":false,"is_disabled":false,"rental_uris":{"android":"levelo://app?vid=6364147f-5b0d-4e52-9491-e43b350f5c7a","ios":"levelo://app?vid=6364147f-5b0d-4e52-9491-e43b350f5c7a"},"vehicle_type_id":"4","last_reported":1700345160,"current_range_meters":28400,"station_id":"ce4bhr92rcd13ifvqhsg","pricing_plan_id":"free"},{"bike_id":"b11bc004-18c8-42a5-a758-e5d4546d79ae","system_id":"levelo_inurba_marseille","lat":43.284793,"lon":5.384119,"is_reserved":false,"is_disabled":false,"rental_uris":{"android":"levelo://app?vid=b11bc004-18c8-42a5-a758-e5d4546d79ae","ios":"levelo://app?vid=b11bc004-18c8-42a5-a758-e5d4546d79ae"},"vehicle_type_id":"4","last_reported":1700345160,"current_range_meters":3200,"station_id":"ce4bh512rcd13ifvqe3g","pricing_plan_id":"free"},{"bike_id":"3602b74d-bc5d-4276-85ce-c45681ab1737","system_id":"levelo_inurba_marseille","lat":43.33717,"lon":5.391857,"is_reserved":false,"is_disabled":false,"rental_uris":{"android":"levelo://app?vid=3602b74d-bc5d-4276-85ce-c45681ab1737","ios":"levelo://app?vid=3602b74d-bc5d-4276-85ce-c45681ab1737"},"vehicle_type_id":"4","last_reported":1700345160,"current_range_meters":29600,"station_id":"ce4bhr92rcd13ifvqhsg","pricing_plan_id":"free"},{"bike_id":"d3dd3e3d-57b0-4c9e-949f-fddd56c2349c","system_id":"levelo_inurba_marseille","lat":43.32521,"lon":5.40575,"is_reserved":false,"is_disabled":false,"rental_uris":{"android":"levelo://app?vid=d3dd3e3d-57b0-4c9e-949f-fddd56c2349c","ios":"levelo://app?vid=d3dd3e3d-57b0-4c9e-949f-fddd56c2349c"},"vehicle_type_id":"4","last_reported":1700345160,"current_range_meters":800,"station_id":"","pricing_plan_id":"free"},{"bike_id":"96f268d7-0522-461f-abc0-4a99944fe919","system_id":"levelo_inurba_marseille","lat":43.289363,"lon":5.396322,"is_reserved":false,"is_disabled":false,"rental_uris":{"android":"levelo://app?vid=96f268d7-0522-461f-abc0-4a99944fe919","ios":"levelo://app?vid=96f268d7-0522-461f-abc0-4a99944fe919"},"vehicle_type_id":"4","last_reported":1700345160,"current_range_meters":21200,"station_id":"ce4bh3h2rcd13ifvqdn0","pricing_plan_id":"free"},{"bike_id":"f8073262-e760-4249-be60-0a28f629da35","system_id":"levelo_inurba_marseille","lat":43.280382,"lon":5.369291,"is_reserved":false,"is_disabled":false,"rental_uris":{"android":"levelo://app?vid=f8073262-e760-4249-be60-0a28f629da35","ios":"levelo://app?vid=f8073262-e760-4249-be60-0a28f629da35"},"vehicle_type_id":"4","last_reported":1700345160,"current_range_meters":20800,"station_id":"ce4bha12rcd13ifvqef0","pricing_plan_id":"free"},{"bike_id":"b54a5be1-3206-463d-a51e-a2c085cd81c5","system_id":"levelo_inurba_marseille","lat":43.282711,"lon":5.350657,"is_reserved":false,"is_disabled":false,"rental_uris":{"android":"levelo://app?vid=b54a5be1-3206-463d-a51e-a2c085cd81c5","ios":"levelo://app?vid=b54a5be1-3206-463d-a51e-a2c085cd81c5"},"vehicle_type_id":"4","last_reported":1700345160,"current_range_meters":0,"station_id":"ce4bhbp2rcd13ifvqerg","pricing_plan_id":"free"},{"bike_id":"4dd5a95e-8817-4785-9c93-b16f315b3308","system_id":"levelo_inurba_marseille","lat":43.28039,"lon":5.369297,"is_reserved":false,"is_disabled":false,"rental_uris":{"android":"levelo://app?vid=4dd5a95e-8817-4785-9c93-b16f315b3308","ios":"levelo://app?vid=4dd5a95e-8817-4785-9c93-b16f315b3308"},"vehicle_type_id":"4","last_reported":1700345160,"current_range_meters":24400,"station_id":"ce4bha12rcd13ifvqef0","pricing_plan_id":"free"},{"bike_id":"5837876b-8905-4237-a44c-91f0f3d0b552","system_id":"levelo_inurba_marseille","lat":43.28039,"lon":5.369297,"is_reserved":false,"is_disabled":false,"rental_uris":{"android":"levelo://app?vid=5837876b-8905-4237-a44c-91f0f3d0b552","ios":"levelo://app?vid=5837876b-8905-4237-a44c-91f0f3d0b552"},"vehicle_type_id":"4","last_reported":1700345160,"current_range_meters":19200,"station_id":"ce4bha12rcd13ifvqef0","pricing_plan_id":"free"},{"bike_id":"809faf2e-ae75-40ff-941f-f1d697814f21","system_id":"levelo_inurba_marseille","lat":43.280382,"lon":5.369291,"is_reserved":false,"is_disabled":false,"rental_uris":{"android":"levelo://app?vid=809faf2e-ae75-40ff-941f-f1d697814f21","ios":"levelo://app?vid=809faf2e-ae75-40ff-941f-f1d697814f21"},"vehicle_type_id":"4","last_reported":1700345160,"current_range_meters":17200,"station_id":"ce4bha12rcd13ifvqef0","pricing_plan_id":"free"},{"bike_id":"69fa908c-692a-4914-90f3-c5212b8c1458","system_id":"levelo_inurba_marseille","lat":43.28039,"lon":5.369297,"is_reserved":false,"is_disabled":false,"rental_uris":{"android":"levelo://app?vid=69fa908c-692a-4914-90f3-c5212b8c1458","ios":"levelo://app?vid=69fa908c-692a-4914-90f3-c5212b8c1458"},"vehicle_type_id":"4","last_reported":1700345160,"current_range_meters":800,"station_id":"ce4bha12rcd13ifvqef0","pricing_plan_id":"free"},{"bike_id":"a5c41b10-e423-4a4e-b0da-418e705ac427","system_id":"levelo_inurba_marseille","lat":43.283502,"lon":5.386471,"is_reserved":false,"is_disabled":false,"rental_uris":{"android":"levelo://app?vid=a5c41b10-e423-4a4e-b0da-418e705ac427","ios":"levelo://app?vid=a5c41b10-e423-4a4e-b0da-418e705ac427"},"vehicle_type_id":"4","last_reported":1700345160,"current_range_meters":16800,"station_id":"ce4bh492rcd13ifvqdvg","pricing_plan_id":"free"},{"bike_id":"df348ccf-7ffc-4253-95f7-bf3beb0b8892","system_id":"levelo_inurba_marseille","lat":43.280382,"lon":5.369291,"is_reserved":false,"is_disabled":false,"rental_uris":{"android":"levelo://app?vid=df348ccf-7ffc-4253-95f7-bf3beb0b8892","ios":"levelo://app?vid=df348ccf-7ffc-4253-95f7-bf3beb0b8892"},"vehicle_type_id":"4","last_reported":1700345160,"current_range_meters":23200,"station_id":"ce4bha12rcd13ifvqef0","pricing_plan_id":"free"},{"bike_id":"73df9116-5024-4123-a4d8-1e9b3045e3b1","system_id":"levelo_inurba_marseille","lat":43.296263,"lon":5.40601,"is_reserved":false,"is_disabled":false,"rental_uris":{"android":"levelo://app?vid=73df9116-5024-4123-a4d8-1e9b3045e3b1","ios":"levelo://app?vid=73df9116-5024-4123-a4d8-1e9b3045e3b1"},"vehicle_type_id":"4","last_reported":1700345160,"current_range_meters":16000,"station_id":"ce4bh0h2rcd13ifvqd60","pricing_plan_id":"free"},{"bike_id":"a64ab915-5803-466c-a1da-1114e9245860","system_id":"levelo_inurba_marseille","lat":43.296263,"lon":5.40601,"is_reserved":false,"is_disabled":false,"rental_uris":{"android":"levelo://app?vid=a64ab915-5803-466c-a1da-1114e9245860","ios":"levelo://app?vid=a64ab915-5803-466c-a1da-1114e9245860"},"vehicle_type_id":"4","last_reported":1700345160,"current_range_meters":800,"station_id":"ce4bh0h2rcd13ifvqd60","pricing_plan_id":"free"},{"bike_id":"ccf9b17e-2fb6-47d5-b5cb-73ea08fcb6e5","system_id":"levelo_inurba_marseille","lat":43.28575,"lon":5.39498,"is_reserved":false,"is_disabled":false,"rental_uris":{"android":"levelo://app?vid=ccf9b17e-2fb6-47d5-b5cb-73ea08fcb6e5","ios":"levelo://app?vid=ccf9b17e-2fb6-47d5-b5cb-73ea08fcb6e5"},"vehicle_type_id":"4","last_reported":1700345160,"current_range_meters":0,"station_id":"ce4bh292rcd13ifvqdg0","pricing_plan_id":"free"},{"bike_id":"0b360304-d567-433a-be4c-89e972187919","system_id":"levelo_inurba_marseille","lat":43.279087,"lon":5.380114,"is_reserved":false,"is_disabled":false,"rental_uris":{"android":"levelo://app?vid=0b360304-d567-433a-be4c-89e972187919","ios":"levelo://app?vid=0b360304-d567-433a-be4c-89e972187919"},"vehicle_type_id":"4","last_reported":1700345160,"current_range_meters":15200,"station_id":"ce4bhf92rcd13ifvqf50","pricing_plan_id":"free"},{"bike_id":"70398ab5-fac2-46eb-a28b-4bc3a30d156f","system_id":"levelo_inurba_marseille","lat":43.279087,"lon":5.380114,"is_reserved":false,"is_disabled":false,"rental_uris":{"android":"levelo://app?vid=70398ab5-fac2-46eb-a28b-4bc3a30d156f","ios":"levelo://app?vid=70398ab5-fac2-46eb-a28b-4bc3a30d156f"},"vehicle_type_id":"4","last_reported":1700345160,"current_range_meters":4400,"station_id":"ce4bhf92rcd13ifvqf50","pricing_plan_id":"free"},{"bike_id":"feca28d2-7019-4e39-96be-d7938cc29597","system_id":"levelo_inurba_marseille","lat":43.32435,"lon":5.4137,"is_reserved":false,"is_disabled":false,"rental_uris":{"android":"levelo://app?vid=feca28d2-7019-4e39-96be-d7938cc29597","ios":"levelo://app?vid=feca28d2-7019-4e39-96be-d7938cc29597"},"vehicle_type_id":"4","last_reported":1700345160,"current_range_meters":0,"station_id":"","pricing_plan_id":"free"},{"bike_id":"06f154da-4aae-4fe6-8d38-922fd2c19629","system_id":"levelo_inurba_marseille","lat":43.299579,"lon":5.413255,"is_reserved":false,"is_disabled":false,"rental_uris":{"android":"levelo://app?vid=06f154da-4aae-4fe6-8d38-922fd2c19629","ios":"levelo://app?vid=06f154da-4aae-4fe6-8d38-922fd2c19629"},"vehicle_type_id":"4","last_reported":1700345160,"current_range_meters":25200,"station_id":"ce4bhp12rcd13ifvqh9g","pricing_plan_id":"free"},{"bike_id":"e25f4e1d-536e-43e1-9a15-cbdfd3aa6723","system_id":"levelo_inurba_marseille","lat":43.320045,"lon":5.415048,"is_reserved":false,"is_disabled":false,"rental_uris":{"android":"levelo://app?vid=e25f4e1d-536e-43e1-9a15-cbdfd3aa6723","ios":"levelo://app?vid=e25f4e1d-536e-43e1-9a15-cbdfd3aa6723"},"vehicle_type_id":"4","last_reported":1700345160,"current_range_meters":2400,"station_id":"ce4bhq92rcd13ifvqhkg","pricing_plan_id":"free"},{"bike_id":"92fbbf8c-71b6-4e9c-b10e-70a690f0010a","system_id":"levelo_inurba_marseille","lat":43.320407,"lon":5.415613,"is_reserved":false,"is_disabled":false,"rental_uris":{"android":"levelo://app?vid=92fbbf8c-71b6-4e9c-b10e-70a690f0010a","ios":"levelo://app?vid=92fbbf8c-71b6-4e9c-b10e-70a690f0010a"},"vehicle_type_id":"4","last_reported":1700345160,"current_range_meters":0,"station_id":"ce4bhq92rcd13ifvqhkg","pricing_plan_id":"free"},{"bike_id":"17dedf90-2f03-4574-b82b-16e21e0ee81d","system_id":"levelo_inurba_marseille","lat":43.320045,"lon":5.415048,"is_reserved":false,"is_disabled":false,"rental_uris":{"android":"levelo://app?vid=17dedf90-2f03-4574-b82b-16e21e0ee81d","ios":"levelo://app?vid=17dedf90-2f03-4574-b82b-16e21e0ee81d"},"vehicle_type_id":"4","last_reported":1700345160,"current_range_meters":20800,"station_id":"ce4bhq92rcd13ifvqhkg","pricing_plan_id":"free"},{"bike_id":"ad3efb1c-b1c5-45d6-8f1d-ad3e082b3022","system_id":"levelo_inurba_marseille","lat":43.292569,"lon":5.409107,"is_reserved":false,"is_disabled":false,"rental_uris":{"android":"levelo://app?vid=ad3efb1c-b1c5-45d6-8f1d-ad3e082b3022","ios":"levelo://app?vid=ad3efb1c-b1c5-45d6-8f1d-ad3e082b3022"},"vehicle_type_id":"4","last_reported":1700345160,"current_range_meters":0,"station_id":"ce4bh192rcd13ifvqdc0","pricing_plan_id":"free"},{"bike_id":"3a34ab10-d5a5-454b-aa99-068a762dd74b","system_id":"levelo_inurba_marseille","lat":43.292569,"lon":5.409107,"is_reserved":false,"is_disabled":false,"rental_uris":{"android":"levelo://app?vid=3a34ab10-d5a5-454b-aa99-068a762dd74b","ios":"levelo://app?vid=3a34ab10-d5a5-454b-aa99-068a762dd74b"},"vehicle_type_id":"4","last_reported":1700345160,"current_range_meters":10000,"station_id":"ce4bh192rcd13ifvqdc0","pricing_plan_id":"free"},{"bike_id":"e60a3918-77dc-427b-8a43-02ba89e68286","system_id":"levelo_inurba_marseille","lat":43.292571,"lon":5.409107,"is_reserved":false,"is_disabled":false,"rental_uris":{"android":"levelo://app?vid=e60a3918-77dc-427b-8a43-02ba89e68286","ios":"levelo://app?vid=e60a3918-77dc-427b-8a43-02ba89e68286"},"vehicle_type_id":"4","last_reported":1700345160,"current_range_meters":27200,"station_id":"ce4bh192rcd13ifvqdc0","pricing_plan_id":"free"},{"bike_id":"aba18ede-dbdc-467d-a9b0-d6bfc986572d","system_id":"levelo_inurba_marseille","lat":43.280784,"lon":5.396622,"is_reserved":false,"is_disabled":false,"rental_uris":{"android":"levelo://app?vid=aba18ede-dbdc-467d-a9b0-d6bfc986572d","ios":"levelo://app?vid=aba18ede-dbdc-467d-a9b0-d6bfc986572d"},"vehicle_type_id":"4","last_reported":1700345160,"current_range_meters":26800,"station_id":"ce4bho12rcd13ifvqh2g","pricing_plan_id":"free"},{"bike_id":"f9e05f08-87e9-40de-93d7-e360681eb739","system_id":"levelo_inurba_marseille","lat":43.30354,"lon":5.41881,"is_reserved":false,"is_disabled":false,"rental_uris":{"android":"levelo://app?vid=f9e05f08-87e9-40de-93d7-e360681eb739","ios":"levelo://app?vid=f9e05f08-87e9-40de-93d7-e360681eb739"},"vehicle_type_id":"4","last_reported":1700345160,"current_range_meters":0,"station_id":"ce4bhop2rcd13ifvqh7g","pricing_plan_id":"free"},{"bike_id":"fa3b7614-7dd0-4d7b-83ab-f7fc54e8bddb","system_id":"levelo_inurba_marseille","lat":43.273613,"lon":5.362705,"is_reserved":false,"is_disabled":false,"rental_uris":{"android":"levelo://app?vid=fa3b7614-7dd0-4d7b-83ab-f7fc54e8bddb","ios":"levelo://app?vid=fa3b7614-7dd0-4d7b-83ab-f7fc54e8bddb"},"vehicle_type_id":"4","last_reported":1700345160,"current_range_meters":14000,"station_id":"ce4bhbh2rcd13ifvqeo0","pricing_plan_id":"free"},{"bike_id":"323d6c43-d2b5-49c8-bf39-5242c6145100","system_id":"levelo_inurba_marseille","lat":43.273609,"lon":5.362708,"is_reserved":false,"is_disabled":false,"rental_uris":{"android":"levelo://app?vid=323d6c43-d2b5-49c8-bf39-5242c6145100","ios":"levelo://app?vid=323d6c43-d2b5-49c8-bf39-5242c6145100"},"vehicle_type_id":"4","last_reported":1700345160,"current_range_meters":4400,"station_id":"ce4bhbh2rcd13ifvqeo0","pricing_plan_id":"free"},{"bike_id":"e6d4981d-66fd-40f8-9520-f7addfae3aee","system_id":"levelo_inurba_marseille","lat":43.279964,"lon":5.400126,"is_reserved":false,"is_disabled":false,"rental_uris":{"android":"levelo://app?vid=e6d4981d-66fd-40f8-9520-f7addfae3aee","ios":"levelo://app?vid=e6d4981d-66fd-40f8-9520-f7addfae3aee"},"vehicle_type_id":"4","last_reported":1700345160,"current_range_meters":18400,"station_id":"ce4bho92rcd13ifvqh4g","pricing_plan_id":"free"},{"bike_id":"18d269e8-2e40-4f1f-8cc3-732ff54d70ea","system_id":"levelo_inurba_marseille","lat":43.27992,"lon":5.40021,"is_reserved":false,"is_disabled":false,"rental_uris":{"android":"levelo://app?vid=18d269e8-2e40-4f1f-8cc3-732ff54d70ea","ios":"levelo://app?vid=18d269e8-2e40-4f1f-8cc3-732ff54d70ea"},"vehicle_type_id":"4","last_reported":1700345160,"current_range_meters":31600,"station_id":"ce4bho92rcd13ifvqh4g","pricing_plan_id":"free"},{"bike_id":"1c489e8f-9c52-4563-a1a2-18535a1743aa","system_id":"levelo_inurba_marseille","lat":43.27978,"lon":5.40036,"is_reserved":false,"is_disabled":false,"rental_uris":{"android":"levelo://app?vid=1c489e8f-9c52-4563-a1a2-18535a1743aa","ios":"levelo://app?vid=1c489e8f-9c52-4563-a1a2-18535a1743aa"},"vehicle_type_id":"4","last_reported":1700345160,"current_range_meters":31600,"station_id":"ce4bho92rcd13ifvqh4g","pricing_plan_id":"free"},{"bike_id":"8cb3fbde-a7e5-41de-94f3-c33c37555f74","system_id":"levelo_inurba_marseille","lat":43.317121,"lon":5.423936,"is_reserved":false,"is_disabled":false,"rental_uris":{"android":"levelo://app?vid=8cb3fbde-a7e5-41de-94f3-c33c37555f74","ios":"levelo://app?vid=8cb3fbde-a7e5-41de-94f3-c33c37555f74"},"vehicle_type_id":"4","last_reported":1700345160,"current_range_meters":28800,"station_id":"ce4bhp92rcd13ifvqhbg","pricing_plan_id":"free"},{"bike_id":"1cd994da-f57f-48ef-9031-dcc2fe311f8c","system_id":"levelo_inurba_marseille","lat":43.340804,"lon":5.410219,"is_reserved":false,"is_disabled":false,"rental_uris":{"android":"levelo://app?vid=1cd994da-f57f-48ef-9031-dcc2fe311f8c","ios":"levelo://app?vid=1cd994da-f57f-48ef-9031-dcc2fe311f8c"},"vehicle_type_id":"4","last_reported":1700345160,"current_range_meters":17600,"station_id":"ce4bhqh2rcd13ifvqhlg","pricing_plan_id":"free"},{"bike_id":"d14e2bd4-0bf5-4c65-8eee-5823a764ec83","system_id":"levelo_inurba_marseille","lat":43.340804,"lon":5.410219,"is_reserved":false,"is_disabled":false,"rental_uris":{"android":"levelo://app?vid=d14e2bd4-0bf5-4c65-8eee-5823a764ec83","ios":"levelo://app?vid=d14e2bd4-0bf5-4c65-8eee-5823a764ec83"},"vehicle_type_id":"4","last_reported":1700345160,"current_range_meters":6400,"station_id":"ce4bhqh2rcd13ifvqhlg","pricing_plan_id":"free"},{"bike_id":"d2840ce7-777c-4c0a-8d16-8870e8cac5a8","system_id":"levelo_inurba_marseille","lat":43.304088,"lon":5.425388,"is_reserved":false,"is_disabled":false,"rental_uris":{"android":"levelo://app?vid=d2840ce7-777c-4c0a-8d16-8870e8cac5a8","ios":"levelo://app?vid=d2840ce7-777c-4c0a-8d16-8870e8cac5a8"},"vehicle_type_id":"4","last_reported":1700345160,"current_range_meters":0,"station_id":"ce4bhoh2rcd13ifvqh6g","pricing_plan_id":"free"},{"bike_id":"f8f5619a-a183-461d-b100-453fb972fcd4","system_id":"levelo_inurba_marseille","lat":43.272118,"lon":5.391758,"is_reserved":false,"is_disabled":false,"rental_uris":{"android":"levelo://app?vid=f8f5619a-a183-461d-b100-453fb972fcd4","ios":"levelo://app?vid=f8f5619a-a183-461d-b100-453fb972fcd4"},"vehicle_type_id":"4","last_reported":1700345160,"current_range_meters":24400,"station_id":"ce4bhhp2rcd13ifvqfm0","pricing_plan_id":"free"},{"bike_id":"139753b1-0b83-4c3a-80f1-5052bac15461","system_id":"levelo_inurba_marseille","lat":43.2721,"lon":5.392667,"is_reserved":false,"is_disabled":false,"rental_uris":{"android":"levelo://app?vid=139753b1-0b83-4c3a-80f1-5052bac15461","ios":"levelo://app?vid=139753b1-0b83-4c3a-80f1-5052bac15461"},"vehicle_type_id":"4","last_reported":1700345160,"current_range_meters":9200,"station_id":"","pricing_plan_id":"free"},{"bike_id":"fe139271-7817-4645-9ec4-f7eee743e805","system_id":"levelo_inurba_marseille","lat":43.271896,"lon":5.392307,"is_reserved":false,"is_disabled":false,"rental_uris":{"android":"levelo://app?vid=fe139271-7817-4645-9ec4-f7eee743e805","ios":"levelo://app?vid=fe139271-7817-4645-9ec4-f7eee743e805"},"vehicle_type_id":"4","last_reported":1700345160,"current_range_meters":0,"station_id":"ce4bhhp2rcd13ifvqfm0","pricing_plan_id":"free"},{"bike_id":"f0ed4531-078e-42fb-a007-3ed80505eb54","system_id":"levelo_inurba_marseille","lat":43.271891,"lon":5.392412,"is_reserved":false,"is_disabled":false,"rental_uris":{"android":"levelo://app?vid=f0ed4531-078e-42fb-a007-3ed80505eb54","ios":"levelo://app?vid=f0ed4531-078e-42fb-a007-3ed80505eb54"},"vehicle_type_id":"4","last_reported":1700345160,"current_range_meters":5600,"station_id":"","pricing_plan_id":"free"},{"bike_id":"08b435c4-205c-42d6-8404-c916901c2441","system_id":"levelo_inurba_marseille","lat":43.278128,"lon":5.407195,"is_reserved":false,"is_disabled":false,"rental_uris":{"android":"levelo://app?vid=08b435c4-205c-42d6-8404-c916901c2441","ios":"levelo://app?vid=08b435c4-205c-42d6-8404-c916901c2441"},"vehicle_type_id":"4","last_reported":1700345160,"current_range_meters":7600,"station_id":"ce4bhnh2rcd13ifvqgtg","pricing_plan_id":"free"},{"bike_id":"f9aa93c7-ef9b-4c09-b88b-3c4a52c1051f","system_id":"levelo_inurba_marseille","lat":43.278128,"lon":5.407195,"is_reserved":false,"is_disabled":false,"rental_uris":{"android":"levelo://app?vid=f9aa93c7-ef9b-4c09-b88b-3c4a52c1051f","ios":"levelo://app?vid=f9aa93c7-ef9b-4c09-b88b-3c4a52c1051f"},"vehicle_type_id":"4","last_reported":1700345160,"current_range_meters":30400,"station_id":"ce4bhnh2rcd13ifvqgtg","pricing_plan_id":"free"},{"bike_id":"462126be-b935-4202-aab0-db26edf447e2","system_id":"levelo_inurba_marseille","lat":43.326111,"lon":5.427105,"is_reserved":false,"is_disabled":false,"rental_uris":{"android":"levelo://app?vid=462126be-b935-4202-aab0-db26edf447e2","ios":"levelo://app?vid=462126be-b935-4202-aab0-db26edf447e2"},"vehicle_type_id":"4","last_reported":1700345160,"current_range_meters":10000,"station_id":"","pricing_plan_id":"free"},{"bike_id":"9be3c65f-f0ea-411a-9ecf-69a02f959f57","system_id":"levelo_inurba_marseille","lat":43.279465,"lon":5.410561,"is_reserved":false,"is_disabled":false,"rental_uris":{"android":"levelo://app?vid=9be3c65f-f0ea-411a-9ecf-69a02f959f57","ios":"levelo://app?vid=9be3c65f-f0ea-411a-9ecf-69a02f959f57"},"vehicle_type_id":"4","last_reported":1700345160,"current_range_meters":17600,"station_id":"ce4bhnp2rcd13ifvqh0g","pricing_plan_id":"free"},{"bike_id":"f43d9a9c-5cec-49e0-a18d-9b539aa37375","system_id":"levelo_inurba_marseille","lat":43.279465,"lon":5.410561,"is_reserved":false,"is_disabled":false,"rental_uris":{"android":"levelo://app?vid=f43d9a9c-5cec-49e0-a18d-9b539aa37375","ios":"levelo://app?vid=f43d9a9c-5cec-49e0-a18d-9b539aa37375"},"vehicle_type_id":"4","last_reported":1700345160,"current_range_meters":19600,"station_id":"ce4bhnp2rcd13ifvqh0g","pricing_plan_id":"free"},{"bike_id":"c66ddc89-f5f8-4891-a146-125b11f6fdcb","system_id":"levelo_inurba_marseille","lat":43.29674,"lon":5.427863,"is_reserved":false,"is_disabled":false,"rental_uris":{"android":"levelo://app?vid=c66ddc89-f5f8-4891-a146-125b11f6fdcb","ios":"levelo://app?vid=c66ddc89-f5f8-4891-a146-125b11f6fdcb"},"vehicle_type_id":"4","last_reported":1700345160,"current_range_meters":20000,"station_id":"","pricing_plan_id":"free"},{"bike_id":"208dc22b-5220-4521-9531-720641d54377","system_id":"levelo_inurba_marseille","lat":43.26557,"lon":5.37281,"is_reserved":false,"is_disabled":false,"rental_uris":{"android":"levelo://app?vid=208dc22b-5220-4521-9531-720641d54377","ios":"levelo://app?vid=208dc22b-5220-4521-9531-720641d54377"},"vehicle_type_id":"4","last_reported":1700345160,"current_range_meters":0,"station_id":"ce4bhg12rcd13ifvqf70","pricing_plan_id":"free"},{"bike_id":"2ef0e9d9-3bb8-497e-b612-12a22578d5aa","system_id":"levelo_inurba_marseille","lat":43.265558,"lon":5.37281,"is_reserved":false,"is_disabled":false,"rental_uris":{"android":"levelo://app?vid=2ef0e9d9-3bb8-497e-b612-12a22578d5aa","ios":"levelo://app?vid=2ef0e9d9-3bb8-497e-b612-12a22578d5aa"},"vehicle_type_id":"4","last_reported":1700345160,"current_range_meters":2000,"station_id":"ce4bhg12rcd13ifvqf70","pricing_plan_id":"free"},{"bike_id":"c7758cb2-2a45-4f89-aa5c-0e391d845c76","system_id":"levelo_inurba_marseille","lat":43.326053,"lon":5.429943,"is_reserved":false,"is_disabled":false,"rental_uris":{"android":"levelo://app?vid=c7758cb2-2a45-4f89-aa5c-0e391d845c76","ios":"levelo://app?vid=c7758cb2-2a45-4f89-aa5c-0e391d845c76"},"vehicle_type_id":"4","last_reported":1700345160,"current_range_meters":2800,"station_id":"","pricing_plan_id":"free"},{"bike_id":"42871d3b-8c03-490f-baf1-f4b57c44a331","system_id":"levelo_inurba_marseille","lat":43.326569,"lon":5.430586,"is_reserved":false,"is_disabled":false,"rental_uris":{"android":"levelo://app?vid=42871d3b-8c03-490f-baf1-f4b57c44a331","ios":"levelo://app?vid=42871d3b-8c03-490f-baf1-f4b57c44a331"},"vehicle_type_id":"4","last_reported":1700345160,"current_range_meters":16800,"station_id":"","pricing_plan_id":"free"},{"bike_id":"f074eb09-a5e9-4b3f-ac41-0b94114726fa","system_id":"levelo_inurba_marseille","lat":43.27996,"lon":5.416624,"is_reserved":false,"is_disabled":false,"rental_uris":{"android":"levelo://app?vid=f074eb09-a5e9-4b3f-ac41-0b94114726fa","ios":"levelo://app?vid=f074eb09-a5e9-4b3f-ac41-0b94114726fa"},"vehicle_type_id":"4","last_reported":1700345160,"current_range_meters":24000,"station_id":"ce4bho12rcd13ifvqh1g","pricing_plan_id":"free"},{"bike_id":"fb0f8f02-5c4d-4282-bd1c-d6f69569b453","system_id":"levelo_inurba_marseille","lat":43.27996,"lon":5.416624,"is_reserved":false,"is_disabled":false,"rental_uris":{"android":"levelo://app?vid=fb0f8f02-5c4d-4282-bd1c-d6f69569b453","ios":"levelo://app?vid=fb0f8f02-5c4d-4282-bd1c-d6f69569b453"},"vehicle_type_id":"4","last_reported":1700345160,"current_range_meters":20800,"station_id":"ce4bho12rcd13ifvqh1g","pricing_plan_id":"free"},{"bike_id":"c99cb3b0-07f7-459c-85c2-3eda2a9fa675","system_id":"levelo_inurba_marseille","lat":43.261782,"lon":5.374515,"is_reserved":false,"is_disabled":false,"rental_uris":{"android":"levelo://app?vid=c99cb3b0-07f7-459c-85c2-3eda2a9fa675","ios":"levelo://app?vid=c99cb3b0-07f7-459c-85c2-3eda2a9fa675"},"vehicle_type_id":"4","last_reported":1700345160,"current_range_meters":12000,"station_id":"ce4bhgp2rcd13ifvqfc0","pricing_plan_id":"free"},{"bike_id":"d077710c-062f-4bb5-bc07-f925193fbbe9","system_id":"levelo_inurba_marseille","lat":43.31719,"lon":5.43699,"is_reserved":false,"is_disabled":false,"rental_uris":{"android":"levelo://app?vid=d077710c-062f-4bb5-bc07-f925193fbbe9","ios":"levelo://app?vid=d077710c-062f-4bb5-bc07-f925193fbbe9"},"vehicle_type_id":"4","last_reported":1700345160,"current_range_meters":5200,"station_id":"ce4bhp92rcd13ifvqhcg","pricing_plan_id":"free"},{"bike_id":"af8134e2-777f-4e28-b8b9-e46020c47b05","system_id":"levelo_inurba_marseille","lat":43.261782,"lon":5.374515,"is_reserved":false,"is_disabled":false,"rental_uris":{"android":"levelo://app?vid=af8134e2-777f-4e28-b8b9-e46020c47b05","ios":"levelo://app?vid=af8134e2-777f-4e28-b8b9-e46020c47b05"},"vehicle_type_id":"4","last_reported":1700345160,"current_range_meters":12800,"station_id":"ce4bhgp2rcd13ifvqfc0","pricing_plan_id":"free"},{"bike_id":"320e3748-f917-4d6a-98b5-3b7e93519d45","system_id":"levelo_inurba_marseille","lat":43.261782,"lon":5.374515,"is_reserved":false,"is_disabled":false,"rental_uris":{"android":"levelo://app?vid=320e3748-f917-4d6a-98b5-3b7e93519d45","ios":"levelo://app?vid=320e3748-f917-4d6a-98b5-3b7e93519d45"},"vehicle_type_id":"4","last_reported":1700345160,"current_range_meters":15200,"station_id":"ce4bhgp2rcd13ifvqfc0","pricing_plan_id":"free"},{"bike_id":"7bf7502f-8a1e-4c6b-8330-76cb45e79340","system_id":"levelo_inurba_marseille","lat":43.317104,"lon":5.436818,"is_reserved":false,"is_disabled":false,"rental_uris":{"android":"levelo://app?vid=7bf7502f-8a1e-4c6b-8330-76cb45e79340","ios":"levelo://app?vid=7bf7502f-8a1e-4c6b-8330-76cb45e79340"},"vehicle_type_id":"4","last_reported":1700345160,"current_range_meters":3600,"station_id":"ce4bhp92rcd13ifvqhcg","pricing_plan_id":"free"},{"bike_id":"584c5199-357e-4900-bd58-cb216b28e7ac","system_id":"levelo_inurba_marseille","lat":43.317104,"lon":5.436818,"is_reserved":false,"is_disabled":false,"rental_uris":{"android":"levelo://app?vid=584c5199-357e-4900-bd58-cb216b28e7ac","ios":"levelo://app?vid=584c5199-357e-4900-bd58-cb216b28e7ac"},"vehicle_type_id":"4","last_reported":1700345160,"current_range_meters":31600,"station_id":"ce4bhp92rcd13ifvqhcg","pricing_plan_id":"free"},{"bike_id":"6c3d6e7c-a3f6-4046-9d6c-328897356eee","system_id":"levelo_inurba_marseille","lat":43.261782,"lon":5.374515,"is_reserved":false,"is_disabled":false,"rental_uris":{"android":"levelo://app?vid=6c3d6e7c-a3f6-4046-9d6c-328897356eee","ios":"levelo://app?vid=6c3d6e7c-a3f6-4046-9d6c-328897356eee"},"vehicle_type_id":"4","last_reported":1700345160,"current_range_meters":20000,"station_id":"ce4bhgp2rcd13ifvqfc0","pricing_plan_id":"free"},{"bike_id":"4eb3ca55-8582-4005-8d50-08c98619b69a","system_id":"levelo_inurba_marseille","lat":43.317104,"lon":5.436818,"is_reserved":false,"is_disabled":false,"rental_uris":{"android":"levelo://app?vid=4eb3ca55-8582-4005-8d50-08c98619b69a","ios":"levelo://app?vid=4eb3ca55-8582-4005-8d50-08c98619b69a"},"vehicle_type_id":"4","last_reported":1700345160,"current_range_meters":2800,"station_id":"ce4bhp92rcd13ifvqhcg","pricing_plan_id":"free"},{"bike_id":"b296e044-cc35-4d7c-a0b3-e9663e737e19","system_id":"levelo_inurba_marseille","lat":43.317104,"lon":5.436818,"is_reserved":false,"is_disabled":false,"rental_uris":{"android":"levelo://app?vid=b296e044-cc35-4d7c-a0b3-e9663e737e19","ios":"levelo://app?vid=b296e044-cc35-4d7c-a0b3-e9663e737e19"},"vehicle_type_id":"4","last_reported":1700345160,"current_range_meters":8800,"station_id":"ce4bhp92rcd13ifvqhcg","pricing_plan_id":"free"},{"bike_id":"e8766bd2-dbc5-4fac-9fd5-8196dc51357d","system_id":"levelo_inurba_marseille","lat":43.271368,"lon":5.40928,"is_reserved":false,"is_disabled":false,"rental_uris":{"android":"levelo://app?vid=e8766bd2-dbc5-4fac-9fd5-8196dc51357d","ios":"levelo://app?vid=e8766bd2-dbc5-4fac-9fd5-8196dc51357d"},"vehicle_type_id":"4","last_reported":1700345160,"current_range_meters":8000,"station_id":"ce4bhl12rcd13ifvqgf0","pricing_plan_id":"free"},{"bike_id":"6678d850-aeac-4b4e-99a0-10ec8de012c5","system_id":"levelo_inurba_marseille","lat":43.271368,"lon":5.40928,"is_reserved":false,"is_disabled":false,"rental_uris":{"android":"levelo://app?vid=6678d850-aeac-4b4e-99a0-10ec8de012c5","ios":"levelo://app?vid=6678d850-aeac-4b4e-99a0-10ec8de012c5"},"vehicle_type_id":"4","last_reported":1700345160,"current_range_meters":7200,"station_id":"ce4bhl12rcd13ifvqgf0","pricing_plan_id":"free"},{"bike_id":"74ce853b-0d8b-42c9-81c8-17a7564a4b34","system_id":"levelo_inurba_marseille","lat":43.31725,"lon":5.43786,"is_reserved":false,"is_disabled":false,"rental_uris":{"android":"levelo://app?vid=74ce853b-0d8b-42c9-81c8-17a7564a4b34","ios":"levelo://app?vid=74ce853b-0d8b-42c9-81c8-17a7564a4b34"},"vehicle_type_id":"4","last_reported":1700345160,"current_range_meters":17200,"station_id":"","pricing_plan_id":"free"},{"bike_id":"9ae96c3a-bf60-4cff-88ed-d593e21791ef","system_id":"levelo_inurba_marseille","lat":43.298768,"lon":5.43643,"is_reserved":false,"is_disabled":false,"rental_uris":{"android":"levelo://app?vid=9ae96c3a-bf60-4cff-88ed-d593e21791ef","ios":"levelo://app?vid=9ae96c3a-bf60-4cff-88ed-d593e21791ef"},"vehicle_type_id":"4","last_reported":1700345160,"current_range_meters":14400,"station_id":"ce4bhpp2rcd13ifvqhfg","pricing_plan_id":"free"},{"bike_id":"34c356c7-6d41-4c28-bf15-c6ff08d36598","system_id":"levelo_inurba_marseille","lat":43.298768,"lon":5.43643,"is_reserved":false,"is_disabled":false,"rental_uris":{"android":"levelo://app?vid=34c356c7-6d41-4c28-bf15-c6ff08d36598","ios":"levelo://app?vid=34c356c7-6d41-4c28-bf15-c6ff08d36598"},"vehicle_type_id":"4","last_reported":1700345160,"current_range_meters":23200,"station_id":"ce4bhpp2rcd13ifvqhfg","pricing_plan_id":"free"},{"bike_id":"abadc828-69fe-497b-b711-e5360a68b2c4","system_id":"levelo_inurba_marseille","lat":43.298768,"lon":5.43643,"is_reserved":false,"is_disabled":false,"rental_uris":{"android":"levelo://app?vid=abadc828-69fe-497b-b711-e5360a68b2c4","ios":"levelo://app?vid=abadc828-69fe-497b-b711-e5360a68b2c4"},"vehicle_type_id":"4","last_reported":1700345160,"current_range_meters":23600,"station_id":"ce4bhpp2rcd13ifvqhfg","pricing_plan_id":"free"},{"bike_id":"080343fe-0b44-49d6-891f-b4e59d6a5c68","system_id":"levelo_inurba_marseille","lat":43.260219,"lon":5.37546,"is_reserved":false,"is_disabled":false,"rental_uris":{"android":"levelo://app?vid=080343fe-0b44-49d6-891f-b4e59d6a5c68","ios":"levelo://app?vid=080343fe-0b44-49d6-891f-b4e59d6a5c68"},"vehicle_type_id":"4","last_reported":1700345160,"current_range_meters":25600,"station_id":"ce4bhgh2rcd13ifvqfa0","pricing_plan_id":"free"},{"bike_id":"52c2449e-ba19-42b2-a2b7-5e9532985598","system_id":"levelo_inurba_marseille","lat":43.32279,"lon":5.43926,"is_reserved":false,"is_disabled":false,"rental_uris":{"android":"levelo://app?vid=52c2449e-ba19-42b2-a2b7-5e9532985598","ios":"levelo://app?vid=52c2449e-ba19-42b2-a2b7-5e9532985598"},"vehicle_type_id":"4","last_reported":1700345160,"current_range_meters":14800,"station_id":"","pricing_plan_id":"free"},{"bike_id":"d88b6a73-531b-425a-9e55-b97c354f59a2","system_id":"levelo_inurba_marseille","lat":43.32279,"lon":5.43934,"is_reserved":false,"is_disabled":false,"rental_uris":{"android":"levelo://app?vid=d88b6a73-531b-425a-9e55-b97c354f59a2","ios":"levelo://app?vid=d88b6a73-531b-425a-9e55-b97c354f59a2"},"vehicle_type_id":"4","last_reported":1700345160,"current_range_meters":28000,"station_id":"","pricing_plan_id":"free"},{"bike_id":"8e73a0a2-0af6-4d10-9371-e08a34a82a33","system_id":"levelo_inurba_marseille","lat":43.26219,"lon":5.40121,"is_reserved":false,"is_disabled":false,"rental_uris":{"android":"levelo://app?vid=8e73a0a2-0af6-4d10-9371-e08a34a82a33","ios":"levelo://app?vid=8e73a0a2-0af6-4d10-9371-e08a34a82a33"},"vehicle_type_id":"4","last_reported":1700345160,"current_range_meters":0,"station_id":"","pricing_plan_id":"free"},{"bike_id":"039398bb-8f48-4a09-90e4-c695a075e1b2","system_id":"levelo_inurba_marseille","lat":43.275028,"lon":5.424534,"is_reserved":false,"is_disabled":false,"rental_uris":{"android":"levelo://app?vid=039398bb-8f48-4a09-90e4-c695a075e1b2","ios":"levelo://app?vid=039398bb-8f48-4a09-90e4-c695a075e1b2"},"vehicle_type_id":"4","last_reported":1700345160,"current_range_meters":5200,"station_id":"ce4bhn92rcd13ifvqgrg","pricing_plan_id":"free"},{"bike_id":"29611ddf-2142-42d8-a93f-205ca8309b2b","system_id":"levelo_inurba_marseille","lat":43.260909,"lon":5.397591,"is_reserved":false,"is_disabled":false,"rental_uris":{"android":"levelo://app?vid=29611ddf-2142-42d8-a93f-205ca8309b2b","ios":"levelo://app?vid=29611ddf-2142-42d8-a93f-205ca8309b2b"},"vehicle_type_id":"4","last_reported":1700345160,"current_range_meters":0,"station_id":"ce4bhi12rcd13ifvqfq0","pricing_plan_id":"free"},{"bike_id":"1aaf1d72-482d-4a4a-9137-926de2425109","system_id":"levelo_inurba_marseille","lat":43.25576,"lon":5.38247,"is_reserved":false,"is_disabled":false,"rental_uris":{"android":"levelo://app?vid=1aaf1d72-482d-4a4a-9137-926de2425109","ios":"levelo://app?vid=1aaf1d72-482d-4a4a-9137-926de2425109"},"vehicle_type_id":"4","last_reported":1700345160,"current_range_meters":0,"station_id":"ce4bhih2rcd13ifvqfs0","pricing_plan_id":"free"},{"bike_id":"b2ead9e6-c81e-4ebf-babb-2cb6f02ce943","system_id":"levelo_inurba_marseille","lat":43.255727,"lon":5.382337,"is_reserved":false,"is_disabled":false,"rental_uris":{"android":"levelo://app?vid=b2ead9e6-c81e-4ebf-babb-2cb6f02ce943","ios":"levelo://app?vid=b2ead9e6-c81e-4ebf-babb-2cb6f02ce943"},"vehicle_type_id":"4","last_reported":1700345160,"current_range_meters":0,"station_id":"ce4bhih2rcd13ifvqfs0","pricing_plan_id":"free"},{"bike_id":"956f93f8-b714-4b88-a26b-a27fe26a895d","system_id":"levelo_inurba_marseille","lat":43.270721,"lon":5.422764,"is_reserved":false,"is_disabled":false,"rental_uris":{"android":"levelo://app?vid=956f93f8-b714-4b88-a26b-a27fe26a895d","ios":"levelo://app?vid=956f93f8-b714-4b88-a26b-a27fe26a895d"},"vehicle_type_id":"4","last_reported":1700345160,"current_range_meters":16800,"station_id":"ce4bhk92rcd13ifvqgb0","pricing_plan_id":"free"},{"bike_id":"1aad1190-3717-48c1-b218-3940ae3995c4","system_id":"levelo_inurba_marseille","lat":43.270721,"lon":5.422764,"is_reserved":false,"is_disabled":false,"rental_uris":{"android":"levelo://app?vid=1aad1190-3717-48c1-b218-3940ae3995c4","ios":"levelo://app?vid=1aad1190-3717-48c1-b218-3940ae3995c4"},"vehicle_type_id":"4","last_reported":1700345160,"current_range_meters":26400,"station_id":"ce4bhk92rcd13ifvqgb0","pricing_plan_id":"free"},{"bike_id":"7ad27884-6005-4573-b788-863e7849e691","system_id":"levelo_inurba_marseille","lat":43.257079,"lon":5.411051,"is_reserved":false,"is_disabled":false,"rental_uris":{"android":"levelo://app?vid=7ad27884-6005-4573-b788-863e7849e691","ios":"levelo://app?vid=7ad27884-6005-4573-b788-863e7849e691"},"vehicle_type_id":"4","last_reported":1700345160,"current_range_meters":1600,"station_id":"ce4bhkp2rcd13ifvqgd0","pricing_plan_id":"free"},{"bike_id":"268e7890-750e-4202-904d-61f2525519c6","system_id":"levelo_inurba_marseille","lat":43.257079,"lon":5.411051,"is_reserved":false,"is_disabled":false,"rental_uris":{"android":"levelo://app?vid=268e7890-750e-4202-904d-61f2525519c6","ios":"levelo://app?vid=268e7890-750e-4202-904d-61f2525519c6"},"vehicle_type_id":"4","last_reported":1700345160,"current_range_meters":13600,"station_id":"ce4bhkp2rcd13ifvqgd0","pricing_plan_id":"free"},{"bike_id":"c066fd2a-8fee-4202-8f47-33f36da84f5d","system_id":"levelo_inurba_marseille","lat":43.257079,"lon":5.411051,"is_reserved":false,"is_disabled":false,"rental_uris":{"android":"levelo://app?vid=c066fd2a-8fee-4202-8f47-33f36da84f5d","ios":"levelo://app?vid=c066fd2a-8fee-4202-8f47-33f36da84f5d"},"vehicle_type_id":"4","last_reported":1700345160,"current_range_meters":31600,"station_id":"ce4bhkp2rcd13ifvqgd0","pricing_plan_id":"free"},{"bike_id":"44f08415-9b06-48c1-9eeb-6c227f27cac1","system_id":"levelo_inurba_marseille","lat":43.257079,"lon":5.411051,"is_reserved":false,"is_disabled":false,"rental_uris":{"android":"levelo://app?vid=44f08415-9b06-48c1-9eeb-6c227f27cac1","ios":"levelo://app?vid=44f08415-9b06-48c1-9eeb-6c227f27cac1"},"vehicle_type_id":"4","last_reported":1700345160,"current_range_meters":8000,"station_id":"ce4bhkp2rcd13ifvqgd0","pricing_plan_id":"free"},{"bike_id":"054d9785-8ef4-4c9a-b63a-ca6d7d069df2","system_id":"levelo_inurba_marseille","lat":43.250009,"lon":5.389195,"is_reserved":false,"is_disabled":false,"rental_uris":{"android":"levelo://app?vid=054d9785-8ef4-4c9a-b63a-ca6d7d069df2","ios":"levelo://app?vid=054d9785-8ef4-4c9a-b63a-ca6d7d069df2"},"vehicle_type_id":"4","last_reported":1700345160,"current_range_meters":23600,"station_id":"ce4bhgp2rcd13ifvqfd0","pricing_plan_id":"free"},{"bike_id":"961fc85e-a432-471f-b1c4-71f9c8f489a3","system_id":"levelo_inurba_marseille","lat":43.25102,"lon":5.403214,"is_reserved":false,"is_disabled":false,"rental_uris":{"android":"levelo://app?vid=961fc85e-a432-471f-b1c4-71f9c8f489a3","ios":"levelo://app?vid=961fc85e-a432-471f-b1c4-71f9c8f489a3"},"vehicle_type_id":"4","last_reported":1700345160,"current_range_meters":0,"station_id":"ce4bhlh2rcd13ifvqgig","pricing_plan_id":"free"},{"bike_id":"bb62418c-5485-4dfc-b599-8f902b23b45d","system_id":"levelo_inurba_marseille","lat":43.2466,"lon":5.38164,"is_reserved":false,"is_disabled":false,"rental_uris":{"android":"levelo://app?vid=bb62418c-5485-4dfc-b599-8f902b23b45d","ios":"levelo://app?vid=bb62418c-5485-4dfc-b599-8f902b23b45d"},"vehicle_type_id":"4","last_reported":1700345160,"current_range_meters":0,"station_id":"ce4bhih2rcd13ifvqfr0","pricing_plan_id":"free"},{"bike_id":"92038395-672a-46d8-b898-53bf0b107308","system_id":"levelo_inurba_marseille","lat":43.243884,"lon":5.370736,"is_reserved":false,"is_disabled":false,"rental_uris":{"android":"levelo://app?vid=92038395-672a-46d8-b898-53bf0b107308","ios":"levelo://app?vid=92038395-672a-46d8-b898-53bf0b107308"},"vehicle_type_id":"4","last_reported":1700345160,"current_range_meters":22800,"station_id":"ce4bhhh2rcd13ifvqfk0","pricing_plan_id":"free"},{"bike_id":"856f4cf7-004a-4e69-8bd9-4daca4251e27","system_id":"levelo_inurba_marseille","lat":43.24072,"lon":5.37759,"is_reserved":false,"is_disabled":false,"rental_uris":{"android":"levelo://app?vid=856f4cf7-004a-4e69-8bd9-4daca4251e27","ios":"levelo://app?vid=856f4cf7-004a-4e69-8bd9-4daca4251e27"},"vehicle_type_id":"4","last_reported":1700345160,"current_range_meters":22800,"station_id":"ce4bhnp2rcd13ifvqgvg","pricing_plan_id":"free"},{"bike_id":"4370869b-0c59-4e1b-b4c7-59bf3a7bc50e","system_id":"levelo_inurba_marseille","lat":43.241782,"lon":5.397264,"is_reserved":false,"is_disabled":false,"rental_uris":{"android":"levelo://app?vid=4370869b-0c59-4e1b-b4c7-59bf3a7bc50e","ios":"levelo://app?vid=4370869b-0c59-4e1b-b4c7-59bf3a7bc50e"},"vehicle_type_id":"4","last_reported":1700345160,"current_range_meters":17200,"station_id":"ce4bhn12rcd13ifvqgpg","pricing_plan_id":"free"},{"bike_id":"07e8793f-b5c8-4815-95b2-cfd73adfc584","system_id":"levelo_inurba_marseille","lat":43.24179,"lon":5.39727,"is_reserved":false,"is_disabled":false,"rental_uris":{"android":"levelo://app?vid=07e8793f-b5c8-4815-95b2-cfd73adfc584","ios":"levelo://app?vid=07e8793f-b5c8-4815-95b2-cfd73adfc584"},"vehicle_type_id":"4","last_reported":1700345160,"current_range_meters":26800,"station_id":"ce4bhn12rcd13ifvqgpg","pricing_plan_id":"free"},{"bike_id":"662f058d-46b1-4787-b52a-d29e98a28779","system_id":"levelo_inurba_marseille","lat":43.231919,"lon":5.355532,"is_reserved":false,"is_disabled":false,"rental_uris":{"android":"levelo://app?vid=662f058d-46b1-4787-b52a-d29e98a28779","ios":"levelo://app?vid=662f058d-46b1-4787-b52a-d29e98a28779"},"vehicle_type_id":"4","last_reported":1700345160,"current_range_meters":4000,"station_id":"ce4bhu92rcd13ifvqi70","pricing_plan_id":"free"},{"bike_id":"ad9d26be-fd61-4954-b04a-614ee9d33f7d","system_id":"levelo_inurba_marseille","lat":43.231794,"lon":5.400052,"is_reserved":false,"is_disabled":false,"rental_uris":{"android":"levelo://app?vid=ad9d26be-fd61-4954-b04a-614ee9d33f7d","ios":"levelo://app?vid=ad9d26be-fd61-4954-b04a-614ee9d33f7d"},"vehicle_type_id":"4","last_reported":1700345160,"current_range_meters":31600,"station_id":"ce4bhn12rcd13ifvqgqg","pricing_plan_id":"free"},{"bike_id":"fb647ab6-bdfe-4d43-8021-469b840e3f01","system_id":"levelo_inurba_marseille","lat":43.231794,"lon":5.400052,"is_reserved":false,"is_disabled":false,"rental_uris":{"android":"levelo://app?vid=fb647ab6-bdfe-4d43-8021-469b840e3f01","ios":"levelo://app?vid=fb647ab6-bdfe-4d43-8021-469b840e3f01"},"vehicle_type_id":"4","last_reported":1700345160,"current_range_meters":28400,"station_id":"ce4bhn12rcd13ifvqgqg","pricing_plan_id":"free"},{"bike_id":"f4a8cd9e-70db-4af1-b4c0-7aa0a7fac3fa","system_id":"levelo_inurba_marseille","lat":43.23186,"lon":5.399876,"is_reserved":false,"is_disabled":false,"rental_uris":{"android":"levelo://app?vid=f4a8cd9e-70db-4af1-b4c0-7aa0a7fac3fa","ios":"levelo://app?vid=f4a8cd9e-70db-4af1-b4c0-7aa0a7fac3fa"},"vehicle_type_id":"4","last_reported":1700345160,"current_range_meters":30400,"station_id":"ce4bhn12rcd13ifvqgqg","pricing_plan_id":"free"},{"bike_id":"486fecf0-765d-4eee-9a85-898f8aa27175","system_id":"levelo_inurba_marseille","lat":43.231793,"lon":5.400044,"is_reserved":false,"is_disabled":false,"rental_uris":{"android":"levelo://app?vid=486fecf0-765d-4eee-9a85-898f8aa27175","ios":"levelo://app?vid=486fecf0-765d-4eee-9a85-898f8aa27175"},"vehicle_type_id":"4","last_reported":1700345160,"current_range_meters":30400,"station_id":"ce4bhn12rcd13ifvqgqg","pricing_plan_id":"free"},{"bike_id":"efc139d5-8bb1-4a6b-b437-01d31830d455","system_id":"levelo_inurba_marseille","lat":43.231794,"lon":5.400052,"is_reserved":false,"is_disabled":false,"rental_uris":{"android":"levelo://app?vid=efc139d5-8bb1-4a6b-b437-01d31830d455","ios":"levelo://app?vid=efc139d5-8bb1-4a6b-b437-01d31830d455"},"vehicle_type_id":"4","last_reported":1700345160,"current_range_meters":31600,"station_id":"ce4bhn12rcd13ifvqgqg","pricing_plan_id":"free"},{"bike_id":"fa9cc91c-c78c-4cb3-ab2e-3cc3c66a937c","system_id":"levelo_inurba_marseille","lat":43.23184,"lon":5.39989,"is_reserved":false,"is_disabled":false,"rental_uris":{"android":"levelo://app?vid=fa9cc91c-c78c-4cb3-ab2e-3cc3c66a937c","ios":"levelo://app?vid=fa9cc91c-c78c-4cb3-ab2e-3cc3c66a937c"},"vehicle_type_id":"4","last_reported":1700345160,"current_range_meters":20800,"station_id":"ce4bhn12rcd13ifvqgqg","pricing_plan_id":"free"},{"bike_id":"a77536b5-5a4a-4d26-b9d3-350ffe3416bd","system_id":"levelo_inurba_marseille","lat":43.231793,"lon":5.400044,"is_reserved":false,"is_disabled":false,"rental_uris":{"android":"levelo://app?vid=a77536b5-5a4a-4d26-b9d3-350ffe3416bd","ios":"levelo://app?vid=a77536b5-5a4a-4d26-b9d3-350ffe3416bd"},"vehicle_type_id":"4","last_reported":1700345160,"current_range_meters":10400,"station_id":"ce4bhn12rcd13ifvqgqg","pricing_plan_id":"free"},{"bike_id":"7bc95a0e-72f8-4232-b877-46fe8e7f9e0c","system_id":"levelo_inurba_marseille","lat":43.231794,"lon":5.400052,"is_reserved":false,"is_disabled":false,"rental_uris":{"android":"levelo://app?vid=7bc95a0e-72f8-4232-b877-46fe8e7f9e0c","ios":"levelo://app?vid=7bc95a0e-72f8-4232-b877-46fe8e7f9e0c"},"vehicle_type_id":"4","last_reported":1700345160,"current_range_meters":31600,"station_id":"ce4bhn12rcd13ifvqgqg","pricing_plan_id":"free"},{"bike_id":"21e2e00e-8e23-4563-8bed-08400fc48e72","system_id":"levelo_inurba_marseille","lat":43.23184,"lon":5.39997,"is_reserved":false,"is_disabled":false,"rental_uris":{"android":"levelo://app?vid=21e2e00e-8e23-4563-8bed-08400fc48e72","ios":"levelo://app?vid=21e2e00e-8e23-4563-8bed-08400fc48e72"},"vehicle_type_id":"4","last_reported":1700345160,"current_range_meters":26800,"station_id":"ce4bhn12rcd13ifvqgqg","pricing_plan_id":"free"},{"bike_id":"5d8316f4-9b3b-4f22-8b0a-d975b6faa1c0","system_id":"levelo_inurba_marseille","lat":43.231793,"lon":5.400044,"is_reserved":false,"is_disabled":false,"rental_uris":{"android":"levelo://app?vid=5d8316f4-9b3b-4f22-8b0a-d975b6faa1c0","ios":"levelo://app?vid=5d8316f4-9b3b-4f22-8b0a-d975b6faa1c0"},"vehicle_type_id":"4","last_reported":1700345160,"current_range_meters":18000,"station_id":"ce4bhn12rcd13ifvqgqg","pricing_plan_id":"free"},{"bike_id":"adac1971-5e73-41e6-9ade-b5ded0f026e7","system_id":"levelo_inurba_marseille","lat":43.231793,"lon":5.400044,"is_reserved":false,"is_disabled":false,"rental_uris":{"android":"levelo://app?vid=adac1971-5e73-41e6-9ade-b5ded0f026e7","ios":"levelo://app?vid=adac1971-5e73-41e6-9ade-b5ded0f026e7"},"vehicle_type_id":"4","last_reported":1700345160,"current_range_meters":31200,"station_id":"ce4bhn12rcd13ifvqgqg","pricing_plan_id":"free"},{"bike_id":"128266cb-1944-49a0-a301-f621c224a6ef","system_id":"levelo_inurba_marseille","lat":43.23181,"lon":5.39997,"is_reserved":false,"is_disabled":false,"rental_uris":{"android":"levelo://app?vid=128266cb-1944-49a0-a301-f621c224a6ef","ios":"levelo://app?vid=128266cb-1944-49a0-a301-f621c224a6ef"},"vehicle_type_id":"4","last_reported":1700345160,"current_range_meters":0,"station_id":"ce4bhn12rcd13ifvqgqg","pricing_plan_id":"free"},{"bike_id":"adaed5b2-5df4-4ff5-a8ef-af36cdca2a2f","system_id":"levelo_inurba_marseille","lat":43.231777,"lon":5.399927,"is_reserved":false,"is_disabled":false,"rental_uris":{"android":"levelo://app?vid=adaed5b2-5df4-4ff5-a8ef-af36cdca2a2f","ios":"levelo://app?vid=adaed5b2-5df4-4ff5-a8ef-af36cdca2a2f"},"vehicle_type_id":"4","last_reported":1700345160,"current_range_meters":2800,"station_id":"ce4bhn12rcd13ifvqgqg","pricing_plan_id":"free"},{"bike_id":"6cc2b76e-a1a4-4596-98b3-c8b21b159827","system_id":"levelo_inurba_marseille","lat":43.231562,"lon":5.436933,"is_reserved":false,"is_disabled":false,"rental_uris":{"android":"levelo://app?vid=6cc2b76e-a1a4-4596-98b3-c8b21b159827","ios":"levelo://app?vid=6cc2b76e-a1a4-4596-98b3-c8b21b159827"},"vehicle_type_id":"4","last_reported":1700345160,"current_range_meters":7200,"station_id":"ce4bhmp2rcd13ifvqgog","pricing_plan_id":"free"},{"bike_id":"ac753338-7ae7-484b-b345-d535336dbb1b","system_id":"levelo_inurba_marseille","lat":43.231562,"lon":5.436933,"is_reserved":false,"is_disabled":false,"rental_uris":{"android":"levelo://app?vid=ac753338-7ae7-484b-b345-d535336dbb1b","ios":"levelo://app?vid=ac753338-7ae7-484b-b345-d535336dbb1b"},"vehicle_type_id":"4","last_reported":1700345160,"current_range_meters":12000,"station_id":"ce4bhmp2rcd13ifvqgog","pricing_plan_id":"free"},{"bike_id":"96c9b960-69c2-43ef-8595-a0d32e3cd3b8","system_id":"levelo_inurba_marseille","lat":43.231452,"lon":5.43726,"is_reserved":false,"is_disabled":false,"rental_uris":{"android":"levelo://app?vid=96c9b960-69c2-43ef-8595-a0d32e3cd3b8","ios":"levelo://app?vid=96c9b960-69c2-43ef-8595-a0d32e3cd3b8"},"vehicle_type_id":"4","last_reported":1700345160,"current_range_meters":14000,"station_id":"ce4bhmp2rcd13ifvqgog","pricing_plan_id":"free"}]}}