{"last_updated":1743855425,"ttl":60,"version":"2.2","data":{"bikes":[{"bike_id":"0e88f134-2423-4b08-bc3c-5f7a38937552","system_id":"levelo_inurba_marseille","lat":43.23192,"lon":5.3998,"is_reserved":false,"is_disabled":false,"rental_uris":{"android":"levelo://app?vid=0e88f134-2423-4b08-bc3c-5f7a38937552","ios":"levelo://app?vid=0e88f134-2423-4b08-bc3c-5f7a38937552"},"vehicle_type_id":"4","last_reported":1743855425,"current_range_meters":2800,"station_id":"ce4bhn12rcd13ifvqgqg","pricing_plan_id":"cebpf4jnsgd1na2vs0mg"},{"bike_id":"68906e38-0042-40b8-b2ed-ecb169ec5daa","system_id":"levelo_inurba_marseille","lat":43.283302,"lon":5.381168,"is_reserved":false,"is_disabled":false,"rental_uris":{"android":"levelo://app?vid=68906e38-0042-40b8-b2ed-ecb169ec5daa","ios":"levelo://app?vid=68906e38-0042-40b8-b2ed-ecb169ec5daa"},"vehicle_type_id":"4","last_reported":1743855425,"current_range_meters":2800,"station_id":"ce4bhbh2rcd13ifvqeo0","pricing_plan_id":"cebpf4jnsgd1na2vs0mg"},{"bike_id":"b7f7098b-d672-4e1d-9043-751c52dda260","system_id":"levelo_inurba_marseille","lat":43.21762,"lon":5.34609,"is_reserved":false,"is_disabled":false,"rental_uris":{"android":"levelo://app?vid=b7f7098b-d672-4e1d-9043-751c52dda260","ios":"levelo://app?vid=b7f7098b-d672-4e1d-9043-751c52dda260"},"vehicle_type_id":"4","last_reported":1743855425,"current_range_meters":2800,"station_id":"","pricing_plan_id":"cebpf4jnsgd1na2vs0mg"},{"bike_id":"1801e3e2-9df7-4b4b-8025-c44d4919f55c","system_id":"levelo_inurba_marseille","lat":43.23184,"lon":5.39992,"is_reserved":false,"is_disabled":false,"rental_uris":{"android":"levelo://app?vid=1801e3e2-9df7-4b4b-8025-c44d4919f55c","ios":"levelo://app?vid=1801e3e2-9df7-4b4b-8025-c44d4919f55c"},"vehicle_type_id":"4","last_reported":1743855425,"current_range_meters":3200,"station_id":"ce4bhn12rcd13ifvqgqg","pricing_plan_id":"cebpf4jnsgd1na2vs0mg"},{"bike_id":"6e7e8bd0-971a-4bf5-a521-0d1053f36753","system_id":"levelo_inurba_marseille","lat":43.310819,"lon":5.424366,"is_reserved":false,"is_disabled":true,"rental_uris":{"android":"levelo://app?vid=6e7e8bd0-971a-4bf5-a521-0d1053f36753","ios":"levelo://app?vid=6e7e8bd0-971a-4bf5-a521-0d1053f36753"},"vehicle_type_id":"4","last_reported":1743855425,"current_range_meters":3200,"station_id":"ce4bhp92rcd13ifvqhag","pricing_plan_id":"cebpf4jnsgd1na2vs0mg"},{"bike_id":"b599c320-1a9d-4515-af48-e9bdd25f139b","system_id":"levelo_inurba_marseille","lat":43.31496,"lon":5.37312,"is_reserved":false,"is_disabled":false,"rental_uris":{"android":"levelo://app?vid=b599c320-1a9d-4515-af48-e9bdd25f139b","ios":"levelo://app?vid=b599c320-1a9d-4515-af48-e9bdd25f139b"},"vehicle_type_id":"4","last_reported":1743855425,"current_range_meters":3600,"station_id":"ce4bgt12rcd13ifvqcd0","pricing_plan_id":"cebpf4jnsgd1na2vs0mg"},{"bike_id":"cb3f94fb-f633-4190-938c-988765d85ab6","system_id":"levelo_inurba_marseille","lat":43.28423,"lon":5.34993,"is_reserved":false,"is_disabled":false,"rental_uris":{"android":"levelo://app?vid=cb3f94fb-f633-4190-938c-988765d85ab6","ios":"levelo://app?vid=cb3f94fb-f633-4190-938c-988765d85ab6"},"vehicle_type_id":"4","last_reported":1743855425,"current_range_meters":3600,"station_id":"ce4bhbh2rcd13ifvqepg","pricing_plan_id":"cebpf4jnsgd1na2vs0mg"},{"bike_id":"fed25cf4-7be8-408e-848d-a778b08cb7e9","system_id":"levelo_inurba_marseille","lat":43.29892,"lon":5.43673,"is_reserved":false,"is_disabled":false,"rental_uris":{"android":"levelo://app?vid=fed25cf4-7be8-408e-848d-a778b08cb7e9","ios":"levelo://app?vid=fed25cf4-7be8-408e-848d-a778b08cb7e9"},"vehicle_type_id":"4","last_reported":1743855425,"current_range_meters":3600,"station_id":"ce4bhpp2rcd13ifvqhfg","pricing_plan_id":"cebpf4jnsgd1na2vs0mg"},{"bike_id":"67bcdfc1-5e5d-4ce6-b4e0-84e551c3b6ab","system_id":"levelo_inurba_marseille","lat":43.26194,"lon":5.37452,"is_reserved":false,"is_disabled":false,"rental_uris":{"android":"levelo://app?vid=67bcdfc1-5e5d-4ce6-b4e0-84e551c3b6ab","ios":"levelo://app?vid=67bcdfc1-5e5d-4ce6-b4e0-84e551c3b6ab"},"vehicle_type_id":"4","last_reported":1743855425,"current_range_meters":3600,"station_id":"ce4bhgp2rcd13ifvqfc0","pricing_plan_id":"cebpf4jnsgd1na2vs0mg"},{"bike_id":"692e186c-6953-4f5f-a96e-59c38c3e22e9","system_id":"levelo_inurba_marseille","lat":43.26558,"lon":5.37287,"is_reserved":false,"is_disabled":false,"rental_uris":{"android":"levelo://app?vid=692e186c-6953-4f5f-a96e-59c38c3e22e9","ios":"levelo://app?vid=692e186c-6953-4f5f-a96e-59c38c3e22e9"},"vehicle_type_id":"4","last_reported":1743855425,"current_range_meters":4000,"station_id":"ce4bhg12rcd13ifvqf70","pricing_plan_id":"cebpf4jnsgd1na2vs0mg"},{"bike_id":"e7b956ce-2ab2-4301-8fd3-6312d753e8f6","system_id":"levelo_inurba_marseille","lat":43.24669,"lon":5.38166,"is_reserved":false,"is_disabled":true,"rental_uris":{"android":"levelo://app?vid=e7b956ce-2ab2-4301-8fd3-6312d753e8f6","ios":"levelo://app?vid=e7b956ce-2ab2-4301-8fd3-6312d753e8f6"},"vehicle_type_id":"4","last_reported":1743855425,"current_range_meters":4000,"station_id":"ce4bhih2rcd13ifvqfr0","pricing_plan_id":"cebpf4jnsgd1na2vs0mg"},{"bike_id":"41d394d6-20df-4c75-9bab-67c1c6253a8d","system_id":"levelo_inurba_marseille","lat":43.2827,"lon":5.3508,"is_reserved":false,"is_disabled":false,"rental_uris":{"android":"levelo://app?vid=41d394d6-20df-4c75-9bab-67c1c6253a8d","ios":"levelo://app?vid=41d394d6-20df-4c75-9bab-67c1c6253a8d"},"vehicle_type_id":"4","last_reported":1743855425,"current_range_meters":4000,"station_id":"ce4bhbp2rcd13ifvqerg","pricing_plan_id":"cebpf4jnsgd1na2vs0mg"},{"bike_id":"ef2fbdf2-3eeb-49a5-8b1b-f85e0f8ea87f","system_id":"levelo_inurba_marseille","lat":43.2512,"lon":5.40311,"is_reserved":false,"is_disabled":false,"rental_uris":{"android":"levelo://app?vid=ef2fbdf2-3eeb-49a5-8b1b-f85e0f8ea87f","ios":"levelo://app?vid=ef2fbdf2-3eeb-49a5-8b1b-f85e0f8ea87f"},"vehicle_type_id":"4","last_reported":1743855425,"current_range_meters":4000,"station_id":"ce4bhlh2rcd13ifvqgig","pricing_plan_id":"cebpf4jnsgd1na2vs0mg"},{"bike_id":"012431e6-b505-4622-8b67-2b3817bc6939","system_id":"levelo_inurba_marseille","lat":43.23185,"lon":5.43738,"is_reserved":false,"is_disabled":false,"rental_uris":{"android":"levelo://app?vid=012431e6-b505-4622-8b67-2b3817bc6939","ios":"levelo://app?vid=012431e6-b505-4622-8b67-2b3817bc6939"},"vehicle_type_id":"4","last_reported":1743855425,"current_range_meters":4000,"station_id":"ce4bhmp2rcd13ifvqgog","pricing_plan_id":"cebpf4jnsgd1na2vs0mg"},{"bike_id":"041288f2-458b-44d3-8738-08d4e61d1b1e","system_id":"levelo_inurba_marseille","lat":43.23153,"lon":5.43707,"is_reserved":false,"is_disabled":false,"rental_uris":{"android":"levelo://app?vid=041288f2-458b-44d3-8738-08d4e61d1b1e","ios":"levelo://app?vid=041288f2-458b-44d3-8738-08d4e61d1b1e"},"vehicle_type_id":"4","last_reported":1743855425,"current_range_meters":4400,"station_id":"ce4bhmp2rcd13ifvqgog","pricing_plan_id":"cebpf4jnsgd1na2vs0mg"},{"bike_id":"7654dfdb-2d49-4899-b1c4-60867904088e","system_id":"levelo_inurba_marseille","lat":43.24387,"lon":5.37064,"is_reserved":false,"is_disabled":true,"rental_uris":{"android":"levelo://app?vid=7654dfdb-2d49-4899-b1c4-60867904088e","ios":"levelo://app?vid=7654dfdb-2d49-4899-b1c4-60867904088e"},"vehicle_type_id":"4","last_reported":1743855425,"current_range_meters":4400,"station_id":"ce4bhhh2rcd13ifvqfk0","pricing_plan_id":"cebpf4jnsgd1na2vs0mg"},{"bike_id":"5809aa2a-6e8b-4396-909a-e4f6a1a76cf5","system_id":"levelo_inurba_marseille","lat":43.23967,"lon":5.36617,"is_reserved":false,"is_disabled":true,"rental_uris":{"android":"levelo://app?vid=5809aa2a-6e8b-4396-909a-e4f6a1a76cf5","ios":"levelo://app?vid=5809aa2a-6e8b-4396-909a-e4f6a1a76cf5"},"vehicle_type_id":"4","last_reported":1743855425,"current_range_meters":4400,"station_id":"ce4bhi12rcd13ifvqfp0","pricing_plan_id":"cebpf4jnsgd1na2vs0mg"},{"bike_id":"dc63fabf-8ce8-44e4-8a18-22cd8bbb3819","system_id":"levelo_inurba_marseille","lat":43.317218,"lon":5.423982,"is_reserved":false,"is_disabled":false,"rental_uris":{"android":"levelo://app?vid=dc63fabf-8ce8-44e4-8a18-22cd8bbb3819","ios":"levelo://app?vid=dc63fabf-8ce8-44e4-8a18-22cd8bbb3819"},"vehicle_type_id":"4","last_reported":1743855425,"current_range_meters":4400,"station_id":"ce4bhp92rcd13ifvqhbg","pricing_plan_id":"cebpf4jnsgd1na2vs0mg"},{"bike_id":"9e7e25b2-a9b2-469c-a691-1c3deb34a9e9","system_id":"levelo_inurba_marseille","lat":43.21179,"lon":5.35075,"is_reserved":false,"is_disabled":false,"rental_uris":{"android":"levelo://app?vid=9e7e25b2-a9b2-469c-a691-1c3deb34a9e9","ios":"levelo://app?vid=9e7e25b2-a9b2-469c-a691-1c3deb34a9e9"},"vehicle_type_id":"4","last_reported":1743855425,"current_range_meters":4800,"station_id":"st_cvj6sg6p6f1abm77japg","pricing_plan_id":"cebpf4jnsgd1na2vs0mg"},{"bike_id":"672d1812-d793-4d5a-b8a2-a6032bcff278","system_id":"levelo_inurba_marseille","lat":43.282654,"lon":5.350558,"is_reserved":false,"is_disabled":false,"rental_uris":{"android":"levelo://app?vid=672d1812-d793-4d5a-b8a2-a6032bcff278","ios":"levelo://app?vid=672d1812-d793-4d5a-b8a2-a6032bcff278"},"vehicle_type_id":"4","last_reported":1743855425,"current_range_meters":4800,"station_id":"ce4bhbp2rcd13ifvqerg","pricing_plan_id":"cebpf4jnsgd1na2vs0mg"},{"bike_id":"1e5b17ac-10ef-4a11-af9e-b8b48fda30af","system_id":"levelo_inurba_marseille","lat":43.30893,"lon":5.39663,"is_reserved":false,"is_disabled":false,"rental_uris":{"android":"levelo://app?vid=1e5b17ac-10ef-4a11-af9e-b8b48fda30af","ios":"levelo://app?vid=1e5b17ac-10ef-4a11-af9e-b8b48fda30af"},"vehicle_type_id":"4","last_reported":1743855425,"current_range_meters":4400,"station_id":"ce4bh012rcd13ifvqcv0","pricing_plan_id":"cebpf4jnsgd1na2vs0mg"},{"bike_id":"5d2ab57d-6f8e-4878-bbe5-3ba6ce7c591c","system_id":"levelo_inurba_marseille","lat":43.25589,"lon":5.38243,"is_reserved":false,"is_disabled":false,"rental_uris":{"android":"levelo://app?vid=5d2ab57d-6f8e-4878-bbe5-3ba6ce7c591c","ios":"levelo://app?vid=5d2ab57d-6f8e-4878-bbe5-3ba6ce7c591c"},"vehicle_type_id":"4","last_reported":1743855425,"current_range_meters":4800,"station_id":"ce4bhih2rcd13ifvqfs0","pricing_plan_id":"cebpf4jnsgd1na2vs0mg"},{"bike_id":"0d4d6691-b3a3-49d8-8eac-677370bcc341","system_id":"levelo_inurba_marseille","lat":43.28159,"lon":5.42645,"is_reserved":false,"is_disabled":false,"rental_uris":{"android":"levelo://app?vid=0d4d6691-b3a3-49d8-8eac-677370bcc341","ios":"levelo://app?vid=0d4d6691-b3a3-49d8-8eac-677370bcc341"},"vehicle_type_id":"4","last_reported":1743855425,"current_range_meters":4800,"station_id":"ce4bhnh2rcd13ifvqgug","pricing_plan_id":"cebpf4jnsgd1na2vs0mg"},{"bike_id":"3e763991-b1f6-4e21-97c5-2c7a2aefd8f9","system_id":"levelo_inurba_marseille","lat":43.299744,"lon":5.384959,"is_reserved":false,"is_disabled":false,"rental_uris":{"android":"levelo://app?vid=3e763991-b1f6-4e21-97c5-2c7a2aefd8f9","ios":"levelo://app?vid=3e763991-b1f6-4e21-97c5-2c7a2aefd8f9"},"vehicle_type_id":"4","last_reported":1743855425,"current_range_meters":4800,"station_id":"ce4bgj92rcd13ifvqbd0","pricing_plan_id":"cebpf4jnsgd1na2vs0mg"},{"bike_id":"47164e5b-e70d-4765-ba38-0959d8d54ad5","system_id":"levelo_inurba_marseille","lat":43.26033,"lon":5.37562,"is_reserved":false,"is_disabled":false,"rental_uris":{"android":"levelo://app?vid=47164e5b-e70d-4765-ba38-0959d8d54ad5","ios":"levelo://app?vid=47164e5b-e70d-4765-ba38-0959d8d54ad5"},"vehicle_type_id":"4","last_reported":1743855425,"current_range_meters":5600,"station_id":"ce4bhgh2rcd13ifvqfa0","pricing_plan_id":"cebpf4jnsgd1na2vs0mg"},{"bike_id":"634ef7ce-3fff-49c5-aa58-986010868891","system_id":"levelo_inurba_marseille","lat":43.27996,"lon":5.40024,"is_reserved":false,"is_disabled":false,"rental_uris":{"android":"levelo://app?vid=634ef7ce-3fff-49c5-aa58-986010868891","ios":"levelo://app?vid=634ef7ce-3fff-49c5-aa58-986010868891"},"vehicle_type_id":"4","last_reported":1743855425,"current_range_meters":6000,"station_id":"ce4bho92rcd13ifvqh4g","pricing_plan_id":"cebpf4jnsgd1na2vs0mg"},{"bike_id":"218e21d3-def0-44b0-906f-77bfa4e1ce78","system_id":"levelo_inurba_marseille","lat":43.28271,"lon":5.35066,"is_reserved":false,"is_disabled":false,"rental_uris":{"android":"levelo://app?vid=218e21d3-def0-44b0-906f-77bfa4e1ce78","ios":"levelo://app?vid=218e21d3-def0-44b0-906f-77bfa4e1ce78"},"vehicle_type_id":"4","last_reported":1743855425,"current_range_meters":6000,"station_id":"ce4bhbp2rcd13ifvqerg","pricing_plan_id":"cebpf4jnsgd1na2vs0mg"},{"bike_id":"ed034283-1492-4da7-9409-35bdead80f30","system_id":"levelo_inurba_marseille","lat":43.30144,"lon":5.3881,"is_reserved":false,"is_disabled":true,"rental_uris":{"android":"levelo://app?vid=ed034283-1492-4da7-9409-35bdead80f30","ios":"levelo://app?vid=ed034283-1492-4da7-9409-35bdead80f30"},"vehicle_type_id":"4","last_reported":1743855425,"current_range_meters":6000,"station_id":"ce4bghh2rcd13ifvqb60","pricing_plan_id":"cebpf4jnsgd1na2vs0mg"},{"bike_id":"2d66a91a-fd96-444e-8fcc-0be20d6954b4","system_id":"levelo_inurba_marseille","lat":43.28372,"lon":5.38642,"is_reserved":false,"is_disabled":false,"rental_uris":{"android":"levelo://app?vid=2d66a91a-fd96-444e-8fcc-0be20d6954b4","ios":"levelo://app?vid=2d66a91a-fd96-444e-8fcc-0be20d6954b4"},"vehicle_type_id":"4","last_reported":1743855425,"current_range_meters":6000,"station_id":"ce4bh492rcd13ifvqdvg","pricing_plan_id":"cebpf4jnsgd1na2vs0mg"},{"bike_id":"f81cd157-3d14-4bed-baa9-9885f3f9f9b4","system_id":"levelo_inurba_marseille","lat":43.28142,"lon":5.42665,"is_reserved":false,"is_disabled":false,"rental_uris":{"android":"levelo://app?vid=f81cd157-3d14-4bed-baa9-9885f3f9f9b4","ios":"levelo://app?vid=f81cd157-3d14-4bed-baa9-9885f3f9f9b4"},"vehicle_type_id":"4","last_reported":1743855425,"current_range_meters":6000,"station_id":"ce4bhnh2rcd13ifvqgug","pricing_plan_id":"cebpf4jnsgd1na2vs0mg"},{"bike_id":"6eea6163-ea09-4cfb-a831-0c34b97db976","system_id":"levelo_inurba_marseille","lat":43.21751,"lon":5.34608,"is_reserved":false,"is_disabled":false,"rental_uris":{"android":"levelo://app?vid=6eea6163-ea09-4cfb-a831-0c34b97db976","ios":"levelo://app?vid=6eea6163-ea09-4cfb-a831-0c34b97db976"},"vehicle_type_id":"4","last_reported":1743855425,"current_range_meters":6000,"station_id":"st_cvj6r9ubvosntc0bgbag","pricing_plan_id":"cebpf4jnsgd1na2vs0mg"},{"bike_id":"b6e73fff-ccbc-4536-93d2-185678c34449","system_id":"levelo_inurba_marseille","lat":43.21209,"lon":5.35072,"is_reserved":false,"is_disabled":false,"rental_uris":{"android":"levelo://app?vid=b6e73fff-ccbc-4536-93d2-185678c34449","ios":"levelo://app?vid=b6e73fff-ccbc-4536-93d2-185678c34449"},"vehicle_type_id":"4","last_reported":1743855425,"current_range_meters":6400,"station_id":"st_cvj6sg6p6f1abm77japg","pricing_plan_id":"cebpf4jnsgd1na2vs0mg"},{"bike_id":"dc8c844c-4851-4eb4-b600-7f77a3295075","system_id":"levelo_inurba_marseille","lat":43.29977,"lon":5.37179,"is_reserved":false,"is_disabled":false,"rental_uris":{"android":"levelo://app?vid=dc8c844c-4851-4eb4-b600-7f77a3295075","ios":"levelo://app?vid=dc8c844c-4851-4eb4-b600-7f77a3295075"},"vehicle_type_id":"4","last_reported":1743855425,"current_range_meters":6000,"station_id":"ce4bgr92rcd13ifvqc7g","pricing_plan_id":"cebpf4jnsgd1na2vs0mg"},{"bike_id":"2b829cb4-e166-4fe2-b281-85746037f1ad","system_id":"levelo_inurba_marseille","lat":43.30377,"lon":5.42489,"is_reserved":false,"is_disabled":false,"rental_uris":{"android":"levelo://app?vid=2b829cb4-e166-4fe2-b281-85746037f1ad","ios":"levelo://app?vid=2b829cb4-e166-4fe2-b281-85746037f1ad"},"vehicle_type_id":"4","last_reported":1743855425,"current_range_meters":6800,"station_id":"ce4bhoh2rcd13ifvqh6g","pricing_plan_id":"cebpf4jnsgd1na2vs0mg"},{"bike_id":"e1fb3edb-c657-4b9d-a424-90c4d6d7bb6c","system_id":"levelo_inurba_marseille","lat":43.29978,"lon":5.37178,"is_reserved":false,"is_disabled":false,"rental_uris":{"android":"levelo://app?vid=e1fb3edb-c657-4b9d-a424-90c4d6d7bb6c","ios":"levelo://app?vid=e1fb3edb-c657-4b9d-a424-90c4d6d7bb6c"},"vehicle_type_id":"4","last_reported":1743855425,"current_range_meters":6800,"station_id":"ce4bgr92rcd13ifvqc7g","pricing_plan_id":"cebpf4jnsgd1na2vs0mg"},{"bike_id":"85569c5e-792a-4809-8948-6b3410ae7c98","system_id":"levelo_inurba_marseille","lat":43.24689,"lon":5.4119,"is_reserved":false,"is_disabled":false,"rental_uris":{"android":"levelo://app?vid=85569c5e-792a-4809-8948-6b3410ae7c98","ios":"levelo://app?vid=85569c5e-792a-4809-8948-6b3410ae7c98"},"vehicle_type_id":"4","last_reported":1743855425,"current_range_meters":6800,"station_id":"","pricing_plan_id":"cebpf4jnsgd1na2vs0mg"},{"bike_id":"0ac2c4ba-c840-4d70-97c0-cd2bea57af08","system_id":"levelo_inurba_marseille","lat":43.243996,"lon":5.370574,"is_reserved":false,"is_disabled":false,"rental_uris":{"android":"levelo://app?vid=0ac2c4ba-c840-4d70-97c0-cd2bea57af08","ios":"levelo://app?vid=0ac2c4ba-c840-4d70-97c0-cd2bea57af08"},"vehicle_type_id":"4","last_reported":1743855425,"current_range_meters":6800,"station_id":"ce4bhhh2rcd13ifvqfk0","pricing_plan_id":"cebpf4jnsgd1na2vs0mg"},{"bike_id":"50297066-959d-45c5-a71e-b062cc3724ec","system_id":"levelo_inurba_marseille","lat":43.30829,"lon":5.37327,"is_reserved":false,"is_disabled":false,"rental_uris":{"android":"levelo://app?vid=50297066-959d-45c5-a71e-b062cc3724ec","ios":"levelo://app?vid=50297066-959d-45c5-a71e-b062cc3724ec"},"vehicle_type_id":"4","last_reported":1743855425,"current_range_meters":6800,"station_id":"","pricing_plan_id":"cebpf4jnsgd1na2vs0mg"},{"bike_id":"67935b24-4d50-4f3b-a55f-f3217d17a19b","system_id":"levelo_inurba_marseille","lat":43.2657,"lon":5.39012,"is_reserved":false,"is_disabled":false,"rental_uris":{"android":"levelo://app?vid=67935b24-4d50-4f3b-a55f-f3217d17a19b","ios":"levelo://app?vid=67935b24-4d50-4f3b-a55f-f3217d17a19b"},"vehicle_type_id":"4","last_reported":1743855425,"current_range_meters":6800,"station_id":"ce4bhe12rcd13ifvqf30","pricing_plan_id":"cebpf4jnsgd1na2vs0mg"},{"bike_id":"89382623-7b7f-40e8-a15b-8193cd59c918","system_id":"levelo_inurba_marseille","lat":43.23206,"lon":5.3556,"is_reserved":false,"is_disabled":false,"rental_uris":{"android":"levelo://app?vid=89382623-7b7f-40e8-a15b-8193cd59c918","ios":"levelo://app?vid=89382623-7b7f-40e8-a15b-8193cd59c918"},"vehicle_type_id":"4","last_reported":1743855425,"current_range_meters":7200,"station_id":"ce4bhu92rcd13ifvqi70","pricing_plan_id":"cebpf4jnsgd1na2vs0mg"},{"bike_id":"3a673a01-13fc-4ed6-b9b1-08a0faf2fd75","system_id":"levelo_inurba_marseille","lat":43.23211,"lon":5.3997,"is_reserved":false,"is_disabled":false,"rental_uris":{"android":"levelo://app?vid=3a673a01-13fc-4ed6-b9b1-08a0faf2fd75","ios":"levelo://app?vid=3a673a01-13fc-4ed6-b9b1-08a0faf2fd75"},"vehicle_type_id":"4","last_reported":1743855425,"current_range_meters":7200,"station_id":"ce4bhn12rcd13ifvqgqg","pricing_plan_id":"cebpf4jnsgd1na2vs0mg"},{"bike_id":"76a6865d-df28-46e6-aac0-60dd7e34089f","system_id":"levelo_inurba_marseille","lat":43.28268,"lon":5.35073,"is_reserved":false,"is_disabled":false,"rental_uris":{"android":"levelo://app?vid=76a6865d-df28-46e6-aac0-60dd7e34089f","ios":"levelo://app?vid=76a6865d-df28-46e6-aac0-60dd7e34089f"},"vehicle_type_id":"4","last_reported":1743855425,"current_range_meters":8000,"station_id":"ce4bhbp2rcd13ifvqerg","pricing_plan_id":"cebpf4jnsgd1na2vs0mg"},{"bike_id":"660124bc-045b-4581-80f6-72a5f61dfe7e","system_id":"levelo_inurba_marseille","lat":43.25002,"lon":5.38924,"is_reserved":false,"is_disabled":false,"rental_uris":{"android":"levelo://app?vid=660124bc-045b-4581-80f6-72a5f61dfe7e","ios":"levelo://app?vid=660124bc-045b-4581-80f6-72a5f61dfe7e"},"vehicle_type_id":"4","last_reported":1743855425,"current_range_meters":8000,"station_id":"ce4bhgp2rcd13ifvqfd0","pricing_plan_id":"cebpf4jnsgd1na2vs0mg"},{"bike_id":"2300e608-9f49-4219-a239-0a93902d8d11","system_id":"levelo_inurba_marseille","lat":43.30739,"lon":5.42459,"is_reserved":false,"is_disabled":false,"rental_uris":{"android":"levelo://app?vid=2300e608-9f49-4219-a239-0a93902d8d11","ios":"levelo://app?vid=2300e608-9f49-4219-a239-0a93902d8d11"},"vehicle_type_id":"4","last_reported":1743855425,"current_range_meters":8000,"station_id":"st_cvj6ca6bvosntc0bfgr0","pricing_plan_id":"cebpf4jnsgd1na2vs0mg"},{"bike_id":"7262fe25-3de4-4b44-955c-5d2adcc8826c","system_id":"levelo_inurba_marseille","lat":43.21198,"lon":5.35072,"is_reserved":false,"is_disabled":false,"rental_uris":{"android":"levelo://app?vid=7262fe25-3de4-4b44-955c-5d2adcc8826c","ios":"levelo://app?vid=7262fe25-3de4-4b44-955c-5d2adcc8826c"},"vehicle_type_id":"4","last_reported":1743855425,"current_range_meters":8400,"station_id":"st_cvj6sg6p6f1abm77japg","pricing_plan_id":"cebpf4jnsgd1na2vs0mg"},{"bike_id":"ed562682-b9c4-45a5-a5d9-628992c2c17c","system_id":"levelo_inurba_marseille","lat":43.33026,"lon":5.39041,"is_reserved":false,"is_disabled":false,"rental_uris":{"android":"levelo://app?vid=ed562682-b9c4-45a5-a5d9-628992c2c17c","ios":"levelo://app?vid=ed562682-b9c4-45a5-a5d9-628992c2c17c"},"vehicle_type_id":"4","last_reported":1743855425,"current_range_meters":8400,"station_id":"ce4bhr92rcd13ifvqhrg","pricing_plan_id":"cebpf4jnsgd1na2vs0mg"},{"bike_id":"783ef245-163c-4c81-b038-df23059b7c57","system_id":"levelo_inurba_marseille","lat":43.310755,"lon":5.383546,"is_reserved":false,"is_disabled":false,"rental_uris":{"android":"levelo://app?vid=783ef245-163c-4c81-b038-df23059b7c57","ios":"levelo://app?vid=783ef245-163c-4c81-b038-df23059b7c57"},"vehicle_type_id":"4","last_reported":1743855425,"current_range_meters":8400,"station_id":"","pricing_plan_id":"cebpf4jnsgd1na2vs0mg"},{"bike_id":"0300ed36-144c-47d9-a922-f93668338414","system_id":"levelo_inurba_marseille","lat":43.239682,"lon":5.366278,"is_reserved":false,"is_disabled":false,"rental_uris":{"android":"levelo://app?vid=0300ed36-144c-47d9-a922-f93668338414","ios":"levelo://app?vid=0300ed36-144c-47d9-a922-f93668338414"},"vehicle_type_id":"4","last_reported":1743855425,"current_range_meters":8400,"station_id":"ce4bhi12rcd13ifvqfp0","pricing_plan_id":"cebpf4jnsgd1na2vs0mg"},{"bike_id":"908c0033-ebf3-400a-acb3-0a621b83539f","system_id":"levelo_inurba_marseille","lat":43.2319,"lon":5.39981,"is_reserved":false,"is_disabled":false,"rental_uris":{"android":"levelo://app?vid=908c0033-ebf3-400a-acb3-0a621b83539f","ios":"levelo://app?vid=908c0033-ebf3-400a-acb3-0a621b83539f"},"vehicle_type_id":"4","last_reported":1743855425,"current_range_meters":8400,"station_id":"ce4bhn12rcd13ifvqgqg","pricing_plan_id":"cebpf4jnsgd1na2vs0mg"},{"bike_id":"038652eb-e5db-4c74-8e58-0cdc07171bac","system_id":"levelo_inurba_marseille","lat":43.23158,"lon":5.43712,"is_reserved":false,"is_disabled":false,"rental_uris":{"android":"levelo://app?vid=038652eb-e5db-4c74-8e58-0cdc07171bac","ios":"levelo://app?vid=038652eb-e5db-4c74-8e58-0cdc07171bac"},"vehicle_type_id":"4","last_reported":1743855425,"current_range_meters":8000,"station_id":"ce4bhmp2rcd13ifvqgog","pricing_plan_id":"cebpf4jnsgd1na2vs0mg"},{"bike_id":"ae85a7a4-7c38-4e25-9e50-a9a925b58789","system_id":"levelo_inurba_marseille","lat":43.31083,"lon":5.42442,"is_reserved":false,"is_disabled":false,"rental_uris":{"android":"levelo://app?vid=ae85a7a4-7c38-4e25-9e50-a9a925b58789","ios":"levelo://app?vid=ae85a7a4-7c38-4e25-9e50-a9a925b58789"},"vehicle_type_id":"4","last_reported":1743855425,"current_range_meters":8400,"station_id":"ce4bhp92rcd13ifvqhag","pricing_plan_id":"cebpf4jnsgd1na2vs0mg"},{"bike_id":"5e775c96-3d62-4360-9d2e-43c148b9f271","system_id":"levelo_inurba_marseille","lat":43.29231,"lon":5.36074,"is_reserved":false,"is_disabled":false,"rental_uris":{"android":"levelo://app?vid=5e775c96-3d62-4360-9d2e-43c148b9f271","ios":"levelo://app?vid=5e775c96-3d62-4360-9d2e-43c148b9f271"},"vehicle_type_id":"4","last_reported":1743855425,"current_range_meters":8400,"station_id":"ce4bhbh2rcd13ifvqeqg","pricing_plan_id":"cebpf4jnsgd1na2vs0mg"},{"bike_id":"9f090fa8-09c0-4f7b-a969-7d8c0f2cc195","system_id":"levelo_inurba_marseille","lat":43.29577,"lon":5.39998,"is_reserved":false,"is_disabled":false,"rental_uris":{"android":"levelo://app?vid=9f090fa8-09c0-4f7b-a969-7d8c0f2cc195","ios":"levelo://app?vid=9f090fa8-09c0-4f7b-a969-7d8c0f2cc195"},"vehicle_type_id":"4","last_reported":1743855425,"current_range_meters":8000,"station_id":"ce4bh312rcd13ifvqdj0","pricing_plan_id":"cebpf4jnsgd1na2vs0mg"},{"bike_id":"89739bc3-b383-4edd-8dbe-08157a76aa7a","system_id":"levelo_inurba_marseille","lat":43.27374,"lon":5.36253,"is_reserved":false,"is_disabled":false,"rental_uris":{"android":"levelo://app?vid=89739bc3-b383-4edd-8dbe-08157a76aa7a","ios":"levelo://app?vid=89739bc3-b383-4edd-8dbe-08157a76aa7a"},"vehicle_type_id":"4","last_reported":1743855425,"current_range_meters":8400,"station_id":"ce4bhbh2rcd13ifvqeo0","pricing_plan_id":"cebpf4jnsgd1na2vs0mg"},{"bike_id":"8f0bc7cb-3da5-4c2a-a46b-2c068d4f0b41","system_id":"levelo_inurba_marseille","lat":43.25494,"lon":5.3765,"is_reserved":false,"is_disabled":false,"rental_uris":{"android":"levelo://app?vid=8f0bc7cb-3da5-4c2a-a46b-2c068d4f0b41","ios":"levelo://app?vid=8f0bc7cb-3da5-4c2a-a46b-2c068d4f0b41"},"vehicle_type_id":"4","last_reported":1743855425,"current_range_meters":8800,"station_id":"ce4bhh12rcd13ifvqff0","pricing_plan_id":"cebpf4jnsgd1na2vs0mg"},{"bike_id":"f83c8f6a-a22a-4259-b00a-c667984f16e1","system_id":"levelo_inurba_marseille","lat":43.24073,"lon":5.37771,"is_reserved":false,"is_disabled":false,"rental_uris":{"android":"levelo://app?vid=f83c8f6a-a22a-4259-b00a-c667984f16e1","ios":"levelo://app?vid=f83c8f6a-a22a-4259-b00a-c667984f16e1"},"vehicle_type_id":"4","last_reported":1743855425,"current_range_meters":8800,"station_id":"ce4bhnp2rcd13ifvqgvg","pricing_plan_id":"cebpf4jnsgd1na2vs0mg"},{"bike_id":"e0fc34f6-0214-440a-9ed4-af39ae5d38dd","system_id":"levelo_inurba_marseille","lat":43.22502,"lon":5.34785,"is_reserved":false,"is_disabled":false,"rental_uris":{"android":"levelo://app?vid=e0fc34f6-0214-440a-9ed4-af39ae5d38dd","ios":"levelo://app?vid=e0fc34f6-0214-440a-9ed4-af39ae5d38dd"},"vehicle_type_id":"4","last_reported":1743855425,"current_range_meters":9200,"station_id":"","pricing_plan_id":"cebpf4jnsgd1na2vs0mg"},{"bike_id":"de694864-cf56-4421-a97b-016cf8b1379f","system_id":"levelo_inurba_marseille","lat":43.2175,"lon":5.34606,"is_reserved":false,"is_disabled":false,"rental_uris":{"android":"levelo://app?vid=de694864-cf56-4421-a97b-016cf8b1379f","ios":"levelo://app?vid=de694864-cf56-4421-a97b-016cf8b1379f"},"vehicle_type_id":"4","last_reported":1743855425,"current_range_meters":8800,"station_id":"st_cvj6r9ubvosntc0bgbag","pricing_plan_id":"cebpf4jnsgd1na2vs0mg"},{"bike_id":"32b35258-d759-4548-af10-fc0ce8dffa66","system_id":"levelo_inurba_marseille","lat":43.24176,"lon":5.36396,"is_reserved":false,"is_disabled":false,"rental_uris":{"android":"levelo://app?vid=32b35258-d759-4548-af10-fc0ce8dffa66","ios":"levelo://app?vid=32b35258-d759-4548-af10-fc0ce8dffa66"},"vehicle_type_id":"4","last_reported":1743855425,"current_range_meters":8800,"station_id":"cpo36qri1sfpv3e86is0","pricing_plan_id":"cebpf4jnsgd1na2vs0mg"},{"bike_id":"a1cc8429-7f5d-4c98-838c-0dbc6d7c247e","system_id":"levelo_inurba_marseille","lat":43.281504,"lon":5.426452,"is_reserved":false,"is_disabled":false,"rental_uris":{"android":"levelo://app?vid=a1cc8429-7f5d-4c98-838c-0dbc6d7c247e","ios":"levelo://app?vid=a1cc8429-7f5d-4c98-838c-0dbc6d7c247e"},"vehicle_type_id":"4","last_reported":1743855425,"current_range_meters":8800,"station_id":"ce4bhnh2rcd13ifvqgug","pricing_plan_id":"cebpf4jnsgd1na2vs0mg"},{"bike_id":"7820ea68-a2dd-471c-acc0-85ef2733cd39","system_id":"levelo_inurba_marseille","lat":43.29057,"lon":5.35923,"is_reserved":false,"is_disabled":false,"rental_uris":{"android":"levelo://app?vid=7820ea68-a2dd-471c-acc0-85ef2733cd39","ios":"levelo://app?vid=7820ea68-a2dd-471c-acc0-85ef2733cd39"},"vehicle_type_id":"4","last_reported":1743855425,"current_range_meters":8400,"station_id":"ce4bha92rcd13ifvqeg0","pricing_plan_id":"cebpf4jnsgd1na2vs0mg"},{"bike_id":"fec83f7a-21eb-49d1-99ab-40c3d11c9183","system_id":"levelo_inurba_marseille","lat":43.31383,"lon":5.38524,"is_reserved":false,"is_disabled":false,"rental_uris":{"android":"levelo://app?vid=fec83f7a-21eb-49d1-99ab-40c3d11c9183","ios":"levelo://app?vid=fec83f7a-21eb-49d1-99ab-40c3d11c9183"},"vehicle_type_id":"4","last_reported":1743855425,"current_range_meters":8800,"station_id":"ce4bgt92rcd13ifvqcf0","pricing_plan_id":"cebpf4jnsgd1na2vs0mg"},{"bike_id":"8980209c-4b8c-4f30-a818-89a0aaa71deb","system_id":"levelo_inurba_marseille","lat":43.24391,"lon":5.37055,"is_reserved":false,"is_disabled":false,"rental_uris":{"android":"levelo://app?vid=8980209c-4b8c-4f30-a818-89a0aaa71deb","ios":"levelo://app?vid=8980209c-4b8c-4f30-a818-89a0aaa71deb"},"vehicle_type_id":"4","last_reported":1743855425,"current_range_meters":9200,"station_id":"ce4bhhh2rcd13ifvqfk0","pricing_plan_id":"cebpf4jnsgd1na2vs0mg"},{"bike_id":"3b4ad8c6-6244-4378-90d7-dac703d1508d","system_id":"levelo_inurba_marseille","lat":43.23205,"lon":5.35538,"is_reserved":false,"is_disabled":false,"rental_uris":{"android":"levelo://app?vid=3b4ad8c6-6244-4378-90d7-dac703d1508d","ios":"levelo://app?vid=3b4ad8c6-6244-4378-90d7-dac703d1508d"},"vehicle_type_id":"4","last_reported":1743855425,"current_range_meters":9200,"station_id":"ce4bhu92rcd13ifvqi70","pricing_plan_id":"cebpf4jnsgd1na2vs0mg"},{"bike_id":"9883ee7a-050d-4daa-b4d8-32745b994838","system_id":"levelo_inurba_marseille","lat":43.23185,"lon":5.39993,"is_reserved":false,"is_disabled":false,"rental_uris":{"android":"levelo://app?vid=9883ee7a-050d-4daa-b4d8-32745b994838","ios":"levelo://app?vid=9883ee7a-050d-4daa-b4d8-32745b994838"},"vehicle_type_id":"4","last_reported":1743855425,"current_range_meters":9200,"station_id":"ce4bhn12rcd13ifvqgqg","pricing_plan_id":"cebpf4jnsgd1na2vs0mg"},{"bike_id":"203176fb-52f7-45ec-88b4-caa4115f7b7b","system_id":"levelo_inurba_marseille","lat":43.29633,"lon":5.39909,"is_reserved":false,"is_disabled":false,"rental_uris":{"android":"levelo://app?vid=203176fb-52f7-45ec-88b4-caa4115f7b7b","ios":"levelo://app?vid=203176fb-52f7-45ec-88b4-caa4115f7b7b"},"vehicle_type_id":"4","last_reported":1743855425,"current_range_meters":9200,"station_id":"","pricing_plan_id":"cebpf4jnsgd1na2vs0mg"},{"bike_id":"6b8df6c6-e69f-416d-869f-6c58b572d426","system_id":"levelo_inurba_marseille","lat":43.23194,"lon":5.39974,"is_reserved":false,"is_disabled":false,"rental_uris":{"android":"levelo://app?vid=6b8df6c6-e69f-416d-869f-6c58b572d426","ios":"levelo://app?vid=6b8df6c6-e69f-416d-869f-6c58b572d426"},"vehicle_type_id":"4","last_reported":1743855425,"current_range_meters":9200,"station_id":"ce4bhn12rcd13ifvqgqg","pricing_plan_id":"cebpf4jnsgd1na2vs0mg"},{"bike_id":"9a055327-5ba2-482f-b223-d78608155b28","system_id":"levelo_inurba_marseille","lat":43.28423,"lon":5.34998,"is_reserved":false,"is_disabled":false,"rental_uris":{"android":"levelo://app?vid=9a055327-5ba2-482f-b223-d78608155b28","ios":"levelo://app?vid=9a055327-5ba2-482f-b223-d78608155b28"},"vehicle_type_id":"4","last_reported":1743855425,"current_range_meters":9200,"station_id":"ce4bhbh2rcd13ifvqepg","pricing_plan_id":"cebpf4jnsgd1na2vs0mg"},{"bike_id":"fb0d4993-67fa-4314-9525-ef2ba9197c72","system_id":"levelo_inurba_marseille","lat":43.30321,"lon":5.4059,"is_reserved":false,"is_disabled":false,"rental_uris":{"android":"levelo://app?vid=fb0d4993-67fa-4314-9525-ef2ba9197c72","ios":"levelo://app?vid=fb0d4993-67fa-4314-9525-ef2ba9197c72"},"vehicle_type_id":"4","last_reported":1743855425,"current_range_meters":9200,"station_id":"","pricing_plan_id":"cebpf4jnsgd1na2vs0mg"},{"bike_id":"79c08edf-d070-4a97-ab3c-8a6b4520144c","system_id":"levelo_inurba_marseille","lat":43.31138,"lon":5.37751,"is_reserved":false,"is_disabled":false,"rental_uris":{"android":"levelo://app?vid=79c08edf-d070-4a97-ab3c-8a6b4520144c","ios":"levelo://app?vid=79c08edf-d070-4a97-ab3c-8a6b4520144c"},"vehicle_type_id":"4","last_reported":1743855425,"current_range_meters":9200,"station_id":"ce4bgt92rcd13ifvqcg0","pricing_plan_id":"cebpf4jnsgd1na2vs0mg"},{"bike_id":"f2fcd142-dde4-4f14-95ea-309420061285","system_id":"levelo_inurba_marseille","lat":43.31093,"lon":5.42439,"is_reserved":false,"is_disabled":false,"rental_uris":{"android":"levelo://app?vid=f2fcd142-dde4-4f14-95ea-309420061285","ios":"levelo://app?vid=f2fcd142-dde4-4f14-95ea-309420061285"},"vehicle_type_id":"4","last_reported":1743855425,"current_range_meters":9200,"station_id":"ce4bhp92rcd13ifvqhag","pricing_plan_id":"cebpf4jnsgd1na2vs0mg"},{"bike_id":"d68bb49e-ae67-46b9-9113-2f1b9eefff70","system_id":"levelo_inurba_marseille","lat":43.31969,"lon":5.3812,"is_reserved":false,"is_disabled":false,"rental_uris":{"android":"levelo://app?vid=d68bb49e-ae67-46b9-9113-2f1b9eefff70","ios":"levelo://app?vid=d68bb49e-ae67-46b9-9113-2f1b9eefff70"},"vehicle_type_id":"4","last_reported":1743855425,"current_range_meters":9200,"station_id":"ce4bhr12rcd13ifvqhpg","pricing_plan_id":"cebpf4jnsgd1na2vs0mg"},{"bike_id":"529ec91a-0576-485c-8356-b05ce665be9a","system_id":"levelo_inurba_marseille","lat":43.25498,"lon":5.3766,"is_reserved":false,"is_disabled":false,"rental_uris":{"android":"levelo://app?vid=529ec91a-0576-485c-8356-b05ce665be9a","ios":"levelo://app?vid=529ec91a-0576-485c-8356-b05ce665be9a"},"vehicle_type_id":"4","last_reported":1743855425,"current_range_meters":9200,"station_id":"ce4bhh12rcd13ifvqff0","pricing_plan_id":"cebpf4jnsgd1na2vs0mg"},{"bike_id":"eb79d1f9-7c91-4ea2-b5f8-796189743e1a","system_id":"levelo_inurba_marseille","lat":43.337254,"lon":5.391884,"is_reserved":false,"is_disabled":false,"rental_uris":{"android":"levelo://app?vid=eb79d1f9-7c91-4ea2-b5f8-796189743e1a","ios":"levelo://app?vid=eb79d1f9-7c91-4ea2-b5f8-796189743e1a"},"vehicle_type_id":"4","last_reported":1743855425,"current_range_meters":9600,"station_id":"ce4bhr92rcd13ifvqhsg","pricing_plan_id":"cebpf4jnsgd1na2vs0mg"},{"bike_id":"561f7321-889f-45bf-a220-6e9864823b09","system_id":"levelo_inurba_marseille","lat":43.26228,"lon":5.37451,"is_reserved":false,"is_disabled":false,"rental_uris":{"android":"levelo://app?vid=561f7321-889f-45bf-a220-6e9864823b09","ios":"levelo://app?vid=561f7321-889f-45bf-a220-6e9864823b09"},"vehicle_type_id":"4","last_reported":1743855425,"current_range_meters":9600,"station_id":"ce4bhgp2rcd13ifvqfc0","pricing_plan_id":"cebpf4jnsgd1na2vs0mg"},{"bike_id":"4f87fde7-c456-4c01-b0cb-cde455827412","system_id":"levelo_inurba_marseille","lat":43.24171,"lon":5.36408,"is_reserved":false,"is_disabled":false,"rental_uris":{"android":"levelo://app?vid=4f87fde7-c456-4c01-b0cb-cde455827412","ios":"levelo://app?vid=4f87fde7-c456-4c01-b0cb-cde455827412"},"vehicle_type_id":"4","last_reported":1743855425,"current_range_meters":9600,"station_id":"cpo36qri1sfpv3e86is0","pricing_plan_id":"cebpf4jnsgd1na2vs0mg"},{"bike_id":"618975ff-3264-43b1-b3b5-d7a5e056f65f","system_id":"levelo_inurba_marseille","lat":43.29791,"lon":5.39346,"is_reserved":false,"is_disabled":false,"rental_uris":{"android":"levelo://app?vid=618975ff-3264-43b1-b3b5-d7a5e056f65f","ios":"levelo://app?vid=618975ff-3264-43b1-b3b5-d7a5e056f65f"},"vehicle_type_id":"4","last_reported":1743855425,"current_range_meters":9600,"station_id":"chh1huq6cuj3fo74tm60","pricing_plan_id":"cebpf4jnsgd1na2vs0mg"},{"bike_id":"ac7a85da-6a1d-42f4-b3e0-decaec458451","system_id":"levelo_inurba_marseille","lat":43.22936,"lon":5.35374,"is_reserved":false,"is_disabled":true,"rental_uris":{"android":"levelo://app?vid=ac7a85da-6a1d-42f4-b3e0-decaec458451","ios":"levelo://app?vid=ac7a85da-6a1d-42f4-b3e0-decaec458451"},"vehicle_type_id":"4","last_reported":1743855425,"current_range_meters":9600,"station_id":"cpo3532slgdg3j2ikp40","pricing_plan_id":"cebpf4jnsgd1na2vs0mg"},{"bike_id":"9444e92d-22b8-4140-882d-645730b9468f","system_id":"levelo_inurba_marseille","lat":43.23192,"lon":5.35553,"is_reserved":false,"is_disabled":false,"rental_uris":{"android":"levelo://app?vid=9444e92d-22b8-4140-882d-645730b9468f","ios":"levelo://app?vid=9444e92d-22b8-4140-882d-645730b9468f"},"vehicle_type_id":"4","last_reported":1743855425,"current_range_meters":9600,"station_id":"ce4bhu92rcd13ifvqi70","pricing_plan_id":"cebpf4jnsgd1na2vs0mg"},{"bike_id":"21e423f0-e1cd-4e57-b578-975559cebe14","system_id":"levelo_inurba_marseille","lat":43.29649,"lon":5.36203,"is_reserved":false,"is_disabled":false,"rental_uris":{"android":"levelo://app?vid=21e423f0-e1cd-4e57-b578-975559cebe14","ios":"levelo://app?vid=21e423f0-e1cd-4e57-b578-975559cebe14"},"vehicle_type_id":"4","last_reported":1743855425,"current_range_meters":9600,"station_id":"","pricing_plan_id":"cebpf4jnsgd1na2vs0mg"},{"bike_id":"d89bb348-a2b2-475f-b66f-22fe74c882fd","system_id":"levelo_inurba_marseille","lat":43.23203,"lon":5.40004,"is_reserved":false,"is_disabled":false,"rental_uris":{"android":"levelo://app?vid=d89bb348-a2b2-475f-b66f-22fe74c882fd","ios":"levelo://app?vid=d89bb348-a2b2-475f-b66f-22fe74c882fd"},"vehicle_type_id":"4","last_reported":1743855425,"current_range_meters":10000,"station_id":"ce4bhn12rcd13ifvqgqg","pricing_plan_id":"cebpf4jnsgd1na2vs0mg"},{"bike_id":"1a903f1a-fcf1-4dc3-aa7b-777417dd0fe2","system_id":"levelo_inurba_marseille","lat":43.23185,"lon":5.39998,"is_reserved":false,"is_disabled":false,"rental_uris":{"android":"levelo://app?vid=1a903f1a-fcf1-4dc3-aa7b-777417dd0fe2","ios":"levelo://app?vid=1a903f1a-fcf1-4dc3-aa7b-777417dd0fe2"},"vehicle_type_id":"4","last_reported":1743855425,"current_range_meters":10000,"station_id":"ce4bhn12rcd13ifvqgqg","pricing_plan_id":"cebpf4jnsgd1na2vs0mg"},{"bike_id":"fdad6e5e-1467-4616-9d72-68b29d343e00","system_id":"levelo_inurba_marseille","lat":43.323,"lon":5.38273,"is_reserved":false,"is_disabled":false,"rental_uris":{"android":"levelo://app?vid=fdad6e5e-1467-4616-9d72-68b29d343e00","ios":"levelo://app?vid=fdad6e5e-1467-4616-9d72-68b29d343e00"},"vehicle_type_id":"4","last_reported":1743855425,"current_range_meters":10000,"station_id":"ce4bhr12rcd13ifvqhqg","pricing_plan_id":"cebpf4jnsgd1na2vs0mg"},{"bike_id":"be7560ab-9ae2-41b2-bd03-13666b09f5ab","system_id":"levelo_inurba_marseille","lat":43.23968,"lon":5.36635,"is_reserved":false,"is_disabled":false,"rental_uris":{"android":"levelo://app?vid=be7560ab-9ae2-41b2-bd03-13666b09f5ab","ios":"levelo://app?vid=be7560ab-9ae2-41b2-bd03-13666b09f5ab"},"vehicle_type_id":"4","last_reported":1743855425,"current_range_meters":9600,"station_id":"ce4bhi12rcd13ifvqfp0","pricing_plan_id":"cebpf4jnsgd1na2vs0mg"},{"bike_id":"380de7d2-07ee-41a8-bbc6-48d87c059bdb","system_id":"levelo_inurba_marseille","lat":43.28423,"lon":5.34979,"is_reserved":false,"is_disabled":false,"rental_uris":{"android":"levelo://app?vid=380de7d2-07ee-41a8-bbc6-48d87c059bdb","ios":"levelo://app?vid=380de7d2-07ee-41a8-bbc6-48d87c059bdb"},"vehicle_type_id":"4","last_reported":1743855425,"current_range_meters":10000,"station_id":"ce4bhbh2rcd13ifvqepg","pricing_plan_id":"cebpf4jnsgd1na2vs0mg"},{"bike_id":"f73054cd-f0c6-4c01-b971-9bdacca3978d","system_id":"levelo_inurba_marseille","lat":43.29633,"lon":5.40621,"is_reserved":false,"is_disabled":false,"rental_uris":{"android":"levelo://app?vid=f73054cd-f0c6-4c01-b971-9bdacca3978d","ios":"levelo://app?vid=f73054cd-f0c6-4c01-b971-9bdacca3978d"},"vehicle_type_id":"4","last_reported":1743855425,"current_range_meters":10000,"station_id":"ce4bh0h2rcd13ifvqd60","pricing_plan_id":"cebpf4jnsgd1na2vs0mg"},{"bike_id":"80f08235-b306-4bd0-916b-91213dcec3f4","system_id":"levelo_inurba_marseille","lat":43.24167,"lon":5.36394,"is_reserved":false,"is_disabled":false,"rental_uris":{"android":"levelo://app?vid=80f08235-b306-4bd0-916b-91213dcec3f4","ios":"levelo://app?vid=80f08235-b306-4bd0-916b-91213dcec3f4"},"vehicle_type_id":"4","last_reported":1743855425,"current_range_meters":10000,"station_id":"cpo36qri1sfpv3e86is0","pricing_plan_id":"cebpf4jnsgd1na2vs0mg"},{"bike_id":"2e32fc77-322b-408f-b1d8-f0983dbdb9f8","system_id":"levelo_inurba_marseille","lat":43.27375,"lon":5.36261,"is_reserved":false,"is_disabled":false,"rental_uris":{"android":"levelo://app?vid=2e32fc77-322b-408f-b1d8-f0983dbdb9f8","ios":"levelo://app?vid=2e32fc77-322b-408f-b1d8-f0983dbdb9f8"},"vehicle_type_id":"4","last_reported":1743855425,"current_range_meters":10000,"station_id":"ce4bhbh2rcd13ifvqeo0","pricing_plan_id":"cebpf4jnsgd1na2vs0mg"},{"bike_id":"7c64c020-dd35-40fb-96f1-2eb71511fb8d","system_id":"levelo_inurba_marseille","lat":43.23142,"lon":5.437,"is_reserved":false,"is_disabled":false,"rental_uris":{"android":"levelo://app?vid=7c64c020-dd35-40fb-96f1-2eb71511fb8d","ios":"levelo://app?vid=7c64c020-dd35-40fb-96f1-2eb71511fb8d"},"vehicle_type_id":"4","last_reported":1743855425,"current_range_meters":9600,"station_id":"ce4bhmp2rcd13ifvqgog","pricing_plan_id":"cebpf4jnsgd1na2vs0mg"},{"bike_id":"ae27124b-5da9-40d2-ab5f-57104b513a78","system_id":"levelo_inurba_marseille","lat":43.289498,"lon":5.355113,"is_reserved":false,"is_disabled":false,"rental_uris":{"android":"levelo://app?vid=ae27124b-5da9-40d2-ab5f-57104b513a78","ios":"levelo://app?vid=ae27124b-5da9-40d2-ab5f-57104b513a78"},"vehicle_type_id":"4","last_reported":1743855425,"current_range_meters":10800,"station_id":"ce4bhbp2rcd13ifvqerg","pricing_plan_id":"cebpf4jnsgd1na2vs0mg"},{"bike_id":"17cb4c94-d00c-4a8d-8660-ec832ad3c074","system_id":"levelo_inurba_marseille","lat":43.232,"lon":5.35548,"is_reserved":false,"is_disabled":false,"rental_uris":{"android":"levelo://app?vid=17cb4c94-d00c-4a8d-8660-ec832ad3c074","ios":"levelo://app?vid=17cb4c94-d00c-4a8d-8660-ec832ad3c074"},"vehicle_type_id":"4","last_reported":1743855425,"current_range_meters":10800,"station_id":"ce4bhu92rcd13ifvqi70","pricing_plan_id":"cebpf4jnsgd1na2vs0mg"},{"bike_id":"23c1e13d-81e1-48cc-b3d5-f2c9645b8267","system_id":"levelo_inurba_marseille","lat":43.29421,"lon":5.38622,"is_reserved":false,"is_disabled":false,"rental_uris":{"android":"levelo://app?vid=23c1e13d-81e1-48cc-b3d5-f2c9645b8267","ios":"levelo://app?vid=23c1e13d-81e1-48cc-b3d5-f2c9645b8267"},"vehicle_type_id":"4","last_reported":1743855425,"current_range_meters":10800,"station_id":"ce4bh2h2rcd13ifvqdh0","pricing_plan_id":"cebpf4jnsgd1na2vs0mg"},{"bike_id":"c978b331-dbe9-4b57-a266-52675c83e8bd","system_id":"levelo_inurba_marseille","lat":43.2738,"lon":5.36255,"is_reserved":false,"is_disabled":false,"rental_uris":{"android":"levelo://app?vid=c978b331-dbe9-4b57-a266-52675c83e8bd","ios":"levelo://app?vid=c978b331-dbe9-4b57-a266-52675c83e8bd"},"vehicle_type_id":"4","last_reported":1743855425,"current_range_meters":10800,"station_id":"ce4bhbh2rcd13ifvqeo0","pricing_plan_id":"cebpf4jnsgd1na2vs0mg"},{"bike_id":"aecd6db3-bfd0-4f56-bdfc-31c4a713e16f","system_id":"levelo_inurba_marseille","lat":43.28283,"lon":5.35061,"is_reserved":false,"is_disabled":false,"rental_uris":{"android":"levelo://app?vid=aecd6db3-bfd0-4f56-bdfc-31c4a713e16f","ios":"levelo://app?vid=aecd6db3-bfd0-4f56-bdfc-31c4a713e16f"},"vehicle_type_id":"4","last_reported":1743855425,"current_range_meters":10800,"station_id":"ce4bhbp2rcd13ifvqerg","pricing_plan_id":"cebpf4jnsgd1na2vs0mg"},{"bike_id":"e0025ce5-fe29-4293-8000-c88ee2bac657","system_id":"levelo_inurba_marseille","lat":43.31461,"lon":5.39212,"is_reserved":false,"is_disabled":false,"rental_uris":{"android":"levelo://app?vid=e0025ce5-fe29-4293-8000-c88ee2bac657","ios":"levelo://app?vid=e0025ce5-fe29-4293-8000-c88ee2bac657"},"vehicle_type_id":"4","last_reported":1743855425,"current_range_meters":10800,"station_id":"","pricing_plan_id":"cebpf4jnsgd1na2vs0mg"},{"bike_id":"e0f32add-8763-4dca-9317-dffe2b61b1b8","system_id":"levelo_inurba_marseille","lat":43.24168,"lon":5.364,"is_reserved":false,"is_disabled":false,"rental_uris":{"android":"levelo://app?vid=e0f32add-8763-4dca-9317-dffe2b61b1b8","ios":"levelo://app?vid=e0f32add-8763-4dca-9317-dffe2b61b1b8"},"vehicle_type_id":"4","last_reported":1743855425,"current_range_meters":10800,"station_id":"cpo36qri1sfpv3e86is0","pricing_plan_id":"cebpf4jnsgd1na2vs0mg"},{"bike_id":"e405ba7d-3b90-4bbf-8c49-6e3cfb80c43c","system_id":"levelo_inurba_marseille","lat":43.27375,"lon":5.36245,"is_reserved":false,"is_disabled":false,"rental_uris":{"android":"levelo://app?vid=e405ba7d-3b90-4bbf-8c49-6e3cfb80c43c","ios":"levelo://app?vid=e405ba7d-3b90-4bbf-8c49-6e3cfb80c43c"},"vehicle_type_id":"4","last_reported":1743855425,"current_range_meters":10800,"station_id":"ce4bhbh2rcd13ifvqeo0","pricing_plan_id":"cebpf4jnsgd1na2vs0mg"},{"bike_id":"c6d94627-e65d-4df8-bc3b-131e91ba4071","system_id":"levelo_inurba_marseille","lat":43.21198,"lon":5.35075,"is_reserved":false,"is_disabled":false,"rental_uris":{"android":"levelo://app?vid=c6d94627-e65d-4df8-bc3b-131e91ba4071","ios":"levelo://app?vid=c6d94627-e65d-4df8-bc3b-131e91ba4071"},"vehicle_type_id":"4","last_reported":1743855425,"current_range_meters":11200,"station_id":"st_cvj6sg6p6f1abm77japg","pricing_plan_id":"cebpf4jnsgd1na2vs0mg"},{"bike_id":"0e89560c-db55-46d9-a6b9-8bd9c5d154e1","system_id":"levelo_inurba_marseille","lat":43.337444,"lon":5.374475,"is_reserved":false,"is_disabled":false,"rental_uris":{"android":"levelo://app?vid=0e89560c-db55-46d9-a6b9-8bd9c5d154e1","ios":"levelo://app?vid=0e89560c-db55-46d9-a6b9-8bd9c5d154e1"},"vehicle_type_id":"4","last_reported":1743855425,"current_range_meters":11200,"station_id":"","pricing_plan_id":"cebpf4jnsgd1na2vs0mg"},{"bike_id":"04bad98f-e935-4a18-b805-fa19e1eb232e","system_id":"levelo_inurba_marseille","lat":43.27373,"lon":5.36261,"is_reserved":false,"is_disabled":false,"rental_uris":{"android":"levelo://app?vid=04bad98f-e935-4a18-b805-fa19e1eb232e","ios":"levelo://app?vid=04bad98f-e935-4a18-b805-fa19e1eb232e"},"vehicle_type_id":"4","last_reported":1743855425,"current_range_meters":11200,"station_id":"ce4bhbh2rcd13ifvqeo0","pricing_plan_id":"cebpf4jnsgd1na2vs0mg"},{"bike_id":"30b57730-cb66-4122-bd93-7dabcaba84e7","system_id":"levelo_inurba_marseille","lat":43.24902,"lon":5.40666,"is_reserved":false,"is_disabled":false,"rental_uris":{"android":"levelo://app?vid=30b57730-cb66-4122-bd93-7dabcaba84e7","ios":"levelo://app?vid=30b57730-cb66-4122-bd93-7dabcaba84e7"},"vehicle_type_id":"4","last_reported":1743855425,"current_range_meters":11200,"station_id":"","pricing_plan_id":"cebpf4jnsgd1na2vs0mg"},{"bike_id":"81c282f2-cc8c-4e99-9dcd-36f8c04466c2","system_id":"levelo_inurba_marseille","lat":43.30533,"lon":5.36699,"is_reserved":false,"is_disabled":false,"rental_uris":{"android":"levelo://app?vid=81c282f2-cc8c-4e99-9dcd-36f8c04466c2","ios":"levelo://app?vid=81c282f2-cc8c-4e99-9dcd-36f8c04466c2"},"vehicle_type_id":"4","last_reported":1743855425,"current_range_meters":11200,"station_id":"ce4bgrp2rcd13ifvqc9g","pricing_plan_id":"cebpf4jnsgd1na2vs0mg"},{"bike_id":"cb2bde41-669d-4ed3-8eeb-39245dfc04ec","system_id":"levelo_inurba_marseille","lat":43.2481,"lon":5.37436,"is_reserved":false,"is_disabled":false,"rental_uris":{"android":"levelo://app?vid=cb2bde41-669d-4ed3-8eeb-39245dfc04ec","ios":"levelo://app?vid=cb2bde41-669d-4ed3-8eeb-39245dfc04ec"},"vehicle_type_id":"4","last_reported":1743855425,"current_range_meters":11200,"station_id":"ce4bhgh2rcd13ifvqfb0","pricing_plan_id":"cebpf4jnsgd1na2vs0mg"},{"bike_id":"ac2ab547-c1fd-4abe-b352-d4ded3160820","system_id":"levelo_inurba_marseille","lat":43.28421,"lon":5.34995,"is_reserved":false,"is_disabled":false,"rental_uris":{"android":"levelo://app?vid=ac2ab547-c1fd-4abe-b352-d4ded3160820","ios":"levelo://app?vid=ac2ab547-c1fd-4abe-b352-d4ded3160820"},"vehicle_type_id":"4","last_reported":1743855425,"current_range_meters":11200,"station_id":"ce4bhbh2rcd13ifvqepg","pricing_plan_id":"cebpf4jnsgd1na2vs0mg"},{"bike_id":"d5e984d3-343e-4e16-bd54-bc3ebbd48639","system_id":"levelo_inurba_marseille","lat":43.30137,"lon":5.38769,"is_reserved":false,"is_disabled":true,"rental_uris":{"android":"levelo://app?vid=d5e984d3-343e-4e16-bd54-bc3ebbd48639","ios":"levelo://app?vid=d5e984d3-343e-4e16-bd54-bc3ebbd48639"},"vehicle_type_id":"4","last_reported":1743855425,"current_range_meters":11600,"station_id":"ce4bghh2rcd13ifvqb60","pricing_plan_id":"cebpf4jnsgd1na2vs0mg"},{"bike_id":"db29433a-c7f6-40d6-b0e1-3a1f0abf15ab","system_id":"levelo_inurba_marseille","lat":43.241712,"lon":5.364041,"is_reserved":false,"is_disabled":true,"rental_uris":{"android":"levelo://app?vid=db29433a-c7f6-40d6-b0e1-3a1f0abf15ab","ios":"levelo://app?vid=db29433a-c7f6-40d6-b0e1-3a1f0abf15ab"},"vehicle_type_id":"4","last_reported":1743855425,"current_range_meters":11600,"station_id":"ce4bh412rcd13ifvqdr0","pricing_plan_id":"cebpf4jnsgd1na2vs0mg"},{"bike_id":"0463e06e-d0e0-449a-887c-b369c5c732cf","system_id":"levelo_inurba_marseille","lat":43.29261,"lon":5.40905,"is_reserved":false,"is_disabled":false,"rental_uris":{"android":"levelo://app?vid=0463e06e-d0e0-449a-887c-b369c5c732cf","ios":"levelo://app?vid=0463e06e-d0e0-449a-887c-b369c5c732cf"},"vehicle_type_id":"4","last_reported":1743855425,"current_range_meters":11600,"station_id":"ce4bh192rcd13ifvqdc0","pricing_plan_id":"cebpf4jnsgd1na2vs0mg"},{"bike_id":"a9239851-a971-49ea-a493-57b1737479d8","system_id":"levelo_inurba_marseille","lat":43.28268,"lon":5.35067,"is_reserved":false,"is_disabled":false,"rental_uris":{"android":"levelo://app?vid=a9239851-a971-49ea-a493-57b1737479d8","ios":"levelo://app?vid=a9239851-a971-49ea-a493-57b1737479d8"},"vehicle_type_id":"4","last_reported":1743855425,"current_range_meters":11600,"station_id":"ce4bhbp2rcd13ifvqerg","pricing_plan_id":"cebpf4jnsgd1na2vs0mg"},{"bike_id":"c7643979-9ece-4372-b68c-2d9a4e876f66","system_id":"levelo_inurba_marseille","lat":43.22505,"lon":5.34787,"is_reserved":false,"is_disabled":false,"rental_uris":{"android":"levelo://app?vid=c7643979-9ece-4372-b68c-2d9a4e876f66","ios":"levelo://app?vid=c7643979-9ece-4372-b68c-2d9a4e876f66"},"vehicle_type_id":"4","last_reported":1743855425,"current_range_meters":11600,"station_id":"st_cvj5dfep6f1abm77gieg","pricing_plan_id":"cebpf4jnsgd1na2vs0mg"},{"bike_id":"17ab7399-b863-41dc-8988-11ad14bcaa5e","system_id":"levelo_inurba_marseille","lat":43.255,"lon":5.37659,"is_reserved":false,"is_disabled":false,"rental_uris":{"android":"levelo://app?vid=17ab7399-b863-41dc-8988-11ad14bcaa5e","ios":"levelo://app?vid=17ab7399-b863-41dc-8988-11ad14bcaa5e"},"vehicle_type_id":"4","last_reported":1743855425,"current_range_meters":11600,"station_id":"ce4bhh12rcd13ifvqff0","pricing_plan_id":"cebpf4jnsgd1na2vs0mg"},{"bike_id":"7cd05968-4721-444c-a528-2f4de7c5bcb2","system_id":"levelo_inurba_marseille","lat":43.27942,"lon":5.41054,"is_reserved":false,"is_disabled":false,"rental_uris":{"android":"levelo://app?vid=7cd05968-4721-444c-a528-2f4de7c5bcb2","ios":"levelo://app?vid=7cd05968-4721-444c-a528-2f4de7c5bcb2"},"vehicle_type_id":"4","last_reported":1743855425,"current_range_meters":11600,"station_id":"ce4bhnp2rcd13ifvqh0g","pricing_plan_id":"cebpf4jnsgd1na2vs0mg"},{"bike_id":"00251f22-1b98-475e-968b-b3ed81a2303c","system_id":"levelo_inurba_marseille","lat":43.2418,"lon":5.36409,"is_reserved":false,"is_disabled":false,"rental_uris":{"android":"levelo://app?vid=00251f22-1b98-475e-968b-b3ed81a2303c","ios":"levelo://app?vid=00251f22-1b98-475e-968b-b3ed81a2303c"},"vehicle_type_id":"4","last_reported":1743855425,"current_range_meters":12000,"station_id":"cpo36qri1sfpv3e86is0","pricing_plan_id":"cebpf4jnsgd1na2vs0mg"},{"bike_id":"49893cc6-000c-4e13-94e0-be7f519d7d21","system_id":"levelo_inurba_marseille","lat":43.24169,"lon":5.36392,"is_reserved":false,"is_disabled":false,"rental_uris":{"android":"levelo://app?vid=49893cc6-000c-4e13-94e0-be7f519d7d21","ios":"levelo://app?vid=49893cc6-000c-4e13-94e0-be7f519d7d21"},"vehicle_type_id":"4","last_reported":1743855425,"current_range_meters":12400,"station_id":"cpo36qri1sfpv3e86is0","pricing_plan_id":"cebpf4jnsgd1na2vs0mg"},{"bike_id":"dce828e8-794e-4b0c-ade6-799847798b33","system_id":"levelo_inurba_marseille","lat":43.23987,"lon":5.397887,"is_reserved":false,"is_disabled":false,"rental_uris":{"android":"levelo://app?vid=dce828e8-794e-4b0c-ade6-799847798b33","ios":"levelo://app?vid=dce828e8-794e-4b0c-ade6-799847798b33"},"vehicle_type_id":"4","last_reported":1743855425,"current_range_meters":12400,"station_id":"ce4bhn12rcd13ifvqgqg","pricing_plan_id":"cebpf4jnsgd1na2vs0mg"},{"bike_id":"e9bf83b3-fd6b-451e-a1da-9cbb23ee6d6f","system_id":"levelo_inurba_marseille","lat":43.30886,"lon":5.37198,"is_reserved":false,"is_disabled":false,"rental_uris":{"android":"levelo://app?vid=e9bf83b3-fd6b-451e-a1da-9cbb23ee6d6f","ios":"levelo://app?vid=e9bf83b3-fd6b-451e-a1da-9cbb23ee6d6f"},"vehicle_type_id":"4","last_reported":1743855425,"current_range_meters":12400,"station_id":"ce4bguh2rcd13ifvqckg","pricing_plan_id":"cebpf4jnsgd1na2vs0mg"},{"bike_id":"376c49e1-8c9b-4294-b0ba-6481ae9d6738","system_id":"levelo_inurba_marseille","lat":43.27616,"lon":5.3611,"is_reserved":false,"is_disabled":false,"rental_uris":{"android":"levelo://app?vid=376c49e1-8c9b-4294-b0ba-6481ae9d6738","ios":"levelo://app?vid=376c49e1-8c9b-4294-b0ba-6481ae9d6738"},"vehicle_type_id":"4","last_reported":1743855425,"current_range_meters":12400,"station_id":"ce4bgj92rcd13ifvqbe0","pricing_plan_id":"cebpf4jnsgd1na2vs0mg"},{"bike_id":"7912ca41-370e-46ab-922b-f63622eea5cd","system_id":"levelo_inurba_marseille","lat":43.22514,"lon":5.34778,"is_reserved":false,"is_disabled":false,"rental_uris":{"android":"levelo://app?vid=7912ca41-370e-46ab-922b-f63622eea5cd","ios":"levelo://app?vid=7912ca41-370e-46ab-922b-f63622eea5cd"},"vehicle_type_id":"4","last_reported":1743855425,"current_range_meters":12800,"station_id":"st_cvj5dfep6f1abm77gieg","pricing_plan_id":"cebpf4jnsgd1na2vs0mg"},{"bike_id":"960dda65-23c5-411f-b601-a5aac71ae6fe","system_id":"levelo_inurba_marseille","lat":43.24662,"lon":5.38165,"is_reserved":false,"is_disabled":false,"rental_uris":{"android":"levelo://app?vid=960dda65-23c5-411f-b601-a5aac71ae6fe","ios":"levelo://app?vid=960dda65-23c5-411f-b601-a5aac71ae6fe"},"vehicle_type_id":"4","last_reported":1743855425,"current_range_meters":12800,"station_id":"ce4bhih2rcd13ifvqfr0","pricing_plan_id":"cebpf4jnsgd1na2vs0mg"},{"bike_id":"02f846c2-f0ef-4547-a86b-512acf9bd799","system_id":"levelo_inurba_marseille","lat":43.21747,"lon":5.34607,"is_reserved":false,"is_disabled":false,"rental_uris":{"android":"levelo://app?vid=02f846c2-f0ef-4547-a86b-512acf9bd799","ios":"levelo://app?vid=02f846c2-f0ef-4547-a86b-512acf9bd799"},"vehicle_type_id":"4","last_reported":1743855425,"current_range_meters":12800,"station_id":"st_cvj6r9ubvosntc0bgbag","pricing_plan_id":"cebpf4jnsgd1na2vs0mg"},{"bike_id":"e1ab711e-1d7a-4afe-af67-1bdc40727ecc","system_id":"levelo_inurba_marseille","lat":43.282812,"lon":5.350556,"is_reserved":false,"is_disabled":false,"rental_uris":{"android":"levelo://app?vid=e1ab711e-1d7a-4afe-af67-1bdc40727ecc","ios":"levelo://app?vid=e1ab711e-1d7a-4afe-af67-1bdc40727ecc"},"vehicle_type_id":"4","last_reported":1743855425,"current_range_meters":12800,"station_id":"ce4bhbp2rcd13ifvqerg","pricing_plan_id":"cebpf4jnsgd1na2vs0mg"},{"bike_id":"d3940f6d-6c26-4ccb-aa36-1b12f0ca6ef4","system_id":"levelo_inurba_marseille","lat":43.31531,"lon":5.38033,"is_reserved":false,"is_disabled":false,"rental_uris":{"android":"levelo://app?vid=d3940f6d-6c26-4ccb-aa36-1b12f0ca6ef4","ios":"levelo://app?vid=d3940f6d-6c26-4ccb-aa36-1b12f0ca6ef4"},"vehicle_type_id":"4","last_reported":1743855425,"current_range_meters":12800,"station_id":"ce4bhsp2rcd13ifvqi50","pricing_plan_id":"cebpf4jnsgd1na2vs0mg"},{"bike_id":"a8d618bf-c1fd-4e66-ab59-bace0c9ff87f","system_id":"levelo_inurba_marseille","lat":43.3032,"lon":5.3691,"is_reserved":false,"is_disabled":false,"rental_uris":{"android":"levelo://app?vid=a8d618bf-c1fd-4e66-ab59-bace0c9ff87f","ios":"levelo://app?vid=a8d618bf-c1fd-4e66-ab59-bace0c9ff87f"},"vehicle_type_id":"4","last_reported":1743855425,"current_range_meters":13600,"station_id":"ce4bgqh2rcd13ifvqc5g","pricing_plan_id":"cebpf4jnsgd1na2vs0mg"},{"bike_id":"ee17cee9-9cd6-4ff0-90be-861e2e9019c0","system_id":"levelo_inurba_marseille","lat":43.29871,"lon":5.39741,"is_reserved":false,"is_disabled":false,"rental_uris":{"android":"levelo://app?vid=ee17cee9-9cd6-4ff0-90be-861e2e9019c0","ios":"levelo://app?vid=ee17cee9-9cd6-4ff0-90be-861e2e9019c0"},"vehicle_type_id":"4","last_reported":1743855425,"current_range_meters":13600,"station_id":"ce4bh0h2rcd13ifvqd50","pricing_plan_id":"cebpf4jnsgd1na2vs0mg"},{"bike_id":"b0fa9d7a-9bb1-4db4-93c2-b8e1c4194c57","system_id":"levelo_inurba_marseille","lat":43.28008,"lon":5.40011,"is_reserved":false,"is_disabled":false,"rental_uris":{"android":"levelo://app?vid=b0fa9d7a-9bb1-4db4-93c2-b8e1c4194c57","ios":"levelo://app?vid=b0fa9d7a-9bb1-4db4-93c2-b8e1c4194c57"},"vehicle_type_id":"4","last_reported":1743855425,"current_range_meters":13600,"station_id":"ce4bho92rcd13ifvqh4g","pricing_plan_id":"cebpf4jnsgd1na2vs0mg"},{"bike_id":"a6e85a14-7bef-4d48-b863-5de39c6e58c2","system_id":"levelo_inurba_marseille","lat":43.26186,"lon":5.37447,"is_reserved":false,"is_disabled":false,"rental_uris":{"android":"levelo://app?vid=a6e85a14-7bef-4d48-b863-5de39c6e58c2","ios":"levelo://app?vid=a6e85a14-7bef-4d48-b863-5de39c6e58c2"},"vehicle_type_id":"4","last_reported":1743855425,"current_range_meters":13600,"station_id":"ce4bhgp2rcd13ifvqfc0","pricing_plan_id":"cebpf4jnsgd1na2vs0mg"},{"bike_id":"b6e30ec2-a39a-4114-ab87-ba7886b82502","system_id":"levelo_inurba_marseille","lat":43.29887,"lon":5.38903,"is_reserved":false,"is_disabled":false,"rental_uris":{"android":"levelo://app?vid=b6e30ec2-a39a-4114-ab87-ba7886b82502","ios":"levelo://app?vid=b6e30ec2-a39a-4114-ab87-ba7886b82502"},"vehicle_type_id":"4","last_reported":1743855425,"current_range_meters":13600,"station_id":"ce4bh392rcd13ifvqdl0","pricing_plan_id":"cebpf4jnsgd1na2vs0mg"},{"bike_id":"a015a109-062f-430e-a4ca-825fdd5d11cf","system_id":"levelo_inurba_marseille","lat":43.24167,"lon":5.36395,"is_reserved":false,"is_disabled":false,"rental_uris":{"android":"levelo://app?vid=a015a109-062f-430e-a4ca-825fdd5d11cf","ios":"levelo://app?vid=a015a109-062f-430e-a4ca-825fdd5d11cf"},"vehicle_type_id":"4","last_reported":1743855425,"current_range_meters":13600,"station_id":"cpo36qri1sfpv3e86is0","pricing_plan_id":"cebpf4jnsgd1na2vs0mg"},{"bike_id":"7cc8d9ad-2bff-4b20-aa70-58e00c93bbb6","system_id":"levelo_inurba_marseille","lat":43.29915,"lon":5.37455,"is_reserved":false,"is_disabled":false,"rental_uris":{"android":"levelo://app?vid=7cc8d9ad-2bff-4b20-aa70-58e00c93bbb6","ios":"levelo://app?vid=7cc8d9ad-2bff-4b20-aa70-58e00c93bbb6"},"vehicle_type_id":"4","last_reported":1743855425,"current_range_meters":13600,"station_id":"ce4bgjh2rcd13ifvqbg0","pricing_plan_id":"cebpf4jnsgd1na2vs0mg"},{"bike_id":"8ee8a071-ee3c-4e6e-b1b2-0e8120beb7f4","system_id":"levelo_inurba_marseille","lat":43.25967,"lon":5.40899,"is_reserved":false,"is_disabled":false,"rental_uris":{"android":"levelo://app?vid=8ee8a071-ee3c-4e6e-b1b2-0e8120beb7f4","ios":"levelo://app?vid=8ee8a071-ee3c-4e6e-b1b2-0e8120beb7f4"},"vehicle_type_id":"4","last_reported":1743855425,"current_range_meters":14000,"station_id":"ce4bhm92rcd13ifvqglg","pricing_plan_id":"cebpf4jnsgd1na2vs0mg"},{"bike_id":"94bbf571-4919-4cea-8c50-79e346f7dc11","system_id":"levelo_inurba_marseille","lat":43.32452,"lon":5.39121,"is_reserved":false,"is_disabled":true,"rental_uris":{"android":"levelo://app?vid=94bbf571-4919-4cea-8c50-79e346f7dc11","ios":"levelo://app?vid=94bbf571-4919-4cea-8c50-79e346f7dc11"},"vehicle_type_id":"4","last_reported":1743855425,"current_range_meters":14000,"station_id":"","pricing_plan_id":"cebpf4jnsgd1na2vs0mg"},{"bike_id":"a6303451-5b45-435c-bf0e-748f94cc010d","system_id":"levelo_inurba_marseille","lat":43.23201,"lon":5.35566,"is_reserved":false,"is_disabled":false,"rental_uris":{"android":"levelo://app?vid=a6303451-5b45-435c-bf0e-748f94cc010d","ios":"levelo://app?vid=a6303451-5b45-435c-bf0e-748f94cc010d"},"vehicle_type_id":"4","last_reported":1743855425,"current_range_meters":14000,"station_id":"ce4bhu92rcd13ifvqi70","pricing_plan_id":"cebpf4jnsgd1na2vs0mg"},{"bike_id":"465bcb52-be21-4dfb-9c13-77944ba98652","system_id":"levelo_inurba_marseille","lat":43.27374,"lon":5.36263,"is_reserved":false,"is_disabled":false,"rental_uris":{"android":"levelo://app?vid=465bcb52-be21-4dfb-9c13-77944ba98652","ios":"levelo://app?vid=465bcb52-be21-4dfb-9c13-77944ba98652"},"vehicle_type_id":"4","last_reported":1743855425,"current_range_meters":13600,"station_id":"ce4bhbh2rcd13ifvqeo0","pricing_plan_id":"cebpf4jnsgd1na2vs0mg"},{"bike_id":"aa6ac549-8297-45e9-a35f-b2df998f4dfc","system_id":"levelo_inurba_marseille","lat":43.21746,"lon":5.34605,"is_reserved":false,"is_disabled":false,"rental_uris":{"android":"levelo://app?vid=aa6ac549-8297-45e9-a35f-b2df998f4dfc","ios":"levelo://app?vid=aa6ac549-8297-45e9-a35f-b2df998f4dfc"},"vehicle_type_id":"4","last_reported":1743855425,"current_range_meters":14000,"station_id":"st_cvj6r9ubvosntc0bgbag","pricing_plan_id":"cebpf4jnsgd1na2vs0mg"},{"bike_id":"601c97bb-98ba-40dc-aee9-73555ddc6ddf","system_id":"levelo_inurba_marseille","lat":43.2467,"lon":5.38162,"is_reserved":false,"is_disabled":false,"rental_uris":{"android":"levelo://app?vid=601c97bb-98ba-40dc-aee9-73555ddc6ddf","ios":"levelo://app?vid=601c97bb-98ba-40dc-aee9-73555ddc6ddf"},"vehicle_type_id":"4","last_reported":1743855425,"current_range_meters":14400,"station_id":"ce4bhih2rcd13ifvqfr0","pricing_plan_id":"cebpf4jnsgd1na2vs0mg"},{"bike_id":"97d77224-5748-4443-848a-6ab951c45d6d","system_id":"levelo_inurba_marseille","lat":43.32276,"lon":5.38293,"is_reserved":false,"is_disabled":false,"rental_uris":{"android":"levelo://app?vid=97d77224-5748-4443-848a-6ab951c45d6d","ios":"levelo://app?vid=97d77224-5748-4443-848a-6ab951c45d6d"},"vehicle_type_id":"4","last_reported":1743855425,"current_range_meters":14400,"station_id":"ce4bhr12rcd13ifvqhqg","pricing_plan_id":"cebpf4jnsgd1na2vs0mg"},{"bike_id":"73272853-088e-4b39-8e6e-94fe10fc353c","system_id":"levelo_inurba_marseille","lat":43.33775,"lon":5.37535,"is_reserved":false,"is_disabled":false,"rental_uris":{"android":"levelo://app?vid=73272853-088e-4b39-8e6e-94fe10fc353c","ios":"levelo://app?vid=73272853-088e-4b39-8e6e-94fe10fc353c"},"vehicle_type_id":"4","last_reported":1743855425,"current_range_meters":14400,"station_id":"","pricing_plan_id":"cebpf4jnsgd1na2vs0mg"},{"bike_id":"652d1757-8080-4e48-ad35-5e64267d4cee","system_id":"levelo_inurba_marseille","lat":43.22503,"lon":5.3479,"is_reserved":false,"is_disabled":false,"rental_uris":{"android":"levelo://app?vid=652d1757-8080-4e48-ad35-5e64267d4cee","ios":"levelo://app?vid=652d1757-8080-4e48-ad35-5e64267d4cee"},"vehicle_type_id":"4","last_reported":1743855425,"current_range_meters":14800,"station_id":"st_cvj5dfep6f1abm77gieg","pricing_plan_id":"cebpf4jnsgd1na2vs0mg"},{"bike_id":"75857ff7-969f-41b5-a581-9cd2f255dd28","system_id":"levelo_inurba_marseille","lat":43.27911,"lon":5.38024,"is_reserved":false,"is_disabled":false,"rental_uris":{"android":"levelo://app?vid=75857ff7-969f-41b5-a581-9cd2f255dd28","ios":"levelo://app?vid=75857ff7-969f-41b5-a581-9cd2f255dd28"},"vehicle_type_id":"4","last_reported":1743855425,"current_range_meters":14800,"station_id":"ce4bhf92rcd13ifvqf50","pricing_plan_id":"cebpf4jnsgd1na2vs0mg"},{"bike_id":"d3cdb696-0072-45aa-9575-a0f4de86acd0","system_id":"levelo_inurba_marseille","lat":43.30919,"lon":5.4013,"is_reserved":false,"is_disabled":true,"rental_uris":{"android":"levelo://app?vid=d3cdb696-0072-45aa-9575-a0f4de86acd0","ios":"levelo://app?vid=d3cdb696-0072-45aa-9575-a0f4de86acd0"},"vehicle_type_id":"4","last_reported":1743855425,"current_range_meters":14800,"station_id":"ce4bgvp2rcd13ifvqct0","pricing_plan_id":"cebpf4jnsgd1na2vs0mg"},{"bike_id":"a5ee3e06-ae72-48d0-9bae-5aead6340ce6","system_id":"levelo_inurba_marseille","lat":43.28422,"lon":5.35005,"is_reserved":false,"is_disabled":false,"rental_uris":{"android":"levelo://app?vid=a5ee3e06-ae72-48d0-9bae-5aead6340ce6","ios":"levelo://app?vid=a5ee3e06-ae72-48d0-9bae-5aead6340ce6"},"vehicle_type_id":"4","last_reported":1743855425,"current_range_meters":14800,"station_id":"ce4bhbh2rcd13ifvqepg","pricing_plan_id":"cebpf4jnsgd1na2vs0mg"},{"bike_id":"dadd32c1-4050-4eb9-93db-8270acd70983","system_id":"levelo_inurba_marseille","lat":43.23162,"lon":5.43712,"is_reserved":false,"is_disabled":false,"rental_uris":{"android":"levelo://app?vid=dadd32c1-4050-4eb9-93db-8270acd70983","ios":"levelo://app?vid=dadd32c1-4050-4eb9-93db-8270acd70983"},"vehicle_type_id":"4","last_reported":1743855425,"current_range_meters":14400,"station_id":"ce4bhmp2rcd13ifvqgog","pricing_plan_id":"cebpf4jnsgd1na2vs0mg"},{"bike_id":"4ac0ef9c-7c27-4f8d-a70f-3e48ef0cd03c","system_id":"levelo_inurba_marseille","lat":43.31729,"lon":5.3778,"is_reserved":false,"is_disabled":false,"rental_uris":{"android":"levelo://app?vid=4ac0ef9c-7c27-4f8d-a70f-3e48ef0cd03c","ios":"levelo://app?vid=4ac0ef9c-7c27-4f8d-a70f-3e48ef0cd03c"},"vehicle_type_id":"4","last_reported":1743855425,"current_range_meters":14800,"station_id":"ce4bgth2rcd13ifvqch0","pricing_plan_id":"cebpf4jnsgd1na2vs0mg"},{"bike_id":"d9d6694b-f86f-4536-831e-f893d955c678","system_id":"levelo_inurba_marseille","lat":43.2175,"lon":5.34606,"is_reserved":false,"is_disabled":false,"rental_uris":{"android":"levelo://app?vid=d9d6694b-f86f-4536-831e-f893d955c678","ios":"levelo://app?vid=d9d6694b-f86f-4536-831e-f893d955c678"},"vehicle_type_id":"4","last_reported":1743855425,"current_range_meters":14800,"station_id":"st_cvj6r9ubvosntc0bgbag","pricing_plan_id":"cebpf4jnsgd1na2vs0mg"},{"bike_id":"5c65079a-475a-47ca-bc17-0338bfc9ba8c","system_id":"levelo_inurba_marseille","lat":43.23968,"lon":5.36635,"is_reserved":false,"is_disabled":false,"rental_uris":{"android":"levelo://app?vid=5c65079a-475a-47ca-bc17-0338bfc9ba8c","ios":"levelo://app?vid=5c65079a-475a-47ca-bc17-0338bfc9ba8c"},"vehicle_type_id":"4","last_reported":1743855425,"current_range_meters":14800,"station_id":"ce4bhi12rcd13ifvqfp0","pricing_plan_id":"cebpf4jnsgd1na2vs0mg"},{"bike_id":"0781bdb9-17df-48a8-927f-7a7504df7df3","system_id":"levelo_inurba_marseille","lat":43.28407,"lon":5.34992,"is_reserved":false,"is_disabled":false,"rental_uris":{"android":"levelo://app?vid=0781bdb9-17df-48a8-927f-7a7504df7df3","ios":"levelo://app?vid=0781bdb9-17df-48a8-927f-7a7504df7df3"},"vehicle_type_id":"4","last_reported":1743855425,"current_range_meters":14800,"station_id":"ce4bhbh2rcd13ifvqepg","pricing_plan_id":"cebpf4jnsgd1na2vs0mg"},{"bike_id":"c23772a6-53c1-430f-8570-284ba0642d08","system_id":"levelo_inurba_marseille","lat":43.28616,"lon":5.35104,"is_reserved":false,"is_disabled":false,"rental_uris":{"android":"levelo://app?vid=c23772a6-53c1-430f-8570-284ba0642d08","ios":"levelo://app?vid=c23772a6-53c1-430f-8570-284ba0642d08"},"vehicle_type_id":"4","last_reported":1743855425,"current_range_meters":15200,"station_id":"ce4bhch2rcd13ifvqeug","pricing_plan_id":"cebpf4jnsgd1na2vs0mg"},{"bike_id":"3173aeb4-a214-4797-833c-d08a10bca519","system_id":"levelo_inurba_marseille","lat":43.23967,"lon":5.36634,"is_reserved":false,"is_disabled":false,"rental_uris":{"android":"levelo://app?vid=3173aeb4-a214-4797-833c-d08a10bca519","ios":"levelo://app?vid=3173aeb4-a214-4797-833c-d08a10bca519"},"vehicle_type_id":"4","last_reported":1743855425,"current_range_meters":15200,"station_id":"ce4bhi12rcd13ifvqfp0","pricing_plan_id":"cebpf4jnsgd1na2vs0mg"},{"bike_id":"70ad5a7a-b026-453b-af5a-a30bd24522e4","system_id":"levelo_inurba_marseille","lat":43.29275,"lon":5.36849,"is_reserved":false,"is_disabled":false,"rental_uris":{"android":"levelo://app?vid=70ad5a7a-b026-453b-af5a-a30bd24522e4","ios":"levelo://app?vid=70ad5a7a-b026-453b-af5a-a30bd24522e4"},"vehicle_type_id":"4","last_reported":1743855425,"current_range_meters":15200,"station_id":"ce4bhbp2rcd13ifvqesg","pricing_plan_id":"cebpf4jnsgd1na2vs0mg"},{"bike_id":"c50edd2b-88dd-434e-b794-36692e2c1f27","system_id":"levelo_inurba_marseille","lat":43.284174,"lon":5.349756,"is_reserved":false,"is_disabled":false,"rental_uris":{"android":"levelo://app?vid=c50edd2b-88dd-434e-b794-36692e2c1f27","ios":"levelo://app?vid=c50edd2b-88dd-434e-b794-36692e2c1f27"},"vehicle_type_id":"4","last_reported":1743855425,"current_range_meters":15200,"station_id":"ce4bhbh2rcd13ifvqepg","pricing_plan_id":"cebpf4jnsgd1na2vs0mg"},{"bike_id":"6d2f1390-bb1d-47cd-b94c-61cae0fabbd5","system_id":"levelo_inurba_marseille","lat":43.23183,"lon":5.4,"is_reserved":false,"is_disabled":false,"rental_uris":{"android":"levelo://app?vid=6d2f1390-bb1d-47cd-b94c-61cae0fabbd5","ios":"levelo://app?vid=6d2f1390-bb1d-47cd-b94c-61cae0fabbd5"},"vehicle_type_id":"4","last_reported":1743855425,"current_range_meters":15200,"station_id":"ce4bhn12rcd13ifvqgqg","pricing_plan_id":"cebpf4jnsgd1na2vs0mg"},{"bike_id":"3a26c4e7-3add-4c6a-8312-4cb7ec76cb68","system_id":"levelo_inurba_marseille","lat":43.31499,"lon":5.37297,"is_reserved":false,"is_disabled":false,"rental_uris":{"android":"levelo://app?vid=3a26c4e7-3add-4c6a-8312-4cb7ec76cb68","ios":"levelo://app?vid=3a26c4e7-3add-4c6a-8312-4cb7ec76cb68"},"vehicle_type_id":"4","last_reported":1743855425,"current_range_meters":15200,"station_id":"ce4bgt12rcd13ifvqcd0","pricing_plan_id":"cebpf4jnsgd1na2vs0mg"},{"bike_id":"b25e4efb-b29c-4c9d-a005-572b8cadec30","system_id":"levelo_inurba_marseille","lat":43.2721,"lon":5.39183,"is_reserved":false,"is_disabled":false,"rental_uris":{"android":"levelo://app?vid=b25e4efb-b29c-4c9d-a005-572b8cadec30","ios":"levelo://app?vid=b25e4efb-b29c-4c9d-a005-572b8cadec30"},"vehicle_type_id":"4","last_reported":1743855425,"current_range_meters":15200,"station_id":"ce4bhhp2rcd13ifvqfm0","pricing_plan_id":"cebpf4jnsgd1na2vs0mg"},{"bike_id":"1becede2-d60a-487e-819c-3a6e12a5878d","system_id":"levelo_inurba_marseille","lat":43.27616,"lon":5.36103,"is_reserved":false,"is_disabled":false,"rental_uris":{"android":"levelo://app?vid=1becede2-d60a-487e-819c-3a6e12a5878d","ios":"levelo://app?vid=1becede2-d60a-487e-819c-3a6e12a5878d"},"vehicle_type_id":"4","last_reported":1743855425,"current_range_meters":16000,"station_id":"ce4bgj92rcd13ifvqbe0","pricing_plan_id":"cebpf4jnsgd1na2vs0mg"},{"bike_id":"a88db2a7-676b-4ccf-85e8-011061b8319a","system_id":"levelo_inurba_marseille","lat":43.30205,"lon":5.39457,"is_reserved":false,"is_disabled":false,"rental_uris":{"android":"levelo://app?vid=a88db2a7-676b-4ccf-85e8-011061b8319a","ios":"levelo://app?vid=a88db2a7-676b-4ccf-85e8-011061b8319a"},"vehicle_type_id":"4","last_reported":1743855425,"current_range_meters":16000,"station_id":"ce4bh0p2rcd13ifvqd70","pricing_plan_id":"cebpf4jnsgd1na2vs0mg"},{"bike_id":"87908f94-d8aa-4a33-8565-205213af20b1","system_id":"levelo_inurba_marseille","lat":43.32096,"lon":5.36767,"is_reserved":false,"is_disabled":false,"rental_uris":{"android":"levelo://app?vid=87908f94-d8aa-4a33-8565-205213af20b1","ios":"levelo://app?vid=87908f94-d8aa-4a33-8565-205213af20b1"},"vehicle_type_id":"4","last_reported":1743855425,"current_range_meters":16000,"station_id":"ce4bhrh2rcd13ifvqhug","pricing_plan_id":"cebpf4jnsgd1na2vs0mg"},{"bike_id":"6082a6d8-29f3-4441-bd82-d0f95ead75d7","system_id":"levelo_inurba_marseille","lat":43.231899,"lon":5.355499,"is_reserved":false,"is_disabled":false,"rental_uris":{"android":"levelo://app?vid=6082a6d8-29f3-4441-bd82-d0f95ead75d7","ios":"levelo://app?vid=6082a6d8-29f3-4441-bd82-d0f95ead75d7"},"vehicle_type_id":"4","last_reported":1743855425,"current_range_meters":16000,"station_id":"ce4bhu92rcd13ifvqi70","pricing_plan_id":"cebpf4jnsgd1na2vs0mg"},{"bike_id":"8793a73b-76cc-4fd3-b63d-530857011831","system_id":"levelo_inurba_marseille","lat":43.25114,"lon":5.4033,"is_reserved":false,"is_disabled":false,"rental_uris":{"android":"levelo://app?vid=8793a73b-76cc-4fd3-b63d-530857011831","ios":"levelo://app?vid=8793a73b-76cc-4fd3-b63d-530857011831"},"vehicle_type_id":"4","last_reported":1743855425,"current_range_meters":16000,"station_id":"ce4bhlh2rcd13ifvqgig","pricing_plan_id":"cebpf4jnsgd1na2vs0mg"},{"bike_id":"be3bf28f-5c15-4582-9925-823a7a38a324","system_id":"levelo_inurba_marseille","lat":43.23159,"lon":5.43718,"is_reserved":false,"is_disabled":false,"rental_uris":{"android":"levelo://app?vid=be3bf28f-5c15-4582-9925-823a7a38a324","ios":"levelo://app?vid=be3bf28f-5c15-4582-9925-823a7a38a324"},"vehicle_type_id":"4","last_reported":1743855425,"current_range_meters":16000,"station_id":"ce4bhmp2rcd13ifvqgog","pricing_plan_id":"cebpf4jnsgd1na2vs0mg"},{"bike_id":"6318df25-e619-488e-8e5a-ffa050963103","system_id":"levelo_inurba_marseille","lat":43.21763,"lon":5.34602,"is_reserved":false,"is_disabled":false,"rental_uris":{"android":"levelo://app?vid=6318df25-e619-488e-8e5a-ffa050963103","ios":"levelo://app?vid=6318df25-e619-488e-8e5a-ffa050963103"},"vehicle_type_id":"4","last_reported":1743855425,"current_range_meters":16000,"station_id":"st_cvj6r9ubvosntc0bgbag","pricing_plan_id":"cebpf4jnsgd1na2vs0mg"},{"bike_id":"45fa53af-1633-4bb2-a1b0-33af8d20a003","system_id":"levelo_inurba_marseille","lat":43.25896,"lon":5.39907,"is_reserved":false,"is_disabled":false,"rental_uris":{"android":"levelo://app?vid=45fa53af-1633-4bb2-a1b0-33af8d20a003","ios":"levelo://app?vid=45fa53af-1633-4bb2-a1b0-33af8d20a003"},"vehicle_type_id":"4","last_reported":1743855425,"current_range_meters":16400,"station_id":"ce4bhl92rcd13ifvqghg","pricing_plan_id":"cebpf4jnsgd1na2vs0mg"},{"bike_id":"ceba594e-ff69-4140-828e-f8a961103e51","system_id":"levelo_inurba_marseille","lat":43.24177,"lon":5.36393,"is_reserved":false,"is_disabled":false,"rental_uris":{"android":"levelo://app?vid=ceba594e-ff69-4140-828e-f8a961103e51","ios":"levelo://app?vid=ceba594e-ff69-4140-828e-f8a961103e51"},"vehicle_type_id":"4","last_reported":1743855425,"current_range_meters":16400,"station_id":"cpo36qri1sfpv3e86is0","pricing_plan_id":"cebpf4jnsgd1na2vs0mg"},{"bike_id":"7fd0635d-68ad-4ce6-a52b-daef56987b4b","system_id":"levelo_inurba_marseille","lat":43.30895,"lon":5.38582,"is_reserved":false,"is_disabled":false,"rental_uris":{"android":"levelo://app?vid=7fd0635d-68ad-4ce6-a52b-daef56987b4b","ios":"levelo://app?vid=7fd0635d-68ad-4ce6-a52b-daef56987b4b"},"vehicle_type_id":"4","last_reported":1743855425,"current_range_meters":16400,"station_id":"","pricing_plan_id":"cebpf4jnsgd1na2vs0mg"},{"bike_id":"136b6e45-ee21-453e-aa22-e07947db9071","system_id":"levelo_inurba_marseille","lat":43.23147,"lon":5.43689,"is_reserved":false,"is_disabled":true,"rental_uris":{"android":"levelo://app?vid=136b6e45-ee21-453e-aa22-e07947db9071","ios":"levelo://app?vid=136b6e45-ee21-453e-aa22-e07947db9071"},"vehicle_type_id":"4","last_reported":1743855425,"current_range_meters":16400,"station_id":"ce4bhmp2rcd13ifvqgog","pricing_plan_id":"cebpf4jnsgd1na2vs0mg"},{"bike_id":"8cb80d50-050e-46de-b5a8-420d1647da48","system_id":"levelo_inurba_marseille","lat":43.29973,"lon":5.38494,"is_reserved":false,"is_disabled":false,"rental_uris":{"android":"levelo://app?vid=8cb80d50-050e-46de-b5a8-420d1647da48","ios":"levelo://app?vid=8cb80d50-050e-46de-b5a8-420d1647da48"},"vehicle_type_id":"4","last_reported":1743855425,"current_range_meters":16800,"station_id":"ce4bgj92rcd13ifvqbd0","pricing_plan_id":"cebpf4jnsgd1na2vs0mg"},{"bike_id":"64723ed1-d23d-4a0d-a2d0-b3af72b7c6d2","system_id":"levelo_inurba_marseille","lat":43.281579,"lon":5.426423,"is_reserved":false,"is_disabled":false,"rental_uris":{"android":"levelo://app?vid=64723ed1-d23d-4a0d-a2d0-b3af72b7c6d2","ios":"levelo://app?vid=64723ed1-d23d-4a0d-a2d0-b3af72b7c6d2"},"vehicle_type_id":"4","last_reported":1743855425,"current_range_meters":16800,"station_id":"ce4bhnh2rcd13ifvqgug","pricing_plan_id":"cebpf4jnsgd1na2vs0mg"},{"bike_id":"48f34db2-aab2-4981-a580-0410c97a4408","system_id":"levelo_inurba_marseille","lat":43.21751,"lon":5.34604,"is_reserved":false,"is_disabled":false,"rental_uris":{"android":"levelo://app?vid=48f34db2-aab2-4981-a580-0410c97a4408","ios":"levelo://app?vid=48f34db2-aab2-4981-a580-0410c97a4408"},"vehicle_type_id":"4","last_reported":1743855425,"current_range_meters":16800,"station_id":"st_cvj6r9ubvosntc0bgbag","pricing_plan_id":"cebpf4jnsgd1na2vs0mg"},{"bike_id":"20682287-de1b-43a1-b632-cac564c6dcb0","system_id":"levelo_inurba_marseille","lat":43.23194,"lon":5.35557,"is_reserved":false,"is_disabled":false,"rental_uris":{"android":"levelo://app?vid=20682287-de1b-43a1-b632-cac564c6dcb0","ios":"levelo://app?vid=20682287-de1b-43a1-b632-cac564c6dcb0"},"vehicle_type_id":"4","last_reported":1743855425,"current_range_meters":16800,"station_id":"ce4bhu92rcd13ifvqi70","pricing_plan_id":"cebpf4jnsgd1na2vs0mg"},{"bike_id":"481b54e5-7c7b-4960-8d22-2ce465827bed","system_id":"levelo_inurba_marseille","lat":43.22935,"lon":5.35378,"is_reserved":false,"is_disabled":false,"rental_uris":{"android":"levelo://app?vid=481b54e5-7c7b-4960-8d22-2ce465827bed","ios":"levelo://app?vid=481b54e5-7c7b-4960-8d22-2ce465827bed"},"vehicle_type_id":"4","last_reported":1743855425,"current_range_meters":16800,"station_id":"cpo3532slgdg3j2ikp40","pricing_plan_id":"cebpf4jnsgd1na2vs0mg"},{"bike_id":"da2a69fd-03af-4c48-a325-65e5eb20c4be","system_id":"levelo_inurba_marseille","lat":43.28415,"lon":5.34994,"is_reserved":false,"is_disabled":false,"rental_uris":{"android":"levelo://app?vid=da2a69fd-03af-4c48-a325-65e5eb20c4be","ios":"levelo://app?vid=da2a69fd-03af-4c48-a325-65e5eb20c4be"},"vehicle_type_id":"4","last_reported":1743855425,"current_range_meters":16800,"station_id":"ce4bhbh2rcd13ifvqepg","pricing_plan_id":"cebpf4jnsgd1na2vs0mg"},{"bike_id":"05cc871c-9671-4837-80ad-d51122b4d144","system_id":"levelo_inurba_marseille","lat":43.23153,"lon":5.43727,"is_reserved":false,"is_disabled":false,"rental_uris":{"android":"levelo://app?vid=05cc871c-9671-4837-80ad-d51122b4d144","ios":"levelo://app?vid=05cc871c-9671-4837-80ad-d51122b4d144"},"vehicle_type_id":"4","last_reported":1743855425,"current_range_meters":16400,"station_id":"ce4bhmp2rcd13ifvqgog","pricing_plan_id":"cebpf4jnsgd1na2vs0mg"},{"bike_id":"0809734c-a88f-4191-acf5-fa1ae0b49053","system_id":"levelo_inurba_marseille","lat":43.29833,"lon":5.38111,"is_reserved":false,"is_disabled":false,"rental_uris":{"android":"levelo://app?vid=0809734c-a88f-4191-acf5-fa1ae0b49053","ios":"levelo://app?vid=0809734c-a88f-4191-acf5-fa1ae0b49053"},"vehicle_type_id":"4","last_reported":1743855425,"current_range_meters":17200,"station_id":"ce4bgip2rcd13ifvqbb0","pricing_plan_id":"cebpf4jnsgd1na2vs0mg"},{"bike_id":"b8f1e811-5bd5-4dcb-b6f2-11e076363b32","system_id":"levelo_inurba_marseille","lat":43.3094,"lon":5.40146,"is_reserved":false,"is_disabled":false,"rental_uris":{"android":"levelo://app?vid=b8f1e811-5bd5-4dcb-b6f2-11e076363b32","ios":"levelo://app?vid=b8f1e811-5bd5-4dcb-b6f2-11e076363b32"},"vehicle_type_id":"4","last_reported":1743855425,"current_range_meters":17200,"station_id":"ce4bgvp2rcd13ifvqct0","pricing_plan_id":"cebpf4jnsgd1na2vs0mg"},{"bike_id":"b7e6191b-df5e-4bca-aab1-bf3adf99f97d","system_id":"levelo_inurba_marseille","lat":43.30601,"lon":5.37221,"is_reserved":false,"is_disabled":false,"rental_uris":{"android":"levelo://app?vid=b7e6191b-df5e-4bca-aab1-bf3adf99f97d","ios":"levelo://app?vid=b7e6191b-df5e-4bca-aab1-bf3adf99f97d"},"vehicle_type_id":"4","last_reported":1743855425,"current_range_meters":17200,"station_id":"ce4bgqh2rcd13ifvqc4g","pricing_plan_id":"cebpf4jnsgd1na2vs0mg"},{"bike_id":"36f6fa25-615d-4e6f-b8bf-9bb620854e1b","system_id":"levelo_inurba_marseille","lat":43.31731,"lon":5.424,"is_reserved":false,"is_disabled":false,"rental_uris":{"android":"levelo://app?vid=36f6fa25-615d-4e6f-b8bf-9bb620854e1b","ios":"levelo://app?vid=36f6fa25-615d-4e6f-b8bf-9bb620854e1b"},"vehicle_type_id":"4","last_reported":1743855425,"current_range_meters":17200,"station_id":"ce4bhp92rcd13ifvqhbg","pricing_plan_id":"cebpf4jnsgd1na2vs0mg"},{"bike_id":"12608769-11a8-452d-82b2-44e933fceac8","system_id":"levelo_inurba_marseille","lat":43.27178,"lon":5.40994,"is_reserved":false,"is_disabled":false,"rental_uris":{"android":"levelo://app?vid=12608769-11a8-452d-82b2-44e933fceac8","ios":"levelo://app?vid=12608769-11a8-452d-82b2-44e933fceac8"},"vehicle_type_id":"4","last_reported":1743855425,"current_range_meters":17200,"station_id":"ce4bhl12rcd13ifvqgf0","pricing_plan_id":"cebpf4jnsgd1na2vs0mg"},{"bike_id":"6bf0d690-a3f2-4ea0-b4d5-e4fa7f134a82","system_id":"levelo_inurba_marseille","lat":43.29005,"lon":5.35602,"is_reserved":false,"is_disabled":false,"rental_uris":{"android":"levelo://app?vid=6bf0d690-a3f2-4ea0-b4d5-e4fa7f134a82","ios":"levelo://app?vid=6bf0d690-a3f2-4ea0-b4d5-e4fa7f134a82"},"vehicle_type_id":"4","last_reported":1743855425,"current_range_meters":17200,"station_id":"ce4bhb92rcd13ifvqen0","pricing_plan_id":"cebpf4jnsgd1na2vs0mg"},{"bike_id":"5b8d1103-1921-4c53-912e-93d122cd3cdc","system_id":"levelo_inurba_marseille","lat":43.24414,"lon":5.37067,"is_reserved":false,"is_disabled":true,"rental_uris":{"android":"levelo://app?vid=5b8d1103-1921-4c53-912e-93d122cd3cdc","ios":"levelo://app?vid=5b8d1103-1921-4c53-912e-93d122cd3cdc"},"vehicle_type_id":"4","last_reported":1743855425,"current_range_meters":17200,"station_id":"ce4bhhh2rcd13ifvqfk0","pricing_plan_id":"cebpf4jnsgd1na2vs0mg"},{"bike_id":"a409c3f0-8991-4228-afb5-57b19bb06658","system_id":"levelo_inurba_marseille","lat":43.32371,"lon":5.38896,"is_reserved":false,"is_disabled":false,"rental_uris":{"android":"levelo://app?vid=a409c3f0-8991-4228-afb5-57b19bb06658","ios":"levelo://app?vid=a409c3f0-8991-4228-afb5-57b19bb06658"},"vehicle_type_id":"4","last_reported":1743855425,"current_range_meters":17600,"station_id":"ce4bhqp2rcd13ifvqhog","pricing_plan_id":"cebpf4jnsgd1na2vs0mg"},{"bike_id":"8f2b15fd-7b43-4128-a2f6-d3bbd734a3eb","system_id":"levelo_inurba_marseille","lat":43.28618,"lon":5.35104,"is_reserved":false,"is_disabled":false,"rental_uris":{"android":"levelo://app?vid=8f2b15fd-7b43-4128-a2f6-d3bbd734a3eb","ios":"levelo://app?vid=8f2b15fd-7b43-4128-a2f6-d3bbd734a3eb"},"vehicle_type_id":"4","last_reported":1743855425,"current_range_meters":17600,"station_id":"ce4bhch2rcd13ifvqeug","pricing_plan_id":"cebpf4jnsgd1na2vs0mg"},{"bike_id":"c6b76f88-12a0-4f85-9d7f-afefcca3170b","system_id":"levelo_inurba_marseille","lat":43.21753,"lon":5.34603,"is_reserved":false,"is_disabled":false,"rental_uris":{"android":"levelo://app?vid=c6b76f88-12a0-4f85-9d7f-afefcca3170b","ios":"levelo://app?vid=c6b76f88-12a0-4f85-9d7f-afefcca3170b"},"vehicle_type_id":"4","last_reported":1743855425,"current_range_meters":17600,"station_id":"st_cvj6r9ubvosntc0bgbag","pricing_plan_id":"cebpf4jnsgd1na2vs0mg"},{"bike_id":"66fb712e-497f-40ac-a660-03c06702c53b","system_id":"levelo_inurba_marseille","lat":43.24393,"lon":5.37051,"is_reserved":false,"is_disabled":false,"rental_uris":{"android":"levelo://app?vid=66fb712e-497f-40ac-a660-03c06702c53b","ios":"levelo://app?vid=66fb712e-497f-40ac-a660-03c06702c53b"},"vehicle_type_id":"4","last_reported":1743855425,"current_range_meters":17600,"station_id":"ce4bhhh2rcd13ifvqfk0","pricing_plan_id":"cebpf4jnsgd1na2vs0mg"},{"bike_id":"5924ceb5-8879-4174-aee5-36f5b894b2fe","system_id":"levelo_inurba_marseille","lat":43.23186,"lon":5.39996,"is_reserved":false,"is_disabled":false,"rental_uris":{"android":"levelo://app?vid=5924ceb5-8879-4174-aee5-36f5b894b2fe","ios":"levelo://app?vid=5924ceb5-8879-4174-aee5-36f5b894b2fe"},"vehicle_type_id":"4","last_reported":1743855425,"current_range_meters":17600,"station_id":"ce4bhn12rcd13ifvqgqg","pricing_plan_id":"cebpf4jnsgd1na2vs0mg"},{"bike_id":"99c435d9-9cee-4e49-838c-4b92bd1e6586","system_id":"levelo_inurba_marseille","lat":43.28266,"lon":5.35069,"is_reserved":false,"is_disabled":false,"rental_uris":{"android":"levelo://app?vid=99c435d9-9cee-4e49-838c-4b92bd1e6586","ios":"levelo://app?vid=99c435d9-9cee-4e49-838c-4b92bd1e6586"},"vehicle_type_id":"4","last_reported":1743855425,"current_range_meters":17600,"station_id":"ce4bhbp2rcd13ifvqerg","pricing_plan_id":"cebpf4jnsgd1na2vs0mg"},{"bike_id":"39f686d1-f6e1-424a-b4fa-e188b9c4f1e4","system_id":"levelo_inurba_marseille","lat":43.23066,"lon":5.35515,"is_reserved":false,"is_disabled":false,"rental_uris":{"android":"levelo://app?vid=39f686d1-f6e1-424a-b4fa-e188b9c4f1e4","ios":"levelo://app?vid=39f686d1-f6e1-424a-b4fa-e188b9c4f1e4"},"vehicle_type_id":"4","last_reported":1743855425,"current_range_meters":17600,"station_id":"cpo3342slgdg3j2ifvpg","pricing_plan_id":"cebpf4jnsgd1na2vs0mg"},{"bike_id":"edd1af41-2e34-41f2-a30e-bba77e91ec4d","system_id":"levelo_inurba_marseille","lat":43.28619,"lon":5.35107,"is_reserved":false,"is_disabled":false,"rental_uris":{"android":"levelo://app?vid=edd1af41-2e34-41f2-a30e-bba77e91ec4d","ios":"levelo://app?vid=edd1af41-2e34-41f2-a30e-bba77e91ec4d"},"vehicle_type_id":"4","last_reported":1743855425,"current_range_meters":17600,"station_id":"ce4bhch2rcd13ifvqeug","pricing_plan_id":"cebpf4jnsgd1na2vs0mg"},{"bike_id":"783bd0dc-3921-48f1-a739-9c3f36aa0794","system_id":"levelo_inurba_marseille","lat":43.292716,"lon":5.368434,"is_reserved":false,"is_disabled":false,"rental_uris":{"android":"levelo://app?vid=783bd0dc-3921-48f1-a739-9c3f36aa0794","ios":"levelo://app?vid=783bd0dc-3921-48f1-a739-9c3f36aa0794"},"vehicle_type_id":"4","last_reported":1743855425,"current_range_meters":17600,"station_id":"ce4bhbp2rcd13ifvqesg","pricing_plan_id":"cebpf4jnsgd1na2vs0mg"},{"bike_id":"e94f04de-fbfe-4bdf-a331-42d82e1c70cd","system_id":"levelo_inurba_marseille","lat":43.28267,"lon":5.35067,"is_reserved":false,"is_disabled":false,"rental_uris":{"android":"levelo://app?vid=e94f04de-fbfe-4bdf-a331-42d82e1c70cd","ios":"levelo://app?vid=e94f04de-fbfe-4bdf-a331-42d82e1c70cd"},"vehicle_type_id":"4","last_reported":1743855425,"current_range_meters":17600,"station_id":"ce4bhbp2rcd13ifvqerg","pricing_plan_id":"cebpf4jnsgd1na2vs0mg"},{"bike_id":"f7e3b8fa-9062-4469-bcee-58c5aa5cfb6e","system_id":"levelo_inurba_marseille","lat":43.2954,"lon":5.38525,"is_reserved":false,"is_disabled":true,"rental_uris":{"android":"levelo://app?vid=f7e3b8fa-9062-4469-bcee-58c5aa5cfb6e","ios":"levelo://app?vid=f7e3b8fa-9062-4469-bcee-58c5aa5cfb6e"},"vehicle_type_id":"4","last_reported":1743855425,"current_range_meters":17600,"station_id":"ce4bgih2rcd13ifvqba0","pricing_plan_id":"cebpf4jnsgd1na2vs0mg"},{"bike_id":"859dd519-23f7-4fa4-be78-c592169babc6","system_id":"levelo_inurba_marseille","lat":43.28155,"lon":5.42654,"is_reserved":false,"is_disabled":false,"rental_uris":{"android":"levelo://app?vid=859dd519-23f7-4fa4-be78-c592169babc6","ios":"levelo://app?vid=859dd519-23f7-4fa4-be78-c592169babc6"},"vehicle_type_id":"4","last_reported":1743855425,"current_range_meters":17600,"station_id":"ce4bhnh2rcd13ifvqgug","pricing_plan_id":"cebpf4jnsgd1na2vs0mg"},{"bike_id":"8531f5d2-ec8c-49ba-9296-c719d99df2cd","system_id":"levelo_inurba_marseille","lat":43.2293,"lon":5.35381,"is_reserved":false,"is_disabled":false,"rental_uris":{"android":"levelo://app?vid=8531f5d2-ec8c-49ba-9296-c719d99df2cd","ios":"levelo://app?vid=8531f5d2-ec8c-49ba-9296-c719d99df2cd"},"vehicle_type_id":"4","last_reported":1743855425,"current_range_meters":18000,"station_id":"cpo3532slgdg3j2ikp40","pricing_plan_id":"cebpf4jnsgd1na2vs0mg"},{"bike_id":"d6c3d7f4-760c-422c-8667-25e15a7934b3","system_id":"levelo_inurba_marseille","lat":43.30793,"lon":5.37451,"is_reserved":false,"is_disabled":false,"rental_uris":{"android":"levelo://app?vid=d6c3d7f4-760c-422c-8667-25e15a7934b3","ios":"levelo://app?vid=d6c3d7f4-760c-422c-8667-25e15a7934b3"},"vehicle_type_id":"4","last_reported":1743855425,"current_range_meters":18000,"station_id":"","pricing_plan_id":"cebpf4jnsgd1na2vs0mg"},{"bike_id":"760e1cf6-5283-4664-9332-ad1887720b36","system_id":"levelo_inurba_marseille","lat":43.30158,"lon":5.38098,"is_reserved":false,"is_disabled":false,"rental_uris":{"android":"levelo://app?vid=760e1cf6-5283-4664-9332-ad1887720b36","ios":"levelo://app?vid=760e1cf6-5283-4664-9332-ad1887720b36"},"vehicle_type_id":"4","last_reported":1743855425,"current_range_meters":18000,"station_id":"ce4bho12rcd13ifvqh1g","pricing_plan_id":"cebpf4jnsgd1na2vs0mg"},{"bike_id":"a329e9f4-d2a6-4a62-978d-b25ffb56a940","system_id":"levelo_inurba_marseille","lat":43.3038,"lon":5.4248,"is_reserved":false,"is_disabled":false,"rental_uris":{"android":"levelo://app?vid=a329e9f4-d2a6-4a62-978d-b25ffb56a940","ios":"levelo://app?vid=a329e9f4-d2a6-4a62-978d-b25ffb56a940"},"vehicle_type_id":"4","last_reported":1743855425,"current_range_meters":18000,"station_id":"ce4bhoh2rcd13ifvqh6g","pricing_plan_id":"cebpf4jnsgd1na2vs0mg"},{"bike_id":"40a621c0-90fc-49e7-b4b6-60f8184e982f","system_id":"levelo_inurba_marseille","lat":43.32294,"lon":5.38302,"is_reserved":false,"is_disabled":false,"rental_uris":{"android":"levelo://app?vid=40a621c0-90fc-49e7-b4b6-60f8184e982f","ios":"levelo://app?vid=40a621c0-90fc-49e7-b4b6-60f8184e982f"},"vehicle_type_id":"4","last_reported":1743855425,"current_range_meters":18000,"station_id":"ce4bhr12rcd13ifvqhqg","pricing_plan_id":"cebpf4jnsgd1na2vs0mg"},{"bike_id":"772d9e3c-48b4-4bb6-9a76-6b61b74a32a9","system_id":"levelo_inurba_marseille","lat":43.295704,"lon":5.399619,"is_reserved":false,"is_disabled":true,"rental_uris":{"android":"levelo://app?vid=772d9e3c-48b4-4bb6-9a76-6b61b74a32a9","ios":"levelo://app?vid=772d9e3c-48b4-4bb6-9a76-6b61b74a32a9"},"vehicle_type_id":"4","last_reported":1743855425,"current_range_meters":18000,"station_id":"ce4bh312rcd13ifvqdj0","pricing_plan_id":"cebpf4jnsgd1na2vs0mg"},{"bike_id":"94be6dc8-5de8-4cdb-966c-877ef0523824","system_id":"levelo_inurba_marseille","lat":43.22535,"lon":5.34763,"is_reserved":false,"is_disabled":false,"rental_uris":{"android":"levelo://app?vid=94be6dc8-5de8-4cdb-966c-877ef0523824","ios":"levelo://app?vid=94be6dc8-5de8-4cdb-966c-877ef0523824"},"vehicle_type_id":"4","last_reported":1743855425,"current_range_meters":18000,"station_id":"st_cvj5dfep6f1abm77gieg","pricing_plan_id":"cebpf4jnsgd1na2vs0mg"},{"bike_id":"908cf791-7a95-4b19-87db-6ab531dc84b6","system_id":"levelo_inurba_marseille","lat":43.21757,"lon":5.34608,"is_reserved":false,"is_disabled":false,"rental_uris":{"android":"levelo://app?vid=908cf791-7a95-4b19-87db-6ab531dc84b6","ios":"levelo://app?vid=908cf791-7a95-4b19-87db-6ab531dc84b6"},"vehicle_type_id":"4","last_reported":1743855425,"current_range_meters":18000,"station_id":"st_cvj6r9ubvosntc0bgbag","pricing_plan_id":"cebpf4jnsgd1na2vs0mg"},{"bike_id":"7efd7665-7f41-44e3-8765-f5dacf8fac1b","system_id":"levelo_inurba_marseille","lat":43.33718,"lon":5.39189,"is_reserved":false,"is_disabled":false,"rental_uris":{"android":"levelo://app?vid=7efd7665-7f41-44e3-8765-f5dacf8fac1b","ios":"levelo://app?vid=7efd7665-7f41-44e3-8765-f5dacf8fac1b"},"vehicle_type_id":"4","last_reported":1743855425,"current_range_meters":18000,"station_id":"","pricing_plan_id":"cebpf4jnsgd1na2vs0mg"},{"bike_id":"05e87de0-985a-44d6-8b79-5b0bfa94f5f9","system_id":"levelo_inurba_marseille","lat":43.24396,"lon":5.37067,"is_reserved":false,"is_disabled":false,"rental_uris":{"android":"levelo://app?vid=05e87de0-985a-44d6-8b79-5b0bfa94f5f9","ios":"levelo://app?vid=05e87de0-985a-44d6-8b79-5b0bfa94f5f9"},"vehicle_type_id":"4","last_reported":1743855425,"current_range_meters":18000,"station_id":"ce4bhhh2rcd13ifvqfk0","pricing_plan_id":"cebpf4jnsgd1na2vs0mg"},{"bike_id":"2d1bdf65-b51e-44a7-ba18-a71e96e83af5","system_id":"levelo_inurba_marseille","lat":43.30724,"lon":5.42431,"is_reserved":false,"is_disabled":false,"rental_uris":{"android":"levelo://app?vid=2d1bdf65-b51e-44a7-ba18-a71e96e83af5","ios":"levelo://app?vid=2d1bdf65-b51e-44a7-ba18-a71e96e83af5"},"vehicle_type_id":"4","last_reported":1743855425,"current_range_meters":18800,"station_id":"st_cvj6ca6bvosntc0bfgr0","pricing_plan_id":"cebpf4jnsgd1na2vs0mg"},{"bike_id":"873b9cb9-411d-441c-81fa-204f209e04e7","system_id":"levelo_inurba_marseille","lat":43.30833,"lon":5.37401,"is_reserved":false,"is_disabled":false,"rental_uris":{"android":"levelo://app?vid=873b9cb9-411d-441c-81fa-204f209e04e7","ios":"levelo://app?vid=873b9cb9-411d-441c-81fa-204f209e04e7"},"vehicle_type_id":"4","last_reported":1743855425,"current_range_meters":18800,"station_id":"","pricing_plan_id":"cebpf4jnsgd1na2vs0mg"},{"bike_id":"c1c48b18-dc57-455b-811c-bedfc90cd176","system_id":"levelo_inurba_marseille","lat":43.24808,"lon":5.3745,"is_reserved":false,"is_disabled":false,"rental_uris":{"android":"levelo://app?vid=c1c48b18-dc57-455b-811c-bedfc90cd176","ios":"levelo://app?vid=c1c48b18-dc57-455b-811c-bedfc90cd176"},"vehicle_type_id":"4","last_reported":1743855425,"current_range_meters":18800,"station_id":"ce4bhgh2rcd13ifvqfb0","pricing_plan_id":"cebpf4jnsgd1na2vs0mg"},{"bike_id":"b01f2b6c-7fe9-48f0-afe1-7f525943b944","system_id":"levelo_inurba_marseille","lat":43.26207,"lon":5.3793,"is_reserved":false,"is_disabled":false,"rental_uris":{"android":"levelo://app?vid=b01f2b6c-7fe9-48f0-afe1-7f525943b944","ios":"levelo://app?vid=b01f2b6c-7fe9-48f0-afe1-7f525943b944"},"vehicle_type_id":"4","last_reported":1743855425,"current_range_meters":18800,"station_id":"ce4bhjp2rcd13ifvqg90","pricing_plan_id":"cebpf4jnsgd1na2vs0mg"},{"bike_id":"4a34b474-0abd-46ef-abf1-362eda88b2db","system_id":"levelo_inurba_marseille","lat":43.22934,"lon":5.35378,"is_reserved":false,"is_disabled":false,"rental_uris":{"android":"levelo://app?vid=4a34b474-0abd-46ef-abf1-362eda88b2db","ios":"levelo://app?vid=4a34b474-0abd-46ef-abf1-362eda88b2db"},"vehicle_type_id":"4","last_reported":1743855425,"current_range_meters":18800,"station_id":"cpo3532slgdg3j2ikp40","pricing_plan_id":"cebpf4jnsgd1na2vs0mg"},{"bike_id":"59a9cff4-c5df-4dda-acff-ce7619fb69ec","system_id":"levelo_inurba_marseille","lat":43.25116,"lon":5.40337,"is_reserved":false,"is_disabled":false,"rental_uris":{"android":"levelo://app?vid=59a9cff4-c5df-4dda-acff-ce7619fb69ec","ios":"levelo://app?vid=59a9cff4-c5df-4dda-acff-ce7619fb69ec"},"vehicle_type_id":"4","last_reported":1743855425,"current_range_meters":18800,"station_id":"ce4bhlh2rcd13ifvqgig","pricing_plan_id":"cebpf4jnsgd1na2vs0mg"},{"bike_id":"61b4d998-96cf-4cfa-9d87-bc8527c136ca","system_id":"levelo_inurba_marseille","lat":43.28838,"lon":5.39328,"is_reserved":false,"is_disabled":false,"rental_uris":{"android":"levelo://app?vid=61b4d998-96cf-4cfa-9d87-bc8527c136ca","ios":"levelo://app?vid=61b4d998-96cf-4cfa-9d87-bc8527c136ca"},"vehicle_type_id":"4","last_reported":1743855425,"current_range_meters":18800,"station_id":"ce4bh2p2rcd13ifvqdi0","pricing_plan_id":"cebpf4jnsgd1na2vs0mg"},{"bike_id":"c7010df8-a7d1-42c8-979b-aab69f7bf994","system_id":"levelo_inurba_marseille","lat":43.30142,"lon":5.39869,"is_reserved":false,"is_disabled":false,"rental_uris":{"android":"levelo://app?vid=c7010df8-a7d1-42c8-979b-aab69f7bf994","ios":"levelo://app?vid=c7010df8-a7d1-42c8-979b-aab69f7bf994"},"vehicle_type_id":"4","last_reported":1743855425,"current_range_meters":18800,"station_id":"ce4bh0h2rcd13ifvqd40","pricing_plan_id":"cebpf4jnsgd1na2vs0mg"},{"bike_id":"9f6f012a-0d53-4cf7-a664-f80eb0c60e65","system_id":"levelo_inurba_marseille","lat":43.24166,"lon":5.36393,"is_reserved":false,"is_disabled":false,"rental_uris":{"android":"levelo://app?vid=9f6f012a-0d53-4cf7-a664-f80eb0c60e65","ios":"levelo://app?vid=9f6f012a-0d53-4cf7-a664-f80eb0c60e65"},"vehicle_type_id":"4","last_reported":1743855425,"current_range_meters":18800,"station_id":"cpo36qri1sfpv3e86is0","pricing_plan_id":"cebpf4jnsgd1na2vs0mg"},{"bike_id":"4879cecc-bf46-4e2b-b73b-bdfe6d36706d","system_id":"levelo_inurba_marseille","lat":43.24395,"lon":5.37054,"is_reserved":false,"is_disabled":false,"rental_uris":{"android":"levelo://app?vid=4879cecc-bf46-4e2b-b73b-bdfe6d36706d","ios":"levelo://app?vid=4879cecc-bf46-4e2b-b73b-bdfe6d36706d"},"vehicle_type_id":"4","last_reported":1743855425,"current_range_meters":18800,"station_id":"ce4bhhh2rcd13ifvqfk0","pricing_plan_id":"cebpf4jnsgd1na2vs0mg"},{"bike_id":"cf210dd6-0324-4a9b-ad90-22e0dcfb9d1f","system_id":"levelo_inurba_marseille","lat":43.29595,"lon":5.37712,"is_reserved":false,"is_disabled":false,"rental_uris":{"android":"levelo://app?vid=cf210dd6-0324-4a9b-ad90-22e0dcfb9d1f","ios":"levelo://app?vid=cf210dd6-0324-4a9b-ad90-22e0dcfb9d1f"},"vehicle_type_id":"4","last_reported":1743855425,"current_range_meters":18800,"station_id":"ce4bgi92rcd13ifvqb90","pricing_plan_id":"cebpf4jnsgd1na2vs0mg"},{"bike_id":"c3a2effd-8c3f-4155-b560-64d5a8d6df29","system_id":"levelo_inurba_marseille","lat":43.27384,"lon":5.36254,"is_reserved":false,"is_disabled":false,"rental_uris":{"android":"levelo://app?vid=c3a2effd-8c3f-4155-b560-64d5a8d6df29","ios":"levelo://app?vid=c3a2effd-8c3f-4155-b560-64d5a8d6df29"},"vehicle_type_id":"4","last_reported":1743855425,"current_range_meters":18800,"station_id":"ce4bhbh2rcd13ifvqeo0","pricing_plan_id":"cebpf4jnsgd1na2vs0mg"},{"bike_id":"25680708-ac45-452c-8e44-850a0b9cff0d","system_id":"levelo_inurba_marseille","lat":43.21757,"lon":5.34596,"is_reserved":false,"is_disabled":false,"rental_uris":{"android":"levelo://app?vid=25680708-ac45-452c-8e44-850a0b9cff0d","ios":"levelo://app?vid=25680708-ac45-452c-8e44-850a0b9cff0d"},"vehicle_type_id":"4","last_reported":1743855425,"current_range_meters":19200,"station_id":"st_cvj6r9ubvosntc0bgbag","pricing_plan_id":"cebpf4jnsgd1na2vs0mg"},{"bike_id":"9983fea3-3152-4058-a6ae-20e0e7161b77","system_id":"levelo_inurba_marseille","lat":43.2606,"lon":5.39396,"is_reserved":false,"is_disabled":false,"rental_uris":{"android":"levelo://app?vid=9983fea3-3152-4058-a6ae-20e0e7161b77","ios":"levelo://app?vid=9983fea3-3152-4058-a6ae-20e0e7161b77"},"vehicle_type_id":"4","last_reported":1743855425,"current_range_meters":19200,"station_id":"ce4bhh92rcd13ifvqfj0","pricing_plan_id":"cebpf4jnsgd1na2vs0mg"},{"bike_id":"167e7219-bd63-4482-bea4-e919b10022d3","system_id":"levelo_inurba_marseille","lat":43.29711,"lon":5.36613,"is_reserved":false,"is_disabled":false,"rental_uris":{"android":"levelo://app?vid=167e7219-bd63-4482-bea4-e919b10022d3","ios":"levelo://app?vid=167e7219-bd63-4482-bea4-e919b10022d3"},"vehicle_type_id":"4","last_reported":1743855425,"current_range_meters":19200,"station_id":"ce4bgn12rcd13ifvqbt0","pricing_plan_id":"cebpf4jnsgd1na2vs0mg"},{"bike_id":"1c7726b9-f61d-488d-aad0-a7d8ecd4abfa","system_id":"levelo_inurba_marseille","lat":43.30526,"lon":5.36515,"is_reserved":false,"is_disabled":false,"rental_uris":{"android":"levelo://app?vid=1c7726b9-f61d-488d-aad0-a7d8ecd4abfa","ios":"levelo://app?vid=1c7726b9-f61d-488d-aad0-a7d8ecd4abfa"},"vehicle_type_id":"4","last_reported":1743855425,"current_range_meters":19200,"station_id":"ce4bgs12rcd13ifvqcag","pricing_plan_id":"cebpf4jnsgd1na2vs0mg"},{"bike_id":"a4217832-7555-46d1-ae13-b84486cf3184","system_id":"levelo_inurba_marseille","lat":43.21191,"lon":5.35089,"is_reserved":false,"is_disabled":false,"rental_uris":{"android":"levelo://app?vid=a4217832-7555-46d1-ae13-b84486cf3184","ios":"levelo://app?vid=a4217832-7555-46d1-ae13-b84486cf3184"},"vehicle_type_id":"4","last_reported":1743855425,"current_range_meters":19200,"station_id":"st_cvj6sg6p6f1abm77japg","pricing_plan_id":"cebpf4jnsgd1na2vs0mg"},{"bike_id":"4a1cb96e-3080-483d-924e-26f54c7180d8","system_id":"levelo_inurba_marseille","lat":43.321013,"lon":5.367817,"is_reserved":false,"is_disabled":false,"rental_uris":{"android":"levelo://app?vid=4a1cb96e-3080-483d-924e-26f54c7180d8","ios":"levelo://app?vid=4a1cb96e-3080-483d-924e-26f54c7180d8"},"vehicle_type_id":"4","last_reported":1743855425,"current_range_meters":19200,"station_id":"ce4bhrh2rcd13ifvqhug","pricing_plan_id":"cebpf4jnsgd1na2vs0mg"},{"bike_id":"836624fa-a6a4-4933-a570-6c36714dddc8","system_id":"levelo_inurba_marseille","lat":43.29976,"lon":5.37179,"is_reserved":false,"is_disabled":false,"rental_uris":{"android":"levelo://app?vid=836624fa-a6a4-4933-a570-6c36714dddc8","ios":"levelo://app?vid=836624fa-a6a4-4933-a570-6c36714dddc8"},"vehicle_type_id":"4","last_reported":1743855425,"current_range_meters":18800,"station_id":"ce4bgr92rcd13ifvqc7g","pricing_plan_id":"cebpf4jnsgd1na2vs0mg"},{"bike_id":"9000b3b9-39f1-442e-8f38-0737cad1bf02","system_id":"levelo_inurba_marseille","lat":43.2923,"lon":5.360597,"is_reserved":false,"is_disabled":false,"rental_uris":{"android":"levelo://app?vid=9000b3b9-39f1-442e-8f38-0737cad1bf02","ios":"levelo://app?vid=9000b3b9-39f1-442e-8f38-0737cad1bf02"},"vehicle_type_id":"4","last_reported":1743855425,"current_range_meters":19200,"station_id":"ce4bhbh2rcd13ifvqeqg","pricing_plan_id":"cebpf4jnsgd1na2vs0mg"},