{"last_updated":1678581712,"ttl":30,"version":"2.2","data":{"bikes":[{"bike_id":"395e416d-c9f5-409c-90b5-1cca55cc99fb","system_id":"levelo_inurba_marseille","lat":43.312239,"lon":5.368562,"is_reserved":false,"is_disabled":false,"rental_uris":{"android":"levelo://app?vid=395e416d-c9f5-409c-90b5-1cca55cc99fb","ios":"levelo://app?vid=395e416d-c9f5-409c-90b5-1cca55cc99fb"},"vehicle_type_id":"4","last_reported":1678581712,"current_range_meters":0,"station_id":"ce4bgl92rcd13ifvqbq0","pricing_plan_id":"free"},{"bike_id":"d763bb90-7913-49aa-9b19-c3995755e441","system_id":"levelo_inurba_marseille","lat":43.312239,"lon":5.368562,"is_reserved":false,"is_disabled":false,"rental_uris":{"android":"levelo://app?vid=d763bb90-7913-49aa-9b19-c3995755e441","ios":"levelo://app?vid=d763bb90-7913-49aa-9b19-c3995755e441"},"vehicle_type_id":"4","last_reported":1678581712,"current_range_meters":9600,"station_id":"ce4bgl92rcd13ifvqbq0","pricing_plan_id":"free"},{"bike_id":"2a7d0ee9-06a5-4429-aa40-fd1b7ac74281","system_id":"levelo_inurba_marseille","lat":43.312249,"lon":5.368597,"is_reserved":false,"is_disabled":false,"rental_uris":{"android":"levelo://app?vid=2a7d0ee9-06a5-4429-aa40-fd1b7ac74281","ios":"levelo://app?vid=2a7d0ee9-06a5-4429-aa40-fd1b7ac74281"},"vehicle_type_id":"4","last_reported":1678581712,"current_range_meters":0,"station_id":"ce4bgl92rcd13ifvqbq0","pricing_plan_id":"free"},{"bike_id":"900d7eae-cc1f-446e-8aaf-8d5dfb6b3d17","system_id":"levelo_inurba_marseille","lat":43.30896,"lon":5.36852,"is_reserved":false,"is_disabled":false,"rental_uris":{"android":"levelo://app?vid=900d7eae-cc1f-446e-8aaf-8d5dfb6b3d17","ios":"levelo://app?vid=900d7eae-cc1f-446e-8aaf-8d5dfb6b3d17"},"vehicle_type_id":"4","last_reported":1678581712,"current_range_meters":0,"station_id":"","pricing_plan_id":"free"},{"bike_id":"6332c8c2-1270-42ee-93ee-80d81f7d75dd","system_id":"levelo_inurba_marseille","lat":43.314811,"lon":5.373103,"is_reserved":false,"is_disabled":false,"rental_uris":{"android":"levelo://app?vid=6332c8c2-1270-42ee-93ee-80d81f7d75dd","ios":"levelo://app?vid=6332c8c2-1270-42ee-93ee-80d81f7d75dd"},"vehicle_type_id":"4","last_reported":1678581712,"current_range_meters":19200,"station_id":"ce4bgt12rcd13ifvqcd0","pricing_plan_id":"free"},{"bike_id":"577aece8-267a-40e4-a430-8f27c7182fbe","system_id":"levelo_inurba_marseille","lat":43.314811,"lon":5.373103,"is_reserved":false,"is_disabled":false,"rental_uris":{"android":"levelo://app?vid=577aece8-267a-40e4-a430-8f27c7182fbe","ios":"levelo://app?vid=577aece8-267a-40e4-a430-8f27c7182fbe"},"vehicle_type_id":"4","last_reported":1678581712,"current_range_meters":0,"station_id":"ce4bgt12rcd13ifvqcd0","pricing_plan_id":"free"},{"bike_id":"d16822fd-6890-4298-99ec-652450906e12","system_id":"levelo_inurba_marseille","lat":43.314811,"lon":5.373103,"is_reserved":false,"is_disabled":false,"rental_uris":{"android":"levelo://app?vid=d16822fd-6890-4298-99ec-652450906e12","ios":"levelo://app?vid=d16822fd-6890-4298-99ec-652450906e12"},"vehicle_type_id":"4","last_reported":1678581712,"current_range_meters":13200,"station_id":"ce4bgt12rcd13ifvqcd0","pricing_plan_id":"free"},{"bike_id":"86fba91e-5c02-43be-b20d-5f461908955c","system_id":"levelo_inurba_marseille","lat":43.314811,"lon":5.373103,"is_reserved":false,"is_disabled":false,"rental_uris":{"android":"levelo://app?vid=86fba91e-5c02-43be-b20d-5f461908955c","ios":"levelo://app?vid=86fba91e-5c02-43be-b20d-5f461908955c"},"vehicle_type_id":"4","last_reported":1678581712,"current_range_meters":8800,"station_id":"ce4bgt12rcd13ifvqcd0","pricing_plan_id":"free"},{"bike_id":"531f6d13-b982-446e-a63c-d9b385fe6b2f","system_id":"levelo_inurba_marseille","lat":43.31506,"lon":5.37302,"is_reserved":false,"is_disabled":false,"rental_uris":{"android":"levelo://app?vid=531f6d13-b982-446e-a63c-d9b385fe6b2f","ios":"levelo://app?vid=531f6d13-b982-446e-a63c-d9b385fe6b2f"},"vehicle_type_id":"4","last_reported":1678581712,"current_range_meters":27200,"station_id":"ce4bgt12rcd13ifvqcd0","pricing_plan_id":"free"},{"bike_id":"ccf42d3a-5a2a-44b4-8a68-aa47682ebb3c","system_id":"levelo_inurba_marseille","lat":43.317893,"lon":5.368157,"is_reserved":false,"is_disabled":false,"rental_uris":{"android":"levelo://app?vid=ccf42d3a-5a2a-44b4-8a68-aa47682ebb3c","ios":"levelo://app?vid=ccf42d3a-5a2a-44b4-8a68-aa47682ebb3c"},"vehicle_type_id":"4","last_reported":1678581712,"current_range_meters":12000,"station_id":"","pricing_plan_id":"free"},{"bike_id":"30b4e260-1def-402f-9362-97cd54a1209f","system_id":"levelo_inurba_marseille","lat":43.30899,"lon":5.372043,"is_reserved":false,"is_disabled":false,"rental_uris":{"android":"levelo://app?vid=30b4e260-1def-402f-9362-97cd54a1209f","ios":"levelo://app?vid=30b4e260-1def-402f-9362-97cd54a1209f"},"vehicle_type_id":"4","last_reported":1678581712,"current_range_meters":5200,"station_id":"","pricing_plan_id":"free"},{"bike_id":"f37755c6-a9ed-4dcd-87f0-819547f389ea","system_id":"levelo_inurba_marseille","lat":43.30895,"lon":5.372023,"is_reserved":false,"is_disabled":false,"rental_uris":{"android":"levelo://app?vid=f37755c6-a9ed-4dcd-87f0-819547f389ea","ios":"levelo://app?vid=f37755c6-a9ed-4dcd-87f0-819547f389ea"},"vehicle_type_id":"4","last_reported":1678581712,"current_range_meters":400,"station_id":"","pricing_plan_id":"free"},{"bike_id":"ba292fdd-e2dd-4ed6-ba8d-9082bf42eacd","system_id":"levelo_inurba_marseille","lat":43.30883,"lon":5.37198,"is_reserved":false,"is_disabled":false,"rental_uris":{"android":"levelo://app?vid=ba292fdd-e2dd-4ed6-ba8d-9082bf42eacd","ios":"levelo://app?vid=ba292fdd-e2dd-4ed6-ba8d-9082bf42eacd"},"vehicle_type_id":"4","last_reported":1678581712,"current_range_meters":22800,"station_id":"","pricing_plan_id":"free"},{"bike_id":"acade76b-f932-4eea-9011-f5567115c81c","system_id":"levelo_inurba_marseille","lat":43.305989,"lon":5.37225,"is_reserved":false,"is_disabled":false,"rental_uris":{"android":"levelo://app?vid=acade76b-f932-4eea-9011-f5567115c81c","ios":"levelo://app?vid=acade76b-f932-4eea-9011-f5567115c81c"},"vehicle_type_id":"4","last_reported":1678581712,"current_range_meters":30400,"station_id":"ce4bgqh2rcd13ifvqc4g","pricing_plan_id":"free"},{"bike_id":"48340245-f033-473f-8b5c-d09d4b238592","system_id":"levelo_inurba_marseille","lat":43.305989,"lon":5.37225,"is_reserved":false,"is_disabled":false,"rental_uris":{"android":"levelo://app?vid=48340245-f033-473f-8b5c-d09d4b238592","ios":"levelo://app?vid=48340245-f033-473f-8b5c-d09d4b238592"},"vehicle_type_id":"4","last_reported":1678581712,"current_range_meters":26000,"station_id":"ce4bgqh2rcd13ifvqc4g","pricing_plan_id":"free"},{"bike_id":"123f9f4e-bfd3-4255-aca3-320c84708e89","system_id":"levelo_inurba_marseille","lat":43.305989,"lon":5.37225,"is_reserved":false,"is_disabled":false,"rental_uris":{"android":"levelo://app?vid=123f9f4e-bfd3-4255-aca3-320c84708e89","ios":"levelo://app?vid=123f9f4e-bfd3-4255-aca3-320c84708e89"},"vehicle_type_id":"4","last_reported":1678581712,"current_range_meters":23200,"station_id":"ce4bgqh2rcd13ifvqc4g","pricing_plan_id":"free"},{"bike_id":"1de74b70-5933-4ab2-a964-7df2f49c1417","system_id":"levelo_inurba_marseille","lat":43.305989,"lon":5.37225,"is_reserved":false,"is_disabled":false,"rental_uris":{"android":"levelo://app?vid=1de74b70-5933-4ab2-a964-7df2f49c1417","ios":"levelo://app?vid=1de74b70-5933-4ab2-a964-7df2f49c1417"},"vehicle_type_id":"4","last_reported":1678581712,"current_range_meters":2400,"station_id":"ce4bgqh2rcd13ifvqc4g","pricing_plan_id":"free"},{"bike_id":"cda4997b-e2a3-4e76-ac4d-71e84b36c7eb","system_id":"levelo_inurba_marseille","lat":43.305989,"lon":5.37225,"is_reserved":false,"is_disabled":false,"rental_uris":{"android":"levelo://app?vid=cda4997b-e2a3-4e76-ac4d-71e84b36c7eb","ios":"levelo://app?vid=cda4997b-e2a3-4e76-ac4d-71e84b36c7eb"},"vehicle_type_id":"4","last_reported":1678581712,"current_range_meters":8400,"station_id":"ce4bgqh2rcd13ifvqc4g","pricing_plan_id":"free"},{"bike_id":"4675e939-40c1-4409-99c3-4593d3aafda5","system_id":"levelo_inurba_marseille","lat":43.317075,"lon":5.377367,"is_reserved":false,"is_disabled":false,"rental_uris":{"android":"levelo://app?vid=4675e939-40c1-4409-99c3-4593d3aafda5","ios":"levelo://app?vid=4675e939-40c1-4409-99c3-4593d3aafda5"},"vehicle_type_id":"4","last_reported":1678581712,"current_range_meters":23200,"station_id":"ce4bgth2rcd13ifvqch0","pricing_plan_id":"free"},{"bike_id":"9d8b96d7-235c-46b6-a73c-cb841065a454","system_id":"levelo_inurba_marseille","lat":43.317075,"lon":5.377367,"is_reserved":false,"is_disabled":false,"rental_uris":{"android":"levelo://app?vid=9d8b96d7-235c-46b6-a73c-cb841065a454","ios":"levelo://app?vid=9d8b96d7-235c-46b6-a73c-cb841065a454"},"vehicle_type_id":"4","last_reported":1678581712,"current_range_meters":22000,"station_id":"ce4bgth2rcd13ifvqch0","pricing_plan_id":"free"},{"bike_id":"9c02771f-e498-443a-8c0a-e64df6cd0a64","system_id":"levelo_inurba_marseille","lat":43.317075,"lon":5.377367,"is_reserved":false,"is_disabled":false,"rental_uris":{"android":"levelo://app?vid=9c02771f-e498-443a-8c0a-e64df6cd0a64","ios":"levelo://app?vid=9c02771f-e498-443a-8c0a-e64df6cd0a64"},"vehicle_type_id":"4","last_reported":1678581712,"current_range_meters":28400,"station_id":"ce4bgth2rcd13ifvqch0","pricing_plan_id":"free"},{"bike_id":"19d43ceb-1515-4a32-a36a-0e78f65987c5","system_id":"levelo_inurba_marseille","lat":43.301939,"lon":5.366286,"is_reserved":false,"is_disabled":false,"rental_uris":{"android":"levelo://app?vid=19d43ceb-1515-4a32-a36a-0e78f65987c5","ios":"levelo://app?vid=19d43ceb-1515-4a32-a36a-0e78f65987c5"},"vehicle_type_id":"4","last_reported":1678581712,"current_range_meters":9200,"station_id":"ce4bgrh2rcd13ifvqc8g","pricing_plan_id":"free"},{"bike_id":"eb441bdc-8d8e-4a31-9fec-c966b4e267c9","system_id":"levelo_inurba_marseille","lat":43.301939,"lon":5.366286,"is_reserved":false,"is_disabled":false,"rental_uris":{"android":"levelo://app?vid=eb441bdc-8d8e-4a31-9fec-c966b4e267c9","ios":"levelo://app?vid=eb441bdc-8d8e-4a31-9fec-c966b4e267c9"},"vehicle_type_id":"4","last_reported":1678581712,"current_range_meters":7600,"station_id":"ce4bgrh2rcd13ifvqc8g","pricing_plan_id":"free"},{"bike_id":"4e661f70-2a07-4be3-b2cb-7245fe887a38","system_id":"levelo_inurba_marseille","lat":43.301939,"lon":5.366286,"is_reserved":false,"is_disabled":false,"rental_uris":{"android":"levelo://app?vid=4e661f70-2a07-4be3-b2cb-7245fe887a38","ios":"levelo://app?vid=4e661f70-2a07-4be3-b2cb-7245fe887a38"},"vehicle_type_id":"4","last_reported":1678581712,"current_range_meters":26400,"station_id":"ce4bgrh2rcd13ifvqc8g","pricing_plan_id":"free"},{"bike_id":"3648902a-b589-4dc1-8741-f7f09a99d100","system_id":"levelo_inurba_marseille","lat":43.301939,"lon":5.366286,"is_reserved":false,"is_disabled":false,"rental_uris":{"android":"levelo://app?vid=3648902a-b589-4dc1-8741-f7f09a99d100","ios":"levelo://app?vid=3648902a-b589-4dc1-8741-f7f09a99d100"},"vehicle_type_id":"4","last_reported":1678581712,"current_range_meters":0,"station_id":"ce4bgrh2rcd13ifvqc8g","pricing_plan_id":"free"},{"bike_id":"455f5095-66b6-4008-b60d-0de477d67b58","system_id":"levelo_inurba_marseille","lat":43.308012,"lon":5.381511,"is_reserved":false,"is_disabled":false,"rental_uris":{"android":"levelo://app?vid=455f5095-66b6-4008-b60d-0de477d67b58","ios":"levelo://app?vid=455f5095-66b6-4008-b60d-0de477d67b58"},"vehicle_type_id":"4","last_reported":1678581712,"current_range_meters":0,"station_id":"ce4bgt12rcd13ifvqce0","pricing_plan_id":"free"},{"bike_id":"e9d2d98c-7d64-4391-a3e3-668595b6505f","system_id":"levelo_inurba_marseille","lat":43.30807,"lon":5.38147,"is_reserved":false,"is_disabled":false,"rental_uris":{"android":"levelo://app?vid=e9d2d98c-7d64-4391-a3e3-668595b6505f","ios":"levelo://app?vid=e9d2d98c-7d64-4391-a3e3-668595b6505f"},"vehicle_type_id":"4","last_reported":1678581712,"current_range_meters":22800,"station_id":"ce4bgt12rcd13ifvqce0","pricing_plan_id":"free"},{"bike_id":"0d3ed417-1926-4ca9-9605-bc6c7ddee2a3","system_id":"levelo_inurba_marseille","lat":43.308012,"lon":5.381511,"is_reserved":false,"is_disabled":false,"rental_uris":{"android":"levelo://app?vid=0d3ed417-1926-4ca9-9605-bc6c7ddee2a3","ios":"levelo://app?vid=0d3ed417-1926-4ca9-9605-bc6c7ddee2a3"},"vehicle_type_id":"4","last_reported":1678581712,"current_range_meters":0,"station_id":"ce4bgt12rcd13ifvqce0","pricing_plan_id":"free"},{"bike_id":"a1d832dc-9f73-433f-8539-1a0ee283e121","system_id":"levelo_inurba_marseille","lat":43.308012,"lon":5.381511,"is_reserved":false,"is_disabled":false,"rental_uris":{"android":"levelo://app?vid=a1d832dc-9f73-433f-8539-1a0ee283e121","ios":"levelo://app?vid=a1d832dc-9f73-433f-8539-1a0ee283e121"},"vehicle_type_id":"4","last_reported":1678581712,"current_range_meters":4000,"station_id":"ce4bgt12rcd13ifvqce0","pricing_plan_id":"free"},{"bike_id":"86fee177-0a8e-41b4-9d5a-8a72d4e97d32","system_id":"levelo_inurba_marseille","lat":43.30798,"lon":5.3816,"is_reserved":false,"is_disabled":false,"rental_uris":{"android":"levelo://app?vid=86fee177-0a8e-41b4-9d5a-8a72d4e97d32","ios":"levelo://app?vid=86fee177-0a8e-41b4-9d5a-8a72d4e97d32"},"vehicle_type_id":"4","last_reported":1678581712,"current_range_meters":20400,"station_id":"","pricing_plan_id":"free"},{"bike_id":"b2b65d21-89a4-427b-adad-7ac46e5f3618","system_id":"levelo_inurba_marseille","lat":43.304606,"lon":5.379026,"is_reserved":false,"is_disabled":false,"rental_uris":{"android":"levelo://app?vid=b2b65d21-89a4-427b-adad-7ac46e5f3618","ios":"levelo://app?vid=b2b65d21-89a4-427b-adad-7ac46e5f3618"},"vehicle_type_id":"4","last_reported":1678581712,"current_range_meters":18800,"station_id":"ce4bgup2rcd13ifvqcn0","pricing_plan_id":"free"},{"bike_id":"b378446a-f186-47ec-89f1-890b6597b9dd","system_id":"levelo_inurba_marseille","lat":43.304606,"lon":5.379026,"is_reserved":false,"is_disabled":false,"rental_uris":{"android":"levelo://app?vid=b378446a-f186-47ec-89f1-890b6597b9dd","ios":"levelo://app?vid=b378446a-f186-47ec-89f1-890b6597b9dd"},"vehicle_type_id":"4","last_reported":1678581712,"current_range_meters":24400,"station_id":"ce4bgup2rcd13ifvqcn0","pricing_plan_id":"free"},{"bike_id":"2be96b1a-11bd-46a6-8fef-1a5d2f2764c3","system_id":"levelo_inurba_marseille","lat":43.301429,"lon":5.37413,"is_reserved":false,"is_disabled":false,"rental_uris":{"android":"levelo://app?vid=2be96b1a-11bd-46a6-8fef-1a5d2f2764c3","ios":"levelo://app?vid=2be96b1a-11bd-46a6-8fef-1a5d2f2764c3"},"vehicle_type_id":"4","last_reported":1678581712,"current_range_meters":0,"station_id":"ce4bgs92rcd13ifvqcc0","pricing_plan_id":"free"},{"bike_id":"034d68ea-4b7b-4811-9d35-7e362c42b095","system_id":"levelo_inurba_marseille","lat":43.313571,"lon":5.384829,"is_reserved":false,"is_disabled":false,"rental_uris":{"android":"levelo://app?vid=034d68ea-4b7b-4811-9d35-7e362c42b095","ios":"levelo://app?vid=034d68ea-4b7b-4811-9d35-7e362c42b095"},"vehicle_type_id":"4","last_reported":1678581712,"current_range_meters":12400,"station_id":"ce4bgt92rcd13ifvqcf0","pricing_plan_id":"free"},{"bike_id":"5684b971-e6ce-4b9a-bac6-49685f9cdfc1","system_id":"levelo_inurba_marseille","lat":43.30715,"lon":5.38395,"is_reserved":false,"is_disabled":false,"rental_uris":{"android":"levelo://app?vid=5684b971-e6ce-4b9a-bac6-49685f9cdfc1","ios":"levelo://app?vid=5684b971-e6ce-4b9a-bac6-49685f9cdfc1"},"vehicle_type_id":"4","last_reported":1678581712,"current_range_meters":0,"station_id":"","pricing_plan_id":"free"},{"bike_id":"c3ba4246-2245-4bb8-b6a1-c8d66081702b","system_id":"levelo_inurba_marseille","lat":43.29849,"lon":5.36283,"is_reserved":false,"is_disabled":false,"rental_uris":{"android":"levelo://app?vid=c3ba4246-2245-4bb8-b6a1-c8d66081702b","ios":"levelo://app?vid=c3ba4246-2245-4bb8-b6a1-c8d66081702b"},"vehicle_type_id":"4","last_reported":1678581712,"current_range_meters":0,"station_id":"ce4bgpp2rcd13ifvqc3g","pricing_plan_id":"free"},{"bike_id":"57000c82-80f4-462e-a6a9-081acb00b04e","system_id":"levelo_inurba_marseille","lat":43.305364,"lon":5.384119,"is_reserved":false,"is_disabled":false,"rental_uris":{"android":"levelo://app?vid=57000c82-80f4-462e-a6a9-081acb00b04e","ios":"levelo://app?vid=57000c82-80f4-462e-a6a9-081acb00b04e"},"vehicle_type_id":"4","last_reported":1678581712,"current_range_meters":13600,"station_id":"ce4bgg92rcd13ifvqb30","pricing_plan_id":"free"},{"bike_id":"2a48c56d-2c3d-4ac2-991a-3e2a8564d6b2","system_id":"levelo_inurba_marseille","lat":43.305364,"lon":5.384119,"is_reserved":false,"is_disabled":false,"rental_uris":{"android":"levelo://app?vid=2a48c56d-2c3d-4ac2-991a-3e2a8564d6b2","ios":"levelo://app?vid=2a48c56d-2c3d-4ac2-991a-3e2a8564d6b2"},"vehicle_type_id":"4","last_reported":1678581712,"current_range_meters":0,"station_id":"ce4bgg92rcd13ifvqb30","pricing_plan_id":"free"},{"bike_id":"063f9931-7715-4f5e-84b0-12495cf833d4","system_id":"levelo_inurba_marseille","lat":43.311722,"lon":5.387247,"is_reserved":false,"is_disabled":false,"rental_uris":{"android":"levelo://app?vid=063f9931-7715-4f5e-84b0-12495cf833d4","ios":"levelo://app?vid=063f9931-7715-4f5e-84b0-12495cf833d4"},"vehicle_type_id":"4","last_reported":1678581712,"current_range_meters":19200,"station_id":"ce4bgv12rcd13ifvqcp0","pricing_plan_id":"free"},{"bike_id":"a0867018-6a23-4329-a234-0007da8b3d19","system_id":"levelo_inurba_marseille","lat":43.311722,"lon":5.387247,"is_reserved":false,"is_disabled":false,"rental_uris":{"android":"levelo://app?vid=a0867018-6a23-4329-a234-0007da8b3d19","ios":"levelo://app?vid=a0867018-6a23-4329-a234-0007da8b3d19"},"vehicle_type_id":"4","last_reported":1678581712,"current_range_meters":25200,"station_id":"ce4bgv12rcd13ifvqcp0","pricing_plan_id":"free"},{"bike_id":"22ebd2a6-f80f-4c38-ada3-263028153afb","system_id":"levelo_inurba_marseille","lat":43.328371,"lon":5.366912,"is_reserved":false,"is_disabled":false,"rental_uris":{"android":"levelo://app?vid=22ebd2a6-f80f-4c38-ada3-263028153afb","ios":"levelo://app?vid=22ebd2a6-f80f-4c38-ada3-263028153afb"},"vehicle_type_id":"4","last_reported":1678581712,"current_range_meters":28000,"station_id":"ce4bhs92rcd13ifvqi0g","pricing_plan_id":"free"},{"bike_id":"70db027b-5957-4c3d-a2f9-a8a4d79b8eac","system_id":"levelo_inurba_marseille","lat":43.328371,"lon":5.366909,"is_reserved":false,"is_disabled":false,"rental_uris":{"android":"levelo://app?vid=70db027b-5957-4c3d-a2f9-a8a4d79b8eac","ios":"levelo://app?vid=70db027b-5957-4c3d-a2f9-a8a4d79b8eac"},"vehicle_type_id":"4","last_reported":1678581712,"current_range_meters":3600,"station_id":"ce4bhs92rcd13ifvqi0g","pricing_plan_id":"free"},{"bike_id":"c96f2d64-10b9-4826-93b5-7efc32bb0caf","system_id":"levelo_inurba_marseille","lat":43.328371,"lon":5.366909,"is_reserved":false,"is_disabled":false,"rental_uris":{"android":"levelo://app?vid=c96f2d64-10b9-4826-93b5-7efc32bb0caf","ios":"levelo://app?vid=c96f2d64-10b9-4826-93b5-7efc32bb0caf"},"vehicle_type_id":"4","last_reported":1678581712,"current_range_meters":8400,"station_id":"ce4bhs92rcd13ifvqi0g","pricing_plan_id":"free"},{"bike_id":"e5f25d41-3cec-44a9-ba83-18ca0bc7160d","system_id":"levelo_inurba_marseille","lat":43.2959,"lon":5.36743,"is_reserved":false,"is_disabled":false,"rental_uris":{"android":"levelo://app?vid=e5f25d41-3cec-44a9-ba83-18ca0bc7160d","ios":"levelo://app?vid=e5f25d41-3cec-44a9-ba83-18ca0bc7160d"},"vehicle_type_id":"4","last_reported":1678581712,"current_range_meters":24800,"station_id":"","pricing_plan_id":"free"},{"bike_id":"4e3c2c27-2b5d-41ce-8f4d-525face29479","system_id":"levelo_inurba_marseille","lat":43.29621,"lon":5.37154,"is_reserved":false,"is_disabled":false,"rental_uris":{"android":"levelo://app?vid=4e3c2c27-2b5d-41ce-8f4d-525face29479","ios":"levelo://app?vid=4e3c2c27-2b5d-41ce-8f4d-525face29479"},"vehicle_type_id":"4","last_reported":1678581712,"current_range_meters":12800,"station_id":"","pricing_plan_id":"free"},{"bike_id":"da62d9c1-a53a-4bb1-902a-9d1f2f7094b0","system_id":"levelo_inurba_marseille","lat":43.296192,"lon":5.3715,"is_reserved":false,"is_disabled":false,"rental_uris":{"android":"levelo://app?vid=da62d9c1-a53a-4bb1-902a-9d1f2f7094b0","ios":"levelo://app?vid=da62d9c1-a53a-4bb1-902a-9d1f2f7094b0"},"vehicle_type_id":"4","last_reported":1678581712,"current_range_meters":0,"station_id":"","pricing_plan_id":"free"},{"bike_id":"50bd9918-8313-4776-baa7-51a598c7f2c6","system_id":"levelo_inurba_marseille","lat":43.29584,"lon":5.36751,"is_reserved":false,"is_disabled":false,"rental_uris":{"android":"levelo://app?vid=50bd9918-8313-4776-baa7-51a598c7f2c6","ios":"levelo://app?vid=50bd9918-8313-4776-baa7-51a598c7f2c6"},"vehicle_type_id":"4","last_reported":1678581712,"current_range_meters":0,"station_id":"ce4bgph2rcd13ifvqc2g","pricing_plan_id":"free"},{"bike_id":"2d147397-e5a0-45aa-b790-5d6dd30c0c24","system_id":"levelo_inurba_marseille","lat":43.30955,"lon":5.39037,"is_reserved":false,"is_disabled":false,"rental_uris":{"android":"levelo://app?vid=2d147397-e5a0-45aa-b790-5d6dd30c0c24","ios":"levelo://app?vid=2d147397-e5a0-45aa-b790-5d6dd30c0c24"},"vehicle_type_id":"4","last_reported":1678581712,"current_range_meters":29200,"station_id":"ce4bgup2rcd13ifvqco0","pricing_plan_id":"free"},{"bike_id":"8f3c0dc3-3c98-4ca5-abc3-af4a865f0ae1","system_id":"levelo_inurba_marseille","lat":43.309589,"lon":5.390258,"is_reserved":false,"is_disabled":false,"rental_uris":{"android":"levelo://app?vid=8f3c0dc3-3c98-4ca5-abc3-af4a865f0ae1","ios":"levelo://app?vid=8f3c0dc3-3c98-4ca5-abc3-af4a865f0ae1"},"vehicle_type_id":"4","last_reported":1678581712,"current_range_meters":29200,"station_id":"ce4bgup2rcd13ifvqco0","pricing_plan_id":"free"},{"bike_id":"89b79a6c-7aca-42d4-a93d-317185f8f520","system_id":"levelo_inurba_marseille","lat":43.309589,"lon":5.390258,"is_reserved":false,"is_disabled":false,"rental_uris":{"android":"levelo://app?vid=89b79a6c-7aca-42d4-a93d-317185f8f520","ios":"levelo://app?vid=89b79a6c-7aca-42d4-a93d-317185f8f520"},"vehicle_type_id":"4","last_reported":1678581712,"current_range_meters":31600,"station_id":"ce4bgup2rcd13ifvqco0","pricing_plan_id":"free"},{"bike_id":"48ffc4d7-9a2e-4d27-8775-3ba42a1d0e68","system_id":"levelo_inurba_marseille","lat":43.309589,"lon":5.390258,"is_reserved":false,"is_disabled":false,"rental_uris":{"android":"levelo://app?vid=48ffc4d7-9a2e-4d27-8775-3ba42a1d0e68","ios":"levelo://app?vid=48ffc4d7-9a2e-4d27-8775-3ba42a1d0e68"},"vehicle_type_id":"4","last_reported":1678581712,"current_range_meters":28000,"station_id":"ce4bgup2rcd13ifvqco0","pricing_plan_id":"free"},{"bike_id":"4150a8d8-bac4-4d9b-ae1b-4800894199ec","system_id":"levelo_inurba_marseille","lat":43.309589,"lon":5.390258,"is_reserved":false,"is_disabled":false,"rental_uris":{"android":"levelo://app?vid=4150a8d8-bac4-4d9b-ae1b-4800894199ec","ios":"levelo://app?vid=4150a8d8-bac4-4d9b-ae1b-4800894199ec"},"vehicle_type_id":"4","last_reported":1678581712,"current_range_meters":23200,"station_id":"ce4bgup2rcd13ifvqco0","pricing_plan_id":"free"},{"bike_id":"e612a666-9b67-4a04-b9c9-ccecefbb580c","system_id":"levelo_inurba_marseille","lat":43.317557,"lon":5.390173,"is_reserved":false,"is_disabled":false,"rental_uris":{"android":"levelo://app?vid=e612a666-9b67-4a04-b9c9-ccecefbb580c","ios":"levelo://app?vid=e612a666-9b67-4a04-b9c9-ccecefbb580c"},"vehicle_type_id":"4","last_reported":1678581712,"current_range_meters":31600,"station_id":"ce4bhqp2rcd13ifvqhng","pricing_plan_id":"free"},{"bike_id":"0fbf2b6d-77d8-454f-8789-8881ddd2edd7","system_id":"levelo_inurba_marseille","lat":43.317557,"lon":5.390173,"is_reserved":false,"is_disabled":false,"rental_uris":{"android":"levelo://app?vid=0fbf2b6d-77d8-454f-8789-8881ddd2edd7","ios":"levelo://app?vid=0fbf2b6d-77d8-454f-8789-8881ddd2edd7"},"vehicle_type_id":"4","last_reported":1678581712,"current_range_meters":23200,"station_id":"ce4bhqp2rcd13ifvqhng","pricing_plan_id":"free"},{"bike_id":"55b0205a-8e75-46f5-99f3-d582e7b5723e","system_id":"levelo_inurba_marseille","lat":43.317557,"lon":5.390173,"is_reserved":false,"is_disabled":false,"rental_uris":{"android":"levelo://app?vid=55b0205a-8e75-46f5-99f3-d582e7b5723e","ios":"levelo://app?vid=55b0205a-8e75-46f5-99f3-d582e7b5723e"},"vehicle_type_id":"4","last_reported":1678581712,"current_range_meters":14800,"station_id":"ce4bhqp2rcd13ifvqhng","pricing_plan_id":"free"},{"bike_id":"80ad3bc1-c0f4-4ae7-abcc-62ebdf7b454a","system_id":"levelo_inurba_marseille","lat":43.317557,"lon":5.390173,"is_reserved":false,"is_disabled":false,"rental_uris":{"android":"levelo://app?vid=80ad3bc1-c0f4-4ae7-abcc-62ebdf7b454a","ios":"levelo://app?vid=80ad3bc1-c0f4-4ae7-abcc-62ebdf7b454a"},"vehicle_type_id":"4","last_reported":1678581712,"current_range_meters":31600,"station_id":"ce4bhqp2rcd13ifvqhng","pricing_plan_id":"free"},{"bike_id":"29ee8031-70ec-42cf-8949-eb5a60c96431","system_id":"levelo_inurba_marseille","lat":43.317557,"lon":5.390173,"is_reserved":false,"is_disabled":false,"rental_uris":{"android":"levelo://app?vid=29ee8031-70ec-42cf-8949-eb5a60c96431","ios":"levelo://app?vid=29ee8031-70ec-42cf-8949-eb5a60c96431"},"vehicle_type_id":"4","last_reported":1678581712,"current_range_meters":30000,"station_id":"ce4bhqp2rcd13ifvqhng","pricing_plan_id":"free"},{"bike_id":"61613327-f6c9-4f76-8f75-12ec5b09c75d","system_id":"levelo_inurba_marseille","lat":43.31757,"lon":5.39018,"is_reserved":false,"is_disabled":false,"rental_uris":{"android":"levelo://app?vid=61613327-f6c9-4f76-8f75-12ec5b09c75d","ios":"levelo://app?vid=61613327-f6c9-4f76-8f75-12ec5b09c75d"},"vehicle_type_id":"4","last_reported":1678581712,"current_range_meters":4000,"station_id":"ce4bhqp2rcd13ifvqhng","pricing_plan_id":"free"},{"bike_id":"10181c2b-6116-47eb-ae0b-ff80d825779c","system_id":"levelo_inurba_marseille","lat":43.317557,"lon":5.390173,"is_reserved":false,"is_disabled":false,"rental_uris":{"android":"levelo://app?vid=10181c2b-6116-47eb-ae0b-ff80d825779c","ios":"levelo://app?vid=10181c2b-6116-47eb-ae0b-ff80d825779c"},"vehicle_type_id":"4","last_reported":1678581712,"current_range_meters":24400,"station_id":"ce4bhqp2rcd13ifvqhng","pricing_plan_id":"free"},{"bike_id":"31ae132d-a792-4029-b877-8fa650ed45ec","system_id":"levelo_inurba_marseille","lat":43.30446,"lon":5.38859,"is_reserved":false,"is_disabled":false,"rental_uris":{"android":"levelo://app?vid=31ae132d-a792-4029-b877-8fa650ed45ec","ios":"levelo://app?vid=31ae132d-a792-4029-b877-8fa650ed45ec"},"vehicle_type_id":"4","last_reported":1678581712,"current_range_meters":0,"station_id":"","pricing_plan_id":"free"},{"bike_id":"2c72a4de-14fa-4e7f-9fe0-0af598982874","system_id":"levelo_inurba_marseille","lat":43.295785,"lon":5.375031,"is_reserved":false,"is_disabled":false,"rental_uris":{"android":"levelo://app?vid=2c72a4de-14fa-4e7f-9fe0-0af598982874","ios":"levelo://app?vid=2c72a4de-14fa-4e7f-9fe0-0af598982874"},"vehicle_type_id":"4","last_reported":1678581712,"current_range_meters":0,"station_id":"ce4bgh92rcd13ifvqb50","pricing_plan_id":"free"},{"bike_id":"4e573432-fd67-4ba8-863c-7c247f90903b","system_id":"levelo_inurba_marseille","lat":43.304278,"lon":5.388868,"is_reserved":false,"is_disabled":false,"rental_uris":{"android":"levelo://app?vid=4e573432-fd67-4ba8-863c-7c247f90903b","ios":"levelo://app?vid=4e573432-fd67-4ba8-863c-7c247f90903b"},"vehicle_type_id":"4","last_reported":1678581712,"current_range_meters":0,"station_id":"ce4bgk12rcd13ifvqbi0","pricing_plan_id":"free"},{"bike_id":"61f02020-e879-4605-85ac-479d12c47a4a","system_id":"levelo_inurba_marseille","lat":43.304278,"lon":5.388868,"is_reserved":false,"is_disabled":false,"rental_uris":{"android":"levelo://app?vid=61f02020-e879-4605-85ac-479d12c47a4a","ios":"levelo://app?vid=61f02020-e879-4605-85ac-479d12c47a4a"},"vehicle_type_id":"4","last_reported":1678581712,"current_range_meters":6000,"station_id":"ce4bgk12rcd13ifvqbi0","pricing_plan_id":"free"},{"bike_id":"a08e810c-cf7e-431d-8ec4-8b88915cd6a6","system_id":"levelo_inurba_marseille","lat":43.304278,"lon":5.388868,"is_reserved":false,"is_disabled":false,"rental_uris":{"android":"levelo://app?vid=a08e810c-cf7e-431d-8ec4-8b88915cd6a6","ios":"levelo://app?vid=a08e810c-cf7e-431d-8ec4-8b88915cd6a6"},"vehicle_type_id":"4","last_reported":1678581712,"current_range_meters":20400,"station_id":"ce4bgk12rcd13ifvqbi0","pricing_plan_id":"free"},{"bike_id":"9d80bc61-51f5-4627-8699-121597de8db1","system_id":"levelo_inurba_marseille","lat":43.304278,"lon":5.388868,"is_reserved":false,"is_disabled":false,"rental_uris":{"android":"levelo://app?vid=9d80bc61-51f5-4627-8699-121597de8db1","ios":"levelo://app?vid=9d80bc61-51f5-4627-8699-121597de8db1"},"vehicle_type_id":"4","last_reported":1678581712,"current_range_meters":14800,"station_id":"ce4bgk12rcd13ifvqbi0","pricing_plan_id":"free"},{"bike_id":"119fc3bf-4523-45d0-b759-7d1bbf6fdbf3","system_id":"levelo_inurba_marseille","lat":43.32367,"lon":5.388836,"is_reserved":false,"is_disabled":false,"rental_uris":{"android":"levelo://app?vid=119fc3bf-4523-45d0-b759-7d1bbf6fdbf3","ios":"levelo://app?vid=119fc3bf-4523-45d0-b759-7d1bbf6fdbf3"},"vehicle_type_id":"4","last_reported":1678581712,"current_range_meters":18000,"station_id":"ce4bhqp2rcd13ifvqhog","pricing_plan_id":"free"},{"bike_id":"53b760a8-a9fd-42d5-ab9b-e8ded5d1a33b","system_id":"levelo_inurba_marseille","lat":43.32367,"lon":5.388836,"is_reserved":false,"is_disabled":false,"rental_uris":{"android":"levelo://app?vid=53b760a8-a9fd-42d5-ab9b-e8ded5d1a33b","ios":"levelo://app?vid=53b760a8-a9fd-42d5-ab9b-e8ded5d1a33b"},"vehicle_type_id":"4","last_reported":1678581712,"current_range_meters":26800,"station_id":"ce4bhqp2rcd13ifvqhog","pricing_plan_id":"free"},{"bike_id":"b1e2453e-b5bb-4b6e-8924-e348d50edcfe","system_id":"levelo_inurba_marseille","lat":43.32367,"lon":5.388836,"is_reserved":false,"is_disabled":false,"rental_uris":{"android":"levelo://app?vid=b1e2453e-b5bb-4b6e-8924-e348d50edcfe","ios":"levelo://app?vid=b1e2453e-b5bb-4b6e-8924-e348d50edcfe"},"vehicle_type_id":"4","last_reported":1678581712,"current_range_meters":9200,"station_id":"ce4bhqp2rcd13ifvqhog","pricing_plan_id":"free"},{"bike_id":"007cd52a-fdd4-45d1-92eb-f50edc7c1def","system_id":"levelo_inurba_marseille","lat":43.32367,"lon":5.388836,"is_reserved":false,"is_disabled":false,"rental_uris":{"android":"levelo://app?vid=007cd52a-fdd4-45d1-92eb-f50edc7c1def","ios":"levelo://app?vid=007cd52a-fdd4-45d1-92eb-f50edc7c1def"},"vehicle_type_id":"4","last_reported":1678581712,"current_range_meters":14400,"station_id":"ce4bhqp2rcd13ifvqhog","pricing_plan_id":"free"},{"bike_id":"c36c547f-045f-4364-8390-8b40e0ca037c","system_id":"levelo_inurba_marseille","lat":43.313471,"lon":5.394812,"is_reserved":false,"is_disabled":false,"rental_uris":{"android":"levelo://app?vid=c36c547f-045f-4364-8390-8b40e0ca037c","ios":"levelo://app?vid=c36c547f-045f-4364-8390-8b40e0ca037c"},"vehicle_type_id":"4","last_reported":1678581712,"current_range_meters":0,"station_id":"","pricing_plan_id":"free"},{"bike_id":"9bd58d74-4f2f-4ec6-aaa2-fef7ccf6173c","system_id":"levelo_inurba_marseille","lat":43.305994,"lon":5.393687,"is_reserved":false,"is_disabled":false,"rental_uris":{"android":"levelo://app?vid=9bd58d74-4f2f-4ec6-aaa2-fef7ccf6173c","ios":"levelo://app?vid=9bd58d74-4f2f-4ec6-aaa2-fef7ccf6173c"},"vehicle_type_id":"4","last_reported":1678581712,"current_range_meters":19200,"station_id":"ce4bh0p2rcd13ifvqd80","pricing_plan_id":"free"},{"bike_id":"5309d71e-1f74-4566-9b6a-90732ef7f557","system_id":"levelo_inurba_marseille","lat":43.292311,"lon":5.360731,"is_reserved":false,"is_disabled":false,"rental_uris":{"android":"levelo://app?vid=5309d71e-1f74-4566-9b6a-90732ef7f557","ios":"levelo://app?vid=5309d71e-1f74-4566-9b6a-90732ef7f557"},"vehicle_type_id":"4","last_reported":1678581712,"current_range_meters":14000,"station_id":"ce4bhbh2rcd13ifvqeqg","pricing_plan_id":"free"},{"bike_id":"bdcd27fc-9d82-4260-96e8-8a0c3fa2518f","system_id":"levelo_inurba_marseille","lat":43.300852,"lon":5.390859,"is_reserved":false,"is_disabled":false,"rental_uris":{"android":"levelo://app?vid=bdcd27fc-9d82-4260-96e8-8a0c3fa2518f","ios":"levelo://app?vid=bdcd27fc-9d82-4260-96e8-8a0c3fa2518f"},"vehicle_type_id":"4","last_reported":1678581712,"current_range_meters":11600,"station_id":"ce4bh192rcd13ifvqdb0","pricing_plan_id":"free"},{"bike_id":"6d4d6e63-0ba8-48d1-8e7d-2c7432e4e6d5","system_id":"levelo_inurba_marseille","lat":43.30085,"lon":5.390856,"is_reserved":false,"is_disabled":false,"rental_uris":{"android":"levelo://app?vid=6d4d6e63-0ba8-48d1-8e7d-2c7432e4e6d5","ios":"levelo://app?vid=6d4d6e63-0ba8-48d1-8e7d-2c7432e4e6d5"},"vehicle_type_id":"4","last_reported":1678581712,"current_range_meters":25200,"station_id":"ce4bh192rcd13ifvqdb0","pricing_plan_id":"free"},{"bike_id":"a687bd5a-8e1f-4110-93d0-356345dabf24","system_id":"levelo_inurba_marseille","lat":43.291731,"lon":5.371454,"is_reserved":false,"is_disabled":false,"rental_uris":{"android":"levelo://app?vid=a687bd5a-8e1f-4110-93d0-356345dabf24","ios":"levelo://app?vid=a687bd5a-8e1f-4110-93d0-356345dabf24"},"vehicle_type_id":"4","last_reported":1678581712,"current_range_meters":0,"station_id":"","pricing_plan_id":"free"},{"bike_id":"594dfcec-1bc5-4763-9cea-29d136da9ca1","system_id":"levelo_inurba_marseille","lat":43.313291,"lon":5.396838,"is_reserved":false,"is_disabled":false,"rental_uris":{"android":"levelo://app?vid=594dfcec-1bc5-4763-9cea-29d136da9ca1","ios":"levelo://app?vid=594dfcec-1bc5-4763-9cea-29d136da9ca1"},"vehicle_type_id":"4","last_reported":1678581712,"current_range_meters":6800,"station_id":"ce4bgvp2rcd13ifvqcu0","pricing_plan_id":"free"},{"bike_id":"f388338e-ff51-42cb-bae8-187ad4340b53","system_id":"levelo_inurba_marseille","lat":43.313291,"lon":5.396838,"is_reserved":false,"is_disabled":false,"rental_uris":{"android":"levelo://app?vid=f388338e-ff51-42cb-bae8-187ad4340b53","ios":"levelo://app?vid=f388338e-ff51-42cb-bae8-187ad4340b53"},"vehicle_type_id":"4","last_reported":1678581712,"current_range_meters":400,"station_id":"ce4bgvp2rcd13ifvqcu0","pricing_plan_id":"free"},{"bike_id":"53949b36-28fa-4eec-b186-1127f12d7723","system_id":"levelo_inurba_marseille","lat":43.313291,"lon":5.396838,"is_reserved":false,"is_disabled":false,"rental_uris":{"android":"levelo://app?vid=53949b36-28fa-4eec-b186-1127f12d7723","ios":"levelo://app?vid=53949b36-28fa-4eec-b186-1127f12d7723"},"vehicle_type_id":"4","last_reported":1678581712,"current_range_meters":3600,"station_id":"ce4bgvp2rcd13ifvqcu0","pricing_plan_id":"free"},{"bike_id":"2437b172-eec0-4784-9001-787a2825f408","system_id":"levelo_inurba_marseille","lat":43.313291,"lon":5.396838,"is_reserved":false,"is_disabled":false,"rental_uris":{"android":"levelo://app?vid=2437b172-eec0-4784-9001-787a2825f408","ios":"levelo://app?vid=2437b172-eec0-4784-9001-787a2825f408"},"vehicle_type_id":"4","last_reported":1678581712,"current_range_meters":24800,"station_id":"ce4bgvp2rcd13ifvqcu0","pricing_plan_id":"free"},{"bike_id":"e2a973a1-e1fb-4bfd-92ab-c70cee61d7b0","system_id":"levelo_inurba_marseille","lat":43.313291,"lon":5.396838,"is_reserved":false,"is_disabled":false,"rental_uris":{"android":"levelo://app?vid=e2a973a1-e1fb-4bfd-92ab-c70cee61d7b0","ios":"levelo://app?vid=e2a973a1-e1fb-4bfd-92ab-c70cee61d7b0"},"vehicle_type_id":"4","last_reported":1678581712,"current_range_meters":12400,"station_id":"ce4bgvp2rcd13ifvqcu0","pricing_plan_id":"free"},{"bike_id":"c1b7a151-dd87-4a5c-bc0e-dea80827bb70","system_id":"levelo_inurba_marseille","lat":43.313291,"lon":5.396838,"is_reserved":false,"is_disabled":false,"rental_uris":{"android":"levelo://app?vid=c1b7a151-dd87-4a5c-bc0e-dea80827bb70","ios":"levelo://app?vid=c1b7a151-dd87-4a5c-bc0e-dea80827bb70"},"vehicle_type_id":"4","last_reported":1678581712,"current_range_meters":12400,"station_id":"ce4bgvp2rcd13ifvqcu0","pricing_plan_id":"free"},{"bike_id":"b8362f4a-a03b-4747-9bce-6f15ca8f2d49","system_id":"levelo_inurba_marseille","lat":43.313291,"lon":5.396838,"is_reserved":false,"is_disabled":false,"rental_uris":{"android":"levelo://app?vid=b8362f4a-a03b-4747-9bce-6f15ca8f2d49","ios":"levelo://app?vid=b8362f4a-a03b-4747-9bce-6f15ca8f2d49"},"vehicle_type_id":"4","last_reported":1678581712,"current_range_meters":14800,"station_id":"ce4bgvp2rcd13ifvqcu0","pricing_plan_id":"free"},{"bike_id":"93e102b9-14be-4219-ac27-d911d4fe75e9","system_id":"levelo_inurba_marseille","lat":43.313291,"lon":5.396838,"is_reserved":false,"is_disabled":false,"rental_uris":{"android":"levelo://app?vid=93e102b9-14be-4219-ac27-d911d4fe75e9","ios":"levelo://app?vid=93e102b9-14be-4219-ac27-d911d4fe75e9"},"vehicle_type_id":"4","last_reported":1678581712,"current_range_meters":28000,"station_id":"ce4bgvp2rcd13ifvqcu0","pricing_plan_id":"free"},{"bike_id":"f704bcbe-9d9f-44c8-af68-4168a4d41c3f","system_id":"levelo_inurba_marseille","lat":43.313291,"lon":5.396838,"is_reserved":false,"is_disabled":false,"rental_uris":{"android":"levelo://app?vid=f704bcbe-9d9f-44c8-af68-4168a4d41c3f","ios":"levelo://app?vid=f704bcbe-9d9f-44c8-af68-4168a4d41c3f"},"vehicle_type_id":"4","last_reported":1678581712,"current_range_meters":6000,"station_id":"ce4bgvp2rcd13ifvqcu0","pricing_plan_id":"free"},{"bike_id":"520fad42-b4a3-444b-ae79-145b64da3484","system_id":"levelo_inurba_marseille","lat":43.291358,"lon":5.375518,"is_reserved":false,"is_disabled":false,"rental_uris":{"android":"levelo://app?vid=520fad42-b4a3-444b-ae79-145b64da3484","ios":"levelo://app?vid=520fad42-b4a3-444b-ae79-145b64da3484"},"vehicle_type_id":"4","last_reported":1678581712,"current_range_meters":6400,"station_id":"","pricing_plan_id":"free"},{"bike_id":"2181fe17-ae5a-4cca-bfaf-2a4e03e5c253","system_id":"levelo_inurba_marseille","lat":43.293681,"lon":5.383501,"is_reserved":false,"is_disabled":false,"rental_uris":{"android":"levelo://app?vid=2181fe17-ae5a-4cca-bfaf-2a4e03e5c253","ios":"levelo://app?vid=2181fe17-ae5a-4cca-bfaf-2a4e03e5c253"},"vehicle_type_id":"4","last_reported":1678581712,"current_range_meters":20000,"station_id":"","pricing_plan_id":"free"},{"bike_id":"dbea8edc-e417-4bc5-a8e7-22e6a1a3829e","system_id":"levelo_inurba_marseille","lat":43.290752,"lon":5.375672,"is_reserved":false,"is_disabled":false,"rental_uris":{"android":"levelo://app?vid=dbea8edc-e417-4bc5-a8e7-22e6a1a3829e","ios":"levelo://app?vid=dbea8edc-e417-4bc5-a8e7-22e6a1a3829e"},"vehicle_type_id":"4","last_reported":1678581712,"current_range_meters":28000,"station_id":"","pricing_plan_id":"free"},{"bike_id":"b64612dd-54cd-4d7b-ae1d-a34e1c5238ad","system_id":"levelo_inurba_marseille","lat":43.290446,"lon":5.359175,"is_reserved":false,"is_disabled":false,"rental_uris":{"android":"levelo://app?vid=b64612dd-54cd-4d7b-ae1d-a34e1c5238ad","ios":"levelo://app?vid=b64612dd-54cd-4d7b-ae1d-a34e1c5238ad"},"vehicle_type_id":"4","last_reported":1678581712,"current_range_meters":10400,"station_id":"","pricing_plan_id":"free"},{"bike_id":"4ed85c7e-981a-492b-9ba8-72f0f055e5bd","system_id":"levelo_inurba_marseille","lat":43.29045,"lon":5.35913,"is_reserved":false,"is_disabled":false,"rental_uris":{"android":"levelo://app?vid=4ed85c7e-981a-492b-9ba8-72f0f055e5bd","ios":"levelo://app?vid=4ed85c7e-981a-492b-9ba8-72f0f055e5bd"},"vehicle_type_id":"4","last_reported":1678581712,"current_range_meters":16800,"station_id":"ce4bha92rcd13ifvqeg0","pricing_plan_id":"free"},{"bike_id":"5563f6fe-13c8-4419-b8e2-ce83c2767f57","system_id":"levelo_inurba_marseille","lat":43.291844,"lon":5.380498,"is_reserved":false,"is_disabled":false,"rental_uris":{"android":"levelo://app?vid=5563f6fe-13c8-4419-b8e2-ce83c2767f57","ios":"levelo://app?vid=5563f6fe-13c8-4419-b8e2-ce83c2767f57"},"vehicle_type_id":"4","last_reported":1678581712,"current_range_meters":0,"station_id":"","pricing_plan_id":"free"},{"bike_id":"bc0a4780-b21d-4f90-951b-4c0d7a15fd2f","system_id":"levelo_inurba_marseille","lat":43.301555,"lon":5.396003,"is_reserved":false,"is_disabled":false,"rental_uris":{"android":"levelo://app?vid=bc0a4780-b21d-4f90-951b-4c0d7a15fd2f","ios":"levelo://app?vid=bc0a4780-b21d-4f90-951b-4c0d7a15fd2f"},"vehicle_type_id":"4","last_reported":1678581712,"current_range_meters":24000,"station_id":"","pricing_plan_id":"free"},{"bike_id":"fadca3f6-f342-4b61-ab93-846c87e237ae","system_id":"levelo_inurba_marseille","lat":43.33043,"lon":5.38915,"is_reserved":false,"is_disabled":false,"rental_uris":{"android":"levelo://app?vid=fadca3f6-f342-4b61-ab93-846c87e237ae","ios":"levelo://app?vid=fadca3f6-f342-4b61-ab93-846c87e237ae"},"vehicle_type_id":"4","last_reported":1678581712,"current_range_meters":10000,"station_id":"","pricing_plan_id":"free"},{"bike_id":"dbf8c98e-52a6-4efd-81df-ece236c4cceb","system_id":"levelo_inurba_marseille","lat":43.330413,"lon":5.389188,"is_reserved":false,"is_disabled":false,"rental_uris":{"android":"levelo://app?vid=dbf8c98e-52a6-4efd-81df-ece236c4cceb","ios":"levelo://app?vid=dbf8c98e-52a6-4efd-81df-ece236c4cceb"},"vehicle_type_id":"4","last_reported":1678581712,"current_range_meters":20800,"station_id":"ce4bhr92rcd13ifvqhrg","pricing_plan_id":"free"},{"bike_id":"92896ed1-7b4f-4962-9afc-06bac85c069a","system_id":"levelo_inurba_marseille","lat":43.33042,"lon":5.38918,"is_reserved":false,"is_disabled":false,"rental_uris":{"android":"levelo://app?vid=92896ed1-7b4f-4962-9afc-06bac85c069a","ios":"levelo://app?vid=92896ed1-7b4f-4962-9afc-06bac85c069a"},"vehicle_type_id":"4","last_reported":1678581712,"current_range_meters":14800,"station_id":"","pricing_plan_id":"free"},{"bike_id":"3bb2a2fd-7203-4e66-a10c-8493cabe1e9a","system_id":"levelo_inurba_marseille","lat":43.330418,"lon":5.389186,"is_reserved":false,"is_disabled":false,"rental_uris":{"android":"levelo://app?vid=3bb2a2fd-7203-4e66-a10c-8493cabe1e9a","ios":"levelo://app?vid=3bb2a2fd-7203-4e66-a10c-8493cabe1e9a"},"vehicle_type_id":"4","last_reported":1678581712,"current_range_meters":30400,"station_id":"ce4bhr92rcd13ifvqhrg","pricing_plan_id":"free"},{"bike_id":"4865b40a-4111-4f1a-8482-fb68e875133f","system_id":"levelo_inurba_marseille","lat":43.33043,"lon":5.38917,"is_reserved":false,"is_disabled":false,"rental_uris":{"android":"levelo://app?vid=4865b40a-4111-4f1a-8482-fb68e875133f","ios":"levelo://app?vid=4865b40a-4111-4f1a-8482-fb68e875133f"},"vehicle_type_id":"4","last_reported":1678581712,"current_range_meters":20800,"station_id":"","pricing_plan_id":"free"},{"bike_id":"caadc936-6fa9-4769-9c7d-dbe9675da169","system_id":"levelo_inurba_marseille","lat":43.33043,"lon":5.38917,"is_reserved":false,"is_disabled":false,"rental_uris":{"android":"levelo://app?vid=caadc936-6fa9-4769-9c7d-dbe9675da169","ios":"levelo://app?vid=caadc936-6fa9-4769-9c7d-dbe9675da169"},"vehicle_type_id":"4","last_reported":1678581712,"current_range_meters":14800,"station_id":"ce4bhr92rcd13ifvqhrg","pricing_plan_id":"free"},{"bike_id":"6119f6ce-6d3d-4b42-a8e5-7d6668c62333","system_id":"levelo_inurba_marseille","lat":43.330452,"lon":5.389167,"is_reserved":false,"is_disabled":false,"rental_uris":{"android":"levelo://app?vid=6119f6ce-6d3d-4b42-a8e5-7d6668c62333","ios":"levelo://app?vid=6119f6ce-6d3d-4b42-a8e5-7d6668c62333"},"vehicle_type_id":"4","last_reported":1678581712,"current_range_meters":12400,"station_id":"","pricing_plan_id":"free"},{"bike_id":"131b31b7-741c-4a05-94d8-b9d1c9dbf33e","system_id":"levelo_inurba_marseille","lat":43.33045,"lon":5.38917,"is_reserved":false,"is_disabled":false,"rental_uris":{"android":"levelo://app?vid=131b31b7-741c-4a05-94d8-b9d1c9dbf33e","ios":"levelo://app?vid=131b31b7-741c-4a05-94d8-b9d1c9dbf33e"},"vehicle_type_id":"4","last_reported":1678581712,"current_range_meters":14800,"station_id":"ce4bhr92rcd13ifvqhrg","pricing_plan_id":"free"},{"bike_id":"d30d104e-54e6-4307-9dc5-6ef881fc6645","system_id":"levelo_inurba_marseille","lat":43.330442,"lon":5.389148,"is_reserved":false,"is_disabled":false,"rental_uris":{"android":"levelo://app?vid=d30d104e-54e6-4307-9dc5-6ef881fc6645","ios":"levelo://app?vid=d30d104e-54e6-4307-9dc5-6ef881fc6645"},"vehicle_type_id":"4","last_reported":1678581712,"current_range_meters":18400,"station_id":"ce4bhr92rcd13ifvqhrg","pricing_plan_id":"free"},{"bike_id":"c859774b-a79c-4b91-9a9e-e2e80be8a161","system_id":"levelo_inurba_marseille","lat":43.290104,"lon":5.356111,"is_reserved":false,"is_disabled":false,"rental_uris":{"android":"levelo://app?vid=c859774b-a79c-4b91-9a9e-e2e80be8a161","ios":"levelo://app?vid=c859774b-a79c-4b91-9a9e-e2e80be8a161"},"vehicle_type_id":"4","last_reported":1678581712,"current_range_meters":21200,"station_id":"ce4bhb92rcd13ifvqen0","pricing_plan_id":"free"},{"bike_id":"513d8c08-6c50-440b-b153-63305c89126c","system_id":"levelo_inurba_marseille","lat":43.330442,"lon":5.389148,"is_reserved":false,"is_disabled":false,"rental_uris":{"android":"levelo://app?vid=513d8c08-6c50-440b-b153-63305c89126c","ios":"levelo://app?vid=513d8c08-6c50-440b-b153-63305c89126c"},"vehicle_type_id":"4","last_reported":1678581712,"current_range_meters":16000,"station_id":"ce4bhr92rcd13ifvqhrg","pricing_plan_id":"free"},{"bike_id":"6ca8673c-d91f-4a47-af02-31b04e016d09","system_id":"levelo_inurba_marseille","lat":43.289101,"lon":5.358553,"is_reserved":false,"is_disabled":false,"rental_uris":{"android":"levelo://app?vid=6ca8673c-d91f-4a47-af02-31b04e016d09","ios":"levelo://app?vid=6ca8673c-d91f-4a47-af02-31b04e016d09"},"vehicle_type_id":"4","last_reported":1678581712,"current_range_meters":1600,"station_id":"","pricing_plan_id":"free"},{"bike_id":"94d70cf6-0ea0-4fd2-9e90-687e4c8c84f3","system_id":"levelo_inurba_marseille","lat":43.2928,"lon":5.387385,"is_reserved":false,"is_disabled":false,"rental_uris":{"android":"levelo://app?vid=94d70cf6-0ea0-4fd2-9e90-687e4c8c84f3","ios":"levelo://app?vid=94d70cf6-0ea0-4fd2-9e90-687e4c8c84f3"},"vehicle_type_id":"4","last_reported":1678581712,"current_range_meters":15600,"station_id":"","pricing_plan_id":"free"},{"bike_id":"7c54c467-4b72-4810-831d-a137ea47b835","system_id":"levelo_inurba_marseille","lat":43.30642,"lon":5.401031,"is_reserved":false,"is_disabled":false,"rental_uris":{"android":"levelo://app?vid=7c54c467-4b72-4810-831d-a137ea47b835","ios":"levelo://app?vid=7c54c467-4b72-4810-831d-a137ea47b835"},"vehicle_type_id":"4","last_reported":1678581712,"current_range_meters":6800,"station_id":"ce4bh112rcd13ifvqda0","pricing_plan_id":"free"},{"bike_id":"a902a3cb-7ca4-4e6d-89d0-4f9aaef73fe3","system_id":"levelo_inurba_marseille","lat":43.306412,"lon":5.401035,"is_reserved":false,"is_disabled":false,"rental_uris":{"android":"levelo://app?vid=a902a3cb-7ca4-4e6d-89d0-4f9aaef73fe3","ios":"levelo://app?vid=a902a3cb-7ca4-4e6d-89d0-4f9aaef73fe3"},"vehicle_type_id":"4","last_reported":1678581712,"current_range_meters":21200,"station_id":"ce4bh112rcd13ifvqda0","pricing_plan_id":"free"},{"bike_id":"8f34591e-451f-417b-a640-32e601c0115e","system_id":"levelo_inurba_marseille","lat":43.30642,"lon":5.401031,"is_reserved":false,"is_disabled":false,"rental_uris":{"android":"levelo://app?vid=8f34591e-451f-417b-a640-32e601c0115e","ios":"levelo://app?vid=8f34591e-451f-417b-a640-32e601c0115e"},"vehicle_type_id":"4","last_reported":1678581712,"current_range_meters":20800,"station_id":"ce4bh112rcd13ifvqda0","pricing_plan_id":"free"},{"bike_id":"3a6d5a10-2368-4c0c-9853-dd55076425b6","system_id":"levelo_inurba_marseille","lat":43.301117,"lon":5.398795,"is_reserved":false,"is_disabled":false,"rental_uris":{"android":"levelo://app?vid=3a6d5a10-2368-4c0c-9853-dd55076425b6","ios":"levelo://app?vid=3a6d5a10-2368-4c0c-9853-dd55076425b6"},"vehicle_type_id":"4","last_reported":1678581712,"current_range_meters":14000,"station_id":"ce4bh0h2rcd13ifvqd40","pricing_plan_id":"free"},{"bike_id":"3208a59f-0fd5-4ca5-8d44-8990507d1767","system_id":"levelo_inurba_marseille","lat":43.301117,"lon":5.398795,"is_reserved":false,"is_disabled":false,"rental_uris":{"android":"levelo://app?vid=3208a59f-0fd5-4ca5-8d44-8990507d1767","ios":"levelo://app?vid=3208a59f-0fd5-4ca5-8d44-8990507d1767"},"vehicle_type_id":"4","last_reported":1678581712,"current_range_meters":28400,"station_id":"ce4bh0h2rcd13ifvqd40","pricing_plan_id":"free"},{"bike_id":"4037e529-357e-49dc-9167-2dea6a9367a8","system_id":"levelo_inurba_marseille","lat":43.298681,"lon":5.397225,"is_reserved":false,"is_disabled":false,"rental_uris":{"android":"levelo://app?vid=4037e529-357e-49dc-9167-2dea6a9367a8","ios":"levelo://app?vid=4037e529-357e-49dc-9167-2dea6a9367a8"},"vehicle_type_id":"4","last_reported":1678581712,"current_range_meters":31600,"station_id":"ce4bh0h2rcd13ifvqd50","pricing_plan_id":"free"},{"bike_id":"cb10d945-03c6-4259-9943-c5e264ec7438","system_id":"levelo_inurba_marseille","lat":43.29873,"lon":5.39727,"is_reserved":false,"is_disabled":false,"rental_uris":{"android":"levelo://app?vid=cb10d945-03c6-4259-9943-c5e264ec7438","ios":"levelo://app?vid=cb10d945-03c6-4259-9943-c5e264ec7438"},"vehicle_type_id":"4","last_reported":1678581712,"current_range_meters":22400,"station_id":"","pricing_plan_id":"free"},{"bike_id":"91741784-73fe-47a8-bc48-3f34cf0a9e0c","system_id":"levelo_inurba_marseille","lat":43.286593,"lon":5.363346,"is_reserved":false,"is_disabled":false,"rental_uris":{"android":"levelo://app?vid=91741784-73fe-47a8-bc48-3f34cf0a9e0c","ios":"levelo://app?vid=91741784-73fe-47a8-bc48-3f34cf0a9e0c"},"vehicle_type_id":"4","last_reported":1678581712,"current_range_meters":25600,"station_id":"ce4bhah2rcd13ifvqej0","pricing_plan_id":"free"},{"bike_id":"58995786-7e43-4325-80d3-7238699f06c3","system_id":"levelo_inurba_marseille","lat":43.298681,"lon":5.397225,"is_reserved":false,"is_disabled":false,"rental_uris":{"android":"levelo://app?vid=58995786-7e43-4325-80d3-7238699f06c3","ios":"levelo://app?vid=58995786-7e43-4325-80d3-7238699f06c3"},"vehicle_type_id":"4","last_reported":1678581712,"current_range_meters":15600,"station_id":"ce4bh0h2rcd13ifvqd50","pricing_plan_id":"free"},{"bike_id":"a232772c-607b-4782-b0eb-f224cf65c10b","system_id":"levelo_inurba_marseille","lat":43.286593,"lon":5.363346,"is_reserved":false,"is_disabled":false,"rental_uris":{"android":"levelo://app?vid=a232772c-607b-4782-b0eb-f224cf65c10b","ios":"levelo://app?vid=a232772c-607b-4782-b0eb-f224cf65c10b"},"vehicle_type_id":"4","last_reported":1678581712,"current_range_meters":25200,"station_id":"ce4bhah2rcd13ifvqej0","pricing_plan_id":"free"},{"bike_id":"3ad518a9-98d2-4aa9-bc92-2686cb783824","system_id":"levelo_inurba_marseille","lat":43.286593,"lon":5.363346,"is_reserved":false,"is_disabled":false,"rental_uris":{"android":"levelo://app?vid=3ad518a9-98d2-4aa9-bc92-2686cb783824","ios":"levelo://app?vid=3ad518a9-98d2-4aa9-bc92-2686cb783824"},"vehicle_type_id":"4","last_reported":1678581712,"current_range_meters":24000,"station_id":"ce4bhah2rcd13ifvqej0","pricing_plan_id":"free"},{"bike_id":"3698e94c-9bd3-4bd1-afbd-deabdd839024","system_id":"levelo_inurba_marseille","lat":43.298681,"lon":5.397225,"is_reserved":false,"is_disabled":false,"rental_uris":{"android":"levelo://app?vid=3698e94c-9bd3-4bd1-afbd-deabdd839024","ios":"levelo://app?vid=3698e94c-9bd3-4bd1-afbd-deabdd839024"},"vehicle_type_id":"4","last_reported":1678581712,"current_range_meters":23600,"station_id":"ce4bh0h2rcd13ifvqd50","pricing_plan_id":"free"},{"bike_id":"16c4eea5-199a-42bd-afef-fdf198701ded","system_id":"levelo_inurba_marseille","lat":43.286593,"lon":5.363346,"is_reserved":false,"is_disabled":false,"rental_uris":{"android":"levelo://app?vid=16c4eea5-199a-42bd-afef-fdf198701ded","ios":"levelo://app?vid=16c4eea5-199a-42bd-afef-fdf198701ded"},"vehicle_type_id":"4","last_reported":1678581712,"current_range_meters":5600,"station_id":"ce4bhah2rcd13ifvqej0","pricing_plan_id":"free"},{"bike_id":"9da19883-44df-4d45-a01f-81df36db316a","system_id":"levelo_inurba_marseille","lat":43.29036,"lon":5.38637,"is_reserved":false,"is_disabled":false,"rental_uris":{"android":"levelo://app?vid=9da19883-44df-4d45-a01f-81df36db316a","ios":"levelo://app?vid=9da19883-44df-4d45-a01f-81df36db316a"},"vehicle_type_id":"4","last_reported":1678581712,"current_range_meters":0,"station_id":"ce4bh4p2rcd13ifvqe0g","pricing_plan_id":"free"},{"bike_id":"82acec02-11e3-488b-83bf-3a733c4c7eb3","system_id":"levelo_inurba_marseille","lat":43.29039,"lon":5.38655,"is_reserved":false,"is_disabled":false,"rental_uris":{"android":"levelo://app?vid=82acec02-11e3-488b-83bf-3a733c4c7eb3","ios":"levelo://app?vid=82acec02-11e3-488b-83bf-3a733c4c7eb3"},"vehicle_type_id":"4","last_reported":1678581712,"current_range_meters":400,"station_id":"ce4bh4p2rcd13ifvqe0g","pricing_plan_id":"free"},{"bike_id":"bb58e1f5-6f5e-44ea-80b3-110a1f7249c9","system_id":"levelo_inurba_marseille","lat":43.290287,"lon":5.386328,"is_reserved":false,"is_disabled":false,"rental_uris":{"android":"levelo://app?vid=bb58e1f5-6f5e-44ea-80b3-110a1f7249c9","ios":"levelo://app?vid=bb58e1f5-6f5e-44ea-80b3-110a1f7249c9"},"vehicle_type_id":"4","last_reported":1678581712,"current_range_meters":0,"station_id":"","pricing_plan_id":"free"},{"bike_id":"0ae974f9-6b5b-437d-8c1a-7f9731ed738e","system_id":"levelo_inurba_marseille","lat":43.290275,"lon":5.386331,"is_reserved":false,"is_disabled":false,"rental_uris":{"android":"levelo://app?vid=0ae974f9-6b5b-437d-8c1a-7f9731ed738e","ios":"levelo://app?vid=0ae974f9-6b5b-437d-8c1a-7f9731ed738e"},"vehicle_type_id":"4","last_reported":1678581712,"current_range_meters":0,"station_id":"","pricing_plan_id":"free"},{"bike_id":"df314578-4fb7-4d73-b937-23c76c5d52da","system_id":"levelo_inurba_marseille","lat":43.28613,"lon":5.37064,"is_reserved":false,"is_disabled":false,"rental_uris":{"android":"levelo://app?vid=df314578-4fb7-4d73-b937-23c76c5d52da","ios":"levelo://app?vid=df314578-4fb7-4d73-b937-23c76c5d52da"},"vehicle_type_id":"4","last_reported":1678581712,"current_range_meters":4800,"station_id":"ce4bht12rcd13ifvqi60","pricing_plan_id":"free"},{"bike_id":"b8d6e82e-6aab-442a-8d85-c0f5b4ff86e9","system_id":"levelo_inurba_marseille","lat":43.286039,"lon":5.370681,"is_reserved":false,"is_disabled":false,"rental_uris":{"android":"levelo://app?vid=b8d6e82e-6aab-442a-8d85-c0f5b4ff86e9","ios":"levelo://app?vid=b8d6e82e-6aab-442a-8d85-c0f5b4ff86e9"},"vehicle_type_id":"4","last_reported":1678581712,"current_range_meters":10400,"station_id":"ce4bht12rcd13ifvqi60","pricing_plan_id":"free"},{"bike_id":"86352deb-3913-4420-9ec1-921557c2fe43","system_id":"levelo_inurba_marseille","lat":43.28719,"lon":5.37943,"is_reserved":false,"is_disabled":false,"rental_uris":{"android":"levelo://app?vid=86352deb-3913-4420-9ec1-921557c2fe43","ios":"levelo://app?vid=86352deb-3913-4420-9ec1-921557c2fe43"},"vehicle_type_id":"4","last_reported":1678581712,"current_range_meters":14400,"station_id":"ce4bh9p2rcd13ifvqec0","pricing_plan_id":"free"},{"bike_id":"30c346fd-0b03-45e6-bb49-246337c1670f","system_id":"levelo_inurba_marseille","lat":43.316517,"lon":5.404375,"is_reserved":false,"is_disabled":false,"rental_uris":{"android":"levelo://app?vid=30c346fd-0b03-45e6-bb49-246337c1670f","ios":"levelo://app?vid=30c346fd-0b03-45e6-bb49-246337c1670f"},"vehicle_type_id":"4","last_reported":1678581712,"current_range_meters":800,"station_id":"ce4bh012rcd13ifvqd00","pricing_plan_id":"free"},{"bike_id":"18340ee8-4f5c-47f2-ae01-984ce5379c02","system_id":"levelo_inurba_marseille","lat":43.316517,"lon":5.404375,"is_reserved":false,"is_disabled":false,"rental_uris":{"android":"levelo://app?vid=18340ee8-4f5c-47f2-ae01-984ce5379c02","ios":"levelo://app?vid=18340ee8-4f5c-47f2-ae01-984ce5379c02"},"vehicle_type_id":"4","last_reported":1678581712,"current_range_meters":4000,"station_id":"ce4bh012rcd13ifvqd00","pricing_plan_id":"free"},{"bike_id":"d93bb3b0-5cb2-422b-9b56-bffe29bb3d7f","system_id":"levelo_inurba_marseille","lat":43.31642,"lon":5.40435,"is_reserved":false,"is_disabled":false,"rental_uris":{"android":"levelo://app?vid=d93bb3b0-5cb2-422b-9b56-bffe29bb3d7f","ios":"levelo://app?vid=d93bb3b0-5cb2-422b-9b56-bffe29bb3d7f"},"vehicle_type_id":"4","last_reported":1678581712,"current_range_meters":19600,"station_id":"ce4bh012rcd13ifvqd00","pricing_plan_id":"free"},{"bike_id":"401a7ede-ede0-4d19-a7db-da0338beb2a2","system_id":"levelo_inurba_marseille","lat":43.316517,"lon":5.404375,"is_reserved":false,"is_disabled":false,"rental_uris":{"android":"levelo://app?vid=401a7ede-ede0-4d19-a7db-da0338beb2a2","ios":"levelo://app?vid=401a7ede-ede0-4d19-a7db-da0338beb2a2"},"vehicle_type_id":"4","last_reported":1678581712,"current_range_meters":8000,"station_id":"ce4bh012rcd13ifvqd00","pricing_plan_id":"free"},{"bike_id":"7141eb9b-3646-416a-8311-15b7b93c8d39","system_id":"levelo_inurba_marseille","lat":43.316517,"lon":5.404375,"is_reserved":false,"is_disabled":false,"rental_uris":{"android":"levelo://app?vid=7141eb9b-3646-416a-8311-15b7b93c8d39","ios":"levelo://app?vid=7141eb9b-3646-416a-8311-15b7b93c8d39"},"vehicle_type_id":"4","last_reported":1678581712,"current_range_meters":5200,"station_id":"ce4bh012rcd13ifvqd00","pricing_plan_id":"free"},{"bike_id":"161db933-aeb8-4b83-a76f-f26a0f465db3","system_id":"levelo_inurba_marseille","lat":43.316472,"lon":5.404423,"is_reserved":false,"is_disabled":false,"rental_uris":{"android":"levelo://app?vid=161db933-aeb8-4b83-a76f-f26a0f465db3","ios":"levelo://app?vid=161db933-aeb8-4b83-a76f-f26a0f465db3"},"vehicle_type_id":"4","last_reported":1678581712,"current_range_meters":800,"station_id":"","pricing_plan_id":"free"},{"bike_id":"2d93ac09-08fa-46b1-9000-a973f5171426","system_id":"levelo_inurba_marseille","lat":43.316517,"lon":5.404375,"is_reserved":false,"is_disabled":false,"rental_uris":{"android":"levelo://app?vid=2d93ac09-08fa-46b1-9000-a973f5171426","ios":"levelo://app?vid=2d93ac09-08fa-46b1-9000-a973f5171426"},"vehicle_type_id":"4","last_reported":1678581712,"current_range_meters":0,"station_id":"ce4bh012rcd13ifvqd00","pricing_plan_id":"free"},{"bike_id":"105e6209-9f81-4dd5-8d75-cd70fa323b30","system_id":"levelo_inurba_marseille","lat":43.291286,"lon":5.392144,"is_reserved":false,"is_disabled":false,"rental_uris":{"android":"levelo://app?vid=105e6209-9f81-4dd5-8d75-cd70fa323b30","ios":"levelo://app?vid=105e6209-9f81-4dd5-8d75-cd70fa323b30"},"vehicle_type_id":"4","last_reported":1678581712,"current_range_meters":16400,"station_id":"","pricing_plan_id":"free"},{"bike_id":"9fd42986-c72b-4c87-b192-feb2f1d10594","system_id":"levelo_inurba_marseille","lat":43.284534,"lon":5.358662,"is_reserved":false,"is_disabled":false,"rental_uris":{"android":"levelo://app?vid=9fd42986-c72b-4c87-b192-feb2f1d10594","ios":"levelo://app?vid=9fd42986-c72b-4c87-b192-feb2f1d10594"},"vehicle_type_id":"4","last_reported":1678581712,"current_range_meters":21600,"station_id":"ce4bhah2rcd13ifvqei0","pricing_plan_id":"free"},{"bike_id":"a74db311-6b8e-45eb-b923-d3fc4f6a3ac7","system_id":"levelo_inurba_marseille","lat":43.28459,"lon":5.35892,"is_reserved":false,"is_disabled":false,"rental_uris":{"android":"levelo://app?vid=a74db311-6b8e-45eb-b923-d3fc4f6a3ac7","ios":"levelo://app?vid=a74db311-6b8e-45eb-b923-d3fc4f6a3ac7"},"vehicle_type_id":"4","last_reported":1678581712,"current_range_meters":2000,"station_id":"","pricing_plan_id":"free"},{"bike_id":"d6f93d58-b26c-4474-9a3b-d891f437e031","system_id":"levelo_inurba_marseille","lat":43.284534,"lon":5.358662,"is_reserved":false,"is_disabled":false,"rental_uris":{"android":"levelo://app?vid=d6f93d58-b26c-4474-9a3b-d891f437e031","ios":"levelo://app?vid=d6f93d58-b26c-4474-9a3b-d891f437e031"},"vehicle_type_id":"4","last_reported":1678581712,"current_range_meters":25600,"station_id":"ce4bhah2rcd13ifvqei0","pricing_plan_id":"free"},{"bike_id":"68b3e7e4-5220-423f-8022-9578097f014c","system_id":"levelo_inurba_marseille","lat":43.284534,"lon":5.358662,"is_reserved":false,"is_disabled":false,"rental_uris":{"android":"levelo://app?vid=68b3e7e4-5220-423f-8022-9578097f014c","ios":"levelo://app?vid=68b3e7e4-5220-423f-8022-9578097f014c"},"vehicle_type_id":"4","last_reported":1678581712,"current_range_meters":10000,"station_id":"ce4bhah2rcd13ifvqei0","pricing_plan_id":"free"},{"bike_id":"2be0e506-7e4c-4b73-a68e-ce8e2c8cd5fc","system_id":"levelo_inurba_marseille","lat":43.28459,"lon":5.35869,"is_reserved":false,"is_disabled":false,"rental_uris":{"android":"levelo://app?vid=2be0e506-7e4c-4b73-a68e-ce8e2c8cd5fc","ios":"levelo://app?vid=2be0e506-7e4c-4b73-a68e-ce8e2c8cd5fc"},"vehicle_type_id":"4","last_reported":1678581712,"current_range_meters":7200,"station_id":"","pricing_plan_id":"free"},{"bike_id":"e62bb01d-e7f4-4dac-bd68-87eef4fdc97c","system_id":"levelo_inurba_marseille","lat":43.28452,"lon":5.35883,"is_reserved":false,"is_disabled":false,"rental_uris":{"android":"levelo://app?vid=e62bb01d-e7f4-4dac-bd68-87eef4fdc97c","ios":"levelo://app?vid=e62bb01d-e7f4-4dac-bd68-87eef4fdc97c"},"vehicle_type_id":"4","last_reported":1678581712,"current_range_meters":27200,"station_id":"ce4bhah2rcd13ifvqei0","pricing_plan_id":"free"},{"bike_id":"37be8fb7-979d-47cf-9648-7445ee7c7e84","system_id":"levelo_inurba_marseille","lat":43.295713,"lon":5.399639,"is_reserved":false,"is_disabled":false,"rental_uris":{"android":"levelo://app?vid=37be8fb7-979d-47cf-9648-7445ee7c7e84","ios":"levelo://app?vid=37be8fb7-979d-47cf-9648-7445ee7c7e84"},"vehicle_type_id":"4","last_reported":1678581712,"current_range_meters":11200,"station_id":"ce4bh312rcd13ifvqdj0","pricing_plan_id":"free"},{"bike_id":"207e6c2c-1d01-486d-b957-a140a1455212","system_id":"levelo_inurba_marseille","lat":43.286595,"lon":5.386795,"is_reserved":false,"is_disabled":false,"rental_uris":{"android":"levelo://app?vid=207e6c2c-1d01-486d-b957-a140a1455212","ios":"levelo://app?vid=207e6c2c-1d01-486d-b957-a140a1455212"},"vehicle_type_id":"4","last_reported":1678581712,"current_range_meters":0,"station_id":"ce4bh492rcd13ifvqdug","pricing_plan_id":"free"},{"bike_id":"a439fb00-ca1d-4eb6-bfb8-4317911e8952","system_id":"levelo_inurba_marseille","lat":43.286595,"lon":5.386795,"is_reserved":false,"is_disabled":false,"rental_uris":{"android":"levelo://app?vid=a439fb00-ca1d-4eb6-bfb8-4317911e8952","ios":"levelo://app?vid=a439fb00-ca1d-4eb6-bfb8-4317911e8952"},"vehicle_type_id":"4","last_reported":1678581712,"current_range_meters":0,"station_id":"ce4bh492rcd13ifvqdug","pricing_plan_id":"free"},{"bike_id":"26a10ba1-af72-43db-b174-87404e4c3292","system_id":"levelo_inurba_marseille","lat":43.286595,"lon":5.386795,"is_reserved":false,"is_disabled":false,"rental_uris":{"android":"levelo://app?vid=26a10ba1-af72-43db-b174-87404e4c3292","ios":"levelo://app?vid=26a10ba1-af72-43db-b174-87404e4c3292"},"vehicle_type_id":"4","last_reported":1678581712,"current_range_meters":2000,"station_id":"ce4bh492rcd13ifvqdug","pricing_plan_id":"free"},{"bike_id":"c6663e10-5580-4ca6-b47e-7f4f35e494f7","system_id":"levelo_inurba_marseille","lat":43.33715,"lon":5.3918,"is_reserved":false,"is_disabled":false,"rental_uris":{"android":"levelo://app?vid=c6663e10-5580-4ca6-b47e-7f4f35e494f7","ios":"levelo://app?vid=c6663e10-5580-4ca6-b47e-7f4f35e494f7"},"vehicle_type_id":"4","last_reported":1678581712,"current_range_meters":25600,"station_id":"","pricing_plan_id":"free"},{"bike_id":"7ebff1c8-db28-4930-a896-d6a1bb9e737c","system_id":"levelo_inurba_marseille","lat":43.337168,"lon":5.391825,"is_reserved":false,"is_disabled":false,"rental_uris":{"android":"levelo://app?vid=7ebff1c8-db28-4930-a896-d6a1bb9e737c","ios":"levelo://app?vid=7ebff1c8-db28-4930-a896-d6a1bb9e737c"},"vehicle_type_id":"4","last_reported":1678581712,"current_range_meters":31200,"station_id":"ce4bhr92rcd13ifvqhsg","pricing_plan_id":"free"},{"bike_id":"16f0dc7b-56a1-4503-831f-4e1fb24172ab","system_id":"levelo_inurba_marseille","lat":43.337168,"lon":5.391825,"is_reserved":false,"is_disabled":false,"rental_uris":{"android":"levelo://app?vid=16f0dc7b-56a1-4503-831f-4e1fb24172ab","ios":"levelo://app?vid=16f0dc7b-56a1-4503-831f-4e1fb24172ab"},"vehicle_type_id":"4","last_reported":1678581712,"current_range_meters":24800,"station_id":"ce4bhr92rcd13ifvqhsg","pricing_plan_id":"free"},{"bike_id":"071751a6-2257-4f47-b83d-6a49691737ea","system_id":"levelo_inurba_marseille","lat":43.33725,"lon":5.39179,"is_reserved":false,"is_disabled":false,"rental_uris":{"android":"levelo://app?vid=071751a6-2257-4f47-b83d-6a49691737ea","ios":"levelo://app?vid=071751a6-2257-4f47-b83d-6a49691737ea"},"vehicle_type_id":"4","last_reported":1678581712,"current_range_meters":19200,"station_id":"","pricing_plan_id":"free"},{"bike_id":"42e28ab5-8793-4be0-9d7f-ebdfd7e9b678","system_id":"levelo_inurba_marseille","lat":43.337168,"lon":5.391825,"is_reserved":false,"is_disabled":false,"rental_uris":{"android":"levelo://app?vid=42e28ab5-8793-4be0-9d7f-ebdfd7e9b678","ios":"levelo://app?vid=42e28ab5-8793-4be0-9d7f-ebdfd7e9b678"},"vehicle_type_id":"4","last_reported":1678581712,"current_range_meters":14400,"station_id":"ce4bhr92rcd13ifvqhsg","pricing_plan_id":"free"},{"bike_id":"024758cd-58b3-47e4-a65c-1a19a9b716b5","system_id":"levelo_inurba_marseille","lat":43.337168,"lon":5.391825,"is_reserved":false,"is_disabled":false,"rental_uris":{"android":"levelo://app?vid=024758cd-58b3-47e4-a65c-1a19a9b716b5","ios":"levelo://app?vid=024758cd-58b3-47e4-a65c-1a19a9b716b5"},"vehicle_type_id":"4","last_reported":1678581712,"current_range_meters":12400,"station_id":"ce4bhr92rcd13ifvqhsg","pricing_plan_id":"free"},{"bike_id":"17fc5c5f-0b91-4d22-9d68-bc71c3e417f3","system_id":"levelo_inurba_marseille","lat":43.32333,"lon":5.4062,"is_reserved":false,"is_disabled":false,"rental_uris":{"android":"levelo://app?vid=17fc5c5f-0b91-4d22-9d68-bc71c3e417f3","ios":"levelo://app?vid=17fc5c5f-0b91-4d22-9d68-bc71c3e417f3"},"vehicle_type_id":"4","last_reported":1678581712,"current_range_meters":17600,"station_id":"","pricing_plan_id":"free"},{"bike_id":"cfbcfa0e-a04b-48fb-a2af-b7c60c740e1b","system_id":"levelo_inurba_marseille","lat":43.32342,"lon":5.40617,"is_reserved":false,"is_disabled":false,"rental_uris":{"android":"levelo://app?vid=cfbcfa0e-a04b-48fb-a2af-b7c60c740e1b","ios":"levelo://app?vid=cfbcfa0e-a04b-48fb-a2af-b7c60c740e1b"},"vehicle_type_id":"4","last_reported":1678581712,"current_range_meters":4800,"station_id":"","pricing_plan_id":"free"},{"bike_id":"4e34cadd-607d-4ba4-83f0-da4cac819d45","system_id":"levelo_inurba_marseille","lat":43.337168,"lon":5.391825,"is_reserved":false,"is_disabled":false,"rental_uris":{"android":"levelo://app?vid=4e34cadd-607d-4ba4-83f0-da4cac819d45","ios":"levelo://app?vid=4e34cadd-607d-4ba4-83f0-da4cac819d45"},"vehicle_type_id":"4","last_reported":1678581712,"current_range_meters":27200,"station_id":"ce4bhr92rcd13ifvqhsg","pricing_plan_id":"free"},{"bike_id":"aef578b7-5c67-4211-aa58-0bfbdaf0fdae","system_id":"levelo_inurba_marseille","lat":43.323371,"lon":5.406225,"is_reserved":false,"is_disabled":false,"rental_uris":{"android":"levelo://app?vid=aef578b7-5c67-4211-aa58-0bfbdaf0fdae","ios":"levelo://app?vid=aef578b7-5c67-4211-aa58-0bfbdaf0fdae"},"vehicle_type_id":"4","last_reported":1678581712,"current_range_meters":1200,"station_id":"","pricing_plan_id":"free"},{"bike_id":"be89b116-4999-470c-a7d4-b1c9dc279419","system_id":"levelo_inurba_marseille","lat":43.337168,"lon":5.391825,"is_reserved":false,"is_disabled":false,"rental_uris":{"android":"levelo://app?vid=be89b116-4999-470c-a7d4-b1c9dc279419","ios":"levelo://app?vid=be89b116-4999-470c-a7d4-b1c9dc279419"},"vehicle_type_id":"4","last_reported":1678581712,"current_range_meters":29200,"station_id":"ce4bhr92rcd13ifvqhsg","pricing_plan_id":"free"},{"bike_id":"8740c9a6-83bd-4ec0-b313-25a6fb365634","system_id":"levelo_inurba_marseille","lat":43.337168,"lon":5.391825,"is_reserved":false,"is_disabled":false,"rental_uris":{"android":"levelo://app?vid=8740c9a6-83bd-4ec0-b313-25a6fb365634","ios":"levelo://app?vid=8740c9a6-83bd-4ec0-b313-25a6fb365634"},"vehicle_type_id":"4","last_reported":1678581712,"current_range_meters":12000,"station_id":"ce4bhr92rcd13ifvqhsg","pricing_plan_id":"free"},{"bike_id":"dcb1c353-e269-432c-a7d8-02e1d0292eb6","system_id":"levelo_inurba_marseille","lat":43.337168,"lon":5.391825,"is_reserved":false,"is_disabled":false,"rental_uris":{"android":"levelo://app?vid=dcb1c353-e269-432c-a7d8-02e1d0292eb6","ios":"levelo://app?vid=dcb1c353-e269-432c-a7d8-02e1d0292eb6"},"vehicle_type_id":"4","last_reported":1678581712,"current_range_meters":5600,"station_id":"ce4bhr92rcd13ifvqhsg","pricing_plan_id":"free"},{"bike_id":"cdafbaf1-4584-4a1d-9856-3416f8106cdf","system_id":"levelo_inurba_marseille","lat":43.284793,"lon":5.384113,"is_reserved":false,"is_disabled":false,"rental_uris":{"android":"levelo://app?vid=cdafbaf1-4584-4a1d-9856-3416f8106cdf","ios":"levelo://app?vid=cdafbaf1-4584-4a1d-9856-3416f8106cdf"},"vehicle_type_id":"4","last_reported":1678581712,"current_range_meters":4400,"station_id":"ce4bh512rcd13ifvqe3g","pricing_plan_id":"free"},{"bike_id":"cacf8bc0-de0f-4ff7-8d5c-5f2ace28d15b","system_id":"levelo_inurba_marseille","lat":43.288501,"lon":5.393087,"is_reserved":false,"is_disabled":false,"rental_uris":{"android":"levelo://app?vid=cacf8bc0-de0f-4ff7-8d5c-5f2ace28d15b","ios":"levelo://app?vid=cacf8bc0-de0f-4ff7-8d5c-5f2ace28d15b"},"vehicle_type_id":"4","last_reported":1678581712,"current_range_meters":0,"station_id":"ce4bh2p2rcd13ifvqdi0","pricing_plan_id":"free"},{"bike_id":"57b54ac4-a78c-4ff9-8305-8624da21712c","system_id":"levelo_inurba_marseille","lat":43.288497,"lon":5.393089,"is_reserved":false,"is_disabled":false,"rental_uris":{"android":"levelo://app?vid=57b54ac4-a78c-4ff9-8305-8624da21712c","ios":"levelo://app?vid=57b54ac4-a78c-4ff9-8305-8624da21712c"},"vehicle_type_id":"4","last_reported":1678581712,"current_range_meters":20800,"station_id":"ce4bh2p2rcd13ifvqdi0","pricing_plan_id":"free"},{"bike_id":"4d9a363d-602b-42ea-a618-f113dd25d172","system_id":"levelo_inurba_marseille","lat":43.292724,"lon":5.401131,"is_reserved":false,"is_disabled":false,"rental_uris":{"android":"levelo://app?vid=4d9a363d-602b-42ea-a618-f113dd25d172","ios":"levelo://app?vid=4d9a363d-602b-42ea-a618-f113dd25d172"},"vehicle_type_id":"4","last_reported":1678581712,"current_range_meters":5600,"station_id":"ce4bh312rcd13ifvqdk0","pricing_plan_id":"free"},{"bike_id":"b70579a1-1154-4883-a19d-3e483e6d5015","system_id":"levelo_inurba_marseille","lat":43.292724,"lon":5.401131,"is_reserved":false,"is_disabled":false,"rental_uris":{"android":"levelo://app?vid=b70579a1-1154-4883-a19d-3e483e6d5015","ios":"levelo://app?vid=b70579a1-1154-4883-a19d-3e483e6d5015"},"vehicle_type_id":"4","last_reported":1678581712,"current_range_meters":15600,"station_id":"ce4bh312rcd13ifvqdk0","pricing_plan_id":"free"},{"bike_id":"5f8de6c6-d4d1-4539-bc9c-0872af5a11fb","system_id":"levelo_inurba_marseille","lat":43.292724,"lon":5.401131,"is_reserved":false,"is_disabled":false,"rental_uris":{"android":"levelo://app?vid=5f8de6c6-d4d1-4539-bc9c-0872af5a11fb","ios":"levelo://app?vid=5f8de6c6-d4d1-4539-bc9c-0872af5a11fb"},"vehicle_type_id":"4","last_reported":1678581712,"current_range_meters":8000,"station_id":"ce4bh312rcd13ifvqdk0","pricing_plan_id":"free"},{"bike_id":"d8c8b4d3-da5c-4f37-8bff-5b28a8cc26fb","system_id":"levelo_inurba_marseille","lat":43.292724,"lon":5.401131,"is_reserved":false,"is_disabled":false,"rental_uris":{"android":"levelo://app?vid=d8c8b4d3-da5c-4f37-8bff-5b28a8cc26fb","ios":"levelo://app?vid=d8c8b4d3-da5c-4f37-8bff-5b28a8cc26fb"},"vehicle_type_id":"4","last_reported":1678581712,"current_range_meters":31600,"station_id":"ce4bh312rcd13ifvqdk0","pricing_plan_id":"free"},{"bike_id":"46fe00d2-f11c-4ecb-901c-a3e53d3ff5cf","system_id":"levelo_inurba_marseille","lat":43.292724,"lon":5.401131,"is_reserved":false,"is_disabled":false,"rental_uris":{"android":"levelo://app?vid=46fe00d2-f11c-4ecb-901c-a3e53d3ff5cf","ios":"levelo://app?vid=46fe00d2-f11c-4ecb-901c-a3e53d3ff5cf"},"vehicle_type_id":"4","last_reported":1678581712,"current_range_meters":5200,"station_id":"ce4bh312rcd13ifvqdk0","pricing_plan_id":"free"},{"bike_id":"a08da736-2a3f-44d3-bf4b-7fcd823c81a0","system_id":"levelo_inurba_marseille","lat":43.292724,"lon":5.401131,"is_reserved":false,"is_disabled":false,"rental_uris":{"android":"levelo://app?vid=a08da736-2a3f-44d3-bf4b-7fcd823c81a0","ios":"levelo://app?vid=a08da736-2a3f-44d3-bf4b-7fcd823c81a0"},"vehicle_type_id":"4","last_reported":1678581712,"current_range_meters":19200,"station_id":"ce4bh312rcd13ifvqdk0","pricing_plan_id":"free"},{"bike_id":"3608f566-2048-4ee5-8be9-01f1cdbe3b7f","system_id":"levelo_inurba_marseille","lat":43.282744,"lon":5.350533,"is_reserved":false,"is_disabled":false,"rental_uris":{"android":"levelo://app?vid=3608f566-2048-4ee5-8be9-01f1cdbe3b7f","ios":"levelo://app?vid=3608f566-2048-4ee5-8be9-01f1cdbe3b7f"},"vehicle_type_id":"4","last_reported":1678581712,"current_range_meters":2000,"station_id":"ce4bhbp2rcd13ifvqerg","pricing_plan_id":"free"},{"bike_id":"7eea7e0c-b64e-4ea5-897f-164d9bab6995","system_id":"levelo_inurba_marseille","lat":43.282725,"lon":5.350688,"is_reserved":false,"is_disabled":false,"rental_uris":{"android":"levelo://app?vid=7eea7e0c-b64e-4ea5-897f-164d9bab6995","ios":"levelo://app?vid=7eea7e0c-b64e-4ea5-897f-164d9bab6995"},"vehicle_type_id":"4","last_reported":1678581712,"current_range_meters":0,"station_id":"ce4bhbp2rcd13ifvqerg","pricing_plan_id":"free"},{"bike_id":"e548b0a3-e95d-4b19-b688-e88e86761fc2","system_id":"levelo_inurba_marseille","lat":43.282744,"lon":5.350533,"is_reserved":false,"is_disabled":false,"rental_uris":{"android":"levelo://app?vid=e548b0a3-e95d-4b19-b688-e88e86761fc2","ios":"levelo://app?vid=e548b0a3-e95d-4b19-b688-e88e86761fc2"},"vehicle_type_id":"4","last_reported":1678581712,"current_range_meters":25600,"station_id":"ce4bhbp2rcd13ifvqerg","pricing_plan_id":"free"},{"bike_id":"d4570d0a-5c6c-4111-8c90-5401e9e77e55","system_id":"levelo_inurba_marseille","lat":43.282744,"lon":5.350533,"is_reserved":false,"is_disabled":false,"rental_uris":{"android":"levelo://app?vid=d4570d0a-5c6c-4111-8c90-5401e9e77e55","ios":"levelo://app?vid=d4570d0a-5c6c-4111-8c90-5401e9e77e55"},"vehicle_type_id":"4","last_reported":1678581712,"current_range_meters":0,"station_id":"ce4bhbp2rcd13ifvqerg","pricing_plan_id":"free"},{"bike_id":"b3ce553d-eec2-4d3b-a223-9baa5de5969e","system_id":"levelo_inurba_marseille","lat":43.282744,"lon":5.350533,"is_reserved":false,"is_disabled":false,"rental_uris":{"android":"levelo://app?vid=b3ce553d-eec2-4d3b-a223-9baa5de5969e","ios":"levelo://app?vid=b3ce553d-eec2-4d3b-a223-9baa5de5969e"},"vehicle_type_id":"4","last_reported":1678581712,"current_range_meters":13200,"station_id":"ce4bhbp2rcd13ifvqerg","pricing_plan_id":"free"},{"bike_id":"5c8693d5-e8dc-4305-8a86-d1369a2d530e","system_id":"levelo_inurba_marseille","lat":43.283502,"lon":5.386471,"is_reserved":false,"is_disabled":false,"rental_uris":{"android":"levelo://app?vid=5c8693d5-e8dc-4305-8a86-d1369a2d530e","ios":"levelo://app?vid=5c8693d5-e8dc-4305-8a86-d1369a2d530e"},"vehicle_type_id":"4","last_reported":1678581712,"current_range_meters":0,"station_id":"ce4bh492rcd13ifvqdvg","pricing_plan_id":"free"},{"bike_id":"2e544937-ebe8-4540-94bb-c5980e0a4f63","system_id":"levelo_inurba_marseille","lat":43.28364,"lon":5.38634,"is_reserved":false,"is_disabled":false,"rental_uris":{"android":"levelo://app?vid=2e544937-ebe8-4540-94bb-c5980e0a4f63","ios":"levelo://app?vid=2e544937-ebe8-4540-94bb-c5980e0a4f63"},"vehicle_type_id":"4","last_reported":1678581712,"current_range_meters":16000,"station_id":"ce4bh492rcd13ifvqdvg","pricing_plan_id":"free"},{"bike_id":"0d0f449d-c179-4335-9d9a-9d94a3f200e3","system_id":"levelo_inurba_marseille","lat":43.28039,"lon":5.369297,"is_reserved":false,"is_disabled":false,"rental_uris":{"android":"levelo://app?vid=0d0f449d-c179-4335-9d9a-9d94a3f200e3","ios":"levelo://app?vid=0d0f449d-c179-4335-9d9a-9d94a3f200e3"},"vehicle_type_id":"4","last_reported":1678581712,"current_range_meters":6400,"station_id":"ce4bha12rcd13ifvqef0","pricing_plan_id":"free"},{"bike_id":"d2d67695-ea3f-4064-b6b9-6af351070314","system_id":"levelo_inurba_marseille","lat":43.280382,"lon":5.369291,"is_reserved":false,"is_disabled":false,"rental_uris":{"android":"levelo://app?vid=d2d67695-ea3f-4064-b6b9-6af351070314","ios":"levelo://app?vid=d2d67695-ea3f-4064-b6b9-6af351070314"},"vehicle_type_id":"4","last_reported":1678581712,"current_range_meters":27600,"station_id":"ce4bha12rcd13ifvqef0","pricing_plan_id":"free"},{"bike_id":"b9ce73d3-bc74-43a1-b32c-9aff711d22c3","system_id":"levelo_inurba_marseille","lat":43.280382,"lon":5.369291,"is_reserved":false,"is_disabled":false,"rental_uris":{"android":"levelo://app?vid=b9ce73d3-bc74-43a1-b32c-9aff711d22c3","ios":"levelo://app?vid=b9ce73d3-bc74-43a1-b32c-9aff711d22c3"},"vehicle_type_id":"4","last_reported":1678581712,"current_range_meters":21200,"station_id":"ce4bha12rcd13ifvqef0","pricing_plan_id":"free"},{"bike_id":"f59f47f7-b975-4c1c-ad36-c725c8d8ddb6","system_id":"levelo_inurba_marseille","lat":43.28039,"lon":5.369297,"is_reserved":false,"is_disabled":false,"rental_uris":{"android":"levelo://app?vid=f59f47f7-b975-4c1c-ad36-c725c8d8ddb6","ios":"levelo://app?vid=f59f47f7-b975-4c1c-ad36-c725c8d8ddb6"},"vehicle_type_id":"4","last_reported":1678581712,"current_range_meters":3200,"station_id":"ce4bha12rcd13ifvqef0","pricing_plan_id":"free"},{"bike_id":"52600047-77e7-44c4-a3b1-3098851ee8f4","system_id":"levelo_inurba_marseille","lat":43.28039,"lon":5.369297,"is_reserved":false,"is_disabled":false,"rental_uris":{"android":"levelo://app?vid=52600047-77e7-44c4-a3b1-3098851ee8f4","ios":"levelo://app?vid=52600047-77e7-44c4-a3b1-3098851ee8f4"},"vehicle_type_id":"4","last_reported":1678581712,"current_range_meters":26400,"station_id":"ce4bha12rcd13ifvqef0","pricing_plan_id":"free"},{"bike_id":"6c68a954-7279-4353-aec8-527f61e07cdc","system_id":"levelo_inurba_marseille","lat":43.28098,"lon":5.37733,"is_reserved":false,"is_disabled":false,"rental_uris":{"android":"levelo://app?vid=6c68a954-7279-4353-aec8-527f61e07cdc","ios":"levelo://app?vid=6c68a954-7279-4353-aec8-527f61e07cdc"},"vehicle_type_id":"4","last_reported":1678581712,"current_range_meters":4400,"station_id":"","pricing_plan_id":"free"},{"bike_id":"b6b51138-f98e-4ff4-a70d-c70715ea29e1","system_id":"levelo_inurba_marseille","lat":43.290412,"lon":5.399633,"is_reserved":false,"is_disabled":false,"rental_uris":{"android":"levelo://app?vid=b6b51138-f98e-4ff4-a70d-c70715ea29e1","ios":"levelo://app?vid=b6b51138-f98e-4ff4-a70d-c70715ea29e1"},"vehicle_type_id":"4","last_reported":1678581712,"current_range_meters":30800,"station_id":"ce4bh392rcd13ifvqdm0","pricing_plan_id":"free"},{"bike_id":"5d1aae80-54ea-4269-ab63-976b8c3a3ce1","system_id":"levelo_inurba_marseille","lat":43.281044,"lon":5.378308,"is_reserved":false,"is_disabled":false,"rental_uris":{"android":"levelo://app?vid=5d1aae80-54ea-4269-ab63-976b8c3a3ce1","ios":"levelo://app?vid=5d1aae80-54ea-4269-ab63-976b8c3a3ce1"},"vehicle_type_id":"4","last_reported":1678581712,"current_range_meters":16000,"station_id":"ce4bha12rcd13ifvqee0","pricing_plan_id":"free"},{"bike_id":"725e176b-013c-481f-982f-06d9f3240a0a","system_id":"levelo_inurba_marseille","lat":43.281055,"lon":5.37839,"is_reserved":false,"is_disabled":false,"rental_uris":{"android":"levelo://app?vid=725e176b-013c-481f-982f-06d9f3240a0a","ios":"levelo://app?vid=725e176b-013c-481f-982f-06d9f3240a0a"},"vehicle_type_id":"4","last_reported":1678581712,"current_range_meters":4800,"station_id":"ce4bha12rcd13ifvqee0","pricing_plan_id":"free"},{"bike_id":"433b0ebb-c6a7-439c-bc79-d8c392491a41","system_id":"levelo_inurba_marseille","lat":43.281044,"lon":5.378308,"is_reserved":false,"is_disabled":false,"rental_uris":{"android":"levelo://app?vid=433b0ebb-c6a7-439c-bc79-d8c392491a41","ios":"levelo://app?vid=433b0ebb-c6a7-439c-bc79-d8c392491a41"},"vehicle_type_id":"4","last_reported":1678581712,"current_range_meters":0,"station_id":"ce4bha12rcd13ifvqee0","pricing_plan_id":"free"},{"bike_id":"22d0e9eb-2cf2-402b-9947-d51deb3abf48","system_id":"levelo_inurba_marseille","lat":43.284462,"lon":5.392121,"is_reserved":false,"is_disabled":false,"rental_uris":{"android":"levelo://app?vid=22d0e9eb-2cf2-402b-9947-d51deb3abf48","ios":"levelo://app?vid=22d0e9eb-2cf2-402b-9947-d51deb3abf48"},"vehicle_type_id":"4","last_reported":1678581712,"current_range_meters":18400,"station_id":"ce4bhoh2rcd13ifvqh5g","pricing_plan_id":"free"},{"bike_id":"fadbbe24-6084-4d19-97b5-f7c7e606174f","system_id":"levelo_inurba_marseille","lat":43.30416,"lon":5.41281,"is_reserved":false,"is_disabled":false,"rental_uris":{"android":"levelo://app?vid=fadbbe24-6084-4d19-97b5-f7c7e606174f","ios":"levelo://app?vid=fadbbe24-6084-4d19-97b5-f7c7e606174f"},"vehicle_type_id":"4","last_reported":1678581712,"current_range_meters":3600,"station_id":"ce4bhop2rcd13ifvqh8g","pricing_plan_id":"free"},{"bike_id":"305e92ed-456d-443d-a5af-25c3a1d84ede","system_id":"levelo_inurba_marseille","lat":43.30411,"lon":5.41284,"is_reserved":false,"is_disabled":false,"rental_uris":{"android":"levelo://app?vid=305e92ed-456d-443d-a5af-25c3a1d84ede","ios":"levelo://app?vid=305e92ed-456d-443d-a5af-25c3a1d84ede"},"vehicle_type_id":"4","last_reported":1678581712,"current_range_meters":23200,"station_id":"ce4bhop2rcd13ifvqh8g","pricing_plan_id":"free"},{"bike_id":"d873de88-39ec-4ff2-9ffd-f98414bb9fd1","system_id":"levelo_inurba_marseille","lat":43.320444,"lon":5.415326,"is_reserved":false,"is_disabled":false,"rental_uris":{"android":"levelo://app?vid=d873de88-39ec-4ff2-9ffd-f98414bb9fd1","ios":"levelo://app?vid=d873de88-39ec-4ff2-9ffd-f98414bb9fd1"},"vehicle_type_id":"4","last_reported":1678581712,"current_range_meters":29600,"station_id":"","pricing_plan_id":"free"},{"bike_id":"686ca4df-aa22-4fe5-812e-fa96ecad3590","system_id":"levelo_inurba_marseille","lat":43.31667,"lon":5.416281,"is_reserved":false,"is_disabled":false,"rental_uris":{"android":"levelo://app?vid=686ca4df-aa22-4fe5-812e-fa96ecad3590","ios":"levelo://app?vid=686ca4df-aa22-4fe5-812e-fa96ecad3590"},"vehicle_type_id":"4","last_reported":1678581712,"current_range_meters":2800,"station_id":"","pricing_plan_id":"free"},{"bike_id":"b193c10f-b1c9-4e3a-a61b-12bc2ed175b1","system_id":"levelo_inurba_marseille","lat":43.320443,"lon":5.415513,"is_reserved":false,"is_disabled":false,"rental_uris":{"android":"levelo://app?vid=b193c10f-b1c9-4e3a-a61b-12bc2ed175b1","ios":"levelo://app?vid=b193c10f-b1c9-4e3a-a61b-12bc2ed175b1"},"vehicle_type_id":"4","last_reported":1678581712,"current_range_meters":30800,"station_id":"","pricing_plan_id":"free"},{"bike_id":"78059be2-9afc-4bda-96b3-f1aad57ed56b","system_id":"levelo_inurba_marseille","lat":43.279742,"lon":5.38744,"is_reserved":false,"is_disabled":false,"rental_uris":{"android":"levelo://app?vid=78059be2-9afc-4bda-96b3-f1aad57ed56b","ios":"levelo://app?vid=78059be2-9afc-4bda-96b3-f1aad57ed56b"},"vehicle_type_id":"4","last_reported":1678581712,"current_range_meters":15600,"station_id":"ce4bhg12rcd13ifvqf80","pricing_plan_id":"free"},{"bike_id":"8e4be4f1-de8b-4d00-a525-0700a239ec3e","system_id":"levelo_inurba_marseille","lat":43.320045,"lon":5.415048,"is_reserved":false,"is_disabled":false,"rental_uris":{"android":"levelo://app?vid=8e4be4f1-de8b-4d00-a525-0700a239ec3e","ios":"levelo://app?vid=8e4be4f1-de8b-4d00-a525-0700a239ec3e"},"vehicle_type_id":"4","last_reported":1678581712,"current_range_meters":24800,"station_id":"ce4bhq92rcd13ifvqhkg","pricing_plan_id":"free"},{"bike_id":"01d248e6-d859-4a2c-911f-40c43bc510c7","system_id":"levelo_inurba_marseille","lat":43.292569,"lon":5.409107,"is_reserved":false,"is_disabled":false,"rental_uris":{"android":"levelo://app?vid=01d248e6-d859-4a2c-911f-40c43bc510c7","ios":"levelo://app?vid=01d248e6-d859-4a2c-911f-40c43bc510c7"},"vehicle_type_id":"4","last_reported":1678581712,"current_range_meters":14800,"station_id":"ce4bh192rcd13ifvqdc0","pricing_plan_id":"free"},{"bike_id":"8b3b0382-0f49-4ff7-ab08-7dee59712828","system_id":"levelo_inurba_marseille","lat":43.292571,"lon":5.409107,"is_reserved":false,"is_disabled":false,"rental_uris":{"android":"levelo://app?vid=8b3b0382-0f49-4ff7-ab08-7dee59712828","ios":"levelo://app?vid=8b3b0382-0f49-4ff7-ab08-7dee59712828"},"vehicle_type_id":"4","last_reported":1678581712,"current_range_meters":18800,"station_id":"ce4bh192rcd13ifvqdc0","pricing_plan_id":"free"},{"bike_id":"41b1a211-b245-406f-8682-fe3e00dbfadf","system_id":"levelo_inurba_marseille","lat":43.292569,"lon":5.409107,"is_reserved":false,"is_disabled":false,"rental_uris":{"android":"levelo://app?vid=41b1a211-b245-406f-8682-fe3e00dbfadf","ios":"levelo://app?vid=41b1a211-b245-406f-8682-fe3e00dbfadf"},"vehicle_type_id":"4","last_reported":1678581712,"current_range_meters":0,"station_id":"ce4bh192rcd13ifvqdc0","pricing_plan_id":"free"},{"bike_id":"15a11a18-aa9e-4f3c-9970-5acb808dd945","system_id":"levelo_inurba_marseille","lat":43.292569,"lon":5.409107,"is_reserved":false,"is_disabled":false,"rental_uris":{"android":"levelo://app?vid=15a11a18-aa9e-4f3c-9970-5acb808dd945","ios":"levelo://app?vid=15a11a18-aa9e-4f3c-9970-5acb808dd945"},"vehicle_type_id":"4","last_reported":1678581712,"current_range_meters":4000,"station_id":"ce4bh192rcd13ifvqdc0","pricing_plan_id":"free"},{"bike_id":"18aa44bb-65a4-4112-aada-f68a39a6d620","system_id":"levelo_inurba_marseille","lat":43.27618,"lon":5.361009,"is_reserved":false,"is_disabled":false,"rental_uris":{"android":"levelo://app?vid=18aa44bb-65a4-4112-aada-f68a39a6d620","ios":"levelo://app?vid=18aa44bb-65a4-4112-aada-f68a39a6d620"},"vehicle_type_id":"4","last_reported":1678581712,"current_range_meters":27600,"station_id":"ce4bgj92rcd13ifvqbe0","pricing_plan_id":"free"},{"bike_id":"8c9726c5-efe4-4657-bcf4-896245da61b0","system_id":"levelo_inurba_marseille","lat":43.27618,"lon":5.361009,"is_reserved":false,"is_disabled":false,"rental_uris":{"android":"levelo://app?vid=8c9726c5-efe4-4657-bcf4-896245da61b0","ios":"levelo://app?vid=8c9726c5-efe4-4657-bcf4-896245da61b0"},"vehicle_type_id":"4","last_reported":1678581712,"current_range_meters":26000,"station_id":"ce4bgj92rcd13ifvqbe0","pricing_plan_id":"free"},{"bike_id":"45b0a26b-fbe6-4f16-96bd-187a255706eb","system_id":"levelo_inurba_marseille","lat":43.3254,"lon":5.41437,"is_reserved":false,"is_disabled":false,"rental_uris":{"android":"levelo://app?vid=45b0a26b-fbe6-4f16-96bd-187a255706eb","ios":"levelo://app?vid=45b0a26b-fbe6-4f16-96bd-187a255706eb"},"vehicle_type_id":"4","last_reported":1678581712,"current_range_meters":25200,"station_id":"ce4bhq12rcd13ifvqhhg","pricing_plan_id":"free"},{"bike_id":"888ec31e-7ff1-4415-9121-a594691e70f7","system_id":"levelo_inurba_marseille","lat":43.27618,"lon":5.361009,"is_reserved":false,"is_disabled":false,"rental_uris":{"android":"levelo://app?vid=888ec31e-7ff1-4415-9121-a594691e70f7","ios":"levelo://app?vid=888ec31e-7ff1-4415-9121-a594691e70f7"},"vehicle_type_id":"4","last_reported":1678581712,"current_range_meters":30400,"station_id":"ce4bgj92rcd13ifvqbe0","pricing_plan_id":"free"},{"bike_id":"32eee528-8ea6-4a0c-93c2-aa56b73abd47","system_id":"levelo_inurba_marseille","lat":43.27618,"lon":5.361009,"is_reserved":false,"is_disabled":false,"rental_uris":{"android":"levelo://app?vid=32eee528-8ea6-4a0c-93c2-aa56b73abd47","ios":"levelo://app?vid=32eee528-8ea6-4a0c-93c2-aa56b73abd47"},"vehicle_type_id":"4","last_reported":1678581712,"current_range_meters":5200,"station_id":"ce4bgj92rcd13ifvqbe0","pricing_plan_id":"free"},{"bike_id":"e5b9fdcc-2d17-43cc-bb21-2cf09ebeb768","system_id":"levelo_inurba_marseille","lat":43.325243,"lon":5.414326,"is_reserved":false,"is_disabled":false,"rental_uris":{"android":"levelo://app?vid=e5b9fdcc-2d17-43cc-bb21-2cf09ebeb768","ios":"levelo://app?vid=e5b9fdcc-2d17-43cc-bb21-2cf09ebeb768"},"vehicle_type_id":"4","last_reported":1678581712,"current_range_meters":26800,"station_id":"ce4bhq12rcd13ifvqhhg","pricing_plan_id":"free"},{"bike_id":"c81f28f0-8e18-4d86-9832-4d93127084ed","system_id":"levelo_inurba_marseille","lat":43.27618,"lon":5.361009,"is_reserved":false,"is_disabled":false,"rental_uris":{"android":"levelo://app?vid=c81f28f0-8e18-4d86-9832-4d93127084ed","ios":"levelo://app?vid=c81f28f0-8e18-4d86-9832-4d93127084ed"},"vehicle_type_id":"4","last_reported":1678581712,"current_range_meters":28000,"station_id":"ce4bgj92rcd13ifvqbe0","pricing_plan_id":"free"},{"bike_id":"1d321179-1483-4a22-9355-5170945100a9","system_id":"levelo_inurba_marseille","lat":43.27618,"lon":5.361009,"is_reserved":false,"is_disabled":false,"rental_uris":{"android":"levelo://app?vid=1d321179-1483-4a22-9355-5170945100a9","ios":"levelo://app?vid=1d321179-1483-4a22-9355-5170945100a9"},"vehicle_type_id":"4","last_reported":1678581712,"current_range_meters":25600,"station_id":"ce4bgj92rcd13ifvqbe0","pricing_plan_id":"free"},{"bike_id":"f337c44f-a883-4a34-8cf7-87d7f52e27e0","system_id":"levelo_inurba_marseille","lat":43.27618,"lon":5.361009,"is_reserved":false,"is_disabled":false,"rental_uris":{"android":"levelo://app?vid=f337c44f-a883-4a34-8cf7-87d7f52e27e0","ios":"levelo://app?vid=f337c44f-a883-4a34-8cf7-87d7f52e27e0"},"vehicle_type_id":"4","last_reported":1678581712,"current_range_meters":21200,"station_id":"ce4bgj92rcd13ifvqbe0","pricing_plan_id":"free"},{"bike_id":"6468e0a6-f2cf-467b-8e75-468defeb1af8","system_id":"levelo_inurba_marseille","lat":43.325243,"lon":5.414326,"is_reserved":false,"is_disabled":false,"rental_uris":{"android":"levelo://app?vid=6468e0a6-f2cf-467b-8e75-468defeb1af8","ios":"levelo://app?vid=6468e0a6-f2cf-467b-8e75-468defeb1af8"},"vehicle_type_id":"4","last_reported":1678581712,"current_range_meters":27200,"station_id":"ce4bhq12rcd13ifvqhhg","pricing_plan_id":"free"},{"bike_id":"a8ccb03c-ea6b-46dc-b97b-c05a15e9f9f8","system_id":"levelo_inurba_marseille","lat":43.280784,"lon":5.396622,"is_reserved":false,"is_disabled":false,"rental_uris":{"android":"levelo://app?vid=a8ccb03c-ea6b-46dc-b97b-c05a15e9f9f8","ios":"levelo://app?vid=a8ccb03c-ea6b-46dc-b97b-c05a15e9f9f8"},"vehicle_type_id":"4","last_reported":1678581712,"current_range_meters":10400,"station_id":"ce4bho12rcd13ifvqh2g","pricing_plan_id":"free"},{"bike_id":"64cc5183-8758-4e73-94a1-6e5b39947225","system_id":"levelo_inurba_marseille","lat":43.280758,"lon":5.39659,"is_reserved":false,"is_disabled":false,"rental_uris":{"android":"levelo://app?vid=64cc5183-8758-4e73-94a1-6e5b39947225","ios":"levelo://app?vid=64cc5183-8758-4e73-94a1-6e5b39947225"},"vehicle_type_id":"4","last_reported":1678581712,"current_range_meters":5600,"station_id":"ce4bho12rcd13ifvqh2g","pricing_plan_id":"free"},{"bike_id":"b1dcd4a6-12da-4450-a877-2b2e1584de3c","system_id":"levelo_inurba_marseille","lat":43.273613,"lon":5.362705,"is_reserved":false,"is_disabled":false,"rental_uris":{"android":"levelo://app?vid=b1dcd4a6-12da-4450-a877-2b2e1584de3c","ios":"levelo://app?vid=b1dcd4a6-12da-4450-a877-2b2e1584de3c"},"vehicle_type_id":"4","last_reported":1678581712,"current_range_meters":800,"station_id":"ce4bhbh2rcd13ifvqeo0","pricing_plan_id":"free"},{"bike_id":"bc5b89f3-2855-4d4e-8ee1-2e503e73d318","system_id":"levelo_inurba_marseille","lat":43.273613,"lon":5.362705,"is_reserved":false,"is_disabled":false,"rental_uris":{"android":"levelo://app?vid=bc5b89f3-2855-4d4e-8ee1-2e503e73d318","ios":"levelo://app?vid=bc5b89f3-2855-4d4e-8ee1-2e503e73d318"},"vehicle_type_id":"4","last_reported":1678581712,"current_range_meters":4400,"station_id":"ce4bhbh2rcd13ifvqeo0","pricing_plan_id":"free"},{"bike_id":"c2f34b34-a363-4bc1-bfc9-0c7448be1f19","system_id":"levelo_inurba_marseille","lat":43.33612,"lon":5.410321,"is_reserved":false,"is_disabled":false,"rental_uris":{"android":"levelo://app?vid=c2f34b34-a363-4bc1-bfc9-0c7448be1f19","ios":"levelo://app?vid=c2f34b34-a363-4bc1-bfc9-0c7448be1f19"},"vehicle_type_id":"4","last_reported":1678581712,"current_range_meters":26400,"station_id":"ce4bhqh2rcd13ifvqhmg","pricing_plan_id":"free"},{"bike_id":"36a5c994-54a9-47f0-9a39-c70c22388fea","system_id":"levelo_inurba_marseille","lat":43.33612,"lon":5.410321,"is_reserved":false,"is_disabled":false,"rental_uris":{"android":"levelo://app?vid=36a5c994-54a9-47f0-9a39-c70c22388fea","ios":"levelo://app?vid=36a5c994-54a9-47f0-9a39-c70c22388fea"},"vehicle_type_id":"4","last_reported":1678581712,"current_range_meters":22400,"station_id":"ce4bhqh2rcd13ifvqhmg","pricing_plan_id":"free"},{"bike_id":"a9095612-3d08-4fbd-9fe4-f204badfc2a1","system_id":"levelo_inurba_marseille","lat":43.33612,"lon":5.410321,"is_reserved":false,"is_disabled":false,"rental_uris":{"android":"levelo://app?vid=a9095612-3d08-4fbd-9fe4-f204badfc2a1","ios":"levelo://app?vid=a9095612-3d08-4fbd-9fe4-f204badfc2a1"},"vehicle_type_id":"4","last_reported":1678581712,"current_range_meters":25200,"station_id":"ce4bhqh2rcd13ifvqhmg","pricing_plan_id":"free"},{"bike_id":"5443ae52-8a2b-40e0-a313-9119cef256e7","system_id":"levelo_inurba_marseille","lat":43.33612,"lon":5.410321,"is_reserved":false,"is_disabled":false,"rental_uris":{"android":"levelo://app?vid=5443ae52-8a2b-40e0-a313-9119cef256e7","ios":"levelo://app?vid=5443ae52-8a2b-40e0-a313-9119cef256e7"},"vehicle_type_id":"4","last_reported":1678581712,"current_range_meters":20800,"station_id":"ce4bhqh2rcd13ifvqhmg","pricing_plan_id":"free"},{"bike_id":"1df2178c-fd6f-4a51-928c-5da2189db10c","system_id":"levelo_inurba_marseille","lat":43.33612,"lon":5.410321,"is_reserved":false,"is_disabled":false,"rental_uris":{"android":"levelo://app?vid=1df2178c-fd6f-4a51-928c-5da2189db10c","ios":"levelo://app?vid=1df2178c-fd6f-4a51-928c-5da2189db10c"},"vehicle_type_id":"4","last_reported":1678581712,"current_range_meters":8000,"station_id":"ce4bhqh2rcd13ifvqhmg","pricing_plan_id":"free"},{"bike_id":"a0240fa7-344e-4c27-b770-79d300d1f052","system_id":"levelo_inurba_marseille","lat":43.33612,"lon":5.410321,"is_reserved":false,"is_disabled":false,"rental_uris":{"android":"levelo://app?vid=a0240fa7-344e-4c27-b770-79d300d1f052","ios":"levelo://app?vid=a0240fa7-344e-4c27-b770-79d300d1f052"},"vehicle_type_id":"4","last_reported":1678581712,"current_range_meters":19600,"station_id":"ce4bhqh2rcd13ifvqhmg","pricing_plan_id":"free"},{"bike_id":"e579f62b-5fb9-47df-9fe0-b0f3537b2229","system_id":"levelo_inurba_marseille","lat":43.317121,"lon":5.423936,"is_reserved":false,"is_disabled":false,"rental_uris":{"android":"levelo://app?vid=e579f62b-5fb9-47df-9fe0-b0f3537b2229","ios":"levelo://app?vid=e579f62b-5fb9-47df-9fe0-b0f3537b2229"},"vehicle_type_id":"4","last_reported":1678581712,"current_range_meters":8400,"station_id":"ce4bhp92rcd13ifvqhbg","pricing_plan_id":"free"},{"bike_id":"e9bb9968-3a31-43f5-b0ed-0c8cedd1ffef","system_id":"levelo_inurba_marseille","lat":43.31083,"lon":5.42429,"is_reserved":false,"is_disabled":false,"rental_uris":{"android":"levelo://app?vid=e9bb9968-3a31-43f5-b0ed-0c8cedd1ffef","ios":"levelo://app?vid=e9bb9968-3a31-43f5-b0ed-0c8cedd1ffef"},"vehicle_type_id":"4","last_reported":1678581712,"current_range_meters":0,"station_id":"","pricing_plan_id":"free"},{"bike_id":"acb252d6-4137-4734-89dd-f03a2f5a61cc","system_id":"levelo_inurba_marseille","lat":43.317121,"lon":5.423936,"is_reserved":false,"is_disabled":false,"rental_uris":{"android":"levelo://app?vid=acb252d6-4137-4734-89dd-f03a2f5a61cc","ios":"levelo://app?vid=acb252d6-4137-4734-89dd-f03a2f5a61cc"},"vehicle_type_id":"4","last_reported":1678581712,"current_range_meters":31600,"station_id":"ce4bhp92rcd13ifvqhbg","pricing_plan_id":"free"},{"bike_id":"6e7e6b58-27e8-42c5-a438-4508638380dc","system_id":"levelo_inurba_marseille","lat":43.317121,"lon":5.423936,"is_reserved":false,"is_disabled":false,"rental_uris":{"android":"levelo://app?vid=6e7e6b58-27e8-42c5-a438-4508638380dc","ios":"levelo://app?vid=6e7e6b58-27e8-42c5-a438-4508638380dc"},"vehicle_type_id":"4","last_reported":1678581712,"current_range_meters":30400,"station_id":"ce4bhp92rcd13ifvqhbg","pricing_plan_id":"free"},{"bike_id":"f2cd6ae5-4841-40c7-8b29-1a3eaa54c23a","system_id":"levelo_inurba_marseille","lat":43.27946,"lon":5.4043,"is_reserved":false,"is_disabled":false,"rental_uris":{"android":"levelo://app?vid=f2cd6ae5-4841-40c7-8b29-1a3eaa54c23a","ios":"levelo://app?vid=f2cd6ae5-4841-40c7-8b29-1a3eaa54c23a"},"vehicle_type_id":"4","last_reported":1678581712,"current_range_meters":22000,"station_id":"","pricing_plan_id":"free"},{"bike_id":"72ee34c5-b7f9-46e9-8c9d-04ed467ce847","system_id":"levelo_inurba_marseille","lat":43.274103,"lon":5.394016,"is_reserved":false,"is_disabled":false,"rental_uris":{"android":"levelo://app?vid=72ee34c5-b7f9-46e9-8c9d-04ed467ce847","ios":"levelo://app?vid=72ee34c5-b7f9-46e9-8c9d-04ed467ce847"},"vehicle_type_id":"4","last_reported":1678581712,"current_range_meters":0,"station_id":"ce4bhdp2rcd13ifvqf20","pricing_plan_id":"free"},{"bike_id":"c3aae15b-358e-4585-9d73-977c27cb7e9e","system_id":"levelo_inurba_marseille","lat":43.304096,"lon":5.425385,"is_reserved":false,"is_disabled":false,"rental_uris":{"android":"levelo://app?vid=c3aae15b-358e-4585-9d73-977c27cb7e9e","ios":"levelo://app?vid=c3aae15b-358e-4585-9d73-977c27cb7e9e"},"vehicle_type_id":"4","last_reported":1678581712,"current_range_meters":6000,"station_id":"ce4bhoh2rcd13ifvqh6g","pricing_plan_id":"free"},{"bike_id":"d1d8fbcc-77e4-42a1-8708-dd0717baa81f","system_id":"levelo_inurba_marseille","lat":43.304096,"lon":5.425385,"is_reserved":false,"is_disabled":false,"rental_uris":{"android":"levelo://app?vid=d1d8fbcc-77e4-42a1-8708-dd0717baa81f","ios":"levelo://app?vid=d1d8fbcc-77e4-42a1-8708-dd0717baa81f"},"vehicle_type_id":"4","last_reported":1678581712,"current_range_meters":11600,"station_id":"ce4bhoh2rcd13ifvqh6g","pricing_plan_id":"free"},{"bike_id":"a1a966e9-9e3b-4454-a370-247aceb53889","system_id":"levelo_inurba_marseille","lat":43.304096,"lon":5.425385,"is_reserved":false,"is_disabled":false,"rental_uris":{"android":"levelo://app?vid=a1a966e9-9e3b-4454-a370-247aceb53889","ios":"levelo://app?vid=a1a966e9-9e3b-4454-a370-247aceb53889"},"vehicle_type_id":"4","last_reported":1678581712,"current_range_meters":9600,"station_id":"ce4bhoh2rcd13ifvqh6g","pricing_plan_id":"free"},{"bike_id":"4abe47de-a7db-4e8a-bf9b-ea3749358064","system_id":"levelo_inurba_marseille","lat":43.295511,"lon":5.422926,"is_reserved":false,"is_disabled":false,"rental_uris":{"android":"levelo://app?vid=4abe47de-a7db-4e8a-bf9b-ea3749358064","ios":"levelo://app?vid=4abe47de-a7db-4e8a-bf9b-ea3749358064"},"vehicle_type_id":"4","last_reported":1678581712,"current_range_meters":2400,"station_id":"ce4bhph2rcd13ifvqhdg","pricing_plan_id":"free"},{"bike_id":"236da3e4-e24a-4414-9e16-0945b3f5d9f5","system_id":"levelo_inurba_marseille","lat":43.295511,"lon":5.422926,"is_reserved":false,"is_disabled":false,"rental_uris":{"android":"levelo://app?vid=236da3e4-e24a-4414-9e16-0945b3f5d9f5","ios":"levelo://app?vid=236da3e4-e24a-4414-9e16-0945b3f5d9f5"},"vehicle_type_id":"4","last_reported":1678581712,"current_range_meters":22800,"station_id":"ce4bhph2rcd13ifvqhdg","pricing_plan_id":"free"},{"bike_id":"4abf6f1e-31b0-4a7a-9893-f765707dac86","system_id":"levelo_inurba_marseille","lat":43.27816,"lon":5.4071,"is_reserved":false,"is_disabled":false,"rental_uris":{"android":"levelo://app?vid=4abf6f1e-31b0-4a7a-9893-f765707dac86","ios":"levelo://app?vid=4abf6f1e-31b0-4a7a-9893-f765707dac86"},"vehicle_type_id":"4","last_reported":1678581712,"current_range_meters":11200,"station_id":"","pricing_plan_id":"free"},{"bike_id":"a42f4735-50f8-4936-b56d-f9ba87d03b0f","system_id":"levelo_inurba_marseille","lat":43.278128,"lon":5.407195,"is_reserved":false,"is_disabled":false,"rental_uris":{"android":"levelo://app?vid=a42f4735-50f8-4936-b56d-f9ba87d03b0f","ios":"levelo://app?vid=a42f4735-50f8-4936-b56d-f9ba87d03b0f"},"vehicle_type_id":"4","last_reported":1678581712,"current_range_meters":32000,"station_id":"ce4bhnh2rcd13ifvqgtg","pricing_plan_id":"free"},{"bike_id":"807de1e7-82e5-4cb3-8f53-a30232a45921","system_id":"levelo_inurba_marseille","lat":43.27812,"lon":5.40704,"is_reserved":false,"is_disabled":false,"rental_uris":{"android":"levelo://app?vid=807de1e7-82e5-4cb3-8f53-a30232a45921","ios":"levelo://app?vid=807de1e7-82e5-4cb3-8f53-a30232a45921"},"vehicle_type_id":"4","last_reported":1678581712,"current_range_meters":7600,"station_id":"","pricing_plan_id":"free"},{"bike_id":"136a26ca-c7d3-422a-9d50-3763f209d701","system_id":"levelo_inurba_marseille","lat":43.278117,"lon":5.40705,"is_reserved":false,"is_disabled":false,"rental_uris":{"android":"levelo://app?vid=136a26ca-c7d3-422a-9d50-3763f209d701","ios":"levelo://app?vid=136a26ca-c7d3-422a-9d50-3763f209d701"},"vehicle_type_id":"4","last_reported":1678581712,"current_range_meters":7600,"station_id":"","pricing_plan_id":"free"},