{"last_updated":1761844193,"ttl":60,"version":"2.2","data":{"bikes":[{"bike_id":"aacc01e3-6d9f-491a-b1ed-d10f639e29e2","system_id":"levelo_inurba_marseille","lat":43.337444,"lon":5.374475,"is_reserved":false,"is_disabled":false,"rental_uris":{"android":"levelo://app?vid=aacc01e3-6d9f-491a-b1ed-d10f639e29e2","ios":"levelo://app?vid=aacc01e3-6d9f-491a-b1ed-d10f639e29e2"},"vehicle_type_id":"4","last_reported":1761844193,"current_range_meters":0,"station_id":"","pricing_plan_id":"cebpf4jnsgd1na2vs0mg"},{"bike_id":"35ef2eb9-fe09-4124-a7ab-f792dcbd6ddc","system_id":"levelo_inurba_marseille","lat":43.337444,"lon":5.374475,"is_reserved":false,"is_disabled":false,"rental_uris":{"android":"levelo://app?vid=35ef2eb9-fe09-4124-a7ab-f792dcbd6ddc","ios":"levelo://app?vid=35ef2eb9-fe09-4124-a7ab-f792dcbd6ddc"},"vehicle_type_id":"4","last_reported":1761844193,"current_range_meters":0,"station_id":"","pricing_plan_id":"cebpf4jnsgd1na2vs0mg"},{"bike_id":"49ddb7e7-127c-434c-8992-2e05f2e3428d","system_id":"levelo_inurba_marseille","lat":43.337444,"lon":5.374475,"is_reserved":false,"is_disabled":false,"rental_uris":{"android":"levelo://app?vid=49ddb7e7-127c-434c-8992-2e05f2e3428d","ios":"levelo://app?vid=49ddb7e7-127c-434c-8992-2e05f2e3428d"},"vehicle_type_id":"4","last_reported":1761844193,"current_range_meters":0,"station_id":"","pricing_plan_id":"cebpf4jnsgd1na2vs0mg"},{"bike_id":"b3b460c5-2faa-45c2-8fde-7b54e8b4eaf5","system_id":"levelo_inurba_marseille","lat":43.337444,"lon":5.374475,"is_reserved":false,"is_disabled":false,"rental_uris":{"android":"levelo://app?vid=b3b460c5-2faa-45c2-8fde-7b54e8b4eaf5","ios":"levelo://app?vid=b3b460c5-2faa-45c2-8fde-7b54e8b4eaf5"},"vehicle_type_id":"4","last_reported":1761844193,"current_range_meters":0,"station_id":"","pricing_plan_id":"cebpf4jnsgd1na2vs0mg"},{"bike_id":"6b8eeff3-ec31-445f-be43-f1e3ba63fb37","system_id":"levelo_inurba_marseille","lat":43.337416,"lon":5.374586,"is_reserved":false,"is_disabled":false,"rental_uris":{"android":"levelo://app?vid=6b8eeff3-ec31-445f-be43-f1e3ba63fb37","ios":"levelo://app?vid=6b8eeff3-ec31-445f-be43-f1e3ba63fb37"},"vehicle_type_id":"4","last_reported":1761844193,"current_range_meters":0,"station_id":"","pricing_plan_id":"cebpf4jnsgd1na2vs0mg"},{"bike_id":"e0e86d10-d79a-47b9-82ad-a00ae7a62a8a","system_id":"levelo_inurba_marseille","lat":43.337444,"lon":5.374475,"is_reserved":false,"is_disabled":false,"rental_uris":{"android":"levelo://app?vid=e0e86d10-d79a-47b9-82ad-a00ae7a62a8a","ios":"levelo://app?vid=e0e86d10-d79a-47b9-82ad-a00ae7a62a8a"},"vehicle_type_id":"4","last_reported":1761844193,"current_range_meters":0,"station_id":"","pricing_plan_id":"cebpf4jnsgd1na2vs0mg"},{"bike_id":"548f1c45-4f2a-4cfe-b981-5bc1daecb21b","system_id":"levelo_inurba_marseille","lat":43.337444,"lon":5.374475,"is_reserved":false,"is_disabled":false,"rental_uris":{"android":"levelo://app?vid=548f1c45-4f2a-4cfe-b981-5bc1daecb21b","ios":"levelo://app?vid=548f1c45-4f2a-4cfe-b981-5bc1daecb21b"},"vehicle_type_id":"4","last_reported":1761844193,"current_range_meters":0,"station_id":"","pricing_plan_id":"cebpf4jnsgd1na2vs0mg"},{"bike_id":"5260dce0-6ede-4de4-b006-1466527b5fbe","system_id":"levelo_inurba_marseille","lat":43.337444,"lon":5.374475,"is_reserved":false,"is_disabled":false,"rental_uris":{"android":"levelo://app?vid=5260dce0-6ede-4de4-b006-1466527b5fbe","ios":"levelo://app?vid=5260dce0-6ede-4de4-b006-1466527b5fbe"},"vehicle_type_id":"4","last_reported":1761844193,"current_range_meters":0,"station_id":"","pricing_plan_id":"cebpf4jnsgd1na2vs0mg"},{"bike_id":"fb1816a3-8e74-463a-88d2-d6b63cf0a426","system_id":"levelo_inurba_marseille","lat":43.337444,"lon":5.374475,"is_reserved":false,"is_disabled":false,"rental_uris":{"android":"levelo://app?vid=fb1816a3-8e74-463a-88d2-d6b63cf0a426","ios":"levelo://app?vid=fb1816a3-8e74-463a-88d2-d6b63cf0a426"},"vehicle_type_id":"4","last_reported":1761844193,"current_range_meters":0,"station_id":"","pricing_plan_id":"cebpf4jnsgd1na2vs0mg"},{"bike_id":"3c881d8d-608f-4c39-9df3-b2aa54f8afcf","system_id":"levelo_inurba_marseille","lat":43.337444,"lon":5.374475,"is_reserved":false,"is_disabled":false,"rental_uris":{"android":"levelo://app?vid=3c881d8d-608f-4c39-9df3-b2aa54f8afcf","ios":"levelo://app?vid=3c881d8d-608f-4c39-9df3-b2aa54f8afcf"},"vehicle_type_id":"4","last_reported":1761844193,"current_range_meters":0,"station_id":"","pricing_plan_id":"cebpf4jnsgd1na2vs0mg"},{"bike_id":"a26e4937-215f-44d2-a8de-a7d3ec75d32b","system_id":"levelo_inurba_marseille","lat":43.337444,"lon":5.374475,"is_reserved":false,"is_disabled":false,"rental_uris":{"android":"levelo://app?vid=a26e4937-215f-44d2-a8de-a7d3ec75d32b","ios":"levelo://app?vid=a26e4937-215f-44d2-a8de-a7d3ec75d32b"},"vehicle_type_id":"4","last_reported":1761844193,"current_range_meters":0,"station_id":"","pricing_plan_id":"cebpf4jnsgd1na2vs0mg"},{"bike_id":"fadc4e19-b9ad-4402-a5bc-a0eff5c2b634","system_id":"levelo_inurba_marseille","lat":43.337444,"lon":5.374475,"is_reserved":false,"is_disabled":false,"rental_uris":{"android":"levelo://app?vid=fadc4e19-b9ad-4402-a5bc-a0eff5c2b634","ios":"levelo://app?vid=fadc4e19-b9ad-4402-a5bc-a0eff5c2b634"},"vehicle_type_id":"4","last_reported":1761844193,"current_range_meters":0,"station_id":"","pricing_plan_id":"cebpf4jnsgd1na2vs0mg"},{"bike_id":"e294c151-4441-4e4a-a116-13c66dfb9429","system_id":"levelo_inurba_marseille","lat":43.337444,"lon":5.374475,"is_reserved":false,"is_disabled":false,"rental_uris":{"android":"levelo://app?vid=e294c151-4441-4e4a-a116-13c66dfb9429","ios":"levelo://app?vid=e294c151-4441-4e4a-a116-13c66dfb9429"},"vehicle_type_id":"4","last_reported":1761844193,"current_range_meters":0,"station_id":"","pricing_plan_id":"cebpf4jnsgd1na2vs0mg"},{"bike_id":"0baff1cc-f548-40f7-a934-77958566d6a5","system_id":"levelo_inurba_marseille","lat":43.337444,"lon":5.374475,"is_reserved":false,"is_disabled":false,"rental_uris":{"android":"levelo://app?vid=0baff1cc-f548-40f7-a934-77958566d6a5","ios":"levelo://app?vid=0baff1cc-f548-40f7-a934-77958566d6a5"},"vehicle_type_id":"4","last_reported":1761844193,"current_range_meters":0,"station_id":"","pricing_plan_id":"cebpf4jnsgd1na2vs0mg"},{"bike_id":"1310c5d0-e39d-4b9c-84d7-1872f297ff18","system_id":"levelo_inurba_marseille","lat":43.337444,"lon":5.374475,"is_reserved":false,"is_disabled":false,"rental_uris":{"android":"levelo://app?vid=1310c5d0-e39d-4b9c-84d7-1872f297ff18","ios":"levelo://app?vid=1310c5d0-e39d-4b9c-84d7-1872f297ff18"},"vehicle_type_id":"4","last_reported":1761844193,"current_range_meters":0,"station_id":"","pricing_plan_id":"cebpf4jnsgd1na2vs0mg"},{"bike_id":"01eaacf7-8682-4054-bf38-52456d06e6f6","system_id":"levelo_inurba_marseille","lat":43.337444,"lon":5.374475,"is_reserved":false,"is_disabled":false,"rental_uris":{"android":"levelo://app?vid=01eaacf7-8682-4054-bf38-52456d06e6f6","ios":"levelo://app?vid=01eaacf7-8682-4054-bf38-52456d06e6f6"},"vehicle_type_id":"4","last_reported":1761844193,"current_range_meters":0,"station_id":"","pricing_plan_id":"cebpf4jnsgd1na2vs0mg"},{"bike_id":"4dbab57a-b708-409a-b815-3b9a5d92f753","system_id":"levelo_inurba_marseille","lat":43.337444,"lon":5.374475,"is_reserved":false,"is_disabled":false,"rental_uris":{"android":"levelo://app?vid=4dbab57a-b708-409a-b815-3b9a5d92f753","ios":"levelo://app?vid=4dbab57a-b708-409a-b815-3b9a5d92f753"},"vehicle_type_id":"4","last_reported":1761844193,"current_range_meters":0,"station_id":"","pricing_plan_id":"cebpf4jnsgd1na2vs0mg"},{"bike_id":"00f1260a-63f9-4663-ac1e-51258f9213bd","system_id":"levelo_inurba_marseille","lat":43.337444,"lon":5.374475,"is_reserved":false,"is_disabled":false,"rental_uris":{"android":"levelo://app?vid=00f1260a-63f9-4663-ac1e-51258f9213bd","ios":"levelo://app?vid=00f1260a-63f9-4663-ac1e-51258f9213bd"},"vehicle_type_id":"4","last_reported":1761844193,"current_range_meters":0,"station_id":"","pricing_plan_id":"cebpf4jnsgd1na2vs0mg"},{"bike_id":"50aa746e-d71a-437c-bb7a-ed648a03f81b","system_id":"levelo_inurba_marseille","lat":43.337444,"lon":5.374475,"is_reserved":false,"is_disabled":false,"rental_uris":{"android":"levelo://app?vid=50aa746e-d71a-437c-bb7a-ed648a03f81b","ios":"levelo://app?vid=50aa746e-d71a-437c-bb7a-ed648a03f81b"},"vehicle_type_id":"4","last_reported":1761844193,"current_range_meters":0,"station_id":"","pricing_plan_id":"cebpf4jnsgd1na2vs0mg"},{"bike_id":"3e68cf6e-17b6-46f5-8b08-d049449e0ca4","system_id":"levelo_inurba_marseille","lat":43.337444,"lon":5.374475,"is_reserved":false,"is_disabled":false,"rental_uris":{"android":"levelo://app?vid=3e68cf6e-17b6-46f5-8b08-d049449e0ca4","ios":"levelo://app?vid=3e68cf6e-17b6-46f5-8b08-d049449e0ca4"},"vehicle_type_id":"4","last_reported":1761844193,"current_range_meters":0,"station_id":"","pricing_plan_id":"cebpf4jnsgd1na2vs0mg"},{"bike_id":"b06c4997-7e4f-467a-922f-92f2f2e27e9d","system_id":"levelo_inurba_marseille","lat":43.337444,"lon":5.374475,"is_reserved":false,"is_disabled":false,"rental_uris":{"android":"levelo://app?vid=b06c4997-7e4f-467a-922f-92f2f2e27e9d","ios":"levelo://app?vid=b06c4997-7e4f-467a-922f-92f2f2e27e9d"},"vehicle_type_id":"4","last_reported":1761844193,"current_range_meters":0,"station_id":"","pricing_plan_id":"cebpf4jnsgd1na2vs0mg"},{"bike_id":"bb49b980-4cfb-49a5-9add-f3f9d4fc6db5","system_id":"levelo_inurba_marseille","lat":43.337444,"lon":5.374475,"is_reserved":false,"is_disabled":false,"rental_uris":{"android":"levelo://app?vid=bb49b980-4cfb-49a5-9add-f3f9d4fc6db5","ios":"levelo://app?vid=bb49b980-4cfb-49a5-9add-f3f9d4fc6db5"},"vehicle_type_id":"4","last_reported":1761844193,"current_range_meters":0,"station_id":"","pricing_plan_id":"cebpf4jnsgd1na2vs0mg"},{"bike_id":"b97206fc-6c94-4378-926a-a788d4f71c09","system_id":"levelo_inurba_marseille","lat":43.337444,"lon":5.374475,"is_reserved":false,"is_disabled":false,"rental_uris":{"android":"levelo://app?vid=b97206fc-6c94-4378-926a-a788d4f71c09","ios":"levelo://app?vid=b97206fc-6c94-4378-926a-a788d4f71c09"},"vehicle_type_id":"4","last_reported":1761844193,"current_range_meters":0,"station_id":"","pricing_plan_id":"cebpf4jnsgd1na2vs0mg"},{"bike_id":"37d7ebf5-2b3d-4af3-a7cd-4f29f464d5a0","system_id":"levelo_inurba_marseille","lat":43.337444,"lon":5.374475,"is_reserved":false,"is_disabled":false,"rental_uris":{"android":"levelo://app?vid=37d7ebf5-2b3d-4af3-a7cd-4f29f464d5a0","ios":"levelo://app?vid=37d7ebf5-2b3d-4af3-a7cd-4f29f464d5a0"},"vehicle_type_id":"4","last_reported":1761844193,"current_range_meters":0,"station_id":"","pricing_plan_id":"cebpf4jnsgd1na2vs0mg"},{"bike_id":"4ce4318f-b763-4325-8589-2aecbcc80add","system_id":"levelo_inurba_marseille","lat":43.337444,"lon":5.374475,"is_reserved":false,"is_disabled":false,"rental_uris":{"android":"levelo://app?vid=4ce4318f-b763-4325-8589-2aecbcc80add","ios":"levelo://app?vid=4ce4318f-b763-4325-8589-2aecbcc80add"},"vehicle_type_id":"4","last_reported":1761844193,"current_range_meters":0,"station_id":"","pricing_plan_id":"cebpf4jnsgd1na2vs0mg"},{"bike_id":"a6a3a590-5c2a-4683-a516-e9f5572de0f8","system_id":"levelo_inurba_marseille","lat":43.337444,"lon":5.374475,"is_reserved":false,"is_disabled":false,"rental_uris":{"android":"levelo://app?vid=a6a3a590-5c2a-4683-a516-e9f5572de0f8","ios":"levelo://app?vid=a6a3a590-5c2a-4683-a516-e9f5572de0f8"},"vehicle_type_id":"4","last_reported":1761844193,"current_range_meters":0,"station_id":"","pricing_plan_id":"cebpf4jnsgd1na2vs0mg"},{"bike_id":"111bdd74-3ae9-48f5-979c-2e177e7747d9","system_id":"levelo_inurba_marseille","lat":43.337444,"lon":5.374475,"is_reserved":false,"is_disabled":false,"rental_uris":{"android":"levelo://app?vid=111bdd74-3ae9-48f5-979c-2e177e7747d9","ios":"levelo://app?vid=111bdd74-3ae9-48f5-979c-2e177e7747d9"},"vehicle_type_id":"4","last_reported":1761844193,"current_range_meters":0,"station_id":"","pricing_plan_id":"cebpf4jnsgd1na2vs0mg"},{"bike_id":"b9d871b8-65b0-40af-afa3-0bf2492a45a9","system_id":"levelo_inurba_marseille","lat":43.337444,"lon":5.374475,"is_reserved":false,"is_disabled":false,"rental_uris":{"android":"levelo://app?vid=b9d871b8-65b0-40af-afa3-0bf2492a45a9","ios":"levelo://app?vid=b9d871b8-65b0-40af-afa3-0bf2492a45a9"},"vehicle_type_id":"4","last_reported":1761844193,"current_range_meters":0,"station_id":"","pricing_plan_id":"cebpf4jnsgd1na2vs0mg"},{"bike_id":"5bec735e-fcf4-48c7-8bdc-29590fc410b1","system_id":"levelo_inurba_marseille","lat":43.337444,"lon":5.374475,"is_reserved":false,"is_disabled":false,"rental_uris":{"android":"levelo://app?vid=5bec735e-fcf4-48c7-8bdc-29590fc410b1","ios":"levelo://app?vid=5bec735e-fcf4-48c7-8bdc-29590fc410b1"},"vehicle_type_id":"4","last_reported":1761844193,"current_range_meters":0,"station_id":"","pricing_plan_id":"cebpf4jnsgd1na2vs0mg"},{"bike_id":"026e76ec-bb30-48a3-8407-a17635ff5e4d","system_id":"levelo_inurba_marseille","lat":43.337444,"lon":5.374475,"is_reserved":false,"is_disabled":false,"rental_uris":{"android":"levelo://app?vid=026e76ec-bb30-48a3-8407-a17635ff5e4d","ios":"levelo://app?vid=026e76ec-bb30-48a3-8407-a17635ff5e4d"},"vehicle_type_id":"4","last_reported":1761844193,"current_range_meters":0,"station_id":"","pricing_plan_id":"cebpf4jnsgd1na2vs0mg"},{"bike_id":"46d34bff-7ac4-476c-bd3e-8e7dba53c807","system_id":"levelo_inurba_marseille","lat":43.337444,"lon":5.374475,"is_reserved":false,"is_disabled":false,"rental_uris":{"android":"levelo://app?vid=46d34bff-7ac4-476c-bd3e-8e7dba53c807","ios":"levelo://app?vid=46d34bff-7ac4-476c-bd3e-8e7dba53c807"},"vehicle_type_id":"4","last_reported":1761844193,"current_range_meters":0,"station_id":"","pricing_plan_id":"cebpf4jnsgd1na2vs0mg"},{"bike_id":"2c7e37d6-d4ca-47ae-a0e0-a648dd4e1706","system_id":"levelo_inurba_marseille","lat":43.337444,"lon":5.374475,"is_reserved":false,"is_disabled":false,"rental_uris":{"android":"levelo://app?vid=2c7e37d6-d4ca-47ae-a0e0-a648dd4e1706","ios":"levelo://app?vid=2c7e37d6-d4ca-47ae-a0e0-a648dd4e1706"},"vehicle_type_id":"4","last_reported":1761844193,"current_range_meters":0,"station_id":"","pricing_plan_id":"cebpf4jnsgd1na2vs0mg"},{"bike_id":"94eee6a6-2463-4d2a-b222-3ef19356212a","system_id":"levelo_inurba_marseille","lat":43.337444,"lon":5.374475,"is_reserved":false,"is_disabled":false,"rental_uris":{"android":"levelo://app?vid=94eee6a6-2463-4d2a-b222-3ef19356212a","ios":"levelo://app?vid=94eee6a6-2463-4d2a-b222-3ef19356212a"},"vehicle_type_id":"4","last_reported":1761844193,"current_range_meters":0,"station_id":"","pricing_plan_id":"cebpf4jnsgd1na2vs0mg"},{"bike_id":"4592e008-320c-4bcd-ae3b-d140e613f684","system_id":"levelo_inurba_marseille","lat":43.337444,"lon":5.374475,"is_reserved":false,"is_disabled":false,"rental_uris":{"android":"levelo://app?vid=4592e008-320c-4bcd-ae3b-d140e613f684","ios":"levelo://app?vid=4592e008-320c-4bcd-ae3b-d140e613f684"},"vehicle_type_id":"4","last_reported":1761844193,"current_range_meters":0,"station_id":"","pricing_plan_id":"cebpf4jnsgd1na2vs0mg"},{"bike_id":"5807ce94-1b62-42db-8c77-9488accc83d5","system_id":"levelo_inurba_marseille","lat":43.337444,"lon":5.374475,"is_reserved":false,"is_disabled":false,"rental_uris":{"android":"levelo://app?vid=5807ce94-1b62-42db-8c77-9488accc83d5","ios":"levelo://app?vid=5807ce94-1b62-42db-8c77-9488accc83d5"},"vehicle_type_id":"4","last_reported":1761844193,"current_range_meters":0,"station_id":"","pricing_plan_id":"cebpf4jnsgd1na2vs0mg"},{"bike_id":"f57378be-6acd-40b3-8eb4-26769bbfd805","system_id":"levelo_inurba_marseille","lat":43.282782,"lon":5.350721,"is_reserved":false,"is_disabled":false,"rental_uris":{"android":"levelo://app?vid=f57378be-6acd-40b3-8eb4-26769bbfd805","ios":"levelo://app?vid=f57378be-6acd-40b3-8eb4-26769bbfd805"},"vehicle_type_id":"4","last_reported":1761844193,"current_range_meters":2800,"station_id":"ce4bhbp2rcd13ifvqerg","pricing_plan_id":"cebpf4jnsgd1na2vs0mg"},{"bike_id":"8928855f-3388-4464-a96f-0461c1d73f4a","system_id":"levelo_inurba_marseille","lat":43.29792,"lon":5.40406,"is_reserved":false,"is_disabled":false,"rental_uris":{"android":"levelo://app?vid=8928855f-3388-4464-a96f-0461c1d73f4a","ios":"levelo://app?vid=8928855f-3388-4464-a96f-0461c1d73f4a"},"vehicle_type_id":"4","last_reported":1761844193,"current_range_meters":2800,"station_id":"ce4bh112rcd13ifvqd90","pricing_plan_id":"cebpf4jnsgd1na2vs0mg"},{"bike_id":"9b462b12-e405-47ea-a0a4-fecaf50164ef","system_id":"levelo_inurba_marseille","lat":43.30927,"lon":5.40153,"is_reserved":false,"is_disabled":false,"rental_uris":{"android":"levelo://app?vid=9b462b12-e405-47ea-a0a4-fecaf50164ef","ios":"levelo://app?vid=9b462b12-e405-47ea-a0a4-fecaf50164ef"},"vehicle_type_id":"4","last_reported":1761844193,"current_range_meters":2800,"station_id":"ce4bgvp2rcd13ifvqct0","pricing_plan_id":"cebpf4jnsgd1na2vs0mg"},{"bike_id":"eb8f13ff-065d-4e4e-b5e0-9c6d6156824b","system_id":"levelo_inurba_marseille","lat":43.21195,"lon":5.35078,"is_reserved":false,"is_disabled":false,"rental_uris":{"android":"levelo://app?vid=eb8f13ff-065d-4e4e-b5e0-9c6d6156824b","ios":"levelo://app?vid=eb8f13ff-065d-4e4e-b5e0-9c6d6156824b"},"vehicle_type_id":"4","last_reported":1761844193,"current_range_meters":2800,"station_id":"st_cvj6sg6p6f1abm77japg","pricing_plan_id":"cebpf4jnsgd1na2vs0mg"},{"bike_id":"362a8cd7-a78c-4e1c-b85b-ef75404a66b5","system_id":"levelo_inurba_marseille","lat":43.30545,"lon":5.36538,"is_reserved":false,"is_disabled":false,"rental_uris":{"android":"levelo://app?vid=362a8cd7-a78c-4e1c-b85b-ef75404a66b5","ios":"levelo://app?vid=362a8cd7-a78c-4e1c-b85b-ef75404a66b5"},"vehicle_type_id":"4","last_reported":1761844193,"current_range_meters":3200,"station_id":"ce4bgs12rcd13ifvqcag","pricing_plan_id":"cebpf4jnsgd1na2vs0mg"},{"bike_id":"eeac5c68-e59a-45ed-ab07-29f709eaf3ea","system_id":"levelo_inurba_marseille","lat":43.30775,"lon":5.40294,"is_reserved":false,"is_disabled":false,"rental_uris":{"android":"levelo://app?vid=eeac5c68-e59a-45ed-ab07-29f709eaf3ea","ios":"levelo://app?vid=eeac5c68-e59a-45ed-ab07-29f709eaf3ea"},"vehicle_type_id":"4","last_reported":1761844193,"current_range_meters":3200,"station_id":"","pricing_plan_id":"cebpf4jnsgd1na2vs0mg"},{"bike_id":"c06be8ce-2470-411f-a065-6dff01c731ed","system_id":"levelo_inurba_marseille","lat":43.31704,"lon":5.43724,"is_reserved":false,"is_disabled":false,"rental_uris":{"android":"levelo://app?vid=c06be8ce-2470-411f-a065-6dff01c731ed","ios":"levelo://app?vid=c06be8ce-2470-411f-a065-6dff01c731ed"},"vehicle_type_id":"4","last_reported":1761844193,"current_range_meters":3200,"station_id":"ce4bhp92rcd13ifvqhcg","pricing_plan_id":"cebpf4jnsgd1na2vs0mg"},{"bike_id":"a77cc4f8-ed27-4e6c-839f-d9401894ea95","system_id":"levelo_inurba_marseille","lat":43.28107,"lon":5.3785,"is_reserved":false,"is_disabled":false,"rental_uris":{"android":"levelo://app?vid=a77cc4f8-ed27-4e6c-839f-d9401894ea95","ios":"levelo://app?vid=a77cc4f8-ed27-4e6c-839f-d9401894ea95"},"vehicle_type_id":"4","last_reported":1761844193,"current_range_meters":3200,"station_id":"ce4bha12rcd13ifvqee0","pricing_plan_id":"cebpf4jnsgd1na2vs0mg"},{"bike_id":"5eda0673-0b56-46e8-841a-2037cfb3822a","system_id":"levelo_inurba_marseille","lat":43.23963,"lon":5.36634,"is_reserved":false,"is_disabled":false,"rental_uris":{"android":"levelo://app?vid=5eda0673-0b56-46e8-841a-2037cfb3822a","ios":"levelo://app?vid=5eda0673-0b56-46e8-841a-2037cfb3822a"},"vehicle_type_id":"4","last_reported":1761844193,"current_range_meters":3200,"station_id":"ce4bhi12rcd13ifvqfp0","pricing_plan_id":"cebpf4jnsgd1na2vs0mg"},{"bike_id":"7cb4498b-587a-4d94-90d8-930b0e0b567f","system_id":"levelo_inurba_marseille","lat":43.297833,"lon":5.393436,"is_reserved":false,"is_disabled":false,"rental_uris":{"android":"levelo://app?vid=7cb4498b-587a-4d94-90d8-930b0e0b567f","ios":"levelo://app?vid=7cb4498b-587a-4d94-90d8-930b0e0b567f"},"vehicle_type_id":"4","last_reported":1761844193,"current_range_meters":3200,"station_id":"chh1huq6cuj3fo74tm60","pricing_plan_id":"cebpf4jnsgd1na2vs0mg"},{"bike_id":"7ed8f550-f3b7-4f64-a2e0-27d572ec787f","system_id":"levelo_inurba_marseille","lat":43.29092,"lon":5.38126,"is_reserved":false,"is_disabled":false,"rental_uris":{"android":"levelo://app?vid=7ed8f550-f3b7-4f64-a2e0-27d572ec787f","ios":"levelo://app?vid=7ed8f550-f3b7-4f64-a2e0-27d572ec787f"},"vehicle_type_id":"4","last_reported":1761844193,"current_range_meters":3200,"station_id":"ce4bh512rcd13ifvqe2g","pricing_plan_id":"cebpf4jnsgd1na2vs0mg"},{"bike_id":"d5ca831f-8041-403e-ada8-7b4196c3d5be","system_id":"levelo_inurba_marseille","lat":43.293714,"lon":5.379385,"is_reserved":false,"is_disabled":false,"rental_uris":{"android":"levelo://app?vid=d5ca831f-8041-403e-ada8-7b4196c3d5be","ios":"levelo://app?vid=d5ca831f-8041-403e-ada8-7b4196c3d5be"},"vehicle_type_id":"4","last_reported":1761844193,"current_range_meters":3200,"station_id":"","pricing_plan_id":"cebpf4jnsgd1na2vs0mg"},{"bike_id":"ba7f280a-0427-4f03-ae24-16833c309ee2","system_id":"levelo_inurba_marseille","lat":43.29893,"lon":5.43663,"is_reserved":false,"is_disabled":false,"rental_uris":{"android":"levelo://app?vid=ba7f280a-0427-4f03-ae24-16833c309ee2","ios":"levelo://app?vid=ba7f280a-0427-4f03-ae24-16833c309ee2"},"vehicle_type_id":"4","last_reported":1761844193,"current_range_meters":3200,"station_id":"ce4bhpp2rcd13ifvqhfg","pricing_plan_id":"cebpf4jnsgd1na2vs0mg"},{"bike_id":"b1a3b499-989f-49f8-8128-7a5dc45d0292","system_id":"levelo_inurba_marseille","lat":43.2903,"lon":5.38654,"is_reserved":false,"is_disabled":false,"rental_uris":{"android":"levelo://app?vid=b1a3b499-989f-49f8-8128-7a5dc45d0292","ios":"levelo://app?vid=b1a3b499-989f-49f8-8128-7a5dc45d0292"},"vehicle_type_id":"4","last_reported":1761844193,"current_range_meters":3200,"station_id":"ce4bh4p2rcd13ifvqe0g","pricing_plan_id":"cebpf4jnsgd1na2vs0mg"},{"bike_id":"c6698ab8-b9c1-4ef6-8d1d-6b190a79e8e9","system_id":"levelo_inurba_marseille","lat":43.30839,"lon":5.36949,"is_reserved":false,"is_disabled":false,"rental_uris":{"android":"levelo://app?vid=c6698ab8-b9c1-4ef6-8d1d-6b190a79e8e9","ios":"levelo://app?vid=c6698ab8-b9c1-4ef6-8d1d-6b190a79e8e9"},"vehicle_type_id":"4","last_reported":1761844193,"current_range_meters":3600,"station_id":"","pricing_plan_id":"cebpf4jnsgd1na2vs0mg"},{"bike_id":"ad266889-ff6c-4c4e-9bbc-fb60cd8a8657","system_id":"levelo_inurba_marseille","lat":43.29789,"lon":5.39359,"is_reserved":false,"is_disabled":false,"rental_uris":{"android":"levelo://app?vid=ad266889-ff6c-4c4e-9bbc-fb60cd8a8657","ios":"levelo://app?vid=ad266889-ff6c-4c4e-9bbc-fb60cd8a8657"},"vehicle_type_id":"4","last_reported":1761844193,"current_range_meters":3600,"station_id":"chh1huq6cuj3fo74tm60","pricing_plan_id":"cebpf4jnsgd1na2vs0mg"},{"bike_id":"32a626df-9226-43b7-a9ca-a21547ec7cac","system_id":"levelo_inurba_marseille","lat":43.24542,"lon":5.3953,"is_reserved":false,"is_disabled":false,"rental_uris":{"android":"levelo://app?vid=32a626df-9226-43b7-a9ca-a21547ec7cac","ios":"levelo://app?vid=32a626df-9226-43b7-a9ca-a21547ec7cac"},"vehicle_type_id":"4","last_reported":1761844193,"current_range_meters":3600,"station_id":"ce4bhlp2rcd13ifvqgjg","pricing_plan_id":"cebpf4jnsgd1na2vs0mg"},{"bike_id":"ce9d1214-ab90-4d91-a5dd-ed88d991721d","system_id":"levelo_inurba_marseille","lat":43.24635,"lon":5.43149,"is_reserved":false,"is_disabled":false,"rental_uris":{"android":"levelo://app?vid=ce9d1214-ab90-4d91-a5dd-ed88d991721d","ios":"levelo://app?vid=ce9d1214-ab90-4d91-a5dd-ed88d991721d"},"vehicle_type_id":"4","last_reported":1761844193,"current_range_meters":4000,"station_id":"st_d2m6c4gdas8pm72e190g","pricing_plan_id":"cebpf4jnsgd1na2vs0mg"},{"bike_id":"a443067d-5f83-4630-a611-9ba02022533c","system_id":"levelo_inurba_marseille","lat":43.2732,"lon":5.39076,"is_reserved":false,"is_disabled":false,"rental_uris":{"android":"levelo://app?vid=a443067d-5f83-4630-a611-9ba02022533c","ios":"levelo://app?vid=a443067d-5f83-4630-a611-9ba02022533c"},"vehicle_type_id":"4","last_reported":1761844193,"current_range_meters":4000,"station_id":"ce4bhgp2rcd13ifvqfe0","pricing_plan_id":"cebpf4jnsgd1na2vs0mg"},{"bike_id":"e29af246-4585-46a2-ab47-34679e2e6b46","system_id":"levelo_inurba_marseille","lat":43.28341,"lon":5.38129,"is_reserved":false,"is_disabled":false,"rental_uris":{"android":"levelo://app?vid=e29af246-4585-46a2-ab47-34679e2e6b46","ios":"levelo://app?vid=e29af246-4585-46a2-ab47-34679e2e6b46"},"vehicle_type_id":"4","last_reported":1761844193,"current_range_meters":4000,"station_id":"ce4bh412rcd13ifvqdr0","pricing_plan_id":"cebpf4jnsgd1na2vs0mg"},{"bike_id":"3d8a3fd0-20dc-48e4-9da5-7c8d70a31d02","system_id":"levelo_inurba_marseille","lat":43.2849,"lon":5.38418,"is_reserved":false,"is_disabled":false,"rental_uris":{"android":"levelo://app?vid=3d8a3fd0-20dc-48e4-9da5-7c8d70a31d02","ios":"levelo://app?vid=3d8a3fd0-20dc-48e4-9da5-7c8d70a31d02"},"vehicle_type_id":"4","last_reported":1761844193,"current_range_meters":4000,"station_id":"ce4bh512rcd13ifvqe3g","pricing_plan_id":"cebpf4jnsgd1na2vs0mg"},{"bike_id":"e5167824-e88c-4f0e-9466-1e5285d375e9","system_id":"levelo_inurba_marseille","lat":43.29619,"lon":5.37699,"is_reserved":false,"is_disabled":false,"rental_uris":{"android":"levelo://app?vid=e5167824-e88c-4f0e-9466-1e5285d375e9","ios":"levelo://app?vid=e5167824-e88c-4f0e-9466-1e5285d375e9"},"vehicle_type_id":"4","last_reported":1761844193,"current_range_meters":4000,"station_id":"ce4bgi92rcd13ifvqb90","pricing_plan_id":"cebpf4jnsgd1na2vs0mg"},{"bike_id":"7f0a5d68-55b9-41ca-9bd7-dace01712b34","system_id":"levelo_inurba_marseille","lat":43.29629,"lon":5.3771,"is_reserved":false,"is_disabled":false,"rental_uris":{"android":"levelo://app?vid=7f0a5d68-55b9-41ca-9bd7-dace01712b34","ios":"levelo://app?vid=7f0a5d68-55b9-41ca-9bd7-dace01712b34"},"vehicle_type_id":"4","last_reported":1761844193,"current_range_meters":4000,"station_id":"ce4bgi92rcd13ifvqb90","pricing_plan_id":"cebpf4jnsgd1na2vs0mg"},{"bike_id":"963c1902-6a13-4333-bbfb-47456bda295e","system_id":"levelo_inurba_marseille","lat":43.28664,"lon":5.38667,"is_reserved":false,"is_disabled":false,"rental_uris":{"android":"levelo://app?vid=963c1902-6a13-4333-bbfb-47456bda295e","ios":"levelo://app?vid=963c1902-6a13-4333-bbfb-47456bda295e"},"vehicle_type_id":"4","last_reported":1761844193,"current_range_meters":4000,"station_id":"ce4bh492rcd13ifvqdug","pricing_plan_id":"cebpf4jnsgd1na2vs0mg"},{"bike_id":"62c0bc4c-b56b-4b67-ada8-27d59b52ef34","system_id":"levelo_inurba_marseille","lat":43.29253,"lon":5.37638,"is_reserved":false,"is_disabled":false,"rental_uris":{"android":"levelo://app?vid=62c0bc4c-b56b-4b67-ada8-27d59b52ef34","ios":"levelo://app?vid=62c0bc4c-b56b-4b67-ada8-27d59b52ef34"},"vehicle_type_id":"4","last_reported":1761844193,"current_range_meters":4400,"station_id":"ce4bgi12rcd13ifvqb80","pricing_plan_id":"cebpf4jnsgd1na2vs0mg"},{"bike_id":"f6adb9c1-4a78-4322-baec-aa5f6f5d93b6","system_id":"levelo_inurba_marseille","lat":43.33766,"lon":5.37431,"is_reserved":false,"is_disabled":false,"rental_uris":{"android":"levelo://app?vid=f6adb9c1-4a78-4322-baec-aa5f6f5d93b6","ios":"levelo://app?vid=f6adb9c1-4a78-4322-baec-aa5f6f5d93b6"},"vehicle_type_id":"4","last_reported":1761844193,"current_range_meters":4400,"station_id":"","pricing_plan_id":"cebpf4jnsgd1na2vs0mg"},{"bike_id":"5dd1d6a8-90b1-4df7-98a8-6de37ea472fc","system_id":"levelo_inurba_marseille","lat":43.291985,"lon":5.382865,"is_reserved":false,"is_disabled":false,"rental_uris":{"android":"levelo://app?vid=5dd1d6a8-90b1-4df7-98a8-6de37ea472fc","ios":"levelo://app?vid=5dd1d6a8-90b1-4df7-98a8-6de37ea472fc"},"vehicle_type_id":"4","last_reported":1761844193,"current_range_meters":4800,"station_id":"ce4bh692rcd13ifvqea0","pricing_plan_id":"cebpf4jnsgd1na2vs0mg"},{"bike_id":"42673695-35eb-43c8-960a-3d0d776b753c","system_id":"levelo_inurba_marseille","lat":43.284088,"lon":5.375164,"is_reserved":false,"is_disabled":true,"rental_uris":{"android":"levelo://app?vid=42673695-35eb-43c8-960a-3d0d776b753c","ios":"levelo://app?vid=42673695-35eb-43c8-960a-3d0d776b753c"},"vehicle_type_id":"4","last_reported":1761844193,"current_range_meters":4800,"station_id":"ce4bh412rcd13ifvqds0","pricing_plan_id":"cebpf4jnsgd1na2vs0mg"},{"bike_id":"599f33f9-b265-4571-8ed7-7b9e9deed2a5","system_id":"levelo_inurba_marseille","lat":43.28567,"lon":5.39506,"is_reserved":false,"is_disabled":false,"rental_uris":{"android":"levelo://app?vid=599f33f9-b265-4571-8ed7-7b9e9deed2a5","ios":"levelo://app?vid=599f33f9-b265-4571-8ed7-7b9e9deed2a5"},"vehicle_type_id":"4","last_reported":1761844193,"current_range_meters":4800,"station_id":"ce4bh292rcd13ifvqdg0","pricing_plan_id":"cebpf4jnsgd1na2vs0mg"},{"bike_id":"9db90f96-e691-4e92-beb5-71723669cca9","system_id":"levelo_inurba_marseille","lat":43.28702,"lon":5.37396,"is_reserved":false,"is_disabled":false,"rental_uris":{"android":"levelo://app?vid=9db90f96-e691-4e92-beb5-71723669cca9","ios":"levelo://app?vid=9db90f96-e691-4e92-beb5-71723669cca9"},"vehicle_type_id":"4","last_reported":1761844193,"current_range_meters":5600,"station_id":"ce4bh3p2rcd13ifvqdq0","pricing_plan_id":"cebpf4jnsgd1na2vs0mg"},{"bike_id":"9094e0de-e6c8-4581-95e4-a110048e2b58","system_id":"levelo_inurba_marseille","lat":43.29034,"lon":5.3866,"is_reserved":false,"is_disabled":false,"rental_uris":{"android":"levelo://app?vid=9094e0de-e6c8-4581-95e4-a110048e2b58","ios":"levelo://app?vid=9094e0de-e6c8-4581-95e4-a110048e2b58"},"vehicle_type_id":"4","last_reported":1761844193,"current_range_meters":5600,"station_id":"ce4bh4p2rcd13ifvqe0g","pricing_plan_id":"cebpf4jnsgd1na2vs0mg"},{"bike_id":"df4a7072-9a99-4388-960f-688f83a92f17","system_id":"levelo_inurba_marseille","lat":43.29557,"lon":5.42307,"is_reserved":false,"is_disabled":false,"rental_uris":{"android":"levelo://app?vid=df4a7072-9a99-4388-960f-688f83a92f17","ios":"levelo://app?vid=df4a7072-9a99-4388-960f-688f83a92f17"},"vehicle_type_id":"4","last_reported":1761844193,"current_range_meters":5600,"station_id":"ce4bhph2rcd13ifvqhdg","pricing_plan_id":"cebpf4jnsgd1na2vs0mg"},{"bike_id":"e9fe872a-8779-4281-8e80-8d2ceeb871fb","system_id":"levelo_inurba_marseille","lat":43.24388,"lon":5.37048,"is_reserved":false,"is_disabled":false,"rental_uris":{"android":"levelo://app?vid=e9fe872a-8779-4281-8e80-8d2ceeb871fb","ios":"levelo://app?vid=e9fe872a-8779-4281-8e80-8d2ceeb871fb"},"vehicle_type_id":"4","last_reported":1761844193,"current_range_meters":5600,"station_id":"ce4bhhh2rcd13ifvqfk0","pricing_plan_id":"cebpf4jnsgd1na2vs0mg"},{"bike_id":"30a6aca1-5d46-49cc-accb-eb231896f842","system_id":"levelo_inurba_marseille","lat":43.29208,"lon":5.36036,"is_reserved":false,"is_disabled":false,"rental_uris":{"android":"levelo://app?vid=30a6aca1-5d46-49cc-accb-eb231896f842","ios":"levelo://app?vid=30a6aca1-5d46-49cc-accb-eb231896f842"},"vehicle_type_id":"4","last_reported":1761844193,"current_range_meters":5600,"station_id":"ce4bhbh2rcd13ifvqeqg","pricing_plan_id":"cebpf4jnsgd1na2vs0mg"},{"bike_id":"7b720983-3cdb-44b5-932c-5791948adf22","system_id":"levelo_inurba_marseille","lat":43.28227,"lon":5.39068,"is_reserved":false,"is_disabled":false,"rental_uris":{"android":"levelo://app?vid=7b720983-3cdb-44b5-932c-5791948adf22","ios":"levelo://app?vid=7b720983-3cdb-44b5-932c-5791948adf22"},"vehicle_type_id":"4","last_reported":1761844193,"current_range_meters":5600,"station_id":"ce4bhn92rcd13ifvqgsg","pricing_plan_id":"cebpf4jnsgd1na2vs0mg"},{"bike_id":"c604f443-63d2-4fa6-8bf4-aa89640b0f57","system_id":"levelo_inurba_marseille","lat":43.28008,"lon":5.41673,"is_reserved":false,"is_disabled":false,"rental_uris":{"android":"levelo://app?vid=c604f443-63d2-4fa6-8bf4-aa89640b0f57","ios":"levelo://app?vid=c604f443-63d2-4fa6-8bf4-aa89640b0f57"},"vehicle_type_id":"4","last_reported":1761844193,"current_range_meters":5600,"station_id":"ce4bho12rcd13ifvqh1g","pricing_plan_id":"cebpf4jnsgd1na2vs0mg"},{"bike_id":"5cb3f363-ac2f-4bc2-ad50-da3965e1e89b","system_id":"levelo_inurba_marseille","lat":43.24552,"lon":5.41606,"is_reserved":false,"is_disabled":false,"rental_uris":{"android":"levelo://app?vid=5cb3f363-ac2f-4bc2-ad50-da3965e1e89b","ios":"levelo://app?vid=5cb3f363-ac2f-4bc2-ad50-da3965e1e89b"},"vehicle_type_id":"4","last_reported":1761844193,"current_range_meters":5600,"station_id":"","pricing_plan_id":"cebpf4jnsgd1na2vs0mg"},{"bike_id":"c5e430bc-9eff-49cd-bc3e-9a64a031af3d","system_id":"levelo_inurba_marseille","lat":43.28941,"lon":5.36398,"is_reserved":false,"is_disabled":false,"rental_uris":{"android":"levelo://app?vid=c5e430bc-9eff-49cd-bc3e-9a64a031af3d","ios":"levelo://app?vid=c5e430bc-9eff-49cd-bc3e-9a64a031af3d"},"vehicle_type_id":"4","last_reported":1761844193,"current_range_meters":5600,"station_id":"ce4bhc92rcd13ifvqetg","pricing_plan_id":"cebpf4jnsgd1na2vs0mg"},{"bike_id":"ae8ebe94-fc0f-4409-8f77-39eb5c613a67","system_id":"levelo_inurba_marseille","lat":43.337444,"lon":5.374475,"is_reserved":false,"is_disabled":false,"rental_uris":{"android":"levelo://app?vid=ae8ebe94-fc0f-4409-8f77-39eb5c613a67","ios":"levelo://app?vid=ae8ebe94-fc0f-4409-8f77-39eb5c613a67"},"vehicle_type_id":"4","last_reported":1761844193,"current_range_meters":6000,"station_id":"","pricing_plan_id":"cebpf4jnsgd1na2vs0mg"},{"bike_id":"85647893-39fb-49fd-a080-c220fccfe830","system_id":"levelo_inurba_marseille","lat":43.294426,"lon":5.396749,"is_reserved":false,"is_disabled":false,"rental_uris":{"android":"levelo://app?vid=85647893-39fb-49fd-a080-c220fccfe830","ios":"levelo://app?vid=85647893-39fb-49fd-a080-c220fccfe830"},"vehicle_type_id":"4","last_reported":1761844193,"current_range_meters":6000,"station_id":"ce4bh3h2rcd13ifvqdo0","pricing_plan_id":"cebpf4jnsgd1na2vs0mg"},{"bike_id":"65cae7e0-1cf5-43aa-8d41-5290ae3eadb8","system_id":"levelo_inurba_marseille","lat":43.312777,"lon":5.401685,"is_reserved":false,"is_disabled":false,"rental_uris":{"android":"levelo://app?vid=65cae7e0-1cf5-43aa-8d41-5290ae3eadb8","ios":"levelo://app?vid=65cae7e0-1cf5-43aa-8d41-5290ae3eadb8"},"vehicle_type_id":"4","last_reported":1761844193,"current_range_meters":6000,"station_id":"ce4bgv12rcd13ifvqcp0","pricing_plan_id":"cebpf4jnsgd1na2vs0mg"},{"bike_id":"9d9dbebb-009d-48e6-84a3-94c8453d8b3f","system_id":"levelo_inurba_marseille","lat":43.297119,"lon":5.366232,"is_reserved":false,"is_disabled":false,"rental_uris":{"android":"levelo://app?vid=9d9dbebb-009d-48e6-84a3-94c8453d8b3f","ios":"levelo://app?vid=9d9dbebb-009d-48e6-84a3-94c8453d8b3f"},"vehicle_type_id":"4","last_reported":1761844193,"current_range_meters":6000,"station_id":"ce4bgn12rcd13ifvqbt0","pricing_plan_id":"cebpf4jnsgd1na2vs0mg"},{"bike_id":"2ce1059f-67ed-4e87-bfa7-20ff4953c098","system_id":"levelo_inurba_marseille","lat":43.29057,"lon":5.35903,"is_reserved":false,"is_disabled":false,"rental_uris":{"android":"levelo://app?vid=2ce1059f-67ed-4e87-bfa7-20ff4953c098","ios":"levelo://app?vid=2ce1059f-67ed-4e87-bfa7-20ff4953c098"},"vehicle_type_id":"4","last_reported":1761844193,"current_range_meters":6000,"station_id":"ce4bha92rcd13ifvqeg0","pricing_plan_id":"cebpf4jnsgd1na2vs0mg"},{"bike_id":"518c13a2-8fa2-4172-811f-836dd954d92e","system_id":"levelo_inurba_marseille","lat":43.29518,"lon":5.39034,"is_reserved":false,"is_disabled":false,"rental_uris":{"android":"levelo://app?vid=518c13a2-8fa2-4172-811f-836dd954d92e","ios":"levelo://app?vid=518c13a2-8fa2-4172-811f-836dd954d92e"},"vehicle_type_id":"4","last_reported":1761844193,"current_range_meters":6000,"station_id":"ce4bh3p2rcd13ifvqdp0","pricing_plan_id":"cebpf4jnsgd1na2vs0mg"},{"bike_id":"b61e1e59-261f-4781-9885-10fc3dd1eaf7","system_id":"levelo_inurba_marseille","lat":43.30696,"lon":5.37039,"is_reserved":false,"is_disabled":false,"rental_uris":{"android":"levelo://app?vid=b61e1e59-261f-4781-9885-10fc3dd1eaf7","ios":"levelo://app?vid=b61e1e59-261f-4781-9885-10fc3dd1eaf7"},"vehicle_type_id":"4","last_reported":1761844193,"current_range_meters":6000,"station_id":"","pricing_plan_id":"cebpf4jnsgd1na2vs0mg"},{"bike_id":"646f7ee4-c28f-4818-b256-328e1cfc7abd","system_id":"levelo_inurba_marseille","lat":43.28415,"lon":5.37526,"is_reserved":false,"is_disabled":false,"rental_uris":{"android":"levelo://app?vid=646f7ee4-c28f-4818-b256-328e1cfc7abd","ios":"levelo://app?vid=646f7ee4-c28f-4818-b256-328e1cfc7abd"},"vehicle_type_id":"4","last_reported":1761844193,"current_range_meters":6000,"station_id":"ce4bh412rcd13ifvqds0","pricing_plan_id":"cebpf4jnsgd1na2vs0mg"},{"bike_id":"704adb0c-d53b-490c-90a2-be42d6187d09","system_id":"levelo_inurba_marseille","lat":43.285923,"lon":5.384146,"is_reserved":false,"is_disabled":false,"rental_uris":{"android":"levelo://app?vid=704adb0c-d53b-490c-90a2-be42d6187d09","ios":"levelo://app?vid=704adb0c-d53b-490c-90a2-be42d6187d09"},"vehicle_type_id":"4","last_reported":1761844193,"current_range_meters":6400,"station_id":"ce4bh492rcd13ifvqdug","pricing_plan_id":"cebpf4jnsgd1na2vs0mg"},{"bike_id":"41a91545-330c-408c-97c0-555a03347f20","system_id":"levelo_inurba_marseille","lat":43.30883,"lon":5.39662,"is_reserved":false,"is_disabled":false,"rental_uris":{"android":"levelo://app?vid=41a91545-330c-408c-97c0-555a03347f20","ios":"levelo://app?vid=41a91545-330c-408c-97c0-555a03347f20"},"vehicle_type_id":"4","last_reported":1761844193,"current_range_meters":6400,"station_id":"ce4bh012rcd13ifvqcv0","pricing_plan_id":"cebpf4jnsgd1na2vs0mg"},{"bike_id":"154f91b9-2b8f-4cea-b6a6-b905caceb750","system_id":"levelo_inurba_marseille","lat":43.295668,"lon":5.375138,"is_reserved":false,"is_disabled":false,"rental_uris":{"android":"levelo://app?vid=154f91b9-2b8f-4cea-b6a6-b905caceb750","ios":"levelo://app?vid=154f91b9-2b8f-4cea-b6a6-b905caceb750"},"vehicle_type_id":"4","last_reported":1761844193,"current_range_meters":6800,"station_id":"ce4bgh92rcd13ifvqb50","pricing_plan_id":"cebpf4jnsgd1na2vs0mg"},{"bike_id":"41860543-18b1-4228-b6f1-77b516655688","system_id":"levelo_inurba_marseille","lat":43.29974,"lon":5.37168,"is_reserved":false,"is_disabled":false,"rental_uris":{"android":"levelo://app?vid=41860543-18b1-4228-b6f1-77b516655688","ios":"levelo://app?vid=41860543-18b1-4228-b6f1-77b516655688"},"vehicle_type_id":"4","last_reported":1761844193,"current_range_meters":6800,"station_id":"ce4bgr92rcd13ifvqc7g","pricing_plan_id":"cebpf4jnsgd1na2vs0mg"},{"bike_id":"31dc93a3-ac57-4062-8fa6-5e3bb1511a75","system_id":"levelo_inurba_marseille","lat":43.27812,"lon":5.40722,"is_reserved":false,"is_disabled":false,"rental_uris":{"android":"levelo://app?vid=31dc93a3-ac57-4062-8fa6-5e3bb1511a75","ios":"levelo://app?vid=31dc93a3-ac57-4062-8fa6-5e3bb1511a75"},"vehicle_type_id":"4","last_reported":1761844193,"current_range_meters":6800,"station_id":"ce4bhnh2rcd13ifvqgtg","pricing_plan_id":"cebpf4jnsgd1na2vs0mg"},{"bike_id":"88160e89-58d3-4672-a169-22a30ed69989","system_id":"levelo_inurba_marseille","lat":43.285754,"lon":5.394993,"is_reserved":false,"is_disabled":false,"rental_uris":{"android":"levelo://app?vid=88160e89-58d3-4672-a169-22a30ed69989","ios":"levelo://app?vid=88160e89-58d3-4672-a169-22a30ed69989"},"vehicle_type_id":"4","last_reported":1761844193,"current_range_meters":7200,"station_id":"ce4bh292rcd13ifvqdg0","pricing_plan_id":"cebpf4jnsgd1na2vs0mg"},{"bike_id":"c9636d67-49a9-4c0f-a54d-75e9d2c9aedf","system_id":"levelo_inurba_marseille","lat":43.295247,"lon":5.385443,"is_reserved":false,"is_disabled":false,"rental_uris":{"android":"levelo://app?vid=c9636d67-49a9-4c0f-a54d-75e9d2c9aedf","ios":"levelo://app?vid=c9636d67-49a9-4c0f-a54d-75e9d2c9aedf"},"vehicle_type_id":"4","last_reported":1761844193,"current_range_meters":7200,"station_id":"ce4bgih2rcd13ifvqba0","pricing_plan_id":"cebpf4jnsgd1na2vs0mg"},{"bike_id":"8a0f91ad-1800-45fe-8d09-175ff88a4af0","system_id":"levelo_inurba_marseille","lat":43.280391,"lon":5.36957,"is_reserved":false,"is_disabled":false,"rental_uris":{"android":"levelo://app?vid=8a0f91ad-1800-45fe-8d09-175ff88a4af0","ios":"levelo://app?vid=8a0f91ad-1800-45fe-8d09-175ff88a4af0"},"vehicle_type_id":"4","last_reported":1761844193,"current_range_meters":7200,"station_id":"ce4bha12rcd13ifvqef0","pricing_plan_id":"cebpf4jnsgd1na2vs0mg"},{"bike_id":"80ba6c26-f7d3-4d6c-9945-b5c831e6e4d5","system_id":"levelo_inurba_marseille","lat":43.293471,"lon":5.411769,"is_reserved":false,"is_disabled":false,"rental_uris":{"android":"levelo://app?vid=80ba6c26-f7d3-4d6c-9945-b5c831e6e4d5","ios":"levelo://app?vid=80ba6c26-f7d3-4d6c-9945-b5c831e6e4d5"},"vehicle_type_id":"4","last_reported":1761844193,"current_range_meters":7200,"station_id":"","pricing_plan_id":"cebpf4jnsgd1na2vs0mg"},{"bike_id":"77635110-815c-4cf7-b3b2-2a158e745c4f","system_id":"levelo_inurba_marseille","lat":43.299,"lon":5.39757,"is_reserved":false,"is_disabled":false,"rental_uris":{"android":"levelo://app?vid=77635110-815c-4cf7-b3b2-2a158e745c4f","ios":"levelo://app?vid=77635110-815c-4cf7-b3b2-2a158e745c4f"},"vehicle_type_id":"4","last_reported":1761844193,"current_range_meters":7200,"station_id":"ce4bh0h2rcd13ifvqd50","pricing_plan_id":"cebpf4jnsgd1na2vs0mg"},{"bike_id":"db37a517-de74-4b3b-832b-05648e7a674d","system_id":"levelo_inurba_marseille","lat":43.265707,"lon":5.390465,"is_reserved":false,"is_disabled":false,"rental_uris":{"android":"levelo://app?vid=db37a517-de74-4b3b-832b-05648e7a674d","ios":"levelo://app?vid=db37a517-de74-4b3b-832b-05648e7a674d"},"vehicle_type_id":"4","last_reported":1761844193,"current_range_meters":7200,"station_id":"ce4bhe12rcd13ifvqf30","pricing_plan_id":"cebpf4jnsgd1na2vs0mg"},{"bike_id":"2d263ab2-e2a6-4018-a728-0ab2f07964a4","system_id":"levelo_inurba_marseille","lat":43.2844,"lon":5.39206,"is_reserved":false,"is_disabled":false,"rental_uris":{"android":"levelo://app?vid=2d263ab2-e2a6-4018-a728-0ab2f07964a4","ios":"levelo://app?vid=2d263ab2-e2a6-4018-a728-0ab2f07964a4"},"vehicle_type_id":"4","last_reported":1761844193,"current_range_meters":8000,"station_id":"ce4bhoh2rcd13ifvqh5g","pricing_plan_id":"cebpf4jnsgd1na2vs0mg"},{"bike_id":"7d84bf82-2d8e-429f-813c-b8acff0d1bb5","system_id":"levelo_inurba_marseille","lat":43.28732,"lon":5.37941,"is_reserved":false,"is_disabled":false,"rental_uris":{"android":"levelo://app?vid=7d84bf82-2d8e-429f-813c-b8acff0d1bb5","ios":"levelo://app?vid=7d84bf82-2d8e-429f-813c-b8acff0d1bb5"},"vehicle_type_id":"4","last_reported":1761844193,"current_range_meters":8000,"station_id":"ce4bh9p2rcd13ifvqec0","pricing_plan_id":"cebpf4jnsgd1na2vs0mg"},{"bike_id":"2083cf00-46a3-4797-a646-6a20c149ce71","system_id":"levelo_inurba_marseille","lat":43.2883,"lon":5.403741,"is_reserved":false,"is_disabled":false,"rental_uris":{"android":"levelo://app?vid=2083cf00-46a3-4797-a646-6a20c149ce71","ios":"levelo://app?vid=2083cf00-46a3-4797-a646-6a20c149ce71"},"vehicle_type_id":"4","last_reported":1761844193,"current_range_meters":8400,"station_id":"ce4bhah2rcd13ifvqei0","pricing_plan_id":"cebpf4jnsgd1na2vs0mg"},{"bike_id":"819f3c94-46a0-4d60-b376-2eff4cea107d","system_id":"levelo_inurba_marseille","lat":43.28422,"lon":5.37525,"is_reserved":false,"is_disabled":false,"rental_uris":{"android":"levelo://app?vid=819f3c94-46a0-4d60-b376-2eff4cea107d","ios":"levelo://app?vid=819f3c94-46a0-4d60-b376-2eff4cea107d"},"vehicle_type_id":"4","last_reported":1761844193,"current_range_meters":8800,"station_id":"ce4bh412rcd13ifvqds0","pricing_plan_id":"cebpf4jnsgd1na2vs0mg"},{"bike_id":"faee4aed-34d1-4e59-9f3e-bc2337688920","system_id":"levelo_inurba_marseille","lat":43.31713,"lon":5.43707,"is_reserved":false,"is_disabled":true,"rental_uris":{"android":"levelo://app?vid=faee4aed-34d1-4e59-9f3e-bc2337688920","ios":"levelo://app?vid=faee4aed-34d1-4e59-9f3e-bc2337688920"},"vehicle_type_id":"4","last_reported":1761844193,"current_range_meters":8800,"station_id":"ce4bhp92rcd13ifvqhcg","pricing_plan_id":"cebpf4jnsgd1na2vs0mg"},{"bike_id":"1f1586ef-ea62-4635-aaaf-47566cbdb92a","system_id":"levelo_inurba_marseille","lat":43.28654,"lon":5.36351,"is_reserved":false,"is_disabled":false,"rental_uris":{"android":"levelo://app?vid=1f1586ef-ea62-4635-aaaf-47566cbdb92a","ios":"levelo://app?vid=1f1586ef-ea62-4635-aaaf-47566cbdb92a"},"vehicle_type_id":"4","last_reported":1761844193,"current_range_meters":8800,"station_id":"ce4bhah2rcd13ifvqej0","pricing_plan_id":"cebpf4jnsgd1na2vs0mg"},{"bike_id":"7f597b80-e60b-4d55-8e6a-3e68b1031742","system_id":"levelo_inurba_marseille","lat":43.25086,"lon":5.39528,"is_reserved":false,"is_disabled":false,"rental_uris":{"android":"levelo://app?vid=7f597b80-e60b-4d55-8e6a-3e68b1031742","ios":"levelo://app?vid=7f597b80-e60b-4d55-8e6a-3e68b1031742"},"vehicle_type_id":"4","last_reported":1761844193,"current_range_meters":9200,"station_id":"ce4bhm12rcd13ifvqgkg","pricing_plan_id":"cebpf4jnsgd1na2vs0mg"},{"bike_id":"6305a0e7-3349-445d-a1f7-40fbbcf64a2f","system_id":"levelo_inurba_marseille","lat":43.25725,"lon":5.4111,"is_reserved":false,"is_disabled":false,"rental_uris":{"android":"levelo://app?vid=6305a0e7-3349-445d-a1f7-40fbbcf64a2f","ios":"levelo://app?vid=6305a0e7-3349-445d-a1f7-40fbbcf64a2f"},"vehicle_type_id":"4","last_reported":1761844193,"current_range_meters":9200,"station_id":"ce4bhkp2rcd13ifvqgd0","pricing_plan_id":"cebpf4jnsgd1na2vs0mg"},{"bike_id":"46f3e991-c55b-4d9d-9a37-f9e3e15f4f3f","system_id":"levelo_inurba_marseille","lat":43.21184,"lon":5.35085,"is_reserved":false,"is_disabled":false,"rental_uris":{"android":"levelo://app?vid=46f3e991-c55b-4d9d-9a37-f9e3e15f4f3f","ios":"levelo://app?vid=46f3e991-c55b-4d9d-9a37-f9e3e15f4f3f"},"vehicle_type_id":"4","last_reported":1761844193,"current_range_meters":9200,"station_id":"st_cvj6sg6p6f1abm77japg","pricing_plan_id":"cebpf4jnsgd1na2vs0mg"},{"bike_id":"899f498b-b0d2-4609-8c9e-15400a9cb9bf","system_id":"levelo_inurba_marseille","lat":43.29533,"lon":5.38538,"is_reserved":false,"is_disabled":false,"rental_uris":{"android":"levelo://app?vid=899f498b-b0d2-4609-8c9e-15400a9cb9bf","ios":"levelo://app?vid=899f498b-b0d2-4609-8c9e-15400a9cb9bf"},"vehicle_type_id":"4","last_reported":1761844193,"current_range_meters":9600,"station_id":"ce4bgih2rcd13ifvqba0","pricing_plan_id":"cebpf4jnsgd1na2vs0mg"},{"bike_id":"44cbaf7a-69f3-4cea-80f8-f94264bfc630","system_id":"levelo_inurba_marseille","lat":43.29702,"lon":5.36616,"is_reserved":false,"is_disabled":false,"rental_uris":{"android":"levelo://app?vid=44cbaf7a-69f3-4cea-80f8-f94264bfc630","ios":"levelo://app?vid=44cbaf7a-69f3-4cea-80f8-f94264bfc630"},"vehicle_type_id":"4","last_reported":1761844193,"current_range_meters":9600,"station_id":"ce4bgn12rcd13ifvqbt0","pricing_plan_id":"cebpf4jnsgd1na2vs0mg"},{"bike_id":"9e3564a3-3b3b-4a4a-a9e5-f73e91e05ce8","system_id":"levelo_inurba_marseille","lat":43.30909,"lon":5.36845,"is_reserved":false,"is_disabled":true,"rental_uris":{"android":"levelo://app?vid=9e3564a3-3b3b-4a4a-a9e5-f73e91e05ce8","ios":"levelo://app?vid=9e3564a3-3b3b-4a4a-a9e5-f73e91e05ce8"},"vehicle_type_id":"4","last_reported":1761844193,"current_range_meters":9600,"station_id":"ce4bgn92rcd13ifvqbvg","pricing_plan_id":"cebpf4jnsgd1na2vs0mg"},{"bike_id":"9bdbd7fa-9380-4e9d-89d1-646547669339","system_id":"levelo_inurba_marseille","lat":43.3053,"lon":5.36562,"is_reserved":false,"is_disabled":false,"rental_uris":{"android":"levelo://app?vid=9bdbd7fa-9380-4e9d-89d1-646547669339","ios":"levelo://app?vid=9bdbd7fa-9380-4e9d-89d1-646547669339"},"vehicle_type_id":"4","last_reported":1761844193,"current_range_meters":9600,"station_id":"ce4bgs12rcd13ifvqcag","pricing_plan_id":"cebpf4jnsgd1na2vs0mg"},{"bike_id":"bb727e54-3386-4789-ba66-0b4a8a01f8d4","system_id":"levelo_inurba_marseille","lat":43.29545,"lon":5.37503,"is_reserved":false,"is_disabled":false,"rental_uris":{"android":"levelo://app?vid=bb727e54-3386-4789-ba66-0b4a8a01f8d4","ios":"levelo://app?vid=bb727e54-3386-4789-ba66-0b4a8a01f8d4"},"vehicle_type_id":"4","last_reported":1761844193,"current_range_meters":9600,"station_id":"ce4bgkp2rcd13ifvqbmg","pricing_plan_id":"cebpf4jnsgd1na2vs0mg"},{"bike_id":"983de31b-9d4e-4a66-addd-a9790ecc6802","system_id":"levelo_inurba_marseille","lat":43.31065,"lon":5.38364,"is_reserved":false,"is_disabled":false,"rental_uris":{"android":"levelo://app?vid=983de31b-9d4e-4a66-addd-a9790ecc6802","ios":"levelo://app?vid=983de31b-9d4e-4a66-addd-a9790ecc6802"},"vehicle_type_id":"4","last_reported":1761844193,"current_range_meters":9600,"station_id":"ce4bgv92rcd13ifvqcr0","pricing_plan_id":"cebpf4jnsgd1na2vs0mg"},{"bike_id":"1aabd0d3-f26b-4620-8084-fbd4170971d4","system_id":"levelo_inurba_marseille","lat":43.29029,"lon":5.38657,"is_reserved":false,"is_disabled":false,"rental_uris":{"android":"levelo://app?vid=1aabd0d3-f26b-4620-8084-fbd4170971d4","ios":"levelo://app?vid=1aabd0d3-f26b-4620-8084-fbd4170971d4"},"vehicle_type_id":"4","last_reported":1761844193,"current_range_meters":10000,"station_id":"ce4bh4p2rcd13ifvqe0g","pricing_plan_id":"cebpf4jnsgd1na2vs0mg"},{"bike_id":"4e16fc10-05ca-4ccd-a2ca-53960ae20c35","system_id":"levelo_inurba_marseille","lat":43.263085,"lon":5.376314,"is_reserved":false,"is_disabled":false,"rental_uris":{"android":"levelo://app?vid=4e16fc10-05ca-4ccd-a2ca-53960ae20c35","ios":"levelo://app?vid=4e16fc10-05ca-4ccd-a2ca-53960ae20c35"},"vehicle_type_id":"4","last_reported":1761844193,"current_range_meters":10000,"station_id":"","pricing_plan_id":"cebpf4jnsgd1na2vs0mg"},{"bike_id":"562be649-f31a-4664-825a-d28123530e58","system_id":"levelo_inurba_marseille","lat":43.29266,"lon":5.38437,"is_reserved":false,"is_disabled":false,"rental_uris":{"android":"levelo://app?vid=562be649-f31a-4664-825a-d28123530e58","ios":"levelo://app?vid=562be649-f31a-4664-825a-d28123530e58"},"vehicle_type_id":"4","last_reported":1761844193,"current_range_meters":10800,"station_id":"ce4bh692rcd13ifvqea0","pricing_plan_id":"cebpf4jnsgd1na2vs0mg"},{"bike_id":"fecda3be-3835-4c21-bdeb-8c9cae70e9be","system_id":"levelo_inurba_marseille","lat":43.29272,"lon":5.38446,"is_reserved":false,"is_disabled":false,"rental_uris":{"android":"levelo://app?vid=fecda3be-3835-4c21-bdeb-8c9cae70e9be","ios":"levelo://app?vid=fecda3be-3835-4c21-bdeb-8c9cae70e9be"},"vehicle_type_id":"4","last_reported":1761844193,"current_range_meters":10800,"station_id":"ce4bh692rcd13ifvqea0","pricing_plan_id":"cebpf4jnsgd1na2vs0mg"},{"bike_id":"9edd9e9d-9ceb-4dcc-a911-6ef03d567633","system_id":"levelo_inurba_marseille","lat":43.270706,"lon":5.422812,"is_reserved":false,"is_disabled":false,"rental_uris":{"android":"levelo://app?vid=9edd9e9d-9ceb-4dcc-a911-6ef03d567633","ios":"levelo://app?vid=9edd9e9d-9ceb-4dcc-a911-6ef03d567633"},"vehicle_type_id":"4","last_reported":1761844193,"current_range_meters":10800,"station_id":"ce4bhk92rcd13ifvqgb0","pricing_plan_id":"cebpf4jnsgd1na2vs0mg"},{"bike_id":"62567da1-70f6-4a9f-a20a-48cc8d93ea0d","system_id":"levelo_inurba_marseille","lat":43.286762,"lon":5.386634,"is_reserved":false,"is_disabled":false,"rental_uris":{"android":"levelo://app?vid=62567da1-70f6-4a9f-a20a-48cc8d93ea0d","ios":"levelo://app?vid=62567da1-70f6-4a9f-a20a-48cc8d93ea0d"},"vehicle_type_id":"4","last_reported":1761844193,"current_range_meters":11200,"station_id":"ce4bh0h2rcd13ifvqd40","pricing_plan_id":"cebpf4jnsgd1na2vs0mg"},{"bike_id":"72dc3e4e-c6d9-41df-a329-50632baefb4d","system_id":"levelo_inurba_marseille","lat":43.25826,"lon":5.39438,"is_reserved":false,"is_disabled":false,"rental_uris":{"android":"levelo://app?vid=72dc3e4e-c6d9-41df-a329-50632baefb4d","ios":"levelo://app?vid=72dc3e4e-c6d9-41df-a329-50632baefb4d"},"vehicle_type_id":"4","last_reported":1761844193,"current_range_meters":11200,"station_id":"ce4bhip2rcd13ifvqft0","pricing_plan_id":"cebpf4jnsgd1na2vs0mg"},{"bike_id":"6fff56e2-dc33-4322-9554-e738206d1bc0","system_id":"levelo_inurba_marseille","lat":43.2119,"lon":5.35077,"is_reserved":false,"is_disabled":false,"rental_uris":{"android":"levelo://app?vid=6fff56e2-dc33-4322-9554-e738206d1bc0","ios":"levelo://app?vid=6fff56e2-dc33-4322-9554-e738206d1bc0"},"vehicle_type_id":"4","last_reported":1761844193,"current_range_meters":11200,"station_id":"st_cvj6sg6p6f1abm77japg","pricing_plan_id":"cebpf4jnsgd1na2vs0mg"},{"bike_id":"eb4d9289-04f9-4a26-833c-1f10af68ef4b","system_id":"levelo_inurba_marseille","lat":43.27816,"lon":5.40718,"is_reserved":false,"is_disabled":false,"rental_uris":{"android":"levelo://app?vid=eb4d9289-04f9-4a26-833c-1f10af68ef4b","ios":"levelo://app?vid=eb4d9289-04f9-4a26-833c-1f10af68ef4b"},"vehicle_type_id":"4","last_reported":1761844193,"current_range_meters":11600,"station_id":"ce4bhnh2rcd13ifvqgtg","pricing_plan_id":"cebpf4jnsgd1na2vs0mg"},{"bike_id":"3126ce35-4101-4b06-a7b2-19548fb25089","system_id":"levelo_inurba_marseille","lat":43.211922,"lon":5.350748,"is_reserved":false,"is_disabled":false,"rental_uris":{"android":"levelo://app?vid=3126ce35-4101-4b06-a7b2-19548fb25089","ios":"levelo://app?vid=3126ce35-4101-4b06-a7b2-19548fb25089"},"vehicle_type_id":"4","last_reported":1761844193,"current_range_meters":11600,"station_id":"st_cvj6sg6p6f1abm77japg","pricing_plan_id":"cebpf4jnsgd1na2vs0mg"},{"bike_id":"0d27473f-78e6-4932-964b-85abb2f34b5c","system_id":"levelo_inurba_marseille","lat":43.29503,"lon":5.39056,"is_reserved":false,"is_disabled":false,"rental_uris":{"android":"levelo://app?vid=0d27473f-78e6-4932-964b-85abb2f34b5c","ios":"levelo://app?vid=0d27473f-78e6-4932-964b-85abb2f34b5c"},"vehicle_type_id":"4","last_reported":1761844193,"current_range_meters":11600,"station_id":"ce4bh3p2rcd13ifvqdp0","pricing_plan_id":"cebpf4jnsgd1na2vs0mg"},{"bike_id":"087858a4-5cca-485c-9a35-d01b8c28c3f0","system_id":"levelo_inurba_marseille","lat":43.2481,"lon":5.37461,"is_reserved":false,"is_disabled":false,"rental_uris":{"android":"levelo://app?vid=087858a4-5cca-485c-9a35-d01b8c28c3f0","ios":"levelo://app?vid=087858a4-5cca-485c-9a35-d01b8c28c3f0"},"vehicle_type_id":"4","last_reported":1761844193,"current_range_meters":11600,"station_id":"ce4bhgh2rcd13ifvqfb0","pricing_plan_id":"cebpf4jnsgd1na2vs0mg"},{"bike_id":"e1e2a457-df19-4b98-90a8-25aeb1c4995a","system_id":"levelo_inurba_marseille","lat":43.260205,"lon":5.417408,"is_reserved":false,"is_disabled":false,"rental_uris":{"android":"levelo://app?vid=e1e2a457-df19-4b98-90a8-25aeb1c4995a","ios":"levelo://app?vid=e1e2a457-df19-4b98-90a8-25aeb1c4995a"},"vehicle_type_id":"4","last_reported":1761844193,"current_range_meters":12000,"station_id":"","pricing_plan_id":"cebpf4jnsgd1na2vs0mg"},{"bike_id":"76c01914-93d9-437a-97ac-67e5f0ea5240","system_id":"levelo_inurba_marseille","lat":43.2956,"lon":5.37533,"is_reserved":false,"is_disabled":false,"rental_uris":{"android":"levelo://app?vid=76c01914-93d9-437a-97ac-67e5f0ea5240","ios":"levelo://app?vid=76c01914-93d9-437a-97ac-67e5f0ea5240"},"vehicle_type_id":"4","last_reported":1761844193,"current_range_meters":12000,"station_id":"ce4bgh92rcd13ifvqb50","pricing_plan_id":"cebpf4jnsgd1na2vs0mg"},{"bike_id":"f705e98f-6b7c-4ff7-b410-a9da6d5bf4b5","system_id":"levelo_inurba_marseille","lat":43.29189,"lon":5.35809,"is_reserved":false,"is_disabled":false,"rental_uris":{"android":"levelo://app?vid=f705e98f-6b7c-4ff7-b410-a9da6d5bf4b5","ios":"levelo://app?vid=f705e98f-6b7c-4ff7-b410-a9da6d5bf4b5"},"vehicle_type_id":"4","last_reported":1761844193,"current_range_meters":12000,"station_id":"ce4bhb12rcd13ifvqel0","pricing_plan_id":"cebpf4jnsgd1na2vs0mg"},{"bike_id":"106d9eb9-0bf9-44ff-b226-3957474f220a","system_id":"levelo_inurba_marseille","lat":43.2996,"lon":5.41332,"is_reserved":false,"is_disabled":false,"rental_uris":{"android":"levelo://app?vid=106d9eb9-0bf9-44ff-b226-3957474f220a","ios":"levelo://app?vid=106d9eb9-0bf9-44ff-b226-3957474f220a"},"vehicle_type_id":"4","last_reported":1761844193,"current_range_meters":12000,"station_id":"ce4bhp12rcd13ifvqh9g","pricing_plan_id":"cebpf4jnsgd1na2vs0mg"},{"bike_id":"582b58c1-ce25-421b-902c-cd3c9cde1895","system_id":"levelo_inurba_marseille","lat":43.28862,"lon":5.42524,"is_reserved":false,"is_disabled":false,"rental_uris":{"android":"levelo://app?vid=582b58c1-ce25-421b-902c-cd3c9cde1895","ios":"levelo://app?vid=582b58c1-ce25-421b-902c-cd3c9cde1895"},"vehicle_type_id":"4","last_reported":1761844193,"current_range_meters":12000,"station_id":"st_d3b462108ojc7389ooeg","pricing_plan_id":"cebpf4jnsgd1na2vs0mg"},{"bike_id":"4defedff-bdc1-4df7-a2cc-4ddd7e68c438","system_id":"levelo_inurba_marseille","lat":43.24948,"lon":5.40493,"is_reserved":false,"is_disabled":false,"rental_uris":{"android":"levelo://app?vid=4defedff-bdc1-4df7-a2cc-4ddd7e68c438","ios":"levelo://app?vid=4defedff-bdc1-4df7-a2cc-4ddd7e68c438"},"vehicle_type_id":"4","last_reported":1761844193,"current_range_meters":12400,"station_id":"st_d2ngiaodas8pm72gd1h0","pricing_plan_id":"cebpf4jnsgd1na2vs0mg"},{"bike_id":"e7fbda8d-e4b1-4d1d-8e59-650ead40058d","system_id":"levelo_inurba_marseille","lat":43.24642,"lon":5.43147,"is_reserved":false,"is_disabled":false,"rental_uris":{"android":"levelo://app?vid=e7fbda8d-e4b1-4d1d-8e59-650ead40058d","ios":"levelo://app?vid=e7fbda8d-e4b1-4d1d-8e59-650ead40058d"},"vehicle_type_id":"4","last_reported":1761844193,"current_range_meters":12400,"station_id":"st_d2m6c4gdas8pm72e190g","pricing_plan_id":"cebpf4jnsgd1na2vs0mg"},{"bike_id":"00ef8186-e454-4c64-8de5-650ef2b83a92","system_id":"levelo_inurba_marseille","lat":43.29489,"lon":5.43312,"is_reserved":false,"is_disabled":false,"rental_uris":{"android":"levelo://app?vid=00ef8186-e454-4c64-8de5-650ef2b83a92","ios":"levelo://app?vid=00ef8186-e454-4c64-8de5-650ef2b83a92"},"vehicle_type_id":"4","last_reported":1761844193,"current_range_meters":12400,"station_id":"st_d3j5ugp08ojc73fj9d10","pricing_plan_id":"cebpf4jnsgd1na2vs0mg"},{"bike_id":"10130793-a643-4cb1-991b-655d02c37b42","system_id":"levelo_inurba_marseille","lat":43.26559,"lon":5.39019,"is_reserved":false,"is_disabled":false,"rental_uris":{"android":"levelo://app?vid=10130793-a643-4cb1-991b-655d02c37b42","ios":"levelo://app?vid=10130793-a643-4cb1-991b-655d02c37b42"},"vehicle_type_id":"4","last_reported":1761844193,"current_range_meters":12400,"station_id":"ce4bhe12rcd13ifvqf30","pricing_plan_id":"cebpf4jnsgd1na2vs0mg"},{"bike_id":"293a366c-ad33-464f-be66-4c308271167a","system_id":"levelo_inurba_marseille","lat":43.24173,"lon":5.36395,"is_reserved":false,"is_disabled":false,"rental_uris":{"android":"levelo://app?vid=293a366c-ad33-464f-be66-4c308271167a","ios":"levelo://app?vid=293a366c-ad33-464f-be66-4c308271167a"},"vehicle_type_id":"4","last_reported":1761844193,"current_range_meters":12400,"station_id":"cpo36qri1sfpv3e86is0","pricing_plan_id":"cebpf4jnsgd1na2vs0mg"},{"bike_id":"7d0e4c98-e1ee-4893-9e92-ca3efbc0dd03","system_id":"levelo_inurba_marseille","lat":43.29523,"lon":5.38556,"is_reserved":false,"is_disabled":false,"rental_uris":{"android":"levelo://app?vid=7d0e4c98-e1ee-4893-9e92-ca3efbc0dd03","ios":"levelo://app?vid=7d0e4c98-e1ee-4893-9e92-ca3efbc0dd03"},"vehicle_type_id":"4","last_reported":1761844193,"current_range_meters":12400,"station_id":"ce4bgih2rcd13ifvqba0","pricing_plan_id":"cebpf4jnsgd1na2vs0mg"},{"bike_id":"fdff5dcc-b966-40b3-b51b-c36ff3517056","system_id":"levelo_inurba_marseille","lat":43.296226,"lon":5.376874,"is_reserved":false,"is_disabled":false,"rental_uris":{"android":"levelo://app?vid=fdff5dcc-b966-40b3-b51b-c36ff3517056","ios":"levelo://app?vid=fdff5dcc-b966-40b3-b51b-c36ff3517056"},"vehicle_type_id":"4","last_reported":1761844193,"current_range_meters":12400,"station_id":"ce4bgi92rcd13ifvqb90","pricing_plan_id":"cebpf4jnsgd1na2vs0mg"},{"bike_id":"04d817b9-3e24-4734-82b2-b5857dcbd3ee","system_id":"levelo_inurba_marseille","lat":43.24056,"lon":5.37758,"is_reserved":false,"is_disabled":false,"rental_uris":{"android":"levelo://app?vid=04d817b9-3e24-4734-82b2-b5857dcbd3ee","ios":"levelo://app?vid=04d817b9-3e24-4734-82b2-b5857dcbd3ee"},"vehicle_type_id":"4","last_reported":1761844193,"current_range_meters":12800,"station_id":"ce4bhnp2rcd13ifvqgvg","pricing_plan_id":"cebpf4jnsgd1na2vs0mg"},{"bike_id":"003dc589-afc6-47c4-a84a-e90cd5f91109","system_id":"levelo_inurba_marseille","lat":43.29521,"lon":5.39041,"is_reserved":false,"is_disabled":true,"rental_uris":{"android":"levelo://app?vid=003dc589-afc6-47c4-a84a-e90cd5f91109","ios":"levelo://app?vid=003dc589-afc6-47c4-a84a-e90cd5f91109"},"vehicle_type_id":"4","last_reported":1761844193,"current_range_meters":12800,"station_id":"ce4bh3p2rcd13ifvqdp0","pricing_plan_id":"cebpf4jnsgd1na2vs0mg"},{"bike_id":"7598ca20-e873-4993-a579-2b908bf355bf","system_id":"levelo_inurba_marseille","lat":43.25501,"lon":5.37659,"is_reserved":false,"is_disabled":false,"rental_uris":{"android":"levelo://app?vid=7598ca20-e873-4993-a579-2b908bf355bf","ios":"levelo://app?vid=7598ca20-e873-4993-a579-2b908bf355bf"},"vehicle_type_id":"4","last_reported":1761844193,"current_range_meters":12800,"station_id":"ce4bhh12rcd13ifvqff0","pricing_plan_id":"cebpf4jnsgd1na2vs0mg"},{"bike_id":"87f07427-7afa-4c61-8863-cee86bfb2232","system_id":"levelo_inurba_marseille","lat":43.27176,"lon":5.40995,"is_reserved":false,"is_disabled":false,"rental_uris":{"android":"levelo://app?vid=87f07427-7afa-4c61-8863-cee86bfb2232","ios":"levelo://app?vid=87f07427-7afa-4c61-8863-cee86bfb2232"},"vehicle_type_id":"4","last_reported":1761844193,"current_range_meters":12800,"station_id":"ce4bhl12rcd13ifvqgf0","pricing_plan_id":"cebpf4jnsgd1na2vs0mg"},{"bike_id":"7afafebc-9388-4b96-826a-eb1746b15f9a","system_id":"levelo_inurba_marseille","lat":43.27078,"lon":5.42292,"is_reserved":false,"is_disabled":false,"rental_uris":{"android":"levelo://app?vid=7afafebc-9388-4b96-826a-eb1746b15f9a","ios":"levelo://app?vid=7afafebc-9388-4b96-826a-eb1746b15f9a"},"vehicle_type_id":"4","last_reported":1761844193,"current_range_meters":12800,"station_id":"ce4bhk92rcd13ifvqgb0","pricing_plan_id":"cebpf4jnsgd1na2vs0mg"},{"bike_id":"ce9e7d38-4e97-4d62-a5fb-5eac8cd84efd","system_id":"levelo_inurba_marseille","lat":43.31115,"lon":5.37784,"is_reserved":false,"is_disabled":false,"rental_uris":{"android":"levelo://app?vid=ce9e7d38-4e97-4d62-a5fb-5eac8cd84efd","ios":"levelo://app?vid=ce9e7d38-4e97-4d62-a5fb-5eac8cd84efd"},"vehicle_type_id":"4","last_reported":1761844193,"current_range_meters":12800,"station_id":"ce4bgt92rcd13ifvqcg0","pricing_plan_id":"cebpf4jnsgd1na2vs0mg"},{"bike_id":"15e2c5dd-bae1-46fb-906a-d29fa37d6e53","system_id":"levelo_inurba_marseille","lat":43.31322,"lon":5.37325,"is_reserved":false,"is_disabled":false,"rental_uris":{"android":"levelo://app?vid=15e2c5dd-bae1-46fb-906a-d29fa37d6e53","ios":"levelo://app?vid=15e2c5dd-bae1-46fb-906a-d29fa37d6e53"},"vehicle_type_id":"4","last_reported":1761844193,"current_range_meters":12800,"station_id":"","pricing_plan_id":"cebpf4jnsgd1na2vs0mg"},{"bike_id":"cf5bb6d1-2a0a-4785-a9b6-dd182fc81b88","system_id":"levelo_inurba_marseille","lat":43.308995,"lon":5.396649,"is_reserved":false,"is_disabled":false,"rental_uris":{"android":"levelo://app?vid=cf5bb6d1-2a0a-4785-a9b6-dd182fc81b88","ios":"levelo://app?vid=cf5bb6d1-2a0a-4785-a9b6-dd182fc81b88"},"vehicle_type_id":"4","last_reported":1761844193,"current_range_meters":12800,"station_id":"ce4bh012rcd13ifvqcv0","pricing_plan_id":"cebpf4jnsgd1na2vs0mg"},{"bike_id":"2ec8fd1b-3b42-4f93-a828-68bd711efa51","system_id":"levelo_inurba_marseille","lat":43.24622,"lon":5.43156,"is_reserved":false,"is_disabled":false,"rental_uris":{"android":"levelo://app?vid=2ec8fd1b-3b42-4f93-a828-68bd711efa51","ios":"levelo://app?vid=2ec8fd1b-3b42-4f93-a828-68bd711efa51"},"vehicle_type_id":"4","last_reported":1761844193,"current_range_meters":13600,"station_id":"st_d2m6c4gdas8pm72e190g","pricing_plan_id":"cebpf4jnsgd1na2vs0mg"},{"bike_id":"f6946de9-6fd5-486c-846e-6aac0ac8e59f","system_id":"levelo_inurba_marseille","lat":43.21213,"lon":5.35067,"is_reserved":false,"is_disabled":false,"rental_uris":{"android":"levelo://app?vid=f6946de9-6fd5-486c-846e-6aac0ac8e59f","ios":"levelo://app?vid=f6946de9-6fd5-486c-846e-6aac0ac8e59f"},"vehicle_type_id":"4","last_reported":1761844193,"current_range_meters":13600,"station_id":"st_cvj6sg6p6f1abm77japg","pricing_plan_id":"cebpf4jnsgd1na2vs0mg"},{"bike_id":"a18dbf48-2c4d-4fa4-a4c5-c9871d73c9a0","system_id":"levelo_inurba_marseille","lat":43.301994,"lon":5.383462,"is_reserved":false,"is_disabled":false,"rental_uris":{"android":"levelo://app?vid=a18dbf48-2c4d-4fa4-a4c5-c9871d73c9a0","ios":"levelo://app?vid=a18dbf48-2c4d-4fa4-a4c5-c9871d73c9a0"},"vehicle_type_id":"4","last_reported":1761844193,"current_range_meters":14000,"station_id":"ce4bgup2rcd13ifvqcn0","pricing_plan_id":"cebpf4jnsgd1na2vs0mg"},{"bike_id":"a159c7fa-4c33-479a-9130-82f09aa8b34d","system_id":"levelo_inurba_marseille","lat":43.25084,"lon":5.39522,"is_reserved":false,"is_disabled":false,"rental_uris":{"android":"levelo://app?vid=a159c7fa-4c33-479a-9130-82f09aa8b34d","ios":"levelo://app?vid=a159c7fa-4c33-479a-9130-82f09aa8b34d"},"vehicle_type_id":"4","last_reported":1761844193,"current_range_meters":14000,"station_id":"ce4bhm12rcd13ifvqgkg","pricing_plan_id":"cebpf4jnsgd1na2vs0mg"},{"bike_id":"49eabeb8-91e9-4fed-9256-a94ef104e5f4","system_id":"levelo_inurba_marseille","lat":43.29613,"lon":5.36745,"is_reserved":false,"is_disabled":false,"rental_uris":{"android":"levelo://app?vid=49eabeb8-91e9-4fed-9256-a94ef104e5f4","ios":"levelo://app?vid=49eabeb8-91e9-4fed-9256-a94ef104e5f4"},"vehicle_type_id":"4","last_reported":1761844193,"current_range_meters":14400,"station_id":"ce4bgph2rcd13ifvqc2g","pricing_plan_id":"cebpf4jnsgd1na2vs0mg"},{"bike_id":"e3fb8853-9871-4a3c-9cd5-dff03876b7b6","system_id":"levelo_inurba_marseille","lat":43.265707,"lon":5.390416,"is_reserved":false,"is_disabled":false,"rental_uris":{"android":"levelo://app?vid=e3fb8853-9871-4a3c-9cd5-dff03876b7b6","ios":"levelo://app?vid=e3fb8853-9871-4a3c-9cd5-dff03876b7b6"},"vehicle_type_id":"4","last_reported":1761844193,"current_range_meters":14400,"station_id":"ce4bhe12rcd13ifvqf30","pricing_plan_id":"cebpf4jnsgd1na2vs0mg"},{"bike_id":"a2b58f76-34db-4561-ab12-b5178df52f0e","system_id":"levelo_inurba_marseille","lat":43.29625,"lon":5.37741,"is_reserved":false,"is_disabled":false,"rental_uris":{"android":"levelo://app?vid=a2b58f76-34db-4561-ab12-b5178df52f0e","ios":"levelo://app?vid=a2b58f76-34db-4561-ab12-b5178df52f0e"},"vehicle_type_id":"4","last_reported":1761844193,"current_range_meters":14400,"station_id":"ce4bgi92rcd13ifvqb90","pricing_plan_id":"cebpf4jnsgd1na2vs0mg"},{"bike_id":"6e55106a-5b48-4f80-915a-e76ce6504b1a","system_id":"levelo_inurba_marseille","lat":43.27053,"lon":5.40264,"is_reserved":false,"is_disabled":false,"rental_uris":{"android":"levelo://app?vid=6e55106a-5b48-4f80-915a-e76ce6504b1a","ios":"levelo://app?vid=6e55106a-5b48-4f80-915a-e76ce6504b1a"},"vehicle_type_id":"4","last_reported":1761844193,"current_range_meters":14400,"station_id":"ce4bhk92rcd13ifvqgc0","pricing_plan_id":"cebpf4jnsgd1na2vs0mg"},{"bike_id":"a6dffae0-c6b0-44c9-8bd1-fbf6da0e4914","system_id":"levelo_inurba_marseille","lat":43.251196,"lon":5.403238,"is_reserved":false,"is_disabled":false,"rental_uris":{"android":"levelo://app?vid=a6dffae0-c6b0-44c9-8bd1-fbf6da0e4914","ios":"levelo://app?vid=a6dffae0-c6b0-44c9-8bd1-fbf6da0e4914"},"vehicle_type_id":"4","last_reported":1761844193,"current_range_meters":14400,"station_id":"ce4bhlh2rcd13ifvqgig","pricing_plan_id":"cebpf4jnsgd1na2vs0mg"},{"bike_id":"9b93b5e1-c939-4745-bf85-2d21945442dc","system_id":"levelo_inurba_marseille","lat":43.299944,"lon":5.36412,"is_reserved":false,"is_disabled":false,"rental_uris":{"android":"levelo://app?vid=9b93b5e1-c939-4745-bf85-2d21945442dc","ios":"levelo://app?vid=9b93b5e1-c939-4745-bf85-2d21945442dc"},"vehicle_type_id":"4","last_reported":1761844193,"current_range_meters":14800,"station_id":"","pricing_plan_id":"cebpf4jnsgd1na2vs0mg"},{"bike_id":"3345cc08-352d-4f1f-bd59-71c1f0eb80aa","system_id":"levelo_inurba_marseille","lat":43.29531,"lon":5.38549,"is_reserved":false,"is_disabled":false,"rental_uris":{"android":"levelo://app?vid=3345cc08-352d-4f1f-bd59-71c1f0eb80aa","ios":"levelo://app?vid=3345cc08-352d-4f1f-bd59-71c1f0eb80aa"},"vehicle_type_id":"4","last_reported":1761844193,"current_range_meters":14800,"station_id":"ce4bgih2rcd13ifvqba0","pricing_plan_id":"cebpf4jnsgd1na2vs0mg"},{"bike_id":"a361b460-5ddf-4ab4-a018-5b1093a94c4b","system_id":"levelo_inurba_marseille","lat":43.30783,"lon":5.37648,"is_reserved":false,"is_disabled":false,"rental_uris":{"android":"levelo://app?vid=a361b460-5ddf-4ab4-a018-5b1093a94c4b","ios":"levelo://app?vid=a361b460-5ddf-4ab4-a018-5b1093a94c4b"},"vehicle_type_id":"4","last_reported":1761844193,"current_range_meters":14800,"station_id":"ce4bgv92rcd13ifvqcq0","pricing_plan_id":"cebpf4jnsgd1na2vs0mg"},{"bike_id":"962da445-4349-4534-917e-1d6bfd75572d","system_id":"levelo_inurba_marseille","lat":43.2731,"lon":5.39094,"is_reserved":false,"is_disabled":false,"rental_uris":{"android":"levelo://app?vid=962da445-4349-4534-917e-1d6bfd75572d","ios":"levelo://app?vid=962da445-4349-4534-917e-1d6bfd75572d"},"vehicle_type_id":"4","last_reported":1761844193,"current_range_meters":14800,"station_id":"ce4bhgp2rcd13ifvqfe0","pricing_plan_id":"cebpf4jnsgd1na2vs0mg"},{"bike_id":"a0d564f2-5ac0-4238-b3be-1fed830781ea","system_id":"levelo_inurba_marseille","lat":43.273801,"lon":5.362358,"is_reserved":false,"is_disabled":false,"rental_uris":{"android":"levelo://app?vid=a0d564f2-5ac0-4238-b3be-1fed830781ea","ios":"levelo://app?vid=a0d564f2-5ac0-4238-b3be-1fed830781ea"},"vehicle_type_id":"4","last_reported":1761844193,"current_range_meters":14800,"station_id":"","pricing_plan_id":"cebpf4jnsgd1na2vs0mg"},{"bike_id":"3ce5b0c6-93ce-432a-800a-3285a603e540","system_id":"levelo_inurba_marseille","lat":43.29874,"lon":5.39738,"is_reserved":false,"is_disabled":false,"rental_uris":{"android":"levelo://app?vid=3ce5b0c6-93ce-432a-800a-3285a603e540","ios":"levelo://app?vid=3ce5b0c6-93ce-432a-800a-3285a603e540"},"vehicle_type_id":"4","last_reported":1761844193,"current_range_meters":15200,"station_id":"ce4bh0h2rcd13ifvqd50","pricing_plan_id":"cebpf4jnsgd1na2vs0mg"},{"bike_id":"df6ff668-fd56-44f8-af33-9bdcd59fe7d5","system_id":"levelo_inurba_marseille","lat":43.29896,"lon":5.38153,"is_reserved":false,"is_disabled":false,"rental_uris":{"android":"levelo://app?vid=df6ff668-fd56-44f8-af33-9bdcd59fe7d5","ios":"levelo://app?vid=df6ff668-fd56-44f8-af33-9bdcd59fe7d5"},"vehicle_type_id":"4","last_reported":1761844193,"current_range_meters":15200,"station_id":"ce4bgj12rcd13ifvqbc0","pricing_plan_id":"cebpf4jnsgd1na2vs0mg"},{"bike_id":"8b00b130-b1ab-4561-8072-5eb41bb637db","system_id":"levelo_inurba_marseille","lat":43.29799,"lon":5.38113,"is_reserved":false,"is_disabled":false,"rental_uris":{"android":"levelo://app?vid=8b00b130-b1ab-4561-8072-5eb41bb637db","ios":"levelo://app?vid=8b00b130-b1ab-4561-8072-5eb41bb637db"},"vehicle_type_id":"4","last_reported":1761844193,"current_range_meters":15200,"station_id":"ce4bgip2rcd13ifvqbb0","pricing_plan_id":"cebpf4jnsgd1na2vs0mg"},{"bike_id":"0c102bbf-1aac-486b-afa4-349ad3137c39","system_id":"levelo_inurba_marseille","lat":43.30121,"lon":5.39844,"is_reserved":false,"is_disabled":false,"rental_uris":{"android":"levelo://app?vid=0c102bbf-1aac-486b-afa4-349ad3137c39","ios":"levelo://app?vid=0c102bbf-1aac-486b-afa4-349ad3137c39"},"vehicle_type_id":"4","last_reported":1761844193,"current_range_meters":15200,"station_id":"ce4bh0h2rcd13ifvqd40","pricing_plan_id":"cebpf4jnsgd1na2vs0mg"},{"bike_id":"13b5bebc-2277-4643-9efc-b419c3a09bbd","system_id":"levelo_inurba_marseille","lat":43.22935,"lon":5.35392,"is_reserved":false,"is_disabled":false,"rental_uris":{"android":"levelo://app?vid=13b5bebc-2277-4643-9efc-b419c3a09bbd","ios":"levelo://app?vid=13b5bebc-2277-4643-9efc-b419c3a09bbd"},"vehicle_type_id":"4","last_reported":1761844193,"current_range_meters":16000,"station_id":"cpo3532slgdg3j2ikp40","pricing_plan_id":"cebpf4jnsgd1na2vs0mg"},{"bike_id":"a48080e2-7b66-4951-97c0-8c31b14a7566","system_id":"levelo_inurba_marseille","lat":43.30131,"lon":5.39881,"is_reserved":false,"is_disabled":false,"rental_uris":{"android":"levelo://app?vid=a48080e2-7b66-4951-97c0-8c31b14a7566","ios":"levelo://app?vid=a48080e2-7b66-4951-97c0-8c31b14a7566"},"vehicle_type_id":"4","last_reported":1761844193,"current_range_meters":16000,"station_id":"ce4bh0h2rcd13ifvqd40","pricing_plan_id":"cebpf4jnsgd1na2vs0mg"},{"bike_id":"c2b29e2a-9ddf-4599-9569-ebeda3771708","system_id":"levelo_inurba_marseille","lat":43.21189,"lon":5.35104,"is_reserved":false,"is_disabled":false,"rental_uris":{"android":"levelo://app?vid=c2b29e2a-9ddf-4599-9569-ebeda3771708","ios":"levelo://app?vid=c2b29e2a-9ddf-4599-9569-ebeda3771708"},"vehicle_type_id":"4","last_reported":1761844193,"current_range_meters":16000,"station_id":"st_cvj6sg6p6f1abm77japg","pricing_plan_id":"cebpf4jnsgd1na2vs0mg"},{"bike_id":"eff9a59e-a0c3-415f-b5a8-fa08686b441a","system_id":"levelo_inurba_marseille","lat":43.29563,"lon":5.37533,"is_reserved":false,"is_disabled":false,"rental_uris":{"android":"levelo://app?vid=eff9a59e-a0c3-415f-b5a8-fa08686b441a","ios":"levelo://app?vid=eff9a59e-a0c3-415f-b5a8-fa08686b441a"},"vehicle_type_id":"4","last_reported":1761844193,"current_range_meters":16000,"station_id":"ce4bgh92rcd13ifvqb50","pricing_plan_id":"cebpf4jnsgd1na2vs0mg"},{"bike_id":"0f7902dd-d9e2-4204-948e-bdeb696eec15","system_id":"levelo_inurba_marseille","lat":43.250484,"lon":5.403519,"is_reserved":false,"is_disabled":false,"rental_uris":{"android":"levelo://app?vid=0f7902dd-d9e2-4204-948e-bdeb696eec15","ios":"levelo://app?vid=0f7902dd-d9e2-4204-948e-bdeb696eec15"},"vehicle_type_id":"4","last_reported":1761844193,"current_range_meters":16000,"station_id":"ce4bhh12rcd13ifvqfg0","pricing_plan_id":"cebpf4jnsgd1na2vs0mg"},{"bike_id":"2fd86c53-d195-4ab3-a5e6-984f6c0f4c38","system_id":"levelo_inurba_marseille","lat":43.26562,"lon":5.37292,"is_reserved":false,"is_disabled":false,"rental_uris":{"android":"levelo://app?vid=2fd86c53-d195-4ab3-a5e6-984f6c0f4c38","ios":"levelo://app?vid=2fd86c53-d195-4ab3-a5e6-984f6c0f4c38"},"vehicle_type_id":"4","last_reported":1761844193,"current_range_meters":16400,"station_id":"ce4bhg12rcd13ifvqf70","pricing_plan_id":"cebpf4jnsgd1na2vs0mg"},{"bike_id":"d5818b5e-78e9-4bea-86e6-2ba6d4e1defd","system_id":"levelo_inurba_marseille","lat":43.30878,"lon":5.39663,"is_reserved":false,"is_disabled":false,"rental_uris":{"android":"levelo://app?vid=d5818b5e-78e9-4bea-86e6-2ba6d4e1defd","ios":"levelo://app?vid=d5818b5e-78e9-4bea-86e6-2ba6d4e1defd"},"vehicle_type_id":"4","last_reported":1761844193,"current_range_meters":16400,"station_id":"ce4bh012rcd13ifvqcv0","pricing_plan_id":"cebpf4jnsgd1na2vs0mg"},{"bike_id":"3baf32a9-981d-4306-93c4-7ae4374f8eae","system_id":"levelo_inurba_marseille","lat":43.287,"lon":5.39997,"is_reserved":false,"is_disabled":false,"rental_uris":{"android":"levelo://app?vid=3baf32a9-981d-4306-93c4-7ae4374f8eae","ios":"levelo://app?vid=3baf32a9-981d-4306-93c4-7ae4374f8eae"},"vehicle_type_id":"4","last_reported":1761844193,"current_range_meters":16400,"station_id":"ce4bho92rcd13ifvqh3g","pricing_plan_id":"cebpf4jnsgd1na2vs0mg"},{"bike_id":"257552bd-2242-4b23-af35-1a3c26de3426","system_id":"levelo_inurba_marseille","lat":43.29258,"lon":5.384387,"is_reserved":false,"is_disabled":false,"rental_uris":{"android":"levelo://app?vid=257552bd-2242-4b23-af35-1a3c26de3426","ios":"levelo://app?vid=257552bd-2242-4b23-af35-1a3c26de3426"},"vehicle_type_id":"4","last_reported":1761844193,"current_range_meters":16400,"station_id":"ce4bh692rcd13ifvqea0","pricing_plan_id":"cebpf4jnsgd1na2vs0mg"},{"bike_id":"15e55f95-9477-4e1b-821c-764f2b585e81","system_id":"levelo_inurba_marseille","lat":43.29536,"lon":5.38559,"is_reserved":false,"is_disabled":false,"rental_uris":{"android":"levelo://app?vid=15e55f95-9477-4e1b-821c-764f2b585e81","ios":"levelo://app?vid=15e55f95-9477-4e1b-821c-764f2b585e81"},"vehicle_type_id":"4","last_reported":1761844193,"current_range_meters":16400,"station_id":"ce4bgih2rcd13ifvqba0","pricing_plan_id":"cebpf4jnsgd1na2vs0mg"},{"bike_id":"69daedd1-e532-426c-b096-24cfed29fb24","system_id":"levelo_inurba_marseille","lat":43.279424,"lon":5.410568,"is_reserved":false,"is_disabled":false,"rental_uris":{"android":"levelo://app?vid=69daedd1-e532-426c-b096-24cfed29fb24","ios":"levelo://app?vid=69daedd1-e532-426c-b096-24cfed29fb24"},"vehicle_type_id":"4","last_reported":1761844193,"current_range_meters":16400,"station_id":"ce4bhnp2rcd13ifvqh0g","pricing_plan_id":"cebpf4jnsgd1na2vs0mg"},{"bike_id":"88327406-ba65-4ce0-831c-3da476dbb691","system_id":"levelo_inurba_marseille","lat":43.237797,"lon":5.36639,"is_reserved":false,"is_disabled":false,"rental_uris":{"android":"levelo://app?vid=88327406-ba65-4ce0-831c-3da476dbb691","ios":"levelo://app?vid=88327406-ba65-4ce0-831c-3da476dbb691"},"vehicle_type_id":"4","last_reported":1761844193,"current_range_meters":16400,"station_id":"st_d3nk18o9ro0c73en2l3g","pricing_plan_id":"cebpf4jnsgd1na2vs0mg"},{"bike_id":"a657bfed-2a8a-41a5-8d2c-2d032f3588c4","system_id":"levelo_inurba_marseille","lat":43.25513,"lon":5.37651,"is_reserved":false,"is_disabled":false,"rental_uris":{"android":"levelo://app?vid=a657bfed-2a8a-41a5-8d2c-2d032f3588c4","ios":"levelo://app?vid=a657bfed-2a8a-41a5-8d2c-2d032f3588c4"},"vehicle_type_id":"4","last_reported":1761844193,"current_range_meters":16400,"station_id":"ce4bhh12rcd13ifvqff0","pricing_plan_id":"cebpf4jnsgd1na2vs0mg"},{"bike_id":"bb9a697b-08ee-4a5e-b9eb-b274d6026d59","system_id":"levelo_inurba_marseille","lat":43.29847,"lon":5.39765,"is_reserved":false,"is_disabled":false,"rental_uris":{"android":"levelo://app?vid=bb9a697b-08ee-4a5e-b9eb-b274d6026d59","ios":"levelo://app?vid=bb9a697b-08ee-4a5e-b9eb-b274d6026d59"},"vehicle_type_id":"4","last_reported":1761844193,"current_range_meters":16400,"station_id":"ce4bh0h2rcd13ifvqd50","pricing_plan_id":"cebpf4jnsgd1na2vs0mg"},{"bike_id":"c9aa75d3-7ae6-48fe-a6a5-ba8d35141a81","system_id":"levelo_inurba_marseille","lat":43.295295,"lon":5.385526,"is_reserved":false,"is_disabled":false,"rental_uris":{"android":"levelo://app?vid=c9aa75d3-7ae6-48fe-a6a5-ba8d35141a81","ios":"levelo://app?vid=c9aa75d3-7ae6-48fe-a6a5-ba8d35141a81"},"vehicle_type_id":"4","last_reported":1761844193,"current_range_meters":16400,"station_id":"ce4bgih2rcd13ifvqba0","pricing_plan_id":"cebpf4jnsgd1na2vs0mg"},{"bike_id":"0e8e0a18-4139-452e-bab3-cb99f058b247","system_id":"levelo_inurba_marseille","lat":43.29487,"lon":5.41962,"is_reserved":false,"is_disabled":true,"rental_uris":{"android":"levelo://app?vid=0e8e0a18-4139-452e-bab3-cb99f058b247","ios":"levelo://app?vid=0e8e0a18-4139-452e-bab3-cb99f058b247"},"vehicle_type_id":"4","last_reported":1761844193,"current_range_meters":16800,"station_id":"","pricing_plan_id":"cebpf4jnsgd1na2vs0mg"},{"bike_id":"910e0144-f195-48fa-93b9-adb5c665795f","system_id":"levelo_inurba_marseille","lat":43.2804,"lon":5.3696,"is_reserved":false,"is_disabled":false,"rental_uris":{"android":"levelo://app?vid=910e0144-f195-48fa-93b9-adb5c665795f","ios":"levelo://app?vid=910e0144-f195-48fa-93b9-adb5c665795f"},"vehicle_type_id":"4","last_reported":1761844193,"current_range_meters":16800,"station_id":"ce4bha12rcd13ifvqef0","pricing_plan_id":"cebpf4jnsgd1na2vs0mg"},{"bike_id":"66b22ceb-c068-4fa6-be35-1a11a2b80405","system_id":"levelo_inurba_marseille","lat":43.31072,"lon":5.38364,"is_reserved":false,"is_disabled":false,"rental_uris":{"android":"levelo://app?vid=66b22ceb-c068-4fa6-be35-1a11a2b80405","ios":"levelo://app?vid=66b22ceb-c068-4fa6-be35-1a11a2b80405"},"vehicle_type_id":"4","last_reported":1761844193,"current_range_meters":16800,"station_id":"ce4bgv92rcd13ifvqcr0","pricing_plan_id":"cebpf4jnsgd1na2vs0mg"},{"bike_id":"80c53fab-d9fd-4b9a-94e7-e3f3183e35da","system_id":"levelo_inurba_marseille","lat":43.33005,"lon":5.39067,"is_reserved":false,"is_disabled":false,"rental_uris":{"android":"levelo://app?vid=80c53fab-d9fd-4b9a-94e7-e3f3183e35da","ios":"levelo://app?vid=80c53fab-d9fd-4b9a-94e7-e3f3183e35da"},"vehicle_type_id":"4","last_reported":1761844193,"current_range_meters":16800,"station_id":"ce4bhr92rcd13ifvqhrg","pricing_plan_id":"cebpf4jnsgd1na2vs0mg"},{"bike_id":"05a47c24-c74d-4482-aade-5974399cb310","system_id":"levelo_inurba_marseille","lat":43.29606,"lon":5.37672,"is_reserved":false,"is_disabled":false,"rental_uris":{"android":"levelo://app?vid=05a47c24-c74d-4482-aade-5974399cb310","ios":"levelo://app?vid=05a47c24-c74d-4482-aade-5974399cb310"},"vehicle_type_id":"4","last_reported":1761844193,"current_range_meters":16800,"station_id":"ce4bgi92rcd13ifvqb90","pricing_plan_id":"cebpf4jnsgd1na2vs0mg"},{"bike_id":"875bb686-526d-4759-aa99-d563e41a08a4","system_id":"levelo_inurba_marseille","lat":43.30129,"lon":5.39871,"is_reserved":false,"is_disabled":false,"rental_uris":{"android":"levelo://app?vid=875bb686-526d-4759-aa99-d563e41a08a4","ios":"levelo://app?vid=875bb686-526d-4759-aa99-d563e41a08a4"},"vehicle_type_id":"4","last_reported":1761844193,"current_range_meters":16800,"station_id":"ce4bh0h2rcd13ifvqd40","pricing_plan_id":"cebpf4jnsgd1na2vs0mg"},{"bike_id":"b8f404d3-62c4-4489-a471-d37212346558","system_id":"levelo_inurba_marseille","lat":43.31075,"lon":5.37882,"is_reserved":false,"is_disabled":false,"rental_uris":{"android":"levelo://app?vid=b8f404d3-62c4-4489-a471-d37212346558","ios":"levelo://app?vid=b8f404d3-62c4-4489-a471-d37212346558"},"vehicle_type_id":"4","last_reported":1761844193,"current_range_meters":16800,"station_id":"","pricing_plan_id":"cebpf4jnsgd1na2vs0mg"},{"bike_id":"94422786-c14f-40f2-bed5-21726c815851","system_id":"levelo_inurba_marseille","lat":43.27368,"lon":5.36258,"is_reserved":false,"is_disabled":false,"rental_uris":{"android":"levelo://app?vid=94422786-c14f-40f2-bed5-21726c815851","ios":"levelo://app?vid=94422786-c14f-40f2-bed5-21726c815851"},"vehicle_type_id":"4","last_reported":1761844193,"current_range_meters":16800,"station_id":"ce4bhbh2rcd13ifvqeo0","pricing_plan_id":"cebpf4jnsgd1na2vs0mg"},{"bike_id":"50450f47-8a67-4944-b1f3-15815237f508","system_id":"levelo_inurba_marseille","lat":43.28941,"lon":5.36397,"is_reserved":false,"is_disabled":false,"rental_uris":{"android":"levelo://app?vid=50450f47-8a67-4944-b1f3-15815237f508","ios":"levelo://app?vid=50450f47-8a67-4944-b1f3-15815237f508"},"vehicle_type_id":"4","last_reported":1761844193,"current_range_meters":16800,"station_id":"ce4bhc92rcd13ifvqetg","pricing_plan_id":"cebpf4jnsgd1na2vs0mg"},{"bike_id":"6b4f94d9-92d4-4c7f-9304-dced724934ac","system_id":"levelo_inurba_marseille","lat":43.30458,"lon":5.389,"is_reserved":false,"is_disabled":false,"rental_uris":{"android":"levelo://app?vid=6b4f94d9-92d4-4c7f-9304-dced724934ac","ios":"levelo://app?vid=6b4f94d9-92d4-4c7f-9304-dced724934ac"},"vehicle_type_id":"4","last_reported":1761844193,"current_range_meters":17200,"station_id":"ce4bgk12rcd13ifvqbi0","pricing_plan_id":"cebpf4jnsgd1na2vs0mg"},{"bike_id":"8a0ff850-cf9f-4e75-bc3f-994489f28f31","system_id":"levelo_inurba_marseille","lat":43.22566,"lon":5.41637,"is_reserved":false,"is_disabled":false,"rental_uris":{"android":"levelo://app?vid=8a0ff850-cf9f-4e75-bc3f-994489f28f31","ios":"levelo://app?vid=8a0ff850-cf9f-4e75-bc3f-994489f28f31"},"vehicle_type_id":"4","last_reported":1761844193,"current_range_meters":17200,"station_id":"st_d2o4gvlbi1j2169b742g","pricing_plan_id":"cebpf4jnsgd1na2vs0mg"},{"bike_id":"8e61b16f-73fe-4384-9b48-9d02cd2f189a","system_id":"levelo_inurba_marseille","lat":43.2874,"lon":5.37937,"is_reserved":false,"is_disabled":false,"rental_uris":{"android":"levelo://app?vid=8e61b16f-73fe-4384-9b48-9d02cd2f189a","ios":"levelo://app?vid=8e61b16f-73fe-4384-9b48-9d02cd2f189a"},"vehicle_type_id":"4","last_reported":1761844193,"current_range_meters":17200,"station_id":"ce4bh9p2rcd13ifvqec0","pricing_plan_id":"cebpf4jnsgd1na2vs0mg"},{"bike_id":"c0a1ab8d-72ff-4114-b274-fdab8f1c3cb0","system_id":"levelo_inurba_marseille","lat":43.24184,"lon":5.39719,"is_reserved":false,"is_disabled":false,"rental_uris":{"android":"levelo://app?vid=c0a1ab8d-72ff-4114-b274-fdab8f1c3cb0","ios":"levelo://app?vid=c0a1ab8d-72ff-4114-b274-fdab8f1c3cb0"},"vehicle_type_id":"4","last_reported":1761844193,"current_range_meters":17600,"station_id":"ce4bhn12rcd13ifvqgpg","pricing_plan_id":"cebpf4jnsgd1na2vs0mg"},{"bike_id":"fa60d763-e400-4f6d-bc92-6d942c268a54","system_id":"levelo_inurba_marseille","lat":43.29168,"lon":5.37153,"is_reserved":false,"is_disabled":false,"rental_uris":{"android":"levelo://app?vid=fa60d763-e400-4f6d-bc92-6d942c268a54","ios":"levelo://app?vid=fa60d763-e400-4f6d-bc92-6d942c268a54"},"vehicle_type_id":"4","last_reported":1761844193,"current_range_meters":17600,"station_id":"ce4bha92rcd13ifvqeh0","pricing_plan_id":"cebpf4jnsgd1na2vs0mg"},{"bike_id":"a4dac4fa-66e6-48be-a654-6e17cdc7ca0b","system_id":"levelo_inurba_marseille","lat":43.337571,"lon":5.374323,"is_reserved":false,"is_disabled":false,"rental_uris":{"android":"levelo://app?vid=a4dac4fa-66e6-48be-a654-6e17cdc7ca0b","ios":"levelo://app?vid=a4dac4fa-66e6-48be-a654-6e17cdc7ca0b"},"vehicle_type_id":"4","last_reported":1761844193,"current_range_meters":17600,"station_id":"","pricing_plan_id":"cebpf4jnsgd1na2vs0mg"},{"bike_id":"79ab418a-79c0-4a6e-993b-761280f132d6","system_id":"levelo_inurba_marseille","lat":43.28483,"lon":5.48406,"is_reserved":false,"is_disabled":false,"rental_uris":{"android":"levelo://app?vid=79ab418a-79c0-4a6e-993b-761280f132d6","ios":"levelo://app?vid=79ab418a-79c0-4a6e-993b-761280f132d6"},"vehicle_type_id":"4","last_reported":1761844193,"current_range_meters":17600,"station_id":"st_d3svhcjqgbts73a3dn0g","pricing_plan_id":"cebpf4jnsgd1na2vs0mg"},{"bike_id":"4a269658-efc3-43fb-9a59-9805d56ddae4","system_id":"levelo_inurba_marseille","lat":43.26557,"lon":5.37302,"is_reserved":false,"is_disabled":false,"rental_uris":{"android":"levelo://app?vid=4a269658-efc3-43fb-9a59-9805d56ddae4","ios":"levelo://app?vid=4a269658-efc3-43fb-9a59-9805d56ddae4"},"vehicle_type_id":"4","last_reported":1761844193,"current_range_meters":17600,"station_id":"ce4bhg12rcd13ifvqf70","pricing_plan_id":"cebpf4jnsgd1na2vs0mg"},{"bike_id":"455cb0ea-f36a-495e-843d-d00b0ec79bbb","system_id":"levelo_inurba_marseille","lat":43.297,"lon":5.37696,"is_reserved":false,"is_disabled":false,"rental_uris":{"android":"levelo://app?vid=455cb0ea-f36a-495e-843d-d00b0ec79bbb","ios":"levelo://app?vid=455cb0ea-f36a-495e-843d-d00b0ec79bbb"},"vehicle_type_id":"4","last_reported":1761844193,"current_range_meters":17600,"station_id":"ce4bgkh2rcd13ifvqbl0","pricing_plan_id":"cebpf4jnsgd1na2vs0mg"},{"bike_id":"f8e9e543-4a88-4f21-81ce-ed8e16884056","system_id":"levelo_inurba_marseille","lat":43.29259,"lon":5.3844,"is_reserved":false,"is_disabled":false,"rental_uris":{"android":"levelo://app?vid=f8e9e543-4a88-4f21-81ce-ed8e16884056","ios":"levelo://app?vid=f8e9e543-4a88-4f21-81ce-ed8e16884056"},"vehicle_type_id":"4","last_reported":1761844193,"current_range_meters":17600,"station_id":"ce4bh692rcd13ifvqea0","pricing_plan_id":"cebpf4jnsgd1na2vs0mg"},{"bike_id":"a27ea015-9d73-41b0-aa36-b3953f30b56d","system_id":"levelo_inurba_marseille","lat":43.24634,"lon":5.38906,"is_reserved":false,"is_disabled":false,"rental_uris":{"android":"levelo://app?vid=a27ea015-9d73-41b0-aa36-b3953f30b56d","ios":"levelo://app?vid=a27ea015-9d73-41b0-aa36-b3953f30b56d"},"vehicle_type_id":"4","last_reported":1761844193,"current_range_meters":18000,"station_id":"ce4bhg12rcd13ifvqf60","pricing_plan_id":"cebpf4jnsgd1na2vs0mg"},{"bike_id":"9da932a5-8f71-41d5-90d3-bb657dc1c603","system_id":"levelo_inurba_marseille","lat":43.276635,"lon":5.388816,"is_reserved":false,"is_disabled":false,"rental_uris":{"android":"levelo://app?vid=9da932a5-8f71-41d5-90d3-bb657dc1c603","ios":"levelo://app?vid=9da932a5-8f71-41d5-90d3-bb657dc1c603"},"vehicle_type_id":"4","last_reported":1761844193,"current_range_meters":18000,"station_id":"ce4bhi12rcd13ifvqfo0","pricing_plan_id":"cebpf4jnsgd1na2vs0mg"},{"bike_id":"ee261a32-9de1-4b9e-a923-6c91e1e26176","system_id":"levelo_inurba_marseille","lat":43.284787,"lon":5.484168,"is_reserved":false,"is_disabled":false,"rental_uris":{"android":"levelo://app?vid=ee261a32-9de1-4b9e-a923-6c91e1e26176","ios":"levelo://app?vid=ee261a32-9de1-4b9e-a923-6c91e1e26176"},"vehicle_type_id":"4","last_reported":1761844193,"current_range_meters":18000,"station_id":"st_d3svhcjqgbts73a3dn0g","pricing_plan_id":"cebpf4jnsgd1na2vs0mg"},{"bike_id":"131e8aab-d0a2-43d2-ad37-97f3335466e6","system_id":"levelo_inurba_marseille","lat":43.29582,"lon":5.37504,"is_reserved":false,"is_disabled":false,"rental_uris":{"android":"levelo://app?vid=131e8aab-d0a2-43d2-ad37-97f3335466e6","ios":"levelo://app?vid=131e8aab-d0a2-43d2-ad37-97f3335466e6"},"vehicle_type_id":"4","last_reported":1761844193,"current_range_meters":18000,"station_id":"ce4bgh92rcd13ifvqb50","pricing_plan_id":"cebpf4jnsgd1na2vs0mg"},{"bike_id":"0ae81ccc-7c03-4ad1-9782-890d4977b1da","system_id":"levelo_inurba_marseille","lat":43.3153,"lon":5.38041,"is_reserved":false,"is_disabled":false,"rental_uris":{"android":"levelo://app?vid=0ae81ccc-7c03-4ad1-9782-890d4977b1da","ios":"levelo://app?vid=0ae81ccc-7c03-4ad1-9782-890d4977b1da"},"vehicle_type_id":"4","last_reported":1761844193,"current_range_meters":18000,"station_id":"ce4bhsp2rcd13ifvqi50","pricing_plan_id":"cebpf4jnsgd1na2vs0mg"},{"bike_id":"47c244c2-5d1f-4a41-b3a3-95ec5233441e","system_id":"levelo_inurba_marseille","lat":43.2869,"lon":5.39999,"is_reserved":false,"is_disabled":false,"rental_uris":{"android":"levelo://app?vid=47c244c2-5d1f-4a41-b3a3-95ec5233441e","ios":"levelo://app?vid=47c244c2-5d1f-4a41-b3a3-95ec5233441e"},"vehicle_type_id":"4","last_reported":1761844193,"current_range_meters":18000,"station_id":"ce4bho92rcd13ifvqh3g","pricing_plan_id":"cebpf4jnsgd1na2vs0mg"},{"bike_id":"f2cc1345-7f21-4850-895e-eb12724bf8b4","system_id":"levelo_inurba_marseille","lat":43.29285,"lon":5.37452,"is_reserved":false,"is_disabled":false,"rental_uris":{"android":"levelo://app?vid=f2cc1345-7f21-4850-895e-eb12724bf8b4","ios":"levelo://app?vid=f2cc1345-7f21-4850-895e-eb12724bf8b4"},"vehicle_type_id":"4","last_reported":1761844193,"current_range_meters":18800,"station_id":"ce4bgi12rcd13ifvqb70","pricing_plan_id":"cebpf4jnsgd1na2vs0mg"},{"bike_id":"0a9abdf5-79f0-47db-9743-c4be71bd0ac0","system_id":"levelo_inurba_marseille","lat":43.30128,"lon":5.4312,"is_reserved":false,"is_disabled":false,"rental_uris":{"android":"levelo://app?vid=0a9abdf5-79f0-47db-9743-c4be71bd0ac0","ios":"levelo://app?vid=0a9abdf5-79f0-47db-9743-c4be71bd0ac0"},"vehicle_type_id":"4","last_reported":1761844193,"current_range_meters":18800,"station_id":"st_d3js3co5814s73ftftug","pricing_plan_id":"cebpf4jnsgd1na2vs0mg"},{"bike_id":"784e26e6-244f-4434-9266-9b741a39c3d7","system_id":"levelo_inurba_marseille","lat":43.270721,"lon":5.42285,"is_reserved":false,"is_disabled":false,"rental_uris":{"android":"levelo://app?vid=784e26e6-244f-4434-9266-9b741a39c3d7","ios":"levelo://app?vid=784e26e6-244f-4434-9266-9b741a39c3d7"},"vehicle_type_id":"4","last_reported":1761844193,"current_range_meters":18800,"station_id":"ce4bhk92rcd13ifvqgb0","pricing_plan_id":"cebpf4jnsgd1na2vs0mg"},{"bike_id":"77cd3b75-966e-41bc-9323-d12f9ab711f6","system_id":"levelo_inurba_marseille","lat":43.287047,"lon":5.373616,"is_reserved":false,"is_disabled":false,"rental_uris":{"android":"levelo://app?vid=77cd3b75-966e-41bc-9323-d12f9ab711f6","ios":"levelo://app?vid=77cd3b75-966e-41bc-9323-d12f9ab711f6"},"vehicle_type_id":"4","last_reported":1761844193,"current_range_meters":19200,"station_id":"ce4bh3p2rcd13ifvqdq0","pricing_plan_id":"cebpf4jnsgd1na2vs0mg"},{"bike_id":"52375c7d-2266-40c3-916c-e9551cf9466d","system_id":"levelo_inurba_marseille","lat":43.265942,"lon":5.389933,"is_reserved":false,"is_disabled":false,"rental_uris":{"android":"levelo://app?vid=52375c7d-2266-40c3-916c-e9551cf9466d","ios":"levelo://app?vid=52375c7d-2266-40c3-916c-e9551cf9466d"},"vehicle_type_id":"4","last_reported":1761844193,"current_range_meters":19200,"station_id":"ce4bhe12rcd13ifvqf30","pricing_plan_id":"cebpf4jnsgd1na2vs0mg"},{"bike_id":"fbfc0198-1d73-46ff-9389-8c44d16d8856","system_id":"levelo_inurba_marseille","lat":43.289778,"lon":5.378392,"is_reserved":false,"is_disabled":false,"rental_uris":{"android":"levelo://app?vid=fbfc0198-1d73-46ff-9389-8c44d16d8856","ios":"levelo://app?vid=fbfc0198-1d73-46ff-9389-8c44d16d8856"},"vehicle_type_id":"4","last_reported":1761844193,"current_range_meters":19200,"station_id":"ce4bh492rcd13ifvqdvg","pricing_plan_id":"cebpf4jnsgd1na2vs0mg"},{"bike_id":"859bd123-0d20-48f1-9f0f-d434bb125ef1","system_id":"levelo_inurba_marseille","lat":43.30296,"lon":5.39229,"is_reserved":false,"is_disabled":true,"rental_uris":{"android":"levelo://app?vid=859bd123-0d20-48f1-9f0f-d434bb125ef1","ios":"levelo://app?vid=859bd123-0d20-48f1-9f0f-d434bb125ef1"},"vehicle_type_id":"4","last_reported":1761844193,"current_range_meters":19200,"station_id":"ce4bgkh2rcd13ifvqbk0","pricing_plan_id":"cebpf4jnsgd1na2vs0mg"},{"bike_id":"91937506-6190-4c62-b791-8c8fe286de36","system_id":"levelo_inurba_marseille","lat":43.26206,"lon":5.37931,"is_reserved":false,"is_disabled":false,"rental_uris":{"android":"levelo://app?vid=91937506-6190-4c62-b791-8c8fe286de36","ios":"levelo://app?vid=91937506-6190-4c62-b791-8c8fe286de36"},"vehicle_type_id":"4","last_reported":1761844193,"current_range_meters":19200,"station_id":"ce4bhjp2rcd13ifvqg90","pricing_plan_id":"cebpf4jnsgd1na2vs0mg"},{"bike_id":"61121756-fb97-412c-8132-feb74a262f31","system_id":"levelo_inurba_marseille","lat":43.28858,"lon":5.35866,"is_reserved":false,"is_disabled":false,"rental_uris":{"android":"levelo://app?vid=61121756-fb97-412c-8132-feb74a262f31","ios":"levelo://app?vid=61121756-fb97-412c-8132-feb74a262f31"},"vehicle_type_id":"4","last_reported":1761844193,"current_range_meters":19200,"station_id":"ce4bhb12rcd13ifvqem0","pricing_plan_id":"cebpf4jnsgd1na2vs0mg"},{"bike_id":"6c83e897-f185-45f8-a89b-02b257974d5e","system_id":"levelo_inurba_marseille","lat":43.3014,"lon":5.38786,"is_reserved":false,"is_disabled":false,"rental_uris":{"android":"levelo://app?vid=6c83e897-f185-45f8-a89b-02b257974d5e","ios":"levelo://app?vid=6c83e897-f185-45f8-a89b-02b257974d5e"},"vehicle_type_id":"4","last_reported":1761844193,"current_range_meters":19200,"station_id":"ce4bghh2rcd13ifvqb60","pricing_plan_id":"cebpf4jnsgd1na2vs0mg"},{"bike_id":"47546dc0-bf8c-4532-b842-7606b6752862","system_id":"levelo_inurba_marseille","lat":43.29229,"lon":5.36067,"is_reserved":false,"is_disabled":false,"rental_uris":{"android":"levelo://app?vid=47546dc0-bf8c-4532-b842-7606b6752862","ios":"levelo://app?vid=47546dc0-bf8c-4532-b842-7606b6752862"},"vehicle_type_id":"4","last_reported":1761844193,"current_range_meters":19200,"station_id":"ce4bhbh2rcd13ifvqeqg","pricing_plan_id":"cebpf4jnsgd1na2vs0mg"},{"bike_id":"90cc4e35-1e9a-4d48-878d-a3997094c0ce","system_id":"levelo_inurba_marseille","lat":43.2464,"lon":5.4315,"is_reserved":false,"is_disabled":false,"rental_uris":{"android":"levelo://app?vid=90cc4e35-1e9a-4d48-878d-a3997094c0ce","ios":"levelo://app?vid=90cc4e35-1e9a-4d48-878d-a3997094c0ce"},"vehicle_type_id":"4","last_reported":1761844193,"current_range_meters":19200,"station_id":"st_d2m6c4gdas8pm72e190g","pricing_plan_id":"cebpf4jnsgd1na2vs0mg"},{"bike_id":"e974006c-e3c8-4c1a-9a8d-ea5c7e7acb49","system_id":"levelo_inurba_marseille","lat":43.28537,"lon":5.44118,"is_reserved":false,"is_disabled":false,"rental_uris":{"android":"levelo://app?vid=e974006c-e3c8-4c1a-9a8d-ea5c7e7acb49","ios":"levelo://app?vid=e974006c-e3c8-4c1a-9a8d-ea5c7e7acb49"},"vehicle_type_id":"4","last_reported":1761844193,"current_range_meters":19600,"station_id":"st_d3j3df2ikq2c7380ej80","pricing_plan_id":"cebpf4jnsgd1na2vs0mg"},{"bike_id":"8bd76c8d-f5a7-49ff-b58b-3b6e9febc7f1","system_id":"levelo_inurba_marseille","lat":43.285405,"lon":5.441001,"is_reserved":false,"is_disabled":false,"rental_uris":{"android":"levelo://app?vid=8bd76c8d-f5a7-49ff-b58b-3b6e9febc7f1","ios":"levelo://app?vid=8bd76c8d-f5a7-49ff-b58b-3b6e9febc7f1"},"vehicle_type_id":"4","last_reported":1761844193,"current_range_meters":19600,"station_id":"st_d3j3df2ikq2c7380ej80","pricing_plan_id":"cebpf4jnsgd1na2vs0mg"},{"bike_id":"f821524c-20ba-46a6-b766-bbc2cddf86b9","system_id":"levelo_inurba_marseille","lat":43.258627,"lon":5.399048,"is_reserved":false,"is_disabled":false,"rental_uris":{"android":"levelo://app?vid=f821524c-20ba-46a6-b766-bbc2cddf86b9","ios":"levelo://app?vid=f821524c-20ba-46a6-b766-bbc2cddf86b9"},"vehicle_type_id":"4","last_reported":1761844193,"current_range_meters":19600,"station_id":"ce4bhl92rcd13ifvqghg","pricing_plan_id":"cebpf4jnsgd1na2vs0mg"},{"bike_id":"12558ef5-0614-4885-85f7-921d549cc264","system_id":"levelo_inurba_marseille","lat":43.29026,"lon":5.38647,"is_reserved":false,"is_disabled":false,"rental_uris":{"android":"levelo://app?vid=12558ef5-0614-4885-85f7-921d549cc264","ios":"levelo://app?vid=12558ef5-0614-4885-85f7-921d549cc264"},"vehicle_type_id":"4","last_reported":1761844193,"current_range_meters":19600,"station_id":"ce4bh4p2rcd13ifvqe0g","pricing_plan_id":"cebpf4jnsgd1na2vs0mg"},{"bike_id":"17860370-b709-464a-ae87-ef07a5744ace","system_id":"levelo_inurba_marseille","lat":43.26691,"lon":5.38272,"is_reserved":false,"is_disabled":false,"rental_uris":{"android":"levelo://app?vid=17860370-b709-464a-ae87-ef07a5744ace","ios":"levelo://app?vid=17860370-b709-464a-ae87-ef07a5744ace"},"vehicle_type_id":"4","last_reported":1761844193,"current_range_meters":19600,"station_id":"ce4bhg92rcd13ifvqf90","pricing_plan_id":"cebpf4jnsgd1na2vs0mg"},{"bike_id":"6ec4a7da-b2f3-409e-abec-75abdafeb924","system_id":"levelo_inurba_marseille","lat":43.28404,"lon":5.37532,"is_reserved":false,"is_disabled":false,"rental_uris":{"android":"levelo://app?vid=6ec4a7da-b2f3-409e-abec-75abdafeb924","ios":"levelo://app?vid=6ec4a7da-b2f3-409e-abec-75abdafeb924"},"vehicle_type_id":"4","last_reported":1761844193,"current_range_meters":19600,"station_id":"ce4bh412rcd13ifvqds0","pricing_plan_id":"cebpf4jnsgd1na2vs0mg"},{"bike_id":"5ab15629-1dd8-4c13-a359-bf258bc079b2","system_id":"levelo_inurba_marseille","lat":43.278159,"lon":5.407082,"is_reserved":false,"is_disabled":false,"rental_uris":{"android":"levelo://app?vid=5ab15629-1dd8-4c13-a359-bf258bc079b2","ios":"levelo://app?vid=5ab15629-1dd8-4c13-a359-bf258bc079b2"},"vehicle_type_id":"4","last_reported":1761844193,"current_range_meters":19600,"station_id":"ce4bhnh2rcd13ifvqgtg","pricing_plan_id":"cebpf4jnsgd1na2vs0mg"},{"bike_id":"53a5df7d-2d5a-4aae-a1c5-18133c1369b7","system_id":"levelo_inurba_marseille","lat":43.29559,"lon":5.37534,"is_reserved":false,"is_disabled":false,"rental_uris":{"android":"levelo://app?vid=53a5df7d-2d5a-4aae-a1c5-18133c1369b7","ios":"levelo://app?vid=53a5df7d-2d5a-4aae-a1c5-18133c1369b7"},"vehicle_type_id":"4","last_reported":1761844193,"current_range_meters":19600,"station_id":"ce4bgh92rcd13ifvqb50","pricing_plan_id":"cebpf4jnsgd1na2vs0mg"},{"bike_id":"3b8e3b27-b904-4b65-b712-98a7ec6c9651","system_id":"levelo_inurba_marseille","lat":43.26943,"lon":5.40252,"is_reserved":false,"is_disabled":false,"rental_uris":{"android":"levelo://app?vid=3b8e3b27-b904-4b65-b712-98a7ec6c9651","ios":"levelo://app?vid=3b8e3b27-b904-4b65-b712-98a7ec6c9651"},"vehicle_type_id":"4","last_reported":1761844193,"current_range_meters":20000,"station_id":"cjm6bp8fraef2m0cb0m0","pricing_plan_id":"cebpf4jnsgd1na2vs0mg"},{"bike_id":"a7bd560b-94cf-4013-8850-d2a90f9b3ea1","system_id":"levelo_inurba_marseille","lat":43.292,"lon":5.35797,"is_reserved":false,"is_disabled":false,"rental_uris":{"android":"levelo://app?vid=a7bd560b-94cf-4013-8850-d2a90f9b3ea1","ios":"levelo://app?vid=a7bd560b-94cf-4013-8850-d2a90f9b3ea1"},"vehicle_type_id":"4","last_reported":1761844193,"current_range_meters":20000,"station_id":"ce4bhb12rcd13ifvqel0","pricing_plan_id":"cebpf4jnsgd1na2vs0mg"},{"bike_id":"c7f1c8c0-600c-47ed-92be-d9cee8589bb1","system_id":"levelo_inurba_marseille","lat":43.290024,"lon":5.356134,"is_reserved":false,"is_disabled":false,"rental_uris":{"android":"levelo://app?vid=c7f1c8c0-600c-47ed-92be-d9cee8589bb1","ios":"levelo://app?vid=c7f1c8c0-600c-47ed-92be-d9cee8589bb1"},"vehicle_type_id":"4","last_reported":1761844193,"current_range_meters":20000,"station_id":"ce4bhb92rcd13ifvqen0","pricing_plan_id":"cebpf4jnsgd1na2vs0mg"},{"bike_id":"16b7f1cd-cd14-4ff7-8658-3f58cfb89760","system_id":"levelo_inurba_marseille","lat":43.29528,"lon":5.38552,"is_reserved":false,"is_disabled":false,"rental_uris":{"android":"levelo://app?vid=16b7f1cd-cd14-4ff7-8658-3f58cfb89760","ios":"levelo://app?vid=16b7f1cd-cd14-4ff7-8658-3f58cfb89760"},