{"last_updated":1743510001,"ttl":60,"version":"2.2","data":{"bikes":[{"bike_id":"141c8162-ac5a-467a-b32c-a11b5c130423","system_id":"levelo_inurba_marseille","lat":43.31161,"lon":5.37739,"is_reserved":false,"is_disabled":false,"rental_uris":{"android":"levelo://app?vid=141c8162-ac5a-467a-b32c-a11b5c130423","ios":"levelo://app?vid=141c8162-ac5a-467a-b32c-a11b5c130423"},"vehicle_type_id":"4","last_reported":1743510001,"current_range_meters":3200,"station_id":"","pricing_plan_id":"cebpf4jnsgd1na2vs0mg"},{"bike_id":"da8af13b-424a-495e-a243-8c1c33a67737","system_id":"levelo_inurba_marseille","lat":43.28658,"lon":5.39927,"is_reserved":false,"is_disabled":false,"rental_uris":{"android":"levelo://app?vid=da8af13b-424a-495e-a243-8c1c33a67737","ios":"levelo://app?vid=da8af13b-424a-495e-a243-8c1c33a67737"},"vehicle_type_id":"4","last_reported":1743510001,"current_range_meters":3600,"station_id":"ce4bho92rcd13ifvqh3g","pricing_plan_id":"cebpf4jnsgd1na2vs0mg"},{"bike_id":"fdf1d6ff-f9c3-4602-96ba-b87a0dd3883f","system_id":"levelo_inurba_marseille","lat":43.22937,"lon":5.35377,"is_reserved":false,"is_disabled":false,"rental_uris":{"android":"levelo://app?vid=fdf1d6ff-f9c3-4602-96ba-b87a0dd3883f","ios":"levelo://app?vid=fdf1d6ff-f9c3-4602-96ba-b87a0dd3883f"},"vehicle_type_id":"4","last_reported":1743510001,"current_range_meters":3200,"station_id":"cpo3532slgdg3j2ikp40","pricing_plan_id":"cebpf4jnsgd1na2vs0mg"},{"bike_id":"d60fb1e1-6bed-4ae2-a78a-b2ecdbc2307d","system_id":"levelo_inurba_marseille","lat":43.30117,"lon":5.38785,"is_reserved":false,"is_disabled":false,"rental_uris":{"android":"levelo://app?vid=d60fb1e1-6bed-4ae2-a78a-b2ecdbc2307d","ios":"levelo://app?vid=d60fb1e1-6bed-4ae2-a78a-b2ecdbc2307d"},"vehicle_type_id":"4","last_reported":1743510001,"current_range_meters":3200,"station_id":"ce4bghh2rcd13ifvqb60","pricing_plan_id":"cebpf4jnsgd1na2vs0mg"},{"bike_id":"c90ef503-8211-4c90-ab1c-e026b45f4290","system_id":"levelo_inurba_marseille","lat":43.28396,"lon":5.34992,"is_reserved":false,"is_disabled":false,"rental_uris":{"android":"levelo://app?vid=c90ef503-8211-4c90-ab1c-e026b45f4290","ios":"levelo://app?vid=c90ef503-8211-4c90-ab1c-e026b45f4290"},"vehicle_type_id":"4","last_reported":1743510001,"current_range_meters":3200,"station_id":"ce4bhbh2rcd13ifvqepg","pricing_plan_id":"cebpf4jnsgd1na2vs0mg"},{"bike_id":"6c8d5ea4-df60-4115-a297-7aaea2d22411","system_id":"levelo_inurba_marseille","lat":43.26566,"lon":5.39009,"is_reserved":false,"is_disabled":false,"rental_uris":{"android":"levelo://app?vid=6c8d5ea4-df60-4115-a297-7aaea2d22411","ios":"levelo://app?vid=6c8d5ea4-df60-4115-a297-7aaea2d22411"},"vehicle_type_id":"4","last_reported":1743510001,"current_range_meters":3600,"station_id":"ce4bhe12rcd13ifvqf30","pricing_plan_id":"cebpf4jnsgd1na2vs0mg"},{"bike_id":"61e6811a-62d1-441f-988f-890c773535ab","system_id":"levelo_inurba_marseille","lat":43.29036,"lon":5.39975,"is_reserved":false,"is_disabled":false,"rental_uris":{"android":"levelo://app?vid=61e6811a-62d1-441f-988f-890c773535ab","ios":"levelo://app?vid=61e6811a-62d1-441f-988f-890c773535ab"},"vehicle_type_id":"4","last_reported":1743510001,"current_range_meters":800,"station_id":"ce4bh392rcd13ifvqdm0","pricing_plan_id":"cebpf4jnsgd1na2vs0mg"},{"bike_id":"2338d8c9-417d-449d-a471-52c9971d6a2c","system_id":"levelo_inurba_marseille","lat":43.22934,"lon":5.35377,"is_reserved":false,"is_disabled":false,"rental_uris":{"android":"levelo://app?vid=2338d8c9-417d-449d-a471-52c9971d6a2c","ios":"levelo://app?vid=2338d8c9-417d-449d-a471-52c9971d6a2c"},"vehicle_type_id":"4","last_reported":1743510001,"current_range_meters":3600,"station_id":"cpo3532slgdg3j2ikp40","pricing_plan_id":"cebpf4jnsgd1na2vs0mg"},{"bike_id":"ff7c354c-6067-4609-9eb2-ae33abb4ea80","system_id":"levelo_inurba_marseille","lat":43.27921,"lon":5.3958,"is_reserved":false,"is_disabled":false,"rental_uris":{"android":"levelo://app?vid=ff7c354c-6067-4609-9eb2-ae33abb4ea80","ios":"levelo://app?vid=ff7c354c-6067-4609-9eb2-ae33abb4ea80"},"vehicle_type_id":"4","last_reported":1743510001,"current_range_meters":3600,"station_id":"ce4bhf92rcd13ifvqf40","pricing_plan_id":"cebpf4jnsgd1na2vs0mg"},{"bike_id":"29347e32-0d6c-42dc-85a5-4a5fb987d24c","system_id":"levelo_inurba_marseille","lat":43.27494,"lon":5.4245,"is_reserved":false,"is_disabled":false,"rental_uris":{"android":"levelo://app?vid=29347e32-0d6c-42dc-85a5-4a5fb987d24c","ios":"levelo://app?vid=29347e32-0d6c-42dc-85a5-4a5fb987d24c"},"vehicle_type_id":"4","last_reported":1743510001,"current_range_meters":3600,"station_id":"ce4bhn92rcd13ifvqgrg","pricing_plan_id":"cebpf4jnsgd1na2vs0mg"},{"bike_id":"4644cefd-c3fa-441e-9df3-f30d29e70c6a","system_id":"levelo_inurba_marseille","lat":43.30143,"lon":5.37399,"is_reserved":false,"is_disabled":false,"rental_uris":{"android":"levelo://app?vid=4644cefd-c3fa-441e-9df3-f30d29e70c6a","ios":"levelo://app?vid=4644cefd-c3fa-441e-9df3-f30d29e70c6a"},"vehicle_type_id":"4","last_reported":1743510001,"current_range_meters":3600,"station_id":"ce4bgs92rcd13ifvqcc0","pricing_plan_id":"cebpf4jnsgd1na2vs0mg"},{"bike_id":"a08145a1-ce9a-4abd-a49d-18fe5feb4bd4","system_id":"levelo_inurba_marseille","lat":43.28729,"lon":5.37944,"is_reserved":false,"is_disabled":false,"rental_uris":{"android":"levelo://app?vid=a08145a1-ce9a-4abd-a49d-18fe5feb4bd4","ios":"levelo://app?vid=a08145a1-ce9a-4abd-a49d-18fe5feb4bd4"},"vehicle_type_id":"4","last_reported":1743510001,"current_range_meters":4000,"station_id":"ce4bh9p2rcd13ifvqec0","pricing_plan_id":"cebpf4jnsgd1na2vs0mg"},{"bike_id":"82a7e0c6-cd3f-4321-a6a8-52b65a06bd53","system_id":"levelo_inurba_marseille","lat":43.301422,"lon":5.374183,"is_reserved":false,"is_disabled":false,"rental_uris":{"android":"levelo://app?vid=82a7e0c6-cd3f-4321-a6a8-52b65a06bd53","ios":"levelo://app?vid=82a7e0c6-cd3f-4321-a6a8-52b65a06bd53"},"vehicle_type_id":"4","last_reported":1743510001,"current_range_meters":4000,"station_id":"ce4bgs92rcd13ifvqcc0","pricing_plan_id":"cebpf4jnsgd1na2vs0mg"},{"bike_id":"dd2597f4-45c1-4124-9abe-507b28ca78c4","system_id":"levelo_inurba_marseille","lat":43.28728,"lon":5.37941,"is_reserved":false,"is_disabled":false,"rental_uris":{"android":"levelo://app?vid=dd2597f4-45c1-4124-9abe-507b28ca78c4","ios":"levelo://app?vid=dd2597f4-45c1-4124-9abe-507b28ca78c4"},"vehicle_type_id":"4","last_reported":1743510001,"current_range_meters":4400,"station_id":"ce4bh9p2rcd13ifvqec0","pricing_plan_id":"cebpf4jnsgd1na2vs0mg"},{"bike_id":"d16f1daf-473e-4375-b14d-6cbbc31e9b8d","system_id":"levelo_inurba_marseille","lat":43.303,"lon":5.3771,"is_reserved":false,"is_disabled":false,"rental_uris":{"android":"levelo://app?vid=d16f1daf-473e-4375-b14d-6cbbc31e9b8d","ios":"levelo://app?vid=d16f1daf-473e-4375-b14d-6cbbc31e9b8d"},"vehicle_type_id":"4","last_reported":1743510001,"current_range_meters":4400,"station_id":"ce4bguh2rcd13ifvqcj0","pricing_plan_id":"cebpf4jnsgd1na2vs0mg"},{"bike_id":"9cd82af8-da70-4da8-9340-c6fe10bdb5c0","system_id":"levelo_inurba_marseille","lat":43.273093,"lon":5.39097,"is_reserved":false,"is_disabled":false,"rental_uris":{"android":"levelo://app?vid=9cd82af8-da70-4da8-9340-c6fe10bdb5c0","ios":"levelo://app?vid=9cd82af8-da70-4da8-9340-c6fe10bdb5c0"},"vehicle_type_id":"4","last_reported":1743510001,"current_range_meters":4400,"station_id":"ce4bhgp2rcd13ifvqfe0","pricing_plan_id":"cebpf4jnsgd1na2vs0mg"},{"bike_id":"2bf31f9f-c5c0-434c-ab3b-b017d7dc966d","system_id":"levelo_inurba_marseille","lat":43.230501,"lon":5.354963,"is_reserved":false,"is_disabled":false,"rental_uris":{"android":"levelo://app?vid=2bf31f9f-c5c0-434c-ab3b-b017d7dc966d","ios":"levelo://app?vid=2bf31f9f-c5c0-434c-ab3b-b017d7dc966d"},"vehicle_type_id":"4","last_reported":1743510001,"current_range_meters":4400,"station_id":"cpo3342slgdg3j2ifvpg","pricing_plan_id":"cebpf4jnsgd1na2vs0mg"},{"bike_id":"805beff9-cd30-4735-8066-6d21bf374967","system_id":"levelo_inurba_marseille","lat":43.29576,"lon":5.39973,"is_reserved":false,"is_disabled":false,"rental_uris":{"android":"levelo://app?vid=805beff9-cd30-4735-8066-6d21bf374967","ios":"levelo://app?vid=805beff9-cd30-4735-8066-6d21bf374967"},"vehicle_type_id":"4","last_reported":1743510001,"current_range_meters":4400,"station_id":"ce4bh312rcd13ifvqdj0","pricing_plan_id":"cebpf4jnsgd1na2vs0mg"},{"bike_id":"7160035f-25c1-43e3-974a-ab46819b11e3","system_id":"levelo_inurba_marseille","lat":43.29555,"lon":5.42294,"is_reserved":false,"is_disabled":false,"rental_uris":{"android":"levelo://app?vid=7160035f-25c1-43e3-974a-ab46819b11e3","ios":"levelo://app?vid=7160035f-25c1-43e3-974a-ab46819b11e3"},"vehicle_type_id":"4","last_reported":1743510001,"current_range_meters":4400,"station_id":"ce4bhph2rcd13ifvqhdg","pricing_plan_id":"cebpf4jnsgd1na2vs0mg"},{"bike_id":"ea26cff1-876d-4050-af3f-349fed32531f","system_id":"levelo_inurba_marseille","lat":43.23154,"lon":5.43705,"is_reserved":false,"is_disabled":false,"rental_uris":{"android":"levelo://app?vid=ea26cff1-876d-4050-af3f-349fed32531f","ios":"levelo://app?vid=ea26cff1-876d-4050-af3f-349fed32531f"},"vehicle_type_id":"4","last_reported":1743510001,"current_range_meters":4400,"station_id":"ce4bhmp2rcd13ifvqgog","pricing_plan_id":"cebpf4jnsgd1na2vs0mg"},{"bike_id":"79a9d532-7e33-4610-b08c-af16bc13c935","system_id":"levelo_inurba_marseille","lat":43.24176,"lon":5.3639,"is_reserved":false,"is_disabled":false,"rental_uris":{"android":"levelo://app?vid=79a9d532-7e33-4610-b08c-af16bc13c935","ios":"levelo://app?vid=79a9d532-7e33-4610-b08c-af16bc13c935"},"vehicle_type_id":"4","last_reported":1743510001,"current_range_meters":4800,"station_id":"cpo36qri1sfpv3e86is0","pricing_plan_id":"cebpf4jnsgd1na2vs0mg"},{"bike_id":"050ca130-bc66-4839-abec-b26ddd131bdf","system_id":"levelo_inurba_marseille","lat":43.28151,"lon":5.42636,"is_reserved":false,"is_disabled":false,"rental_uris":{"android":"levelo://app?vid=050ca130-bc66-4839-abec-b26ddd131bdf","ios":"levelo://app?vid=050ca130-bc66-4839-abec-b26ddd131bdf"},"vehicle_type_id":"4","last_reported":1743510001,"current_range_meters":4800,"station_id":"ce4bhnh2rcd13ifvqgug","pricing_plan_id":"cebpf4jnsgd1na2vs0mg"},{"bike_id":"10f17c69-deb9-4eb0-897a-2941fa40ac57","system_id":"levelo_inurba_marseille","lat":43.2955,"lon":5.42288,"is_reserved":false,"is_disabled":false,"rental_uris":{"android":"levelo://app?vid=10f17c69-deb9-4eb0-897a-2941fa40ac57","ios":"levelo://app?vid=10f17c69-deb9-4eb0-897a-2941fa40ac57"},"vehicle_type_id":"4","last_reported":1743510001,"current_range_meters":5600,"station_id":"ce4bhph2rcd13ifvqhdg","pricing_plan_id":"cebpf4jnsgd1na2vs0mg"},{"bike_id":"af3cfe8c-ba88-488e-950b-915dc1379ac0","system_id":"levelo_inurba_marseille","lat":43.27382,"lon":5.36262,"is_reserved":false,"is_disabled":false,"rental_uris":{"android":"levelo://app?vid=af3cfe8c-ba88-488e-950b-915dc1379ac0","ios":"levelo://app?vid=af3cfe8c-ba88-488e-950b-915dc1379ac0"},"vehicle_type_id":"4","last_reported":1743510001,"current_range_meters":5600,"station_id":"ce4bhbh2rcd13ifvqeo0","pricing_plan_id":"cebpf4jnsgd1na2vs0mg"},{"bike_id":"8f74907c-2e34-4cfd-90b7-02f45e6b8f00","system_id":"levelo_inurba_marseille","lat":43.27493,"lon":5.42448,"is_reserved":false,"is_disabled":false,"rental_uris":{"android":"levelo://app?vid=8f74907c-2e34-4cfd-90b7-02f45e6b8f00","ios":"levelo://app?vid=8f74907c-2e34-4cfd-90b7-02f45e6b8f00"},"vehicle_type_id":"4","last_reported":1743510001,"current_range_meters":5600,"station_id":"ce4bhn92rcd13ifvqgrg","pricing_plan_id":"cebpf4jnsgd1na2vs0mg"},{"bike_id":"86058790-db07-4129-824d-3afc66f707c0","system_id":"levelo_inurba_marseille","lat":43.30429,"lon":5.39752,"is_reserved":false,"is_disabled":false,"rental_uris":{"android":"levelo://app?vid=86058790-db07-4129-824d-3afc66f707c0","ios":"levelo://app?vid=86058790-db07-4129-824d-3afc66f707c0"},"vehicle_type_id":"4","last_reported":1743510001,"current_range_meters":5600,"station_id":"ce4bh092rcd13ifvqd20","pricing_plan_id":"cebpf4jnsgd1na2vs0mg"},{"bike_id":"5d06d544-ae1c-4dfa-b63d-5f4340fa2e83","system_id":"levelo_inurba_marseille","lat":43.27923,"lon":5.39577,"is_reserved":false,"is_disabled":false,"rental_uris":{"android":"levelo://app?vid=5d06d544-ae1c-4dfa-b63d-5f4340fa2e83","ios":"levelo://app?vid=5d06d544-ae1c-4dfa-b63d-5f4340fa2e83"},"vehicle_type_id":"4","last_reported":1743510001,"current_range_meters":5600,"station_id":"ce4bhf92rcd13ifvqf40","pricing_plan_id":"cebpf4jnsgd1na2vs0mg"},{"bike_id":"c03edcfb-1bbe-4bc1-97ab-49f0192c66c4","system_id":"levelo_inurba_marseille","lat":43.29554,"lon":5.42292,"is_reserved":false,"is_disabled":false,"rental_uris":{"android":"levelo://app?vid=c03edcfb-1bbe-4bc1-97ab-49f0192c66c4","ios":"levelo://app?vid=c03edcfb-1bbe-4bc1-97ab-49f0192c66c4"},"vehicle_type_id":"4","last_reported":1743510001,"current_range_meters":5600,"station_id":"ce4bhph2rcd13ifvqhdg","pricing_plan_id":"cebpf4jnsgd1na2vs0mg"},{"bike_id":"d4a0d068-eaeb-4183-b126-444ca87156db","system_id":"levelo_inurba_marseille","lat":43.30527,"lon":5.36512,"is_reserved":false,"is_disabled":false,"rental_uris":{"android":"levelo://app?vid=d4a0d068-eaeb-4183-b126-444ca87156db","ios":"levelo://app?vid=d4a0d068-eaeb-4183-b126-444ca87156db"},"vehicle_type_id":"4","last_reported":1743510001,"current_range_meters":5600,"station_id":"ce4bgs12rcd13ifvqcag","pricing_plan_id":"cebpf4jnsgd1na2vs0mg"},{"bike_id":"f50dd1be-9ee4-480d-920f-0721f0997798","system_id":"levelo_inurba_marseille","lat":43.23185,"lon":5.39971,"is_reserved":false,"is_disabled":false,"rental_uris":{"android":"levelo://app?vid=f50dd1be-9ee4-480d-920f-0721f0997798","ios":"levelo://app?vid=f50dd1be-9ee4-480d-920f-0721f0997798"},"vehicle_type_id":"4","last_reported":1743510001,"current_range_meters":6000,"station_id":"ce4bhn12rcd13ifvqgqg","pricing_plan_id":"cebpf4jnsgd1na2vs0mg"},{"bike_id":"8a698f69-e4b3-4e08-9691-caa3499a0843","system_id":"levelo_inurba_marseille","lat":43.30925,"lon":5.40138,"is_reserved":false,"is_disabled":false,"rental_uris":{"android":"levelo://app?vid=8a698f69-e4b3-4e08-9691-caa3499a0843","ios":"levelo://app?vid=8a698f69-e4b3-4e08-9691-caa3499a0843"},"vehicle_type_id":"4","last_reported":1743510001,"current_range_meters":6000,"station_id":"ce4bgvp2rcd13ifvqct0","pricing_plan_id":"cebpf4jnsgd1na2vs0mg"},{"bike_id":"60e85f62-7610-49c2-af7f-96d28f6eddfc","system_id":"levelo_inurba_marseille","lat":43.29889,"lon":5.43665,"is_reserved":false,"is_disabled":false,"rental_uris":{"android":"levelo://app?vid=60e85f62-7610-49c2-af7f-96d28f6eddfc","ios":"levelo://app?vid=60e85f62-7610-49c2-af7f-96d28f6eddfc"},"vehicle_type_id":"4","last_reported":1743510001,"current_range_meters":6000,"station_id":"ce4bhpp2rcd13ifvqhfg","pricing_plan_id":"cebpf4jnsgd1na2vs0mg"},{"bike_id":"a2b02779-d9e8-4aa7-9528-39b9df452c95","system_id":"levelo_inurba_marseille","lat":43.292308,"lon":5.360699,"is_reserved":false,"is_disabled":false,"rental_uris":{"android":"levelo://app?vid=a2b02779-d9e8-4aa7-9528-39b9df452c95","ios":"levelo://app?vid=a2b02779-d9e8-4aa7-9528-39b9df452c95"},"vehicle_type_id":"4","last_reported":1743510001,"current_range_meters":6400,"station_id":"ce4bhbh2rcd13ifvqeqg","pricing_plan_id":"cebpf4jnsgd1na2vs0mg"},{"bike_id":"7fccf355-a00e-4905-8738-e2b4e7aa24a8","system_id":"levelo_inurba_marseille","lat":43.2315,"lon":5.43731,"is_reserved":false,"is_disabled":false,"rental_uris":{"android":"levelo://app?vid=7fccf355-a00e-4905-8738-e2b4e7aa24a8","ios":"levelo://app?vid=7fccf355-a00e-4905-8738-e2b4e7aa24a8"},"vehicle_type_id":"4","last_reported":1743510001,"current_range_meters":6000,"station_id":"ce4bhmp2rcd13ifvqgog","pricing_plan_id":"cebpf4jnsgd1na2vs0mg"},{"bike_id":"f8eb7196-b47c-480a-8b77-bbbd4d83c338","system_id":"levelo_inurba_marseille","lat":43.30134,"lon":5.38777,"is_reserved":false,"is_disabled":false,"rental_uris":{"android":"levelo://app?vid=f8eb7196-b47c-480a-8b77-bbbd4d83c338","ios":"levelo://app?vid=f8eb7196-b47c-480a-8b77-bbbd4d83c338"},"vehicle_type_id":"4","last_reported":1743510001,"current_range_meters":6000,"station_id":"ce4bghh2rcd13ifvqb60","pricing_plan_id":"cebpf4jnsgd1na2vs0mg"},{"bike_id":"791f8b6d-c7b8-43a3-af53-554de4edbd8b","system_id":"levelo_inurba_marseille","lat":43.25808,"lon":5.41038,"is_reserved":false,"is_disabled":false,"rental_uris":{"android":"levelo://app?vid=791f8b6d-c7b8-43a3-af53-554de4edbd8b","ios":"levelo://app?vid=791f8b6d-c7b8-43a3-af53-554de4edbd8b"},"vehicle_type_id":"4","last_reported":1743510001,"current_range_meters":6400,"station_id":"","pricing_plan_id":"cebpf4jnsgd1na2vs0mg"},{"bike_id":"12185702-a78d-40bb-9685-159fc834a0c5","system_id":"levelo_inurba_marseille","lat":43.31345,"lon":5.38839,"is_reserved":false,"is_disabled":false,"rental_uris":{"android":"levelo://app?vid=12185702-a78d-40bb-9685-159fc834a0c5","ios":"levelo://app?vid=12185702-a78d-40bb-9685-159fc834a0c5"},"vehicle_type_id":"4","last_reported":1743510001,"current_range_meters":6400,"station_id":"","pricing_plan_id":"cebpf4jnsgd1na2vs0mg"},{"bike_id":"0c40db3f-32b6-4ea9-9b45-f4c085819df2","system_id":"levelo_inurba_marseille","lat":43.284,"lon":5.38918,"is_reserved":false,"is_disabled":false,"rental_uris":{"android":"levelo://app?vid=0c40db3f-32b6-4ea9-9b45-f4c085819df2","ios":"levelo://app?vid=0c40db3f-32b6-4ea9-9b45-f4c085819df2"},"vehicle_type_id":"4","last_reported":1743510001,"current_range_meters":6400,"station_id":"","pricing_plan_id":"cebpf4jnsgd1na2vs0mg"},{"bike_id":"92a96564-2b78-4fc0-8756-3b3352f7cad0","system_id":"levelo_inurba_marseille","lat":43.30537,"lon":5.36557,"is_reserved":false,"is_disabled":false,"rental_uris":{"android":"levelo://app?vid=92a96564-2b78-4fc0-8756-3b3352f7cad0","ios":"levelo://app?vid=92a96564-2b78-4fc0-8756-3b3352f7cad0"},"vehicle_type_id":"4","last_reported":1743510001,"current_range_meters":6400,"station_id":"ce4bgs12rcd13ifvqcag","pricing_plan_id":"cebpf4jnsgd1na2vs0mg"},{"bike_id":"9f2f977c-01e5-4485-8e97-b93dd7439b8c","system_id":"levelo_inurba_marseille","lat":43.33603,"lon":5.41031,"is_reserved":false,"is_disabled":false,"rental_uris":{"android":"levelo://app?vid=9f2f977c-01e5-4485-8e97-b93dd7439b8c","ios":"levelo://app?vid=9f2f977c-01e5-4485-8e97-b93dd7439b8c"},"vehicle_type_id":"4","last_reported":1743510001,"current_range_meters":6400,"station_id":"ce4bhqh2rcd13ifvqhmg","pricing_plan_id":"cebpf4jnsgd1na2vs0mg"},{"bike_id":"7436ac52-c75b-4673-adea-3d64503cb4e7","system_id":"levelo_inurba_marseille","lat":43.25098,"lon":5.40312,"is_reserved":false,"is_disabled":false,"rental_uris":{"android":"levelo://app?vid=7436ac52-c75b-4673-adea-3d64503cb4e7","ios":"levelo://app?vid=7436ac52-c75b-4673-adea-3d64503cb4e7"},"vehicle_type_id":"4","last_reported":1743510001,"current_range_meters":6400,"station_id":"ce4bhlh2rcd13ifvqgig","pricing_plan_id":"cebpf4jnsgd1na2vs0mg"},{"bike_id":"120b9dba-040c-468a-bc2c-c0d7b3c1fc39","system_id":"levelo_inurba_marseille","lat":43.30542,"lon":5.36515,"is_reserved":false,"is_disabled":false,"rental_uris":{"android":"levelo://app?vid=120b9dba-040c-468a-bc2c-c0d7b3c1fc39","ios":"levelo://app?vid=120b9dba-040c-468a-bc2c-c0d7b3c1fc39"},"vehicle_type_id":"4","last_reported":1743510001,"current_range_meters":6400,"station_id":"ce4bgs12rcd13ifvqcag","pricing_plan_id":"cebpf4jnsgd1na2vs0mg"},{"bike_id":"ac7a7017-c5f3-4a9c-828e-c8d50dd085f8","system_id":"levelo_inurba_marseille","lat":43.23064,"lon":5.3549,"is_reserved":false,"is_disabled":false,"rental_uris":{"android":"levelo://app?vid=ac7a7017-c5f3-4a9c-828e-c8d50dd085f8","ios":"levelo://app?vid=ac7a7017-c5f3-4a9c-828e-c8d50dd085f8"},"vehicle_type_id":"4","last_reported":1743510001,"current_range_meters":6400,"station_id":"cpo3342slgdg3j2ifvpg","pricing_plan_id":"cebpf4jnsgd1na2vs0mg"},{"bike_id":"121010d1-d0ea-475b-97a6-f9054736109c","system_id":"levelo_inurba_marseille","lat":43.23193,"lon":5.39979,"is_reserved":false,"is_disabled":false,"rental_uris":{"android":"levelo://app?vid=121010d1-d0ea-475b-97a6-f9054736109c","ios":"levelo://app?vid=121010d1-d0ea-475b-97a6-f9054736109c"},"vehicle_type_id":"4","last_reported":1743510001,"current_range_meters":6800,"station_id":"ce4bhn12rcd13ifvqgqg","pricing_plan_id":"cebpf4jnsgd1na2vs0mg"},{"bike_id":"40d120c4-c6a9-4e52-ac26-db881d9fcbd4","system_id":"levelo_inurba_marseille","lat":43.24666,"lon":5.38167,"is_reserved":false,"is_disabled":false,"rental_uris":{"android":"levelo://app?vid=40d120c4-c6a9-4e52-ac26-db881d9fcbd4","ios":"levelo://app?vid=40d120c4-c6a9-4e52-ac26-db881d9fcbd4"},"vehicle_type_id":"4","last_reported":1743510001,"current_range_meters":7200,"station_id":"ce4bhih2rcd13ifvqfr0","pricing_plan_id":"cebpf4jnsgd1na2vs0mg"},{"bike_id":"dd9658f6-8a08-4c96-8cfb-5740e9f46d5e","system_id":"levelo_inurba_marseille","lat":43.24052,"lon":5.3775,"is_reserved":false,"is_disabled":true,"rental_uris":{"android":"levelo://app?vid=dd9658f6-8a08-4c96-8cfb-5740e9f46d5e","ios":"levelo://app?vid=dd9658f6-8a08-4c96-8cfb-5740e9f46d5e"},"vehicle_type_id":"4","last_reported":1743510001,"current_range_meters":6800,"station_id":"ce4bhnp2rcd13ifvqgvg","pricing_plan_id":"cebpf4jnsgd1na2vs0mg"},{"bike_id":"fc8baf4a-6d7c-40c4-b2d9-b0714dec0916","system_id":"levelo_inurba_marseille","lat":43.29092,"lon":5.38145,"is_reserved":false,"is_disabled":false,"rental_uris":{"android":"levelo://app?vid=fc8baf4a-6d7c-40c4-b2d9-b0714dec0916","ios":"levelo://app?vid=fc8baf4a-6d7c-40c4-b2d9-b0714dec0916"},"vehicle_type_id":"4","last_reported":1743510001,"current_range_meters":6800,"station_id":"ce4bh512rcd13ifvqe2g","pricing_plan_id":"cebpf4jnsgd1na2vs0mg"},{"bike_id":"4f6db61e-8293-4a0d-bb9c-f9aae02e4996","system_id":"levelo_inurba_marseille","lat":43.25101,"lon":5.39501,"is_reserved":false,"is_disabled":false,"rental_uris":{"android":"levelo://app?vid=4f6db61e-8293-4a0d-bb9c-f9aae02e4996","ios":"levelo://app?vid=4f6db61e-8293-4a0d-bb9c-f9aae02e4996"},"vehicle_type_id":"4","last_reported":1743510001,"current_range_meters":6800,"station_id":"ce4bhm12rcd13ifvqgkg","pricing_plan_id":"cebpf4jnsgd1na2vs0mg"},{"bike_id":"01011d31-f458-47cf-a233-fbae13e68adf","system_id":"levelo_inurba_marseille","lat":43.30531,"lon":5.36709,"is_reserved":false,"is_disabled":false,"rental_uris":{"android":"levelo://app?vid=01011d31-f458-47cf-a233-fbae13e68adf","ios":"levelo://app?vid=01011d31-f458-47cf-a233-fbae13e68adf"},"vehicle_type_id":"4","last_reported":1743510001,"current_range_meters":6800,"station_id":"ce4bgrp2rcd13ifvqc9g","pricing_plan_id":"cebpf4jnsgd1na2vs0mg"},{"bike_id":"b174874e-04a3-4b38-ada1-483f2553c298","system_id":"levelo_inurba_marseille","lat":43.28941,"lon":5.36646,"is_reserved":false,"is_disabled":false,"rental_uris":{"android":"levelo://app?vid=b174874e-04a3-4b38-ada1-483f2553c298","ios":"levelo://app?vid=b174874e-04a3-4b38-ada1-483f2553c298"},"vehicle_type_id":"4","last_reported":1743510001,"current_range_meters":7200,"station_id":"ce4bhap2rcd13ifvqek0","pricing_plan_id":"cebpf4jnsgd1na2vs0mg"},{"bike_id":"7b0fac7f-9394-4f2b-a36a-8f9096607a53","system_id":"levelo_inurba_marseille","lat":43.29554,"lon":5.422617,"is_reserved":false,"is_disabled":false,"rental_uris":{"android":"levelo://app?vid=7b0fac7f-9394-4f2b-a36a-8f9096607a53","ios":"levelo://app?vid=7b0fac7f-9394-4f2b-a36a-8f9096607a53"},"vehicle_type_id":"4","last_reported":1743510001,"current_range_meters":7200,"station_id":"ce4bhph2rcd13ifvqhdg","pricing_plan_id":"cebpf4jnsgd1na2vs0mg"},{"bike_id":"23a2997f-acca-44d1-a72c-cccdd94a796c","system_id":"levelo_inurba_marseille","lat":43.30923,"lon":5.40141,"is_reserved":false,"is_disabled":true,"rental_uris":{"android":"levelo://app?vid=23a2997f-acca-44d1-a72c-cccdd94a796c","ios":"levelo://app?vid=23a2997f-acca-44d1-a72c-cccdd94a796c"},"vehicle_type_id":"4","last_reported":1743510001,"current_range_meters":7200,"station_id":"ce4bgvp2rcd13ifvqct0","pricing_plan_id":"cebpf4jnsgd1na2vs0mg"},{"bike_id":"7aef5a96-ff1f-4883-8e82-7276d36b55c0","system_id":"levelo_inurba_marseille","lat":43.26786,"lon":5.39413,"is_reserved":false,"is_disabled":false,"rental_uris":{"android":"levelo://app?vid=7aef5a96-ff1f-4883-8e82-7276d36b55c0","ios":"levelo://app?vid=7aef5a96-ff1f-4883-8e82-7276d36b55c0"},"vehicle_type_id":"4","last_reported":1743510001,"current_range_meters":7200,"station_id":"ce4bhh12rcd13ifvqfg0","pricing_plan_id":"cebpf4jnsgd1na2vs0mg"},{"bike_id":"fe5bff63-32fa-4389-adfd-9259e51f52ac","system_id":"levelo_inurba_marseille","lat":43.26558,"lon":5.39005,"is_reserved":false,"is_disabled":false,"rental_uris":{"android":"levelo://app?vid=fe5bff63-32fa-4389-adfd-9259e51f52ac","ios":"levelo://app?vid=fe5bff63-32fa-4389-adfd-9259e51f52ac"},"vehicle_type_id":"4","last_reported":1743510001,"current_range_meters":7200,"station_id":"ce4bhe12rcd13ifvqf30","pricing_plan_id":"cebpf4jnsgd1na2vs0mg"},{"bike_id":"9c9586d4-89b2-477a-a299-450f69c2c7b0","system_id":"levelo_inurba_marseille","lat":43.295925,"lon":5.380996,"is_reserved":false,"is_disabled":false,"rental_uris":{"android":"levelo://app?vid=9c9586d4-89b2-477a-a299-450f69c2c7b0","ios":"levelo://app?vid=9c9586d4-89b2-477a-a299-450f69c2c7b0"},"vehicle_type_id":"4","last_reported":1743510001,"current_range_meters":7200,"station_id":"ce4bhnh2rcd13ifvqgug","pricing_plan_id":"cebpf4jnsgd1na2vs0mg"},{"bike_id":"1c51cfa1-aee6-4db1-b288-7f49ed6a642d","system_id":"levelo_inurba_marseille","lat":43.260597,"lon":5.394074,"is_reserved":false,"is_disabled":false,"rental_uris":{"android":"levelo://app?vid=1c51cfa1-aee6-4db1-b288-7f49ed6a642d","ios":"levelo://app?vid=1c51cfa1-aee6-4db1-b288-7f49ed6a642d"},"vehicle_type_id":"4","last_reported":1743510001,"current_range_meters":7200,"station_id":"ce4bhh92rcd13ifvqfj0","pricing_plan_id":"cebpf4jnsgd1na2vs0mg"},{"bike_id":"eca84d39-c83c-4f49-bbbe-41867b2d4c73","system_id":"levelo_inurba_marseille","lat":43.28418,"lon":5.34978,"is_reserved":false,"is_disabled":false,"rental_uris":{"android":"levelo://app?vid=eca84d39-c83c-4f49-bbbe-41867b2d4c73","ios":"levelo://app?vid=eca84d39-c83c-4f49-bbbe-41867b2d4c73"},"vehicle_type_id":"4","last_reported":1743510001,"current_range_meters":8000,"station_id":"ce4bhbh2rcd13ifvqepg","pricing_plan_id":"cebpf4jnsgd1na2vs0mg"},{"bike_id":"2160fffa-75d1-49f9-8d73-493f1eb8818f","system_id":"levelo_inurba_marseille","lat":43.29204,"lon":5.3933,"is_reserved":false,"is_disabled":false,"rental_uris":{"android":"levelo://app?vid=2160fffa-75d1-49f9-8d73-493f1eb8818f","ios":"levelo://app?vid=2160fffa-75d1-49f9-8d73-493f1eb8818f"},"vehicle_type_id":"4","last_reported":1743510001,"current_range_meters":7200,"station_id":"ce4bh192rcd13ifvqdd0","pricing_plan_id":"cebpf4jnsgd1na2vs0mg"},{"bike_id":"a8ada2cf-21e7-423e-9f71-4aa53e408a33","system_id":"levelo_inurba_marseille","lat":43.24074,"lon":5.37769,"is_reserved":false,"is_disabled":false,"rental_uris":{"android":"levelo://app?vid=a8ada2cf-21e7-423e-9f71-4aa53e408a33","ios":"levelo://app?vid=a8ada2cf-21e7-423e-9f71-4aa53e408a33"},"vehicle_type_id":"4","last_reported":1743510001,"current_range_meters":8000,"station_id":"ce4bhnp2rcd13ifvqgvg","pricing_plan_id":"cebpf4jnsgd1na2vs0mg"},{"bike_id":"c9240149-4f6e-41b1-bc7f-43de8fa90409","system_id":"levelo_inurba_marseille","lat":43.27319,"lon":5.39093,"is_reserved":false,"is_disabled":false,"rental_uris":{"android":"levelo://app?vid=c9240149-4f6e-41b1-bc7f-43de8fa90409","ios":"levelo://app?vid=c9240149-4f6e-41b1-bc7f-43de8fa90409"},"vehicle_type_id":"4","last_reported":1743510001,"current_range_meters":8000,"station_id":"ce4bhgp2rcd13ifvqfe0","pricing_plan_id":"cebpf4jnsgd1na2vs0mg"},{"bike_id":"6c6f8d92-54e5-47c6-8305-e4b3f494481b","system_id":"levelo_inurba_marseille","lat":43.29037,"lon":5.39975,"is_reserved":false,"is_disabled":false,"rental_uris":{"android":"levelo://app?vid=6c6f8d92-54e5-47c6-8305-e4b3f494481b","ios":"levelo://app?vid=6c6f8d92-54e5-47c6-8305-e4b3f494481b"},"vehicle_type_id":"4","last_reported":1743510001,"current_range_meters":8000,"station_id":"ce4bh392rcd13ifvqdm0","pricing_plan_id":"cebpf4jnsgd1na2vs0mg"},{"bike_id":"1f89f913-69ce-45e8-b9a3-bbab0dd5ff5b","system_id":"levelo_inurba_marseille","lat":43.32546,"lon":5.41439,"is_reserved":false,"is_disabled":false,"rental_uris":{"android":"levelo://app?vid=1f89f913-69ce-45e8-b9a3-bbab0dd5ff5b","ios":"levelo://app?vid=1f89f913-69ce-45e8-b9a3-bbab0dd5ff5b"},"vehicle_type_id":"4","last_reported":1743510001,"current_range_meters":8000,"station_id":"ce4bhq12rcd13ifvqhhg","pricing_plan_id":"cebpf4jnsgd1na2vs0mg"},{"bike_id":"b3593ea0-f10f-4d2d-8fd4-ca8847ced39c","system_id":"levelo_inurba_marseille","lat":43.33559,"lon":5.41003,"is_reserved":false,"is_disabled":false,"rental_uris":{"android":"levelo://app?vid=b3593ea0-f10f-4d2d-8fd4-ca8847ced39c","ios":"levelo://app?vid=b3593ea0-f10f-4d2d-8fd4-ca8847ced39c"},"vehicle_type_id":"4","last_reported":1743510001,"current_range_meters":8000,"station_id":"","pricing_plan_id":"cebpf4jnsgd1na2vs0mg"},{"bike_id":"9e414957-74dc-4194-88c9-1ed380a0f974","system_id":"levelo_inurba_marseille","lat":43.24652,"lon":5.38895,"is_reserved":false,"is_disabled":false,"rental_uris":{"android":"levelo://app?vid=9e414957-74dc-4194-88c9-1ed380a0f974","ios":"levelo://app?vid=9e414957-74dc-4194-88c9-1ed380a0f974"},"vehicle_type_id":"4","last_reported":1743510001,"current_range_meters":8000,"station_id":"ce4bhg12rcd13ifvqf60","pricing_plan_id":"cebpf4jnsgd1na2vs0mg"},{"bike_id":"40a66e01-b594-43cc-80a6-bf33d148d0f5","system_id":"levelo_inurba_marseille","lat":43.25112,"lon":5.4033,"is_reserved":false,"is_disabled":false,"rental_uris":{"android":"levelo://app?vid=40a66e01-b594-43cc-80a6-bf33d148d0f5","ios":"levelo://app?vid=40a66e01-b594-43cc-80a6-bf33d148d0f5"},"vehicle_type_id":"4","last_reported":1743510001,"current_range_meters":8400,"station_id":"ce4bhlh2rcd13ifvqgig","pricing_plan_id":"cebpf4jnsgd1na2vs0mg"},{"bike_id":"f768acf2-449e-4946-8adf-fb8422e289eb","system_id":"levelo_inurba_marseille","lat":43.26678,"lon":5.38281,"is_reserved":false,"is_disabled":false,"rental_uris":{"android":"levelo://app?vid=f768acf2-449e-4946-8adf-fb8422e289eb","ios":"levelo://app?vid=f768acf2-449e-4946-8adf-fb8422e289eb"},"vehicle_type_id":"4","last_reported":1743510001,"current_range_meters":8400,"station_id":"ce4bhg92rcd13ifvqf90","pricing_plan_id":"cebpf4jnsgd1na2vs0mg"},{"bike_id":"36f18958-471c-4804-b0e4-c0e106554f2b","system_id":"levelo_inurba_marseille","lat":43.27054,"lon":5.40261,"is_reserved":false,"is_disabled":false,"rental_uris":{"android":"levelo://app?vid=36f18958-471c-4804-b0e4-c0e106554f2b","ios":"levelo://app?vid=36f18958-471c-4804-b0e4-c0e106554f2b"},"vehicle_type_id":"4","last_reported":1743510001,"current_range_meters":8400,"station_id":"ce4bhk92rcd13ifvqgc0","pricing_plan_id":"cebpf4jnsgd1na2vs0mg"},{"bike_id":"6489d69b-6669-4f3f-a4ff-9ab42d1cf072","system_id":"levelo_inurba_marseille","lat":43.32541,"lon":5.41437,"is_reserved":false,"is_disabled":false,"rental_uris":{"android":"levelo://app?vid=6489d69b-6669-4f3f-a4ff-9ab42d1cf072","ios":"levelo://app?vid=6489d69b-6669-4f3f-a4ff-9ab42d1cf072"},"vehicle_type_id":"4","last_reported":1743510001,"current_range_meters":8400,"station_id":"ce4bhq12rcd13ifvqhhg","pricing_plan_id":"cebpf4jnsgd1na2vs0mg"},{"bike_id":"d2dbc333-3a12-4ff9-b4bf-3088393ab765","system_id":"levelo_inurba_marseille","lat":43.28261,"lon":5.3506,"is_reserved":false,"is_disabled":false,"rental_uris":{"android":"levelo://app?vid=d2dbc333-3a12-4ff9-b4bf-3088393ab765","ios":"levelo://app?vid=d2dbc333-3a12-4ff9-b4bf-3088393ab765"},"vehicle_type_id":"4","last_reported":1743510001,"current_range_meters":8000,"station_id":"ce4bhbp2rcd13ifvqerg","pricing_plan_id":"cebpf4jnsgd1na2vs0mg"},{"bike_id":"6f08a519-5eba-4d37-af1e-f520542be29f","system_id":"levelo_inurba_marseille","lat":43.27078,"lon":5.42273,"is_reserved":false,"is_disabled":false,"rental_uris":{"android":"levelo://app?vid=6f08a519-5eba-4d37-af1e-f520542be29f","ios":"levelo://app?vid=6f08a519-5eba-4d37-af1e-f520542be29f"},"vehicle_type_id":"4","last_reported":1743510001,"current_range_meters":8400,"station_id":"ce4bhk92rcd13ifvqgb0","pricing_plan_id":"cebpf4jnsgd1na2vs0mg"},{"bike_id":"dc68065b-e197-41bc-b251-7638ffa1a443","system_id":"levelo_inurba_marseille","lat":43.24389,"lon":5.37057,"is_reserved":false,"is_disabled":false,"rental_uris":{"android":"levelo://app?vid=dc68065b-e197-41bc-b251-7638ffa1a443","ios":"levelo://app?vid=dc68065b-e197-41bc-b251-7638ffa1a443"},"vehicle_type_id":"4","last_reported":1743510001,"current_range_meters":8400,"station_id":"ce4bhhh2rcd13ifvqfk0","pricing_plan_id":"cebpf4jnsgd1na2vs0mg"},{"bike_id":"0dc859ba-55c4-4a25-8ca8-7c9f2b1386ea","system_id":"levelo_inurba_marseille","lat":43.27317,"lon":5.40773,"is_reserved":false,"is_disabled":false,"rental_uris":{"android":"levelo://app?vid=0dc859ba-55c4-4a25-8ca8-7c9f2b1386ea","ios":"levelo://app?vid=0dc859ba-55c4-4a25-8ca8-7c9f2b1386ea"},"vehicle_type_id":"4","last_reported":1743510001,"current_range_meters":8800,"station_id":"","pricing_plan_id":"cebpf4jnsgd1na2vs0mg"},{"bike_id":"4a9ac05f-7985-4634-bc04-82a366768bd9","system_id":"levelo_inurba_marseille","lat":43.26068,"lon":5.394,"is_reserved":false,"is_disabled":false,"rental_uris":{"android":"levelo://app?vid=4a9ac05f-7985-4634-bc04-82a366768bd9","ios":"levelo://app?vid=4a9ac05f-7985-4634-bc04-82a366768bd9"},"vehicle_type_id":"4","last_reported":1743510001,"current_range_meters":8800,"station_id":"ce4bhh92rcd13ifvqfj0","pricing_plan_id":"cebpf4jnsgd1na2vs0mg"},{"bike_id":"8cb8fb6e-14b3-4b47-88a7-df067badb670","system_id":"levelo_inurba_marseille","lat":43.22936,"lon":5.35378,"is_reserved":false,"is_disabled":false,"rental_uris":{"android":"levelo://app?vid=8cb8fb6e-14b3-4b47-88a7-df067badb670","ios":"levelo://app?vid=8cb8fb6e-14b3-4b47-88a7-df067badb670"},"vehicle_type_id":"4","last_reported":1743510001,"current_range_meters":8800,"station_id":"cpo3532slgdg3j2ikp40","pricing_plan_id":"cebpf4jnsgd1na2vs0mg"},{"bike_id":"af962145-abd0-4208-8639-4ddc29c5974c","system_id":"levelo_inurba_marseille","lat":43.28352,"lon":5.38101,"is_reserved":false,"is_disabled":false,"rental_uris":{"android":"levelo://app?vid=af962145-abd0-4208-8639-4ddc29c5974c","ios":"levelo://app?vid=af962145-abd0-4208-8639-4ddc29c5974c"},"vehicle_type_id":"4","last_reported":1743510001,"current_range_meters":8800,"station_id":"ce4bh412rcd13ifvqdr0","pricing_plan_id":"cebpf4jnsgd1na2vs0mg"},{"bike_id":"2a4f0501-0905-4e6a-84a4-2dc3f1ec5993","system_id":"levelo_inurba_marseille","lat":43.25904,"lon":5.40874,"is_reserved":false,"is_disabled":false,"rental_uris":{"android":"levelo://app?vid=2a4f0501-0905-4e6a-84a4-2dc3f1ec5993","ios":"levelo://app?vid=2a4f0501-0905-4e6a-84a4-2dc3f1ec5993"},"vehicle_type_id":"4","last_reported":1743510001,"current_range_meters":8800,"station_id":"ce4bhm92rcd13ifvqglg","pricing_plan_id":"cebpf4jnsgd1na2vs0mg"},{"bike_id":"9b2f596f-67e6-4546-acc6-57134455b33e","system_id":"levelo_inurba_marseille","lat":43.23154,"lon":5.43719,"is_reserved":false,"is_disabled":false,"rental_uris":{"android":"levelo://app?vid=9b2f596f-67e6-4546-acc6-57134455b33e","ios":"levelo://app?vid=9b2f596f-67e6-4546-acc6-57134455b33e"},"vehicle_type_id":"4","last_reported":1743510001,"current_range_meters":8800,"station_id":"ce4bhmp2rcd13ifvqgog","pricing_plan_id":"cebpf4jnsgd1na2vs0mg"},{"bike_id":"2f04edae-9512-46d3-b068-1782d17c6e53","system_id":"levelo_inurba_marseille","lat":43.2439,"lon":5.3706,"is_reserved":false,"is_disabled":false,"rental_uris":{"android":"levelo://app?vid=2f04edae-9512-46d3-b068-1782d17c6e53","ios":"levelo://app?vid=2f04edae-9512-46d3-b068-1782d17c6e53"},"vehicle_type_id":"4","last_reported":1743510001,"current_range_meters":8800,"station_id":"ce4bhhh2rcd13ifvqfk0","pricing_plan_id":"cebpf4jnsgd1na2vs0mg"},{"bike_id":"e69e4645-5602-43f1-9376-945d6afb7075","system_id":"levelo_inurba_marseille","lat":43.28974,"lon":5.378337,"is_reserved":false,"is_disabled":false,"rental_uris":{"android":"levelo://app?vid=e69e4645-5602-43f1-9376-945d6afb7075","ios":"levelo://app?vid=e69e4645-5602-43f1-9376-945d6afb7075"},"vehicle_type_id":"4","last_reported":1743510001,"current_range_meters":8800,"station_id":"","pricing_plan_id":"cebpf4jnsgd1na2vs0mg"},{"bike_id":"7bcfce7f-fbb5-4814-8816-01b48a363aa3","system_id":"levelo_inurba_marseille","lat":43.31356,"lon":5.3851,"is_reserved":false,"is_disabled":false,"rental_uris":{"android":"levelo://app?vid=7bcfce7f-fbb5-4814-8816-01b48a363aa3","ios":"levelo://app?vid=7bcfce7f-fbb5-4814-8816-01b48a363aa3"},"vehicle_type_id":"4","last_reported":1743510001,"current_range_meters":8800,"station_id":"ce4bgt92rcd13ifvqcf0","pricing_plan_id":"cebpf4jnsgd1na2vs0mg"},{"bike_id":"40f9fefc-d2b9-4d0d-911b-0366071db3cd","system_id":"levelo_inurba_marseille","lat":43.30547,"lon":5.36552,"is_reserved":false,"is_disabled":false,"rental_uris":{"android":"levelo://app?vid=40f9fefc-d2b9-4d0d-911b-0366071db3cd","ios":"levelo://app?vid=40f9fefc-d2b9-4d0d-911b-0366071db3cd"},"vehicle_type_id":"4","last_reported":1743510001,"current_range_meters":9200,"station_id":"ce4bgs12rcd13ifvqcag","pricing_plan_id":"cebpf4jnsgd1na2vs0mg"},{"bike_id":"4df446be-9dd3-4715-a1d6-31a285ca1628","system_id":"levelo_inurba_marseille","lat":43.24175,"lon":5.39716,"is_reserved":false,"is_disabled":false,"rental_uris":{"android":"levelo://app?vid=4df446be-9dd3-4715-a1d6-31a285ca1628","ios":"levelo://app?vid=4df446be-9dd3-4715-a1d6-31a285ca1628"},"vehicle_type_id":"4","last_reported":1743510001,"current_range_meters":9200,"station_id":"ce4bhn12rcd13ifvqgpg","pricing_plan_id":"cebpf4jnsgd1na2vs0mg"},{"bike_id":"2286499e-afb3-42f0-be29-239621d5e7b7","system_id":"levelo_inurba_marseille","lat":43.24188,"lon":5.39715,"is_reserved":false,"is_disabled":false,"rental_uris":{"android":"levelo://app?vid=2286499e-afb3-42f0-be29-239621d5e7b7","ios":"levelo://app?vid=2286499e-afb3-42f0-be29-239621d5e7b7"},"vehicle_type_id":"4","last_reported":1743510001,"current_range_meters":9200,"station_id":"ce4bhn12rcd13ifvqgpg","pricing_plan_id":"cebpf4jnsgd1na2vs0mg"},{"bike_id":"33b8dd29-56e2-488c-9bb6-7f788906afe5","system_id":"levelo_inurba_marseille","lat":43.30741,"lon":5.37241,"is_reserved":false,"is_disabled":false,"rental_uris":{"android":"levelo://app?vid=33b8dd29-56e2-488c-9bb6-7f788906afe5","ios":"levelo://app?vid=33b8dd29-56e2-488c-9bb6-7f788906afe5"},"vehicle_type_id":"4","last_reported":1743510001,"current_range_meters":9200,"station_id":"","pricing_plan_id":"cebpf4jnsgd1na2vs0mg"},{"bike_id":"d7a069c4-a880-4828-8292-515fb6e8aa1b","system_id":"levelo_inurba_marseille","lat":43.29081,"lon":5.3717,"is_reserved":false,"is_disabled":false,"rental_uris":{"android":"levelo://app?vid=d7a069c4-a880-4828-8292-515fb6e8aa1b","ios":"levelo://app?vid=d7a069c4-a880-4828-8292-515fb6e8aa1b"},"vehicle_type_id":"4","last_reported":1743510001,"current_range_meters":9200,"station_id":"ce4bh5p2rcd13ifvqe4g","pricing_plan_id":"cebpf4jnsgd1na2vs0mg"},{"bike_id":"11fb0821-8afa-433a-9d88-19545526da74","system_id":"levelo_inurba_marseille","lat":43.27906,"lon":5.37986,"is_reserved":false,"is_disabled":true,"rental_uris":{"android":"levelo://app?vid=11fb0821-8afa-433a-9d88-19545526da74","ios":"levelo://app?vid=11fb0821-8afa-433a-9d88-19545526da74"},"vehicle_type_id":"4","last_reported":1743510001,"current_range_meters":9200,"station_id":"ce4bhf92rcd13ifvqf50","pricing_plan_id":"cebpf4jnsgd1na2vs0mg"},{"bike_id":"862a1420-bc7a-4671-9890-b2ac321241a5","system_id":"levelo_inurba_marseille","lat":43.284688,"lon":5.391869,"is_reserved":false,"is_disabled":false,"rental_uris":{"android":"levelo://app?vid=862a1420-bc7a-4671-9890-b2ac321241a5","ios":"levelo://app?vid=862a1420-bc7a-4671-9890-b2ac321241a5"},"vehicle_type_id":"4","last_reported":1743510001,"current_range_meters":9200,"station_id":"ce4bhoh2rcd13ifvqh5g","pricing_plan_id":"cebpf4jnsgd1na2vs0mg"},{"bike_id":"e8bcd443-821b-4367-9144-501226d5eebf","system_id":"levelo_inurba_marseille","lat":43.29278,"lon":5.40113,"is_reserved":false,"is_disabled":false,"rental_uris":{"android":"levelo://app?vid=e8bcd443-821b-4367-9144-501226d5eebf","ios":"levelo://app?vid=e8bcd443-821b-4367-9144-501226d5eebf"},"vehicle_type_id":"4","last_reported":1743510001,"current_range_meters":9200,"station_id":"ce4bh312rcd13ifvqdk0","pricing_plan_id":"cebpf4jnsgd1na2vs0mg"},{"bike_id":"131953cc-98dc-4b83-8dba-ebeea1f8c38f","system_id":"levelo_inurba_marseille","lat":43.26575,"lon":5.39035,"is_reserved":false,"is_disabled":false,"rental_uris":{"android":"levelo://app?vid=131953cc-98dc-4b83-8dba-ebeea1f8c38f","ios":"levelo://app?vid=131953cc-98dc-4b83-8dba-ebeea1f8c38f"},"vehicle_type_id":"4","last_reported":1743510001,"current_range_meters":9600,"station_id":"ce4bhe12rcd13ifvqf30","pricing_plan_id":"cebpf4jnsgd1na2vs0mg"},{"bike_id":"2f0a2c7b-c13f-4c2b-8ba4-b26a30099281","system_id":"levelo_inurba_marseille","lat":43.31744,"lon":5.38998,"is_reserved":false,"is_disabled":false,"rental_uris":{"android":"levelo://app?vid=2f0a2c7b-c13f-4c2b-8ba4-b26a30099281","ios":"levelo://app?vid=2f0a2c7b-c13f-4c2b-8ba4-b26a30099281"},"vehicle_type_id":"4","last_reported":1743510001,"current_range_meters":9600,"station_id":"ce4bhqp2rcd13ifvqhng","pricing_plan_id":"cebpf4jnsgd1na2vs0mg"},{"bike_id":"292ace63-b3f4-4abb-995a-22134383a472","system_id":"levelo_inurba_marseille","lat":43.23156,"lon":5.43715,"is_reserved":false,"is_disabled":false,"rental_uris":{"android":"levelo://app?vid=292ace63-b3f4-4abb-995a-22134383a472","ios":"levelo://app?vid=292ace63-b3f4-4abb-995a-22134383a472"},"vehicle_type_id":"4","last_reported":1743510001,"current_range_meters":9600,"station_id":"ce4bhmp2rcd13ifvqgog","pricing_plan_id":"cebpf4jnsgd1na2vs0mg"},{"bike_id":"e4eccfc6-e7a9-49dd-a833-f5d63fc4c333","system_id":"levelo_inurba_marseille","lat":43.31163,"lon":5.387,"is_reserved":false,"is_disabled":false,"rental_uris":{"android":"levelo://app?vid=e4eccfc6-e7a9-49dd-a833-f5d63fc4c333","ios":"levelo://app?vid=e4eccfc6-e7a9-49dd-a833-f5d63fc4c333"},"vehicle_type_id":"4","last_reported":1743510001,"current_range_meters":9600,"station_id":"ce4bgv12rcd13ifvqcp0","pricing_plan_id":"cebpf4jnsgd1na2vs0mg"},{"bike_id":"5f22498f-28ab-4ef6-a8dc-f7bbee6142ad","system_id":"levelo_inurba_marseille","lat":43.30411,"lon":5.39752,"is_reserved":false,"is_disabled":true,"rental_uris":{"android":"levelo://app?vid=5f22498f-28ab-4ef6-a8dc-f7bbee6142ad","ios":"levelo://app?vid=5f22498f-28ab-4ef6-a8dc-f7bbee6142ad"},"vehicle_type_id":"4","last_reported":1743510001,"current_range_meters":9600,"station_id":"ce4bh092rcd13ifvqd20","pricing_plan_id":"cebpf4jnsgd1na2vs0mg"},{"bike_id":"a65c60d0-9838-4fce-ab82-173f64a7b595","system_id":"levelo_inurba_marseille","lat":43.2419,"lon":5.39698,"is_reserved":false,"is_disabled":false,"rental_uris":{"android":"levelo://app?vid=a65c60d0-9838-4fce-ab82-173f64a7b595","ios":"levelo://app?vid=a65c60d0-9838-4fce-ab82-173f64a7b595"},"vehicle_type_id":"4","last_reported":1743510001,"current_range_meters":10000,"station_id":"ce4bhn12rcd13ifvqgpg","pricing_plan_id":"cebpf4jnsgd1na2vs0mg"},{"bike_id":"55ac0151-9994-4f0f-9feb-66b0e5c62b62","system_id":"levelo_inurba_marseille","lat":43.292327,"lon":5.360692,"is_reserved":false,"is_disabled":false,"rental_uris":{"android":"levelo://app?vid=55ac0151-9994-4f0f-9feb-66b0e5c62b62","ios":"levelo://app?vid=55ac0151-9994-4f0f-9feb-66b0e5c62b62"},"vehicle_type_id":"4","last_reported":1743510001,"current_range_meters":10000,"station_id":"ce4bhbh2rcd13ifvqeqg","pricing_plan_id":"cebpf4jnsgd1na2vs0mg"},{"bike_id":"4ad73676-975d-4eb4-8ab0-34916f3a4594","system_id":"levelo_inurba_marseille","lat":43.30617,"lon":5.37152,"is_reserved":false,"is_disabled":false,"rental_uris":{"android":"levelo://app?vid=4ad73676-975d-4eb4-8ab0-34916f3a4594","ios":"levelo://app?vid=4ad73676-975d-4eb4-8ab0-34916f3a4594"},"vehicle_type_id":"4","last_reported":1743510001,"current_range_meters":10000,"station_id":"","pricing_plan_id":"cebpf4jnsgd1na2vs0mg"},{"bike_id":"a32b72fa-f316-43f0-8937-f22cd144f61e","system_id":"levelo_inurba_marseille","lat":43.28272,"lon":5.35065,"is_reserved":false,"is_disabled":false,"rental_uris":{"android":"levelo://app?vid=a32b72fa-f316-43f0-8937-f22cd144f61e","ios":"levelo://app?vid=a32b72fa-f316-43f0-8937-f22cd144f61e"},"vehicle_type_id":"4","last_reported":1743510001,"current_range_meters":10000,"station_id":"ce4bhbp2rcd13ifvqerg","pricing_plan_id":"cebpf4jnsgd1na2vs0mg"},{"bike_id":"c86f3dd7-4af6-4e32-832d-8c711682ef46","system_id":"levelo_inurba_marseille","lat":43.25918,"lon":5.40877,"is_reserved":false,"is_disabled":false,"rental_uris":{"android":"levelo://app?vid=c86f3dd7-4af6-4e32-832d-8c711682ef46","ios":"levelo://app?vid=c86f3dd7-4af6-4e32-832d-8c711682ef46"},"vehicle_type_id":"4","last_reported":1743510001,"current_range_meters":10000,"station_id":"ce4bhm92rcd13ifvqglg","pricing_plan_id":"cebpf4jnsgd1na2vs0mg"},{"bike_id":"044c9547-458c-473f-ae33-d5525ff51ce8","system_id":"levelo_inurba_marseille","lat":43.30066,"lon":5.3865,"is_reserved":false,"is_disabled":false,"rental_uris":{"android":"levelo://app?vid=044c9547-458c-473f-ae33-d5525ff51ce8","ios":"levelo://app?vid=044c9547-458c-473f-ae33-d5525ff51ce8"},"vehicle_type_id":"4","last_reported":1743510001,"current_range_meters":10000,"station_id":"","pricing_plan_id":"cebpf4jnsgd1na2vs0mg"},{"bike_id":"649b5ad5-62ac-4bfd-a6cd-60fc43d8fef1","system_id":"levelo_inurba_marseille","lat":43.29284,"lon":5.39825,"is_reserved":false,"is_disabled":false,"rental_uris":{"android":"levelo://app?vid=649b5ad5-62ac-4bfd-a6cd-60fc43d8fef1","ios":"levelo://app?vid=649b5ad5-62ac-4bfd-a6cd-60fc43d8fef1"},"vehicle_type_id":"4","last_reported":1743510001,"current_range_meters":10000,"station_id":"","pricing_plan_id":"cebpf4jnsgd1na2vs0mg"},{"bike_id":"ad9d44f5-96ad-4033-96dd-95dec6639cb3","system_id":"levelo_inurba_marseille","lat":43.30934,"lon":5.4015,"is_reserved":false,"is_disabled":false,"rental_uris":{"android":"levelo://app?vid=ad9d44f5-96ad-4033-96dd-95dec6639cb3","ios":"levelo://app?vid=ad9d44f5-96ad-4033-96dd-95dec6639cb3"},"vehicle_type_id":"4","last_reported":1743510001,"current_range_meters":10800,"station_id":"ce4bgvp2rcd13ifvqct0","pricing_plan_id":"cebpf4jnsgd1na2vs0mg"},{"bike_id":"f4cd729f-c438-4ed7-ac94-85b6e65c4870","system_id":"levelo_inurba_marseille","lat":43.308308,"lon":5.391786,"is_reserved":false,"is_disabled":false,"rental_uris":{"android":"levelo://app?vid=f4cd729f-c438-4ed7-ac94-85b6e65c4870","ios":"levelo://app?vid=f4cd729f-c438-4ed7-ac94-85b6e65c4870"},"vehicle_type_id":"4","last_reported":1743510001,"current_range_meters":10800,"station_id":"ce4bgvp2rcd13ifvqct0","pricing_plan_id":"cebpf4jnsgd1na2vs0mg"},{"bike_id":"5be2f0be-0b06-4b55-877f-0f3355fd4964","system_id":"levelo_inurba_marseille","lat":43.31244,"lon":5.36869,"is_reserved":false,"is_disabled":false,"rental_uris":{"android":"levelo://app?vid=5be2f0be-0b06-4b55-877f-0f3355fd4964","ios":"levelo://app?vid=5be2f0be-0b06-4b55-877f-0f3355fd4964"},"vehicle_type_id":"4","last_reported":1743510001,"current_range_meters":10800,"station_id":"ce4bgl92rcd13ifvqbq0","pricing_plan_id":"cebpf4jnsgd1na2vs0mg"},{"bike_id":"42ca75fc-5455-455e-83fa-8a35f9431320","system_id":"levelo_inurba_marseille","lat":43.28408,"lon":5.34995,"is_reserved":false,"is_disabled":false,"rental_uris":{"android":"levelo://app?vid=42ca75fc-5455-455e-83fa-8a35f9431320","ios":"levelo://app?vid=42ca75fc-5455-455e-83fa-8a35f9431320"},"vehicle_type_id":"4","last_reported":1743510001,"current_range_meters":10800,"station_id":"ce4bhbh2rcd13ifvqepg","pricing_plan_id":"cebpf4jnsgd1na2vs0mg"},{"bike_id":"d36c9fca-a2c0-4296-bcef-56151ccc5b88","system_id":"levelo_inurba_marseille","lat":43.26957,"lon":5.38633,"is_reserved":false,"is_disabled":false,"rental_uris":{"android":"levelo://app?vid=d36c9fca-a2c0-4296-bcef-56151ccc5b88","ios":"levelo://app?vid=d36c9fca-a2c0-4296-bcef-56151ccc5b88"},"vehicle_type_id":"4","last_reported":1743510001,"current_range_meters":10800,"station_id":"ce4bhh92rcd13ifvqfh0","pricing_plan_id":"cebpf4jnsgd1na2vs0mg"},{"bike_id":"a495ab47-72d1-4f9e-8b95-72d772792f33","system_id":"levelo_inurba_marseille","lat":43.30443,"lon":5.36848,"is_reserved":false,"is_disabled":false,"rental_uris":{"android":"levelo://app?vid=a495ab47-72d1-4f9e-8b95-72d772792f33","ios":"levelo://app?vid=a495ab47-72d1-4f9e-8b95-72d772792f33"},"vehicle_type_id":"4","last_reported":1743510001,"current_range_meters":10800,"station_id":"","pricing_plan_id":"cebpf4jnsgd1na2vs0mg"},{"bike_id":"8d4e4297-2577-4a57-b6d7-078f55eb3fb4","system_id":"levelo_inurba_marseille","lat":43.29599,"lon":5.38094,"is_reserved":false,"is_disabled":false,"rental_uris":{"android":"levelo://app?vid=8d4e4297-2577-4a57-b6d7-078f55eb3fb4","ios":"levelo://app?vid=8d4e4297-2577-4a57-b6d7-078f55eb3fb4"},"vehicle_type_id":"4","last_reported":1743510001,"current_range_meters":11600,"station_id":"ce4bgl12rcd13ifvqbo0","pricing_plan_id":"cebpf4jnsgd1na2vs0mg"},{"bike_id":"d2d5cd71-79a2-4211-a664-4e56ff4a87ae","system_id":"levelo_inurba_marseille","lat":43.25866,"lon":5.39918,"is_reserved":false,"is_disabled":false,"rental_uris":{"android":"levelo://app?vid=d2d5cd71-79a2-4211-a664-4e56ff4a87ae","ios":"levelo://app?vid=d2d5cd71-79a2-4211-a664-4e56ff4a87ae"},"vehicle_type_id":"4","last_reported":1743510001,"current_range_meters":10800,"station_id":"ce4bhl92rcd13ifvqghg","pricing_plan_id":"cebpf4jnsgd1na2vs0mg"},{"bike_id":"b02e4a43-9717-4b59-8e00-ba96563e9124","system_id":"levelo_inurba_marseille","lat":43.2837,"lon":5.38095,"is_reserved":false,"is_disabled":false,"rental_uris":{"android":"levelo://app?vid=b02e4a43-9717-4b59-8e00-ba96563e9124","ios":"levelo://app?vid=b02e4a43-9717-4b59-8e00-ba96563e9124"},"vehicle_type_id":"4","last_reported":1743510001,"current_range_meters":10800,"station_id":"ce4bh412rcd13ifvqdr0","pricing_plan_id":"cebpf4jnsgd1na2vs0mg"},{"bike_id":"bef69ef1-64c3-4ab7-9abe-ce83c4bd40a2","system_id":"levelo_inurba_marseille","lat":43.30151,"lon":5.38097,"is_reserved":false,"is_disabled":false,"rental_uris":{"android":"levelo://app?vid=bef69ef1-64c3-4ab7-9abe-ce83c4bd40a2","ios":"levelo://app?vid=bef69ef1-64c3-4ab7-9abe-ce83c4bd40a2"},"vehicle_type_id":"4","last_reported":1743510001,"current_range_meters":10800,"station_id":"ce4bgjp2rcd13ifvqbh0","pricing_plan_id":"cebpf4jnsgd1na2vs0mg"},{"bike_id":"255d64d5-6d49-42ee-bdc2-3cd0fa212b35","system_id":"levelo_inurba_marseille","lat":43.28858,"lon":5.39325,"is_reserved":false,"is_disabled":false,"rental_uris":{"android":"levelo://app?vid=255d64d5-6d49-42ee-bdc2-3cd0fa212b35","ios":"levelo://app?vid=255d64d5-6d49-42ee-bdc2-3cd0fa212b35"},"vehicle_type_id":"4","last_reported":1743510001,"current_range_meters":13600,"station_id":"ce4bh2p2rcd13ifvqdi0","pricing_plan_id":"cebpf4jnsgd1na2vs0mg"},{"bike_id":"0da7a2ce-f87e-4451-836f-83f8990c003c","system_id":"levelo_inurba_marseille","lat":43.3028,"lon":5.37714,"is_reserved":false,"is_disabled":false,"rental_uris":{"android":"levelo://app?vid=0da7a2ce-f87e-4451-836f-83f8990c003c","ios":"levelo://app?vid=0da7a2ce-f87e-4451-836f-83f8990c003c"},"vehicle_type_id":"4","last_reported":1743510001,"current_range_meters":10800,"station_id":"ce4bguh2rcd13ifvqcj0","pricing_plan_id":"cebpf4jnsgd1na2vs0mg"},{"bike_id":"25526cfa-8f51-402c-a25b-fc209020ed58","system_id":"levelo_inurba_marseille","lat":43.3096,"lon":5.39076,"is_reserved":false,"is_disabled":false,"rental_uris":{"android":"levelo://app?vid=25526cfa-8f51-402c-a25b-fc209020ed58","ios":"levelo://app?vid=25526cfa-8f51-402c-a25b-fc209020ed58"},"vehicle_type_id":"4","last_reported":1743510001,"current_range_meters":10800,"station_id":"ce4bgup2rcd13ifvqco0","pricing_plan_id":"cebpf4jnsgd1na2vs0mg"},{"bike_id":"2c567be4-626d-4614-8796-6c92d09d2fa1","system_id":"levelo_inurba_marseille","lat":43.28921,"lon":5.37078,"is_reserved":false,"is_disabled":false,"rental_uris":{"android":"levelo://app?vid=2c567be4-626d-4614-8796-6c92d09d2fa1","ios":"levelo://app?vid=2c567be4-626d-4614-8796-6c92d09d2fa1"},"vehicle_type_id":"4","last_reported":1743510001,"current_range_meters":11200,"station_id":"","pricing_plan_id":"cebpf4jnsgd1na2vs0mg"},{"bike_id":"be21051a-47ac-4ec8-8afd-3c207d05b152","system_id":"levelo_inurba_marseille","lat":43.28414,"lon":5.34975,"is_reserved":false,"is_disabled":false,"rental_uris":{"android":"levelo://app?vid=be21051a-47ac-4ec8-8afd-3c207d05b152","ios":"levelo://app?vid=be21051a-47ac-4ec8-8afd-3c207d05b152"},"vehicle_type_id":"4","last_reported":1743510001,"current_range_meters":11200,"station_id":"ce4bhbh2rcd13ifvqepg","pricing_plan_id":"cebpf4jnsgd1na2vs0mg"},{"bike_id":"d1fce3ab-df86-4997-9f31-e91ff7e54d78","system_id":"levelo_inurba_marseille","lat":43.23154,"lon":5.43709,"is_reserved":false,"is_disabled":false,"rental_uris":{"android":"levelo://app?vid=d1fce3ab-df86-4997-9f31-e91ff7e54d78","ios":"levelo://app?vid=d1fce3ab-df86-4997-9f31-e91ff7e54d78"},"vehicle_type_id":"4","last_reported":1743510001,"current_range_meters":11200,"station_id":"ce4bhmp2rcd13ifvqgog","pricing_plan_id":"cebpf4jnsgd1na2vs0mg"},{"bike_id":"c884ea63-085e-42fe-adc5-99bac559525a","system_id":"levelo_inurba_marseille","lat":43.2932,"lon":5.40056,"is_reserved":false,"is_disabled":true,"rental_uris":{"android":"levelo://app?vid=c884ea63-085e-42fe-adc5-99bac559525a","ios":"levelo://app?vid=c884ea63-085e-42fe-adc5-99bac559525a"},"vehicle_type_id":"4","last_reported":1743510001,"current_range_meters":11200,"station_id":"ce4bh312rcd13ifvqdk0","pricing_plan_id":"cebpf4jnsgd1na2vs0mg"},{"bike_id":"3437675b-e191-4c2e-b111-4e477ea01a85","system_id":"levelo_inurba_marseille","lat":43.296241,"lon":5.377176,"is_reserved":false,"is_disabled":false,"rental_uris":{"android":"levelo://app?vid=3437675b-e191-4c2e-b111-4e477ea01a85","ios":"levelo://app?vid=3437675b-e191-4c2e-b111-4e477ea01a85"},"vehicle_type_id":"4","last_reported":1743510001,"current_range_meters":10800,"station_id":"ce4bgi92rcd13ifvqb90","pricing_plan_id":"cebpf4jnsgd1na2vs0mg"},{"bike_id":"5f6eda96-1e32-4935-a08d-ade700a41ce1","system_id":"levelo_inurba_marseille","lat":43.30454,"lon":5.3789,"is_reserved":false,"is_disabled":true,"rental_uris":{"android":"levelo://app?vid=5f6eda96-1e32-4935-a08d-ade700a41ce1","ios":"levelo://app?vid=5f6eda96-1e32-4935-a08d-ade700a41ce1"},"vehicle_type_id":"4","last_reported":1743510001,"current_range_meters":11200,"station_id":"ce4bgup2rcd13ifvqcn0","pricing_plan_id":"cebpf4jnsgd1na2vs0mg"},{"bike_id":"41e7a323-5090-4c6c-9dbf-b8655af19255","system_id":"levelo_inurba_marseille","lat":43.31221,"lon":5.36838,"is_reserved":false,"is_disabled":false,"rental_uris":{"android":"levelo://app?vid=41e7a323-5090-4c6c-9dbf-b8655af19255","ios":"levelo://app?vid=41e7a323-5090-4c6c-9dbf-b8655af19255"},"vehicle_type_id":"4","last_reported":1743510001,"current_range_meters":11200,"station_id":"ce4bgl92rcd13ifvqbq0","pricing_plan_id":"cebpf4jnsgd1na2vs0mg"},{"bike_id":"e47bc61d-df2d-41b3-b26b-dd94e6e5e301","system_id":"levelo_inurba_marseille","lat":43.26242,"lon":5.42137,"is_reserved":false,"is_disabled":false,"rental_uris":{"android":"levelo://app?vid=e47bc61d-df2d-41b3-b26b-dd94e6e5e301","ios":"levelo://app?vid=e47bc61d-df2d-41b3-b26b-dd94e6e5e301"},"vehicle_type_id":"4","last_reported":1743510001,"current_range_meters":11200,"station_id":"","pricing_plan_id":"cebpf4jnsgd1na2vs0mg"},{"bike_id":"3ba6ccff-1eda-46d4-acbd-01dbdd65bb76","system_id":"levelo_inurba_marseille","lat":43.29872,"lon":5.43665,"is_reserved":false,"is_disabled":false,"rental_uris":{"android":"levelo://app?vid=3ba6ccff-1eda-46d4-acbd-01dbdd65bb76","ios":"levelo://app?vid=3ba6ccff-1eda-46d4-acbd-01dbdd65bb76"},"vehicle_type_id":"4","last_reported":1743510001,"current_range_meters":11200,"station_id":"ce4bhpp2rcd13ifvqhfg","pricing_plan_id":"cebpf4jnsgd1na2vs0mg"},{"bike_id":"93a428f6-6bad-4a02-8565-b91a2bee43a8","system_id":"levelo_inurba_marseille","lat":43.284112,"lon":5.375104,"is_reserved":false,"is_disabled":false,"rental_uris":{"android":"levelo://app?vid=93a428f6-6bad-4a02-8565-b91a2bee43a8","ios":"levelo://app?vid=93a428f6-6bad-4a02-8565-b91a2bee43a8"},"vehicle_type_id":"4","last_reported":1743510001,"current_range_meters":11200,"station_id":"ce4bh412rcd13ifvqds0","pricing_plan_id":"cebpf4jnsgd1na2vs0mg"},{"bike_id":"d11f848f-ccb7-4b74-aeeb-bd428a31681c","system_id":"levelo_inurba_marseille","lat":43.30948,"lon":5.40173,"is_reserved":false,"is_disabled":false,"rental_uris":{"android":"levelo://app?vid=d11f848f-ccb7-4b74-aeeb-bd428a31681c","ios":"levelo://app?vid=d11f848f-ccb7-4b74-aeeb-bd428a31681c"},"vehicle_type_id":"4","last_reported":1743510001,"current_range_meters":11600,"station_id":"ce4bgvp2rcd13ifvqct0","pricing_plan_id":"cebpf4jnsgd1na2vs0mg"},{"bike_id":"26ce4ba2-9610-4602-821f-588ab770dcb2","system_id":"levelo_inurba_marseille","lat":43.29626,"lon":5.37731,"is_reserved":false,"is_disabled":false,"rental_uris":{"android":"levelo://app?vid=26ce4ba2-9610-4602-821f-588ab770dcb2","ios":"levelo://app?vid=26ce4ba2-9610-4602-821f-588ab770dcb2"},"vehicle_type_id":"4","last_reported":1743510001,"current_range_meters":11600,"station_id":"ce4bgi92rcd13ifvqb90","pricing_plan_id":"cebpf4jnsgd1na2vs0mg"},{"bike_id":"27773214-4312-4127-aa54-e74cba3d6d07","system_id":"levelo_inurba_marseille","lat":43.27792,"lon":5.40736,"is_reserved":false,"is_disabled":false,"rental_uris":{"android":"levelo://app?vid=27773214-4312-4127-aa54-e74cba3d6d07","ios":"levelo://app?vid=27773214-4312-4127-aa54-e74cba3d6d07"},"vehicle_type_id":"4","last_reported":1743510001,"current_range_meters":11600,"station_id":"ce4bhnh2rcd13ifvqgtg","pricing_plan_id":"cebpf4jnsgd1na2vs0mg"},{"bike_id":"398ca055-084d-42d0-8ca9-ed591e77e956","system_id":"levelo_inurba_marseille","lat":43.23146,"lon":5.43715,"is_reserved":false,"is_disabled":false,"rental_uris":{"android":"levelo://app?vid=398ca055-084d-42d0-8ca9-ed591e77e956","ios":"levelo://app?vid=398ca055-084d-42d0-8ca9-ed591e77e956"},"vehicle_type_id":"4","last_reported":1743510001,"current_range_meters":11600,"station_id":"ce4bhmp2rcd13ifvqgog","pricing_plan_id":"cebpf4jnsgd1na2vs0mg"},{"bike_id":"ab52962f-bc93-4ddd-be76-164eb31c1a2f","system_id":"levelo_inurba_marseille","lat":43.25003,"lon":5.3894,"is_reserved":false,"is_disabled":false,"rental_uris":{"android":"levelo://app?vid=ab52962f-bc93-4ddd-be76-164eb31c1a2f","ios":"levelo://app?vid=ab52962f-bc93-4ddd-be76-164eb31c1a2f"},"vehicle_type_id":"4","last_reported":1743510001,"current_range_meters":11600,"station_id":"ce4bhgp2rcd13ifvqfd0","pricing_plan_id":"cebpf4jnsgd1na2vs0mg"},{"bike_id":"bf98cb9c-37fd-42e9-9af0-61b24e7e4022","system_id":"levelo_inurba_marseille","lat":43.290936,"lon":5.38145,"is_reserved":false,"is_disabled":false,"rental_uris":{"android":"levelo://app?vid=bf98cb9c-37fd-42e9-9af0-61b24e7e4022","ios":"levelo://app?vid=bf98cb9c-37fd-42e9-9af0-61b24e7e4022"},"vehicle_type_id":"4","last_reported":1743510001,"current_range_meters":12000,"station_id":"ce4bh512rcd13ifvqe2g","pricing_plan_id":"cebpf4jnsgd1na2vs0mg"},{"bike_id":"f9556671-f8e9-4ef6-b997-21a30e85c7b2","system_id":"levelo_inurba_marseille","lat":43.23156,"lon":5.43723,"is_reserved":false,"is_disabled":false,"rental_uris":{"android":"levelo://app?vid=f9556671-f8e9-4ef6-b997-21a30e85c7b2","ios":"levelo://app?vid=f9556671-f8e9-4ef6-b997-21a30e85c7b2"},"vehicle_type_id":"4","last_reported":1743510001,"current_range_meters":12000,"station_id":"ce4bhmp2rcd13ifvqgog","pricing_plan_id":"cebpf4jnsgd1na2vs0mg"},{"bike_id":"b2242a78-1a46-4f78-a052-02e3dba2d6e2","system_id":"levelo_inurba_marseille","lat":43.25586,"lon":5.38245,"is_reserved":false,"is_disabled":false,"rental_uris":{"android":"levelo://app?vid=b2242a78-1a46-4f78-a052-02e3dba2d6e2","ios":"levelo://app?vid=b2242a78-1a46-4f78-a052-02e3dba2d6e2"},"vehicle_type_id":"4","last_reported":1743510001,"current_range_meters":12000,"station_id":"ce4bhih2rcd13ifvqfs0","pricing_plan_id":"cebpf4jnsgd1na2vs0mg"},{"bike_id":"9d8b51bf-fd65-426c-9799-839498b24ee9","system_id":"levelo_inurba_marseille","lat":43.30667,"lon":5.36625,"is_reserved":false,"is_disabled":true,"rental_uris":{"android":"levelo://app?vid=9d8b51bf-fd65-426c-9799-839498b24ee9","ios":"levelo://app?vid=9d8b51bf-fd65-426c-9799-839498b24ee9"},"vehicle_type_id":"4","last_reported":1743510001,"current_range_meters":12000,"station_id":"","pricing_plan_id":"cebpf4jnsgd1na2vs0mg"},{"bike_id":"16dd592e-7732-47c3-a664-305413913b8b","system_id":"levelo_inurba_marseille","lat":43.28444,"lon":5.35906,"is_reserved":false,"is_disabled":true,"rental_uris":{"android":"levelo://app?vid=16dd592e-7732-47c3-a664-305413913b8b","ios":"levelo://app?vid=16dd592e-7732-47c3-a664-305413913b8b"},"vehicle_type_id":"4","last_reported":1743510001,"current_range_meters":12000,"station_id":"ce4bhah2rcd13ifvqei0","pricing_plan_id":"cebpf4jnsgd1na2vs0mg"},{"bike_id":"1b63ccb2-1298-4d96-b7f3-6ad6cace00e9","system_id":"levelo_inurba_marseille","lat":43.26129,"lon":5.4001,"is_reserved":false,"is_disabled":false,"rental_uris":{"android":"levelo://app?vid=1b63ccb2-1298-4d96-b7f3-6ad6cace00e9","ios":"levelo://app?vid=1b63ccb2-1298-4d96-b7f3-6ad6cace00e9"},"vehicle_type_id":"4","last_reported":1743510001,"current_range_meters":12000,"station_id":"","pricing_plan_id":"cebpf4jnsgd1na2vs0mg"},{"bike_id":"7d24f7f3-5a91-46ae-971d-a7a715309919","system_id":"levelo_inurba_marseille","lat":43.2319,"lon":5.39969,"is_reserved":false,"is_disabled":false,"rental_uris":{"android":"levelo://app?vid=7d24f7f3-5a91-46ae-971d-a7a715309919","ios":"levelo://app?vid=7d24f7f3-5a91-46ae-971d-a7a715309919"},"vehicle_type_id":"4","last_reported":1743510001,"current_range_meters":12000,"station_id":"ce4bhn12rcd13ifvqgqg","pricing_plan_id":"cebpf4jnsgd1na2vs0mg"},{"bike_id":"b18d61be-1314-4787-bdc3-677619cdb9f9","system_id":"levelo_inurba_marseille","lat":43.29939,"lon":5.37054,"is_reserved":false,"is_disabled":false,"rental_uris":{"android":"levelo://app?vid=b18d61be-1314-4787-bdc3-677619cdb9f9","ios":"levelo://app?vid=b18d61be-1314-4787-bdc3-677619cdb9f9"},"vehicle_type_id":"4","last_reported":1743510001,"current_range_meters":12000,"station_id":"","pricing_plan_id":"cebpf4jnsgd1na2vs0mg"},{"bike_id":"6b8d5371-b5ab-4832-8c8e-12234f9dff78","system_id":"levelo_inurba_marseille","lat":43.3176,"lon":5.39019,"is_reserved":false,"is_disabled":false,"rental_uris":{"android":"levelo://app?vid=6b8d5371-b5ab-4832-8c8e-12234f9dff78","ios":"levelo://app?vid=6b8d5371-b5ab-4832-8c8e-12234f9dff78"},"vehicle_type_id":"4","last_reported":1743510001,"current_range_meters":12000,"station_id":"ce4bhqp2rcd13ifvqhng","pricing_plan_id":"cebpf4jnsgd1na2vs0mg"},{"bike_id":"025b5dd4-3c51-4573-b622-a8341c4be991","system_id":"levelo_inurba_marseille","lat":43.27495,"lon":5.42458,"is_reserved":false,"is_disabled":false,"rental_uris":{"android":"levelo://app?vid=025b5dd4-3c51-4573-b622-a8341c4be991","ios":"levelo://app?vid=025b5dd4-3c51-4573-b622-a8341c4be991"},"vehicle_type_id":"4","last_reported":1743510001,"current_range_meters":12000,"station_id":"ce4bhn92rcd13ifvqgrg","pricing_plan_id":"cebpf4jnsgd1na2vs0mg"},{"bike_id":"f2dfd2a0-5846-4c43-9aae-f5b5157fea3b","system_id":"levelo_inurba_marseille","lat":43.28622,"lon":5.35109,"is_reserved":false,"is_disabled":false,"rental_uris":{"android":"levelo://app?vid=f2dfd2a0-5846-4c43-9aae-f5b5157fea3b","ios":"levelo://app?vid=f2dfd2a0-5846-4c43-9aae-f5b5157fea3b"},"vehicle_type_id":"4","last_reported":1743510001,"current_range_meters":12000,"station_id":"ce4bhch2rcd13ifvqeug","pricing_plan_id":"cebpf4jnsgd1na2vs0mg"},{"bike_id":"46e19476-0f2a-4241-81db-1527f5876903","system_id":"levelo_inurba_marseille","lat":43.295092,"lon":5.422982,"is_reserved":false,"is_disabled":false,"rental_uris":{"android":"levelo://app?vid=46e19476-0f2a-4241-81db-1527f5876903","ios":"levelo://app?vid=46e19476-0f2a-4241-81db-1527f5876903"},"vehicle_type_id":"4","last_reported":1743510001,"current_range_meters":12000,"station_id":"ce4bhph2rcd13ifvqhdg","pricing_plan_id":"cebpf4jnsgd1na2vs0mg"},{"bike_id":"508d6365-50eb-4622-8429-d089e0904068","system_id":"levelo_inurba_marseille","lat":43.3014,"lon":5.3807,"is_reserved":false,"is_disabled":false,"rental_uris":{"android":"levelo://app?vid=508d6365-50eb-4622-8429-d089e0904068","ios":"levelo://app?vid=508d6365-50eb-4622-8429-d089e0904068"},"vehicle_type_id":"4","last_reported":1743510001,"current_range_meters":12400,"station_id":"ce4bgjp2rcd13ifvqbh0","pricing_plan_id":"cebpf4jnsgd1na2vs0mg"},{"bike_id":"34ead93f-0548-429e-a369-3703fc242f80","system_id":"levelo_inurba_marseille","lat":43.25583,"lon":5.38226,"is_reserved":false,"is_disabled":false,"rental_uris":{"android":"levelo://app?vid=34ead93f-0548-429e-a369-3703fc242f80","ios":"levelo://app?vid=34ead93f-0548-429e-a369-3703fc242f80"},"vehicle_type_id":"4","last_reported":1743510001,"current_range_meters":12400,"station_id":"ce4bhih2rcd13ifvqfs0","pricing_plan_id":"cebpf4jnsgd1na2vs0mg"},{"bike_id":"44ed2b80-bbdd-4ed5-b7eb-dffc15cae3d1","system_id":"levelo_inurba_marseille","lat":43.260247,"lon":5.375503,"is_reserved":false,"is_disabled":false,"rental_uris":{"android":"levelo://app?vid=44ed2b80-bbdd-4ed5-b7eb-dffc15cae3d1","ios":"levelo://app?vid=44ed2b80-bbdd-4ed5-b7eb-dffc15cae3d1"},"vehicle_type_id":"4","last_reported":1743510001,"current_range_meters":12400,"station_id":"ce4bhgh2rcd13ifvqfa0","pricing_plan_id":"cebpf4jnsgd1na2vs0mg"},{"bike_id":"b73a18d2-3f00-4ff0-b7ec-3013f3ba1501","system_id":"levelo_inurba_marseille","lat":43.33604,"lon":5.41028,"is_reserved":false,"is_disabled":false,"rental_uris":{"android":"levelo://app?vid=b73a18d2-3f00-4ff0-b7ec-3013f3ba1501","ios":"levelo://app?vid=b73a18d2-3f00-4ff0-b7ec-3013f3ba1501"},"vehicle_type_id":"4","last_reported":1743510001,"current_range_meters":12400,"station_id":"ce4bhqh2rcd13ifvqhmg","pricing_plan_id":"cebpf4jnsgd1na2vs0mg"},{"bike_id":"36f55ed9-f95b-47db-b6ea-657436867115","system_id":"levelo_inurba_marseille","lat":43.31352,"lon":5.36707,"is_reserved":false,"is_disabled":false,"rental_uris":{"android":"levelo://app?vid=36f55ed9-f95b-47db-b6ea-657436867115","ios":"levelo://app?vid=36f55ed9-f95b-47db-b6ea-657436867115"},"vehicle_type_id":"4","last_reported":1743510001,"current_range_meters":12400,"station_id":"ce4bgr92rcd13ifvqc6g","pricing_plan_id":"cebpf4jnsgd1na2vs0mg"},{"bike_id":"9972bf02-1485-4b36-847d-3a2920a34e7a","system_id":"levelo_inurba_marseille","lat":43.27942,"lon":5.41053,"is_reserved":false,"is_disabled":false,"rental_uris":{"android":"levelo://app?vid=9972bf02-1485-4b36-847d-3a2920a34e7a","ios":"levelo://app?vid=9972bf02-1485-4b36-847d-3a2920a34e7a"},"vehicle_type_id":"4","last_reported":1743510001,"current_range_meters":12400,"station_id":"ce4bhnp2rcd13ifvqh0g","pricing_plan_id":"cebpf4jnsgd1na2vs0mg"},{"bike_id":"9cf5c720-777e-4839-bee3-9ce102fb0cb4","system_id":"levelo_inurba_marseille","lat":43.28949,"lon":5.364,"is_reserved":false,"is_disabled":false,"rental_uris":{"android":"levelo://app?vid=9cf5c720-777e-4839-bee3-9ce102fb0cb4","ios":"levelo://app?vid=9cf5c720-777e-4839-bee3-9ce102fb0cb4"},"vehicle_type_id":"4","last_reported":1743510001,"current_range_meters":12800,"station_id":"ce4bhc92rcd13ifvqetg","pricing_plan_id":"cebpf4jnsgd1na2vs0mg"},{"bike_id":"c3742909-8ac1-45e8-bbc0-0a14494abaa8","system_id":"levelo_inurba_marseille","lat":43.246405,"lon":5.388898,"is_reserved":false,"is_disabled":false,"rental_uris":{"android":"levelo://app?vid=c3742909-8ac1-45e8-bbc0-0a14494abaa8","ios":"levelo://app?vid=c3742909-8ac1-45e8-bbc0-0a14494abaa8"},"vehicle_type_id":"4","last_reported":1743510001,"current_range_meters":12800,"station_id":"ce4bhg12rcd13ifvqf60","pricing_plan_id":"cebpf4jnsgd1na2vs0mg"},{"bike_id":"4220d26d-272d-4b23-9cec-a79c1d919b49","system_id":"levelo_inurba_marseille","lat":43.30604,"lon":5.37107,"is_reserved":false,"is_disabled":false,"rental_uris":{"android":"levelo://app?vid=4220d26d-272d-4b23-9cec-a79c1d919b49","ios":"levelo://app?vid=4220d26d-272d-4b23-9cec-a79c1d919b49"},"vehicle_type_id":"4","last_reported":1743510001,"current_range_meters":12800,"station_id":"","pricing_plan_id":"cebpf4jnsgd1na2vs0mg"},{"bike_id":"fe1a7222-b71e-4d64-b299-a3e842e12b4b","system_id":"levelo_inurba_marseille","lat":43.24049,"lon":5.37765,"is_reserved":false,"is_disabled":false,"rental_uris":{"android":"levelo://app?vid=fe1a7222-b71e-4d64-b299-a3e842e12b4b","ios":"levelo://app?vid=fe1a7222-b71e-4d64-b299-a3e842e12b4b"},"vehicle_type_id":"4","last_reported":1743510001,"current_range_meters":13600,"station_id":"ce4bhnp2rcd13ifvqgvg","pricing_plan_id":"cebpf4jnsgd1na2vs0mg"},{"bike_id":"86354ae6-2ad3-4c03-a340-c661e15634b2","system_id":"levelo_inurba_marseille","lat":43.30139,"lon":5.3742,"is_reserved":false,"is_disabled":false,"rental_uris":{"android":"levelo://app?vid=86354ae6-2ad3-4c03-a340-c661e15634b2","ios":"levelo://app?vid=86354ae6-2ad3-4c03-a340-c661e15634b2"},"vehicle_type_id":"4","last_reported":1743510001,"current_range_meters":13600,"station_id":"ce4bgs92rcd13ifvqcc0","pricing_plan_id":"cebpf4jnsgd1na2vs0mg"},{"bike_id":"c6e1823f-36e5-44d5-a360-2d230f636f2b","system_id":"levelo_inurba_marseille","lat":43.298697,"lon":5.397241,"is_reserved":false,"is_disabled":false,"rental_uris":{"android":"levelo://app?vid=c6e1823f-36e5-44d5-a360-2d230f636f2b","ios":"levelo://app?vid=c6e1823f-36e5-44d5-a360-2d230f636f2b"},"vehicle_type_id":"4","last_reported":1743510001,"current_range_meters":13600,"station_id":"ce4bh0h2rcd13ifvqd50","pricing_plan_id":"cebpf4jnsgd1na2vs0mg"},{"bike_id":"017816c2-5951-4534-b964-255626c4ed1d","system_id":"levelo_inurba_marseille","lat":43.30602,"lon":5.39357,"is_reserved":false,"is_disabled":false,"rental_uris":{"android":"levelo://app?vid=017816c2-5951-4534-b964-255626c4ed1d","ios":"levelo://app?vid=017816c2-5951-4534-b964-255626c4ed1d"},"vehicle_type_id":"4","last_reported":1743510001,"current_range_meters":13600,"station_id":"ce4bh0p2rcd13ifvqd80","pricing_plan_id":"cebpf4jnsgd1na2vs0mg"},{"bike_id":"6e6a66e5-58ca-4db1-9695-b46ed5c28827","system_id":"levelo_inurba_marseille","lat":43.31799,"lon":5.36832,"is_reserved":false,"is_disabled":false,"rental_uris":{"android":"levelo://app?vid=6e6a66e5-58ca-4db1-9695-b46ed5c28827","ios":"levelo://app?vid=6e6a66e5-58ca-4db1-9695-b46ed5c28827"},"vehicle_type_id":"4","last_reported":1743510001,"current_range_meters":13600,"station_id":"","pricing_plan_id":"cebpf4jnsgd1na2vs0mg"},{"bike_id":"bc5e862d-4e08-41a1-b2a3-2a3c9b7f62d2","system_id":"levelo_inurba_marseille","lat":43.291986,"lon":5.375894,"is_reserved":false,"is_disabled":false,"rental_uris":{"android":"levelo://app?vid=bc5e862d-4e08-41a1-b2a3-2a3c9b7f62d2","ios":"levelo://app?vid=bc5e862d-4e08-41a1-b2a3-2a3c9b7f62d2"},"vehicle_type_id":"4","last_reported":1743510001,"current_range_meters":13600,"station_id":"ce4bh412rcd13ifvqds0","pricing_plan_id":"cebpf4jnsgd1na2vs0mg"},{"bike_id":"97c06abc-6838-48cf-986e-175a38aa9b87","system_id":"levelo_inurba_marseille","lat":43.2406,"lon":5.37748,"is_reserved":false,"is_disabled":false,"rental_uris":{"android":"levelo://app?vid=97c06abc-6838-48cf-986e-175a38aa9b87","ios":"levelo://app?vid=97c06abc-6838-48cf-986e-175a38aa9b87"},"vehicle_type_id":"4","last_reported":1743510001,"current_range_meters":13600,"station_id":"ce4bhnp2rcd13ifvqgvg","pricing_plan_id":"cebpf4jnsgd1na2vs0mg"},{"bike_id":"1d7c5a10-22ee-40b8-9d5b-50b4b6475211","system_id":"levelo_inurba_marseille","lat":43.27976,"lon":5.38744,"is_reserved":false,"is_disabled":false,"rental_uris":{"android":"levelo://app?vid=1d7c5a10-22ee-40b8-9d5b-50b4b6475211","ios":"levelo://app?vid=1d7c5a10-22ee-40b8-9d5b-50b4b6475211"},"vehicle_type_id":"4","last_reported":1743510001,"current_range_meters":14800,"station_id":"ce4bhg12rcd13ifvqf80","pricing_plan_id":"cebpf4jnsgd1na2vs0mg"},{"bike_id":"45475272-c32c-4c26-ace2-8962b57944a1","system_id":"levelo_inurba_marseille","lat":43.2791,"lon":5.39577,"is_reserved":false,"is_disabled":false,"rental_uris":{"android":"levelo://app?vid=45475272-c32c-4c26-ace2-8962b57944a1","ios":"levelo://app?vid=45475272-c32c-4c26-ace2-8962b57944a1"},"vehicle_type_id":"4","last_reported":1743510001,"current_range_meters":13600,"station_id":"ce4bhf92rcd13ifvqf40","pricing_plan_id":"cebpf4jnsgd1na2vs0mg"},{"bike_id":"e6a636bb-bdd3-4a61-8e1b-aaec12e34a43","system_id":"levelo_inurba_marseille","lat":43.31387,"lon":5.36703,"is_reserved":false,"is_disabled":false,"rental_uris":{"android":"levelo://app?vid=e6a636bb-bdd3-4a61-8e1b-aaec12e34a43","ios":"levelo://app?vid=e6a636bb-bdd3-4a61-8e1b-aaec12e34a43"},"vehicle_type_id":"4","last_reported":1743510001,"current_range_meters":13600,"station_id":"ce4bgr92rcd13ifvqc6g","pricing_plan_id":"cebpf4jnsgd1na2vs0mg"},{"bike_id":"4474f66b-3eb6-4aea-af7b-d43fdaacf384","system_id":"levelo_inurba_marseille","lat":43.28209,"lon":5.40288,"is_reserved":false,"is_disabled":false,"rental_uris":{"android":"levelo://app?vid=4474f66b-3eb6-4aea-af7b-d43fdaacf384","ios":"levelo://app?vid=4474f66b-3eb6-4aea-af7b-d43fdaacf384"},"vehicle_type_id":"4","last_reported":1743510001,"current_range_meters":13600,"station_id":"","pricing_plan_id":"cebpf4jnsgd1na2vs0mg"},{"bike_id":"36ce5e4a-7774-4d2b-bf6a-310ea287ea7b","system_id":"levelo_inurba_marseille","lat":43.33606,"lon":5.41015,"is_reserved":false,"is_disabled":false,"rental_uris":{"android":"levelo://app?vid=36ce5e4a-7774-4d2b-bf6a-310ea287ea7b","ios":"levelo://app?vid=36ce5e4a-7774-4d2b-bf6a-310ea287ea7b"},"vehicle_type_id":"4","last_reported":1743510001,"current_range_meters":13600,"station_id":"ce4bhqh2rcd13ifvqhmg","pricing_plan_id":"cebpf4jnsgd1na2vs0mg"},{"bike_id":"6a18b88a-09df-4ff4-ad35-d293bbf3ce08","system_id":"levelo_inurba_marseille","lat":43.27997,"lon":5.40014,"is_reserved":false,"is_disabled":false,"rental_uris":{"android":"levelo://app?vid=6a18b88a-09df-4ff4-ad35-d293bbf3ce08","ios":"levelo://app?vid=6a18b88a-09df-4ff4-ad35-d293bbf3ce08"},"vehicle_type_id":"4","last_reported":1743510001,"current_range_meters":14000,"station_id":"ce4bho92rcd13ifvqh4g","pricing_plan_id":"cebpf4jnsgd1na2vs0mg"},{"bike_id":"5e5bcbf5-3aa1-4af3-900b-c58345968d1e","system_id":"levelo_inurba_marseille","lat":43.32379,"lon":5.38875,"is_reserved":false,"is_disabled":false,"rental_uris":{"android":"levelo://app?vid=5e5bcbf5-3aa1-4af3-900b-c58345968d1e","ios":"levelo://app?vid=5e5bcbf5-3aa1-4af3-900b-c58345968d1e"},"vehicle_type_id":"4","last_reported":1743510001,"current_range_meters":14000,"station_id":"ce4bhqp2rcd13ifvqhog","pricing_plan_id":"cebpf4jnsgd1na2vs0mg"},{"bike_id":"751cf7e1-9190-430c-a0c3-49d256190815","system_id":"levelo_inurba_marseille","lat":43.30945,"lon":5.36893,"is_reserved":false,"is_disabled":false,"rental_uris":{"android":"levelo://app?vid=751cf7e1-9190-430c-a0c3-49d256190815","ios":"levelo://app?vid=751cf7e1-9190-430c-a0c3-49d256190815"},"vehicle_type_id":"4","last_reported":1743510001,"current_range_meters":14000,"station_id":"","pricing_plan_id":"cebpf4jnsgd1na2vs0mg"},{"bike_id":"04c62fe9-d3ab-4077-a4d0-a0eb3faaaaec","system_id":"levelo_inurba_marseille","lat":43.313317,"lon":5.396983,"is_reserved":false,"is_disabled":false,"rental_uris":{"android":"levelo://app?vid=04c62fe9-d3ab-4077-a4d0-a0eb3faaaaec","ios":"levelo://app?vid=04c62fe9-d3ab-4077-a4d0-a0eb3faaaaec"},"vehicle_type_id":"4","last_reported":1743510001,"current_range_meters":14000,"station_id":"ce4bgvp2rcd13ifvqcu0","pricing_plan_id":"cebpf4jnsgd1na2vs0mg"},{"bike_id":"886ce82e-e84e-451d-afab-a925e8f198bb","system_id":"levelo_inurba_marseille","lat":43.309046,"lon":5.396503,"is_reserved":false,"is_disabled":false,"rental_uris":{"android":"levelo://app?vid=886ce82e-e84e-451d-afab-a925e8f198bb","ios":"levelo://app?vid=886ce82e-e84e-451d-afab-a925e8f198bb"},"vehicle_type_id":"4","last_reported":1743510001,"current_range_meters":14400,"station_id":"ce4bh012rcd13ifvqcv0","pricing_plan_id":"cebpf4jnsgd1na2vs0mg"},{"bike_id":"f616f89a-6b5f-47f2-be4a-c1252268f5f4","system_id":"levelo_inurba_marseille","lat":43.29415,"lon":5.38609,"is_reserved":false,"is_disabled":true,"rental_uris":{"android":"levelo://app?vid=f616f89a-6b5f-47f2-be4a-c1252268f5f4","ios":"levelo://app?vid=f616f89a-6b5f-47f2-be4a-c1252268f5f4"},"vehicle_type_id":"4","last_reported":1743510001,"current_range_meters":14400,"station_id":"ce4bh2h2rcd13ifvqdh0","pricing_plan_id":"cebpf4jnsgd1na2vs0mg"},{"bike_id":"a9392c32-b8e3-41f9-ae3c-96f82eb8a90f","system_id":"levelo_inurba_marseille","lat":43.23055,"lon":5.35494,"is_reserved":false,"is_disabled":false,"rental_uris":{"android":"levelo://app?vid=a9392c32-b8e3-41f9-ae3c-96f82eb8a90f","ios":"levelo://app?vid=a9392c32-b8e3-41f9-ae3c-96f82eb8a90f"},"vehicle_type_id":"4","last_reported":1743510001,"current_range_meters":14400,"station_id":"cpo3342slgdg3j2ifvpg","pricing_plan_id":"cebpf4jnsgd1na2vs0mg"},{"bike_id":"c74f5e10-dc5c-425a-a8b6-e5da0602cb9e","system_id":"levelo_inurba_marseille","lat":43.32096,"lon":5.36769,"is_reserved":false,"is_disabled":false,"rental_uris":{"android":"levelo://app?vid=c74f5e10-dc5c-425a-a8b6-e5da0602cb9e","ios":"levelo://app?vid=c74f5e10-dc5c-425a-a8b6-e5da0602cb9e"},"vehicle_type_id":"4","last_reported":1743510001,"current_range_meters":14400,"station_id":"ce4bhrh2rcd13ifvqhug","pricing_plan_id":"cebpf4jnsgd1na2vs0mg"},{"bike_id":"e85cfdc1-8235-4388-89fb-87b432b85acf","system_id":"levelo_inurba_marseille","lat":43.26203,"lon":5.37455,"is_reserved":false,"is_disabled":false,"rental_uris":{"android":"levelo://app?vid=e85cfdc1-8235-4388-89fb-87b432b85acf","ios":"levelo://app?vid=e85cfdc1-8235-4388-89fb-87b432b85acf"},"vehicle_type_id":"4","last_reported":1743510001,"current_range_meters":14400,"station_id":"ce4bhgp2rcd13ifvqfc0","pricing_plan_id":"cebpf4jnsgd1na2vs0mg"},{"bike_id":"b2eb8b9e-65af-4a03-8b44-d605e4fc3904","system_id":"levelo_inurba_marseille","lat":43.31235,"lon":5.36889,"is_reserved":false,"is_disabled":false,"rental_uris":{"android":"levelo://app?vid=b2eb8b9e-65af-4a03-8b44-d605e4fc3904","ios":"levelo://app?vid=b2eb8b9e-65af-4a03-8b44-d605e4fc3904"},"vehicle_type_id":"4","last_reported":1743510001,"current_range_meters":14400,"station_id":"ce4bgl92rcd13ifvqbq0","pricing_plan_id":"cebpf4jnsgd1na2vs0mg"},{"bike_id":"a6f9c321-fbbe-4fea-9f1e-4535822f9e11","system_id":"levelo_inurba_marseille","lat":43.30442,"lon":5.38884,"is_reserved":false,"is_disabled":false,"rental_uris":{"android":"levelo://app?vid=a6f9c321-fbbe-4fea-9f1e-4535822f9e11","ios":"levelo://app?vid=a6f9c321-fbbe-4fea-9f1e-4535822f9e11"},"vehicle_type_id":"4","last_reported":1743510001,"current_range_meters":14400,"station_id":"ce4bgk12rcd13ifvqbi0","pricing_plan_id":"cebpf4jnsgd1na2vs0mg"},{"bike_id":"4c564b34-6817-415a-8489-26db1ea03ff9","system_id":"levelo_inurba_marseille","lat":43.23151,"lon":5.437,"is_reserved":false,"is_disabled":false,"rental_uris":{"android":"levelo://app?vid=4c564b34-6817-415a-8489-26db1ea03ff9","ios":"levelo://app?vid=4c564b34-6817-415a-8489-26db1ea03ff9"},"vehicle_type_id":"4","last_reported":1743510001,"current_range_meters":14400,"station_id":"ce4bhmp2rcd13ifvqgog","pricing_plan_id":"cebpf4jnsgd1na2vs0mg"},{"bike_id":"51725a0f-aea4-4c4f-b951-ed993cebe7f6","system_id":"levelo_inurba_marseille","lat":43.30929,"lon":5.4014,"is_reserved":false,"is_disabled":false,"rental_uris":{"android":"levelo://app?vid=51725a0f-aea4-4c4f-b951-ed993cebe7f6","ios":"levelo://app?vid=51725a0f-aea4-4c4f-b951-ed993cebe7f6"},"vehicle_type_id":"4","last_reported":1743510001,"current_range_meters":14800,"station_id":"ce4bgvp2rcd13ifvqct0","pricing_plan_id":"cebpf4jnsgd1na2vs0mg"},{"bike_id":"bad8b686-d4b1-4fd1-a906-eeff21f737a2","system_id":"levelo_inurba_marseille","lat":43.24169,"lon":5.39714,"is_reserved":false,"is_disabled":false,"rental_uris":{"android":"levelo://app?vid=bad8b686-d4b1-4fd1-a906-eeff21f737a2","ios":"levelo://app?vid=bad8b686-d4b1-4fd1-a906-eeff21f737a2"},"vehicle_type_id":"4","last_reported":1743510001,"current_range_meters":14800,"station_id":"ce4bhn12rcd13ifvqgpg","pricing_plan_id":"cebpf4jnsgd1na2vs0mg"},{"bike_id":"86815936-ed0d-40f9-9fc9-81a8195505af","system_id":"levelo_inurba_marseille","lat":43.293673,"lon":5.3784,"is_reserved":false,"is_disabled":false,"rental_uris":{"android":"levelo://app?vid=86815936-ed0d-40f9-9fc9-81a8195505af","ios":"levelo://app?vid=86815936-ed0d-40f9-9fc9-81a8195505af"},"vehicle_type_id":"4","last_reported":1743510001,"current_range_meters":14800,"station_id":"ce4bgjh2rcd13ifvqbf0","pricing_plan_id":"cebpf4jnsgd1na2vs0mg"},{"bike_id":"9662d1d0-c8f9-4e8a-9e6c-a0c1575bddc7","system_id":"levelo_inurba_marseille","lat":43.30543,"lon":5.36704,"is_reserved":false,"is_disabled":false,"rental_uris":{"android":"levelo://app?vid=9662d1d0-c8f9-4e8a-9e6c-a0c1575bddc7","ios":"levelo://app?vid=9662d1d0-c8f9-4e8a-9e6c-a0c1575bddc7"},"vehicle_type_id":"4","last_reported":1743510001,"current_range_meters":14800,"station_id":"ce4bgrp2rcd13ifvqc9g","pricing_plan_id":"cebpf4jnsgd1na2vs0mg"},{"bike_id":"159b1a57-d33a-4c4e-9de5-425002d00e96","system_id":"levelo_inurba_marseille","lat":43.259,"lon":5.40898,"is_reserved":false,"is_disabled":false,"rental_uris":{"android":"levelo://app?vid=159b1a57-d33a-4c4e-9de5-425002d00e96","ios":"levelo://app?vid=159b1a57-d33a-4c4e-9de5-425002d00e96"},"vehicle_type_id":"4","last_reported":1743510001,"current_range_meters":14800,"station_id":"ce4bhm92rcd13ifvqglg","pricing_plan_id":"cebpf4jnsgd1na2vs0mg"},{"bike_id":"17011927-5eb5-4a38-a132-35a6858ea1fb","system_id":"levelo_inurba_marseille","lat":43.30308,"lon":5.39216,"is_reserved":false,"is_disabled":true,"rental_uris":{"android":"levelo://app?vid=17011927-5eb5-4a38-a132-35a6858ea1fb","ios":"levelo://app?vid=17011927-5eb5-4a38-a132-35a6858ea1fb"},"vehicle_type_id":"4","last_reported":1743510001,"current_range_meters":14800,"station_id":"ce4bgkh2rcd13ifvqbk0","pricing_plan_id":"cebpf4jnsgd1na2vs0mg"},{"bike_id":"dd3db03f-0f43-4986-9ec8-2a76818fb28c","system_id":"levelo_inurba_marseille","lat":43.23197,"lon":5.35551,"is_reserved":false,"is_disabled":false,"rental_uris":{"android":"levelo://app?vid=dd3db03f-0f43-4986-9ec8-2a76818fb28c","ios":"levelo://app?vid=dd3db03f-0f43-4986-9ec8-2a76818fb28c"},"vehicle_type_id":"4","last_reported":1743510001,"current_range_meters":15200,"station_id":"ce4bhu92rcd13ifvqi70","pricing_plan_id":"cebpf4jnsgd1na2vs0mg"},{"bike_id":"d662608d-504d-43ae-8d4a-6ba237d6c000","system_id":"levelo_inurba_marseille","lat":43.3107,"lon":5.401,"is_reserved":false,"is_disabled":false,"rental_uris":{"android":"levelo://app?vid=d662608d-504d-43ae-8d4a-6ba237d6c000","ios":"levelo://app?vid=d662608d-504d-43ae-8d4a-6ba237d6c000"},"vehicle_type_id":"4","last_reported":1743510001,"current_range_meters":15200,"station_id":"","pricing_plan_id":"cebpf4jnsgd1na2vs0mg"},{"bike_id":"3b2532bf-c94d-4711-ae7e-139cfc65e636","system_id":"levelo_inurba_marseille","lat":43.27959,"lon":5.38737,"is_reserved":false,"is_disabled":false,"rental_uris":{"android":"levelo://app?vid=3b2532bf-c94d-4711-ae7e-139cfc65e636","ios":"levelo://app?vid=3b2532bf-c94d-4711-ae7e-139cfc65e636"},"vehicle_type_id":"4","last_reported":1743510001,"current_range_meters":16000,"station_id":"ce4bhg12rcd13ifvqf80","pricing_plan_id":"cebpf4jnsgd1na2vs0mg"},{"bike_id":"efd8a7d0-f260-48f2-a96d-f5f6ab1ce17d","system_id":"levelo_inurba_marseille","lat":43.2872,"lon":5.37933,"is_reserved":false,"is_disabled":false,"rental_uris":{"android":"levelo://app?vid=efd8a7d0-f260-48f2-a96d-f5f6ab1ce17d","ios":"levelo://app?vid=efd8a7d0-f260-48f2-a96d-f5f6ab1ce17d"},"vehicle_type_id":"4","last_reported":1743510001,"current_range_meters":16000,"station_id":"ce4bh9p2rcd13ifvqec0","pricing_plan_id":"cebpf4jnsgd1na2vs0mg"},{"bike_id":"db46fa09-d7af-4aa1-b4fc-ba09a50965a9","system_id":"levelo_inurba_marseille","lat":43.29016,"lon":5.35601,"is_reserved":false,"is_disabled":false,"rental_uris":{"android":"levelo://app?vid=db46fa09-d7af-4aa1-b4fc-ba09a50965a9","ios":"levelo://app?vid=db46fa09-d7af-4aa1-b4fc-ba09a50965a9"},"vehicle_type_id":"4","last_reported":1743510001,"current_range_meters":16000,"station_id":"ce4bhb92rcd13ifvqen0","pricing_plan_id":"cebpf4jnsgd1na2vs0mg"},{"bike_id":"e02adf05-2f4c-41c6-8760-9497a14e07cc","system_id":"levelo_inurba_marseille","lat":43.27211,"lon":5.39179,"is_reserved":false,"is_disabled":false,"rental_uris":{"android":"levelo://app?vid=e02adf05-2f4c-41c6-8760-9497a14e07cc","ios":"levelo://app?vid=e02adf05-2f4c-41c6-8760-9497a14e07cc"},"vehicle_type_id":"4","last_reported":1743510001,"current_range_meters":16000,"station_id":"ce4bhhp2rcd13ifvqfm0","pricing_plan_id":"cebpf4jnsgd1na2vs0mg"},{"bike_id":"9e61879a-b072-4927-baca-2366d540248e","system_id":"levelo_inurba_marseille","lat":43.27997,"lon":5.40012,"is_reserved":false,"is_disabled":false,"rental_uris":{"android":"levelo://app?vid=9e61879a-b072-4927-baca-2366d540248e","ios":"levelo://app?vid=9e61879a-b072-4927-baca-2366d540248e"},"vehicle_type_id":"4","last_reported":1743510001,"current_range_meters":16000,"station_id":"ce4bho92rcd13ifvqh4g","pricing_plan_id":"cebpf4jnsgd1na2vs0mg"},{"bike_id":"b80ee275-2592-4659-b2e9-175feb839700","system_id":"levelo_inurba_marseille","lat":43.23204,"lon":5.35538,"is_reserved":false,"is_disabled":false,"rental_uris":{"android":"levelo://app?vid=b80ee275-2592-4659-b2e9-175feb839700","ios":"levelo://app?vid=b80ee275-2592-4659-b2e9-175feb839700"},"vehicle_type_id":"4","last_reported":1743510001,"current_range_meters":16000,"station_id":"ce4bhu92rcd13ifvqi70","pricing_plan_id":"cebpf4jnsgd1na2vs0mg"},{"bike_id":"7e3c2348-6c19-426a-bbcb-466e0a044ae0","system_id":"levelo_inurba_marseille","lat":43.29044,"lon":5.37567,"is_reserved":false,"is_disabled":false,"rental_uris":{"android":"levelo://app?vid=7e3c2348-6c19-426a-bbcb-466e0a044ae0","ios":"levelo://app?vid=7e3c2348-6c19-426a-bbcb-466e0a044ae0"},"vehicle_type_id":"4","last_reported":1743510001,"current_range_meters":16000,"station_id":"ce4bh692rcd13ifvqe90","pricing_plan_id":"cebpf4jnsgd1na2vs0mg"},{"bike_id":"dcb5137a-994d-4c9f-a4ed-3a129c6177f6","system_id":"levelo_inurba_marseille","lat":43.28417,"lon":5.34994,"is_reserved":false,"is_disabled":false,"rental_uris":{"android":"levelo://app?vid=dcb5137a-994d-4c9f-a4ed-3a129c6177f6","ios":"levelo://app?vid=dcb5137a-994d-4c9f-a4ed-3a129c6177f6"},"vehicle_type_id":"4","last_reported":1743510001,"current_range_meters":16000,"station_id":"ce4bhbh2rcd13ifvqepg","pricing_plan_id":"cebpf4jnsgd1na2vs0mg"},{"bike_id":"7cc86fba-d414-4c89-94b0-e39086d52115","system_id":"levelo_inurba_marseille","lat":43.262,"lon":5.37932,"is_reserved":false,"is_disabled":false,"rental_uris":{"android":"levelo://app?vid=7cc86fba-d414-4c89-94b0-e39086d52115","ios":"levelo://app?vid=7cc86fba-d414-4c89-94b0-e39086d52115"},"vehicle_type_id":"4","last_reported":1743510001,"current_range_meters":16000,"station_id":"ce4bhjp2rcd13ifvqg90","pricing_plan_id":"cebpf4jnsgd1na2vs0mg"},{"bike_id":"66a6759f-f104-404f-ba35-7dd5d87e6d0b","system_id":"levelo_inurba_marseille","lat":43.30914,"lon":5.36848,"is_reserved":false,"is_disabled":false,"rental_uris":{"android":"levelo://app?vid=66a6759f-f104-404f-ba35-7dd5d87e6d0b","ios":"levelo://app?vid=66a6759f-f104-404f-ba35-7dd5d87e6d0b"},"vehicle_type_id":"4","last_reported":1743510001,"current_range_meters":16000,"station_id":"ce4bgn92rcd13ifvqbvg","pricing_plan_id":"cebpf4jnsgd1na2vs0mg"},{"bike_id":"c2ff4acb-2bad-440c-bd43-e94288d22944","system_id":"levelo_inurba_marseille","lat":43.28361,"lon":5.38636,"is_reserved":false,"is_disabled":false,"rental_uris":{"android":"levelo://app?vid=c2ff4acb-2bad-440c-bd43-e94288d22944","ios":"levelo://app?vid=c2ff4acb-2bad-440c-bd43-e94288d22944"},"vehicle_type_id":"4","last_reported":1743510001,"current_range_meters":16400,"station_id":"ce4bh492rcd13ifvqdvg","pricing_plan_id":"cebpf4jnsgd1na2vs0mg"},{"bike_id":"f243ee3c-9b98-451a-9f48-7ec3e30e2cbf","system_id":"levelo_inurba_marseille","lat":43.27907,"lon":5.39588,"is_reserved":false,"is_disabled":false,"rental_uris":{"android":"levelo://app?vid=f243ee3c-9b98-451a-9f48-7ec3e30e2cbf","ios":"levelo://app?vid=f243ee3c-9b98-451a-9f48-7ec3e30e2cbf"},"vehicle_type_id":"4","last_reported":1743510001,"current_range_meters":16400,"station_id":"ce4bhf92rcd13ifvqf40","pricing_plan_id":"cebpf4jnsgd1na2vs0mg"},{"bike_id":"b74771e9-2eca-4c32-91cd-366c20e07b9a","system_id":"levelo_inurba_marseille","lat":43.29183,"lon":5.37151,"is_reserved":false,"is_disabled":false,"rental_uris":{"android":"levelo://app?vid=b74771e9-2eca-4c32-91cd-366c20e07b9a","ios":"levelo://app?vid=b74771e9-2eca-4c32-91cd-366c20e07b9a"},"vehicle_type_id":"4","last_reported":1743510001,"current_range_meters":16400,"station_id":"ce4bha92rcd13ifvqeh0","pricing_plan_id":"cebpf4jnsgd1na2vs0mg"},{"bike_id":"dd8eb8ef-4e76-4e50-a068-19aab2791b35","system_id":"levelo_inurba_marseille","lat":43.30545,"lon":5.36528,"is_reserved":false,"is_disabled":false,"rental_uris":{"android":"levelo://app?vid=dd8eb8ef-4e76-4e50-a068-19aab2791b35","ios":"levelo://app?vid=dd8eb8ef-4e76-4e50-a068-19aab2791b35"},"vehicle_type_id":"4","last_reported":1743510001,"current_range_meters":16400,"station_id":"ce4bgs12rcd13ifvqcag","pricing_plan_id":"cebpf4jnsgd1na2vs0mg"},{"bike_id":"f55695a6-b65f-4a30-99ab-94b2bfa63268","system_id":"levelo_inurba_marseille","lat":43.23205,"lon":5.35547,"is_reserved":false,"is_disabled":false,"rental_uris":{"android":"levelo://app?vid=f55695a6-b65f-4a30-99ab-94b2bfa63268","ios":"levelo://app?vid=f55695a6-b65f-4a30-99ab-94b2bfa63268"},"vehicle_type_id":"4","last_reported":1743510001,"current_range_meters":16400,"station_id":"ce4bhu92rcd13ifvqi70","pricing_plan_id":"cebpf4jnsgd1na2vs0mg"},{"bike_id":"28ffe273-46de-4a01-9c13-0684eca19915","system_id":"levelo_inurba_marseille","lat":43.29841,"lon":5.3627,"is_reserved":false,"is_disabled":false,"rental_uris":{"android":"levelo://app?vid=28ffe273-46de-4a01-9c13-0684eca19915","ios":"levelo://app?vid=28ffe273-46de-4a01-9c13-0684eca19915"},"vehicle_type_id":"4","last_reported":1743510001,"current_range_meters":16400,"station_id":"ce4bgpp2rcd13ifvqc3g","pricing_plan_id":"cebpf4jnsgd1na2vs0mg"},{"bike_id":"834ad327-80c6-4765-957e-3b95070ecd66","system_id":"levelo_inurba_marseille","lat":43.24078,"lon":5.37757,"is_reserved":false,"is_disabled":false,"rental_uris":{"android":"levelo://app?vid=834ad327-80c6-4765-957e-3b95070ecd66","ios":"levelo://app?vid=834ad327-80c6-4765-957e-3b95070ecd66"},"vehicle_type_id":"4","last_reported":1743510001,"current_range_meters":16400,"station_id":"ce4bhnp2rcd13ifvqgvg","pricing_plan_id":"cebpf4jnsgd1na2vs0mg"},{"bike_id":"e40bd89a-e164-46de-a63c-3e3c4f648a68","system_id":"levelo_inurba_marseille","lat":43.30958,"lon":5.39044,"is_reserved":false,"is_disabled":false,"rental_uris":{"android":"levelo://app?vid=e40bd89a-e164-46de-a63c-3e3c4f648a68","ios":"levelo://app?vid=e40bd89a-e164-46de-a63c-3e3c4f648a68"},"vehicle_type_id":"4","last_reported":1743510001,"current_range_meters":16400,"station_id":"ce4bgup2rcd13ifvqco0","pricing_plan_id":"cebpf4jnsgd1na2vs0mg"},{"bike_id":"c994ed7a-0c6e-470f-96ef-99514d1e54f4","system_id":"levelo_inurba_marseille","lat":43.2606,"lon":5.394,"is_reserved":false,"is_disabled":false,"rental_uris":{"android":"levelo://app?vid=c994ed7a-0c6e-470f-96ef-99514d1e54f4","ios":"levelo://app?vid=c994ed7a-0c6e-470f-96ef-99514d1e54f4"},"vehicle_type_id":"4","last_reported":1743510001,"current_range_meters":16400,"station_id":"ce4bhh92rcd13ifvqfj0","pricing_plan_id":"cebpf4jnsgd1na2vs0mg"},{"bike_id":"63f15d78-52b9-4fdb-b91d-1a12d0e39c0c","system_id":"levelo_inurba_marseille","lat":43.23141,"lon":5.43717,"is_reserved":false,"is_disabled":false,"rental_uris":{"android":"levelo://app?vid=63f15d78-52b9-4fdb-b91d-1a12d0e39c0c","ios":"levelo://app?vid=63f15d78-52b9-4fdb-b91d-1a12d0e39c0c"},"vehicle_type_id":"4","last_reported":1743510001,"current_range_meters":16400,"station_id":"ce4bhmp2rcd13ifvqgog","pricing_plan_id":"cebpf4jnsgd1na2vs0mg"},{"bike_id":"cc587294-252b-47e2-ba79-58dac6a60f51","system_id":"levelo_inurba_marseille","lat":43.30946,"lon":5.39037,"is_reserved":false,"is_disabled":false,"rental_uris":{"android":"levelo://app?vid=cc587294-252b-47e2-ba79-58dac6a60f51","ios":"levelo://app?vid=cc587294-252b-47e2-ba79-58dac6a60f51"},"vehicle_type_id":"4","last_reported":1743510001,"current_range_meters":16400,"station_id":"ce4bgup2rcd13ifvqco0","pricing_plan_id":"cebpf4jnsgd1na2vs0mg"},{"bike_id":"75dae32f-059a-4b5b-a5e8-963c6eda2f66","system_id":"levelo_inurba_marseille","lat":43.27524,"lon":5.41055,"is_reserved":false,"is_disabled":false,"rental_uris":{"android":"levelo://app?vid=75dae32f-059a-4b5b-a5e8-963c6eda2f66","ios":"levelo://app?vid=75dae32f-059a-4b5b-a5e8-963c6eda2f66"},"vehicle_type_id":"4","last_reported":1743510001,"current_range_meters":16400,"station_id":"","pricing_plan_id":"cebpf4jnsgd1na2vs0mg"},{"bike_id":"246b47da-f7a8-420a-986b-fbdca94dac99","system_id":"levelo_inurba_marseille","lat":43.28417,"lon":5.3499,"is_reserved":false,"is_disabled":false,"rental_uris":{"android":"levelo://app?vid=246b47da-f7a8-420a-986b-fbdca94dac99","ios":"levelo://app?vid=246b47da-f7a8-420a-986b-fbdca94dac99"},"vehicle_type_id":"4","last_reported":1743510001,"current_range_meters":16400,"station_id":"ce4bhbh2rcd13ifvqepg","pricing_plan_id":"cebpf4jnsgd1na2vs0mg"},{"bike_id":"e45d2123-aa43-45f5-aabe-f8664cbd6d9b","system_id":"levelo_inurba_marseille","lat":43.29269,"lon":5.3762,"is_reserved":false,"is_disabled":false,"rental_uris":{"android":"levelo://app?vid=e45d2123-aa43-45f5-aabe-f8664cbd6d9b","ios":"levelo://app?vid=e45d2123-aa43-45f5-aabe-f8664cbd6d9b"},"vehicle_type_id":"4","last_reported":1743510001,"current_range_meters":16800,"station_id":"ce4bgi12rcd13ifvqb80","pricing_plan_id":"cebpf4jnsgd1na2vs0mg"},{"bike_id":"7b869cea-1d61-42d2-b04b-29df5bd7497f","system_id":"levelo_inurba_marseille","lat":43.32154,"lon":5.36745,"is_reserved":false,"is_disabled":false,"rental_uris":{"android":"levelo://app?vid=7b869cea-1d61-42d2-b04b-29df5bd7497f","ios":"levelo://app?vid=7b869cea-1d61-42d2-b04b-29df5bd7497f"},"vehicle_type_id":"4","last_reported":1743510001,"current_range_meters":16800,"station_id":"","pricing_plan_id":"cebpf4jnsgd1na2vs0mg"},{"bike_id":"0a2ceb4e-79b1-4623-bf99-a817d4565160","system_id":"levelo_inurba_marseille","lat":43.29282,"lon":5.36835,"is_reserved":false,"is_disabled":false,"rental_uris":{"android":"levelo://app?vid=0a2ceb4e-79b1-4623-bf99-a817d4565160","ios":"levelo://app?vid=0a2ceb4e-79b1-4623-bf99-a817d4565160"},"vehicle_type_id":"4","last_reported":1743510001,"current_range_meters":16800,"station_id":"ce4bhbp2rcd13ifvqesg","pricing_plan_id":"cebpf4jnsgd1na2vs0mg"},{"bike_id":"777d61f7-e437-4d60-bc97-53fc33070c6d","system_id":"levelo_inurba_marseille","lat":43.30146,"lon":5.37429,"is_reserved":false,"is_disabled":false,"rental_uris":{"android":"levelo://app?vid=777d61f7-e437-4d60-bc97-53fc33070c6d","ios":"levelo://app?vid=777d61f7-e437-4d60-bc97-53fc33070c6d"},"vehicle_type_id":"4","last_reported":1743510001,"current_range_meters":16800,"station_id":"ce4bgs92rcd13ifvqcc0","pricing_plan_id":"cebpf4jnsgd1na2vs0mg"},{"bike_id":"d4ce0305-90e2-4b2e-ae4f-ae30f3d15b37","system_id":"levelo_inurba_marseille","lat":43.30134,"lon":5.3987,"is_reserved":false,"is_disabled":false,"rental_uris":{"android":"levelo://app?vid=d4ce0305-90e2-4b2e-ae4f-ae30f3d15b37","ios":"levelo://app?vid=d4ce0305-90e2-4b2e-ae4f-ae30f3d15b37"},"vehicle_type_id":"4","last_reported":1743510001,"current_range_meters":16800,"station_id":"ce4bh0h2rcd13ifvqd40","pricing_plan_id":"cebpf4jnsgd1na2vs0mg"},{"bike_id":"7be06644-e888-41f2-9c08-173a9a3965bc","system_id":"levelo_inurba_marseille","lat":43.23211,"lon":5.39979,"is_reserved":false,"is_disabled":false,"rental_uris":{"android":"levelo://app?vid=7be06644-e888-41f2-9c08-173a9a3965bc","ios":"levelo://app?vid=7be06644-e888-41f2-9c08-173a9a3965bc"},"vehicle_type_id":"4","last_reported":1743510001,"current_range_meters":16800,"station_id":"ce4bhn12rcd13ifvqgqg","pricing_plan_id":"cebpf4jnsgd1na2vs0mg"},{"bike_id":"20e37ee5-4144-46f6-ae82-ff86e3144909","system_id":"levelo_inurba_marseille","lat":43.30552,"lon":5.36685,"is_reserved":false,"is_disabled":false,"rental_uris":{"android":"levelo://app?vid=20e37ee5-4144-46f6-ae82-ff86e3144909","ios":"levelo://app?vid=20e37ee5-4144-46f6-ae82-ff86e3144909"},"vehicle_type_id":"4","last_reported":1743510001,"current_range_meters":16800,"station_id":"ce4bgrp2rcd13ifvqc9g","pricing_plan_id":"cebpf4jnsgd1na2vs0mg"},{"bike_id":"4ec4d427-478d-4e9e-9c3a-0b685214c2f6","system_id":"levelo_inurba_marseille","lat":43.30139,"lon":5.38782,"is_reserved":false,"is_disabled":false,"rental_uris":{"android":"levelo://app?vid=4ec4d427-478d-4e9e-9c3a-0b685214c2f6","ios":"levelo://app?vid=4ec4d427-478d-4e9e-9c3a-0b685214c2f6"},"vehicle_type_id":"4","last_reported":1743510001,"current_range_meters":16800,"station_id":"ce4bghh2rcd13ifvqb60","pricing_plan_id":"cebpf4jnsgd1na2vs0mg"},{"bike_id":"71da8d53-2a4c-47bc-a174-8d4710aa1c90","system_id":"levelo_inurba_marseille","lat":43.30141,"lon":5.38075,"is_reserved":false,"is_disabled":false,"rental_uris":{"android":"levelo://app?vid=71da8d53-2a4c-47bc-a174-8d4710aa1c90","ios":"levelo://app?vid=71da8d53-2a4c-47bc-a174-8d4710aa1c90"},"vehicle_type_id":"4","last_reported":1743510001,"current_range_meters":16800,"station_id":"ce4bgjp2rcd13ifvqbh0","pricing_plan_id":"cebpf4jnsgd1na2vs0mg"},{"bike_id":"9c309a4c-058d-4adc-8c71-1b0472291b4e","system_id":"levelo_inurba_marseille","lat":43.28355,"lon":5.38105,"is_reserved":false,"is_disabled":false,"rental_uris":{"android":"levelo://app?vid=9c309a4c-058d-4adc-8c71-1b0472291b4e","ios":"levelo://app?vid=9c309a4c-058d-4adc-8c71-1b0472291b4e"},"vehicle_type_id":"4","last_reported":1743510001,"current_range_meters":17200,"station_id":"ce4bh412rcd13ifvqdr0","pricing_plan_id":"cebpf4jnsgd1na2vs0mg"},{"bike_id":"3eb82948-f003-4f17-8d20-1a8714e2fd0b","system_id":"levelo_inurba_marseille","lat":43.309596,"lon":5.390431,"is_reserved":false,"is_disabled":false,"rental_uris":{"android":"levelo://app?vid=3eb82948-f003-4f17-8d20-1a8714e2fd0b","ios":"levelo://app?vid=3eb82948-f003-4f17-8d20-1a8714e2fd0b"},"vehicle_type_id":"4","last_reported":1743510001,"current_range_meters":17600,"station_id":"ce4bgup2rcd13ifvqco0","pricing_plan_id":"cebpf4jnsgd1na2vs0mg"},{"bike_id":"a2ab1c1f-d5f5-49b8-a1e1-7c7575100dbe","system_id":"levelo_inurba_marseille","lat":43.28266,"lon":5.35075,"is_reserved":false,"is_disabled":false,"rental_uris":{"android":"levelo://app?vid=a2ab1c1f-d5f5-49b8-a1e1-7c7575100dbe","ios":"levelo://app?vid=a2ab1c1f-d5f5-49b8-a1e1-7c7575100dbe"},"vehicle_type_id":"4","last_reported":1743510001,"current_range_meters":17200,"station_id":"ce4bhbp2rcd13ifvqerg","pricing_plan_id":"cebpf4jnsgd1na2vs0mg"},{"bike_id":"d8bbc8c7-a09c-4599-a8ce-03205d07ff36","system_id":"levelo_inurba_marseille","lat":43.30454,"lon":5.38887,"is_reserved":false,"is_disabled":false,"rental_uris":{"android":"levelo://app?vid=d8bbc8c7-a09c-4599-a8ce-03205d07ff36","ios":"levelo://app?vid=d8bbc8c7-a09c-4599-a8ce-03205d07ff36"},"vehicle_type_id":"4","last_reported":1743510001,"current_range_meters":17200,"station_id":"ce4bgk12rcd13ifvqbi0","pricing_plan_id":"cebpf4jnsgd1na2vs0mg"},{"bike_id":"d157a8ac-f1ea-480a-a1ee-9ac00962bb01","system_id":"levelo_inurba_marseille","lat":43.295486,"lon":5.422971,"is_reserved":false,"is_disabled":false,"rental_uris":{"android":"levelo://app?vid=d157a8ac-f1ea-480a-a1ee-9ac00962bb01","ios":"levelo://app?vid=d157a8ac-f1ea-480a-a1ee-9ac00962bb01"},"vehicle_type_id":"4","last_reported":1743510001,"current_range_meters":17200,"station_id":"ce4bhph2rcd13ifvqhdg","pricing_plan_id":"cebpf4jnsgd1na2vs0mg"},{"bike_id":"9340991b-36c7-4218-9c9c-97d2ebaf27f9","system_id":"levelo_inurba_marseille","lat":43.29632,"lon":5.40592,"is_reserved":false,"is_disabled":false,"rental_uris":{"android":"levelo://app?vid=9340991b-36c7-4218-9c9c-97d2ebaf27f9","ios":"levelo://app?vid=9340991b-36c7-4218-9c9c-97d2ebaf27f9"},"vehicle_type_id":"4","last_reported":1743510001,"current_range_meters":17200,"station_id":"ce4bh0h2rcd13ifvqd60","pricing_plan_id":"cebpf4jnsgd1na2vs0mg"},{"bike_id":"31f04408-1e99-445b-820e-14607a13eafc","system_id":"levelo_inurba_marseille","lat":43.32014,"lon":5.38167,"is_reserved":false,"is_disabled":false,"rental_uris":{"android":"levelo://app?vid=31f04408-1e99-445b-820e-14607a13eafc","ios":"levelo://app?vid=31f04408-1e99-445b-820e-14607a13eafc"},