{"last_updated":1720116624,"ttl":30,"version":"2.2","data":{"bikes":[{"bike_id":"f3fc9c9b-8fbd-4a31-9f57-78fcfdf27241","system_id":"levelo_inurba_marseille","lat":43.312239,"lon":5.368562,"is_reserved":false,"is_disabled":false,"rental_uris":{"android":"levelo://app?vid=f3fc9c9b-8fbd-4a31-9f57-78fcfdf27241","ios":"levelo://app?vid=f3fc9c9b-8fbd-4a31-9f57-78fcfdf27241"},"vehicle_type_id":"4","last_reported":1720116624,"current_range_meters":0,"station_id":"ce4bgl92rcd13ifvqbq0","pricing_plan_id":"cebpf4jnsgd1na2vs0mg"},{"bike_id":"e0fe9732-80a6-47e7-bd84-7e01265701cb","system_id":"levelo_inurba_marseille","lat":43.312239,"lon":5.368562,"is_reserved":false,"is_disabled":false,"rental_uris":{"android":"levelo://app?vid=e0fe9732-80a6-47e7-bd84-7e01265701cb","ios":"levelo://app?vid=e0fe9732-80a6-47e7-bd84-7e01265701cb"},"vehicle_type_id":"4","last_reported":1720116624,"current_range_meters":24400,"station_id":"ce4bgl92rcd13ifvqbq0","pricing_plan_id":"cebpf4jnsgd1na2vs0mg"},{"bike_id":"d7f7b028-a632-4cdd-90a0-298a822fbc63","system_id":"levelo_inurba_marseille","lat":43.312239,"lon":5.368562,"is_reserved":false,"is_disabled":false,"rental_uris":{"android":"levelo://app?vid=d7f7b028-a632-4cdd-90a0-298a822fbc63","ios":"levelo://app?vid=d7f7b028-a632-4cdd-90a0-298a822fbc63"},"vehicle_type_id":"4","last_reported":1720116624,"current_range_meters":3600,"station_id":"ce4bgl92rcd13ifvqbq0","pricing_plan_id":"cebpf4jnsgd1na2vs0mg"},{"bike_id":"66961019-5a44-433a-85a8-200879c2918f","system_id":"levelo_inurba_marseille","lat":43.312239,"lon":5.368562,"is_reserved":false,"is_disabled":false,"rental_uris":{"android":"levelo://app?vid=66961019-5a44-433a-85a8-200879c2918f","ios":"levelo://app?vid=66961019-5a44-433a-85a8-200879c2918f"},"vehicle_type_id":"4","last_reported":1720116624,"current_range_meters":0,"station_id":"ce4bgl92rcd13ifvqbq0","pricing_plan_id":"cebpf4jnsgd1na2vs0mg"},{"bike_id":"50f414bc-3206-4aa1-9c95-79495a8a7d50","system_id":"levelo_inurba_marseille","lat":43.312239,"lon":5.368562,"is_reserved":false,"is_disabled":false,"rental_uris":{"android":"levelo://app?vid=50f414bc-3206-4aa1-9c95-79495a8a7d50","ios":"levelo://app?vid=50f414bc-3206-4aa1-9c95-79495a8a7d50"},"vehicle_type_id":"4","last_reported":1720116624,"current_range_meters":2400,"station_id":"ce4bgl92rcd13ifvqbq0","pricing_plan_id":"cebpf4jnsgd1na2vs0mg"},{"bike_id":"df04cb96-a8ab-454e-acbc-a6b103ba08f7","system_id":"levelo_inurba_marseille","lat":43.309076,"lon":5.368465,"is_reserved":false,"is_disabled":false,"rental_uris":{"android":"levelo://app?vid=df04cb96-a8ab-454e-acbc-a6b103ba08f7","ios":"levelo://app?vid=df04cb96-a8ab-454e-acbc-a6b103ba08f7"},"vehicle_type_id":"4","last_reported":1720116624,"current_range_meters":14000,"station_id":"ce4bgn92rcd13ifvqbvg","pricing_plan_id":"cebpf4jnsgd1na2vs0mg"},{"bike_id":"e6efacd1-7ce0-46e3-8ab9-ba394319f5f3","system_id":"levelo_inurba_marseille","lat":43.31489,"lon":5.37307,"is_reserved":false,"is_disabled":false,"rental_uris":{"android":"levelo://app?vid=e6efacd1-7ce0-46e3-8ab9-ba394319f5f3","ios":"levelo://app?vid=e6efacd1-7ce0-46e3-8ab9-ba394319f5f3"},"vehicle_type_id":"4","last_reported":1720116624,"current_range_meters":0,"station_id":"ce4bgt12rcd13ifvqcd0","pricing_plan_id":"cebpf4jnsgd1na2vs0mg"},{"bike_id":"680354a0-47dd-4515-9af6-2f5bab6d1594","system_id":"levelo_inurba_marseille","lat":43.30546,"lon":5.36656,"is_reserved":false,"is_disabled":false,"rental_uris":{"android":"levelo://app?vid=680354a0-47dd-4515-9af6-2f5bab6d1594","ios":"levelo://app?vid=680354a0-47dd-4515-9af6-2f5bab6d1594"},"vehicle_type_id":"4","last_reported":1720116624,"current_range_meters":1600,"station_id":"","pricing_plan_id":"cebpf4jnsgd1na2vs0mg"},{"bike_id":"067c7053-367b-4a19-8368-6fcda65ae488","system_id":"levelo_inurba_marseille","lat":43.30605,"lon":5.3722,"is_reserved":false,"is_disabled":false,"rental_uris":{"android":"levelo://app?vid=067c7053-367b-4a19-8368-6fcda65ae488","ios":"levelo://app?vid=067c7053-367b-4a19-8368-6fcda65ae488"},"vehicle_type_id":"4","last_reported":1720116624,"current_range_meters":0,"station_id":"ce4bgqh2rcd13ifvqc4g","pricing_plan_id":"cebpf4jnsgd1na2vs0mg"},{"bike_id":"dc360ce0-0f59-4a38-b458-c3b8dce16b0a","system_id":"levelo_inurba_marseille","lat":43.31109,"lon":5.37762,"is_reserved":false,"is_disabled":false,"rental_uris":{"android":"levelo://app?vid=dc360ce0-0f59-4a38-b458-c3b8dce16b0a","ios":"levelo://app?vid=dc360ce0-0f59-4a38-b458-c3b8dce16b0a"},"vehicle_type_id":"4","last_reported":1720116624,"current_range_meters":26000,"station_id":"ce4bgt92rcd13ifvqcg0","pricing_plan_id":"cebpf4jnsgd1na2vs0mg"},{"bike_id":"0b833cf3-3d67-4929-8ea4-2747bc906ad0","system_id":"levelo_inurba_marseille","lat":43.31119,"lon":5.37766,"is_reserved":false,"is_disabled":false,"rental_uris":{"android":"levelo://app?vid=0b833cf3-3d67-4929-8ea4-2747bc906ad0","ios":"levelo://app?vid=0b833cf3-3d67-4929-8ea4-2747bc906ad0"},"vehicle_type_id":"4","last_reported":1720116624,"current_range_meters":0,"station_id":"ce4bgt92rcd13ifvqcg0","pricing_plan_id":"cebpf4jnsgd1na2vs0mg"},{"bike_id":"cbc715de-780b-4565-9358-371326007ffe","system_id":"levelo_inurba_marseille","lat":43.311125,"lon":5.377624,"is_reserved":false,"is_disabled":false,"rental_uris":{"android":"levelo://app?vid=cbc715de-780b-4565-9358-371326007ffe","ios":"levelo://app?vid=cbc715de-780b-4565-9358-371326007ffe"},"vehicle_type_id":"4","last_reported":1720116624,"current_range_meters":11200,"station_id":"ce4bgt92rcd13ifvqcg0","pricing_plan_id":"cebpf4jnsgd1na2vs0mg"},{"bike_id":"0dcc6847-e44d-4e26-b259-188a54bd4f26","system_id":"levelo_inurba_marseille","lat":43.30439,"lon":5.36783,"is_reserved":false,"is_disabled":false,"rental_uris":{"android":"levelo://app?vid=0dcc6847-e44d-4e26-b259-188a54bd4f26","ios":"levelo://app?vid=0dcc6847-e44d-4e26-b259-188a54bd4f26"},"vehicle_type_id":"4","last_reported":1720116624,"current_range_meters":12800,"station_id":"","pricing_plan_id":"cebpf4jnsgd1na2vs0mg"},{"bike_id":"0b8adf8d-9531-4ece-b662-a029f7edeb7c","system_id":"levelo_inurba_marseille","lat":43.3079,"lon":5.37637,"is_reserved":false,"is_disabled":false,"rental_uris":{"android":"levelo://app?vid=0b8adf8d-9531-4ece-b662-a029f7edeb7c","ios":"levelo://app?vid=0b8adf8d-9531-4ece-b662-a029f7edeb7c"},"vehicle_type_id":"4","last_reported":1720116624,"current_range_meters":31200,"station_id":"ce4bgv92rcd13ifvqcq0","pricing_plan_id":"cebpf4jnsgd1na2vs0mg"},{"bike_id":"16c685ba-da72-4d11-b4ec-4ad5b049630c","system_id":"levelo_inurba_marseille","lat":43.307945,"lon":5.376487,"is_reserved":false,"is_disabled":false,"rental_uris":{"android":"levelo://app?vid=16c685ba-da72-4d11-b4ec-4ad5b049630c","ios":"levelo://app?vid=16c685ba-da72-4d11-b4ec-4ad5b049630c"},"vehicle_type_id":"4","last_reported":1720116624,"current_range_meters":29200,"station_id":"ce4bgv92rcd13ifvqcq0","pricing_plan_id":"cebpf4jnsgd1na2vs0mg"},{"bike_id":"e388d054-0b4d-42f2-8515-3e8f16495cf0","system_id":"levelo_inurba_marseille","lat":43.307945,"lon":5.376487,"is_reserved":false,"is_disabled":false,"rental_uris":{"android":"levelo://app?vid=e388d054-0b4d-42f2-8515-3e8f16495cf0","ios":"levelo://app?vid=e388d054-0b4d-42f2-8515-3e8f16495cf0"},"vehicle_type_id":"4","last_reported":1720116624,"current_range_meters":28400,"station_id":"ce4bgv92rcd13ifvqcq0","pricing_plan_id":"cebpf4jnsgd1na2vs0mg"},{"bike_id":"362af2da-99d2-4e8b-83b7-c4602f0ee795","system_id":"levelo_inurba_marseille","lat":43.317075,"lon":5.377367,"is_reserved":false,"is_disabled":false,"rental_uris":{"android":"levelo://app?vid=362af2da-99d2-4e8b-83b7-c4602f0ee795","ios":"levelo://app?vid=362af2da-99d2-4e8b-83b7-c4602f0ee795"},"vehicle_type_id":"4","last_reported":1720116624,"current_range_meters":18800,"station_id":"ce4bgth2rcd13ifvqch0","pricing_plan_id":"cebpf4jnsgd1na2vs0mg"},{"bike_id":"a97bbbca-17f0-41b6-96a0-8c02e6d5009f","system_id":"levelo_inurba_marseille","lat":43.315289,"lon":5.380349,"is_reserved":false,"is_disabled":false,"rental_uris":{"android":"levelo://app?vid=a97bbbca-17f0-41b6-96a0-8c02e6d5009f","ios":"levelo://app?vid=a97bbbca-17f0-41b6-96a0-8c02e6d5009f"},"vehicle_type_id":"4","last_reported":1720116624,"current_range_meters":6000,"station_id":"ce4bhsp2rcd13ifvqi50","pricing_plan_id":"cebpf4jnsgd1na2vs0mg"},{"bike_id":"d1482f21-9487-46b3-be80-e378c673a1c0","system_id":"levelo_inurba_marseille","lat":43.304606,"lon":5.379026,"is_reserved":false,"is_disabled":false,"rental_uris":{"android":"levelo://app?vid=d1482f21-9487-46b3-be80-e378c673a1c0","ios":"levelo://app?vid=d1482f21-9487-46b3-be80-e378c673a1c0"},"vehicle_type_id":"4","last_reported":1720116624,"current_range_meters":22800,"station_id":"ce4bgup2rcd13ifvqcn0","pricing_plan_id":"cebpf4jnsgd1na2vs0mg"},{"bike_id":"19a1d841-bdb3-400b-95a0-46948cab7118","system_id":"levelo_inurba_marseille","lat":43.304606,"lon":5.379026,"is_reserved":false,"is_disabled":false,"rental_uris":{"android":"levelo://app?vid=19a1d841-bdb3-400b-95a0-46948cab7118","ios":"levelo://app?vid=19a1d841-bdb3-400b-95a0-46948cab7118"},"vehicle_type_id":"4","last_reported":1720116624,"current_range_meters":9600,"station_id":"ce4bgup2rcd13ifvqcn0","pricing_plan_id":"cebpf4jnsgd1na2vs0mg"},{"bike_id":"0d0a1a59-79c7-4749-a6ad-b98968b9d284","system_id":"levelo_inurba_marseille","lat":43.310804,"lon":5.38359,"is_reserved":false,"is_disabled":false,"rental_uris":{"android":"levelo://app?vid=0d0a1a59-79c7-4749-a6ad-b98968b9d284","ios":"levelo://app?vid=0d0a1a59-79c7-4749-a6ad-b98968b9d284"},"vehicle_type_id":"4","last_reported":1720116624,"current_range_meters":0,"station_id":"ce4bgv92rcd13ifvqcr0","pricing_plan_id":"cebpf4jnsgd1na2vs0mg"},{"bike_id":"60423d48-a338-4c20-9d01-ee9375226d51","system_id":"levelo_inurba_marseille","lat":43.310804,"lon":5.38359,"is_reserved":false,"is_disabled":false,"rental_uris":{"android":"levelo://app?vid=60423d48-a338-4c20-9d01-ee9375226d51","ios":"levelo://app?vid=60423d48-a338-4c20-9d01-ee9375226d51"},"vehicle_type_id":"4","last_reported":1720116624,"current_range_meters":11200,"station_id":"ce4bgv92rcd13ifvqcr0","pricing_plan_id":"cebpf4jnsgd1na2vs0mg"},{"bike_id":"586a1961-621f-4fed-8e65-8137f95883bd","system_id":"levelo_inurba_marseille","lat":43.310804,"lon":5.38359,"is_reserved":false,"is_disabled":false,"rental_uris":{"android":"levelo://app?vid=586a1961-621f-4fed-8e65-8137f95883bd","ios":"levelo://app?vid=586a1961-621f-4fed-8e65-8137f95883bd"},"vehicle_type_id":"4","last_reported":1720116624,"current_range_meters":5600,"station_id":"ce4bgv92rcd13ifvqcr0","pricing_plan_id":"cebpf4jnsgd1na2vs0mg"},{"bike_id":"0ac330d5-885a-4086-a505-845730380179","system_id":"levelo_inurba_marseille","lat":43.310804,"lon":5.38359,"is_reserved":false,"is_disabled":false,"rental_uris":{"android":"levelo://app?vid=0ac330d5-885a-4086-a505-845730380179","ios":"levelo://app?vid=0ac330d5-885a-4086-a505-845730380179"},"vehicle_type_id":"4","last_reported":1720116624,"current_range_meters":23600,"station_id":"ce4bgv92rcd13ifvqcr0","pricing_plan_id":"cebpf4jnsgd1na2vs0mg"},{"bike_id":"423ce2af-750d-453e-9fa4-1d0fd4a028b1","system_id":"levelo_inurba_marseille","lat":43.319935,"lon":5.381699,"is_reserved":false,"is_disabled":false,"rental_uris":{"android":"levelo://app?vid=423ce2af-750d-453e-9fa4-1d0fd4a028b1","ios":"levelo://app?vid=423ce2af-750d-453e-9fa4-1d0fd4a028b1"},"vehicle_type_id":"4","last_reported":1720116624,"current_range_meters":3200,"station_id":"ce4bhr12rcd13ifvqhpg","pricing_plan_id":"cebpf4jnsgd1na2vs0mg"},{"bike_id":"864a4b4c-49ff-4957-99fd-43b40b0e2108","system_id":"levelo_inurba_marseille","lat":43.319935,"lon":5.381699,"is_reserved":false,"is_disabled":false,"rental_uris":{"android":"levelo://app?vid=864a4b4c-49ff-4957-99fd-43b40b0e2108","ios":"levelo://app?vid=864a4b4c-49ff-4957-99fd-43b40b0e2108"},"vehicle_type_id":"4","last_reported":1720116624,"current_range_meters":12000,"station_id":"ce4bhr12rcd13ifvqhpg","pricing_plan_id":"cebpf4jnsgd1na2vs0mg"},{"bike_id":"fa20b318-6101-4a86-b987-a5affca2a21f","system_id":"levelo_inurba_marseille","lat":43.319935,"lon":5.381699,"is_reserved":false,"is_disabled":false,"rental_uris":{"android":"levelo://app?vid=fa20b318-6101-4a86-b987-a5affca2a21f","ios":"levelo://app?vid=fa20b318-6101-4a86-b987-a5affca2a21f"},"vehicle_type_id":"4","last_reported":1720116624,"current_range_meters":0,"station_id":"ce4bhr12rcd13ifvqhpg","pricing_plan_id":"cebpf4jnsgd1na2vs0mg"},{"bike_id":"c5701c4d-9654-403c-8a9c-80cc0afb4fc4","system_id":"levelo_inurba_marseille","lat":43.299724,"lon":5.371829,"is_reserved":false,"is_disabled":false,"rental_uris":{"android":"levelo://app?vid=c5701c4d-9654-403c-8a9c-80cc0afb4fc4","ios":"levelo://app?vid=c5701c4d-9654-403c-8a9c-80cc0afb4fc4"},"vehicle_type_id":"4","last_reported":1720116624,"current_range_meters":0,"station_id":"ce4bgr92rcd13ifvqc7g","pricing_plan_id":"cebpf4jnsgd1na2vs0mg"},{"bike_id":"d32372ff-a007-471b-bbef-09bb722361c3","system_id":"levelo_inurba_marseille","lat":43.299724,"lon":5.371829,"is_reserved":false,"is_disabled":false,"rental_uris":{"android":"levelo://app?vid=d32372ff-a007-471b-bbef-09bb722361c3","ios":"levelo://app?vid=d32372ff-a007-471b-bbef-09bb722361c3"},"vehicle_type_id":"4","last_reported":1720116624,"current_range_meters":20000,"station_id":"ce4bgr92rcd13ifvqc7g","pricing_plan_id":"cebpf4jnsgd1na2vs0mg"},{"bike_id":"3ddfac19-428b-4082-b656-fa900872e2b8","system_id":"levelo_inurba_marseille","lat":43.299724,"lon":5.371829,"is_reserved":false,"is_disabled":false,"rental_uris":{"android":"levelo://app?vid=3ddfac19-428b-4082-b656-fa900872e2b8","ios":"levelo://app?vid=3ddfac19-428b-4082-b656-fa900872e2b8"},"vehicle_type_id":"4","last_reported":1720116624,"current_range_meters":10400,"station_id":"ce4bgr92rcd13ifvqc7g","pricing_plan_id":"cebpf4jnsgd1na2vs0mg"},{"bike_id":"d2b7c66b-c7f1-408a-bbd0-710b1c445af9","system_id":"levelo_inurba_marseille","lat":43.31166,"lon":5.38597,"is_reserved":false,"is_disabled":false,"rental_uris":{"android":"levelo://app?vid=d2b7c66b-c7f1-408a-bbd0-710b1c445af9","ios":"levelo://app?vid=d2b7c66b-c7f1-408a-bbd0-710b1c445af9"},"vehicle_type_id":"4","last_reported":1720116624,"current_range_meters":20000,"station_id":"","pricing_plan_id":"cebpf4jnsgd1na2vs0mg"},{"bike_id":"07bc5c60-46d1-4878-9a46-d7c39a999ffe","system_id":"levelo_inurba_marseille","lat":43.298433,"lon":5.362774,"is_reserved":false,"is_disabled":false,"rental_uris":{"android":"levelo://app?vid=07bc5c60-46d1-4878-9a46-d7c39a999ffe","ios":"levelo://app?vid=07bc5c60-46d1-4878-9a46-d7c39a999ffe"},"vehicle_type_id":"4","last_reported":1720116624,"current_range_meters":31200,"station_id":"ce4bgpp2rcd13ifvqc3g","pricing_plan_id":"cebpf4jnsgd1na2vs0mg"},{"bike_id":"147b048e-47b6-421a-8df5-1cfdf694073f","system_id":"levelo_inurba_marseille","lat":43.305364,"lon":5.384119,"is_reserved":false,"is_disabled":false,"rental_uris":{"android":"levelo://app?vid=147b048e-47b6-421a-8df5-1cfdf694073f","ios":"levelo://app?vid=147b048e-47b6-421a-8df5-1cfdf694073f"},"vehicle_type_id":"4","last_reported":1720116624,"current_range_meters":11200,"station_id":"ce4bgg92rcd13ifvqb30","pricing_plan_id":"cebpf4jnsgd1na2vs0mg"},{"bike_id":"4dae8dc4-c890-4cee-adc6-3fa7b216720f","system_id":"levelo_inurba_marseille","lat":43.298433,"lon":5.362774,"is_reserved":false,"is_disabled":false,"rental_uris":{"android":"levelo://app?vid=4dae8dc4-c890-4cee-adc6-3fa7b216720f","ios":"levelo://app?vid=4dae8dc4-c890-4cee-adc6-3fa7b216720f"},"vehicle_type_id":"4","last_reported":1720116624,"current_range_meters":3600,"station_id":"ce4bgpp2rcd13ifvqc3g","pricing_plan_id":"cebpf4jnsgd1na2vs0mg"},{"bike_id":"5fd9cd86-562e-47fc-8de3-3c5ab59fab09","system_id":"levelo_inurba_marseille","lat":43.29847,"lon":5.36276,"is_reserved":false,"is_disabled":false,"rental_uris":{"android":"levelo://app?vid=5fd9cd86-562e-47fc-8de3-3c5ab59fab09","ios":"levelo://app?vid=5fd9cd86-562e-47fc-8de3-3c5ab59fab09"},"vehicle_type_id":"4","last_reported":1720116624,"current_range_meters":13200,"station_id":"","pricing_plan_id":"cebpf4jnsgd1na2vs0mg"},{"bike_id":"dfda0241-9ace-4edd-8157-cf58d0bdbddd","system_id":"levelo_inurba_marseille","lat":43.305364,"lon":5.384119,"is_reserved":false,"is_disabled":false,"rental_uris":{"android":"levelo://app?vid=dfda0241-9ace-4edd-8157-cf58d0bdbddd","ios":"levelo://app?vid=dfda0241-9ace-4edd-8157-cf58d0bdbddd"},"vehicle_type_id":"4","last_reported":1720116624,"current_range_meters":0,"station_id":"ce4bgg92rcd13ifvqb30","pricing_plan_id":"cebpf4jnsgd1na2vs0mg"},{"bike_id":"e2c84258-e384-4a2c-98d1-d44c24c89fd2","system_id":"levelo_inurba_marseille","lat":43.298433,"lon":5.362774,"is_reserved":false,"is_disabled":false,"rental_uris":{"android":"levelo://app?vid=e2c84258-e384-4a2c-98d1-d44c24c89fd2","ios":"levelo://app?vid=e2c84258-e384-4a2c-98d1-d44c24c89fd2"},"vehicle_type_id":"4","last_reported":1720116624,"current_range_meters":7200,"station_id":"ce4bgpp2rcd13ifvqc3g","pricing_plan_id":"cebpf4jnsgd1na2vs0mg"},{"bike_id":"c48d9ee3-0166-488e-8a4d-722111380c62","system_id":"levelo_inurba_marseille","lat":43.311722,"lon":5.387247,"is_reserved":false,"is_disabled":false,"rental_uris":{"android":"levelo://app?vid=c48d9ee3-0166-488e-8a4d-722111380c62","ios":"levelo://app?vid=c48d9ee3-0166-488e-8a4d-722111380c62"},"vehicle_type_id":"4","last_reported":1720116624,"current_range_meters":5200,"station_id":"ce4bgv12rcd13ifvqcp0","pricing_plan_id":"cebpf4jnsgd1na2vs0mg"},{"bike_id":"efa01555-b60d-4fb5-bae9-79905eb7277b","system_id":"levelo_inurba_marseille","lat":43.31167,"lon":5.38723,"is_reserved":false,"is_disabled":false,"rental_uris":{"android":"levelo://app?vid=efa01555-b60d-4fb5-bae9-79905eb7277b","ios":"levelo://app?vid=efa01555-b60d-4fb5-bae9-79905eb7277b"},"vehicle_type_id":"4","last_reported":1720116624,"current_range_meters":0,"station_id":"ce4bgv12rcd13ifvqcp0","pricing_plan_id":"cebpf4jnsgd1na2vs0mg"},{"bike_id":"7b04c64e-9ca1-4d95-90ac-2b77b7a926a3","system_id":"levelo_inurba_marseille","lat":43.2991,"lon":5.37575,"is_reserved":false,"is_disabled":false,"rental_uris":{"android":"levelo://app?vid=7b04c64e-9ca1-4d95-90ac-2b77b7a926a3","ios":"levelo://app?vid=7b04c64e-9ca1-4d95-90ac-2b77b7a926a3"},"vehicle_type_id":"4","last_reported":1720116624,"current_range_meters":29600,"station_id":"","pricing_plan_id":"cebpf4jnsgd1na2vs0mg"},{"bike_id":"d73241d5-414b-447d-91ae-7266bdb8c805","system_id":"levelo_inurba_marseille","lat":43.297774,"lon":5.370875,"is_reserved":false,"is_disabled":false,"rental_uris":{"android":"levelo://app?vid=d73241d5-414b-447d-91ae-7266bdb8c805","ios":"levelo://app?vid=d73241d5-414b-447d-91ae-7266bdb8c805"},"vehicle_type_id":"4","last_reported":1720116624,"current_range_meters":31200,"station_id":"ce4bgop2rcd13ifvqc1g","pricing_plan_id":"cebpf4jnsgd1na2vs0mg"},{"bike_id":"440adda9-e71d-4dbb-a710-866a4e0d1213","system_id":"levelo_inurba_marseille","lat":43.297774,"lon":5.370875,"is_reserved":false,"is_disabled":false,"rental_uris":{"android":"levelo://app?vid=440adda9-e71d-4dbb-a710-866a4e0d1213","ios":"levelo://app?vid=440adda9-e71d-4dbb-a710-866a4e0d1213"},"vehicle_type_id":"4","last_reported":1720116624,"current_range_meters":9200,"station_id":"ce4bgop2rcd13ifvqc1g","pricing_plan_id":"cebpf4jnsgd1na2vs0mg"},{"bike_id":"f0e48a9b-30e4-4df9-925b-4ec0f9f0bd56","system_id":"levelo_inurba_marseille","lat":43.297774,"lon":5.370875,"is_reserved":false,"is_disabled":false,"rental_uris":{"android":"levelo://app?vid=f0e48a9b-30e4-4df9-925b-4ec0f9f0bd56","ios":"levelo://app?vid=f0e48a9b-30e4-4df9-925b-4ec0f9f0bd56"},"vehicle_type_id":"4","last_reported":1720116624,"current_range_meters":31200,"station_id":"ce4bgop2rcd13ifvqc1g","pricing_plan_id":"cebpf4jnsgd1na2vs0mg"},{"bike_id":"241f57d6-9e17-41b7-bd08-1c8fcd0504af","system_id":"levelo_inurba_marseille","lat":43.297774,"lon":5.370875,"is_reserved":false,"is_disabled":false,"rental_uris":{"android":"levelo://app?vid=241f57d6-9e17-41b7-bd08-1c8fcd0504af","ios":"levelo://app?vid=241f57d6-9e17-41b7-bd08-1c8fcd0504af"},"vehicle_type_id":"4","last_reported":1720116624,"current_range_meters":12800,"station_id":"ce4bgop2rcd13ifvqc1g","pricing_plan_id":"cebpf4jnsgd1na2vs0mg"},{"bike_id":"dc69a6cc-61c5-48e8-817c-d0fbfb9c9d22","system_id":"levelo_inurba_marseille","lat":43.297774,"lon":5.370875,"is_reserved":false,"is_disabled":false,"rental_uris":{"android":"levelo://app?vid=dc69a6cc-61c5-48e8-817c-d0fbfb9c9d22","ios":"levelo://app?vid=dc69a6cc-61c5-48e8-817c-d0fbfb9c9d22"},"vehicle_type_id":"4","last_reported":1720116624,"current_range_meters":24400,"station_id":"ce4bgop2rcd13ifvqc1g","pricing_plan_id":"cebpf4jnsgd1na2vs0mg"},{"bike_id":"27a6bef8-9fa2-4c7c-a852-ef52da7f4c34","system_id":"levelo_inurba_marseille","lat":43.32288,"lon":5.38266,"is_reserved":false,"is_disabled":false,"rental_uris":{"android":"levelo://app?vid=27a6bef8-9fa2-4c7c-a852-ef52da7f4c34","ios":"levelo://app?vid=27a6bef8-9fa2-4c7c-a852-ef52da7f4c34"},"vehicle_type_id":"4","last_reported":1720116624,"current_range_meters":27600,"station_id":"ce4bhr12rcd13ifvqhqg","pricing_plan_id":"cebpf4jnsgd1na2vs0mg"},{"bike_id":"6f3e3cce-7b60-40a8-bdf6-bd92cd111de5","system_id":"levelo_inurba_marseille","lat":43.322872,"lon":5.382756,"is_reserved":false,"is_disabled":false,"rental_uris":{"android":"levelo://app?vid=6f3e3cce-7b60-40a8-bdf6-bd92cd111de5","ios":"levelo://app?vid=6f3e3cce-7b60-40a8-bdf6-bd92cd111de5"},"vehicle_type_id":"4","last_reported":1720116624,"current_range_meters":17600,"station_id":"ce4bhr12rcd13ifvqhqg","pricing_plan_id":"cebpf4jnsgd1na2vs0mg"},{"bike_id":"faebd9e2-acf5-405f-b2f2-1c35c447af7f","system_id":"levelo_inurba_marseille","lat":43.297163,"lon":5.365866,"is_reserved":false,"is_disabled":false,"rental_uris":{"android":"levelo://app?vid=faebd9e2-acf5-405f-b2f2-1c35c447af7f","ios":"levelo://app?vid=faebd9e2-acf5-405f-b2f2-1c35c447af7f"},"vehicle_type_id":"4","last_reported":1720116624,"current_range_meters":400,"station_id":"ce4bgn12rcd13ifvqbt0","pricing_plan_id":"cebpf4jnsgd1na2vs0mg"},{"bike_id":"1204b2ed-dca3-4f27-acd6-f5783c91b1d3","system_id":"levelo_inurba_marseille","lat":43.297163,"lon":5.365866,"is_reserved":false,"is_disabled":false,"rental_uris":{"android":"levelo://app?vid=1204b2ed-dca3-4f27-acd6-f5783c91b1d3","ios":"levelo://app?vid=1204b2ed-dca3-4f27-acd6-f5783c91b1d3"},"vehicle_type_id":"4","last_reported":1720116624,"current_range_meters":26400,"station_id":"ce4bgn12rcd13ifvqbt0","pricing_plan_id":"cebpf4jnsgd1na2vs0mg"},{"bike_id":"73ccf1fd-c236-4e53-8c98-bc2f92b85df9","system_id":"levelo_inurba_marseille","lat":43.29716,"lon":5.36607,"is_reserved":false,"is_disabled":false,"rental_uris":{"android":"levelo://app?vid=73ccf1fd-c236-4e53-8c98-bc2f92b85df9","ios":"levelo://app?vid=73ccf1fd-c236-4e53-8c98-bc2f92b85df9"},"vehicle_type_id":"4","last_reported":1720116624,"current_range_meters":26800,"station_id":"ce4bgn12rcd13ifvqbt0","pricing_plan_id":"cebpf4jnsgd1na2vs0mg"},{"bike_id":"814afcf2-1235-4829-92f3-e0dca88bd8d1","system_id":"levelo_inurba_marseille","lat":43.29713,"lon":5.36617,"is_reserved":false,"is_disabled":false,"rental_uris":{"android":"levelo://app?vid=814afcf2-1235-4829-92f3-e0dca88bd8d1","ios":"levelo://app?vid=814afcf2-1235-4829-92f3-e0dca88bd8d1"},"vehicle_type_id":"4","last_reported":1720116624,"current_range_meters":14000,"station_id":"ce4bgn12rcd13ifvqbt0","pricing_plan_id":"cebpf4jnsgd1na2vs0mg"},{"bike_id":"e4318369-0be4-4151-bc29-2631d81dac5a","system_id":"levelo_inurba_marseille","lat":43.29712,"lon":5.36618,"is_reserved":false,"is_disabled":false,"rental_uris":{"android":"levelo://app?vid=e4318369-0be4-4151-bc29-2631d81dac5a","ios":"levelo://app?vid=e4318369-0be4-4151-bc29-2631d81dac5a"},"vehicle_type_id":"4","last_reported":1720116624,"current_range_meters":31200,"station_id":"ce4bgn12rcd13ifvqbt0","pricing_plan_id":"cebpf4jnsgd1na2vs0mg"},{"bike_id":"0ab10c3e-db4a-46b9-beb0-6622d2d8ed5a","system_id":"levelo_inurba_marseille","lat":43.29712,"lon":5.36611,"is_reserved":false,"is_disabled":false,"rental_uris":{"android":"levelo://app?vid=0ab10c3e-db4a-46b9-beb0-6622d2d8ed5a","ios":"levelo://app?vid=0ab10c3e-db4a-46b9-beb0-6622d2d8ed5a"},"vehicle_type_id":"4","last_reported":1720116624,"current_range_meters":5600,"station_id":"ce4bgn12rcd13ifvqbt0","pricing_plan_id":"cebpf4jnsgd1na2vs0mg"},{"bike_id":"076ea2d8-1302-4377-8971-e795e75783e8","system_id":"levelo_inurba_marseille","lat":43.29711,"lon":5.36618,"is_reserved":false,"is_disabled":false,"rental_uris":{"android":"levelo://app?vid=076ea2d8-1302-4377-8971-e795e75783e8","ios":"levelo://app?vid=076ea2d8-1302-4377-8971-e795e75783e8"},"vehicle_type_id":"4","last_reported":1720116624,"current_range_meters":31200,"station_id":"ce4bgn12rcd13ifvqbt0","pricing_plan_id":"cebpf4jnsgd1na2vs0mg"},{"bike_id":"012368b3-c62b-4510-b054-474e66dffcbc","system_id":"levelo_inurba_marseille","lat":43.297163,"lon":5.365866,"is_reserved":false,"is_disabled":false,"rental_uris":{"android":"levelo://app?vid=012368b3-c62b-4510-b054-474e66dffcbc","ios":"levelo://app?vid=012368b3-c62b-4510-b054-474e66dffcbc"},"vehicle_type_id":"4","last_reported":1720116624,"current_range_meters":6800,"station_id":"ce4bgn12rcd13ifvqbt0","pricing_plan_id":"cebpf4jnsgd1na2vs0mg"},{"bike_id":"b6a17daf-6460-4eb1-802f-c65fd9d42c94","system_id":"levelo_inurba_marseille","lat":43.29707,"lon":5.36616,"is_reserved":false,"is_disabled":false,"rental_uris":{"android":"levelo://app?vid=b6a17daf-6460-4eb1-802f-c65fd9d42c94","ios":"levelo://app?vid=b6a17daf-6460-4eb1-802f-c65fd9d42c94"},"vehicle_type_id":"4","last_reported":1720116624,"current_range_meters":10000,"station_id":"ce4bgn12rcd13ifvqbt0","pricing_plan_id":"cebpf4jnsgd1na2vs0mg"},{"bike_id":"6e40aecd-17e6-43f0-a92b-20e7e0d228c3","system_id":"levelo_inurba_marseille","lat":43.29706,"lon":5.36621,"is_reserved":false,"is_disabled":false,"rental_uris":{"android":"levelo://app?vid=6e40aecd-17e6-43f0-a92b-20e7e0d228c3","ios":"levelo://app?vid=6e40aecd-17e6-43f0-a92b-20e7e0d228c3"},"vehicle_type_id":"4","last_reported":1720116624,"current_range_meters":31200,"station_id":"ce4bgn12rcd13ifvqbt0","pricing_plan_id":"cebpf4jnsgd1na2vs0mg"},{"bike_id":"1a25f2ed-e9c1-4cb6-b799-a2b18ab73376","system_id":"levelo_inurba_marseille","lat":43.298263,"lon":5.37637,"is_reserved":false,"is_disabled":false,"rental_uris":{"android":"levelo://app?vid=1a25f2ed-e9c1-4cb6-b799-a2b18ab73376","ios":"levelo://app?vid=1a25f2ed-e9c1-4cb6-b799-a2b18ab73376"},"vehicle_type_id":"4","last_reported":1720116624,"current_range_meters":19200,"station_id":"","pricing_plan_id":"cebpf4jnsgd1na2vs0mg"},{"bike_id":"a3692e99-3ef4-41ff-a94c-e40fc272a060","system_id":"levelo_inurba_marseille","lat":43.2967,"lon":5.37169,"is_reserved":false,"is_disabled":false,"rental_uris":{"android":"levelo://app?vid=a3692e99-3ef4-41ff-a94c-e40fc272a060","ios":"levelo://app?vid=a3692e99-3ef4-41ff-a94c-e40fc272a060"},"vehicle_type_id":"4","last_reported":1720116624,"current_range_meters":16800,"station_id":"","pricing_plan_id":"cebpf4jnsgd1na2vs0mg"},{"bike_id":"da5efef3-ab49-43a0-a36d-bd9930b2d49f","system_id":"levelo_inurba_marseille","lat":43.2968,"lon":5.37291,"is_reserved":false,"is_disabled":false,"rental_uris":{"android":"levelo://app?vid=da5efef3-ab49-43a0-a36d-bd9930b2d49f","ios":"levelo://app?vid=da5efef3-ab49-43a0-a36d-bd9930b2d49f"},"vehicle_type_id":"4","last_reported":1720116624,"current_range_meters":24000,"station_id":"ce4bgk12rcd13ifvqbj0","pricing_plan_id":"cebpf4jnsgd1na2vs0mg"},{"bike_id":"0c845e77-91f9-4f53-b4c0-9cd585c05b3e","system_id":"levelo_inurba_marseille","lat":43.29663,"lon":5.36162,"is_reserved":false,"is_disabled":false,"rental_uris":{"android":"levelo://app?vid=0c845e77-91f9-4f53-b4c0-9cd585c05b3e","ios":"levelo://app?vid=0c845e77-91f9-4f53-b4c0-9cd585c05b3e"},"vehicle_type_id":"4","last_reported":1720116624,"current_range_meters":0,"station_id":"","pricing_plan_id":"cebpf4jnsgd1na2vs0mg"},{"bike_id":"d715c49b-bf13-4094-995f-ab277c83e85c","system_id":"levelo_inurba_marseille","lat":43.29573,"lon":5.367355,"is_reserved":false,"is_disabled":false,"rental_uris":{"android":"levelo://app?vid=d715c49b-bf13-4094-995f-ab277c83e85c","ios":"levelo://app?vid=d715c49b-bf13-4094-995f-ab277c83e85c"},"vehicle_type_id":"4","last_reported":1720116624,"current_range_meters":5200,"station_id":"ce4bgph2rcd13ifvqc2g","pricing_plan_id":"cebpf4jnsgd1na2vs0mg"},{"bike_id":"eb50f84a-36ee-4efa-bcbc-f2be1798d88d","system_id":"levelo_inurba_marseille","lat":43.29573,"lon":5.367355,"is_reserved":false,"is_disabled":false,"rental_uris":{"android":"levelo://app?vid=eb50f84a-36ee-4efa-bcbc-f2be1798d88d","ios":"levelo://app?vid=eb50f84a-36ee-4efa-bcbc-f2be1798d88d"},"vehicle_type_id":"4","last_reported":1720116624,"current_range_meters":22800,"station_id":"ce4bgph2rcd13ifvqc2g","pricing_plan_id":"cebpf4jnsgd1na2vs0mg"},{"bike_id":"ab9991af-7f80-416c-9368-d9c0ea862f29","system_id":"levelo_inurba_marseille","lat":43.29733,"lon":5.37682,"is_reserved":false,"is_disabled":false,"rental_uris":{"android":"levelo://app?vid=ab9991af-7f80-416c-9368-d9c0ea862f29","ios":"levelo://app?vid=ab9991af-7f80-416c-9368-d9c0ea862f29"},"vehicle_type_id":"4","last_reported":1720116624,"current_range_meters":25600,"station_id":"ce4bgkh2rcd13ifvqbl0","pricing_plan_id":"cebpf4jnsgd1na2vs0mg"},{"bike_id":"35b4f5b4-a454-4c45-8582-91bd8f3866bd","system_id":"levelo_inurba_marseille","lat":43.299028,"lon":5.381509,"is_reserved":false,"is_disabled":false,"rental_uris":{"android":"levelo://app?vid=35b4f5b4-a454-4c45-8582-91bd8f3866bd","ios":"levelo://app?vid=35b4f5b4-a454-4c45-8582-91bd8f3866bd"},"vehicle_type_id":"4","last_reported":1720116624,"current_range_meters":0,"station_id":"ce4bgj12rcd13ifvqbc0","pricing_plan_id":"cebpf4jnsgd1na2vs0mg"},{"bike_id":"7f43d8c6-46e3-4caa-a19c-22c73be46291","system_id":"levelo_inurba_marseille","lat":43.299028,"lon":5.381509,"is_reserved":false,"is_disabled":false,"rental_uris":{"android":"levelo://app?vid=7f43d8c6-46e3-4caa-a19c-22c73be46291","ios":"levelo://app?vid=7f43d8c6-46e3-4caa-a19c-22c73be46291"},"vehicle_type_id":"4","last_reported":1720116624,"current_range_meters":11200,"station_id":"ce4bgj12rcd13ifvqbc0","pricing_plan_id":"cebpf4jnsgd1na2vs0mg"},{"bike_id":"1b7b071f-5dc3-4680-88fd-e6ec14e4b679","system_id":"levelo_inurba_marseille","lat":43.30948,"lon":5.39032,"is_reserved":false,"is_disabled":false,"rental_uris":{"android":"levelo://app?vid=1b7b071f-5dc3-4680-88fd-e6ec14e4b679","ios":"levelo://app?vid=1b7b071f-5dc3-4680-88fd-e6ec14e4b679"},"vehicle_type_id":"4","last_reported":1720116624,"current_range_meters":0,"station_id":"ce4bgup2rcd13ifvqco0","pricing_plan_id":"cebpf4jnsgd1na2vs0mg"},{"bike_id":"db0c511e-4fc0-426a-a708-cd97f1f28a6c","system_id":"levelo_inurba_marseille","lat":43.30961,"lon":5.39036,"is_reserved":false,"is_disabled":false,"rental_uris":{"android":"levelo://app?vid=db0c511e-4fc0-426a-a708-cd97f1f28a6c","ios":"levelo://app?vid=db0c511e-4fc0-426a-a708-cd97f1f28a6c"},"vehicle_type_id":"4","last_reported":1720116624,"current_range_meters":0,"station_id":"ce4bgup2rcd13ifvqco0","pricing_plan_id":"cebpf4jnsgd1na2vs0mg"},{"bike_id":"ece62d3f-2451-468a-82fc-93afbdd896de","system_id":"levelo_inurba_marseille","lat":43.309589,"lon":5.390258,"is_reserved":false,"is_disabled":false,"rental_uris":{"android":"levelo://app?vid=ece62d3f-2451-468a-82fc-93afbdd896de","ios":"levelo://app?vid=ece62d3f-2451-468a-82fc-93afbdd896de"},"vehicle_type_id":"4","last_reported":1720116624,"current_range_meters":4400,"station_id":"ce4bgup2rcd13ifvqco0","pricing_plan_id":"cebpf4jnsgd1na2vs0mg"},{"bike_id":"fae349ab-a9cd-4a1a-915a-629c0d9e20a5","system_id":"levelo_inurba_marseille","lat":43.3096,"lon":5.39037,"is_reserved":false,"is_disabled":false,"rental_uris":{"android":"levelo://app?vid=fae349ab-a9cd-4a1a-915a-629c0d9e20a5","ios":"levelo://app?vid=fae349ab-a9cd-4a1a-915a-629c0d9e20a5"},"vehicle_type_id":"4","last_reported":1720116624,"current_range_meters":0,"station_id":"ce4bgup2rcd13ifvqco0","pricing_plan_id":"cebpf4jnsgd1na2vs0mg"},{"bike_id":"bea408c7-bd9c-4ff3-ab0c-c24096828cd4","system_id":"levelo_inurba_marseille","lat":43.296921,"lon":5.376579,"is_reserved":false,"is_disabled":false,"rental_uris":{"android":"levelo://app?vid=bea408c7-bd9c-4ff3-ab0c-c24096828cd4","ios":"levelo://app?vid=bea408c7-bd9c-4ff3-ab0c-c24096828cd4"},"vehicle_type_id":"4","last_reported":1720116624,"current_range_meters":30000,"station_id":"ce4bgkh2rcd13ifvqbl0","pricing_plan_id":"cebpf4jnsgd1na2vs0mg"},{"bike_id":"8f578c8d-b7aa-4cbe-b356-4a26910617e2","system_id":"levelo_inurba_marseille","lat":43.30957,"lon":5.39037,"is_reserved":false,"is_disabled":false,"rental_uris":{"android":"levelo://app?vid=8f578c8d-b7aa-4cbe-b356-4a26910617e2","ios":"levelo://app?vid=8f578c8d-b7aa-4cbe-b356-4a26910617e2"},"vehicle_type_id":"4","last_reported":1720116624,"current_range_meters":0,"station_id":"ce4bgup2rcd13ifvqco0","pricing_plan_id":"cebpf4jnsgd1na2vs0mg"},{"bike_id":"8f0cd4ee-7d6d-481c-8da5-6118526b24da","system_id":"levelo_inurba_marseille","lat":43.30956,"lon":5.390369,"is_reserved":false,"is_disabled":false,"rental_uris":{"android":"levelo://app?vid=8f0cd4ee-7d6d-481c-8da5-6118526b24da","ios":"levelo://app?vid=8f0cd4ee-7d6d-481c-8da5-6118526b24da"},"vehicle_type_id":"4","last_reported":1720116624,"current_range_meters":0,"station_id":"ce4bgup2rcd13ifvqco0","pricing_plan_id":"cebpf4jnsgd1na2vs0mg"},{"bike_id":"495f5ce8-9a2c-4ffc-a49a-5fa7557c8a31","system_id":"levelo_inurba_marseille","lat":43.309589,"lon":5.390258,"is_reserved":false,"is_disabled":false,"rental_uris":{"android":"levelo://app?vid=495f5ce8-9a2c-4ffc-a49a-5fa7557c8a31","ios":"levelo://app?vid=495f5ce8-9a2c-4ffc-a49a-5fa7557c8a31"},"vehicle_type_id":"4","last_reported":1720116624,"current_range_meters":28400,"station_id":"ce4bgup2rcd13ifvqco0","pricing_plan_id":"cebpf4jnsgd1na2vs0mg"},{"bike_id":"ca7c2519-c409-45c1-ba39-de8c8db6eb3b","system_id":"levelo_inurba_marseille","lat":43.31761,"lon":5.39011,"is_reserved":false,"is_disabled":false,"rental_uris":{"android":"levelo://app?vid=ca7c2519-c409-45c1-ba39-de8c8db6eb3b","ios":"levelo://app?vid=ca7c2519-c409-45c1-ba39-de8c8db6eb3b"},"vehicle_type_id":"4","last_reported":1720116624,"current_range_meters":9600,"station_id":"ce4bhqp2rcd13ifvqhng","pricing_plan_id":"cebpf4jnsgd1na2vs0mg"},{"bike_id":"361b0d3a-a684-41af-be33-938b35a202f4","system_id":"levelo_inurba_marseille","lat":43.31756,"lon":5.39013,"is_reserved":false,"is_disabled":false,"rental_uris":{"android":"levelo://app?vid=361b0d3a-a684-41af-be33-938b35a202f4","ios":"levelo://app?vid=361b0d3a-a684-41af-be33-938b35a202f4"},"vehicle_type_id":"4","last_reported":1720116624,"current_range_meters":8800,"station_id":"ce4bhqp2rcd13ifvqhng","pricing_plan_id":"cebpf4jnsgd1na2vs0mg"},{"bike_id":"86011536-ef5c-47b9-b809-58c26ee4e4e6","system_id":"levelo_inurba_marseille","lat":43.31759,"lon":5.39014,"is_reserved":false,"is_disabled":false,"rental_uris":{"android":"levelo://app?vid=86011536-ef5c-47b9-b809-58c26ee4e4e6","ios":"levelo://app?vid=86011536-ef5c-47b9-b809-58c26ee4e4e6"},"vehicle_type_id":"4","last_reported":1720116624,"current_range_meters":20800,"station_id":"ce4bhqp2rcd13ifvqhng","pricing_plan_id":"cebpf4jnsgd1na2vs0mg"},{"bike_id":"7dc90a2d-af93-452b-b498-8dd3995e678c","system_id":"levelo_inurba_marseille","lat":43.31757,"lon":5.39018,"is_reserved":false,"is_disabled":false,"rental_uris":{"android":"levelo://app?vid=7dc90a2d-af93-452b-b498-8dd3995e678c","ios":"levelo://app?vid=7dc90a2d-af93-452b-b498-8dd3995e678c"},"vehicle_type_id":"4","last_reported":1720116624,"current_range_meters":10400,"station_id":"ce4bhqp2rcd13ifvqhng","pricing_plan_id":"cebpf4jnsgd1na2vs0mg"},{"bike_id":"f9f10e00-bc96-4c28-b9bb-8eaa089d3c2e","system_id":"levelo_inurba_marseille","lat":43.29802,"lon":5.38107,"is_reserved":false,"is_disabled":false,"rental_uris":{"android":"levelo://app?vid=f9f10e00-bc96-4c28-b9bb-8eaa089d3c2e","ios":"levelo://app?vid=f9f10e00-bc96-4c28-b9bb-8eaa089d3c2e"},"vehicle_type_id":"4","last_reported":1720116624,"current_range_meters":0,"station_id":"ce4bgip2rcd13ifvqbb0","pricing_plan_id":"cebpf4jnsgd1na2vs0mg"},{"bike_id":"9166ce39-062c-444a-980c-a7f7ed5a474d","system_id":"levelo_inurba_marseille","lat":43.29579,"lon":5.37513,"is_reserved":false,"is_disabled":false,"rental_uris":{"android":"levelo://app?vid=9166ce39-062c-444a-980c-a7f7ed5a474d","ios":"levelo://app?vid=9166ce39-062c-444a-980c-a7f7ed5a474d"},"vehicle_type_id":"4","last_reported":1720116624,"current_range_meters":26400,"station_id":"ce4bgh92rcd13ifvqb50","pricing_plan_id":"cebpf4jnsgd1na2vs0mg"},{"bike_id":"709281af-6641-4b06-972c-d3b892b9f420","system_id":"levelo_inurba_marseille","lat":43.273125,"lon":5.390731,"is_reserved":false,"is_disabled":false,"rental_uris":{"android":"levelo://app?vid=709281af-6641-4b06-972c-d3b892b9f420","ios":"levelo://app?vid=709281af-6641-4b06-972c-d3b892b9f420"},"vehicle_type_id":"4","last_reported":1720116624,"current_range_meters":11200,"station_id":"ce4bhgp2rcd13ifvqfe0","pricing_plan_id":"cebpf4jnsgd1na2vs0mg"},{"bike_id":"219fef35-c6ca-4bd6-90e6-b53d224fcc2a","system_id":"levelo_inurba_marseille","lat":43.304278,"lon":5.388868,"is_reserved":false,"is_disabled":false,"rental_uris":{"android":"levelo://app?vid=219fef35-c6ca-4bd6-90e6-b53d224fcc2a","ios":"levelo://app?vid=219fef35-c6ca-4bd6-90e6-b53d224fcc2a"},"vehicle_type_id":"4","last_reported":1720116624,"current_range_meters":0,"station_id":"ce4bgk12rcd13ifvqbi0","pricing_plan_id":"cebpf4jnsgd1na2vs0mg"},{"bike_id":"153be12e-c4d7-4093-9db1-fa5ea14b64f2","system_id":"levelo_inurba_marseille","lat":43.30423,"lon":5.38893,"is_reserved":false,"is_disabled":false,"rental_uris":{"android":"levelo://app?vid=153be12e-c4d7-4093-9db1-fa5ea14b64f2","ios":"levelo://app?vid=153be12e-c4d7-4093-9db1-fa5ea14b64f2"},"vehicle_type_id":"4","last_reported":1720116624,"current_range_meters":800,"station_id":"ce4bgk12rcd13ifvqbi0","pricing_plan_id":"cebpf4jnsgd1na2vs0mg"},{"bike_id":"a62a6772-1827-4ea0-b2fd-07da0f5bf9cb","system_id":"levelo_inurba_marseille","lat":43.29613,"lon":5.37711,"is_reserved":false,"is_disabled":false,"rental_uris":{"android":"levelo://app?vid=a62a6772-1827-4ea0-b2fd-07da0f5bf9cb","ios":"levelo://app?vid=a62a6772-1827-4ea0-b2fd-07da0f5bf9cb"},"vehicle_type_id":"4","last_reported":1720116624,"current_range_meters":30400,"station_id":"ce4bgi92rcd13ifvqb90","pricing_plan_id":"cebpf4jnsgd1na2vs0mg"},{"bike_id":"3ea5e04e-80ed-4ef1-b83c-32a5c2055caf","system_id":"levelo_inurba_marseille","lat":43.296263,"lon":5.377094,"is_reserved":false,"is_disabled":false,"rental_uris":{"android":"levelo://app?vid=3ea5e04e-80ed-4ef1-b83c-32a5c2055caf","ios":"levelo://app?vid=3ea5e04e-80ed-4ef1-b83c-32a5c2055caf"},"vehicle_type_id":"4","last_reported":1720116624,"current_range_meters":9200,"station_id":"ce4bgi92rcd13ifvqb90","pricing_plan_id":"cebpf4jnsgd1na2vs0mg"},{"bike_id":"58434d12-2775-4e83-ac96-28be9ead8bff","system_id":"levelo_inurba_marseille","lat":43.296277,"lon":5.377108,"is_reserved":false,"is_disabled":false,"rental_uris":{"android":"levelo://app?vid=58434d12-2775-4e83-ac96-28be9ead8bff","ios":"levelo://app?vid=58434d12-2775-4e83-ac96-28be9ead8bff"},"vehicle_type_id":"4","last_reported":1720116624,"current_range_meters":21600,"station_id":"ce4bgi92rcd13ifvqb90","pricing_plan_id":"cebpf4jnsgd1na2vs0mg"},{"bike_id":"5c05d713-1603-497f-a294-19c3fcf58b50","system_id":"levelo_inurba_marseille","lat":43.296277,"lon":5.377108,"is_reserved":false,"is_disabled":false,"rental_uris":{"android":"levelo://app?vid=5c05d713-1603-497f-a294-19c3fcf58b50","ios":"levelo://app?vid=5c05d713-1603-497f-a294-19c3fcf58b50"},"vehicle_type_id":"4","last_reported":1720116624,"current_range_meters":0,"station_id":"ce4bgi92rcd13ifvqb90","pricing_plan_id":"cebpf4jnsgd1na2vs0mg"},{"bike_id":"6aaf6676-d972-4530-8010-2b37c9f218e4","system_id":"levelo_inurba_marseille","lat":43.296277,"lon":5.377108,"is_reserved":false,"is_disabled":false,"rental_uris":{"android":"levelo://app?vid=6aaf6676-d972-4530-8010-2b37c9f218e4","ios":"levelo://app?vid=6aaf6676-d972-4530-8010-2b37c9f218e4"},"vehicle_type_id":"4","last_reported":1720116624,"current_range_meters":7200,"station_id":"ce4bgi92rcd13ifvqb90","pricing_plan_id":"cebpf4jnsgd1na2vs0mg"},{"bike_id":"32ea2e94-456a-477c-a785-08641b4adc93","system_id":"levelo_inurba_marseille","lat":43.2953,"lon":5.37503,"is_reserved":false,"is_disabled":false,"rental_uris":{"android":"levelo://app?vid=32ea2e94-456a-477c-a785-08641b4adc93","ios":"levelo://app?vid=32ea2e94-456a-477c-a785-08641b4adc93"},"vehicle_type_id":"4","last_reported":1720116624,"current_range_meters":31200,"station_id":"ce4bgkp2rcd13ifvqbmg","pricing_plan_id":"cebpf4jnsgd1na2vs0mg"},{"bike_id":"be50c5ff-746b-4b56-9311-957d28a05315","system_id":"levelo_inurba_marseille","lat":43.295279,"lon":5.375048,"is_reserved":false,"is_disabled":false,"rental_uris":{"android":"levelo://app?vid=be50c5ff-746b-4b56-9311-957d28a05315","ios":"levelo://app?vid=be50c5ff-746b-4b56-9311-957d28a05315"},"vehicle_type_id":"4","last_reported":1720116624,"current_range_meters":29200,"station_id":"ce4bgkp2rcd13ifvqbmg","pricing_plan_id":"cebpf4jnsgd1na2vs0mg"},{"bike_id":"059f8725-cb45-40e0-a7cb-c31f4c5d6a54","system_id":"levelo_inurba_marseille","lat":43.299717,"lon":5.384845,"is_reserved":false,"is_disabled":false,"rental_uris":{"android":"levelo://app?vid=059f8725-cb45-40e0-a7cb-c31f4c5d6a54","ios":"levelo://app?vid=059f8725-cb45-40e0-a7cb-c31f4c5d6a54"},"vehicle_type_id":"4","last_reported":1720116624,"current_range_meters":0,"station_id":"ce4bgj92rcd13ifvqbd0","pricing_plan_id":"cebpf4jnsgd1na2vs0mg"},{"bike_id":"c5e07c1e-c0c2-48f0-ae12-431204fc3da6","system_id":"levelo_inurba_marseille","lat":43.299724,"lon":5.384848,"is_reserved":false,"is_disabled":false,"rental_uris":{"android":"levelo://app?vid=c5e07c1e-c0c2-48f0-ae12-431204fc3da6","ios":"levelo://app?vid=c5e07c1e-c0c2-48f0-ae12-431204fc3da6"},"vehicle_type_id":"4","last_reported":1720116624,"current_range_meters":8000,"station_id":"ce4bgj92rcd13ifvqbd0","pricing_plan_id":"cebpf4jnsgd1na2vs0mg"},{"bike_id":"8944dc09-4a90-4c29-b2f9-29e9f1869f6e","system_id":"levelo_inurba_marseille","lat":43.299724,"lon":5.384848,"is_reserved":false,"is_disabled":false,"rental_uris":{"android":"levelo://app?vid=8944dc09-4a90-4c29-b2f9-29e9f1869f6e","ios":"levelo://app?vid=8944dc09-4a90-4c29-b2f9-29e9f1869f6e"},"vehicle_type_id":"4","last_reported":1720116624,"current_range_meters":0,"station_id":"ce4bgj92rcd13ifvqbd0","pricing_plan_id":"cebpf4jnsgd1na2vs0mg"},{"bike_id":"eda0cff3-65a3-4c80-9316-15d5ceb5ca1c","system_id":"levelo_inurba_marseille","lat":43.32368,"lon":5.38883,"is_reserved":false,"is_disabled":false,"rental_uris":{"android":"levelo://app?vid=eda0cff3-65a3-4c80-9316-15d5ceb5ca1c","ios":"levelo://app?vid=eda0cff3-65a3-4c80-9316-15d5ceb5ca1c"},"vehicle_type_id":"4","last_reported":1720116624,"current_range_meters":0,"station_id":"ce4bhqp2rcd13ifvqhog","pricing_plan_id":"cebpf4jnsgd1na2vs0mg"},{"bike_id":"26a6375c-a9c4-4196-b6fc-96154bdda326","system_id":"levelo_inurba_marseille","lat":43.29338,"lon":5.37121,"is_reserved":false,"is_disabled":false,"rental_uris":{"android":"levelo://app?vid=26a6375c-a9c4-4196-b6fc-96154bdda326","ios":"levelo://app?vid=26a6375c-a9c4-4196-b6fc-96154bdda326"},"vehicle_type_id":"4","last_reported":1720116624,"current_range_meters":20800,"station_id":"","pricing_plan_id":"cebpf4jnsgd1na2vs0mg"},{"bike_id":"a034c475-8db5-4cf9-bf3b-d597ac3328ff","system_id":"levelo_inurba_marseille","lat":43.29594,"lon":5.38096,"is_reserved":false,"is_disabled":false,"rental_uris":{"android":"levelo://app?vid=a034c475-8db5-4cf9-bf3b-d597ac3328ff","ios":"levelo://app?vid=a034c475-8db5-4cf9-bf3b-d597ac3328ff"},"vehicle_type_id":"4","last_reported":1720116624,"current_range_meters":0,"station_id":"ce4bgl12rcd13ifvqbo0","pricing_plan_id":"cebpf4jnsgd1na2vs0mg"},{"bike_id":"1a95a5f8-804d-43d9-93be-cee92f812da8","system_id":"levelo_inurba_marseille","lat":43.29593,"lon":5.38105,"is_reserved":false,"is_disabled":false,"rental_uris":{"android":"levelo://app?vid=1a95a5f8-804d-43d9-93be-cee92f812da8","ios":"levelo://app?vid=1a95a5f8-804d-43d9-93be-cee92f812da8"},"vehicle_type_id":"4","last_reported":1720116624,"current_range_meters":0,"station_id":"ce4bgl12rcd13ifvqbo0","pricing_plan_id":"cebpf4jnsgd1na2vs0mg"},{"bike_id":"d38f2a16-6068-4853-9ee6-069b60f007f4","system_id":"levelo_inurba_marseille","lat":43.293259,"lon":5.371586,"is_reserved":false,"is_disabled":false,"rental_uris":{"android":"levelo://app?vid=d38f2a16-6068-4853-9ee6-069b60f007f4","ios":"levelo://app?vid=d38f2a16-6068-4853-9ee6-069b60f007f4"},"vehicle_type_id":"4","last_reported":1720116624,"current_range_meters":5600,"station_id":"ce4bgh92rcd13ifvqb40","pricing_plan_id":"cebpf4jnsgd1na2vs0mg"},{"bike_id":"bab5c326-1ddd-477e-9f8e-272a47628124","system_id":"levelo_inurba_marseille","lat":43.292749,"lon":5.368402,"is_reserved":false,"is_disabled":false,"rental_uris":{"android":"levelo://app?vid=bab5c326-1ddd-477e-9f8e-272a47628124","ios":"levelo://app?vid=bab5c326-1ddd-477e-9f8e-272a47628124"},"vehicle_type_id":"4","last_reported":1720116624,"current_range_meters":22800,"station_id":"ce4bhbp2rcd13ifvqesg","pricing_plan_id":"cebpf4jnsgd1na2vs0mg"},{"bike_id":"df7353db-4fb3-4d08-b785-141cb58d7540","system_id":"levelo_inurba_marseille","lat":43.305994,"lon":5.393687,"is_reserved":false,"is_disabled":false,"rental_uris":{"android":"levelo://app?vid=df7353db-4fb3-4d08-b785-141cb58d7540","ios":"levelo://app?vid=df7353db-4fb3-4d08-b785-141cb58d7540"},"vehicle_type_id":"4","last_reported":1720116624,"current_range_meters":1200,"station_id":"ce4bh0p2rcd13ifvqd80","pricing_plan_id":"cebpf4jnsgd1na2vs0mg"},{"bike_id":"20e65a83-5ffb-4ba9-b25b-218956ab24ec","system_id":"levelo_inurba_marseille","lat":43.305994,"lon":5.393687,"is_reserved":false,"is_disabled":false,"rental_uris":{"android":"levelo://app?vid=20e65a83-5ffb-4ba9-b25b-218956ab24ec","ios":"levelo://app?vid=20e65a83-5ffb-4ba9-b25b-218956ab24ec"},"vehicle_type_id":"4","last_reported":1720116624,"current_range_meters":3200,"station_id":"ce4bh0p2rcd13ifvqd80","pricing_plan_id":"cebpf4jnsgd1na2vs0mg"},{"bike_id":"27bc4099-eba7-40ae-8949-5d26621d734d","system_id":"levelo_inurba_marseille","lat":43.305994,"lon":5.393687,"is_reserved":false,"is_disabled":false,"rental_uris":{"android":"levelo://app?vid=27bc4099-eba7-40ae-8949-5d26621d734d","ios":"levelo://app?vid=27bc4099-eba7-40ae-8949-5d26621d734d"},"vehicle_type_id":"4","last_reported":1720116624,"current_range_meters":0,"station_id":"ce4bh0p2rcd13ifvqd80","pricing_plan_id":"cebpf4jnsgd1na2vs0mg"},{"bike_id":"06c9c742-0ee9-4ffe-849d-64bdb1031977","system_id":"levelo_inurba_marseille","lat":43.305994,"lon":5.393687,"is_reserved":false,"is_disabled":false,"rental_uris":{"android":"levelo://app?vid=06c9c742-0ee9-4ffe-849d-64bdb1031977","ios":"levelo://app?vid=06c9c742-0ee9-4ffe-849d-64bdb1031977"},"vehicle_type_id":"4","last_reported":1720116624,"current_range_meters":1600,"station_id":"ce4bh0p2rcd13ifvqd80","pricing_plan_id":"cebpf4jnsgd1na2vs0mg"},{"bike_id":"91d2e3d9-de79-497a-a96f-30bf9cb8e322","system_id":"levelo_inurba_marseille","lat":43.30304,"lon":5.39209,"is_reserved":false,"is_disabled":false,"rental_uris":{"android":"levelo://app?vid=91d2e3d9-de79-497a-a96f-30bf9cb8e322","ios":"levelo://app?vid=91d2e3d9-de79-497a-a96f-30bf9cb8e322"},"vehicle_type_id":"4","last_reported":1720116624,"current_range_meters":0,"station_id":"ce4bgkh2rcd13ifvqbk0","pricing_plan_id":"cebpf4jnsgd1na2vs0mg"},{"bike_id":"3561d279-2d76-4df6-adc1-f640076cc3e3","system_id":"levelo_inurba_marseille","lat":43.2936,"lon":5.37835,"is_reserved":false,"is_disabled":false,"rental_uris":{"android":"levelo://app?vid=3561d279-2d76-4df6-adc1-f640076cc3e3","ios":"levelo://app?vid=3561d279-2d76-4df6-adc1-f640076cc3e3"},"vehicle_type_id":"4","last_reported":1720116624,"current_range_meters":2800,"station_id":"ce4bgjh2rcd13ifvqbf0","pricing_plan_id":"cebpf4jnsgd1na2vs0mg"},{"bike_id":"a91850ea-bfbf-4990-a4d6-1b0ac1979e7b","system_id":"levelo_inurba_marseille","lat":43.2923,"lon":5.36075,"is_reserved":false,"is_disabled":false,"rental_uris":{"android":"levelo://app?vid=a91850ea-bfbf-4990-a4d6-1b0ac1979e7b","ios":"levelo://app?vid=a91850ea-bfbf-4990-a4d6-1b0ac1979e7b"},"vehicle_type_id":"4","last_reported":1720116624,"current_range_meters":18400,"station_id":"ce4bhbh2rcd13ifvqeqg","pricing_plan_id":"cebpf4jnsgd1na2vs0mg"},{"bike_id":"a8483b5e-6f8e-4986-b944-e63a34db9a24","system_id":"levelo_inurba_marseille","lat":43.292311,"lon":5.360731,"is_reserved":false,"is_disabled":false,"rental_uris":{"android":"levelo://app?vid=a8483b5e-6f8e-4986-b944-e63a34db9a24","ios":"levelo://app?vid=a8483b5e-6f8e-4986-b944-e63a34db9a24"},"vehicle_type_id":"4","last_reported":1720116624,"current_range_meters":13200,"station_id":"ce4bhbh2rcd13ifvqeqg","pricing_plan_id":"cebpf4jnsgd1na2vs0mg"},{"bike_id":"e7dff97d-c478-414b-b887-2eedd0f534b2","system_id":"levelo_inurba_marseille","lat":43.292311,"lon":5.360731,"is_reserved":false,"is_disabled":false,"rental_uris":{"android":"levelo://app?vid=e7dff97d-c478-414b-b887-2eedd0f534b2","ios":"levelo://app?vid=e7dff97d-c478-414b-b887-2eedd0f534b2"},"vehicle_type_id":"4","last_reported":1720116624,"current_range_meters":0,"station_id":"ce4bhbh2rcd13ifvqeqg","pricing_plan_id":"cebpf4jnsgd1na2vs0mg"},{"bike_id":"01b8829b-6a29-44cf-83f1-57e09e16f545","system_id":"levelo_inurba_marseille","lat":43.2936,"lon":5.37835,"is_reserved":false,"is_disabled":false,"rental_uris":{"android":"levelo://app?vid=01b8829b-6a29-44cf-83f1-57e09e16f545","ios":"levelo://app?vid=01b8829b-6a29-44cf-83f1-57e09e16f545"},"vehicle_type_id":"4","last_reported":1720116624,"current_range_meters":11600,"station_id":"ce4bgjh2rcd13ifvqbf0","pricing_plan_id":"cebpf4jnsgd1na2vs0mg"},{"bike_id":"51719fc3-ab9f-4056-9343-a65d2ff77c8b","system_id":"levelo_inurba_marseille","lat":43.292311,"lon":5.360731,"is_reserved":false,"is_disabled":false,"rental_uris":{"android":"levelo://app?vid=51719fc3-ab9f-4056-9343-a65d2ff77c8b","ios":"levelo://app?vid=51719fc3-ab9f-4056-9343-a65d2ff77c8b"},"vehicle_type_id":"4","last_reported":1720116624,"current_range_meters":21600,"station_id":"ce4bhbh2rcd13ifvqeqg","pricing_plan_id":"cebpf4jnsgd1na2vs0mg"},{"bike_id":"a3a2641c-177c-4507-ad4f-c98dd3cba7f6","system_id":"levelo_inurba_marseille","lat":43.29228,"lon":5.36071,"is_reserved":false,"is_disabled":false,"rental_uris":{"android":"levelo://app?vid=a3a2641c-177c-4507-ad4f-c98dd3cba7f6","ios":"levelo://app?vid=a3a2641c-177c-4507-ad4f-c98dd3cba7f6"},"vehicle_type_id":"4","last_reported":1720116624,"current_range_meters":15600,"station_id":"ce4bhbh2rcd13ifvqeqg","pricing_plan_id":"cebpf4jnsgd1na2vs0mg"},{"bike_id":"37b19bba-9a09-4a84-aded-4e99ff1c83cd","system_id":"levelo_inurba_marseille","lat":43.292311,"lon":5.360731,"is_reserved":false,"is_disabled":false,"rental_uris":{"android":"levelo://app?vid=37b19bba-9a09-4a84-aded-4e99ff1c83cd","ios":"levelo://app?vid=37b19bba-9a09-4a84-aded-4e99ff1c83cd"},"vehicle_type_id":"4","last_reported":1720116624,"current_range_meters":800,"station_id":"ce4bhbh2rcd13ifvqeqg","pricing_plan_id":"cebpf4jnsgd1na2vs0mg"},{"bike_id":"9b2b78ff-2ac6-489e-8bf2-489806a161e1","system_id":"levelo_inurba_marseille","lat":43.292311,"lon":5.360731,"is_reserved":false,"is_disabled":false,"rental_uris":{"android":"levelo://app?vid=9b2b78ff-2ac6-489e-8bf2-489806a161e1","ios":"levelo://app?vid=9b2b78ff-2ac6-489e-8bf2-489806a161e1"},"vehicle_type_id":"4","last_reported":1720116624,"current_range_meters":20400,"station_id":"ce4bhbh2rcd13ifvqeqg","pricing_plan_id":"cebpf4jnsgd1na2vs0mg"},{"bike_id":"2df6d7dd-9062-4667-93aa-f6df4a9f5d30","system_id":"levelo_inurba_marseille","lat":43.292311,"lon":5.360731,"is_reserved":false,"is_disabled":false,"rental_uris":{"android":"levelo://app?vid=2df6d7dd-9062-4667-93aa-f6df4a9f5d30","ios":"levelo://app?vid=2df6d7dd-9062-4667-93aa-f6df4a9f5d30"},"vehicle_type_id":"4","last_reported":1720116624,"current_range_meters":28800,"station_id":"ce4bhbh2rcd13ifvqeqg","pricing_plan_id":"cebpf4jnsgd1na2vs0mg"},{"bike_id":"69ca9de9-ff4d-42db-a61e-86adf2671131","system_id":"levelo_inurba_marseille","lat":43.292311,"lon":5.360731,"is_reserved":false,"is_disabled":false,"rental_uris":{"android":"levelo://app?vid=69ca9de9-ff4d-42db-a61e-86adf2671131","ios":"levelo://app?vid=69ca9de9-ff4d-42db-a61e-86adf2671131"},"vehicle_type_id":"4","last_reported":1720116624,"current_range_meters":30800,"station_id":"ce4bhbh2rcd13ifvqeqg","pricing_plan_id":"cebpf4jnsgd1na2vs0mg"},{"bike_id":"e91d02fb-f316-4ad6-a310-4d0fd79821f8","system_id":"levelo_inurba_marseille","lat":43.292311,"lon":5.360731,"is_reserved":false,"is_disabled":false,"rental_uris":{"android":"levelo://app?vid=e91d02fb-f316-4ad6-a310-4d0fd79821f8","ios":"levelo://app?vid=e91d02fb-f316-4ad6-a310-4d0fd79821f8"},"vehicle_type_id":"4","last_reported":1720116624,"current_range_meters":6000,"station_id":"ce4bhbh2rcd13ifvqeqg","pricing_plan_id":"cebpf4jnsgd1na2vs0mg"},{"bike_id":"38f9718a-a028-4a40-8600-1eca7e1a5723","system_id":"levelo_inurba_marseille","lat":43.292311,"lon":5.360731,"is_reserved":false,"is_disabled":false,"rental_uris":{"android":"levelo://app?vid=38f9718a-a028-4a40-8600-1eca7e1a5723","ios":"levelo://app?vid=38f9718a-a028-4a40-8600-1eca7e1a5723"},"vehicle_type_id":"4","last_reported":1720116624,"current_range_meters":0,"station_id":"ce4bhbh2rcd13ifvqeqg","pricing_plan_id":"cebpf4jnsgd1na2vs0mg"},{"bike_id":"7c496adf-8f61-4ca3-9e57-82df9e480db2","system_id":"levelo_inurba_marseille","lat":43.292311,"lon":5.360731,"is_reserved":false,"is_disabled":false,"rental_uris":{"android":"levelo://app?vid=7c496adf-8f61-4ca3-9e57-82df9e480db2","ios":"levelo://app?vid=7c496adf-8f61-4ca3-9e57-82df9e480db2"},"vehicle_type_id":"4","last_reported":1720116624,"current_range_meters":3600,"station_id":"ce4bhbh2rcd13ifvqeqg","pricing_plan_id":"cebpf4jnsgd1na2vs0mg"},{"bike_id":"7591f944-6272-4afe-9482-d6c2e4f0b3b2","system_id":"levelo_inurba_marseille","lat":43.292311,"lon":5.360731,"is_reserved":false,"is_disabled":false,"rental_uris":{"android":"levelo://app?vid=7591f944-6272-4afe-9482-d6c2e4f0b3b2","ios":"levelo://app?vid=7591f944-6272-4afe-9482-d6c2e4f0b3b2"},"vehicle_type_id":"4","last_reported":1720116624,"current_range_meters":0,"station_id":"ce4bhbh2rcd13ifvqeqg","pricing_plan_id":"cebpf4jnsgd1na2vs0mg"},{"bike_id":"15086dac-c798-4d65-87f0-0c18e7088852","system_id":"levelo_inurba_marseille","lat":43.30085,"lon":5.390856,"is_reserved":false,"is_disabled":false,"rental_uris":{"android":"levelo://app?vid=15086dac-c798-4d65-87f0-0c18e7088852","ios":"levelo://app?vid=15086dac-c798-4d65-87f0-0c18e7088852"},"vehicle_type_id":"4","last_reported":1720116624,"current_range_meters":0,"station_id":"ce4bh192rcd13ifvqdb0","pricing_plan_id":"cebpf4jnsgd1na2vs0mg"},{"bike_id":"5c47c20a-e51b-4fd0-999b-c5865bfc91d0","system_id":"levelo_inurba_marseille","lat":43.292311,"lon":5.360731,"is_reserved":false,"is_disabled":false,"rental_uris":{"android":"levelo://app?vid=5c47c20a-e51b-4fd0-999b-c5865bfc91d0","ios":"levelo://app?vid=5c47c20a-e51b-4fd0-999b-c5865bfc91d0"},"vehicle_type_id":"4","last_reported":1720116624,"current_range_meters":7200,"station_id":"ce4bhbh2rcd13ifvqeqg","pricing_plan_id":"cebpf4jnsgd1na2vs0mg"},{"bike_id":"45a81b77-41c7-4a20-811e-b7b51aaba6b9","system_id":"levelo_inurba_marseille","lat":43.298764,"lon":5.388973,"is_reserved":false,"is_disabled":false,"rental_uris":{"android":"levelo://app?vid=45a81b77-41c7-4a20-811e-b7b51aaba6b9","ios":"levelo://app?vid=45a81b77-41c7-4a20-811e-b7b51aaba6b9"},"vehicle_type_id":"4","last_reported":1720116624,"current_range_meters":0,"station_id":"ce4bh392rcd13ifvqdl0","pricing_plan_id":"cebpf4jnsgd1na2vs0mg"},{"bike_id":"431118fb-2fc4-4f08-a540-bdd5cc92d322","system_id":"levelo_inurba_marseille","lat":43.309038,"lon":5.396546,"is_reserved":false,"is_disabled":false,"rental_uris":{"android":"levelo://app?vid=431118fb-2fc4-4f08-a540-bdd5cc92d322","ios":"levelo://app?vid=431118fb-2fc4-4f08-a540-bdd5cc92d322"},"vehicle_type_id":"4","last_reported":1720116624,"current_range_meters":26800,"station_id":"ce4bh012rcd13ifvqcv0","pricing_plan_id":"cebpf4jnsgd1na2vs0mg"},{"bike_id":"591504a0-11bf-42fe-9117-351120b7d9db","system_id":"levelo_inurba_marseille","lat":43.309047,"lon":5.396551,"is_reserved":false,"is_disabled":false,"rental_uris":{"android":"levelo://app?vid=591504a0-11bf-42fe-9117-351120b7d9db","ios":"levelo://app?vid=591504a0-11bf-42fe-9117-351120b7d9db"},"vehicle_type_id":"4","last_reported":1720116624,"current_range_meters":1600,"station_id":"ce4bh012rcd13ifvqcv0","pricing_plan_id":"cebpf4jnsgd1na2vs0mg"},{"bike_id":"6abd54b1-09be-4352-92e6-cc6f12635b43","system_id":"levelo_inurba_marseille","lat":43.292005,"lon":5.357875,"is_reserved":false,"is_disabled":false,"rental_uris":{"android":"levelo://app?vid=6abd54b1-09be-4352-92e6-cc6f12635b43","ios":"levelo://app?vid=6abd54b1-09be-4352-92e6-cc6f12635b43"},"vehicle_type_id":"4","last_reported":1720116624,"current_range_meters":30000,"station_id":"ce4bhb12rcd13ifvqel0","pricing_plan_id":"cebpf4jnsgd1na2vs0mg"},{"bike_id":"9ab5a3c2-79b9-4d4a-845b-c36214cf69b1","system_id":"levelo_inurba_marseille","lat":43.309047,"lon":5.396551,"is_reserved":false,"is_disabled":false,"rental_uris":{"android":"levelo://app?vid=9ab5a3c2-79b9-4d4a-845b-c36214cf69b1","ios":"levelo://app?vid=9ab5a3c2-79b9-4d4a-845b-c36214cf69b1"},"vehicle_type_id":"4","last_reported":1720116624,"current_range_meters":11600,"station_id":"ce4bh012rcd13ifvqcv0","pricing_plan_id":"cebpf4jnsgd1na2vs0mg"},{"bike_id":"7d0c1d65-23e5-4212-bd8b-8a98f4e0d8f4","system_id":"levelo_inurba_marseille","lat":43.29189,"lon":5.35806,"is_reserved":false,"is_disabled":false,"rental_uris":{"android":"levelo://app?vid=7d0c1d65-23e5-4212-bd8b-8a98f4e0d8f4","ios":"levelo://app?vid=7d0c1d65-23e5-4212-bd8b-8a98f4e0d8f4"},"vehicle_type_id":"4","last_reported":1720116624,"current_range_meters":27200,"station_id":"ce4bhb12rcd13ifvqel0","pricing_plan_id":"cebpf4jnsgd1na2vs0mg"},{"bike_id":"93709b7e-9f08-44eb-a9e7-f6015e53c347","system_id":"levelo_inurba_marseille","lat":43.313291,"lon":5.396838,"is_reserved":false,"is_disabled":false,"rental_uris":{"android":"levelo://app?vid=93709b7e-9f08-44eb-a9e7-f6015e53c347","ios":"levelo://app?vid=93709b7e-9f08-44eb-a9e7-f6015e53c347"},"vehicle_type_id":"4","last_reported":1720116624,"current_range_meters":2800,"station_id":"ce4bgvp2rcd13ifvqcu0","pricing_plan_id":"cebpf4jnsgd1na2vs0mg"},{"bike_id":"0a50138c-9522-4a78-92e0-33df0349aef5","system_id":"levelo_inurba_marseille","lat":43.313291,"lon":5.396838,"is_reserved":false,"is_disabled":false,"rental_uris":{"android":"levelo://app?vid=0a50138c-9522-4a78-92e0-33df0349aef5","ios":"levelo://app?vid=0a50138c-9522-4a78-92e0-33df0349aef5"},"vehicle_type_id":"4","last_reported":1720116624,"current_range_meters":19600,"station_id":"ce4bgvp2rcd13ifvqcu0","pricing_plan_id":"cebpf4jnsgd1na2vs0mg"},{"bike_id":"ee8bc1dd-71c2-449b-ba74-9b15c31742cd","system_id":"levelo_inurba_marseille","lat":43.313291,"lon":5.396838,"is_reserved":false,"is_disabled":false,"rental_uris":{"android":"levelo://app?vid=ee8bc1dd-71c2-449b-ba74-9b15c31742cd","ios":"levelo://app?vid=ee8bc1dd-71c2-449b-ba74-9b15c31742cd"},"vehicle_type_id":"4","last_reported":1720116624,"current_range_meters":3200,"station_id":"ce4bgvp2rcd13ifvqcu0","pricing_plan_id":"cebpf4jnsgd1na2vs0mg"},{"bike_id":"e9ba8f42-2e78-46e9-a6e7-e08042ba08ca","system_id":"levelo_inurba_marseille","lat":43.309038,"lon":5.396546,"is_reserved":false,"is_disabled":false,"rental_uris":{"android":"levelo://app?vid=e9ba8f42-2e78-46e9-a6e7-e08042ba08ca","ios":"levelo://app?vid=e9ba8f42-2e78-46e9-a6e7-e08042ba08ca"},"vehicle_type_id":"4","last_reported":1720116624,"current_range_meters":2800,"station_id":"ce4bh012rcd13ifvqcv0","pricing_plan_id":"cebpf4jnsgd1na2vs0mg"},{"bike_id":"0361e190-e5ad-4e2a-9a69-a6e1ab0c6e9e","system_id":"levelo_inurba_marseille","lat":43.313291,"lon":5.396838,"is_reserved":false,"is_disabled":false,"rental_uris":{"android":"levelo://app?vid=0361e190-e5ad-4e2a-9a69-a6e1ab0c6e9e","ios":"levelo://app?vid=0361e190-e5ad-4e2a-9a69-a6e1ab0c6e9e"},"vehicle_type_id":"4","last_reported":1720116624,"current_range_meters":30400,"station_id":"ce4bgvp2rcd13ifvqcu0","pricing_plan_id":"cebpf4jnsgd1na2vs0mg"},{"bike_id":"577c975e-a590-4298-b15f-86f710a899e5","system_id":"levelo_inurba_marseille","lat":43.30886,"lon":5.39654,"is_reserved":false,"is_disabled":false,"rental_uris":{"android":"levelo://app?vid=577c975e-a590-4298-b15f-86f710a899e5","ios":"levelo://app?vid=577c975e-a590-4298-b15f-86f710a899e5"},"vehicle_type_id":"4","last_reported":1720116624,"current_range_meters":13200,"station_id":"ce4bh012rcd13ifvqcv0","pricing_plan_id":"cebpf4jnsgd1na2vs0mg"},{"bike_id":"fdd0e6bd-6f69-4921-81cb-503b646c5c38","system_id":"levelo_inurba_marseille","lat":43.309047,"lon":5.396551,"is_reserved":false,"is_disabled":false,"rental_uris":{"android":"levelo://app?vid=fdd0e6bd-6f69-4921-81cb-503b646c5c38","ios":"levelo://app?vid=fdd0e6bd-6f69-4921-81cb-503b646c5c38"},"vehicle_type_id":"4","last_reported":1720116624,"current_range_meters":4800,"station_id":"ce4bh012rcd13ifvqcv0","pricing_plan_id":"cebpf4jnsgd1na2vs0mg"},{"bike_id":"1caa5906-acef-4c22-8235-96b3e16e8a4c","system_id":"levelo_inurba_marseille","lat":43.29529,"lon":5.385581,"is_reserved":false,"is_disabled":false,"rental_uris":{"android":"levelo://app?vid=1caa5906-acef-4c22-8235-96b3e16e8a4c","ios":"levelo://app?vid=1caa5906-acef-4c22-8235-96b3e16e8a4c"},"vehicle_type_id":"4","last_reported":1720116624,"current_range_meters":0,"station_id":"ce4bgih2rcd13ifvqba0","pricing_plan_id":"cebpf4jnsgd1na2vs0mg"},{"bike_id":"f26e21c8-ba10-42f6-aeb4-bda544a7feb2","system_id":"levelo_inurba_marseille","lat":43.29529,"lon":5.385581,"is_reserved":false,"is_disabled":false,"rental_uris":{"android":"levelo://app?vid=f26e21c8-ba10-42f6-aeb4-bda544a7feb2","ios":"levelo://app?vid=f26e21c8-ba10-42f6-aeb4-bda544a7feb2"},"vehicle_type_id":"4","last_reported":1720116624,"current_range_meters":0,"station_id":"ce4bgih2rcd13ifvqba0","pricing_plan_id":"cebpf4jnsgd1na2vs0mg"},{"bike_id":"6397a070-9c14-49a3-a793-1c7f314ec288","system_id":"levelo_inurba_marseille","lat":43.302008,"lon":5.394694,"is_reserved":false,"is_disabled":false,"rental_uris":{"android":"levelo://app?vid=6397a070-9c14-49a3-a793-1c7f314ec288","ios":"levelo://app?vid=6397a070-9c14-49a3-a793-1c7f314ec288"},"vehicle_type_id":"4","last_reported":1720116624,"current_range_meters":16000,"station_id":"ce4bh0p2rcd13ifvqd70","pricing_plan_id":"cebpf4jnsgd1na2vs0mg"},{"bike_id":"908263b0-9899-47b3-ad6a-28ae9f251d22","system_id":"levelo_inurba_marseille","lat":43.290631,"lon":5.359244,"is_reserved":false,"is_disabled":false,"rental_uris":{"android":"levelo://app?vid=908263b0-9899-47b3-ad6a-28ae9f251d22","ios":"levelo://app?vid=908263b0-9899-47b3-ad6a-28ae9f251d22"},"vehicle_type_id":"4","last_reported":1720116624,"current_range_meters":21200,"station_id":"ce4bha92rcd13ifvqeg0","pricing_plan_id":"cebpf4jnsgd1na2vs0mg"},{"bike_id":"81e4ad4b-a0a2-4baa-9754-ad15619dc949","system_id":"levelo_inurba_marseille","lat":43.290631,"lon":5.359244,"is_reserved":false,"is_disabled":false,"rental_uris":{"android":"levelo://app?vid=81e4ad4b-a0a2-4baa-9754-ad15619dc949","ios":"levelo://app?vid=81e4ad4b-a0a2-4baa-9754-ad15619dc949"},"vehicle_type_id":"4","last_reported":1720116624,"current_range_meters":4800,"station_id":"ce4bha92rcd13ifvqeg0","pricing_plan_id":"cebpf4jnsgd1na2vs0mg"},{"bike_id":"84dd9711-6abc-4f63-b1c4-f0e2e3fd928c","system_id":"levelo_inurba_marseille","lat":43.289184,"lon":5.366408,"is_reserved":false,"is_disabled":false,"rental_uris":{"android":"levelo://app?vid=84dd9711-6abc-4f63-b1c4-f0e2e3fd928c","ios":"levelo://app?vid=84dd9711-6abc-4f63-b1c4-f0e2e3fd928c"},"vehicle_type_id":"4","last_reported":1720116624,"current_range_meters":0,"station_id":"ce4bhap2rcd13ifvqek0","pricing_plan_id":"cebpf4jnsgd1na2vs0mg"},{"bike_id":"f8e41485-7ec7-4ed8-9b07-cb07d38a2459","system_id":"levelo_inurba_marseille","lat":43.29428,"lon":5.38628,"is_reserved":false,"is_disabled":false,"rental_uris":{"android":"levelo://app?vid=f8e41485-7ec7-4ed8-9b07-cb07d38a2459","ios":"levelo://app?vid=f8e41485-7ec7-4ed8-9b07-cb07d38a2459"},"vehicle_type_id":"4","last_reported":1720116624,"current_range_meters":0,"station_id":"ce4bh2h2rcd13ifvqdh0","pricing_plan_id":"cebpf4jnsgd1na2vs0mg"},{"bike_id":"3f6f0be6-63a6-4142-8ec5-d00744ba4d4d","system_id":"levelo_inurba_marseille","lat":43.294153,"lon":5.386305,"is_reserved":false,"is_disabled":false,"rental_uris":{"android":"levelo://app?vid=3f6f0be6-63a6-4142-8ec5-d00744ba4d4d","ios":"levelo://app?vid=3f6f0be6-63a6-4142-8ec5-d00744ba4d4d"},"vehicle_type_id":"4","last_reported":1720116624,"current_range_meters":0,"station_id":"ce4bh2h2rcd13ifvqdh0","pricing_plan_id":"cebpf4jnsgd1na2vs0mg"},{"bike_id":"4b33dcc5-daf2-4fe6-a61f-678a9310cf3f","system_id":"levelo_inurba_marseille","lat":43.28942,"lon":5.36627,"is_reserved":false,"is_disabled":false,"rental_uris":{"android":"levelo://app?vid=4b33dcc5-daf2-4fe6-a61f-678a9310cf3f","ios":"levelo://app?vid=4b33dcc5-daf2-4fe6-a61f-678a9310cf3f"},"vehicle_type_id":"4","last_reported":1720116624,"current_range_meters":6800,"station_id":"ce4bhap2rcd13ifvqek0","pricing_plan_id":"cebpf4jnsgd1na2vs0mg"},{"bike_id":"b7d2ff5f-3e75-4afc-8ba3-beab246e9ff3","system_id":"levelo_inurba_marseille","lat":43.289184,"lon":5.366408,"is_reserved":false,"is_disabled":false,"rental_uris":{"android":"levelo://app?vid=b7d2ff5f-3e75-4afc-8ba3-beab246e9ff3","ios":"levelo://app?vid=b7d2ff5f-3e75-4afc-8ba3-beab246e9ff3"},"vehicle_type_id":"4","last_reported":1720116624,"current_range_meters":0,"station_id":"ce4bhap2rcd13ifvqek0","pricing_plan_id":"cebpf4jnsgd1na2vs0mg"},{"bike_id":"3f416672-5d07-4bcf-a36a-e6523c0846ae","system_id":"levelo_inurba_marseille","lat":43.289184,"lon":5.366408,"is_reserved":false,"is_disabled":false,"rental_uris":{"android":"levelo://app?vid=3f416672-5d07-4bcf-a36a-e6523c0846ae","ios":"levelo://app?vid=3f416672-5d07-4bcf-a36a-e6523c0846ae"},"vehicle_type_id":"4","last_reported":1720116624,"current_range_meters":26000,"station_id":"ce4bhap2rcd13ifvqek0","pricing_plan_id":"cebpf4jnsgd1na2vs0mg"},{"bike_id":"a0bb7721-11ce-4109-8108-beacd87a409b","system_id":"levelo_inurba_marseille","lat":43.289184,"lon":5.366408,"is_reserved":false,"is_disabled":false,"rental_uris":{"android":"levelo://app?vid=a0bb7721-11ce-4109-8108-beacd87a409b","ios":"levelo://app?vid=a0bb7721-11ce-4109-8108-beacd87a409b"},"vehicle_type_id":"4","last_reported":1720116624,"current_range_meters":18800,"station_id":"ce4bhap2rcd13ifvqek0","pricing_plan_id":"cebpf4jnsgd1na2vs0mg"},{"bike_id":"294cb628-327a-47d2-8589-885b0a17ffaf","system_id":"levelo_inurba_marseille","lat":43.289184,"lon":5.366408,"is_reserved":false,"is_disabled":false,"rental_uris":{"android":"levelo://app?vid=294cb628-327a-47d2-8589-885b0a17ffaf","ios":"levelo://app?vid=294cb628-327a-47d2-8589-885b0a17ffaf"},"vehicle_type_id":"4","last_reported":1720116624,"current_range_meters":0,"station_id":"ce4bhap2rcd13ifvqek0","pricing_plan_id":"cebpf4jnsgd1na2vs0mg"},{"bike_id":"5eabd7b6-b809-4a44-9f32-943cb5c0f33b","system_id":"levelo_inurba_marseille","lat":43.289184,"lon":5.366408,"is_reserved":false,"is_disabled":false,"rental_uris":{"android":"levelo://app?vid=5eabd7b6-b809-4a44-9f32-943cb5c0f33b","ios":"levelo://app?vid=5eabd7b6-b809-4a44-9f32-943cb5c0f33b"},"vehicle_type_id":"4","last_reported":1720116624,"current_range_meters":10800,"station_id":"ce4bhap2rcd13ifvqek0","pricing_plan_id":"cebpf4jnsgd1na2vs0mg"},{"bike_id":"c54e5c03-2f05-427f-998f-a0755939dd0b","system_id":"levelo_inurba_marseille","lat":43.289468,"lon":5.363719,"is_reserved":false,"is_disabled":false,"rental_uris":{"android":"levelo://app?vid=c54e5c03-2f05-427f-998f-a0755939dd0b","ios":"levelo://app?vid=c54e5c03-2f05-427f-998f-a0755939dd0b"},"vehicle_type_id":"4","last_reported":1720116624,"current_range_meters":10400,"station_id":"ce4bhc92rcd13ifvqetg","pricing_plan_id":"cebpf4jnsgd1na2vs0mg"},{"bike_id":"09b011d3-79a4-4dc2-8c30-001bdb9fa6a8","system_id":"levelo_inurba_marseille","lat":43.289468,"lon":5.363719,"is_reserved":false,"is_disabled":false,"rental_uris":{"android":"levelo://app?vid=09b011d3-79a4-4dc2-8c30-001bdb9fa6a8","ios":"levelo://app?vid=09b011d3-79a4-4dc2-8c30-001bdb9fa6a8"},"vehicle_type_id":"4","last_reported":1720116624,"current_range_meters":0,"station_id":"ce4bhc92rcd13ifvqetg","pricing_plan_id":"cebpf4jnsgd1na2vs0mg"},{"bike_id":"8a260dd9-c76f-4e17-8c67-603771687165","system_id":"levelo_inurba_marseille","lat":43.304274,"lon":5.397513,"is_reserved":false,"is_disabled":false,"rental_uris":{"android":"levelo://app?vid=8a260dd9-c76f-4e17-8c67-603771687165","ios":"levelo://app?vid=8a260dd9-c76f-4e17-8c67-603771687165"},"vehicle_type_id":"4","last_reported":1720116624,"current_range_meters":23200,"station_id":"ce4bh092rcd13ifvqd20","pricing_plan_id":"cebpf4jnsgd1na2vs0mg"},{"bike_id":"afd17293-3b4f-4467-a5d0-7d234c00fefc","system_id":"levelo_inurba_marseille","lat":43.304274,"lon":5.397513,"is_reserved":false,"is_disabled":false,"rental_uris":{"android":"levelo://app?vid=afd17293-3b4f-4467-a5d0-7d234c00fefc","ios":"levelo://app?vid=afd17293-3b4f-4467-a5d0-7d234c00fefc"},"vehicle_type_id":"4","last_reported":1720116624,"current_range_meters":18400,"station_id":"ce4bh092rcd13ifvqd20","pricing_plan_id":"cebpf4jnsgd1na2vs0mg"},{"bike_id":"df2b8475-a5e2-4fdd-845d-1882e2ae9b8d","system_id":"levelo_inurba_marseille","lat":43.29256,"lon":5.38437,"is_reserved":false,"is_disabled":false,"rental_uris":{"android":"levelo://app?vid=df2b8475-a5e2-4fdd-845d-1882e2ae9b8d","ios":"levelo://app?vid=df2b8475-a5e2-4fdd-845d-1882e2ae9b8d"},"vehicle_type_id":"4","last_reported":1720116624,"current_range_meters":0,"station_id":"ce4bh692rcd13ifvqea0","pricing_plan_id":"cebpf4jnsgd1na2vs0mg"},{"bike_id":"77acd1c4-f121-482f-b39e-3ba5297a6d18","system_id":"levelo_inurba_marseille","lat":43.290104,"lon":5.356111,"is_reserved":false,"is_disabled":false,"rental_uris":{"android":"levelo://app?vid=77acd1c4-f121-482f-b39e-3ba5297a6d18","ios":"levelo://app?vid=77acd1c4-f121-482f-b39e-3ba5297a6d18"},"vehicle_type_id":"4","last_reported":1720116624,"current_range_meters":0,"station_id":"ce4bhb92rcd13ifvqen0","pricing_plan_id":"cebpf4jnsgd1na2vs0mg"},{"bike_id":"2e27af65-ae6f-478a-966d-dfd1fc976b0a","system_id":"levelo_inurba_marseille","lat":43.290995,"lon":5.381361,"is_reserved":false,"is_disabled":false,"rental_uris":{"android":"levelo://app?vid=2e27af65-ae6f-478a-966d-dfd1fc976b0a","ios":"levelo://app?vid=2e27af65-ae6f-478a-966d-dfd1fc976b0a"},"vehicle_type_id":"4","last_reported":1720116624,"current_range_meters":400,"station_id":"ce4bh512rcd13ifvqe2g","pricing_plan_id":"cebpf4jnsgd1na2vs0mg"},{"bike_id":"8e4d3d34-5d29-4ab9-9195-b442c15f68e8","system_id":"levelo_inurba_marseille","lat":43.290995,"lon":5.381361,"is_reserved":false,"is_disabled":false,"rental_uris":{"android":"levelo://app?vid=8e4d3d34-5d29-4ab9-9195-b442c15f68e8","ios":"levelo://app?vid=8e4d3d34-5d29-4ab9-9195-b442c15f68e8"},"vehicle_type_id":"4","last_reported":1720116624,"current_range_meters":0,"station_id":"ce4bh512rcd13ifvqe2g","pricing_plan_id":"cebpf4jnsgd1na2vs0mg"},{"bike_id":"be6f76e0-67a4-4b1f-a8a5-91dc862fea5a","system_id":"levelo_inurba_marseille","lat":43.290995,"lon":5.381361,"is_reserved":false,"is_disabled":false,"rental_uris":{"android":"levelo://app?vid=be6f76e0-67a4-4b1f-a8a5-91dc862fea5a","ios":"levelo://app?vid=be6f76e0-67a4-4b1f-a8a5-91dc862fea5a"},"vehicle_type_id":"4","last_reported":1720116624,"current_range_meters":1600,"station_id":"ce4bh512rcd13ifvqe2g","pricing_plan_id":"cebpf4jnsgd1na2vs0mg"},{"bike_id":"af9370bc-4eaf-48dd-9187-2b466effcd54","system_id":"levelo_inurba_marseille","lat":43.290995,"lon":5.381361,"is_reserved":false,"is_disabled":false,"rental_uris":{"android":"levelo://app?vid=af9370bc-4eaf-48dd-9187-2b466effcd54","ios":"levelo://app?vid=af9370bc-4eaf-48dd-9187-2b466effcd54"},"vehicle_type_id":"4","last_reported":1720116624,"current_range_meters":6000,"station_id":"ce4bh512rcd13ifvqe2g","pricing_plan_id":"cebpf4jnsgd1na2vs0mg"},{"bike_id":"13f97731-f1b4-412a-89ef-d88c70047dd4","system_id":"levelo_inurba_marseille","lat":43.290995,"lon":5.381361,"is_reserved":false,"is_disabled":false,"rental_uris":{"android":"levelo://app?vid=13f97731-f1b4-412a-89ef-d88c70047dd4","ios":"levelo://app?vid=13f97731-f1b4-412a-89ef-d88c70047dd4"},"vehicle_type_id":"4","last_reported":1720116624,"current_range_meters":23200,"station_id":"ce4bh512rcd13ifvqe2g","pricing_plan_id":"cebpf4jnsgd1na2vs0mg"},{"bike_id":"42be4802-4ab3-4fdc-b6e2-be1fc9dc1bbe","system_id":"levelo_inurba_marseille","lat":43.290995,"lon":5.381361,"is_reserved":false,"is_disabled":false,"rental_uris":{"android":"levelo://app?vid=42be4802-4ab3-4fdc-b6e2-be1fc9dc1bbe","ios":"levelo://app?vid=42be4802-4ab3-4fdc-b6e2-be1fc9dc1bbe"},"vehicle_type_id":"4","last_reported":1720116624,"current_range_meters":0,"station_id":"ce4bh512rcd13ifvqe2g","pricing_plan_id":"cebpf4jnsgd1na2vs0mg"},{"bike_id":"ed1ce37a-45cc-47d1-aaf2-d0f16cfa5402","system_id":"levelo_inurba_marseille","lat":43.290995,"lon":5.381361,"is_reserved":false,"is_disabled":false,"rental_uris":{"android":"levelo://app?vid=ed1ce37a-45cc-47d1-aaf2-d0f16cfa5402","ios":"levelo://app?vid=ed1ce37a-45cc-47d1-aaf2-d0f16cfa5402"},"vehicle_type_id":"4","last_reported":1720116624,"current_range_meters":8800,"station_id":"ce4bh512rcd13ifvqe2g","pricing_plan_id":"cebpf4jnsgd1na2vs0mg"},{"bike_id":"2fb59e08-69e2-41e2-b4e2-dee5508dd0db","system_id":"levelo_inurba_marseille","lat":43.290995,"lon":5.381361,"is_reserved":false,"is_disabled":false,"rental_uris":{"android":"levelo://app?vid=2fb59e08-69e2-41e2-b4e2-dee5508dd0db","ios":"levelo://app?vid=2fb59e08-69e2-41e2-b4e2-dee5508dd0db"},"vehicle_type_id":"4","last_reported":1720116624,"current_range_meters":400,"station_id":"ce4bh512rcd13ifvqe2g","pricing_plan_id":"cebpf4jnsgd1na2vs0mg"},{"bike_id":"3f70a5e3-a383-4d08-a62b-ec35e3e4d986","system_id":"levelo_inurba_marseille","lat":43.28985,"lon":5.37836,"is_reserved":false,"is_disabled":false,"rental_uris":{"android":"levelo://app?vid=3f70a5e3-a383-4d08-a62b-ec35e3e4d986","ios":"levelo://app?vid=3f70a5e3-a383-4d08-a62b-ec35e3e4d986"},"vehicle_type_id":"4","last_reported":1720116624,"current_range_meters":24800,"station_id":"ce4bh9p2rcd13ifvqed0","pricing_plan_id":"cebpf4jnsgd1na2vs0mg"},{"bike_id":"2ea7d306-cf10-4e66-a875-115d65781733","system_id":"levelo_inurba_marseille","lat":43.33022,"lon":5.39034,"is_reserved":false,"is_disabled":false,"rental_uris":{"android":"levelo://app?vid=2ea7d306-cf10-4e66-a875-115d65781733","ios":"levelo://app?vid=2ea7d306-cf10-4e66-a875-115d65781733"},"vehicle_type_id":"4","last_reported":1720116624,"current_range_meters":24800,"station_id":"ce4bhr92rcd13ifvqhrg","pricing_plan_id":"cebpf4jnsgd1na2vs0mg"},{"bike_id":"748cac42-3992-4492-b6a0-5fb937224f7a","system_id":"levelo_inurba_marseille","lat":43.33025,"lon":5.39038,"is_reserved":false,"is_disabled":false,"rental_uris":{"android":"levelo://app?vid=748cac42-3992-4492-b6a0-5fb937224f7a","ios":"levelo://app?vid=748cac42-3992-4492-b6a0-5fb937224f7a"},"vehicle_type_id":"4","last_reported":1720116624,"current_range_meters":1200,"station_id":"ce4bhr92rcd13ifvqhrg","pricing_plan_id":"cebpf4jnsgd1na2vs0mg"},{"bike_id":"382f3e42-442d-424e-a790-1c58a561ce73","system_id":"levelo_inurba_marseille","lat":43.330442,"lon":5.389148,"is_reserved":false,"is_disabled":false,"rental_uris":{"android":"levelo://app?vid=382f3e42-442d-424e-a790-1c58a561ce73","ios":"levelo://app?vid=382f3e42-442d-424e-a790-1c58a561ce73"},"vehicle_type_id":"4","last_reported":1720116624,"current_range_meters":3200,"station_id":"ce4bhr92rcd13ifvqhrg","pricing_plan_id":"cebpf4jnsgd1na2vs0mg"},{"bike_id":"13a24512-b344-4c82-b970-cf79df184fce","system_id":"levelo_inurba_marseille","lat":43.295169,"lon":5.390426,"is_reserved":false,"is_disabled":false,"rental_uris":{"android":"levelo://app?vid=13a24512-b344-4c82-b970-cf79df184fce","ios":"levelo://app?vid=13a24512-b344-4c82-b970-cf79df184fce"},"vehicle_type_id":"4","last_reported":1720116624,"current_range_meters":11200,"station_id":"ce4bh3p2rcd13ifvqdp0","pricing_plan_id":"cebpf4jnsgd1na2vs0mg"},{"bike_id":"6cfb3eb2-c3fd-41d3-84e4-ffe991778378","system_id":"levelo_inurba_marseille","lat":43.295169,"lon":5.390426,"is_reserved":false,"is_disabled":false,"rental_uris":{"android":"levelo://app?vid=6cfb3eb2-c3fd-41d3-84e4-ffe991778378","ios":"levelo://app?vid=6cfb3eb2-c3fd-41d3-84e4-ffe991778378"},"vehicle_type_id":"4","last_reported":1720116624,"current_range_meters":12400,"station_id":"ce4bh3p2rcd13ifvqdp0","pricing_plan_id":"cebpf4jnsgd1na2vs0mg"},{"bike_id":"d709b2c0-822c-4c9d-bbb7-ccf27293ec4f","system_id":"levelo_inurba_marseille","lat":43.2901,"lon":5.381269,"is_reserved":false,"is_disabled":false,"rental_uris":{"android":"levelo://app?vid=d709b2c0-822c-4c9d-bbb7-ccf27293ec4f","ios":"levelo://app?vid=d709b2c0-822c-4c9d-bbb7-ccf27293ec4f"},"vehicle_type_id":"4","last_reported":1720116624,"current_range_meters":26400,"station_id":"ce4bh4p2rcd13ifvqe1g","pricing_plan_id":"cebpf4jnsgd1na2vs0mg"},{"bike_id":"5d9f9136-5033-4ce7-9bdb-6217c3125b66","system_id":"levelo_inurba_marseille","lat":43.290094,"lon":5.381264,"is_reserved":false,"is_disabled":false,"rental_uris":{"android":"levelo://app?vid=5d9f9136-5033-4ce7-9bdb-6217c3125b66","ios":"levelo://app?vid=5d9f9136-5033-4ce7-9bdb-6217c3125b66"},"vehicle_type_id":"4","last_reported":1720116624,"current_range_meters":0,"station_id":"ce4bh4p2rcd13ifvqe1g","pricing_plan_id":"cebpf4jnsgd1na2vs0mg"},{"bike_id":"f8b7c289-291e-427f-91f8-ae31b4423ee5","system_id":"levelo_inurba_marseille","lat":43.28856,"lon":5.358371,"is_reserved":false,"is_disabled":false,"rental_uris":{"android":"levelo://app?vid=f8b7c289-291e-427f-91f8-ae31b4423ee5","ios":"levelo://app?vid=f8b7c289-291e-427f-91f8-ae31b4423ee5"},"vehicle_type_id":"4","last_reported":1720116624,"current_range_meters":30000,"station_id":"ce4bhb12rcd13ifvqem0","pricing_plan_id":"cebpf4jnsgd1na2vs0mg"},{"bike_id":"b1fd8b48-5529-486a-a7bd-f13d0b695886","system_id":"levelo_inurba_marseille","lat":43.28856,"lon":5.358371,"is_reserved":false,"is_disabled":false,"rental_uris":{"android":"levelo://app?vid=b1fd8b48-5529-486a-a7bd-f13d0b695886","ios":"levelo://app?vid=b1fd8b48-5529-486a-a7bd-f13d0b695886"},"vehicle_type_id":"4","last_reported":1720116624,"current_range_meters":23600,"station_id":"ce4bhb12rcd13ifvqem0","pricing_plan_id":"cebpf4jnsgd1na2vs0mg"},{"bike_id":"57bae028-764d-49bf-b9f9-c8fcb0cf52ae","system_id":"levelo_inurba_marseille","lat":43.28856,"lon":5.358371,"is_reserved":false,"is_disabled":false,"rental_uris":{"android":"levelo://app?vid=57bae028-764d-49bf-b9f9-c8fcb0cf52ae","ios":"levelo://app?vid=57bae028-764d-49bf-b9f9-c8fcb0cf52ae"},"vehicle_type_id":"4","last_reported":1720116624,"current_range_meters":14000,"station_id":"ce4bhb12rcd13ifvqem0","pricing_plan_id":"cebpf4jnsgd1na2vs0mg"},{"bike_id":"05b1c7cc-26d6-4f22-b556-c52957d68259","system_id":"levelo_inurba_marseille","lat":43.28851,"lon":5.35842,"is_reserved":false,"is_disabled":false,"rental_uris":{"android":"levelo://app?vid=05b1c7cc-26d6-4f22-b556-c52957d68259","ios":"levelo://app?vid=05b1c7cc-26d6-4f22-b556-c52957d68259"},"vehicle_type_id":"4","last_reported":1720116624,"current_range_meters":5200,"station_id":"ce4bhb12rcd13ifvqem0","pricing_plan_id":"cebpf4jnsgd1na2vs0mg"},{"bike_id":"35a5c68b-3f3a-4b64-a20d-faa7c7efd968","system_id":"levelo_inurba_marseille","lat":43.33729,"lon":5.37388,"is_reserved":false,"is_disabled":false,"rental_uris":{"android":"levelo://app?vid=35a5c68b-3f3a-4b64-a20d-faa7c7efd968","ios":"levelo://app?vid=35a5c68b-3f3a-4b64-a20d-faa7c7efd968"},"vehicle_type_id":"4","last_reported":1720116624,"current_range_meters":30000,"station_id":"","pricing_plan_id":"cebpf4jnsgd1na2vs0mg"},{"bike_id":"80a2b141-e839-4f53-802d-db17bb68d518","system_id":"levelo_inurba_marseille","lat":43.312609,"lon":5.401662,"is_reserved":false,"is_disabled":false,"rental_uris":{"android":"levelo://app?vid=80a2b141-e839-4f53-802d-db17bb68d518","ios":"levelo://app?vid=80a2b141-e839-4f53-802d-db17bb68d518"},"vehicle_type_id":"4","last_reported":1720116624,"current_range_meters":400,"station_id":"ce4bh092rcd13ifvqd30","pricing_plan_id":"cebpf4jnsgd1na2vs0mg"},{"bike_id":"61a124c6-7fd1-45f5-954d-3c86c43c368d","system_id":"levelo_inurba_marseille","lat":43.3374,"lon":5.37444,"is_reserved":false,"is_disabled":false,"rental_uris":{"android":"levelo://app?vid=61a124c6-7fd1-45f5-954d-3c86c43c368d","ios":"levelo://app?vid=61a124c6-7fd1-45f5-954d-3c86c43c368d"},"vehicle_type_id":"4","last_reported":1720116624,"current_range_meters":27200,"station_id":"","pricing_plan_id":"cebpf4jnsgd1na2vs0mg"},{"bike_id":"e1596da8-3841-488f-adf9-c63dc2bd8292","system_id":"levelo_inurba_marseille","lat":43.3374,"lon":5.37448,"is_reserved":false,"is_disabled":false,"rental_uris":{"android":"levelo://app?vid=e1596da8-3841-488f-adf9-c63dc2bd8292","ios":"levelo://app?vid=e1596da8-3841-488f-adf9-c63dc2bd8292"},"vehicle_type_id":"4","last_reported":1720116624,"current_range_meters":4000,"station_id":"","pricing_plan_id":"cebpf4jnsgd1na2vs0mg"},{"bike_id":"3d88704c-c4b8-4eac-8eeb-91b9c543abf8","system_id":"levelo_inurba_marseille","lat":43.31279,"lon":5.40166,"is_reserved":false,"is_disabled":false,"rental_uris":{"android":"levelo://app?vid=3d88704c-c4b8-4eac-8eeb-91b9c543abf8","ios":"levelo://app?vid=3d88704c-c4b8-4eac-8eeb-91b9c543abf8"},"vehicle_type_id":"4","last_reported":1720116624,"current_range_meters":0,"station_id":"ce4bh092rcd13ifvqd30","pricing_plan_id":"cebpf4jnsgd1na2vs0mg"},{"bike_id":"668b6270-367b-4f6c-b750-d67dec44cb4f","system_id":"levelo_inurba_marseille","lat":43.337436,"lon":5.374544,"is_reserved":false,"is_disabled":false,"rental_uris":{"android":"levelo://app?vid=668b6270-367b-4f6c-b750-d67dec44cb4f","ios":"levelo://app?vid=668b6270-367b-4f6c-b750-d67dec44cb4f"},"vehicle_type_id":"4","last_reported":1720116624,"current_range_meters":24800,"station_id":"","pricing_plan_id":"cebpf4jnsgd1na2vs0mg"},{"bike_id":"8f54af09-cf0b-4919-8ae7-5734dae5cd4b","system_id":"levelo_inurba_marseille","lat":43.309371,"lon":5.401449,"is_reserved":false,"is_disabled":false,"rental_uris":{"android":"levelo://app?vid=8f54af09-cf0b-4919-8ae7-5734dae5cd4b","ios":"levelo://app?vid=8f54af09-cf0b-4919-8ae7-5734dae5cd4b"},"vehicle_type_id":"4","last_reported":1720116624,"current_range_meters":1600,"station_id":"ce4bgvp2rcd13ifvqct0","pricing_plan_id":"cebpf4jnsgd1na2vs0mg"},{"bike_id":"8d6f9573-315d-46d2-a1a1-401b72c0ee54","system_id":"levelo_inurba_marseille","lat":43.312609,"lon":5.401662,"is_reserved":false,"is_disabled":false,"rental_uris":{"android":"levelo://app?vid=8d6f9573-315d-46d2-a1a1-401b72c0ee54","ios":"levelo://app?vid=8d6f9573-315d-46d2-a1a1-401b72c0ee54"},"vehicle_type_id":"4","last_reported":1720116624,"current_range_meters":6000,"station_id":"ce4bh092rcd13ifvqd30","pricing_plan_id":"cebpf4jnsgd1na2vs0mg"},{"bike_id":"350dfeb4-3df7-47ec-bb69-08ad5482c10c","system_id":"levelo_inurba_marseille","lat":43.337483,"lon":5.374414,"is_reserved":false,"is_disabled":false,"rental_uris":{"android":"levelo://app?vid=350dfeb4-3df7-47ec-bb69-08ad5482c10c","ios":"levelo://app?vid=350dfeb4-3df7-47ec-bb69-08ad5482c10c"},"vehicle_type_id":"4","last_reported":1720116624,"current_range_meters":29200,"station_id":"","pricing_plan_id":"cebpf4jnsgd1na2vs0mg"},{"bike_id":"9b81cef5-7c06-4133-bbd8-ce7feb5a50f7","system_id":"levelo_inurba_marseille","lat":43.309371,"lon":5.401449,"is_reserved":false,"is_disabled":false,"rental_uris":{"android":"levelo://app?vid=9b81cef5-7c06-4133-bbd8-ce7feb5a50f7","ios":"levelo://app?vid=9b81cef5-7c06-4133-bbd8-ce7feb5a50f7"},"vehicle_type_id":"4","last_reported":1720116624,"current_range_meters":17600,"station_id":"ce4bgvp2rcd13ifvqct0","pricing_plan_id":"cebpf4jnsgd1na2vs0mg"},{"bike_id":"ccfdcf20-e3eb-4024-a8a0-c2d9c486f87f","system_id":"levelo_inurba_marseille","lat":43.309371,"lon":5.401449,"is_reserved":false,"is_disabled":false,"rental_uris":{"android":"levelo://app?vid=ccfdcf20-e3eb-4024-a8a0-c2d9c486f87f","ios":"levelo://app?vid=ccfdcf20-e3eb-4024-a8a0-c2d9c486f87f"},"vehicle_type_id":"4","last_reported":1720116624,"current_range_meters":18400,"station_id":"ce4bgvp2rcd13ifvqct0","pricing_plan_id":"cebpf4jnsgd1na2vs0mg"},{"bike_id":"5ba55efb-39fb-4843-966f-6c1f73b56bd7","system_id":"levelo_inurba_marseille","lat":43.30646,"lon":5.40068,"is_reserved":false,"is_disabled":false,"rental_uris":{"android":"levelo://app?vid=5ba55efb-39fb-4843-966f-6c1f73b56bd7","ios":"levelo://app?vid=5ba55efb-39fb-4843-966f-6c1f73b56bd7"},"vehicle_type_id":"4","last_reported":1720116624,"current_range_meters":0,"station_id":"ce4bh112rcd13ifvqda0","pricing_plan_id":"cebpf4jnsgd1na2vs0mg"},{"bike_id":"79618f47-6d23-40ad-9a34-ffc1eaa0d7ee","system_id":"levelo_inurba_marseille","lat":43.309371,"lon":5.401449,"is_reserved":false,"is_disabled":false,"rental_uris":{"android":"levelo://app?vid=79618f47-6d23-40ad-9a34-ffc1eaa0d7ee","ios":"levelo://app?vid=79618f47-6d23-40ad-9a34-ffc1eaa0d7ee"},"vehicle_type_id":"4","last_reported":1720116624,"current_range_meters":2800,"station_id":"ce4bgvp2rcd13ifvqct0","pricing_plan_id":"cebpf4jnsgd1na2vs0mg"},{"bike_id":"f7b90582-72ef-44b9-be3c-10965a5f20f8","system_id":"levelo_inurba_marseille","lat":43.337524,"lon":5.374469,"is_reserved":false,"is_disabled":false,"rental_uris":{"android":"levelo://app?vid=f7b90582-72ef-44b9-be3c-10965a5f20f8","ios":"levelo://app?vid=f7b90582-72ef-44b9-be3c-10965a5f20f8"},"vehicle_type_id":"4","last_reported":1720116624,"current_range_meters":25200,"station_id":"","pricing_plan_id":"cebpf4jnsgd1na2vs0mg"},{"bike_id":"81f0b4b4-cd1a-4b29-8763-5917889ed16c","system_id":"levelo_inurba_marseille","lat":43.309371,"lon":5.401449,"is_reserved":false,"is_disabled":false,"rental_uris":{"android":"levelo://app?vid=81f0b4b4-cd1a-4b29-8763-5917889ed16c","ios":"levelo://app?vid=81f0b4b4-cd1a-4b29-8763-5917889ed16c"},"vehicle_type_id":"4","last_reported":1720116624,"current_range_meters":10400,"station_id":"ce4bgvp2rcd13ifvqct0","pricing_plan_id":"cebpf4jnsgd1na2vs0mg"},{"bike_id":"268a261a-d7ab-409f-863b-7e797fa4522e","system_id":"levelo_inurba_marseille","lat":43.33756,"lon":5.37454,"is_reserved":false,"is_disabled":false,"rental_uris":{"android":"levelo://app?vid=268a261a-d7ab-409f-863b-7e797fa4522e","ios":"levelo://app?vid=268a261a-d7ab-409f-863b-7e797fa4522e"},"vehicle_type_id":"4","last_reported":1720116624,"current_range_meters":29200,"station_id":"","pricing_plan_id":"cebpf4jnsgd1na2vs0mg"},{"bike_id":"67d75ecb-2330-40d0-a5a5-33420b3eb581","system_id":"levelo_inurba_marseille","lat":43.312609,"lon":5.401662,"is_reserved":false,"is_disabled":false,"rental_uris":{"android":"levelo://app?vid=67d75ecb-2330-40d0-a5a5-33420b3eb581","ios":"levelo://app?vid=67d75ecb-2330-40d0-a5a5-33420b3eb581"},"vehicle_type_id":"4","last_reported":1720116624,"current_range_meters":16000,"station_id":"ce4bh092rcd13ifvqd30","pricing_plan_id":"cebpf4jnsgd1na2vs0mg"},{"bike_id":"2d552ba8-a7c6-425a-b149-10d0d4d18252","system_id":"levelo_inurba_marseille","lat":43.33761,"lon":5.37438,"is_reserved":false,"is_disabled":false,"rental_uris":{"android":"levelo://app?vid=2d552ba8-a7c6-425a-b149-10d0d4d18252","ios":"levelo://app?vid=2d552ba8-a7c6-425a-b149-10d0d4d18252"},"vehicle_type_id":"4","last_reported":1720116624,"current_range_meters":11200,"station_id":"","pricing_plan_id":"cebpf4jnsgd1na2vs0mg"},{"bike_id":"52274915-6a0a-4647-8a82-6fe2280a5d34","system_id":"levelo_inurba_marseille","lat":43.309371,"lon":5.401449,"is_reserved":false,"is_disabled":false,"rental_uris":{"android":"levelo://app?vid=52274915-6a0a-4647-8a82-6fe2280a5d34","ios":"levelo://app?vid=52274915-6a0a-4647-8a82-6fe2280a5d34"},"vehicle_type_id":"4","last_reported":1720116624,"current_range_meters":9200,"station_id":"ce4bgvp2rcd13ifvqct0","pricing_plan_id":"cebpf4jnsgd1na2vs0mg"},{"bike_id":"95f91891-7abb-4bc1-ad3a-80dd3e134f8e","system_id":"levelo_inurba_marseille","lat":43.337608,"lon":5.374426,"is_reserved":false,"is_disabled":false,"rental_uris":{"android":"levelo://app?vid=95f91891-7abb-4bc1-ad3a-80dd3e134f8e","ios":"levelo://app?vid=95f91891-7abb-4bc1-ad3a-80dd3e134f8e"},"vehicle_type_id":"4","last_reported":1720116624,"current_range_meters":29600,"station_id":"","pricing_plan_id":"cebpf4jnsgd1na2vs0mg"},{"bike_id":"053346b1-70c3-4aa2-b952-e509b9391d16","system_id":"levelo_inurba_marseille","lat":43.33762,"lon":5.37438,"is_reserved":false,"is_disabled":false,"rental_uris":{"android":"levelo://app?vid=053346b1-70c3-4aa2-b952-e509b9391d16","ios":"levelo://app?vid=053346b1-70c3-4aa2-b952-e509b9391d16"},"vehicle_type_id":"4","last_reported":1720116624,"current_range_meters":19600,"station_id":"","pricing_plan_id":"cebpf4jnsgd1na2vs0mg"},{"bike_id":"501d1471-018f-4f4f-a66e-4f356803d824","system_id":"levelo_inurba_marseille","lat":43.33762,"lon":5.37444,"is_reserved":false,"is_disabled":false,"rental_uris":{"android":"levelo://app?vid=501d1471-018f-4f4f-a66e-4f356803d824","ios":"levelo://app?vid=501d1471-018f-4f4f-a66e-4f356803d824"},"vehicle_type_id":"4","last_reported":1720116624,"current_range_meters":29600,"station_id":"","pricing_plan_id":"cebpf4jnsgd1na2vs0mg"},{"bike_id":"b6489de4-a6f4-4a28-97fe-e4b8bfff8e39","system_id":"levelo_inurba_marseille","lat":43.33761,"lon":5.37456,"is_reserved":false,"is_disabled":false,"rental_uris":{"android":"levelo://app?vid=b6489de4-a6f4-4a28-97fe-e4b8bfff8e39","ios":"levelo://app?vid=b6489de4-a6f4-4a28-97fe-e4b8bfff8e39"},"vehicle_type_id":"4","last_reported":1720116624,"current_range_meters":8400,"station_id":"","pricing_plan_id":"cebpf4jnsgd1na2vs0mg"},{"bike_id":"3bd92717-40ae-4dd8-88f8-c809a275b478","system_id":"levelo_inurba_marseille","lat":43.33761,"lon":5.374565,"is_reserved":false,"is_disabled":false,"rental_uris":{"android":"levelo://app?vid=3bd92717-40ae-4dd8-88f8-c809a275b478","ios":"levelo://app?vid=3bd92717-40ae-4dd8-88f8-c809a275b478"},"vehicle_type_id":"4","last_reported":1720116624,"current_range_meters":27200,"station_id":"","pricing_plan_id":"cebpf4jnsgd1na2vs0mg"},{"bike_id":"e4109c4a-d7a2-4ed6-afc8-242d11ff39ac","system_id":"levelo_inurba_marseille","lat":43.337642,"lon":5.37444,"is_reserved":false,"is_disabled":false,"rental_uris":{"android":"levelo://app?vid=e4109c4a-d7a2-4ed6-afc8-242d11ff39ac","ios":"levelo://app?vid=e4109c4a-d7a2-4ed6-afc8-242d11ff39ac"},"vehicle_type_id":"4","last_reported":1720116624,"current_range_meters":30400,"station_id":"","pricing_plan_id":"cebpf4jnsgd1na2vs0mg"},{"bike_id":"37bd5c0e-a0aa-4f26-91e9-aef3788b45dd","system_id":"levelo_inurba_marseille","lat":43.30642,"lon":5.401031,"is_reserved":false,"is_disabled":false,"rental_uris":{"android":"levelo://app?vid=37bd5c0e-a0aa-4f26-91e9-aef3788b45dd","ios":"levelo://app?vid=37bd5c0e-a0aa-4f26-91e9-aef3788b45dd"},"vehicle_type_id":"4","last_reported":1720116624,"current_range_meters":9200,"station_id":"ce4bh112rcd13ifvqda0","pricing_plan_id":"cebpf4jnsgd1na2vs0mg"},{"bike_id":"813948cb-27c3-4450-9b7c-250dc9dee592","system_id":"levelo_inurba_marseille","lat":43.337647,"lon":5.374428,"is_reserved":false,"is_disabled":false,"rental_uris":{"android":"levelo://app?vid=813948cb-27c3-4450-9b7c-250dc9dee592","ios":"levelo://app?vid=813948cb-27c3-4450-9b7c-250dc9dee592"},"vehicle_type_id":"4","last_reported":1720116624,"current_range_meters":12800,"station_id":"","pricing_plan_id":"cebpf4jnsgd1na2vs0mg"},{"bike_id":"7774f6c3-c956-414c-8e2c-82dbb18a916a","system_id":"levelo_inurba_marseille","lat":43.337642,"lon":5.37448,"is_reserved":false,"is_disabled":false,"rental_uris":{"android":"levelo://app?vid=7774f6c3-c956-414c-8e2c-82dbb18a916a","ios":"levelo://app?vid=7774f6c3-c956-414c-8e2c-82dbb18a916a"},"vehicle_type_id":"4","last_reported":1720116624,"current_range_meters":8800,"station_id":"","pricing_plan_id":"cebpf4jnsgd1na2vs0mg"},{"bike_id":"74b0e430-9ed5-4ca4-ae5f-95447d28f904","system_id":"levelo_inurba_marseille","lat":43.337646,"lon":5.374492,"is_reserved":false,"is_disabled":false,"rental_uris":{"android":"levelo://app?vid=74b0e430-9ed5-4ca4-ae5f-95447d28f904","ios":"levelo://app?vid=74b0e430-9ed5-4ca4-ae5f-95447d28f904"},"vehicle_type_id":"4","last_reported":1720116624,"current_range_meters":27200,"station_id":"","pricing_plan_id":"cebpf4jnsgd1na2vs0mg"},{"bike_id":"5fca1349-76b7-478b-b6a4-e9ee12acf525","system_id":"levelo_inurba_marseille","lat":43.337642,"lon":5.37453,"is_reserved":false,"is_disabled":false,"rental_uris":{"android":"levelo://app?vid=5fca1349-76b7-478b-b6a4-e9ee12acf525","ios":"levelo://app?vid=5fca1349-76b7-478b-b6a4-e9ee12acf525"},"vehicle_type_id":"4","last_reported":1720116624,"current_range_meters":21200,"station_id":"","pricing_plan_id":"cebpf4jnsgd1na2vs0mg"},{"bike_id":"f4143f66-1e8c-47f7-a5ba-fff2d49c7510","system_id":"levelo_inurba_marseille","lat":43.337648,"lon":5.37452,"is_reserved":false,"is_disabled":false,"rental_uris":{"android":"levelo://app?vid=f4143f66-1e8c-47f7-a5ba-fff2d49c7510","ios":"levelo://app?vid=f4143f66-1e8c-47f7-a5ba-fff2d49c7510"},"vehicle_type_id":"4","last_reported":1720116624,"current_range_meters":29600,"station_id":"","pricing_plan_id":"cebpf4jnsgd1na2vs0mg"},{"bike_id":"b42696b2-7f43-434f-9cbf-a49b88b52a44","system_id":"levelo_inurba_marseille","lat":43.33768,"lon":5.37438,"is_reserved":false,"is_disabled":false,"rental_uris":{"android":"levelo://app?vid=b42696b2-7f43-434f-9cbf-a49b88b52a44","ios":"levelo://app?vid=b42696b2-7f43-434f-9cbf-a49b88b52a44"},"vehicle_type_id":"4","last_reported":1720116624,"current_range_meters":29200,"station_id":"","pricing_plan_id":"cebpf4jnsgd1na2vs0mg"},{"bike_id":"beddaf1e-8c1d-4a71-9b52-48a794b30e3c","system_id":"levelo_inurba_marseille","lat":43.337676,"lon":5.374438,"is_reserved":false,"is_disabled":false,"rental_uris":{"android":"levelo://app?vid=beddaf1e-8c1d-4a71-9b52-48a794b30e3c","ios":"levelo://app?vid=beddaf1e-8c1d-4a71-9b52-48a794b30e3c"},"vehicle_type_id":"4","last_reported":1720116624,"current_range_meters":29600,"station_id":"","pricing_plan_id":"cebpf4jnsgd1na2vs0mg"},{"bike_id":"bd708975-e7a8-443c-a9ca-0740216a1dbb","system_id":"levelo_inurba_marseille","lat":43.337688,"lon":5.37438,"is_reserved":false,"is_disabled":false,"rental_uris":{"android":"levelo://app?vid=bd708975-e7a8-443c-a9ca-0740216a1dbb","ios":"levelo://app?vid=bd708975-e7a8-443c-a9ca-0740216a1dbb"},"vehicle_type_id":"4","last_reported":1720116624,"current_range_meters":28000,"station_id":"","pricing_plan_id":"cebpf4jnsgd1na2vs0mg"},{"bike_id":"cb06a28b-8a43-4da4-ba10-82313cede184","system_id":"levelo_inurba_marseille","lat":43.3377,"lon":5.37431,"is_reserved":false,"is_disabled":false,"rental_uris":{"android":"levelo://app?vid=cb06a28b-8a43-4da4-ba10-82313cede184","ios":"levelo://app?vid=cb06a28b-8a43-4da4-ba10-82313cede184"},"vehicle_type_id":"4","last_reported":1720116624,"current_range_meters":7200,"station_id":"","pricing_plan_id":"cebpf4jnsgd1na2vs0mg"},{"bike_id":"254d450a-1a06-4b88-baa3-37111a79ed68","system_id":"levelo_inurba_marseille","lat":43.33767,"lon":5.3745,"is_reserved":false,"is_disabled":false,"rental_uris":{"android":"levelo://app?vid=254d450a-1a06-4b88-baa3-37111a79ed68","ios":"levelo://app?vid=254d450a-1a06-4b88-baa3-37111a79ed68"},"vehicle_type_id":"4","last_reported":1720116624,"current_range_meters":28800,"station_id":"","pricing_plan_id":"cebpf4jnsgd1na2vs0mg"},{"bike_id":"927eacb2-9f55-409f-8c86-91cbfef1415a","system_id":"levelo_inurba_marseille","lat":43.337668,"lon":5.37452,"is_reserved":false,"is_disabled":false,"rental_uris":{"android":"levelo://app?vid=927eacb2-9f55-409f-8c86-91cbfef1415a","ios":"levelo://app?vid=927eacb2-9f55-409f-8c86-91cbfef1415a"},"vehicle_type_id":"4","last_reported":1720116624,"current_range_meters":6000,"station_id":"","pricing_plan_id":"cebpf4jnsgd1na2vs0mg"},{"bike_id":"a565c61d-86a4-4516-be57-317b5aba22a6","system_id":"levelo_inurba_marseille","lat":43.33768,"lon":5.374452,"is_reserved":false,"is_disabled":false,"rental_uris":{"android":"levelo://app?vid=a565c61d-86a4-4516-be57-317b5aba22a6","ios":"levelo://app?vid=a565c61d-86a4-4516-be57-317b5aba22a6"},"vehicle_type_id":"4","last_reported":1720116624,"current_range_meters":16400,"station_id":"","pricing_plan_id":"cebpf4jnsgd1na2vs0mg"},{"bike_id":"dfb8b2a3-8d2f-43be-80c4-1d13ad7450c9","system_id":"levelo_inurba_marseille","lat":43.337694,"lon":5.3744,"is_reserved":false,"is_disabled":false,"rental_uris":{"android":"levelo://app?vid=dfb8b2a3-8d2f-43be-80c4-1d13ad7450c9","ios":"levelo://app?vid=dfb8b2a3-8d2f-43be-80c4-1d13ad7450c9"},"vehicle_type_id":"4","last_reported":1720116624,"current_range_meters":25200,"station_id":"","pricing_plan_id":"cebpf4jnsgd1na2vs0mg"},{"bike_id":"deeaed9d-9157-429e-8fd5-1f59df7a2918","system_id":"levelo_inurba_marseille","lat":43.33771,"lon":5.37432,"is_reserved":false,"is_disabled":false,"rental_uris":{"android":"levelo://app?vid=deeaed9d-9157-429e-8fd5-1f59df7a2918","ios":"levelo://app?vid=deeaed9d-9157-429e-8fd5-1f59df7a2918"},"vehicle_type_id":"4","last_reported":1720116624,"current_range_meters":19600,"station_id":"","pricing_plan_id":"cebpf4jnsgd1na2vs0mg"},{"bike_id":"c5b8a15c-beee-4e49-a1f8-75c22c4db605","system_id":"levelo_inurba_marseille","lat":43.337694,"lon":5.374468,"is_reserved":false,"is_disabled":false,"rental_uris":{"android":"levelo://app?vid=c5b8a15c-beee-4e49-a1f8-75c22c4db605","ios":"levelo://app?vid=c5b8a15c-beee-4e49-a1f8-75c22c4db605"},"vehicle_type_id":"4","last_reported":1720116624,"current_range_meters":29600,"station_id":"","pricing_plan_id":"cebpf4jnsgd1na2vs0mg"},{"bike_id":"8d5e6798-bce0-44aa-99fe-2af5d56d9d6c","system_id":"levelo_inurba_marseille","lat":43.337697,"lon":5.374473,"is_reserved":false,"is_disabled":false,"rental_uris":{"android":"levelo://app?vid=8d5e6798-bce0-44aa-99fe-2af5d56d9d6c","ios":"levelo://app?vid=8d5e6798-bce0-44aa-99fe-2af5d56d9d6c"},"vehicle_type_id":"4","last_reported":1720116624,"current_range_meters":14400,"station_id":"","pricing_plan_id":"cebpf4jnsgd1na2vs0mg"},{"bike_id":"42f67f08-8e3a-4411-8138-adef5d593281","system_id":"levelo_inurba_marseille","lat":43.30642,"lon":5.401031,"is_reserved":false,"is_disabled":false,"rental_uris":{"android":"levelo://app?vid=42f67f08-8e3a-4411-8138-adef5d593281","ios":"levelo://app?vid=42f67f08-8e3a-4411-8138-adef5d593281"},"vehicle_type_id":"4","last_reported":1720116624,"current_range_meters":16000,"station_id":"ce4bh112rcd13ifvqda0","pricing_plan_id":"cebpf4jnsgd1na2vs0mg"},{"bike_id":"d8b1e2be-dced-4fc9-9de1-299d47ee0a02","system_id":"levelo_inurba_marseille","lat":43.33769,"lon":5.37453,"is_reserved":false,"is_disabled":false,"rental_uris":{"android":"levelo://app?vid=d8b1e2be-dced-4fc9-9de1-299d47ee0a02","ios":"levelo://app?vid=d8b1e2be-dced-4fc9-9de1-299d47ee0a02"},"vehicle_type_id":"4","last_reported":1720116624,"current_range_meters":31200,"station_id":"","pricing_plan_id":"cebpf4jnsgd1na2vs0mg"},{"bike_id":"7521861a-977e-43b8-b3b8-9252f5f41b26","system_id":"levelo_inurba_marseille","lat":43.33772,"lon":5.37442,"is_reserved":false,"is_disabled":false,"rental_uris":{"android":"levelo://app?vid=7521861a-977e-43b8-b3b8-9252f5f41b26","ios":"levelo://app?vid=7521861a-977e-43b8-b3b8-9252f5f41b26"},"vehicle_type_id":"4","last_reported":1720116624,"current_range_meters":29200,"station_id":"","pricing_plan_id":"cebpf4jnsgd1na2vs0mg"},{"bike_id":"65b879fa-7f09-40a9-bbe1-a637cdea45ff","system_id":"levelo_inurba_marseille","lat":43.33774,"lon":5.37434,"is_reserved":false,"is_disabled":false,"rental_uris":{"android":"levelo://app?vid=65b879fa-7f09-40a9-bbe1-a637cdea45ff","ios":"levelo://app?vid=65b879fa-7f09-40a9-bbe1-a637cdea45ff"},"vehicle_type_id":"4","last_reported":1720116624,"current_range_meters":17600,"station_id":"","pricing_plan_id":"cebpf4jnsgd1na2vs0mg"},