{"last_updated":1741231199,"ttl":60,"version":"2.2","data":{"bikes":[{"bike_id":"417ef343-9a8c-48c7-b985-bc218f65292b","system_id":"levelo_inurba_marseille","lat":43.240701,"lon":5.377493,"is_reserved":false,"is_disabled":false,"rental_uris":{"android":"levelo://app?vid=417ef343-9a8c-48c7-b985-bc218f65292b","ios":"levelo://app?vid=417ef343-9a8c-48c7-b985-bc218f65292b"},"vehicle_type_id":"4","last_reported":1741231199,"current_range_meters":3200,"station_id":"ce4bhnp2rcd13ifvqgvg","pricing_plan_id":"cebpf4jnsgd1na2vs0mg"},{"bike_id":"dd321bc4-8440-47e6-8fbe-00b7e1a81900","system_id":"levelo_inurba_marseille","lat":43.2508,"lon":5.395,"is_reserved":false,"is_disabled":false,"rental_uris":{"android":"levelo://app?vid=dd321bc4-8440-47e6-8fbe-00b7e1a81900","ios":"levelo://app?vid=dd321bc4-8440-47e6-8fbe-00b7e1a81900"},"vehicle_type_id":"4","last_reported":1741231199,"current_range_meters":3200,"station_id":"ce4bhm12rcd13ifvqgkg","pricing_plan_id":"cebpf4jnsgd1na2vs0mg"},{"bike_id":"bd6e7921-771f-4530-9785-c5890cf479d5","system_id":"levelo_inurba_marseille","lat":43.30937,"lon":5.40139,"is_reserved":false,"is_disabled":false,"rental_uris":{"android":"levelo://app?vid=bd6e7921-771f-4530-9785-c5890cf479d5","ios":"levelo://app?vid=bd6e7921-771f-4530-9785-c5890cf479d5"},"vehicle_type_id":"4","last_reported":1741231199,"current_range_meters":3200,"station_id":"ce4bgvp2rcd13ifvqct0","pricing_plan_id":"cebpf4jnsgd1na2vs0mg"},{"bike_id":"c95430ac-dd11-4fa2-a2ad-82b48573bf5b","system_id":"levelo_inurba_marseille","lat":43.29579,"lon":5.3996,"is_reserved":false,"is_disabled":false,"rental_uris":{"android":"levelo://app?vid=c95430ac-dd11-4fa2-a2ad-82b48573bf5b","ios":"levelo://app?vid=c95430ac-dd11-4fa2-a2ad-82b48573bf5b"},"vehicle_type_id":"4","last_reported":1741231199,"current_range_meters":3600,"station_id":"ce4bh312rcd13ifvqdj0","pricing_plan_id":"cebpf4jnsgd1na2vs0mg"},{"bike_id":"dfcf7507-41d1-4d8b-b298-9685f03bd643","system_id":"levelo_inurba_marseille","lat":43.26497,"lon":5.3954,"is_reserved":false,"is_disabled":false,"rental_uris":{"android":"levelo://app?vid=dfcf7507-41d1-4d8b-b298-9685f03bd643","ios":"levelo://app?vid=dfcf7507-41d1-4d8b-b298-9685f03bd643"},"vehicle_type_id":"4","last_reported":1741231199,"current_range_meters":3600,"station_id":"ce4bhi12rcd13ifvqfq0","pricing_plan_id":"cebpf4jnsgd1na2vs0mg"},{"bike_id":"8fe93df6-2fe6-41ee-aeb3-48d22ff05290","system_id":"levelo_inurba_marseille","lat":43.29177,"lon":5.38599,"is_reserved":false,"is_disabled":false,"rental_uris":{"android":"levelo://app?vid=8fe93df6-2fe6-41ee-aeb3-48d22ff05290","ios":"levelo://app?vid=8fe93df6-2fe6-41ee-aeb3-48d22ff05290"},"vehicle_type_id":"4","last_reported":1741231199,"current_range_meters":4000,"station_id":"","pricing_plan_id":"cebpf4jnsgd1na2vs0mg"},{"bike_id":"1dfd9dc3-4ac7-4246-bb53-a5c1cb36f26a","system_id":"levelo_inurba_marseille","lat":43.285685,"lon":5.394985,"is_reserved":false,"is_disabled":false,"rental_uris":{"android":"levelo://app?vid=1dfd9dc3-4ac7-4246-bb53-a5c1cb36f26a","ios":"levelo://app?vid=1dfd9dc3-4ac7-4246-bb53-a5c1cb36f26a"},"vehicle_type_id":"4","last_reported":1741231199,"current_range_meters":4000,"station_id":"ce4bh292rcd13ifvqdg0","pricing_plan_id":"cebpf4jnsgd1na2vs0mg"},{"bike_id":"824830e2-e620-4530-8798-1bede0a72925","system_id":"levelo_inurba_marseille","lat":43.31291,"lon":5.40171,"is_reserved":false,"is_disabled":false,"rental_uris":{"android":"levelo://app?vid=824830e2-e620-4530-8798-1bede0a72925","ios":"levelo://app?vid=824830e2-e620-4530-8798-1bede0a72925"},"vehicle_type_id":"4","last_reported":1741231199,"current_range_meters":4000,"station_id":"ce4bh092rcd13ifvqd30","pricing_plan_id":"cebpf4jnsgd1na2vs0mg"},{"bike_id":"ee1d2ad1-36ca-49dd-a328-f2a9a9994ecb","system_id":"levelo_inurba_marseille","lat":43.31083,"lon":5.38116,"is_reserved":false,"is_disabled":false,"rental_uris":{"android":"levelo://app?vid=ee1d2ad1-36ca-49dd-a328-f2a9a9994ecb","ios":"levelo://app?vid=ee1d2ad1-36ca-49dd-a328-f2a9a9994ecb"},"vehicle_type_id":"4","last_reported":1741231199,"current_range_meters":4400,"station_id":"","pricing_plan_id":"cebpf4jnsgd1na2vs0mg"},{"bike_id":"7d4d8a43-dec8-4f8d-9bcf-7d16d87581cb","system_id":"levelo_inurba_marseille","lat":43.32065,"lon":5.41541,"is_reserved":false,"is_disabled":false,"rental_uris":{"android":"levelo://app?vid=7d4d8a43-dec8-4f8d-9bcf-7d16d87581cb","ios":"levelo://app?vid=7d4d8a43-dec8-4f8d-9bcf-7d16d87581cb"},"vehicle_type_id":"4","last_reported":1741231199,"current_range_meters":4400,"station_id":"ce4bhq92rcd13ifvqhkg","pricing_plan_id":"cebpf4jnsgd1na2vs0mg"},{"bike_id":"35be5dd3-0f73-4d0a-bef3-58a8799fc6f0","system_id":"levelo_inurba_marseille","lat":43.28088,"lon":5.39648,"is_reserved":false,"is_disabled":false,"rental_uris":{"android":"levelo://app?vid=35be5dd3-0f73-4d0a-bef3-58a8799fc6f0","ios":"levelo://app?vid=35be5dd3-0f73-4d0a-bef3-58a8799fc6f0"},"vehicle_type_id":"4","last_reported":1741231199,"current_range_meters":4400,"station_id":"ce4bho12rcd13ifvqh2g","pricing_plan_id":"cebpf4jnsgd1na2vs0mg"},{"bike_id":"54991513-f878-4116-a08f-541b88281cf9","system_id":"levelo_inurba_marseille","lat":43.27994,"lon":5.40005,"is_reserved":false,"is_disabled":true,"rental_uris":{"android":"levelo://app?vid=54991513-f878-4116-a08f-541b88281cf9","ios":"levelo://app?vid=54991513-f878-4116-a08f-541b88281cf9"},"vehicle_type_id":"4","last_reported":1741231199,"current_range_meters":4400,"station_id":"ce4bho92rcd13ifvqh4g","pricing_plan_id":"cebpf4jnsgd1na2vs0mg"},{"bike_id":"aeae0725-18e5-45c0-930d-65fcf691c0ec","system_id":"levelo_inurba_marseille","lat":43.262238,"lon":5.404513,"is_reserved":false,"is_disabled":false,"rental_uris":{"android":"levelo://app?vid=aeae0725-18e5-45c0-930d-65fcf691c0ec","ios":"levelo://app?vid=aeae0725-18e5-45c0-930d-65fcf691c0ec"},"vehicle_type_id":"4","last_reported":1741231199,"current_range_meters":4400,"station_id":"ce4bhmh2rcd13ifvqgmg","pricing_plan_id":"cebpf4jnsgd1na2vs0mg"},{"bike_id":"98c1dba0-a5ae-4c3d-9368-039209b928be","system_id":"levelo_inurba_marseille","lat":43.24088,"lon":5.37761,"is_reserved":false,"is_disabled":false,"rental_uris":{"android":"levelo://app?vid=98c1dba0-a5ae-4c3d-9368-039209b928be","ios":"levelo://app?vid=98c1dba0-a5ae-4c3d-9368-039209b928be"},"vehicle_type_id":"4","last_reported":1741231199,"current_range_meters":4800,"station_id":"ce4bhnp2rcd13ifvqgvg","pricing_plan_id":"cebpf4jnsgd1na2vs0mg"},{"bike_id":"8698972e-96ac-456d-a00f-04447f94932f","system_id":"levelo_inurba_marseille","lat":43.28423,"lon":5.37512,"is_reserved":false,"is_disabled":false,"rental_uris":{"android":"levelo://app?vid=8698972e-96ac-456d-a00f-04447f94932f","ios":"levelo://app?vid=8698972e-96ac-456d-a00f-04447f94932f"},"vehicle_type_id":"4","last_reported":1741231199,"current_range_meters":4800,"station_id":"ce4bh412rcd13ifvqds0","pricing_plan_id":"cebpf4jnsgd1na2vs0mg"},{"bike_id":"d6a7690f-05a2-45bc-bfc1-fc5ae56e7bff","system_id":"levelo_inurba_marseille","lat":43.30211,"lon":5.39469,"is_reserved":false,"is_disabled":false,"rental_uris":{"android":"levelo://app?vid=d6a7690f-05a2-45bc-bfc1-fc5ae56e7bff","ios":"levelo://app?vid=d6a7690f-05a2-45bc-bfc1-fc5ae56e7bff"},"vehicle_type_id":"4","last_reported":1741231199,"current_range_meters":4800,"station_id":"ce4bh0p2rcd13ifvqd70","pricing_plan_id":"cebpf4jnsgd1na2vs0mg"},{"bike_id":"f0258200-7fe0-428a-b201-2b59b28feba3","system_id":"levelo_inurba_marseille","lat":43.28356,"lon":5.38105,"is_reserved":false,"is_disabled":false,"rental_uris":{"android":"levelo://app?vid=f0258200-7fe0-428a-b201-2b59b28feba3","ios":"levelo://app?vid=f0258200-7fe0-428a-b201-2b59b28feba3"},"vehicle_type_id":"4","last_reported":1741231199,"current_range_meters":5600,"station_id":"ce4bh412rcd13ifvqdr0","pricing_plan_id":"cebpf4jnsgd1na2vs0mg"},{"bike_id":"c3e12cd0-5b55-4fa8-9b46-bb2eb8bd5487","system_id":"levelo_inurba_marseille","lat":43.30925,"lon":5.40155,"is_reserved":false,"is_disabled":true,"rental_uris":{"android":"levelo://app?vid=c3e12cd0-5b55-4fa8-9b46-bb2eb8bd5487","ios":"levelo://app?vid=c3e12cd0-5b55-4fa8-9b46-bb2eb8bd5487"},"vehicle_type_id":"4","last_reported":1741231199,"current_range_meters":5600,"station_id":"ce4bgvp2rcd13ifvqct0","pricing_plan_id":"cebpf4jnsgd1na2vs0mg"},{"bike_id":"f6662bde-1632-4b0f-a966-f86b33b7c3b9","system_id":"levelo_inurba_marseille","lat":43.33763,"lon":5.37484,"is_reserved":false,"is_disabled":false,"rental_uris":{"android":"levelo://app?vid=f6662bde-1632-4b0f-a966-f86b33b7c3b9","ios":"levelo://app?vid=f6662bde-1632-4b0f-a966-f86b33b7c3b9"},"vehicle_type_id":"4","last_reported":1741231199,"current_range_meters":6000,"station_id":"","pricing_plan_id":"cebpf4jnsgd1na2vs0mg"},{"bike_id":"a00e1ce6-254a-4bb1-a996-2f404856539a","system_id":"levelo_inurba_marseille","lat":43.28073,"lon":5.39633,"is_reserved":false,"is_disabled":false,"rental_uris":{"android":"levelo://app?vid=a00e1ce6-254a-4bb1-a996-2f404856539a","ios":"levelo://app?vid=a00e1ce6-254a-4bb1-a996-2f404856539a"},"vehicle_type_id":"4","last_reported":1741231199,"current_range_meters":6000,"station_id":"ce4bho12rcd13ifvqh2g","pricing_plan_id":"cebpf4jnsgd1na2vs0mg"},{"bike_id":"172bbbdd-4a99-4187-9a69-6d6e66a5b2dc","system_id":"levelo_inurba_marseille","lat":43.270518,"lon":5.402635,"is_reserved":false,"is_disabled":false,"rental_uris":{"android":"levelo://app?vid=172bbbdd-4a99-4187-9a69-6d6e66a5b2dc","ios":"levelo://app?vid=172bbbdd-4a99-4187-9a69-6d6e66a5b2dc"},"vehicle_type_id":"4","last_reported":1741231199,"current_range_meters":6000,"station_id":"ce4bhk92rcd13ifvqgc0","pricing_plan_id":"cebpf4jnsgd1na2vs0mg"},{"bike_id":"de44d09a-d4db-4ce3-a2dd-62f4dc2e96ab","system_id":"levelo_inurba_marseille","lat":43.28169,"lon":5.42812,"is_reserved":false,"is_disabled":false,"rental_uris":{"android":"levelo://app?vid=de44d09a-d4db-4ce3-a2dd-62f4dc2e96ab","ios":"levelo://app?vid=de44d09a-d4db-4ce3-a2dd-62f4dc2e96ab"},"vehicle_type_id":"4","last_reported":1741231199,"current_range_meters":6000,"station_id":"","pricing_plan_id":"cebpf4jnsgd1na2vs0mg"},{"bike_id":"37245f92-27b0-4d71-94ad-9f00978bde25","system_id":"levelo_inurba_marseille","lat":43.28001,"lon":5.40007,"is_reserved":false,"is_disabled":true,"rental_uris":{"android":"levelo://app?vid=37245f92-27b0-4d71-94ad-9f00978bde25","ios":"levelo://app?vid=37245f92-27b0-4d71-94ad-9f00978bde25"},"vehicle_type_id":"4","last_reported":1741231199,"current_range_meters":6000,"station_id":"ce4bho92rcd13ifvqh4g","pricing_plan_id":"cebpf4jnsgd1na2vs0mg"},{"bike_id":"44a7153b-0fd7-4509-836b-676bbf84fb06","system_id":"levelo_inurba_marseille","lat":43.231888,"lon":5.355634,"is_reserved":false,"is_disabled":false,"rental_uris":{"android":"levelo://app?vid=44a7153b-0fd7-4509-836b-676bbf84fb06","ios":"levelo://app?vid=44a7153b-0fd7-4509-836b-676bbf84fb06"},"vehicle_type_id":"4","last_reported":1741231199,"current_range_meters":6000,"station_id":"ce4bhu92rcd13ifvqi70","pricing_plan_id":"cebpf4jnsgd1na2vs0mg"},{"bike_id":"2ad806a3-da9b-4704-bcf7-cde18d1aff0f","system_id":"levelo_inurba_marseille","lat":43.29937,"lon":5.36541,"is_reserved":false,"is_disabled":false,"rental_uris":{"android":"levelo://app?vid=2ad806a3-da9b-4704-bcf7-cde18d1aff0f","ios":"levelo://app?vid=2ad806a3-da9b-4704-bcf7-cde18d1aff0f"},"vehicle_type_id":"4","last_reported":1741231199,"current_range_meters":6400,"station_id":"ce4bgm92rcd13ifvqbr0","pricing_plan_id":"cebpf4jnsgd1na2vs0mg"},{"bike_id":"48d40220-424a-4860-8daf-c5e8475c9ac8","system_id":"levelo_inurba_marseille","lat":43.29189,"lon":5.35793,"is_reserved":false,"is_disabled":false,"rental_uris":{"android":"levelo://app?vid=48d40220-424a-4860-8daf-c5e8475c9ac8","ios":"levelo://app?vid=48d40220-424a-4860-8daf-c5e8475c9ac8"},"vehicle_type_id":"4","last_reported":1741231199,"current_range_meters":6400,"station_id":"ce4bhb12rcd13ifvqel0","pricing_plan_id":"cebpf4jnsgd1na2vs0mg"},{"bike_id":"541b7efd-860a-4d8b-831a-30746bc829c1","system_id":"levelo_inurba_marseille","lat":43.32351,"lon":5.38873,"is_reserved":false,"is_disabled":false,"rental_uris":{"android":"levelo://app?vid=541b7efd-860a-4d8b-831a-30746bc829c1","ios":"levelo://app?vid=541b7efd-860a-4d8b-831a-30746bc829c1"},"vehicle_type_id":"4","last_reported":1741231199,"current_range_meters":6400,"station_id":"ce4bhqp2rcd13ifvqhog","pricing_plan_id":"cebpf4jnsgd1na2vs0mg"},{"bike_id":"ed663efe-074b-4aba-b0e9-f846e4bd3747","system_id":"levelo_inurba_marseille","lat":43.29275,"lon":5.4091,"is_reserved":false,"is_disabled":false,"rental_uris":{"android":"levelo://app?vid=ed663efe-074b-4aba-b0e9-f846e4bd3747","ios":"levelo://app?vid=ed663efe-074b-4aba-b0e9-f846e4bd3747"},"vehicle_type_id":"4","last_reported":1741231199,"current_range_meters":6400,"station_id":"ce4bh192rcd13ifvqdc0","pricing_plan_id":"cebpf4jnsgd1na2vs0mg"},{"bike_id":"2f617cd9-3efc-47a3-a843-17ede9fd2cdf","system_id":"levelo_inurba_marseille","lat":43.30691,"lon":5.39539,"is_reserved":false,"is_disabled":false,"rental_uris":{"android":"levelo://app?vid=2f617cd9-3efc-47a3-a843-17ede9fd2cdf","ios":"levelo://app?vid=2f617cd9-3efc-47a3-a843-17ede9fd2cdf"},"vehicle_type_id":"4","last_reported":1741231199,"current_range_meters":6400,"station_id":"","pricing_plan_id":"cebpf4jnsgd1na2vs0mg"},{"bike_id":"5d327b88-d8a2-4c59-9a43-4a7a4b07402a","system_id":"levelo_inurba_marseille","lat":43.29522,"lon":5.39028,"is_reserved":false,"is_disabled":true,"rental_uris":{"android":"levelo://app?vid=5d327b88-d8a2-4c59-9a43-4a7a4b07402a","ios":"levelo://app?vid=5d327b88-d8a2-4c59-9a43-4a7a4b07402a"},"vehicle_type_id":"4","last_reported":1741231199,"current_range_meters":6400,"station_id":"ce4bh3p2rcd13ifvqdp0","pricing_plan_id":"cebpf4jnsgd1na2vs0mg"},{"bike_id":"21bc0f69-103c-4890-8f89-c802d95848d7","system_id":"levelo_inurba_marseille","lat":43.24391,"lon":5.37064,"is_reserved":false,"is_disabled":false,"rental_uris":{"android":"levelo://app?vid=21bc0f69-103c-4890-8f89-c802d95848d7","ios":"levelo://app?vid=21bc0f69-103c-4890-8f89-c802d95848d7"},"vehicle_type_id":"4","last_reported":1741231199,"current_range_meters":6400,"station_id":"ce4bhhh2rcd13ifvqfk0","pricing_plan_id":"cebpf4jnsgd1na2vs0mg"},{"bike_id":"b0603f8c-190f-4853-a7e5-0d0ca367341f","system_id":"levelo_inurba_marseille","lat":43.28156,"lon":5.4266,"is_reserved":false,"is_disabled":false,"rental_uris":{"android":"levelo://app?vid=b0603f8c-190f-4853-a7e5-0d0ca367341f","ios":"levelo://app?vid=b0603f8c-190f-4853-a7e5-0d0ca367341f"},"vehicle_type_id":"4","last_reported":1741231199,"current_range_meters":6400,"station_id":"ce4bhnh2rcd13ifvqgug","pricing_plan_id":"cebpf4jnsgd1na2vs0mg"},{"bike_id":"ec97ed30-026a-4a69-90ce-bf9a866b544b","system_id":"levelo_inurba_marseille","lat":43.26557,"lon":5.38991,"is_reserved":false,"is_disabled":false,"rental_uris":{"android":"levelo://app?vid=ec97ed30-026a-4a69-90ce-bf9a866b544b","ios":"levelo://app?vid=ec97ed30-026a-4a69-90ce-bf9a866b544b"},"vehicle_type_id":"4","last_reported":1741231199,"current_range_meters":6800,"station_id":"ce4bhe12rcd13ifvqf30","pricing_plan_id":"cebpf4jnsgd1na2vs0mg"},{"bike_id":"7f3767e1-0b9d-4bb2-883f-156510d457d1","system_id":"levelo_inurba_marseille","lat":43.27902,"lon":5.38009,"is_reserved":false,"is_disabled":false,"rental_uris":{"android":"levelo://app?vid=7f3767e1-0b9d-4bb2-883f-156510d457d1","ios":"levelo://app?vid=7f3767e1-0b9d-4bb2-883f-156510d457d1"},"vehicle_type_id":"4","last_reported":1741231199,"current_range_meters":6800,"station_id":"ce4bhf92rcd13ifvqf50","pricing_plan_id":"cebpf4jnsgd1na2vs0mg"},{"bike_id":"6f9f418f-eed5-442f-9d63-d94181e20d2b","system_id":"levelo_inurba_marseille","lat":43.30879,"lon":5.39648,"is_reserved":false,"is_disabled":false,"rental_uris":{"android":"levelo://app?vid=6f9f418f-eed5-442f-9d63-d94181e20d2b","ios":"levelo://app?vid=6f9f418f-eed5-442f-9d63-d94181e20d2b"},"vehicle_type_id":"4","last_reported":1741231199,"current_range_meters":8000,"station_id":"ce4bh012rcd13ifvqcv0","pricing_plan_id":"cebpf4jnsgd1na2vs0mg"},{"bike_id":"74966194-e3ff-4430-818d-3b37e8800a21","system_id":"levelo_inurba_marseille","lat":43.279662,"lon":5.387513,"is_reserved":false,"is_disabled":false,"rental_uris":{"android":"levelo://app?vid=74966194-e3ff-4430-818d-3b37e8800a21","ios":"levelo://app?vid=74966194-e3ff-4430-818d-3b37e8800a21"},"vehicle_type_id":"4","last_reported":1741231199,"current_range_meters":7200,"station_id":"ce4bhg12rcd13ifvqf80","pricing_plan_id":"cebpf4jnsgd1na2vs0mg"},{"bike_id":"55f3137e-de59-4df3-bc43-34575a42bfd9","system_id":"levelo_inurba_marseille","lat":43.24125,"lon":5.37673,"is_reserved":false,"is_disabled":false,"rental_uris":{"android":"levelo://app?vid=55f3137e-de59-4df3-bc43-34575a42bfd9","ios":"levelo://app?vid=55f3137e-de59-4df3-bc43-34575a42bfd9"},"vehicle_type_id":"4","last_reported":1741231199,"current_range_meters":7200,"station_id":"","pricing_plan_id":"cebpf4jnsgd1na2vs0mg"},{"bike_id":"8d9ccc4a-1011-4c35-8110-21069259a7d9","system_id":"levelo_inurba_marseille","lat":43.29102,"lon":5.38132,"is_reserved":false,"is_disabled":true,"rental_uris":{"android":"levelo://app?vid=8d9ccc4a-1011-4c35-8110-21069259a7d9","ios":"levelo://app?vid=8d9ccc4a-1011-4c35-8110-21069259a7d9"},"vehicle_type_id":"4","last_reported":1741231199,"current_range_meters":7200,"station_id":"ce4bh512rcd13ifvqe2g","pricing_plan_id":"cebpf4jnsgd1na2vs0mg"},{"bike_id":"97399946-e3e6-4c82-9064-b3472fe1a6d0","system_id":"levelo_inurba_marseille","lat":43.262149,"lon":5.404553,"is_reserved":false,"is_disabled":true,"rental_uris":{"android":"levelo://app?vid=97399946-e3e6-4c82-9064-b3472fe1a6d0","ios":"levelo://app?vid=97399946-e3e6-4c82-9064-b3472fe1a6d0"},"vehicle_type_id":"4","last_reported":1741231199,"current_range_meters":7200,"station_id":"","pricing_plan_id":"cebpf4jnsgd1na2vs0mg"},{"bike_id":"9506e6a0-a2d5-4881-a618-ef7e215e5225","system_id":"levelo_inurba_marseille","lat":43.308832,"lon":5.396311,"is_reserved":false,"is_disabled":false,"rental_uris":{"android":"levelo://app?vid=9506e6a0-a2d5-4881-a618-ef7e215e5225","ios":"levelo://app?vid=9506e6a0-a2d5-4881-a618-ef7e215e5225"},"vehicle_type_id":"4","last_reported":1741231199,"current_range_meters":7200,"station_id":"ce4bh012rcd13ifvqcv0","pricing_plan_id":"cebpf4jnsgd1na2vs0mg"},{"bike_id":"466033f8-ea52-4086-be4d-613149ddf7f7","system_id":"levelo_inurba_marseille","lat":43.26221,"lon":5.40443,"is_reserved":false,"is_disabled":false,"rental_uris":{"android":"levelo://app?vid=466033f8-ea52-4086-be4d-613149ddf7f7","ios":"levelo://app?vid=466033f8-ea52-4086-be4d-613149ddf7f7"},"vehicle_type_id":"4","last_reported":1741231199,"current_range_meters":7200,"station_id":"ce4bhmh2rcd13ifvqgmg","pricing_plan_id":"cebpf4jnsgd1na2vs0mg"},{"bike_id":"3439a580-4b13-4596-bc3a-9d40342307f1","system_id":"levelo_inurba_marseille","lat":43.32095,"lon":5.36759,"is_reserved":false,"is_disabled":false,"rental_uris":{"android":"levelo://app?vid=3439a580-4b13-4596-bc3a-9d40342307f1","ios":"levelo://app?vid=3439a580-4b13-4596-bc3a-9d40342307f1"},"vehicle_type_id":"4","last_reported":1741231199,"current_range_meters":7200,"station_id":"ce4bhrh2rcd13ifvqhug","pricing_plan_id":"cebpf4jnsgd1na2vs0mg"},{"bike_id":"ebd6a47a-14eb-49ff-bb63-84d8c6e531ce","system_id":"levelo_inurba_marseille","lat":43.24791,"lon":5.37446,"is_reserved":false,"is_disabled":false,"rental_uris":{"android":"levelo://app?vid=ebd6a47a-14eb-49ff-bb63-84d8c6e531ce","ios":"levelo://app?vid=ebd6a47a-14eb-49ff-bb63-84d8c6e531ce"},"vehicle_type_id":"4","last_reported":1741231199,"current_range_meters":7200,"station_id":"ce4bhgh2rcd13ifvqfb0","pricing_plan_id":"cebpf4jnsgd1na2vs0mg"},{"bike_id":"931dbda0-5b3f-48fa-8441-4dcb748976d6","system_id":"levelo_inurba_marseille","lat":43.2957,"lon":5.399741,"is_reserved":false,"is_disabled":false,"rental_uris":{"android":"levelo://app?vid=931dbda0-5b3f-48fa-8441-4dcb748976d6","ios":"levelo://app?vid=931dbda0-5b3f-48fa-8441-4dcb748976d6"},"vehicle_type_id":"4","last_reported":1741231199,"current_range_meters":8000,"station_id":"ce4bh312rcd13ifvqdj0","pricing_plan_id":"cebpf4jnsgd1na2vs0mg"},{"bike_id":"04602ea3-ac36-4387-91cd-683c524f904f","system_id":"levelo_inurba_marseille","lat":43.279918,"lon":5.400032,"is_reserved":false,"is_disabled":true,"rental_uris":{"android":"levelo://app?vid=04602ea3-ac36-4387-91cd-683c524f904f","ios":"levelo://app?vid=04602ea3-ac36-4387-91cd-683c524f904f"},"vehicle_type_id":"4","last_reported":1741231199,"current_range_meters":8000,"station_id":"ce4bho92rcd13ifvqh4g","pricing_plan_id":"cebpf4jnsgd1na2vs0mg"},{"bike_id":"7d0376fc-3863-49a9-b6cd-b6d78ab7d7d0","system_id":"levelo_inurba_marseille","lat":43.28105,"lon":5.37833,"is_reserved":false,"is_disabled":false,"rental_uris":{"android":"levelo://app?vid=7d0376fc-3863-49a9-b6cd-b6d78ab7d7d0","ios":"levelo://app?vid=7d0376fc-3863-49a9-b6cd-b6d78ab7d7d0"},"vehicle_type_id":"4","last_reported":1741231199,"current_range_meters":8000,"station_id":"ce4bha12rcd13ifvqee0","pricing_plan_id":"cebpf4jnsgd1na2vs0mg"},{"bike_id":"4e7212d1-5a25-4d92-9b37-34d9b62c08d9","system_id":"levelo_inurba_marseille","lat":43.28459,"lon":5.3589,"is_reserved":false,"is_disabled":false,"rental_uris":{"android":"levelo://app?vid=4e7212d1-5a25-4d92-9b37-34d9b62c08d9","ios":"levelo://app?vid=4e7212d1-5a25-4d92-9b37-34d9b62c08d9"},"vehicle_type_id":"4","last_reported":1741231199,"current_range_meters":8000,"station_id":"ce4bhah2rcd13ifvqei0","pricing_plan_id":"cebpf4jnsgd1na2vs0mg"},{"bike_id":"c7a56f07-1089-4a2a-8a8d-2878996e1270","system_id":"levelo_inurba_marseille","lat":43.28974,"lon":5.37827,"is_reserved":false,"is_disabled":false,"rental_uris":{"android":"levelo://app?vid=c7a56f07-1089-4a2a-8a8d-2878996e1270","ios":"levelo://app?vid=c7a56f07-1089-4a2a-8a8d-2878996e1270"},"vehicle_type_id":"4","last_reported":1741231199,"current_range_meters":8000,"station_id":"ce4bh9p2rcd13ifvqed0","pricing_plan_id":"cebpf4jnsgd1na2vs0mg"},{"bike_id":"ff22ac5f-4107-4c43-91dd-83932ff30650","system_id":"levelo_inurba_marseille","lat":43.266941,"lon":5.38277,"is_reserved":false,"is_disabled":true,"rental_uris":{"android":"levelo://app?vid=ff22ac5f-4107-4c43-91dd-83932ff30650","ios":"levelo://app?vid=ff22ac5f-4107-4c43-91dd-83932ff30650"},"vehicle_type_id":"4","last_reported":1741231199,"current_range_meters":8000,"station_id":"ce4bhg92rcd13ifvqf90","pricing_plan_id":"cebpf4jnsgd1na2vs0mg"},{"bike_id":"6cf85791-53c9-43d7-a7b9-e68050868054","system_id":"levelo_inurba_marseille","lat":43.31185,"lon":5.3873,"is_reserved":false,"is_disabled":false,"rental_uris":{"android":"levelo://app?vid=6cf85791-53c9-43d7-a7b9-e68050868054","ios":"levelo://app?vid=6cf85791-53c9-43d7-a7b9-e68050868054"},"vehicle_type_id":"4","last_reported":1741231199,"current_range_meters":8000,"station_id":"ce4bgv12rcd13ifvqcp0","pricing_plan_id":"cebpf4jnsgd1na2vs0mg"},{"bike_id":"9ca3d116-bc82-4982-997d-a10001e2bb76","system_id":"levelo_inurba_marseille","lat":43.3118,"lon":5.38709,"is_reserved":false,"is_disabled":false,"rental_uris":{"android":"levelo://app?vid=9ca3d116-bc82-4982-997d-a10001e2bb76","ios":"levelo://app?vid=9ca3d116-bc82-4982-997d-a10001e2bb76"},"vehicle_type_id":"4","last_reported":1741231199,"current_range_meters":8000,"station_id":"ce4bgv12rcd13ifvqcp0","pricing_plan_id":"cebpf4jnsgd1na2vs0mg"},{"bike_id":"695828ba-2cea-49da-8d0e-3782d691adc5","system_id":"levelo_inurba_marseille","lat":43.271834,"lon":5.409916,"is_reserved":false,"is_disabled":false,"rental_uris":{"android":"levelo://app?vid=695828ba-2cea-49da-8d0e-3782d691adc5","ios":"levelo://app?vid=695828ba-2cea-49da-8d0e-3782d691adc5"},"vehicle_type_id":"4","last_reported":1741231199,"current_range_meters":8000,"station_id":"ce4bhl12rcd13ifvqgf0","pricing_plan_id":"cebpf4jnsgd1na2vs0mg"},{"bike_id":"790e16de-5154-45ac-a20e-b8d2405684fc","system_id":"levelo_inurba_marseille","lat":43.294506,"lon":5.397454,"is_reserved":false,"is_disabled":false,"rental_uris":{"android":"levelo://app?vid=790e16de-5154-45ac-a20e-b8d2405684fc","ios":"levelo://app?vid=790e16de-5154-45ac-a20e-b8d2405684fc"},"vehicle_type_id":"4","last_reported":1741231199,"current_range_meters":8400,"station_id":"ce4bh3h2rcd13ifvqdo0","pricing_plan_id":"cebpf4jnsgd1na2vs0mg"},{"bike_id":"67bea12d-33fd-4eac-b275-4a5b5dd193e3","system_id":"levelo_inurba_marseille","lat":43.27171,"lon":5.4097,"is_reserved":false,"is_disabled":false,"rental_uris":{"android":"levelo://app?vid=67bea12d-33fd-4eac-b275-4a5b5dd193e3","ios":"levelo://app?vid=67bea12d-33fd-4eac-b275-4a5b5dd193e3"},"vehicle_type_id":"4","last_reported":1741231199,"current_range_meters":8400,"station_id":"ce4bhl12rcd13ifvqgf0","pricing_plan_id":"cebpf4jnsgd1na2vs0mg"},{"bike_id":"c55557ad-1ed5-4997-aee7-ac92107f14b6","system_id":"levelo_inurba_marseille","lat":43.26461,"lon":5.37489,"is_reserved":false,"is_disabled":false,"rental_uris":{"android":"levelo://app?vid=c55557ad-1ed5-4997-aee7-ac92107f14b6","ios":"levelo://app?vid=c55557ad-1ed5-4997-aee7-ac92107f14b6"},"vehicle_type_id":"4","last_reported":1741231199,"current_range_meters":8400,"station_id":"","pricing_plan_id":"cebpf4jnsgd1na2vs0mg"},{"bike_id":"2559b77d-c845-4f4b-b064-1a5e15203c14","system_id":"levelo_inurba_marseille","lat":43.30881,"lon":5.3962,"is_reserved":false,"is_disabled":false,"rental_uris":{"android":"levelo://app?vid=2559b77d-c845-4f4b-b064-1a5e15203c14","ios":"levelo://app?vid=2559b77d-c845-4f4b-b064-1a5e15203c14"},"vehicle_type_id":"4","last_reported":1741231199,"current_range_meters":8400,"station_id":"ce4bh012rcd13ifvqcv0","pricing_plan_id":"cebpf4jnsgd1na2vs0mg"},{"bike_id":"c3c9ecad-94db-4438-9fd2-f695a5cc6950","system_id":"levelo_inurba_marseille","lat":43.26225,"lon":5.40456,"is_reserved":false,"is_disabled":false,"rental_uris":{"android":"levelo://app?vid=c3c9ecad-94db-4438-9fd2-f695a5cc6950","ios":"levelo://app?vid=c3c9ecad-94db-4438-9fd2-f695a5cc6950"},"vehicle_type_id":"4","last_reported":1741231199,"current_range_meters":8400,"station_id":"ce4bhmh2rcd13ifvqgmg","pricing_plan_id":"cebpf4jnsgd1na2vs0mg"},{"bike_id":"1bad045b-6ab3-484d-a893-50827840f29c","system_id":"levelo_inurba_marseille","lat":43.29235,"lon":5.3823,"is_reserved":false,"is_disabled":false,"rental_uris":{"android":"levelo://app?vid=1bad045b-6ab3-484d-a893-50827840f29c","ios":"levelo://app?vid=1bad045b-6ab3-484d-a893-50827840f29c"},"vehicle_type_id":"4","last_reported":1741231199,"current_range_meters":8400,"station_id":"","pricing_plan_id":"cebpf4jnsgd1na2vs0mg"},{"bike_id":"8ae6e0ce-bfc3-4f64-b9ad-ef5602c01ff6","system_id":"levelo_inurba_marseille","lat":43.30772,"lon":5.37648,"is_reserved":false,"is_disabled":false,"rental_uris":{"android":"levelo://app?vid=8ae6e0ce-bfc3-4f64-b9ad-ef5602c01ff6","ios":"levelo://app?vid=8ae6e0ce-bfc3-4f64-b9ad-ef5602c01ff6"},"vehicle_type_id":"4","last_reported":1741231199,"current_range_meters":8400,"station_id":"ce4bgv92rcd13ifvqcq0","pricing_plan_id":"cebpf4jnsgd1na2vs0mg"},{"bike_id":"d6ba82be-90e6-4543-b298-a7d041946b68","system_id":"levelo_inurba_marseille","lat":43.31176,"lon":5.38709,"is_reserved":false,"is_disabled":false,"rental_uris":{"android":"levelo://app?vid=d6ba82be-90e6-4543-b298-a7d041946b68","ios":"levelo://app?vid=d6ba82be-90e6-4543-b298-a7d041946b68"},"vehicle_type_id":"4","last_reported":1741231199,"current_range_meters":8400,"station_id":"ce4bgv12rcd13ifvqcp0","pricing_plan_id":"cebpf4jnsgd1na2vs0mg"},{"bike_id":"65e17e4e-56f8-4a35-b076-2afccb75021f","system_id":"levelo_inurba_marseille","lat":43.284897,"lon":5.385545,"is_reserved":false,"is_disabled":false,"rental_uris":{"android":"levelo://app?vid=65e17e4e-56f8-4a35-b076-2afccb75021f","ios":"levelo://app?vid=65e17e4e-56f8-4a35-b076-2afccb75021f"},"vehicle_type_id":"4","last_reported":1741231199,"current_range_meters":8400,"station_id":"ce4bh8p2rcd13ifvqeb0","pricing_plan_id":"cebpf4jnsgd1na2vs0mg"},{"bike_id":"61a6adcd-dca9-42c7-a4d3-4975e7039d7e","system_id":"levelo_inurba_marseille","lat":43.28069,"lon":5.39644,"is_reserved":false,"is_disabled":false,"rental_uris":{"android":"levelo://app?vid=61a6adcd-dca9-42c7-a4d3-4975e7039d7e","ios":"levelo://app?vid=61a6adcd-dca9-42c7-a4d3-4975e7039d7e"},"vehicle_type_id":"4","last_reported":1741231199,"current_range_meters":8400,"station_id":"ce4bho12rcd13ifvqh2g","pricing_plan_id":"cebpf4jnsgd1na2vs0mg"},{"bike_id":"b14e61c0-b102-40bc-8ab8-4b6b40a5b831","system_id":"levelo_inurba_marseille","lat":43.25129,"lon":5.39528,"is_reserved":false,"is_disabled":false,"rental_uris":{"android":"levelo://app?vid=b14e61c0-b102-40bc-8ab8-4b6b40a5b831","ios":"levelo://app?vid=b14e61c0-b102-40bc-8ab8-4b6b40a5b831"},"vehicle_type_id":"4","last_reported":1741231199,"current_range_meters":8400,"station_id":"ce4bhm12rcd13ifvqgkg","pricing_plan_id":"cebpf4jnsgd1na2vs0mg"},{"bike_id":"35a63d3f-3cf5-4e65-898f-16f1f00b237d","system_id":"levelo_inurba_marseille","lat":43.3117,"lon":5.38711,"is_reserved":false,"is_disabled":false,"rental_uris":{"android":"levelo://app?vid=35a63d3f-3cf5-4e65-898f-16f1f00b237d","ios":"levelo://app?vid=35a63d3f-3cf5-4e65-898f-16f1f00b237d"},"vehicle_type_id":"4","last_reported":1741231199,"current_range_meters":8400,"station_id":"ce4bgv12rcd13ifvqcp0","pricing_plan_id":"cebpf4jnsgd1na2vs0mg"},{"bike_id":"82cfcb7e-a676-4400-b17b-48fb6d49c6fd","system_id":"levelo_inurba_marseille","lat":43.30884,"lon":5.396449,"is_reserved":false,"is_disabled":false,"rental_uris":{"android":"levelo://app?vid=82cfcb7e-a676-4400-b17b-48fb6d49c6fd","ios":"levelo://app?vid=82cfcb7e-a676-4400-b17b-48fb6d49c6fd"},"vehicle_type_id":"4","last_reported":1741231199,"current_range_meters":8400,"station_id":"ce4bh012rcd13ifvqcv0","pricing_plan_id":"cebpf4jnsgd1na2vs0mg"},{"bike_id":"301728fb-e011-4fc7-851f-5794c7956cca","system_id":"levelo_inurba_marseille","lat":43.28071,"lon":5.39613,"is_reserved":false,"is_disabled":false,"rental_uris":{"android":"levelo://app?vid=301728fb-e011-4fc7-851f-5794c7956cca","ios":"levelo://app?vid=301728fb-e011-4fc7-851f-5794c7956cca"},"vehicle_type_id":"4","last_reported":1741231199,"current_range_meters":8800,"station_id":"ce4bho12rcd13ifvqh2g","pricing_plan_id":"cebpf4jnsgd1na2vs0mg"},{"bike_id":"1491f781-a73e-4cda-9d45-779c1be45f56","system_id":"levelo_inurba_marseille","lat":43.28411,"lon":5.34969,"is_reserved":false,"is_disabled":false,"rental_uris":{"android":"levelo://app?vid=1491f781-a73e-4cda-9d45-779c1be45f56","ios":"levelo://app?vid=1491f781-a73e-4cda-9d45-779c1be45f56"},"vehicle_type_id":"4","last_reported":1741231199,"current_range_meters":8800,"station_id":"ce4bhbh2rcd13ifvqepg","pricing_plan_id":"cebpf4jnsgd1na2vs0mg"},{"bike_id":"f8a818ec-b7e9-4d1f-9bec-510cc5e6b980","system_id":"levelo_inurba_marseille","lat":43.272857,"lon":5.392028,"is_reserved":false,"is_disabled":true,"rental_uris":{"android":"levelo://app?vid=f8a818ec-b7e9-4d1f-9bec-510cc5e6b980","ios":"levelo://app?vid=f8a818ec-b7e9-4d1f-9bec-510cc5e6b980"},"vehicle_type_id":"4","last_reported":1741231199,"current_range_meters":8800,"station_id":"","pricing_plan_id":"cebpf4jnsgd1na2vs0mg"},{"bike_id":"7b4f8cff-ffb9-4dae-8741-5123a474b481","system_id":"levelo_inurba_marseille","lat":43.27918,"lon":5.39583,"is_reserved":false,"is_disabled":false,"rental_uris":{"android":"levelo://app?vid=7b4f8cff-ffb9-4dae-8741-5123a474b481","ios":"levelo://app?vid=7b4f8cff-ffb9-4dae-8741-5123a474b481"},"vehicle_type_id":"4","last_reported":1741231199,"current_range_meters":8800,"station_id":"ce4bhf92rcd13ifvqf40","pricing_plan_id":"cebpf4jnsgd1na2vs0mg"},{"bike_id":"983eb5f5-44ab-41a8-b99b-2892fcb7622b","system_id":"levelo_inurba_marseille","lat":43.29194,"lon":5.39322,"is_reserved":false,"is_disabled":false,"rental_uris":{"android":"levelo://app?vid=983eb5f5-44ab-41a8-b99b-2892fcb7622b","ios":"levelo://app?vid=983eb5f5-44ab-41a8-b99b-2892fcb7622b"},"vehicle_type_id":"4","last_reported":1741231199,"current_range_meters":8800,"station_id":"ce4bh192rcd13ifvqdd0","pricing_plan_id":"cebpf4jnsgd1na2vs0mg"},{"bike_id":"a3e68f67-a016-4853-b449-983ecd5c8454","system_id":"levelo_inurba_marseille","lat":43.25006,"lon":5.3892,"is_reserved":false,"is_disabled":false,"rental_uris":{"android":"levelo://app?vid=a3e68f67-a016-4853-b449-983ecd5c8454","ios":"levelo://app?vid=a3e68f67-a016-4853-b449-983ecd5c8454"},"vehicle_type_id":"4","last_reported":1741231199,"current_range_meters":8800,"station_id":"ce4bhgp2rcd13ifvqfd0","pricing_plan_id":"cebpf4jnsgd1na2vs0mg"},{"bike_id":"8eb96d8f-b81c-493a-a83e-4688a5f2c4db","system_id":"levelo_inurba_marseille","lat":43.30236,"lon":5.40049,"is_reserved":false,"is_disabled":false,"rental_uris":{"android":"levelo://app?vid=8eb96d8f-b81c-493a-a83e-4688a5f2c4db","ios":"levelo://app?vid=8eb96d8f-b81c-493a-a83e-4688a5f2c4db"},"vehicle_type_id":"4","last_reported":1741231199,"current_range_meters":9200,"station_id":"ce4bgvh2rcd13ifvqcs0","pricing_plan_id":"cebpf4jnsgd1na2vs0mg"},{"bike_id":"6a801c6f-58a8-4eef-86a4-edf923391b6f","system_id":"levelo_inurba_marseille","lat":43.31169,"lon":5.38716,"is_reserved":false,"is_disabled":false,"rental_uris":{"android":"levelo://app?vid=6a801c6f-58a8-4eef-86a4-edf923391b6f","ios":"levelo://app?vid=6a801c6f-58a8-4eef-86a4-edf923391b6f"},"vehicle_type_id":"4","last_reported":1741231199,"current_range_meters":9200,"station_id":"ce4bgv12rcd13ifvqcp0","pricing_plan_id":"cebpf4jnsgd1na2vs0mg"},{"bike_id":"50d5929c-1fb5-401e-9d25-d9d9a5fc00bd","system_id":"levelo_inurba_marseille","lat":43.31364,"lon":5.38483,"is_reserved":false,"is_disabled":false,"rental_uris":{"android":"levelo://app?vid=50d5929c-1fb5-401e-9d25-d9d9a5fc00bd","ios":"levelo://app?vid=50d5929c-1fb5-401e-9d25-d9d9a5fc00bd"},"vehicle_type_id":"4","last_reported":1741231199,"current_range_meters":9200,"station_id":"ce4bgt92rcd13ifvqcf0","pricing_plan_id":"cebpf4jnsgd1na2vs0mg"},{"bike_id":"dd77cf1f-213c-4462-b964-b64fe4e4eb17","system_id":"levelo_inurba_marseille","lat":43.297869,"lon":5.370984,"is_reserved":false,"is_disabled":false,"rental_uris":{"android":"levelo://app?vid=dd77cf1f-213c-4462-b964-b64fe4e4eb17","ios":"levelo://app?vid=dd77cf1f-213c-4462-b964-b64fe4e4eb17"},"vehicle_type_id":"4","last_reported":1741231199,"current_range_meters":9200,"station_id":"ce4bgop2rcd13ifvqc1g","pricing_plan_id":"cebpf4jnsgd1na2vs0mg"},{"bike_id":"ecb30204-856e-4551-b122-313eabd56e36","system_id":"levelo_inurba_marseille","lat":43.269423,"lon":5.386347,"is_reserved":false,"is_disabled":false,"rental_uris":{"android":"levelo://app?vid=ecb30204-856e-4551-b122-313eabd56e36","ios":"levelo://app?vid=ecb30204-856e-4551-b122-313eabd56e36"},"vehicle_type_id":"4","last_reported":1741231199,"current_range_meters":9200,"station_id":"ce4bhh92rcd13ifvqfh0","pricing_plan_id":"cebpf4jnsgd1na2vs0mg"},{"bike_id":"67a86198-a3ee-4779-8045-74ddf30f3228","system_id":"levelo_inurba_marseille","lat":43.31127,"lon":5.37759,"is_reserved":false,"is_disabled":false,"rental_uris":{"android":"levelo://app?vid=67a86198-a3ee-4779-8045-74ddf30f3228","ios":"levelo://app?vid=67a86198-a3ee-4779-8045-74ddf30f3228"},"vehicle_type_id":"4","last_reported":1741231199,"current_range_meters":9600,"station_id":"ce4bgt92rcd13ifvqcg0","pricing_plan_id":"cebpf4jnsgd1na2vs0mg"},{"bike_id":"8e67c6c2-1f86-420e-855b-676e159ed831","system_id":"levelo_inurba_marseille","lat":43.230636,"lon":5.354916,"is_reserved":false,"is_disabled":false,"rental_uris":{"android":"levelo://app?vid=8e67c6c2-1f86-420e-855b-676e159ed831","ios":"levelo://app?vid=8e67c6c2-1f86-420e-855b-676e159ed831"},"vehicle_type_id":"4","last_reported":1741231199,"current_range_meters":9600,"station_id":"cpo3342slgdg3j2ifvpg","pricing_plan_id":"cebpf4jnsgd1na2vs0mg"},{"bike_id":"41fc5ccf-7cae-4a19-ab3c-a6c8d7cf741a","system_id":"levelo_inurba_marseille","lat":43.240629,"lon":5.377579,"is_reserved":false,"is_disabled":false,"rental_uris":{"android":"levelo://app?vid=41fc5ccf-7cae-4a19-ab3c-a6c8d7cf741a","ios":"levelo://app?vid=41fc5ccf-7cae-4a19-ab3c-a6c8d7cf741a"},"vehicle_type_id":"4","last_reported":1741231199,"current_range_meters":9600,"station_id":"ce4bhnp2rcd13ifvqgvg","pricing_plan_id":"cebpf4jnsgd1na2vs0mg"},{"bike_id":"7be10eac-e616-4904-8cdc-c543b04d589f","system_id":"levelo_inurba_marseille","lat":43.24173,"lon":5.3642,"is_reserved":false,"is_disabled":false,"rental_uris":{"android":"levelo://app?vid=7be10eac-e616-4904-8cdc-c543b04d589f","ios":"levelo://app?vid=7be10eac-e616-4904-8cdc-c543b04d589f"},"vehicle_type_id":"4","last_reported":1741231199,"current_range_meters":9600,"station_id":"cpo36qri1sfpv3e86is0","pricing_plan_id":"cebpf4jnsgd1na2vs0mg"},{"bike_id":"20a6bdbd-65c6-4950-9704-b68c9f02327b","system_id":"levelo_inurba_marseille","lat":43.30641,"lon":5.40075,"is_reserved":false,"is_disabled":false,"rental_uris":{"android":"levelo://app?vid=20a6bdbd-65c6-4950-9704-b68c9f02327b","ios":"levelo://app?vid=20a6bdbd-65c6-4950-9704-b68c9f02327b"},"vehicle_type_id":"4","last_reported":1741231199,"current_range_meters":9600,"station_id":"ce4bh112rcd13ifvqda0","pricing_plan_id":"cebpf4jnsgd1na2vs0mg"},{"bike_id":"9167ef72-f974-46cb-834f-0a29c07fbf59","system_id":"levelo_inurba_marseille","lat":43.28407,"lon":5.37508,"is_reserved":false,"is_disabled":false,"rental_uris":{"android":"levelo://app?vid=9167ef72-f974-46cb-834f-0a29c07fbf59","ios":"levelo://app?vid=9167ef72-f974-46cb-834f-0a29c07fbf59"},"vehicle_type_id":"4","last_reported":1741231199,"current_range_meters":9600,"station_id":"ce4bh412rcd13ifvqds0","pricing_plan_id":"cebpf4jnsgd1na2vs0mg"},{"bike_id":"be74d6e7-9922-4500-b00d-d407c7efd950","system_id":"levelo_inurba_marseille","lat":43.29188,"lon":5.39318,"is_reserved":false,"is_disabled":false,"rental_uris":{"android":"levelo://app?vid=be74d6e7-9922-4500-b00d-d407c7efd950","ios":"levelo://app?vid=be74d6e7-9922-4500-b00d-d407c7efd950"},"vehicle_type_id":"4","last_reported":1741231199,"current_range_meters":9600,"station_id":"ce4bh192rcd13ifvqdd0","pricing_plan_id":"cebpf4jnsgd1na2vs0mg"},{"bike_id":"45d42749-bb1f-4519-afb3-ca4cc8cb8a67","system_id":"levelo_inurba_marseille","lat":43.30668,"lon":5.40094,"is_reserved":false,"is_disabled":false,"rental_uris":{"android":"levelo://app?vid=45d42749-bb1f-4519-afb3-ca4cc8cb8a67","ios":"levelo://app?vid=45d42749-bb1f-4519-afb3-ca4cc8cb8a67"},"vehicle_type_id":"4","last_reported":1741231199,"current_range_meters":9600,"station_id":"ce4bh112rcd13ifvqda0","pricing_plan_id":"cebpf4jnsgd1na2vs0mg"},{"bike_id":"2065d1a1-e18b-449c-9fe3-978a1c3bd96e","system_id":"levelo_inurba_marseille","lat":43.309227,"lon":5.401434,"is_reserved":false,"is_disabled":false,"rental_uris":{"android":"levelo://app?vid=2065d1a1-e18b-449c-9fe3-978a1c3bd96e","ios":"levelo://app?vid=2065d1a1-e18b-449c-9fe3-978a1c3bd96e"},"vehicle_type_id":"4","last_reported":1741231199,"current_range_meters":9600,"station_id":"ce4bgvp2rcd13ifvqct0","pricing_plan_id":"cebpf4jnsgd1na2vs0mg"},{"bike_id":"0c435379-2d96-40d9-86a6-885a9070a563","system_id":"levelo_inurba_marseille","lat":43.30666,"lon":5.40085,"is_reserved":false,"is_disabled":false,"rental_uris":{"android":"levelo://app?vid=0c435379-2d96-40d9-86a6-885a9070a563","ios":"levelo://app?vid=0c435379-2d96-40d9-86a6-885a9070a563"},"vehicle_type_id":"4","last_reported":1741231199,"current_range_meters":9600,"station_id":"ce4bh112rcd13ifvqda0","pricing_plan_id":"cebpf4jnsgd1na2vs0mg"},{"bike_id":"8c48da4b-9328-4edb-ad72-2503b82997d8","system_id":"levelo_inurba_marseille","lat":43.31989,"lon":5.38133,"is_reserved":false,"is_disabled":false,"rental_uris":{"android":"levelo://app?vid=8c48da4b-9328-4edb-ad72-2503b82997d8","ios":"levelo://app?vid=8c48da4b-9328-4edb-ad72-2503b82997d8"},"vehicle_type_id":"4","last_reported":1741231199,"current_range_meters":9600,"station_id":"ce4bhr12rcd13ifvqhpg","pricing_plan_id":"cebpf4jnsgd1na2vs0mg"},{"bike_id":"c83f8419-a8fa-497a-adc8-6cf7f975a06c","system_id":"levelo_inurba_marseille","lat":43.30878,"lon":5.39629,"is_reserved":false,"is_disabled":false,"rental_uris":{"android":"levelo://app?vid=c83f8419-a8fa-497a-adc8-6cf7f975a06c","ios":"levelo://app?vid=c83f8419-a8fa-497a-adc8-6cf7f975a06c"},"vehicle_type_id":"4","last_reported":1741231199,"current_range_meters":9600,"station_id":"ce4bh012rcd13ifvqcv0","pricing_plan_id":"cebpf4jnsgd1na2vs0mg"},{"bike_id":"1541c923-478d-4331-a6bc-dc30e8a96065","system_id":"levelo_inurba_marseille","lat":43.28952,"lon":5.36402,"is_reserved":false,"is_disabled":false,"rental_uris":{"android":"levelo://app?vid=1541c923-478d-4331-a6bc-dc30e8a96065","ios":"levelo://app?vid=1541c923-478d-4331-a6bc-dc30e8a96065"},"vehicle_type_id":"4","last_reported":1741231199,"current_range_meters":10000,"station_id":"ce4bhc92rcd13ifvqetg","pricing_plan_id":"cebpf4jnsgd1na2vs0mg"},{"bike_id":"cdb3f317-3e6f-4519-a3e2-a7e6f00f166d","system_id":"levelo_inurba_marseille","lat":43.31185,"lon":5.3874,"is_reserved":false,"is_disabled":false,"rental_uris":{"android":"levelo://app?vid=cdb3f317-3e6f-4519-a3e2-a7e6f00f166d","ios":"levelo://app?vid=cdb3f317-3e6f-4519-a3e2-a7e6f00f166d"},"vehicle_type_id":"4","last_reported":1741231199,"current_range_meters":10000,"station_id":"ce4bgv12rcd13ifvqcp0","pricing_plan_id":"cebpf4jnsgd1na2vs0mg"},{"bike_id":"4b37d7b2-e4f0-4881-ae4a-14e74b2ab8e7","system_id":"levelo_inurba_marseille","lat":43.294462,"lon":5.39749,"is_reserved":false,"is_disabled":true,"rental_uris":{"android":"levelo://app?vid=4b37d7b2-e4f0-4881-ae4a-14e74b2ab8e7","ios":"levelo://app?vid=4b37d7b2-e4f0-4881-ae4a-14e74b2ab8e7"},"vehicle_type_id":"4","last_reported":1741231199,"current_range_meters":10000,"station_id":"ce4bh3h2rcd13ifvqdo0","pricing_plan_id":"cebpf4jnsgd1na2vs0mg"},{"bike_id":"8fc82f2a-7938-4250-a30d-1b7f0bd8f0d7","system_id":"levelo_inurba_marseille","lat":43.29753,"lon":5.3667,"is_reserved":false,"is_disabled":false,"rental_uris":{"android":"levelo://app?vid=8fc82f2a-7938-4250-a30d-1b7f0bd8f0d7","ios":"levelo://app?vid=8fc82f2a-7938-4250-a30d-1b7f0bd8f0d7"},"vehicle_type_id":"4","last_reported":1741231199,"current_range_meters":10000,"station_id":"","pricing_plan_id":"cebpf4jnsgd1na2vs0mg"},{"bike_id":"ec825988-595a-4005-9c60-d0137fc2d893","system_id":"levelo_inurba_marseille","lat":43.311706,"lon":5.387171,"is_reserved":false,"is_disabled":false,"rental_uris":{"android":"levelo://app?vid=ec825988-595a-4005-9c60-d0137fc2d893","ios":"levelo://app?vid=ec825988-595a-4005-9c60-d0137fc2d893"},"vehicle_type_id":"4","last_reported":1741231199,"current_range_meters":10000,"station_id":"ce4bgv12rcd13ifvqcp0","pricing_plan_id":"cebpf4jnsgd1na2vs0mg"},{"bike_id":"19707f4e-57a0-487d-a0fd-b6e158a12fa5","system_id":"levelo_inurba_marseille","lat":43.28113,"lon":5.37833,"is_reserved":false,"is_disabled":false,"rental_uris":{"android":"levelo://app?vid=19707f4e-57a0-487d-a0fd-b6e158a12fa5","ios":"levelo://app?vid=19707f4e-57a0-487d-a0fd-b6e158a12fa5"},"vehicle_type_id":"4","last_reported":1741231199,"current_range_meters":10000,"station_id":"ce4bha12rcd13ifvqee0","pricing_plan_id":"cebpf4jnsgd1na2vs0mg"},{"bike_id":"5cd6b5e3-002f-4ae9-b761-daca7d0be569","system_id":"levelo_inurba_marseille","lat":43.24809,"lon":5.37454,"is_reserved":false,"is_disabled":false,"rental_uris":{"android":"levelo://app?vid=5cd6b5e3-002f-4ae9-b761-daca7d0be569","ios":"levelo://app?vid=5cd6b5e3-002f-4ae9-b761-daca7d0be569"},"vehicle_type_id":"4","last_reported":1741231199,"current_range_meters":10000,"station_id":"ce4bhgh2rcd13ifvqfb0","pricing_plan_id":"cebpf4jnsgd1na2vs0mg"},{"bike_id":"ed2d92a4-3310-4acf-ba6a-75330413c190","system_id":"levelo_inurba_marseille","lat":43.24802,"lon":5.3746,"is_reserved":false,"is_disabled":false,"rental_uris":{"android":"levelo://app?vid=ed2d92a4-3310-4acf-ba6a-75330413c190","ios":"levelo://app?vid=ed2d92a4-3310-4acf-ba6a-75330413c190"},"vehicle_type_id":"4","last_reported":1741231199,"current_range_meters":10000,"station_id":"ce4bhgh2rcd13ifvqfb0","pricing_plan_id":"cebpf4jnsgd1na2vs0mg"},{"bike_id":"a91949e8-ceed-4f64-874e-98e204602e93","system_id":"levelo_inurba_marseille","lat":43.279914,"lon":5.416604,"is_reserved":false,"is_disabled":false,"rental_uris":{"android":"levelo://app?vid=a91949e8-ceed-4f64-874e-98e204602e93","ios":"levelo://app?vid=a91949e8-ceed-4f64-874e-98e204602e93"},"vehicle_type_id":"4","last_reported":1741231199,"current_range_meters":10800,"station_id":"ce4bho12rcd13ifvqh1g","pricing_plan_id":"cebpf4jnsgd1na2vs0mg"},{"bike_id":"f2056776-4864-432e-910b-438a7cb2c245","system_id":"levelo_inurba_marseille","lat":43.307898,"lon":5.376354,"is_reserved":false,"is_disabled":false,"rental_uris":{"android":"levelo://app?vid=f2056776-4864-432e-910b-438a7cb2c245","ios":"levelo://app?vid=f2056776-4864-432e-910b-438a7cb2c245"},"vehicle_type_id":"4","last_reported":1741231199,"current_range_meters":10800,"station_id":"ce4bgv92rcd13ifvqcq0","pricing_plan_id":"cebpf4jnsgd1na2vs0mg"},{"bike_id":"f1969ae6-398f-4ca1-9c4a-74f3b1e55c0e","system_id":"levelo_inurba_marseille","lat":43.30893,"lon":5.39661,"is_reserved":false,"is_disabled":true,"rental_uris":{"android":"levelo://app?vid=f1969ae6-398f-4ca1-9c4a-74f3b1e55c0e","ios":"levelo://app?vid=f1969ae6-398f-4ca1-9c4a-74f3b1e55c0e"},"vehicle_type_id":"4","last_reported":1741231199,"current_range_meters":10800,"station_id":"ce4bh012rcd13ifvqcv0","pricing_plan_id":"cebpf4jnsgd1na2vs0mg"},{"bike_id":"dd954463-fdb8-41f4-a1e9-16c7fbdbf765","system_id":"levelo_inurba_marseille","lat":43.24813,"lon":5.37454,"is_reserved":false,"is_disabled":false,"rental_uris":{"android":"levelo://app?vid=dd954463-fdb8-41f4-a1e9-16c7fbdbf765","ios":"levelo://app?vid=dd954463-fdb8-41f4-a1e9-16c7fbdbf765"},"vehicle_type_id":"4","last_reported":1741231199,"current_range_meters":10800,"station_id":"ce4bhgh2rcd13ifvqfb0","pricing_plan_id":"cebpf4jnsgd1na2vs0mg"},{"bike_id":"5b9116fe-0eda-4e2c-8f48-26d3c7135734","system_id":"levelo_inurba_marseille","lat":43.28712,"lon":5.3794,"is_reserved":false,"is_disabled":false,"rental_uris":{"android":"levelo://app?vid=5b9116fe-0eda-4e2c-8f48-26d3c7135734","ios":"levelo://app?vid=5b9116fe-0eda-4e2c-8f48-26d3c7135734"},"vehicle_type_id":"4","last_reported":1741231199,"current_range_meters":10800,"station_id":"ce4bh9p2rcd13ifvqec0","pricing_plan_id":"cebpf4jnsgd1na2vs0mg"},{"bike_id":"54f1730f-8217-492c-9fff-91b949c67a5b","system_id":"levelo_inurba_marseille","lat":43.29012,"lon":5.35621,"is_reserved":false,"is_disabled":false,"rental_uris":{"android":"levelo://app?vid=54f1730f-8217-492c-9fff-91b949c67a5b","ios":"levelo://app?vid=54f1730f-8217-492c-9fff-91b949c67a5b"},"vehicle_type_id":"4","last_reported":1741231199,"current_range_meters":10800,"station_id":"ce4bhb92rcd13ifvqen0","pricing_plan_id":"cebpf4jnsgd1na2vs0mg"},{"bike_id":"d2c86759-c403-4c7c-88f9-b29ee0f9435b","system_id":"levelo_inurba_marseille","lat":43.30944,"lon":5.4015,"is_reserved":false,"is_disabled":false,"rental_uris":{"android":"levelo://app?vid=d2c86759-c403-4c7c-88f9-b29ee0f9435b","ios":"levelo://app?vid=d2c86759-c403-4c7c-88f9-b29ee0f9435b"},"vehicle_type_id":"4","last_reported":1741231199,"current_range_meters":10800,"station_id":"ce4bgvp2rcd13ifvqct0","pricing_plan_id":"cebpf4jnsgd1na2vs0mg"},{"bike_id":"fa98af60-ad58-4ccc-a5a0-6ebd1ae22394","system_id":"levelo_inurba_marseille","lat":43.28104,"lon":5.37831,"is_reserved":false,"is_disabled":false,"rental_uris":{"android":"levelo://app?vid=fa98af60-ad58-4ccc-a5a0-6ebd1ae22394","ios":"levelo://app?vid=fa98af60-ad58-4ccc-a5a0-6ebd1ae22394"},"vehicle_type_id":"4","last_reported":1741231199,"current_range_meters":10800,"station_id":"ce4bha12rcd13ifvqee0","pricing_plan_id":"cebpf4jnsgd1na2vs0mg"},{"bike_id":"3acabc1e-11c2-491e-bc5d-b11d8884d3d4","system_id":"levelo_inurba_marseille","lat":43.28672,"lon":5.38683,"is_reserved":false,"is_disabled":false,"rental_uris":{"android":"levelo://app?vid=3acabc1e-11c2-491e-bc5d-b11d8884d3d4","ios":"levelo://app?vid=3acabc1e-11c2-491e-bc5d-b11d8884d3d4"},"vehicle_type_id":"4","last_reported":1741231199,"current_range_meters":11200,"station_id":"ce4bh492rcd13ifvqdug","pricing_plan_id":"cebpf4jnsgd1na2vs0mg"},{"bike_id":"6394fffa-9b9b-4bbe-9197-995fa28b7814","system_id":"levelo_inurba_marseille","lat":43.25126,"lon":5.40345,"is_reserved":false,"is_disabled":false,"rental_uris":{"android":"levelo://app?vid=6394fffa-9b9b-4bbe-9197-995fa28b7814","ios":"levelo://app?vid=6394fffa-9b9b-4bbe-9197-995fa28b7814"},"vehicle_type_id":"4","last_reported":1741231199,"current_range_meters":11200,"station_id":"ce4bhlh2rcd13ifvqgig","pricing_plan_id":"cebpf4jnsgd1na2vs0mg"},{"bike_id":"42f3fd83-d5cd-45ba-afcf-0a822294d812","system_id":"levelo_inurba_marseille","lat":43.28583,"lon":5.42976,"is_reserved":false,"is_disabled":true,"rental_uris":{"android":"levelo://app?vid=42f3fd83-d5cd-45ba-afcf-0a822294d812","ios":"levelo://app?vid=42f3fd83-d5cd-45ba-afcf-0a822294d812"},"vehicle_type_id":"4","last_reported":1741231199,"current_range_meters":11200,"station_id":"","pricing_plan_id":"cebpf4jnsgd1na2vs0mg"},{"bike_id":"68ef834d-889d-4e9d-a3ec-8ff7b2ee7906","system_id":"levelo_inurba_marseille","lat":43.269377,"lon":5.402546,"is_reserved":false,"is_disabled":false,"rental_uris":{"android":"levelo://app?vid=68ef834d-889d-4e9d-a3ec-8ff7b2ee7906","ios":"levelo://app?vid=68ef834d-889d-4e9d-a3ec-8ff7b2ee7906"},"vehicle_type_id":"4","last_reported":1741231199,"current_range_meters":11200,"station_id":"cjm6bp8fraef2m0cb0m0","pricing_plan_id":"cebpf4jnsgd1na2vs0mg"},{"bike_id":"a04945a2-f46f-4a31-934c-e5afa1784de6","system_id":"levelo_inurba_marseille","lat":43.286603,"lon":5.363497,"is_reserved":false,"is_disabled":false,"rental_uris":{"android":"levelo://app?vid=a04945a2-f46f-4a31-934c-e5afa1784de6","ios":"levelo://app?vid=a04945a2-f46f-4a31-934c-e5afa1784de6"},"vehicle_type_id":"4","last_reported":1741231199,"current_range_meters":11200,"station_id":"ce4bhah2rcd13ifvqej0","pricing_plan_id":"cebpf4jnsgd1na2vs0mg"},{"bike_id":"fa793503-34be-4099-bcaf-634c852293fa","system_id":"levelo_inurba_marseille","lat":43.29253,"lon":5.40917,"is_reserved":false,"is_disabled":false,"rental_uris":{"android":"levelo://app?vid=fa793503-34be-4099-bcaf-634c852293fa","ios":"levelo://app?vid=fa793503-34be-4099-bcaf-634c852293fa"},"vehicle_type_id":"4","last_reported":1741231199,"current_range_meters":11600,"station_id":"ce4bh192rcd13ifvqdc0","pricing_plan_id":"cebpf4jnsgd1na2vs0mg"},{"bike_id":"10140528-a858-4ead-97b4-fbca8c53015b","system_id":"levelo_inurba_marseille","lat":43.27059,"lon":5.42274,"is_reserved":false,"is_disabled":false,"rental_uris":{"android":"levelo://app?vid=10140528-a858-4ead-97b4-fbca8c53015b","ios":"levelo://app?vid=10140528-a858-4ead-97b4-fbca8c53015b"},"vehicle_type_id":"4","last_reported":1741231199,"current_range_meters":11200,"station_id":"ce4bhk92rcd13ifvqgb0","pricing_plan_id":"cebpf4jnsgd1na2vs0mg"},{"bike_id":"bc1ff28f-0226-4fe1-bb42-0a1e2869659e","system_id":"levelo_inurba_marseille","lat":43.323611,"lon":5.388964,"is_reserved":false,"is_disabled":false,"rental_uris":{"android":"levelo://app?vid=bc1ff28f-0226-4fe1-bb42-0a1e2869659e","ios":"levelo://app?vid=bc1ff28f-0226-4fe1-bb42-0a1e2869659e"},"vehicle_type_id":"4","last_reported":1741231199,"current_range_meters":11200,"station_id":"ce4bhqp2rcd13ifvqhog","pricing_plan_id":"cebpf4jnsgd1na2vs0mg"},{"bike_id":"e0c0bec3-454a-410d-a60f-3aed516ec149","system_id":"levelo_inurba_marseille","lat":43.23202,"lon":5.35559,"is_reserved":false,"is_disabled":false,"rental_uris":{"android":"levelo://app?vid=e0c0bec3-454a-410d-a60f-3aed516ec149","ios":"levelo://app?vid=e0c0bec3-454a-410d-a60f-3aed516ec149"},"vehicle_type_id":"4","last_reported":1741231199,"current_range_meters":11600,"station_id":"ce4bhu92rcd13ifvqi70","pricing_plan_id":"cebpf4jnsgd1na2vs0mg"},{"bike_id":"6bb40379-a505-4b1d-9282-b739c69ec956","system_id":"levelo_inurba_marseille","lat":43.286182,"lon":5.350956,"is_reserved":false,"is_disabled":false,"rental_uris":{"android":"levelo://app?vid=6bb40379-a505-4b1d-9282-b739c69ec956","ios":"levelo://app?vid=6bb40379-a505-4b1d-9282-b739c69ec956"},"vehicle_type_id":"4","last_reported":1741231199,"current_range_meters":11600,"station_id":"ce4bhch2rcd13ifvqeug","pricing_plan_id":"cebpf4jnsgd1na2vs0mg"},{"bike_id":"f1de27ae-3d8e-4836-97b8-6107465c3cf9","system_id":"levelo_inurba_marseille","lat":43.31279,"lon":5.4017,"is_reserved":false,"is_disabled":false,"rental_uris":{"android":"levelo://app?vid=f1de27ae-3d8e-4836-97b8-6107465c3cf9","ios":"levelo://app?vid=f1de27ae-3d8e-4836-97b8-6107465c3cf9"},"vehicle_type_id":"4","last_reported":1741231199,"current_range_meters":11600,"station_id":"ce4bh092rcd13ifvqd30","pricing_plan_id":"cebpf4jnsgd1na2vs0mg"},{"bike_id":"ee66fa00-5e3e-4f40-8479-381855f5cd2f","system_id":"levelo_inurba_marseille","lat":43.31285,"lon":5.40173,"is_reserved":false,"is_disabled":false,"rental_uris":{"android":"levelo://app?vid=ee66fa00-5e3e-4f40-8479-381855f5cd2f","ios":"levelo://app?vid=ee66fa00-5e3e-4f40-8479-381855f5cd2f"},"vehicle_type_id":"4","last_reported":1741231199,"current_range_meters":11600,"station_id":"ce4bh092rcd13ifvqd30","pricing_plan_id":"cebpf4jnsgd1na2vs0mg"},{"bike_id":"88f1cdf8-d5f9-4bd1-9807-7495f7918208","system_id":"levelo_inurba_marseille","lat":43.31327,"lon":5.3682,"is_reserved":false,"is_disabled":false,"rental_uris":{"android":"levelo://app?vid=88f1cdf8-d5f9-4bd1-9807-7495f7918208","ios":"levelo://app?vid=88f1cdf8-d5f9-4bd1-9807-7495f7918208"},"vehicle_type_id":"4","last_reported":1741231199,"current_range_meters":11600,"station_id":"","pricing_plan_id":"cebpf4jnsgd1na2vs0mg"},{"bike_id":"7f1905bf-da4d-4f13-af14-c5d46804e585","system_id":"levelo_inurba_marseille","lat":43.23192,"lon":5.35556,"is_reserved":false,"is_disabled":false,"rental_uris":{"android":"levelo://app?vid=7f1905bf-da4d-4f13-af14-c5d46804e585","ios":"levelo://app?vid=7f1905bf-da4d-4f13-af14-c5d46804e585"},"vehicle_type_id":"4","last_reported":1741231199,"current_range_meters":11600,"station_id":"ce4bhu92rcd13ifvqi70","pricing_plan_id":"cebpf4jnsgd1na2vs0mg"},{"bike_id":"deccb326-0579-4f88-8ded-8a796f163b88","system_id":"levelo_inurba_marseille","lat":43.31436,"lon":5.37609,"is_reserved":false,"is_disabled":false,"rental_uris":{"android":"levelo://app?vid=deccb326-0579-4f88-8ded-8a796f163b88","ios":"levelo://app?vid=deccb326-0579-4f88-8ded-8a796f163b88"},"vehicle_type_id":"4","last_reported":1741231199,"current_range_meters":11600,"station_id":"","pricing_plan_id":"cebpf4jnsgd1na2vs0mg"},{"bike_id":"664a40bb-cc99-4fc4-b2cd-52b127ccc154","system_id":"levelo_inurba_marseille","lat":43.29865,"lon":5.39733,"is_reserved":false,"is_disabled":false,"rental_uris":{"android":"levelo://app?vid=664a40bb-cc99-4fc4-b2cd-52b127ccc154","ios":"levelo://app?vid=664a40bb-cc99-4fc4-b2cd-52b127ccc154"},"vehicle_type_id":"4","last_reported":1741231199,"current_range_meters":12000,"station_id":"ce4bh0h2rcd13ifvqd50","pricing_plan_id":"cebpf4jnsgd1na2vs0mg"},{"bike_id":"e728093b-3b35-4216-b7be-152e2148a5ab","system_id":"levelo_inurba_marseille","lat":43.31171,"lon":5.3869,"is_reserved":false,"is_disabled":false,"rental_uris":{"android":"levelo://app?vid=e728093b-3b35-4216-b7be-152e2148a5ab","ios":"levelo://app?vid=e728093b-3b35-4216-b7be-152e2148a5ab"},"vehicle_type_id":"4","last_reported":1741231199,"current_range_meters":12000,"station_id":"ce4bgv12rcd13ifvqcp0","pricing_plan_id":"cebpf4jnsgd1na2vs0mg"},{"bike_id":"0b3cb245-c1ab-4265-9e03-36f6b9bfa685","system_id":"levelo_inurba_marseille","lat":43.2307,"lon":5.35478,"is_reserved":false,"is_disabled":false,"rental_uris":{"android":"levelo://app?vid=0b3cb245-c1ab-4265-9e03-36f6b9bfa685","ios":"levelo://app?vid=0b3cb245-c1ab-4265-9e03-36f6b9bfa685"},"vehicle_type_id":"4","last_reported":1741231199,"current_range_meters":12000,"station_id":"cpo3342slgdg3j2ifvpg","pricing_plan_id":"cebpf4jnsgd1na2vs0mg"},{"bike_id":"ff51cf58-fb92-49b3-99ce-0d368460e499","system_id":"levelo_inurba_marseille","lat":43.28721,"lon":5.36084,"is_reserved":false,"is_disabled":false,"rental_uris":{"android":"levelo://app?vid=ff51cf58-fb92-49b3-99ce-0d368460e499","ios":"levelo://app?vid=ff51cf58-fb92-49b3-99ce-0d368460e499"},"vehicle_type_id":"4","last_reported":1741231199,"current_range_meters":12000,"station_id":"cki0cbj6b192h4jlfktg","pricing_plan_id":"cebpf4jnsgd1na2vs0mg"},{"bike_id":"a0d8f949-6ee3-4689-9b5f-0c06c75b65f6","system_id":"levelo_inurba_marseille","lat":43.281,"lon":5.39669,"is_reserved":false,"is_disabled":false,"rental_uris":{"android":"levelo://app?vid=a0d8f949-6ee3-4689-9b5f-0c06c75b65f6","ios":"levelo://app?vid=a0d8f949-6ee3-4689-9b5f-0c06c75b65f6"},"vehicle_type_id":"4","last_reported":1741231199,"current_range_meters":12000,"station_id":"ce4bho12rcd13ifvqh2g","pricing_plan_id":"cebpf4jnsgd1na2vs0mg"},{"bike_id":"9109bf38-4e22-4f79-95b6-2d4197ce8722","system_id":"levelo_inurba_marseille","lat":43.24073,"lon":5.37764,"is_reserved":false,"is_disabled":false,"rental_uris":{"android":"levelo://app?vid=9109bf38-4e22-4f79-95b6-2d4197ce8722","ios":"levelo://app?vid=9109bf38-4e22-4f79-95b6-2d4197ce8722"},"vehicle_type_id":"4","last_reported":1741231199,"current_range_meters":12000,"station_id":"ce4bhnp2rcd13ifvqgvg","pricing_plan_id":"cebpf4jnsgd1na2vs0mg"},{"bike_id":"05b7a77f-864d-45f8-b8fe-50b708b2e2ed","system_id":"levelo_inurba_marseille","lat":43.29571,"lon":5.39972,"is_reserved":false,"is_disabled":false,"rental_uris":{"android":"levelo://app?vid=05b7a77f-864d-45f8-b8fe-50b708b2e2ed","ios":"levelo://app?vid=05b7a77f-864d-45f8-b8fe-50b708b2e2ed"},"vehicle_type_id":"4","last_reported":1741231199,"current_range_meters":12800,"station_id":"ce4bh312rcd13ifvqdj0","pricing_plan_id":"cebpf4jnsgd1na2vs0mg"},{"bike_id":"4a0bd736-57eb-4c56-a8a7-96515f09f9d3","system_id":"levelo_inurba_marseille","lat":43.24421,"lon":5.37032,"is_reserved":false,"is_disabled":false,"rental_uris":{"android":"levelo://app?vid=4a0bd736-57eb-4c56-a8a7-96515f09f9d3","ios":"levelo://app?vid=4a0bd736-57eb-4c56-a8a7-96515f09f9d3"},"vehicle_type_id":"4","last_reported":1741231199,"current_range_meters":12400,"station_id":"ce4bhhh2rcd13ifvqfk0","pricing_plan_id":"cebpf4jnsgd1na2vs0mg"},{"bike_id":"3efa0829-44a5-41c0-9fe0-003ba7618e24","system_id":"levelo_inurba_marseille","lat":43.29178,"lon":5.39313,"is_reserved":false,"is_disabled":false,"rental_uris":{"android":"levelo://app?vid=3efa0829-44a5-41c0-9fe0-003ba7618e24","ios":"levelo://app?vid=3efa0829-44a5-41c0-9fe0-003ba7618e24"},"vehicle_type_id":"4","last_reported":1741231199,"current_range_meters":12800,"station_id":"ce4bh192rcd13ifvqdd0","pricing_plan_id":"cebpf4jnsgd1na2vs0mg"},{"bike_id":"a96d7960-9bdf-423e-844a-233c572ec0a9","system_id":"levelo_inurba_marseille","lat":43.302299,"lon":5.394746,"is_reserved":false,"is_disabled":false,"rental_uris":{"android":"levelo://app?vid=a96d7960-9bdf-423e-844a-233c572ec0a9","ios":"levelo://app?vid=a96d7960-9bdf-423e-844a-233c572ec0a9"},"vehicle_type_id":"4","last_reported":1741231199,"current_range_meters":12800,"station_id":"ce4bh0p2rcd13ifvqd70","pricing_plan_id":"cebpf4jnsgd1na2vs0mg"},{"bike_id":"6a10ab3a-3ca6-4b1f-815c-473ed184eb58","system_id":"levelo_inurba_marseille","lat":43.297025,"lon":5.376997,"is_reserved":false,"is_disabled":true,"rental_uris":{"android":"levelo://app?vid=6a10ab3a-3ca6-4b1f-815c-473ed184eb58","ios":"levelo://app?vid=6a10ab3a-3ca6-4b1f-815c-473ed184eb58"},"vehicle_type_id":"4","last_reported":1741231199,"current_range_meters":13600,"station_id":"ce4bgkh2rcd13ifvqbl0","pricing_plan_id":"cebpf4jnsgd1na2vs0mg"},{"bike_id":"31102d93-4112-4f30-920b-af3f91d90bc1","system_id":"levelo_inurba_marseille","lat":43.30796,"lon":5.38153,"is_reserved":false,"is_disabled":false,"rental_uris":{"android":"levelo://app?vid=31102d93-4112-4f30-920b-af3f91d90bc1","ios":"levelo://app?vid=31102d93-4112-4f30-920b-af3f91d90bc1"},"vehicle_type_id":"4","last_reported":1741231199,"current_range_meters":13600,"station_id":"ce4bgt12rcd13ifvqce0","pricing_plan_id":"cebpf4jnsgd1na2vs0mg"},{"bike_id":"fc73acfd-664c-4967-92b1-6ee1fdf4bc1d","system_id":"levelo_inurba_marseille","lat":43.31068,"lon":5.38349,"is_reserved":false,"is_disabled":false,"rental_uris":{"android":"levelo://app?vid=fc73acfd-664c-4967-92b1-6ee1fdf4bc1d","ios":"levelo://app?vid=fc73acfd-664c-4967-92b1-6ee1fdf4bc1d"},"vehicle_type_id":"4","last_reported":1741231199,"current_range_meters":13600,"station_id":"ce4bgv92rcd13ifvqcr0","pricing_plan_id":"cebpf4jnsgd1na2vs0mg"},{"bike_id":"4e1cdc49-af7b-47c8-9d94-cfe80a7f541e","system_id":"levelo_inurba_marseille","lat":43.289375,"lon":5.363944,"is_reserved":false,"is_disabled":false,"rental_uris":{"android":"levelo://app?vid=4e1cdc49-af7b-47c8-9d94-cfe80a7f541e","ios":"levelo://app?vid=4e1cdc49-af7b-47c8-9d94-cfe80a7f541e"},"vehicle_type_id":"4","last_reported":1741231199,"current_range_meters":13600,"station_id":"ce4bhc92rcd13ifvqetg","pricing_plan_id":"cebpf4jnsgd1na2vs0mg"},{"bike_id":"d3f2ea16-6d7c-48f4-b8ec-0a80ff6f7a15","system_id":"levelo_inurba_marseille","lat":43.298813,"lon":5.397556,"is_reserved":false,"is_disabled":false,"rental_uris":{"android":"levelo://app?vid=d3f2ea16-6d7c-48f4-b8ec-0a80ff6f7a15","ios":"levelo://app?vid=d3f2ea16-6d7c-48f4-b8ec-0a80ff6f7a15"},"vehicle_type_id":"4","last_reported":1741231199,"current_range_meters":13600,"station_id":"ce4bh0h2rcd13ifvqd50","pricing_plan_id":"cebpf4jnsgd1na2vs0mg"},{"bike_id":"256ec39e-52a0-462f-859c-5a80cf63590f","system_id":"levelo_inurba_marseille","lat":43.2817,"lon":5.42652,"is_reserved":false,"is_disabled":false,"rental_uris":{"android":"levelo://app?vid=256ec39e-52a0-462f-859c-5a80cf63590f","ios":"levelo://app?vid=256ec39e-52a0-462f-859c-5a80cf63590f"},"vehicle_type_id":"4","last_reported":1741231199,"current_range_meters":13600,"station_id":"ce4bhnh2rcd13ifvqgug","pricing_plan_id":"cebpf4jnsgd1na2vs0mg"},{"bike_id":"7cb5d2b6-f1df-489c-aae3-6fd46b81c378","system_id":"levelo_inurba_marseille","lat":43.30794,"lon":5.43513,"is_reserved":false,"is_disabled":false,"rental_uris":{"android":"levelo://app?vid=7cb5d2b6-f1df-489c-aae3-6fd46b81c378","ios":"levelo://app?vid=7cb5d2b6-f1df-489c-aae3-6fd46b81c378"},"vehicle_type_id":"4","last_reported":1741231199,"current_range_meters":13600,"station_id":"ce4bhph2rcd13ifvqheg","pricing_plan_id":"cebpf4jnsgd1na2vs0mg"},{"bike_id":"5767adce-4b87-4fa6-ab5a-cd6bc1f79831","system_id":"levelo_inurba_marseille","lat":43.29585,"lon":5.40244,"is_reserved":false,"is_disabled":false,"rental_uris":{"android":"levelo://app?vid=5767adce-4b87-4fa6-ab5a-cd6bc1f79831","ios":"levelo://app?vid=5767adce-4b87-4fa6-ab5a-cd6bc1f79831"},"vehicle_type_id":"4","last_reported":1741231199,"current_range_meters":13600,"station_id":"","pricing_plan_id":"cebpf4jnsgd1na2vs0mg"},{"bike_id":"e968ab12-e24e-4ebd-b6f9-fd2efbd300aa","system_id":"levelo_inurba_marseille","lat":43.284009,"lon":5.375201,"is_reserved":false,"is_disabled":false,"rental_uris":{"android":"levelo://app?vid=e968ab12-e24e-4ebd-b6f9-fd2efbd300aa","ios":"levelo://app?vid=e968ab12-e24e-4ebd-b6f9-fd2efbd300aa"},"vehicle_type_id":"4","last_reported":1741231199,"current_range_meters":14000,"station_id":"ce4bh412rcd13ifvqds0","pricing_plan_id":"cebpf4jnsgd1na2vs0mg"},{"bike_id":"724e87ed-cb25-4934-9e86-2688c0a65c03","system_id":"levelo_inurba_marseille","lat":43.308896,"lon":5.396375,"is_reserved":false,"is_disabled":false,"rental_uris":{"android":"levelo://app?vid=724e87ed-cb25-4934-9e86-2688c0a65c03","ios":"levelo://app?vid=724e87ed-cb25-4934-9e86-2688c0a65c03"},"vehicle_type_id":"4","last_reported":1741231199,"current_range_meters":14000,"station_id":"ce4bh012rcd13ifvqcv0","pricing_plan_id":"cebpf4jnsgd1na2vs0mg"},{"bike_id":"c70eb9b9-6298-4221-9ef7-c3cac70a59e9","system_id":"levelo_inurba_marseille","lat":43.31127,"lon":5.37785,"is_reserved":false,"is_disabled":false,"rental_uris":{"android":"levelo://app?vid=c70eb9b9-6298-4221-9ef7-c3cac70a59e9","ios":"levelo://app?vid=c70eb9b9-6298-4221-9ef7-c3cac70a59e9"},"vehicle_type_id":"4","last_reported":1741231199,"current_range_meters":14000,"station_id":"ce4bgt92rcd13ifvqcg0","pricing_plan_id":"cebpf4jnsgd1na2vs0mg"},{"bike_id":"acf20595-7755-43d3-8c8f-296b234b0f1b","system_id":"levelo_inurba_marseille","lat":43.25089,"lon":5.41074,"is_reserved":false,"is_disabled":false,"rental_uris":{"android":"levelo://app?vid=acf20595-7755-43d3-8c8f-296b234b0f1b","ios":"levelo://app?vid=acf20595-7755-43d3-8c8f-296b234b0f1b"},"vehicle_type_id":"4","last_reported":1741231199,"current_range_meters":14000,"station_id":"","pricing_plan_id":"cebpf4jnsgd1na2vs0mg"},{"bike_id":"2aee36d8-e3be-4251-b015-57c48e5d8fb7","system_id":"levelo_inurba_marseille","lat":43.25708,"lon":5.41136,"is_reserved":false,"is_disabled":false,"rental_uris":{"android":"levelo://app?vid=2aee36d8-e3be-4251-b015-57c48e5d8fb7","ios":"levelo://app?vid=2aee36d8-e3be-4251-b015-57c48e5d8fb7"},"vehicle_type_id":"4","last_reported":1741231199,"current_range_meters":14000,"station_id":"ce4bhkp2rcd13ifvqgd0","pricing_plan_id":"cebpf4jnsgd1na2vs0mg"},{"bike_id":"ad05156c-dca3-4b58-ab47-0d31971b1af7","system_id":"levelo_inurba_marseille","lat":43.280344,"lon":5.369349,"is_reserved":false,"is_disabled":false,"rental_uris":{"android":"levelo://app?vid=ad05156c-dca3-4b58-ab47-0d31971b1af7","ios":"levelo://app?vid=ad05156c-dca3-4b58-ab47-0d31971b1af7"},"vehicle_type_id":"4","last_reported":1741231199,"current_range_meters":14000,"station_id":"ce4bha12rcd13ifvqef0","pricing_plan_id":"cebpf4jnsgd1na2vs0mg"},{"bike_id":"da38c14a-341c-4fc5-aa1c-82689deb0dae","system_id":"levelo_inurba_marseille","lat":43.279153,"lon":5.395819,"is_reserved":false,"is_disabled":false,"rental_uris":{"android":"levelo://app?vid=da38c14a-341c-4fc5-aa1c-82689deb0dae","ios":"levelo://app?vid=da38c14a-341c-4fc5-aa1c-82689deb0dae"},"vehicle_type_id":"4","last_reported":1741231199,"current_range_meters":14000,"station_id":"ce4bhf92rcd13ifvqf40","pricing_plan_id":"cebpf4jnsgd1na2vs0mg"},{"bike_id":"6b0ab485-d469-4369-87d5-d8a589ffc853","system_id":"levelo_inurba_marseille","lat":43.31166,"lon":5.38699,"is_reserved":false,"is_disabled":false,"rental_uris":{"android":"levelo://app?vid=6b0ab485-d469-4369-87d5-d8a589ffc853","ios":"levelo://app?vid=6b0ab485-d469-4369-87d5-d8a589ffc853"},"vehicle_type_id":"4","last_reported":1741231199,"current_range_meters":14400,"station_id":"ce4bgv12rcd13ifvqcp0","pricing_plan_id":"cebpf4jnsgd1na2vs0mg"},{"bike_id":"cb23fa5e-5019-40d7-a239-c075baf0c85b","system_id":"levelo_inurba_marseille","lat":43.28939,"lon":5.36623,"is_reserved":false,"is_disabled":false,"rental_uris":{"android":"levelo://app?vid=cb23fa5e-5019-40d7-a239-c075baf0c85b","ios":"levelo://app?vid=cb23fa5e-5019-40d7-a239-c075baf0c85b"},"vehicle_type_id":"4","last_reported":1741231199,"current_range_meters":14400,"station_id":"ce4bhap2rcd13ifvqek0","pricing_plan_id":"cebpf4jnsgd1na2vs0mg"},{"bike_id":"d38d2814-fddd-4741-82cf-424351788984","system_id":"levelo_inurba_marseille","lat":43.30887,"lon":5.39639,"is_reserved":false,"is_disabled":false,"rental_uris":{"android":"levelo://app?vid=d38d2814-fddd-4741-82cf-424351788984","ios":"levelo://app?vid=d38d2814-fddd-4741-82cf-424351788984"},"vehicle_type_id":"4","last_reported":1741231199,"current_range_meters":14400,"station_id":"ce4bh012rcd13ifvqcv0","pricing_plan_id":"cebpf4jnsgd1na2vs0mg"},{"bike_id":"cf9eaa3d-76b1-45cf-ad18-68aab86374f5","system_id":"levelo_inurba_marseille","lat":43.25586,"lon":5.38232,"is_reserved":false,"is_disabled":false,"rental_uris":{"android":"levelo://app?vid=cf9eaa3d-76b1-45cf-ad18-68aab86374f5","ios":"levelo://app?vid=cf9eaa3d-76b1-45cf-ad18-68aab86374f5"},"vehicle_type_id":"4","last_reported":1741231199,"current_range_meters":14400,"station_id":"ce4bhih2rcd13ifvqfs0","pricing_plan_id":"cebpf4jnsgd1na2vs0mg"},{"bike_id":"d86f8736-019e-42bc-8e26-7fa7feba3e20","system_id":"levelo_inurba_marseille","lat":43.31171,"lon":5.38718,"is_reserved":false,"is_disabled":false,"rental_uris":{"android":"levelo://app?vid=d86f8736-019e-42bc-8e26-7fa7feba3e20","ios":"levelo://app?vid=d86f8736-019e-42bc-8e26-7fa7feba3e20"},"vehicle_type_id":"4","last_reported":1741231199,"current_range_meters":14400,"station_id":"ce4bgv12rcd13ifvqcp0","pricing_plan_id":"cebpf4jnsgd1na2vs0mg"},{"bike_id":"ef33791b-fe73-41a7-bfe2-2c890402d267","system_id":"levelo_inurba_marseille","lat":43.25117,"lon":5.40318,"is_reserved":false,"is_disabled":false,"rental_uris":{"android":"levelo://app?vid=ef33791b-fe73-41a7-bfe2-2c890402d267","ios":"levelo://app?vid=ef33791b-fe73-41a7-bfe2-2c890402d267"},"vehicle_type_id":"4","last_reported":1741231199,"current_range_meters":14400,"station_id":"ce4bhlh2rcd13ifvqgig","pricing_plan_id":"cebpf4jnsgd1na2vs0mg"},{"bike_id":"802b43c6-5d88-4b4d-a6cb-b145221d4110","system_id":"levelo_inurba_marseille","lat":43.28023,"lon":5.39958,"is_reserved":false,"is_disabled":false,"rental_uris":{"android":"levelo://app?vid=802b43c6-5d88-4b4d-a6cb-b145221d4110","ios":"levelo://app?vid=802b43c6-5d88-4b4d-a6cb-b145221d4110"},"vehicle_type_id":"4","last_reported":1741231199,"current_range_meters":14400,"station_id":"","pricing_plan_id":"cebpf4jnsgd1na2vs0mg"},{"bike_id":"2c4b72f9-e647-4fd3-91da-cf17b9f18912","system_id":"levelo_inurba_marseille","lat":43.284591,"lon":5.358895,"is_reserved":false,"is_disabled":false,"rental_uris":{"android":"levelo://app?vid=2c4b72f9-e647-4fd3-91da-cf17b9f18912","ios":"levelo://app?vid=2c4b72f9-e647-4fd3-91da-cf17b9f18912"},"vehicle_type_id":"4","last_reported":1741231199,"current_range_meters":14800,"station_id":"ce4bhah2rcd13ifvqei0","pricing_plan_id":"cebpf4jnsgd1na2vs0mg"},{"bike_id":"98a1abc3-601b-4576-b2df-57cfbfeb024d","system_id":"levelo_inurba_marseille","lat":43.28098,"lon":5.37836,"is_reserved":false,"is_disabled":false,"rental_uris":{"android":"levelo://app?vid=98a1abc3-601b-4576-b2df-57cfbfeb024d","ios":"levelo://app?vid=98a1abc3-601b-4576-b2df-57cfbfeb024d"},"vehicle_type_id":"4","last_reported":1741231199,"current_range_meters":14800,"station_id":"ce4bha12rcd13ifvqee0","pricing_plan_id":"cebpf4jnsgd1na2vs0mg"},{"bike_id":"e169750d-f626-4301-9075-a25fc35f092c","system_id":"levelo_inurba_marseille","lat":43.3171,"lon":5.40457,"is_reserved":false,"is_disabled":false,"rental_uris":{"android":"levelo://app?vid=e169750d-f626-4301-9075-a25fc35f092c","ios":"levelo://app?vid=e169750d-f626-4301-9075-a25fc35f092c"},"vehicle_type_id":"4","last_reported":1741231199,"current_range_meters":15200,"station_id":"ce4bh012rcd13ifvqd00","pricing_plan_id":"cebpf4jnsgd1na2vs0mg"},{"bike_id":"8f593b2b-33d3-4438-b2b3-24a50b84e470","system_id":"levelo_inurba_marseille","lat":43.28711,"lon":5.37386,"is_reserved":false,"is_disabled":false,"rental_uris":{"android":"levelo://app?vid=8f593b2b-33d3-4438-b2b3-24a50b84e470","ios":"levelo://app?vid=8f593b2b-33d3-4438-b2b3-24a50b84e470"},"vehicle_type_id":"4","last_reported":1741231199,"current_range_meters":15200,"station_id":"ce4bh3p2rcd13ifvqdq0","pricing_plan_id":"cebpf4jnsgd1na2vs0mg"},{"bike_id":"f927a9c8-5d84-472f-b8fd-88f2fc3bc3e6","system_id":"levelo_inurba_marseille","lat":43.29902,"lon":5.43664,"is_reserved":false,"is_disabled":false,"rental_uris":{"android":"levelo://app?vid=f927a9c8-5d84-472f-b8fd-88f2fc3bc3e6","ios":"levelo://app?vid=f927a9c8-5d84-472f-b8fd-88f2fc3bc3e6"},"vehicle_type_id":"4","last_reported":1741231199,"current_range_meters":15200,"station_id":"ce4bhpp2rcd13ifvqhfg","pricing_plan_id":"cebpf4jnsgd1na2vs0mg"},{"bike_id":"1bc0c6d0-7e10-4b8d-a0c9-084dbeb3f1f3","system_id":"levelo_inurba_marseille","lat":43.308881,"lon":5.396398,"is_reserved":false,"is_disabled":false,"rental_uris":{"android":"levelo://app?vid=1bc0c6d0-7e10-4b8d-a0c9-084dbeb3f1f3","ios":"levelo://app?vid=1bc0c6d0-7e10-4b8d-a0c9-084dbeb3f1f3"},"vehicle_type_id":"4","last_reported":1741231199,"current_range_meters":15200,"station_id":"ce4bh012rcd13ifvqcv0","pricing_plan_id":"cebpf4jnsgd1na2vs0mg"},{"bike_id":"534f692f-ad8d-4728-8091-3677e2e78a71","system_id":"levelo_inurba_marseille","lat":43.31232,"lon":5.40145,"is_reserved":false,"is_disabled":false,"rental_uris":{"android":"levelo://app?vid=534f692f-ad8d-4728-8091-3677e2e78a71","ios":"levelo://app?vid=534f692f-ad8d-4728-8091-3677e2e78a71"},"vehicle_type_id":"4","last_reported":1741231199,"current_range_meters":15200,"station_id":"ce4bh092rcd13ifvqd30","pricing_plan_id":"cebpf4jnsgd1na2vs0mg"},{"bike_id":"eb349d4a-0d99-4439-8882-617b17acaea4","system_id":"levelo_inurba_marseille","lat":43.29193,"lon":5.35794,"is_reserved":false,"is_disabled":false,"rental_uris":{"android":"levelo://app?vid=eb349d4a-0d99-4439-8882-617b17acaea4","ios":"levelo://app?vid=eb349d4a-0d99-4439-8882-617b17acaea4"},"vehicle_type_id":"4","last_reported":1741231199,"current_range_meters":16000,"station_id":"ce4bhb12rcd13ifvqel0","pricing_plan_id":"cebpf4jnsgd1na2vs0mg"},{"bike_id":"23714e89-8ebe-4845-b4cd-a367dd2ec934","system_id":"levelo_inurba_marseille","lat":43.28034,"lon":5.36944,"is_reserved":false,"is_disabled":false,"rental_uris":{"android":"levelo://app?vid=23714e89-8ebe-4845-b4cd-a367dd2ec934","ios":"levelo://app?vid=23714e89-8ebe-4845-b4cd-a367dd2ec934"},"vehicle_type_id":"4","last_reported":1741231199,"current_range_meters":16000,"station_id":"ce4bha12rcd13ifvqef0","pricing_plan_id":"cebpf4jnsgd1na2vs0mg"},{"bike_id":"070f0b28-933a-491f-9593-eed632e613d2","system_id":"levelo_inurba_marseille","lat":43.33718,"lon":5.39208,"is_reserved":false,"is_disabled":false,"rental_uris":{"android":"levelo://app?vid=070f0b28-933a-491f-9593-eed632e613d2","ios":"levelo://app?vid=070f0b28-933a-491f-9593-eed632e613d2"},"vehicle_type_id":"4","last_reported":1741231199,"current_range_meters":16000,"station_id":"ce4bhr92rcd13ifvqhsg","pricing_plan_id":"cebpf4jnsgd1na2vs0mg"},{"bike_id":"c0b7ddde-74bf-4be4-b818-5eb6dcd58992","system_id":"levelo_inurba_marseille","lat":43.30449,"lon":5.36852,"is_reserved":false,"is_disabled":false,"rental_uris":{"android":"levelo://app?vid=c0b7ddde-74bf-4be4-b818-5eb6dcd58992","ios":"levelo://app?vid=c0b7ddde-74bf-4be4-b818-5eb6dcd58992"},"vehicle_type_id":"4","last_reported":1741231199,"current_range_meters":16000,"station_id":"","pricing_plan_id":"cebpf4jnsgd1na2vs0mg"},{"bike_id":"dae77719-96f1-4615-ae17-b42ddec1f9e5","system_id":"levelo_inurba_marseille","lat":43.309245,"lon":5.401559,"is_reserved":false,"is_disabled":false,"rental_uris":{"android":"levelo://app?vid=dae77719-96f1-4615-ae17-b42ddec1f9e5","ios":"levelo://app?vid=dae77719-96f1-4615-ae17-b42ddec1f9e5"},"vehicle_type_id":"4","last_reported":1741231199,"current_range_meters":16000,"station_id":"ce4bgvp2rcd13ifvqct0","pricing_plan_id":"cebpf4jnsgd1na2vs0mg"},{"bike_id":"e6990386-06c3-4397-8da9-81e5924527f9","system_id":"levelo_inurba_marseille","lat":43.308842,"lon":5.396362,"is_reserved":false,"is_disabled":false,"rental_uris":{"android":"levelo://app?vid=e6990386-06c3-4397-8da9-81e5924527f9","ios":"levelo://app?vid=e6990386-06c3-4397-8da9-81e5924527f9"},"vehicle_type_id":"4","last_reported":1741231199,"current_range_meters":16000,"station_id":"ce4bh012rcd13ifvqcv0","pricing_plan_id":"cebpf4jnsgd1na2vs0mg"},{"bike_id":"52b19b0a-896e-4508-971e-9b8862ef11d0","system_id":"levelo_inurba_marseille","lat":43.23068,"lon":5.35482,"is_reserved":false,"is_disabled":false,"rental_uris":{"android":"levelo://app?vid=52b19b0a-896e-4508-971e-9b8862ef11d0","ios":"levelo://app?vid=52b19b0a-896e-4508-971e-9b8862ef11d0"},"vehicle_type_id":"4","last_reported":1741231199,"current_range_meters":16400,"station_id":"cpo3342slgdg3j2ifvpg","pricing_plan_id":"cebpf4jnsgd1na2vs0mg"},{"bike_id":"7b03c6e1-c2ef-42d4-aa33-4839f4aab7d8","system_id":"levelo_inurba_marseille","lat":43.31187,"lon":5.38722,"is_reserved":false,"is_disabled":false,"rental_uris":{"android":"levelo://app?vid=7b03c6e1-c2ef-42d4-aa33-4839f4aab7d8","ios":"levelo://app?vid=7b03c6e1-c2ef-42d4-aa33-4839f4aab7d8"},"vehicle_type_id":"4","last_reported":1741231199,"current_range_meters":16400,"station_id":"ce4bgv12rcd13ifvqcp0","pricing_plan_id":"cebpf4jnsgd1na2vs0mg"},{"bike_id":"f2896ecd-b24b-46c4-8d75-7e3bebc05adf","system_id":"levelo_inurba_marseille","lat":43.29541,"lon":5.38546,"is_reserved":false,"is_disabled":true,"rental_uris":{"android":"levelo://app?vid=f2896ecd-b24b-46c4-8d75-7e3bebc05adf","ios":"levelo://app?vid=f2896ecd-b24b-46c4-8d75-7e3bebc05adf"},"vehicle_type_id":"4","last_reported":1741231199,"current_range_meters":16400,"station_id":"ce4bgih2rcd13ifvqba0","pricing_plan_id":"cebpf4jnsgd1na2vs0mg"},{"bike_id":"e0954015-a7a6-4b57-aae3-24a6e2b0aa77","system_id":"levelo_inurba_marseille","lat":43.31171,"lon":5.38701,"is_reserved":false,"is_disabled":false,"rental_uris":{"android":"levelo://app?vid=e0954015-a7a6-4b57-aae3-24a6e2b0aa77","ios":"levelo://app?vid=e0954015-a7a6-4b57-aae3-24a6e2b0aa77"},"vehicle_type_id":"4","last_reported":1741231199,"current_range_meters":16400,"station_id":"ce4bgv12rcd13ifvqcp0","pricing_plan_id":"cebpf4jnsgd1na2vs0mg"},{"bike_id":"7940066d-cd24-41b6-836e-1355fc2b9e03","system_id":"levelo_inurba_marseille","lat":43.23194,"lon":5.35553,"is_reserved":false,"is_disabled":false,"rental_uris":{"android":"levelo://app?vid=7940066d-cd24-41b6-836e-1355fc2b9e03","ios":"levelo://app?vid=7940066d-cd24-41b6-836e-1355fc2b9e03"},"vehicle_type_id":"4","last_reported":1741231199,"current_range_meters":16400,"station_id":"ce4bhu92rcd13ifvqi70","pricing_plan_id":"cebpf4jnsgd1na2vs0mg"},{"bike_id":"5d8f97c1-37e7-4fec-9109-7a661427c571","system_id":"levelo_inurba_marseille","lat":43.25862,"lon":5.39945,"is_reserved":false,"is_disabled":false,"rental_uris":{"android":"levelo://app?vid=5d8f97c1-37e7-4fec-9109-7a661427c571","ios":"levelo://app?vid=5d8f97c1-37e7-4fec-9109-7a661427c571"},"vehicle_type_id":"4","last_reported":1741231199,"current_range_meters":16400,"station_id":"ce4bhl92rcd13ifvqghg","pricing_plan_id":"cebpf4jnsgd1na2vs0mg"},{"bike_id":"b4eca92e-f557-43df-a620-caa0a4c6d751","system_id":"levelo_inurba_marseille","lat":43.28335,"lon":5.38098,"is_reserved":false,"is_disabled":false,"rental_uris":{"android":"levelo://app?vid=b4eca92e-f557-43df-a620-caa0a4c6d751","ios":"levelo://app?vid=b4eca92e-f557-43df-a620-caa0a4c6d751"},"vehicle_type_id":"4","last_reported":1741231199,"current_range_meters":16400,"station_id":"ce4bh412rcd13ifvqdr0","pricing_plan_id":"cebpf4jnsgd1na2vs0mg"},{"bike_id":"559455e8-8bf3-4d72-8a6f-807575181c13","system_id":"levelo_inurba_marseille","lat":43.30794,"lon":5.37637,"is_reserved":false,"is_disabled":false,"rental_uris":{"android":"levelo://app?vid=559455e8-8bf3-4d72-8a6f-807575181c13","ios":"levelo://app?vid=559455e8-8bf3-4d72-8a6f-807575181c13"},"vehicle_type_id":"4","last_reported":1741231199,"current_range_meters":16400,"station_id":"ce4bgv92rcd13ifvqcq0","pricing_plan_id":"cebpf4jnsgd1na2vs0mg"},{"bike_id":"56b1f576-c4c6-45e7-96df-e53d1aac2436","system_id":"levelo_inurba_marseille","lat":43.241653,"lon":5.397053,"is_reserved":false,"is_disabled":false,"rental_uris":{"android":"levelo://app?vid=56b1f576-c4c6-45e7-96df-e53d1aac2436","ios":"levelo://app?vid=56b1f576-c4c6-45e7-96df-e53d1aac2436"},"vehicle_type_id":"4","last_reported":1741231199,"current_range_meters":16400,"station_id":"ce4bhn12rcd13ifvqgpg","pricing_plan_id":"cebpf4jnsgd1na2vs0mg"},{"bike_id":"98a27733-d14f-4d8b-9803-51304110acab","system_id":"levelo_inurba_marseille","lat":43.29792,"lon":5.39352,"is_reserved":false,"is_disabled":false,"rental_uris":{"android":"levelo://app?vid=98a27733-d14f-4d8b-9803-51304110acab","ios":"levelo://app?vid=98a27733-d14f-4d8b-9803-51304110acab"},"vehicle_type_id":"4","last_reported":1741231199,"current_range_meters":16800,"station_id":"chh1huq6cuj3fo74tm60","pricing_plan_id":"cebpf4jnsgd1na2vs0mg"},{"bike_id":"594cc1b1-cc9e-4a36-b127-5c66c54f3649","system_id":"levelo_inurba_marseille","lat":43.28092,"lon":5.37846,"is_reserved":false,"is_disabled":false,"rental_uris":{"android":"levelo://app?vid=594cc1b1-cc9e-4a36-b127-5c66c54f3649","ios":"levelo://app?vid=594cc1b1-cc9e-4a36-b127-5c66c54f3649"},"vehicle_type_id":"4","last_reported":1741231199,"current_range_meters":16800,"station_id":"ce4bha12rcd13ifvqee0","pricing_plan_id":"cebpf4jnsgd1na2vs0mg"},{"bike_id":"00c9bea9-7d78-4435-8261-fa49c68fd27f","system_id":"levelo_inurba_marseille","lat":43.26027,"lon":5.41745,"is_reserved":false,"is_disabled":false,"rental_uris":{"android":"levelo://app?vid=00c9bea9-7d78-4435-8261-fa49c68fd27f","ios":"levelo://app?vid=00c9bea9-7d78-4435-8261-fa49c68fd27f"},"vehicle_type_id":"4","last_reported":1741231199,"current_range_meters":16800,"station_id":"","pricing_plan_id":"cebpf4jnsgd1na2vs0mg"},{"bike_id":"d61b0e05-07ad-495c-8b81-ddc5d0307d04","system_id":"levelo_inurba_marseille","lat":43.30218,"lon":5.39476,"is_reserved":false,"is_disabled":false,"rental_uris":{"android":"levelo://app?vid=d61b0e05-07ad-495c-8b81-ddc5d0307d04","ios":"levelo://app?vid=d61b0e05-07ad-495c-8b81-ddc5d0307d04"},"vehicle_type_id":"4","last_reported":1741231199,"current_range_meters":16800,"station_id":"ce4bh0p2rcd13ifvqd70","pricing_plan_id":"cebpf4jnsgd1na2vs0mg"},{"bike_id":"f7336e5a-04ed-4c03-9d25-b8e9e2da06c5","system_id":"levelo_inurba_marseille","lat":43.30924,"lon":5.40157,"is_reserved":false,"is_disabled":false,"rental_uris":{"android":"levelo://app?vid=f7336e5a-04ed-4c03-9d25-b8e9e2da06c5","ios":"levelo://app?vid=f7336e5a-04ed-4c03-9d25-b8e9e2da06c5"},"vehicle_type_id":"4","last_reported":1741231199,"current_range_meters":17200,"station_id":"ce4bgvp2rcd13ifvqct0","pricing_plan_id":"cebpf4jnsgd1na2vs0mg"},{"bike_id":"5f2ddb45-c527-40e0-a86d-ac468676d5da","system_id":"levelo_inurba_marseille","lat":43.290492,"lon":5.359092,"is_reserved":false,"is_disabled":false,"rental_uris":{"android":"levelo://app?vid=5f2ddb45-c527-40e0-a86d-ac468676d5da","ios":"levelo://app?vid=5f2ddb45-c527-40e0-a86d-ac468676d5da"},"vehicle_type_id":"4","last_reported":1741231199,"current_range_meters":17200,"station_id":"ce4bha92rcd13ifvqeg0","pricing_plan_id":"cebpf4jnsgd1na2vs0mg"},{"bike_id":"96dc0f48-2896-436c-8466-a121faff54f7","system_id":"levelo_inurba_marseille","lat":43.25096,"lon":5.39521,"is_reserved":false,"is_disabled":false,"rental_uris":{"android":"levelo://app?vid=96dc0f48-2896-436c-8466-a121faff54f7","ios":"levelo://app?vid=96dc0f48-2896-436c-8466-a121faff54f7"},"vehicle_type_id":"4","last_reported":1741231199,"current_range_meters":17200,"station_id":"ce4bhm12rcd13ifvqgkg","pricing_plan_id":"cebpf4jnsgd1na2vs0mg"},{"bike_id":"d9ff3617-2120-408e-a9c1-1c1d3bb9c3b6","system_id":"levelo_inurba_marseille","lat":43.27919,"lon":5.39585,"is_reserved":false,"is_disabled":false,"rental_uris":{"android":"levelo://app?vid=d9ff3617-2120-408e-a9c1-1c1d3bb9c3b6","ios":"levelo://app?vid=d9ff3617-2120-408e-a9c1-1c1d3bb9c3b6"},"vehicle_type_id":"4","last_reported":1741231199,"current_range_meters":17200,"station_id":"ce4bhf92rcd13ifvqf40","pricing_plan_id":"cebpf4jnsgd1na2vs0mg"},{"bike_id":"ed0a1c87-782b-4da6-8bf9-56d35209e4f5","system_id":"levelo_inurba_marseille","lat":43.3093,"lon":5.401446,"is_reserved":false,"is_disabled":false,"rental_uris":{"android":"levelo://app?vid=ed0a1c87-782b-4da6-8bf9-56d35209e4f5","ios":"levelo://app?vid=ed0a1c87-782b-4da6-8bf9-56d35209e4f5"},"vehicle_type_id":"4","last_reported":1741231199,"current_range_meters":17200,"station_id":"ce4bgvp2rcd13ifvqct0","pricing_plan_id":"cebpf4jnsgd1na2vs0mg"},{"bike_id":"a5c3b538-be82-4a26-aeba-688246823df6","system_id":"levelo_inurba_marseille","lat":43.312689,"lon":5.401675,"is_reserved":false,"is_disabled":false,"rental_uris":{"android":"levelo://app?vid=a5c3b538-be82-4a26-aeba-688246823df6","ios":"levelo://app?vid=a5c3b538-be82-4a26-aeba-688246823df6"},"vehicle_type_id":"4","last_reported":1741231199,"current_range_meters":17200,"station_id":"ce4bh092rcd13ifvqd30","pricing_plan_id":"cebpf4jnsgd1na2vs0mg"},{"bike_id":"f3ebaab3-470b-494d-91aa-9a14d4c7b5fa","system_id":"levelo_inurba_marseille","lat":43.28262,"lon":5.35073,"is_reserved":false,"is_disabled":false,"rental_uris":{"android":"levelo://app?vid=f3ebaab3-470b-494d-91aa-9a14d4c7b5fa","ios":"levelo://app?vid=f3ebaab3-470b-494d-91aa-9a14d4c7b5fa"},"vehicle_type_id":"4","last_reported":1741231199,"current_range_meters":17200,"station_id":"ce4bhbp2rcd13ifvqerg","pricing_plan_id":"cebpf4jnsgd1na2vs0mg"},{"bike_id":"f6886864-24d9-446e-843a-3a8c7cbefacd","system_id":"levelo_inurba_marseille","lat":43.278188,"lon":5.407187,"is_reserved":false,"is_disabled":false,"rental_uris":{"android":"levelo://app?vid=f6886864-24d9-446e-843a-3a8c7cbefacd","ios":"levelo://app?vid=f6886864-24d9-446e-843a-3a8c7cbefacd"},"vehicle_type_id":"4","last_reported":1741231199,"current_range_meters":17200,"station_id":"ce4bhnh2rcd13ifvqgtg","pricing_plan_id":"cebpf4jnsgd1na2vs0mg"},{"bike_id":"322f7df7-77ff-4e80-85a1-2d36ed5507f3","system_id":"levelo_inurba_marseille","lat":43.28923,"lon":5.38387,"is_reserved":false,"is_disabled":false,"rental_uris":{"android":"levelo://app?vid=322f7df7-77ff-4e80-85a1-2d36ed5507f3","ios":"levelo://app?vid=322f7df7-77ff-4e80-85a1-2d36ed5507f3"},"vehicle_type_id":"4","last_reported":1741231199,"current_range_meters":17600,"station_id":"ce4bh612rcd13ifvqe6g","pricing_plan_id":"cebpf4jnsgd1na2vs0mg"},{"bike_id":"3821e707-c1b9-44eb-a389-e819447ce33f","system_id":"levelo_inurba_marseille","lat":43.29572,"lon":5.39973,"is_reserved":false,"is_disabled":false,"rental_uris":{"android":"levelo://app?vid=3821e707-c1b9-44eb-a389-e819447ce33f","ios":"levelo://app?vid=3821e707-c1b9-44eb-a389-e819447ce33f"},"vehicle_type_id":"4","last_reported":1741231199,"current_range_meters":17600,"station_id":"ce4bh312rcd13ifvqdj0","pricing_plan_id":"cebpf4jnsgd1na2vs0mg"},{"bike_id":"724c5348-33ed-4db7-9ad0-9a1f4ce43d05","system_id":"levelo_inurba_marseille","lat":43.289384,"lon":5.364032,"is_reserved":false,"is_disabled":true,"rental_uris":{"android":"levelo://app?vid=724c5348-33ed-4db7-9ad0-9a1f4ce43d05","ios":"levelo://app?vid=724c5348-33ed-4db7-9ad0-9a1f4ce43d05"},"vehicle_type_id":"4","last_reported":1741231199,"current_range_meters":17600,"station_id":"ce4bhc92rcd13ifvqetg","pricing_plan_id":"cebpf4jnsgd1na2vs0mg"},{"bike_id":"54833c0a-a9a7-4c42-873b-474bce89055b","system_id":"levelo_inurba_marseille","lat":43.23047,"lon":5.35497,"is_reserved":false,"is_disabled":false,"rental_uris":{"android":"levelo://app?vid=54833c0a-a9a7-4c42-873b-474bce89055b","ios":"levelo://app?vid=54833c0a-a9a7-4c42-873b-474bce89055b"},"vehicle_type_id":"4","last_reported":1741231199,"current_range_meters":17600,"station_id":"cpo3342slgdg3j2ifvpg","pricing_plan_id":"cebpf4jnsgd1na2vs0mg"},{"bike_id":"44c7cb72-93cd-4026-80af-ec50fb7941a7","system_id":"levelo_inurba_marseille","lat":43.30816,"lon":5.43542,"is_reserved":false,"is_disabled":false,"rental_uris":{"android":"levelo://app?vid=44c7cb72-93cd-4026-80af-ec50fb7941a7","ios":"levelo://app?vid=44c7cb72-93cd-4026-80af-ec50fb7941a7"},"vehicle_type_id":"4","last_reported":1741231199,"current_range_meters":17600,"station_id":"ce4bhph2rcd13ifvqheg","pricing_plan_id":"cebpf4jnsgd1na2vs0mg"},{"bike_id":"1ddf4caf-2dd3-4ed4-ad88-58ec421e613e","system_id":"levelo_inurba_marseille","lat":43.281,"lon":5.37832,"is_reserved":false,"is_disabled":false,"rental_uris":{"android":"levelo://app?vid=1ddf4caf-2dd3-4ed4-ad88-58ec421e613e","ios":"levelo://app?vid=1ddf4caf-2dd3-4ed4-ad88-58ec421e613e"},"vehicle_type_id":"4","last_reported":1741231199,"current_range_meters":17600,"station_id":"ce4bha12rcd13ifvqee0","pricing_plan_id":"cebpf4jnsgd1na2vs0mg"},{"bike_id":"b33a5090-bc4a-4b67-9a3e-d7e636cff1f7","system_id":"levelo_inurba_marseille","lat":43.25109,"lon":5.403228,"is_reserved":false,"is_disabled":false,"rental_uris":{"android":"levelo://app?vid=b33a5090-bc4a-4b67-9a3e-d7e636cff1f7","ios":"levelo://app?vid=b33a5090-bc4a-4b67-9a3e-d7e636cff1f7"},"vehicle_type_id":"4","last_reported":1741231199,"current_range_meters":17600,"station_id":"ce4bhlh2rcd13ifvqgig","pricing_plan_id":"cebpf4jnsgd1na2vs0mg"},{"bike_id":"c7b54c7b-0e0f-49e2-a9e1-63c95c9661ab","system_id":"levelo_inurba_marseille","lat":43.288492,"lon":5.358439,"is_reserved":false,"is_disabled":false,"rental_uris":{"android":"levelo://app?vid=c7b54c7b-0e0f-49e2-a9e1-63c95c9661ab","ios":"levelo://app?vid=c7b54c7b-0e0f-49e2-a9e1-63c95c9661ab"},"vehicle_type_id":"4","last_reported":1741231199,"current_range_meters":17600,"station_id":"ce4bhb12rcd13ifvqem0","pricing_plan_id":"cebpf4jnsgd1na2vs0mg"},{"bike_id":"07b43907-4592-44ed-b234-f88481cf00c2","system_id":"levelo_inurba_marseille","lat":43.28419,"lon":5.34992,"is_reserved":false,"is_disabled":false,"rental_uris":{"android":"levelo://app?vid=07b43907-4592-44ed-b234-f88481cf00c2","ios":"levelo://app?vid=07b43907-4592-44ed-b234-f88481cf00c2"},"vehicle_type_id":"4","last_reported":1741231199,"current_range_meters":17600,"station_id":"ce4bhbh2rcd13ifvqepg","pricing_plan_id":"cebpf4jnsgd1na2vs0mg"},{"bike_id":"193032e0-b668-4499-9ca7-5b3d4a792e7a","system_id":"levelo_inurba_marseille","lat":43.278354,"lon":5.391998,"is_reserved":false,"is_disabled":false,"rental_uris":{"android":"levelo://app?vid=193032e0-b668-4499-9ca7-5b3d4a792e7a","ios":"levelo://app?vid=193032e0-b668-4499-9ca7-5b3d4a792e7a"},"vehicle_type_id":"4","last_reported":1741231199,"current_range_meters":17600,"station_id":"ce4bhjp2rcd13ifvqga0","pricing_plan_id":"cebpf4jnsgd1na2vs0mg"},{"bike_id":"94512417-7e3b-48f9-b4db-2d349dac6212","system_id":"levelo_inurba_marseille","lat":43.315205,"lon":5.380535,"is_reserved":false,"is_disabled":false,"rental_uris":{"android":"levelo://app?vid=94512417-7e3b-48f9-b4db-2d349dac6212","ios":"levelo://app?vid=94512417-7e3b-48f9-b4db-2d349dac6212"},"vehicle_type_id":"4","last_reported":1741231199,"current_range_meters":17600,"station_id":"ce4bhsp2rcd13ifvqi50","pricing_plan_id":"cebpf4jnsgd1na2vs0mg"},{"bike_id":"706348fe-ee5b-4e7e-9c72-3877ff9f0f30","system_id":"levelo_inurba_marseille","lat":43.3078,"lon":5.37659,"is_reserved":false,"is_disabled":false,"rental_uris":{"android":"levelo://app?vid=706348fe-ee5b-4e7e-9c72-3877ff9f0f30","ios":"levelo://app?vid=706348fe-ee5b-4e7e-9c72-3877ff9f0f30"},"vehicle_type_id":"4","last_reported":1741231199,"current_range_meters":17600,"station_id":"ce4bgv92rcd13ifvqcq0","pricing_plan_id":"cebpf4jnsgd1na2vs0mg"},{"bike_id":"e5fadbdb-1897-4cfa-a43d-1c237c9d192a","system_id":"levelo_inurba_marseille","lat":43.3108,"lon":5.38362,"is_reserved":false,"is_disabled":false,"rental_uris":{"android":"levelo://app?vid=e5fadbdb-1897-4cfa-a43d-1c237c9d192a","ios":"levelo://app?vid=e5fadbdb-1897-4cfa-a43d-1c237c9d192a"},"vehicle_type_id":"4","last_reported":1741231199,"current_range_meters":18000,"station_id":"ce4bgv92rcd13ifvqcr0","pricing_plan_id":"cebpf4jnsgd1na2vs0mg"},{"bike_id":"b82a4310-faa0-49cc-ac88-47512c5fe680","system_id":"levelo_inurba_marseille","lat":43.308878,"lon":5.396447,"is_reserved":false,"is_disabled":false,"rental_uris":{"android":"levelo://app?vid=b82a4310-faa0-49cc-ac88-47512c5fe680","ios":"levelo://app?vid=b82a4310-faa0-49cc-ac88-47512c5fe680"},"vehicle_type_id":"4","last_reported":1741231199,"current_range_meters":18000,"station_id":"ce4bh012rcd13ifvqcv0","pricing_plan_id":"cebpf4jnsgd1na2vs0mg"},{"bike_id":"a4721f65-2ff3-4baf-83a7-f197da1c7cdd","system_id":"levelo_inurba_marseille","lat":43.30934,"lon":5.40164,"is_reserved":false,"is_disabled":false,"rental_uris":{"android":"levelo://app?vid=a4721f65-2ff3-4baf-83a7-f197da1c7cdd","ios":"levelo://app?vid=a4721f65-2ff3-4baf-83a7-f197da1c7cdd"},"vehicle_type_id":"4","last_reported":1741231199,"current_range_meters":18000,"station_id":"ce4bgvp2rcd13ifvqct0","pricing_plan_id":"cebpf4jnsgd1na2vs0mg"},{"bike_id":"65bf6ee4-49b5-43c9-9c8a-bc88e0255f25","system_id":"levelo_inurba_marseille","lat":43.27714,"lon":5.40714,"is_reserved":false,"is_disabled":false,"rental_uris":{"android":"levelo://app?vid=65bf6ee4-49b5-43c9-9c8a-bc88e0255f25","ios":"levelo://app?vid=65bf6ee4-49b5-43c9-9c8a-bc88e0255f25"},"vehicle_type_id":"4","last_reported":1741231199,"current_range_meters":18000,"station_id":"","pricing_plan_id":"cebpf4jnsgd1na2vs0mg"},{"bike_id":"0897192a-786a-47a3-a26a-331f0f70deb2","system_id":"levelo_inurba_marseille","lat":43.23193,"lon":5.39981,"is_reserved":false,"is_disabled":false,"rental_uris":{"android":"levelo://app?vid=0897192a-786a-47a3-a26a-331f0f70deb2","ios":"levelo://app?vid=0897192a-786a-47a3-a26a-331f0f70deb2"},"vehicle_type_id":"4","last_reported":1741231199,"current_range_meters":18000,"station_id":"ce4bhn12rcd13ifvqgqg","pricing_plan_id":"cebpf4jnsgd1na2vs0mg"},{"bike_id":"345df5a7-fb0f-497e-9d5b-7d22ac7f8c03","system_id":"levelo_inurba_marseille","lat":43.30926,"lon":5.40149,"is_reserved":false,"is_disabled":false,"rental_uris":{"android":"levelo://app?vid=345df5a7-fb0f-497e-9d5b-7d22ac7f8c03","ios":"levelo://app?vid=345df5a7-fb0f-497e-9d5b-7d22ac7f8c03"},"vehicle_type_id":"4","last_reported":1741231199,"current_range_meters":18000,"station_id":"ce4bgvp2rcd13ifvqct0","pricing_plan_id":"cebpf4jnsgd1na2vs0mg"},{"bike_id":"5ef0bb89-5a8e-4358-af6c-178f4c03f009","system_id":"levelo_inurba_marseille","lat":43.28086,"lon":5.39668,"is_reserved":false,"is_disabled":false,"rental_uris":{"android":"levelo://app?vid=5ef0bb89-5a8e-4358-af6c-178f4c03f009","ios":"levelo://app?vid=5ef0bb89-5a8e-4358-af6c-178f4c03f009"},"vehicle_type_id":"4","last_reported":1741231199,"current_range_meters":18000,"station_id":"ce4bho12rcd13ifvqh2g","pricing_plan_id":"cebpf4jnsgd1na2vs0mg"},{"bike_id":"b085439e-cb6b-496a-a8f4-7c0b0e3f5ec0","system_id":"levelo_inurba_marseille","lat":43.3374,"lon":5.35597,"is_reserved":false,"is_disabled":false,"rental_uris":{"android":"levelo://app?vid=b085439e-cb6b-496a-a8f4-7c0b0e3f5ec0","ios":"levelo://app?vid=b085439e-cb6b-496a-a8f4-7c0b0e3f5ec0"},"vehicle_type_id":"4","last_reported":1741231199,"current_range_meters":18000,"station_id":"","pricing_plan_id":"cebpf4jnsgd1na2vs0mg"},{"bike_id":"459ed71f-fb70-4100-aa95-83a472c1824f","system_id":"levelo_inurba_marseille","lat":43.301437,"lon":5.37411,"is_reserved":false,"is_disabled":false,"rental_uris":{"android":"levelo://app?vid=459ed71f-fb70-4100-aa95-83a472c1824f","ios":"levelo://app?vid=459ed71f-fb70-4100-aa95-83a472c1824f"},"vehicle_type_id":"4","last_reported":1741231199,"current_range_meters":18800,"station_id":"ce4bgs92rcd13ifvqcc0","pricing_plan_id":"cebpf4jnsgd1na2vs0mg"},{"bike_id":"319d1c71-d439-40f9-9c3f-da1a01d1d6d9","system_id":"levelo_inurba_marseille","lat":43.30929,"lon":5.40136,"is_reserved":false,"is_disabled":false,"rental_uris":{"android":"levelo://app?vid=319d1c71-d439-40f9-9c3f-da1a01d1d6d9","ios":"levelo://app?vid=319d1c71-d439-40f9-9c3f-da1a01d1d6d9"},"vehicle_type_id":"4","last_reported":1741231199,"current_range_meters":18800,"station_id":"ce4bgvp2rcd13ifvqct0","pricing_plan_id":"cebpf4jnsgd1na2vs0mg"},{"bike_id":"8f8ffd82-d094-4076-99ce-302d87adc130","system_id":"levelo_inurba_marseille","lat":43.309501,"lon":5.390316,"is_reserved":false,"is_disabled":true,"rental_uris":{"android":"levelo://app?vid=8f8ffd82-d094-4076-99ce-302d87adc130","ios":"levelo://app?vid=8f8ffd82-d094-4076-99ce-302d87adc130"},"vehicle_type_id":"4","last_reported":1741231199,"current_range_meters":18800,"station_id":"ce4bgup2rcd13ifvqco0","pricing_plan_id":"cebpf4jnsgd1na2vs0mg"},{"bike_id":"b51d70fe-d7d1-4798-9940-8a3ef427e13a","system_id":"levelo_inurba_marseille","lat":43.30215,"lon":5.39458,"is_reserved":false,"is_disabled":false,"rental_uris":{"android":"levelo://app?vid=b51d70fe-d7d1-4798-9940-8a3ef427e13a","ios":"levelo://app?vid=b51d70fe-d7d1-4798-9940-8a3ef427e13a"},"vehicle_type_id":"4","last_reported":1741231199,"current_range_meters":18800,"station_id":"ce4bh0p2rcd13ifvqd70","pricing_plan_id":"cebpf4jnsgd1na2vs0mg"},{"bike_id":"877891c6-2437-423f-86cc-c462f2941c17","system_id":"levelo_inurba_marseille","lat":43.24667,"lon":5.38135,"is_reserved":false,"is_disabled":false,"rental_uris":{"android":"levelo://app?vid=877891c6-2437-423f-86cc-c462f2941c17","ios":"levelo://app?vid=877891c6-2437-423f-86cc-c462f2941c17"},"vehicle_type_id":"4","last_reported":1741231199,"current_range_meters":18800,"station_id":"ce4bhih2rcd13ifvqfr0","pricing_plan_id":"cebpf4jnsgd1na2vs0mg"},{"bike_id":"1baecbd8-cbe4-442a-b057-d93857883888","system_id":"levelo_inurba_marseille","lat":43.2463,"lon":5.40833,"is_reserved":false,"is_disabled":false,"rental_uris":{"android":"levelo://app?vid=1baecbd8-cbe4-442a-b057-d93857883888","ios":"levelo://app?vid=1baecbd8-cbe4-442a-b057-d93857883888"},"vehicle_type_id":"4","last_reported":1741231199,"current_range_meters":18800,"station_id":"","pricing_plan_id":"cebpf4jnsgd1na2vs0mg"},{"bike_id":"e5ed8e38-e43c-46c9-8775-31e68c42a0a9","system_id":"levelo_inurba_marseille","lat":43.29525,"lon":5.39036,"is_reserved":false,"is_disabled":false,"rental_uris":{"android":"levelo://app?vid=e5ed8e38-e43c-46c9-8775-31e68c42a0a9","ios":"levelo://app?vid=e5ed8e38-e43c-46c9-8775-31e68c42a0a9"},"vehicle_type_id":"4","last_reported":1741231199,"current_range_meters":18800,"station_id":"ce4bh3p2rcd13ifvqdp0","pricing_plan_id":"cebpf4jnsgd1na2vs0mg"},{"bike_id":"6a452d88-2004-453e-ba9e-afaba91cc966","system_id":"levelo_inurba_marseille","lat":43.30886,"lon":5.3965,"is_reserved":false,"is_disabled":false,"rental_uris":{"android":"levelo://app?vid=6a452d88-2004-453e-ba9e-afaba91cc966","ios":"levelo://app?vid=6a452d88-2004-453e-ba9e-afaba91cc966"},"vehicle_type_id":"4","last_reported":1741231199,"current_range_meters":18800,"station_id":"ce4bh012rcd13ifvqcv0","pricing_plan_id":"cebpf4jnsgd1na2vs0mg"},{"bike_id":"307f52f6-a436-410e-a47f-1cefab8456ff","system_id":"levelo_inurba_marseille","lat":43.323621,"lon":5.38889,"is_reserved":false,"is_disabled":false,"rental_uris":{"android":"levelo://app?vid=307f52f6-a436-410e-a47f-1cefab8456ff","ios":"levelo://app?vid=307f52f6-a436-410e-a47f-1cefab8456ff"},"vehicle_type_id":"4","last_reported":1741231199,"current_range_meters":18800,"station_id":"ce4bhqp2rcd13ifvqhog","pricing_plan_id":"cebpf4jnsgd1na2vs0mg"},{"bike_id":"6ec12166-7b33-49ef-82f1-61e25b9f165f","system_id":"levelo_inurba_marseille","lat":43.30319,"lon":5.4043,"is_reserved":false,"is_disabled":false,"rental_uris":{"android":"levelo://app?vid=6ec12166-7b33-49ef-82f1-61e25b9f165f","ios":"levelo://app?vid=6ec12166-7b33-49ef-82f1-61e25b9f165f"},"vehicle_type_id":"4","last_reported":1741231199,"current_range_meters":18800,"station_id":"ce4bh012rcd13ifvqd10","pricing_plan_id":"cebpf4jnsgd1na2vs0mg"},{"bike_id":"39536716-8903-49fd-80c2-c649c01de277","system_id":"levelo_inurba_marseille","lat":43.30802,"lon":5.43522,"is_reserved":false,"is_disabled":false,"rental_uris":{"android":"levelo://app?vid=39536716-8903-49fd-80c2-c649c01de277","ios":"levelo://app?vid=39536716-8903-49fd-80c2-c649c01de277"},"vehicle_type_id":"4","last_reported":1741231199,"current_range_meters":18800,"station_id":"ce4bhph2rcd13ifvqheg","pricing_plan_id":"cebpf4jnsgd1na2vs0mg"},{"bike_id":"d0a9e0b6-7460-48af-b167-fa241d6b44c3","system_id":"levelo_inurba_marseille","lat":43.321048,"lon":5.367836,"is_reserved":false,"is_disabled":false,"rental_uris":{"android":"levelo://app?vid=d0a9e0b6-7460-48af-b167-fa241d6b44c3","ios":"levelo://app?vid=d0a9e0b6-7460-48af-b167-fa241d6b44c3"},"vehicle_type_id":"4","last_reported":1741231199,"current_range_meters":18800,"station_id":"ce4bhrh2rcd13ifvqhug","pricing_plan_id":"cebpf4jnsgd1na2vs0mg"},{"bike_id":"30e8d7a5-69a6-44bb-b100-15ca3fbb311d","system_id":"levelo_inurba_marseille","lat":43.31279,"lon":5.40166,"is_reserved":false,"is_disabled":false,"rental_uris":{"android":"levelo://app?vid=30e8d7a5-69a6-44bb-b100-15ca3fbb311d","ios":"levelo://app?vid=30e8d7a5-69a6-44bb-b100-15ca3fbb311d"},"vehicle_type_id":"4","last_reported":1741231199,"current_range_meters":19200,"station_id":"ce4bh092rcd13ifvqd30","pricing_plan_id":"cebpf4jnsgd1na2vs0mg"},{"bike_id":"a5360ae0-ea96-4dcc-8b01-df2decc0375b","system_id":"levelo_inurba_marseille","lat":43.32014,"lon":5.38157,"is_reserved":false,"is_disabled":false,"rental_uris":{"android":"levelo://app?vid=a5360ae0-ea96-4dcc-8b01-df2decc0375b","ios":"levelo://app?vid=a5360ae0-ea96-4dcc-8b01-df2decc0375b"},"vehicle_type_id":"4","last_reported":1741231199,"current_range_meters":19200,"station_id":"ce4bhr12rcd13ifvqhpg","pricing_plan_id":"cebpf4jnsgd1na2vs0mg"},{"bike_id":"10b74c6d-04bc-43c8-b892-4a1d3e03c2bd","system_id":"levelo_inurba_marseille","lat":43.230656,"lon":5.354872,"is_reserved":false,"is_disabled":false,"rental_uris":{"android":"levelo://app?vid=10b74c6d-04bc-43c8-b892-4a1d3e03c2bd","ios":"levelo://app?vid=10b74c6d-04bc-43c8-b892-4a1d3e03c2bd"},