{"last_updated":1738501818,"ttl":60,"version":"2.2","data":{"bikes":[{"bike_id":"5121270c-1c11-4ce0-892b-9a8960db6210","system_id":"levelo_inurba_marseille","lat":43.30255,"lon":5.40731,"is_reserved":false,"is_disabled":false,"rental_uris":{"android":"levelo://app?vid=5121270c-1c11-4ce0-892b-9a8960db6210","ios":"levelo://app?vid=5121270c-1c11-4ce0-892b-9a8960db6210"},"vehicle_type_id":"4","last_reported":1738501818,"current_range_meters":25600,"station_id":"","pricing_plan_id":"cebpf4jnsgd1na2vs0mg"},{"bike_id":"7ac6de87-4cb5-4d58-adc2-a7c162322d3f","system_id":"levelo_inurba_marseille","lat":43.28492,"lon":5.38426,"is_reserved":false,"is_disabled":true,"rental_uris":{"android":"levelo://app?vid=7ac6de87-4cb5-4d58-adc2-a7c162322d3f","ios":"levelo://app?vid=7ac6de87-4cb5-4d58-adc2-a7c162322d3f"},"vehicle_type_id":"4","last_reported":1738501818,"current_range_meters":19600,"station_id":"ce4bh512rcd13ifvqe3g","pricing_plan_id":"cebpf4jnsgd1na2vs0mg"},{"bike_id":"6b5781c4-d3ba-48e2-bab0-5e58467c245a","system_id":"levelo_inurba_marseille","lat":43.2828,"lon":5.35079,"is_reserved":false,"is_disabled":false,"rental_uris":{"android":"levelo://app?vid=6b5781c4-d3ba-48e2-bab0-5e58467c245a","ios":"levelo://app?vid=6b5781c4-d3ba-48e2-bab0-5e58467c245a"},"vehicle_type_id":"4","last_reported":1738501818,"current_range_meters":38800,"station_id":"ce4bhbp2rcd13ifvqerg","pricing_plan_id":"cebpf4jnsgd1na2vs0mg"},{"bike_id":"21ce7c90-ecf1-4c2b-ae39-e9d88703c00b","system_id":"levelo_inurba_marseille","lat":43.27214,"lon":5.39197,"is_reserved":false,"is_disabled":true,"rental_uris":{"android":"levelo://app?vid=21ce7c90-ecf1-4c2b-ae39-e9d88703c00b","ios":"levelo://app?vid=21ce7c90-ecf1-4c2b-ae39-e9d88703c00b"},"vehicle_type_id":"4","last_reported":1738501818,"current_range_meters":30400,"station_id":"ce4bhhp2rcd13ifvqfm0","pricing_plan_id":"cebpf4jnsgd1na2vs0mg"},{"bike_id":"68ec889f-fbad-4ec7-bbe1-dbda6b88a3f5","system_id":"levelo_inurba_marseille","lat":43.29015,"lon":5.38484,"is_reserved":false,"is_disabled":true,"rental_uris":{"android":"levelo://app?vid=68ec889f-fbad-4ec7-bbe1-dbda6b88a3f5","ios":"levelo://app?vid=68ec889f-fbad-4ec7-bbe1-dbda6b88a3f5"},"vehicle_type_id":"4","last_reported":1738501818,"current_range_meters":24800,"station_id":"ce4bh612rcd13ifvqe6g","pricing_plan_id":"cebpf4jnsgd1na2vs0mg"},{"bike_id":"9ce610fb-10e6-4c85-8f79-3c4377232d1a","system_id":"levelo_inurba_marseille","lat":43.25821,"lon":5.39417,"is_reserved":false,"is_disabled":false,"rental_uris":{"android":"levelo://app?vid=9ce610fb-10e6-4c85-8f79-3c4377232d1a","ios":"levelo://app?vid=9ce610fb-10e6-4c85-8f79-3c4377232d1a"},"vehicle_type_id":"4","last_reported":1738501818,"current_range_meters":18800,"station_id":"ce4bhip2rcd13ifvqft0","pricing_plan_id":"cebpf4jnsgd1na2vs0mg"},{"bike_id":"f2ddb016-d40a-46e7-bb14-36f6bc20c289","system_id":"levelo_inurba_marseille","lat":43.29007,"lon":5.35616,"is_reserved":false,"is_disabled":true,"rental_uris":{"android":"levelo://app?vid=f2ddb016-d40a-46e7-bb14-36f6bc20c289","ios":"levelo://app?vid=f2ddb016-d40a-46e7-bb14-36f6bc20c289"},"vehicle_type_id":"4","last_reported":1738501818,"current_range_meters":1200,"station_id":"ce4bhb92rcd13ifvqen0","pricing_plan_id":"cebpf4jnsgd1na2vs0mg"},{"bike_id":"aa517d73-0c4a-456c-ae56-a86c3e9ce69b","system_id":"levelo_inurba_marseille","lat":43.23056,"lon":5.35444,"is_reserved":false,"is_disabled":false,"rental_uris":{"android":"levelo://app?vid=aa517d73-0c4a-456c-ae56-a86c3e9ce69b","ios":"levelo://app?vid=aa517d73-0c4a-456c-ae56-a86c3e9ce69b"},"vehicle_type_id":"4","last_reported":1738501818,"current_range_meters":8000,"station_id":"cpo3342slgdg3j2ifvpg","pricing_plan_id":"cebpf4jnsgd1na2vs0mg"},{"bike_id":"ed3b7fbe-dd9d-4bab-8f42-a2405c5dd34c","system_id":"levelo_inurba_marseille","lat":43.26688,"lon":5.38251,"is_reserved":false,"is_disabled":false,"rental_uris":{"android":"levelo://app?vid=ed3b7fbe-dd9d-4bab-8f42-a2405c5dd34c","ios":"levelo://app?vid=ed3b7fbe-dd9d-4bab-8f42-a2405c5dd34c"},"vehicle_type_id":"4","last_reported":1738501818,"current_range_meters":38800,"station_id":"ce4bhg92rcd13ifvqf90","pricing_plan_id":"cebpf4jnsgd1na2vs0mg"},{"bike_id":"b355aa1e-9ffd-4b70-a9f5-6f80917fbbd0","system_id":"levelo_inurba_marseille","lat":43.25501,"lon":5.37657,"is_reserved":false,"is_disabled":false,"rental_uris":{"android":"levelo://app?vid=b355aa1e-9ffd-4b70-a9f5-6f80917fbbd0","ios":"levelo://app?vid=b355aa1e-9ffd-4b70-a9f5-6f80917fbbd0"},"vehicle_type_id":"4","last_reported":1738501818,"current_range_meters":28800,"station_id":"ce4bhh12rcd13ifvqff0","pricing_plan_id":"cebpf4jnsgd1na2vs0mg"},{"bike_id":"a7845192-be4e-43cd-bc57-8d568bbb5c2d","system_id":"levelo_inurba_marseille","lat":43.30549,"lon":5.3652,"is_reserved":false,"is_disabled":false,"rental_uris":{"android":"levelo://app?vid=a7845192-be4e-43cd-bc57-8d568bbb5c2d","ios":"levelo://app?vid=a7845192-be4e-43cd-bc57-8d568bbb5c2d"},"vehicle_type_id":"4","last_reported":1738501818,"current_range_meters":38800,"station_id":"ce4bgs12rcd13ifvqcag","pricing_plan_id":"cebpf4jnsgd1na2vs0mg"},{"bike_id":"3d0df114-6192-4922-8205-2552865de16e","system_id":"levelo_inurba_marseille","lat":43.31104,"lon":5.3771,"is_reserved":false,"is_disabled":false,"rental_uris":{"android":"levelo://app?vid=3d0df114-6192-4922-8205-2552865de16e","ios":"levelo://app?vid=3d0df114-6192-4922-8205-2552865de16e"},"vehicle_type_id":"4","last_reported":1738501818,"current_range_meters":23200,"station_id":"ce4bgt92rcd13ifvqcg0","pricing_plan_id":"cebpf4jnsgd1na2vs0mg"},{"bike_id":"be52987b-4865-4b54-aa22-0a810eec4d9c","system_id":"levelo_inurba_marseille","lat":43.31322,"lon":5.36825,"is_reserved":false,"is_disabled":false,"rental_uris":{"android":"levelo://app?vid=be52987b-4865-4b54-aa22-0a810eec4d9c","ios":"levelo://app?vid=be52987b-4865-4b54-aa22-0a810eec4d9c"},"vehicle_type_id":"4","last_reported":1738501818,"current_range_meters":24000,"station_id":"ce4bgl92rcd13ifvqbq0","pricing_plan_id":"cebpf4jnsgd1na2vs0mg"},{"bike_id":"babeb983-9900-45dd-9c39-c974059de659","system_id":"levelo_inurba_marseille","lat":43.26812,"lon":5.40254,"is_reserved":false,"is_disabled":false,"rental_uris":{"android":"levelo://app?vid=babeb983-9900-45dd-9c39-c974059de659","ios":"levelo://app?vid=babeb983-9900-45dd-9c39-c974059de659"},"vehicle_type_id":"4","last_reported":1738501818,"current_range_meters":38400,"station_id":"ce501612rcd8frsf0b60","pricing_plan_id":"cebpf4jnsgd1na2vs0mg"},{"bike_id":"c26284e6-53ee-4b35-a0cc-ee8d0a2119d1","system_id":"levelo_inurba_marseille","lat":43.2872,"lon":5.37918,"is_reserved":false,"is_disabled":true,"rental_uris":{"android":"levelo://app?vid=c26284e6-53ee-4b35-a0cc-ee8d0a2119d1","ios":"levelo://app?vid=c26284e6-53ee-4b35-a0cc-ee8d0a2119d1"},"vehicle_type_id":"4","last_reported":1738501818,"current_range_meters":12800,"station_id":"ce4bh9p2rcd13ifvqec0","pricing_plan_id":"cebpf4jnsgd1na2vs0mg"},{"bike_id":"0cfeb70a-0a8b-4c9e-bd06-c150e627b9d5","system_id":"levelo_inurba_marseille","lat":43.26814,"lon":5.40248,"is_reserved":false,"is_disabled":false,"rental_uris":{"android":"levelo://app?vid=0cfeb70a-0a8b-4c9e-bd06-c150e627b9d5","ios":"levelo://app?vid=0cfeb70a-0a8b-4c9e-bd06-c150e627b9d5"},"vehicle_type_id":"4","last_reported":1738501818,"current_range_meters":38800,"station_id":"ce501612rcd8frsf0b60","pricing_plan_id":"cebpf4jnsgd1na2vs0mg"},{"bike_id":"3abf239e-ff48-4ed4-82f9-851a2c4958ff","system_id":"levelo_inurba_marseille","lat":43.23157,"lon":5.43704,"is_reserved":false,"is_disabled":false,"rental_uris":{"android":"levelo://app?vid=3abf239e-ff48-4ed4-82f9-851a2c4958ff","ios":"levelo://app?vid=3abf239e-ff48-4ed4-82f9-851a2c4958ff"},"vehicle_type_id":"4","last_reported":1738501818,"current_range_meters":12800,"station_id":"ce4bhmp2rcd13ifvqgog","pricing_plan_id":"cebpf4jnsgd1na2vs0mg"},{"bike_id":"8d54af54-24d2-4781-81ce-174a43c53017","system_id":"levelo_inurba_marseille","lat":43.27903,"lon":5.3801,"is_reserved":false,"is_disabled":false,"rental_uris":{"android":"levelo://app?vid=8d54af54-24d2-4781-81ce-174a43c53017","ios":"levelo://app?vid=8d54af54-24d2-4781-81ce-174a43c53017"},"vehicle_type_id":"4","last_reported":1738501818,"current_range_meters":38800,"station_id":"ce4bhf92rcd13ifvqf50","pricing_plan_id":"cebpf4jnsgd1na2vs0mg"},{"bike_id":"db3aea96-2190-4a42-ad15-c255066e1f3e","system_id":"levelo_inurba_marseille","lat":43.32489,"lon":5.36555,"is_reserved":false,"is_disabled":false,"rental_uris":{"android":"levelo://app?vid=db3aea96-2190-4a42-ad15-c255066e1f3e","ios":"levelo://app?vid=db3aea96-2190-4a42-ad15-c255066e1f3e"},"vehicle_type_id":"4","last_reported":1738501818,"current_range_meters":25600,"station_id":"ce4bhs12rcd13ifvqhvg","pricing_plan_id":"cebpf4jnsgd1na2vs0mg"},{"bike_id":"b7e1f20f-055e-479b-88c2-d857a7220b74","system_id":"levelo_inurba_marseille","lat":43.25136,"lon":5.40327,"is_reserved":false,"is_disabled":false,"rental_uris":{"android":"levelo://app?vid=b7e1f20f-055e-479b-88c2-d857a7220b74","ios":"levelo://app?vid=b7e1f20f-055e-479b-88c2-d857a7220b74"},"vehicle_type_id":"4","last_reported":1738501818,"current_range_meters":38400,"station_id":"ce4bhlh2rcd13ifvqgig","pricing_plan_id":"cebpf4jnsgd1na2vs0mg"},{"bike_id":"b53cf432-0e47-4b61-a305-952377a64c88","system_id":"levelo_inurba_marseille","lat":43.308028,"lon":5.381575,"is_reserved":false,"is_disabled":true,"rental_uris":{"android":"levelo://app?vid=b53cf432-0e47-4b61-a305-952377a64c88","ios":"levelo://app?vid=b53cf432-0e47-4b61-a305-952377a64c88"},"vehicle_type_id":"4","last_reported":1738501818,"current_range_meters":37600,"station_id":"ce4bgt12rcd13ifvqce0","pricing_plan_id":"cebpf4jnsgd1na2vs0mg"},{"bike_id":"5206335d-6e33-40fd-97fa-4c2d2c1057e1","system_id":"levelo_inurba_marseille","lat":43.27953,"lon":5.41052,"is_reserved":false,"is_disabled":false,"rental_uris":{"android":"levelo://app?vid=5206335d-6e33-40fd-97fa-4c2d2c1057e1","ios":"levelo://app?vid=5206335d-6e33-40fd-97fa-4c2d2c1057e1"},"vehicle_type_id":"4","last_reported":1738501818,"current_range_meters":19200,"station_id":"ce4bhnp2rcd13ifvqh0g","pricing_plan_id":"cebpf4jnsgd1na2vs0mg"},{"bike_id":"13a71ca0-af90-4e61-a6f2-18a028732efe","system_id":"levelo_inurba_marseille","lat":43.250883,"lon":5.395136,"is_reserved":false,"is_disabled":false,"rental_uris":{"android":"levelo://app?vid=13a71ca0-af90-4e61-a6f2-18a028732efe","ios":"levelo://app?vid=13a71ca0-af90-4e61-a6f2-18a028732efe"},"vehicle_type_id":"4","last_reported":1738501818,"current_range_meters":27600,"station_id":"ce4bhm12rcd13ifvqgkg","pricing_plan_id":"cebpf4jnsgd1na2vs0mg"},{"bike_id":"cbbec7c5-04da-4cab-b0df-10a94af616aa","system_id":"levelo_inurba_marseille","lat":43.29228,"lon":5.36045,"is_reserved":false,"is_disabled":true,"rental_uris":{"android":"levelo://app?vid=cbbec7c5-04da-4cab-b0df-10a94af616aa","ios":"levelo://app?vid=cbbec7c5-04da-4cab-b0df-10a94af616aa"},"vehicle_type_id":"4","last_reported":1738501818,"current_range_meters":0,"station_id":"ce4bhbh2rcd13ifvqeqg","pricing_plan_id":"cebpf4jnsgd1na2vs0mg"},{"bike_id":"f1921568-156d-4124-aaae-dff25746c61e","system_id":"levelo_inurba_marseille","lat":43.26209,"lon":5.37444,"is_reserved":false,"is_disabled":false,"rental_uris":{"android":"levelo://app?vid=f1921568-156d-4124-aaae-dff25746c61e","ios":"levelo://app?vid=f1921568-156d-4124-aaae-dff25746c61e"},"vehicle_type_id":"4","last_reported":1738501818,"current_range_meters":29600,"station_id":"ce4bhgp2rcd13ifvqfc0","pricing_plan_id":"cebpf4jnsgd1na2vs0mg"},{"bike_id":"b133c5d8-0c44-4adb-969d-84c97a5acb94","system_id":"levelo_inurba_marseille","lat":43.32483,"lon":5.36582,"is_reserved":false,"is_disabled":false,"rental_uris":{"android":"levelo://app?vid=b133c5d8-0c44-4adb-969d-84c97a5acb94","ios":"levelo://app?vid=b133c5d8-0c44-4adb-969d-84c97a5acb94"},"vehicle_type_id":"4","last_reported":1738501818,"current_range_meters":26000,"station_id":"ce4bhs12rcd13ifvqhvg","pricing_plan_id":"cebpf4jnsgd1na2vs0mg"},{"bike_id":"a1361b83-7dfc-447a-91a0-ca180866041b","system_id":"levelo_inurba_marseille","lat":43.32359,"lon":5.36754,"is_reserved":false,"is_disabled":false,"rental_uris":{"android":"levelo://app?vid=a1361b83-7dfc-447a-91a0-ca180866041b","ios":"levelo://app?vid=a1361b83-7dfc-447a-91a0-ca180866041b"},"vehicle_type_id":"4","last_reported":1738501818,"current_range_meters":27200,"station_id":"ce4bhsh2rcd13ifvqi2g","pricing_plan_id":"cebpf4jnsgd1na2vs0mg"},{"bike_id":"ddb9c7e9-65ef-4267-9499-9c9d26630482","system_id":"levelo_inurba_marseille","lat":43.32491,"lon":5.3656,"is_reserved":false,"is_disabled":false,"rental_uris":{"android":"levelo://app?vid=ddb9c7e9-65ef-4267-9499-9c9d26630482","ios":"levelo://app?vid=ddb9c7e9-65ef-4267-9499-9c9d26630482"},"vehicle_type_id":"4","last_reported":1738501818,"current_range_meters":30800,"station_id":"ce4bhs12rcd13ifvqhvg","pricing_plan_id":"cebpf4jnsgd1na2vs0mg"},{"bike_id":"8b4d9178-5c29-4d78-b3ab-543cf39d1d34","system_id":"levelo_inurba_marseille","lat":43.31458,"lon":5.37557,"is_reserved":false,"is_disabled":false,"rental_uris":{"android":"levelo://app?vid=8b4d9178-5c29-4d78-b3ab-543cf39d1d34","ios":"levelo://app?vid=8b4d9178-5c29-4d78-b3ab-543cf39d1d34"},"vehicle_type_id":"4","last_reported":1738501818,"current_range_meters":20400,"station_id":"","pricing_plan_id":"cebpf4jnsgd1na2vs0mg"},{"bike_id":"cc47836a-b908-432f-8e0e-2f793407f141","system_id":"levelo_inurba_marseille","lat":43.22925,"lon":5.35379,"is_reserved":false,"is_disabled":false,"rental_uris":{"android":"levelo://app?vid=cc47836a-b908-432f-8e0e-2f793407f141","ios":"levelo://app?vid=cc47836a-b908-432f-8e0e-2f793407f141"},"vehicle_type_id":"4","last_reported":1738501818,"current_range_meters":35600,"station_id":"cpo3532slgdg3j2ikp40","pricing_plan_id":"cebpf4jnsgd1na2vs0mg"},{"bike_id":"943be55d-cee7-424a-b22e-f9aee29db6e6","system_id":"levelo_inurba_marseille","lat":43.27566,"lon":5.38407,"is_reserved":false,"is_disabled":false,"rental_uris":{"android":"levelo://app?vid=943be55d-cee7-424a-b22e-f9aee29db6e6","ios":"levelo://app?vid=943be55d-cee7-424a-b22e-f9aee29db6e6"},"vehicle_type_id":"4","last_reported":1738501818,"current_range_meters":38800,"station_id":"ce4bhh92rcd13ifvqfi0","pricing_plan_id":"cebpf4jnsgd1na2vs0mg"},{"bike_id":"eccf3e1b-479c-430a-81d9-b77c081460ec","system_id":"levelo_inurba_marseille","lat":43.31765,"lon":5.39018,"is_reserved":false,"is_disabled":true,"rental_uris":{"android":"levelo://app?vid=eccf3e1b-479c-430a-81d9-b77c081460ec","ios":"levelo://app?vid=eccf3e1b-479c-430a-81d9-b77c081460ec"},"vehicle_type_id":"4","last_reported":1738501818,"current_range_meters":9600,"station_id":"ce4bhqp2rcd13ifvqhng","pricing_plan_id":"cebpf4jnsgd1na2vs0mg"},{"bike_id":"192501ee-e138-46e1-a7e2-fb638ed5558f","system_id":"levelo_inurba_marseille","lat":43.23159,"lon":5.43752,"is_reserved":false,"is_disabled":false,"rental_uris":{"android":"levelo://app?vid=192501ee-e138-46e1-a7e2-fb638ed5558f","ios":"levelo://app?vid=192501ee-e138-46e1-a7e2-fb638ed5558f"},"vehicle_type_id":"4","last_reported":1738501818,"current_range_meters":38800,"station_id":"ce4bhmp2rcd13ifvqgog","pricing_plan_id":"cebpf4jnsgd1na2vs0mg"},{"bike_id":"0edaa840-e8b0-4f2c-ad98-c123355c590c","system_id":"levelo_inurba_marseille","lat":43.26072,"lon":5.394,"is_reserved":false,"is_disabled":true,"rental_uris":{"android":"levelo://app?vid=0edaa840-e8b0-4f2c-ad98-c123355c590c","ios":"levelo://app?vid=0edaa840-e8b0-4f2c-ad98-c123355c590c"},"vehicle_type_id":"4","last_reported":1738501818,"current_range_meters":29600,"station_id":"ce4bhh92rcd13ifvqfj0","pricing_plan_id":"cebpf4jnsgd1na2vs0mg"},{"bike_id":"0c8187f5-988a-4457-bbb8-4cf908ac31d3","system_id":"levelo_inurba_marseille","lat":43.25835,"lon":5.39422,"is_reserved":false,"is_disabled":false,"rental_uris":{"android":"levelo://app?vid=0c8187f5-988a-4457-bbb8-4cf908ac31d3","ios":"levelo://app?vid=0c8187f5-988a-4457-bbb8-4cf908ac31d3"},"vehicle_type_id":"4","last_reported":1738501818,"current_range_meters":12400,"station_id":"ce4bhip2rcd13ifvqft0","pricing_plan_id":"cebpf4jnsgd1na2vs0mg"},{"bike_id":"c8e8c858-e20a-49eb-bd83-63615e9eaa82","system_id":"levelo_inurba_marseille","lat":43.26196,"lon":5.37447,"is_reserved":false,"is_disabled":false,"rental_uris":{"android":"levelo://app?vid=c8e8c858-e20a-49eb-bd83-63615e9eaa82","ios":"levelo://app?vid=c8e8c858-e20a-49eb-bd83-63615e9eaa82"},"vehicle_type_id":"4","last_reported":1738501818,"current_range_meters":16400,"station_id":"ce4bhgp2rcd13ifvqfc0","pricing_plan_id":"cebpf4jnsgd1na2vs0mg"},{"bike_id":"83cd6286-b593-4b65-a21c-827de495c787","system_id":"levelo_inurba_marseille","lat":43.27078,"lon":5.42291,"is_reserved":false,"is_disabled":false,"rental_uris":{"android":"levelo://app?vid=83cd6286-b593-4b65-a21c-827de495c787","ios":"levelo://app?vid=83cd6286-b593-4b65-a21c-827de495c787"},"vehicle_type_id":"4","last_reported":1738501818,"current_range_meters":28800,"station_id":"ce4bhk92rcd13ifvqgb0","pricing_plan_id":"cebpf4jnsgd1na2vs0mg"},{"bike_id":"8b23552f-b7c0-40c8-9d4f-37ff82774c67","system_id":"levelo_inurba_marseille","lat":43.255777,"lon":5.382422,"is_reserved":false,"is_disabled":false,"rental_uris":{"android":"levelo://app?vid=8b23552f-b7c0-40c8-9d4f-37ff82774c67","ios":"levelo://app?vid=8b23552f-b7c0-40c8-9d4f-37ff82774c67"},"vehicle_type_id":"4","last_reported":1738501818,"current_range_meters":28000,"station_id":"ce4bhih2rcd13ifvqfs0","pricing_plan_id":"cebpf4jnsgd1na2vs0mg"},{"bike_id":"637e7848-7b84-4e1d-9cee-355c6601f7c3","system_id":"levelo_inurba_marseille","lat":43.28018,"lon":5.41627,"is_reserved":false,"is_disabled":true,"rental_uris":{"android":"levelo://app?vid=637e7848-7b84-4e1d-9cee-355c6601f7c3","ios":"levelo://app?vid=637e7848-7b84-4e1d-9cee-355c6601f7c3"},"vehicle_type_id":"4","last_reported":1738501818,"current_range_meters":1600,"station_id":"ce4bho12rcd13ifvqh1g","pricing_plan_id":"cebpf4jnsgd1na2vs0mg"},{"bike_id":"719ef290-08f5-4e21-9cf6-997772e28671","system_id":"levelo_inurba_marseille","lat":43.30191,"lon":5.36597,"is_reserved":false,"is_disabled":false,"rental_uris":{"android":"levelo://app?vid=719ef290-08f5-4e21-9cf6-997772e28671","ios":"levelo://app?vid=719ef290-08f5-4e21-9cf6-997772e28671"},"vehicle_type_id":"4","last_reported":1738501818,"current_range_meters":32800,"station_id":"ce4bgrh2rcd13ifvqc8g","pricing_plan_id":"cebpf4jnsgd1na2vs0mg"},{"bike_id":"c0e66c13-6729-41fa-b067-78b1ac190cef","system_id":"levelo_inurba_marseille","lat":43.2903,"lon":5.3812,"is_reserved":false,"is_disabled":false,"rental_uris":{"android":"levelo://app?vid=c0e66c13-6729-41fa-b067-78b1ac190cef","ios":"levelo://app?vid=c0e66c13-6729-41fa-b067-78b1ac190cef"},"vehicle_type_id":"4","last_reported":1738501818,"current_range_meters":38000,"station_id":"ce4bh4p2rcd13ifvqe1g","pricing_plan_id":"cebpf4jnsgd1na2vs0mg"},{"bike_id":"1cfee044-9ee8-4bca-9b30-c41078ca9d2a","system_id":"levelo_inurba_marseille","lat":43.22931,"lon":5.35377,"is_reserved":false,"is_disabled":false,"rental_uris":{"android":"levelo://app?vid=1cfee044-9ee8-4bca-9b30-c41078ca9d2a","ios":"levelo://app?vid=1cfee044-9ee8-4bca-9b30-c41078ca9d2a"},"vehicle_type_id":"4","last_reported":1738501818,"current_range_meters":24000,"station_id":"cpo3532slgdg3j2ikp40","pricing_plan_id":"cebpf4jnsgd1na2vs0mg"},{"bike_id":"32e5f4af-c3e2-4e2b-9428-5595e9b70920","system_id":"levelo_inurba_marseille","lat":43.29782,"lon":5.37098,"is_reserved":false,"is_disabled":true,"rental_uris":{"android":"levelo://app?vid=32e5f4af-c3e2-4e2b-9428-5595e9b70920","ios":"levelo://app?vid=32e5f4af-c3e2-4e2b-9428-5595e9b70920"},"vehicle_type_id":"4","last_reported":1738501818,"current_range_meters":36800,"station_id":"ce4bgop2rcd13ifvqc1g","pricing_plan_id":"cebpf4jnsgd1na2vs0mg"},{"bike_id":"095e5291-f842-4478-bc34-3769cd441c0c","system_id":"levelo_inurba_marseille","lat":43.28156,"lon":5.42651,"is_reserved":false,"is_disabled":false,"rental_uris":{"android":"levelo://app?vid=095e5291-f842-4478-bc34-3769cd441c0c","ios":"levelo://app?vid=095e5291-f842-4478-bc34-3769cd441c0c"},"vehicle_type_id":"4","last_reported":1738501818,"current_range_meters":13600,"station_id":"ce4bhnh2rcd13ifvqgug","pricing_plan_id":"cebpf4jnsgd1na2vs0mg"},{"bike_id":"19ccc093-786b-4a36-b96d-6e1a9fb02f18","system_id":"levelo_inurba_marseille","lat":43.29032,"lon":5.38663,"is_reserved":false,"is_disabled":true,"rental_uris":{"android":"levelo://app?vid=19ccc093-786b-4a36-b96d-6e1a9fb02f18","ios":"levelo://app?vid=19ccc093-786b-4a36-b96d-6e1a9fb02f18"},"vehicle_type_id":"4","last_reported":1738501818,"current_range_meters":22400,"station_id":"ce4bh4p2rcd13ifvqe0g","pricing_plan_id":"cebpf4jnsgd1na2vs0mg"},{"bike_id":"9f7cbc3c-6e0b-4442-8c70-64c0b2a1452e","system_id":"levelo_inurba_marseille","lat":43.2306,"lon":5.35495,"is_reserved":false,"is_disabled":false,"rental_uris":{"android":"levelo://app?vid=9f7cbc3c-6e0b-4442-8c70-64c0b2a1452e","ios":"levelo://app?vid=9f7cbc3c-6e0b-4442-8c70-64c0b2a1452e"},"vehicle_type_id":"4","last_reported":1738501818,"current_range_meters":32000,"station_id":"cpo3342slgdg3j2ifvpg","pricing_plan_id":"cebpf4jnsgd1na2vs0mg"},{"bike_id":"8afdb513-b832-4957-b577-864c8e16af85","system_id":"levelo_inurba_marseille","lat":43.30136,"lon":5.37354,"is_reserved":false,"is_disabled":false,"rental_uris":{"android":"levelo://app?vid=8afdb513-b832-4957-b577-864c8e16af85","ios":"levelo://app?vid=8afdb513-b832-4957-b577-864c8e16af85"},"vehicle_type_id":"4","last_reported":1738501818,"current_range_meters":38800,"station_id":"ce4bgs92rcd13ifvqcc0","pricing_plan_id":"cebpf4jnsgd1na2vs0mg"},{"bike_id":"9e44c1b1-9d21-4b03-8a7a-dc95b725f9a4","system_id":"levelo_inurba_marseille","lat":43.29677,"lon":5.37696,"is_reserved":false,"is_disabled":false,"rental_uris":{"android":"levelo://app?vid=9e44c1b1-9d21-4b03-8a7a-dc95b725f9a4","ios":"levelo://app?vid=9e44c1b1-9d21-4b03-8a7a-dc95b725f9a4"},"vehicle_type_id":"4","last_reported":1738501818,"current_range_meters":21600,"station_id":"ce4bgkh2rcd13ifvqbl0","pricing_plan_id":"cebpf4jnsgd1na2vs0mg"},{"bike_id":"9191983c-f500-4e34-800a-5c4da4f130cb","system_id":"levelo_inurba_marseille","lat":43.279546,"lon":5.41043,"is_reserved":false,"is_disabled":false,"rental_uris":{"android":"levelo://app?vid=9191983c-f500-4e34-800a-5c4da4f130cb","ios":"levelo://app?vid=9191983c-f500-4e34-800a-5c4da4f130cb"},"vehicle_type_id":"4","last_reported":1738501818,"current_range_meters":32400,"station_id":"ce4bhnp2rcd13ifvqh0g","pricing_plan_id":"cebpf4jnsgd1na2vs0mg"},{"bike_id":"285af6c2-616a-41cd-841d-49697bf4712f","system_id":"levelo_inurba_marseille","lat":43.2603,"lon":5.37542,"is_reserved":false,"is_disabled":false,"rental_uris":{"android":"levelo://app?vid=285af6c2-616a-41cd-841d-49697bf4712f","ios":"levelo://app?vid=285af6c2-616a-41cd-841d-49697bf4712f"},"vehicle_type_id":"4","last_reported":1738501818,"current_range_meters":24800,"station_id":"ce4bhgh2rcd13ifvqfa0","pricing_plan_id":"cebpf4jnsgd1na2vs0mg"},{"bike_id":"a6d42b51-640d-4d65-9fd4-ad4ca94cec41","system_id":"levelo_inurba_marseille","lat":43.23965,"lon":5.36631,"is_reserved":false,"is_disabled":false,"rental_uris":{"android":"levelo://app?vid=a6d42b51-640d-4d65-9fd4-ad4ca94cec41","ios":"levelo://app?vid=a6d42b51-640d-4d65-9fd4-ad4ca94cec41"},"vehicle_type_id":"4","last_reported":1738501818,"current_range_meters":22000,"station_id":"ce4bhi12rcd13ifvqfp0","pricing_plan_id":"cebpf4jnsgd1na2vs0mg"},{"bike_id":"2fb899c9-1a88-4664-9dd5-2b3bbeaa0472","system_id":"levelo_inurba_marseille","lat":43.2721,"lon":5.39175,"is_reserved":false,"is_disabled":false,"rental_uris":{"android":"levelo://app?vid=2fb899c9-1a88-4664-9dd5-2b3bbeaa0472","ios":"levelo://app?vid=2fb899c9-1a88-4664-9dd5-2b3bbeaa0472"},"vehicle_type_id":"4","last_reported":1738501818,"current_range_meters":36400,"station_id":"ce4bhhp2rcd13ifvqfm0","pricing_plan_id":"cebpf4jnsgd1na2vs0mg"},{"bike_id":"470fee33-645f-46ad-bee0-77a6cca6a8e6","system_id":"levelo_inurba_marseille","lat":43.3017,"lon":5.36631,"is_reserved":false,"is_disabled":false,"rental_uris":{"android":"levelo://app?vid=470fee33-645f-46ad-bee0-77a6cca6a8e6","ios":"levelo://app?vid=470fee33-645f-46ad-bee0-77a6cca6a8e6"},"vehicle_type_id":"4","last_reported":1738501818,"current_range_meters":39200,"station_id":"ce4bgrh2rcd13ifvqc8g","pricing_plan_id":"cebpf4jnsgd1na2vs0mg"},{"bike_id":"5b4d0f6f-7402-4185-9475-8ff217734fb6","system_id":"levelo_inurba_marseille","lat":43.28274,"lon":5.35074,"is_reserved":false,"is_disabled":false,"rental_uris":{"android":"levelo://app?vid=5b4d0f6f-7402-4185-9475-8ff217734fb6","ios":"levelo://app?vid=5b4d0f6f-7402-4185-9475-8ff217734fb6"},"vehicle_type_id":"4","last_reported":1738501818,"current_range_meters":30000,"station_id":"ce4bhbp2rcd13ifvqerg","pricing_plan_id":"cebpf4jnsgd1na2vs0mg"},{"bike_id":"842cb586-b14a-4907-8c8b-f0ebf26ea15c","system_id":"levelo_inurba_marseille","lat":43.31343,"lon":5.39706,"is_reserved":false,"is_disabled":false,"rental_uris":{"android":"levelo://app?vid=842cb586-b14a-4907-8c8b-f0ebf26ea15c","ios":"levelo://app?vid=842cb586-b14a-4907-8c8b-f0ebf26ea15c"},"vehicle_type_id":"4","last_reported":1738501818,"current_range_meters":16800,"station_id":"ce4bgvp2rcd13ifvqcu0","pricing_plan_id":"cebpf4jnsgd1na2vs0mg"},{"bike_id":"8f5f7b8f-792a-4efd-afa5-703480c68dae","system_id":"levelo_inurba_marseille","lat":43.30304,"lon":5.37712,"is_reserved":false,"is_disabled":false,"rental_uris":{"android":"levelo://app?vid=8f5f7b8f-792a-4efd-afa5-703480c68dae","ios":"levelo://app?vid=8f5f7b8f-792a-4efd-afa5-703480c68dae"},"vehicle_type_id":"4","last_reported":1738501818,"current_range_meters":32400,"station_id":"ce4bguh2rcd13ifvqcj0","pricing_plan_id":"cebpf4jnsgd1na2vs0mg"},{"bike_id":"cb6cbad1-9be5-49a8-997b-c3e9153eb9e1","system_id":"levelo_inurba_marseille","lat":43.24551,"lon":5.39523,"is_reserved":false,"is_disabled":false,"rental_uris":{"android":"levelo://app?vid=cb6cbad1-9be5-49a8-997b-c3e9153eb9e1","ios":"levelo://app?vid=cb6cbad1-9be5-49a8-997b-c3e9153eb9e1"},"vehicle_type_id":"4","last_reported":1738501818,"current_range_meters":38800,"station_id":"ce4bhlp2rcd13ifvqgjg","pricing_plan_id":"cebpf4jnsgd1na2vs0mg"},{"bike_id":"bdf968ca-aa40-4409-b1b3-a079e6cd8683","system_id":"levelo_inurba_marseille","lat":43.25138,"lon":5.40308,"is_reserved":false,"is_disabled":false,"rental_uris":{"android":"levelo://app?vid=bdf968ca-aa40-4409-b1b3-a079e6cd8683","ios":"levelo://app?vid=bdf968ca-aa40-4409-b1b3-a079e6cd8683"},"vehicle_type_id":"4","last_reported":1738501818,"current_range_meters":30400,"station_id":"ce4bhlh2rcd13ifvqgig","pricing_plan_id":"cebpf4jnsgd1na2vs0mg"},{"bike_id":"9fd1d072-3a8b-4482-b70f-62cd25efe66f","system_id":"levelo_inurba_marseille","lat":43.28161,"lon":5.42643,"is_reserved":false,"is_disabled":false,"rental_uris":{"android":"levelo://app?vid=9fd1d072-3a8b-4482-b70f-62cd25efe66f","ios":"levelo://app?vid=9fd1d072-3a8b-4482-b70f-62cd25efe66f"},"vehicle_type_id":"4","last_reported":1738501818,"current_range_meters":34000,"station_id":"ce4bhnh2rcd13ifvqgug","pricing_plan_id":"cebpf4jnsgd1na2vs0mg"},{"bike_id":"58f71a46-16e6-471e-a4b1-49cac690aa69","system_id":"levelo_inurba_marseille","lat":43.26496,"lon":5.3954,"is_reserved":false,"is_disabled":false,"rental_uris":{"android":"levelo://app?vid=58f71a46-16e6-471e-a4b1-49cac690aa69","ios":"levelo://app?vid=58f71a46-16e6-471e-a4b1-49cac690aa69"},"vehicle_type_id":"4","last_reported":1738501818,"current_range_meters":10800,"station_id":"ce4bhi12rcd13ifvqfq0","pricing_plan_id":"cebpf4jnsgd1na2vs0mg"},{"bike_id":"1732ce5f-162d-4790-a7ab-e0503d0c6108","system_id":"levelo_inurba_marseille","lat":43.22935,"lon":5.35377,"is_reserved":false,"is_disabled":false,"rental_uris":{"android":"levelo://app?vid=1732ce5f-162d-4790-a7ab-e0503d0c6108","ios":"levelo://app?vid=1732ce5f-162d-4790-a7ab-e0503d0c6108"},"vehicle_type_id":"4","last_reported":1738501818,"current_range_meters":36000,"station_id":"cpo3532slgdg3j2ikp40","pricing_plan_id":"cebpf4jnsgd1na2vs0mg"},{"bike_id":"b6b896c0-4f8b-42fa-a0c1-32ab44e6242e","system_id":"levelo_inurba_marseille","lat":43.24088,"lon":5.37749,"is_reserved":false,"is_disabled":false,"rental_uris":{"android":"levelo://app?vid=b6b896c0-4f8b-42fa-a0c1-32ab44e6242e","ios":"levelo://app?vid=b6b896c0-4f8b-42fa-a0c1-32ab44e6242e"},"vehicle_type_id":"4","last_reported":1738501818,"current_range_meters":7200,"station_id":"ce4bhnp2rcd13ifvqgvg","pricing_plan_id":"cebpf4jnsgd1na2vs0mg"},{"bike_id":"4a923cdd-d36b-41a0-bd6a-e8a9ae416857","system_id":"levelo_inurba_marseille","lat":43.31373,"lon":5.37613,"is_reserved":false,"is_disabled":false,"rental_uris":{"android":"levelo://app?vid=4a923cdd-d36b-41a0-bd6a-e8a9ae416857","ios":"levelo://app?vid=4a923cdd-d36b-41a0-bd6a-e8a9ae416857"},"vehicle_type_id":"4","last_reported":1738501818,"current_range_meters":33200,"station_id":"","pricing_plan_id":"cebpf4jnsgd1na2vs0mg"},{"bike_id":"cfdc3e36-f1ca-4859-b324-931a3f1626bd","system_id":"levelo_inurba_marseille","lat":43.25577,"lon":5.38224,"is_reserved":false,"is_disabled":false,"rental_uris":{"android":"levelo://app?vid=cfdc3e36-f1ca-4859-b324-931a3f1626bd","ios":"levelo://app?vid=cfdc3e36-f1ca-4859-b324-931a3f1626bd"},"vehicle_type_id":"4","last_reported":1738501818,"current_range_meters":38800,"station_id":"ce4bhih2rcd13ifvqfs0","pricing_plan_id":"cebpf4jnsgd1na2vs0mg"},{"bike_id":"29f86acd-aa50-4395-9377-730a470ce878","system_id":"levelo_inurba_marseille","lat":43.30801,"lon":5.43482,"is_reserved":false,"is_disabled":true,"rental_uris":{"android":"levelo://app?vid=29f86acd-aa50-4395-9377-730a470ce878","ios":"levelo://app?vid=29f86acd-aa50-4395-9377-730a470ce878"},"vehicle_type_id":"4","last_reported":1738501818,"current_range_meters":2000,"station_id":"ce4bhph2rcd13ifvqheg","pricing_plan_id":"cebpf4jnsgd1na2vs0mg"},{"bike_id":"57ab9483-28a4-4aa6-9c81-1e10655898cf","system_id":"levelo_inurba_marseille","lat":43.2898,"lon":5.37821,"is_reserved":false,"is_disabled":true,"rental_uris":{"android":"levelo://app?vid=57ab9483-28a4-4aa6-9c81-1e10655898cf","ios":"levelo://app?vid=57ab9483-28a4-4aa6-9c81-1e10655898cf"},"vehicle_type_id":"4","last_reported":1738501818,"current_range_meters":38800,"station_id":"ce4bh9p2rcd13ifvqed0","pricing_plan_id":"cebpf4jnsgd1na2vs0mg"},{"bike_id":"3a670edf-70c4-4bb3-9a61-f995b250a147","system_id":"levelo_inurba_marseille","lat":43.25304,"lon":5.40424,"is_reserved":false,"is_disabled":false,"rental_uris":{"android":"levelo://app?vid=3a670edf-70c4-4bb3-9a61-f995b250a147","ios":"levelo://app?vid=3a670edf-70c4-4bb3-9a61-f995b250a147"},"vehicle_type_id":"4","last_reported":1738501818,"current_range_meters":24400,"station_id":"ce4bhlh2rcd13ifvqgig","pricing_plan_id":"cebpf4jnsgd1na2vs0mg"},{"bike_id":"29e433c5-f86e-40bf-8cf3-374b024916b0","system_id":"levelo_inurba_marseille","lat":43.32293,"lon":5.3827,"is_reserved":false,"is_disabled":false,"rental_uris":{"android":"levelo://app?vid=29e433c5-f86e-40bf-8cf3-374b024916b0","ios":"levelo://app?vid=29e433c5-f86e-40bf-8cf3-374b024916b0"},"vehicle_type_id":"4","last_reported":1738501818,"current_range_meters":38000,"station_id":"ce4bhr12rcd13ifvqhqg","pricing_plan_id":"cebpf4jnsgd1na2vs0mg"},{"bike_id":"2168c5ba-149f-43f8-99b4-755c3722a1ac","system_id":"levelo_inurba_marseille","lat":43.30149,"lon":5.38081,"is_reserved":false,"is_disabled":false,"rental_uris":{"android":"levelo://app?vid=2168c5ba-149f-43f8-99b4-755c3722a1ac","ios":"levelo://app?vid=2168c5ba-149f-43f8-99b4-755c3722a1ac"},"vehicle_type_id":"4","last_reported":1738501818,"current_range_meters":39200,"station_id":"ce4bgjp2rcd13ifvqbh0","pricing_plan_id":"cebpf4jnsgd1na2vs0mg"},{"bike_id":"8dc64907-2112-4185-a8dd-1cdabc5cf35a","system_id":"levelo_inurba_marseille","lat":43.2622,"lon":5.37446,"is_reserved":false,"is_disabled":false,"rental_uris":{"android":"levelo://app?vid=8dc64907-2112-4185-a8dd-1cdabc5cf35a","ios":"levelo://app?vid=8dc64907-2112-4185-a8dd-1cdabc5cf35a"},"vehicle_type_id":"4","last_reported":1738501818,"current_range_meters":6400,"station_id":"ce4bhgp2rcd13ifvqfc0","pricing_plan_id":"cebpf4jnsgd1na2vs0mg"},{"bike_id":"59e98682-9355-45ca-aaa0-29b37b791d30","system_id":"levelo_inurba_marseille","lat":43.29556,"lon":5.42283,"is_reserved":false,"is_disabled":false,"rental_uris":{"android":"levelo://app?vid=59e98682-9355-45ca-aaa0-29b37b791d30","ios":"levelo://app?vid=59e98682-9355-45ca-aaa0-29b37b791d30"},"vehicle_type_id":"4","last_reported":1738501818,"current_range_meters":2800,"station_id":"ce4bhph2rcd13ifvqhdg","pricing_plan_id":"cebpf4jnsgd1na2vs0mg"},{"bike_id":"c8a9d751-cf9d-4066-9d15-b24796745132","system_id":"levelo_inurba_marseille","lat":43.28299,"lon":5.35071,"is_reserved":false,"is_disabled":false,"rental_uris":{"android":"levelo://app?vid=c8a9d751-cf9d-4066-9d15-b24796745132","ios":"levelo://app?vid=c8a9d751-cf9d-4066-9d15-b24796745132"},"vehicle_type_id":"4","last_reported":1738501818,"current_range_meters":30400,"station_id":"ce4bhbp2rcd13ifvqerg","pricing_plan_id":"cebpf4jnsgd1na2vs0mg"},{"bike_id":"a561aae7-6369-4c00-9d68-e8c23562735d","system_id":"levelo_inurba_marseille","lat":43.26584,"lon":5.39028,"is_reserved":false,"is_disabled":true,"rental_uris":{"android":"levelo://app?vid=a561aae7-6369-4c00-9d68-e8c23562735d","ios":"levelo://app?vid=a561aae7-6369-4c00-9d68-e8c23562735d"},"vehicle_type_id":"4","last_reported":1738501818,"current_range_meters":14800,"station_id":"ce4bhe12rcd13ifvqf30","pricing_plan_id":"cebpf4jnsgd1na2vs0mg"},{"bike_id":"e2c49145-d80d-4c68-8184-02b30e52c755","system_id":"levelo_inurba_marseille","lat":43.30807,"lon":5.43511,"is_reserved":false,"is_disabled":false,"rental_uris":{"android":"levelo://app?vid=e2c49145-d80d-4c68-8184-02b30e52c755","ios":"levelo://app?vid=e2c49145-d80d-4c68-8184-02b30e52c755"},"vehicle_type_id":"4","last_reported":1738501818,"current_range_meters":20000,"station_id":"ce4bhph2rcd13ifvqheg","pricing_plan_id":"cebpf4jnsgd1na2vs0mg"},{"bike_id":"7076d614-6287-4ef0-a4a8-acac7f297151","system_id":"levelo_inurba_marseille","lat":43.30596,"lon":5.36734,"is_reserved":false,"is_disabled":false,"rental_uris":{"android":"levelo://app?vid=7076d614-6287-4ef0-a4a8-acac7f297151","ios":"levelo://app?vid=7076d614-6287-4ef0-a4a8-acac7f297151"},"vehicle_type_id":"4","last_reported":1738501818,"current_range_meters":30800,"station_id":"","pricing_plan_id":"cebpf4jnsgd1na2vs0mg"},{"bike_id":"d979d8d2-ec65-47af-9229-e4270aab279a","system_id":"levelo_inurba_marseille","lat":43.23062,"lon":5.35461,"is_reserved":false,"is_disabled":false,"rental_uris":{"android":"levelo://app?vid=d979d8d2-ec65-47af-9229-e4270aab279a","ios":"levelo://app?vid=d979d8d2-ec65-47af-9229-e4270aab279a"},"vehicle_type_id":"4","last_reported":1738501818,"current_range_meters":38000,"station_id":"cpo3342slgdg3j2ifvpg","pricing_plan_id":"cebpf4jnsgd1na2vs0mg"},{"bike_id":"4087ac0e-cc17-43e0-91b5-e632a4549da0","system_id":"levelo_inurba_marseille","lat":43.25497,"lon":5.37651,"is_reserved":false,"is_disabled":false,"rental_uris":{"android":"levelo://app?vid=4087ac0e-cc17-43e0-91b5-e632a4549da0","ios":"levelo://app?vid=4087ac0e-cc17-43e0-91b5-e632a4549da0"},"vehicle_type_id":"4","last_reported":1738501818,"current_range_meters":38800,"station_id":"ce4bhh12rcd13ifvqff0","pricing_plan_id":"cebpf4jnsgd1na2vs0mg"},{"bike_id":"82c6eebf-0519-4b18-a727-88dc1d4c976d","system_id":"levelo_inurba_marseille","lat":43.28294,"lon":5.35054,"is_reserved":false,"is_disabled":true,"rental_uris":{"android":"levelo://app?vid=82c6eebf-0519-4b18-a727-88dc1d4c976d","ios":"levelo://app?vid=82c6eebf-0519-4b18-a727-88dc1d4c976d"},"vehicle_type_id":"4","last_reported":1738501818,"current_range_meters":24000,"station_id":"ce4bhbp2rcd13ifvqerg","pricing_plan_id":"cebpf4jnsgd1na2vs0mg"},{"bike_id":"3ccd196e-cddd-41f1-8a25-97e7f22947f7","system_id":"levelo_inurba_marseille","lat":43.25159,"lon":5.40275,"is_reserved":false,"is_disabled":true,"rental_uris":{"android":"levelo://app?vid=3ccd196e-cddd-41f1-8a25-97e7f22947f7","ios":"levelo://app?vid=3ccd196e-cddd-41f1-8a25-97e7f22947f7"},"vehicle_type_id":"4","last_reported":1738501818,"current_range_meters":38800,"station_id":"","pricing_plan_id":"cebpf4jnsgd1na2vs0mg"},{"bike_id":"c007eca9-6cc6-4cd6-8a1c-8521731a13ef","system_id":"levelo_inurba_marseille","lat":43.30472,"lon":5.37909,"is_reserved":false,"is_disabled":false,"rental_uris":{"android":"levelo://app?vid=c007eca9-6cc6-4cd6-8a1c-8521731a13ef","ios":"levelo://app?vid=c007eca9-6cc6-4cd6-8a1c-8521731a13ef"},"vehicle_type_id":"4","last_reported":1738501818,"current_range_meters":38800,"station_id":"ce4bgup2rcd13ifvqcn0","pricing_plan_id":"cebpf4jnsgd1na2vs0mg"},{"bike_id":"14eb7a59-9b20-4e76-b93d-5c9f392068a1","system_id":"levelo_inurba_marseille","lat":43.28155,"lon":5.4263,"is_reserved":false,"is_disabled":false,"rental_uris":{"android":"levelo://app?vid=14eb7a59-9b20-4e76-b93d-5c9f392068a1","ios":"levelo://app?vid=14eb7a59-9b20-4e76-b93d-5c9f392068a1"},"vehicle_type_id":"4","last_reported":1738501818,"current_range_meters":16000,"station_id":"ce4bhnh2rcd13ifvqgug","pricing_plan_id":"cebpf4jnsgd1na2vs0mg"},{"bike_id":"90d8247b-1174-449d-9eb0-b1f3c78024c6","system_id":"levelo_inurba_marseille","lat":43.27949,"lon":5.41717,"is_reserved":false,"is_disabled":false,"rental_uris":{"android":"levelo://app?vid=90d8247b-1174-449d-9eb0-b1f3c78024c6","ios":"levelo://app?vid=90d8247b-1174-449d-9eb0-b1f3c78024c6"},"vehicle_type_id":"4","last_reported":1738501818,"current_range_meters":28400,"station_id":"","pricing_plan_id":"cebpf4jnsgd1na2vs0mg"},{"bike_id":"f99e91c4-2330-4795-bfe7-3495ca9ba92c","system_id":"levelo_inurba_marseille","lat":43.28947,"lon":5.36624,"is_reserved":false,"is_disabled":true,"rental_uris":{"android":"levelo://app?vid=f99e91c4-2330-4795-bfe7-3495ca9ba92c","ios":"levelo://app?vid=f99e91c4-2330-4795-bfe7-3495ca9ba92c"},"vehicle_type_id":"4","last_reported":1738501818,"current_range_meters":28800,"station_id":"ce4bhap2rcd13ifvqek0","pricing_plan_id":"cebpf4jnsgd1na2vs0mg"},{"bike_id":"31de87de-ce1f-4ab6-a8c1-bd42b48b7ce6","system_id":"levelo_inurba_marseille","lat":43.28455,"lon":5.35881,"is_reserved":false,"is_disabled":false,"rental_uris":{"android":"levelo://app?vid=31de87de-ce1f-4ab6-a8c1-bd42b48b7ce6","ios":"levelo://app?vid=31de87de-ce1f-4ab6-a8c1-bd42b48b7ce6"},"vehicle_type_id":"4","last_reported":1738501818,"current_range_meters":16000,"station_id":"ce4bhah2rcd13ifvqei0","pricing_plan_id":"cebpf4jnsgd1na2vs0mg"},{"bike_id":"bf6f6448-ac2a-4aa9-a865-7272995774af","system_id":"levelo_inurba_marseille","lat":43.33029,"lon":5.39045,"is_reserved":false,"is_disabled":false,"rental_uris":{"android":"levelo://app?vid=bf6f6448-ac2a-4aa9-a865-7272995774af","ios":"levelo://app?vid=bf6f6448-ac2a-4aa9-a865-7272995774af"},"vehicle_type_id":"4","last_reported":1738501818,"current_range_meters":38800,"station_id":"ce4bhr92rcd13ifvqhrg","pricing_plan_id":"cebpf4jnsgd1na2vs0mg"},{"bike_id":"2017d996-f52c-4584-a168-e8654a14f503","system_id":"levelo_inurba_marseille","lat":43.23947,"lon":5.36634,"is_reserved":false,"is_disabled":true,"rental_uris":{"android":"levelo://app?vid=2017d996-f52c-4584-a168-e8654a14f503","ios":"levelo://app?vid=2017d996-f52c-4584-a168-e8654a14f503"},"vehicle_type_id":"4","last_reported":1738501818,"current_range_meters":36000,"station_id":"ce4bhi12rcd13ifvqfp0","pricing_plan_id":"cebpf4jnsgd1na2vs0mg"},{"bike_id":"001fce63-aed0-462e-821b-61b396e61ba0","system_id":"levelo_inurba_marseille","lat":43.30181,"lon":5.36603,"is_reserved":false,"is_disabled":false,"rental_uris":{"android":"levelo://app?vid=001fce63-aed0-462e-821b-61b396e61ba0","ios":"levelo://app?vid=001fce63-aed0-462e-821b-61b396e61ba0"},"vehicle_type_id":"4","last_reported":1738501818,"current_range_meters":8400,"station_id":"ce4bgrh2rcd13ifvqc8g","pricing_plan_id":"cebpf4jnsgd1na2vs0mg"},{"bike_id":"824afc2d-c9a5-4484-bbac-7f9b9999bfc8","system_id":"levelo_inurba_marseille","lat":43.23185,"lon":5.39972,"is_reserved":false,"is_disabled":false,"rental_uris":{"android":"levelo://app?vid=824afc2d-c9a5-4484-bbac-7f9b9999bfc8","ios":"levelo://app?vid=824afc2d-c9a5-4484-bbac-7f9b9999bfc8"},"vehicle_type_id":"4","last_reported":1738501818,"current_range_meters":39200,"station_id":"ce4bhn12rcd13ifvqgqg","pricing_plan_id":"cebpf4jnsgd1na2vs0mg"},{"bike_id":"15ced002-0d65-4c4b-8206-e2cbbbbb76df","system_id":"levelo_inurba_marseille","lat":43.283,"lon":5.39092,"is_reserved":false,"is_disabled":false,"rental_uris":{"android":"levelo://app?vid=15ced002-0d65-4c4b-8206-e2cbbbbb76df","ios":"levelo://app?vid=15ced002-0d65-4c4b-8206-e2cbbbbb76df"},"vehicle_type_id":"4","last_reported":1738501818,"current_range_meters":34800,"station_id":"","pricing_plan_id":"cebpf4jnsgd1na2vs0mg"},{"bike_id":"0ef83bbd-06ec-47f7-a25d-62aa89428599","system_id":"levelo_inurba_marseille","lat":43.25859,"lon":5.39903,"is_reserved":false,"is_disabled":false,"rental_uris":{"android":"levelo://app?vid=0ef83bbd-06ec-47f7-a25d-62aa89428599","ios":"levelo://app?vid=0ef83bbd-06ec-47f7-a25d-62aa89428599"},"vehicle_type_id":"4","last_reported":1738501818,"current_range_meters":30800,"station_id":"ce4bhl92rcd13ifvqghg","pricing_plan_id":"cebpf4jnsgd1na2vs0mg"},{"bike_id":"96cdde99-07e1-4e29-ada8-0165767ba907","system_id":"levelo_inurba_marseille","lat":43.27957,"lon":5.41056,"is_reserved":false,"is_disabled":false,"rental_uris":{"android":"levelo://app?vid=96cdde99-07e1-4e29-ada8-0165767ba907","ios":"levelo://app?vid=96cdde99-07e1-4e29-ada8-0165767ba907"},"vehicle_type_id":"4","last_reported":1738501818,"current_range_meters":9600,"station_id":"ce4bhnp2rcd13ifvqh0g","pricing_plan_id":"cebpf4jnsgd1na2vs0mg"},{"bike_id":"cc118efe-923c-439c-9e4f-75b5554bced0","system_id":"levelo_inurba_marseille","lat":43.29627,"lon":5.3771,"is_reserved":false,"is_disabled":false,"rental_uris":{"android":"levelo://app?vid=cc118efe-923c-439c-9e4f-75b5554bced0","ios":"levelo://app?vid=cc118efe-923c-439c-9e4f-75b5554bced0"},"vehicle_type_id":"4","last_reported":1738501818,"current_range_meters":38800,"station_id":"ce4bgi92rcd13ifvqb90","pricing_plan_id":"cebpf4jnsgd1na2vs0mg"},{"bike_id":"8344a4b9-fe19-4ccf-9e1e-c66810831c8c","system_id":"levelo_inurba_marseille","lat":43.244,"lon":5.37065,"is_reserved":false,"is_disabled":false,"rental_uris":{"android":"levelo://app?vid=8344a4b9-fe19-4ccf-9e1e-c66810831c8c","ios":"levelo://app?vid=8344a4b9-fe19-4ccf-9e1e-c66810831c8c"},"vehicle_type_id":"4","last_reported":1738501818,"current_range_meters":11600,"station_id":"ce4bhhh2rcd13ifvqfk0","pricing_plan_id":"cebpf4jnsgd1na2vs0mg"},{"bike_id":"02378637-2534-490f-a6bc-03c25bd17c4c","system_id":"levelo_inurba_marseille","lat":43.29277,"lon":5.36849,"is_reserved":false,"is_disabled":false,"rental_uris":{"android":"levelo://app?vid=02378637-2534-490f-a6bc-03c25bd17c4c","ios":"levelo://app?vid=02378637-2534-490f-a6bc-03c25bd17c4c"},"vehicle_type_id":"4","last_reported":1738501818,"current_range_meters":38800,"station_id":"ce4bhbp2rcd13ifvqesg","pricing_plan_id":"cebpf4jnsgd1na2vs0mg"},{"bike_id":"8f919b97-8ec0-4c4d-8748-f93db3b5eff9","system_id":"levelo_inurba_marseille","lat":43.29889,"lon":5.37461,"is_reserved":false,"is_disabled":false,"rental_uris":{"android":"levelo://app?vid=8f919b97-8ec0-4c4d-8748-f93db3b5eff9","ios":"levelo://app?vid=8f919b97-8ec0-4c4d-8748-f93db3b5eff9"},"vehicle_type_id":"4","last_reported":1738501818,"current_range_meters":38800,"station_id":"ce4bgjh2rcd13ifvqbg0","pricing_plan_id":"cebpf4jnsgd1na2vs0mg"},{"bike_id":"2047e938-57e3-4375-958a-69a4e97a2c7d","system_id":"levelo_inurba_marseille","lat":43.23186,"lon":5.39988,"is_reserved":false,"is_disabled":true,"rental_uris":{"android":"levelo://app?vid=2047e938-57e3-4375-958a-69a4e97a2c7d","ios":"levelo://app?vid=2047e938-57e3-4375-958a-69a4e97a2c7d"},"vehicle_type_id":"4","last_reported":1738501818,"current_range_meters":6400,"station_id":"ce4bhn12rcd13ifvqgqg","pricing_plan_id":"cebpf4jnsgd1na2vs0mg"},{"bike_id":"5f36d359-9e0c-49bf-ba6f-caeb7d81f28f","system_id":"levelo_inurba_marseille","lat":43.2319,"lon":5.39982,"is_reserved":false,"is_disabled":false,"rental_uris":{"android":"levelo://app?vid=5f36d359-9e0c-49bf-ba6f-caeb7d81f28f","ios":"levelo://app?vid=5f36d359-9e0c-49bf-ba6f-caeb7d81f28f"},"vehicle_type_id":"4","last_reported":1738501818,"current_range_meters":27200,"station_id":"ce4bhn12rcd13ifvqgqg","pricing_plan_id":"cebpf4jnsgd1na2vs0mg"},{"bike_id":"43f3db03-626b-421b-94f2-0801d32b7575","system_id":"levelo_inurba_marseille","lat":43.26209,"lon":5.37445,"is_reserved":false,"is_disabled":false,"rental_uris":{"android":"levelo://app?vid=43f3db03-626b-421b-94f2-0801d32b7575","ios":"levelo://app?vid=43f3db03-626b-421b-94f2-0801d32b7575"},"vehicle_type_id":"4","last_reported":1738501818,"current_range_meters":36000,"station_id":"ce4bhgp2rcd13ifvqfc0","pricing_plan_id":"cebpf4jnsgd1na2vs0mg"},{"bike_id":"67b22a1a-ce4a-449c-aa9f-332720038f8a","system_id":"levelo_inurba_marseille","lat":43.266,"lon":5.39066,"is_reserved":false,"is_disabled":false,"rental_uris":{"android":"levelo://app?vid=67b22a1a-ce4a-449c-aa9f-332720038f8a","ios":"levelo://app?vid=67b22a1a-ce4a-449c-aa9f-332720038f8a"},"vehicle_type_id":"4","last_reported":1738501818,"current_range_meters":34000,"station_id":"","pricing_plan_id":"cebpf4jnsgd1na2vs0mg"},{"bike_id":"8a212a80-0cb5-4e2c-953d-70fb1125d9c9","system_id":"levelo_inurba_marseille","lat":43.29974,"lon":5.37176,"is_reserved":false,"is_disabled":false,"rental_uris":{"android":"levelo://app?vid=8a212a80-0cb5-4e2c-953d-70fb1125d9c9","ios":"levelo://app?vid=8a212a80-0cb5-4e2c-953d-70fb1125d9c9"},"vehicle_type_id":"4","last_reported":1738501818,"current_range_meters":30400,"station_id":"ce4bgr92rcd13ifvqc7g","pricing_plan_id":"cebpf4jnsgd1na2vs0mg"},{"bike_id":"60773272-8fb8-4a94-ace6-6e2c8f464b5d","system_id":"levelo_inurba_marseille","lat":43.29935,"lon":5.36549,"is_reserved":false,"is_disabled":false,"rental_uris":{"android":"levelo://app?vid=60773272-8fb8-4a94-ace6-6e2c8f464b5d","ios":"levelo://app?vid=60773272-8fb8-4a94-ace6-6e2c8f464b5d"},"vehicle_type_id":"4","last_reported":1738501818,"current_range_meters":27600,"station_id":"ce4bgm92rcd13ifvqbr0","pricing_plan_id":"cebpf4jnsgd1na2vs0mg"},{"bike_id":"a14dc323-d128-4c0f-be14-b1aa2dcf2b15","system_id":"levelo_inurba_marseille","lat":43.2907,"lon":5.37197,"is_reserved":false,"is_disabled":false,"rental_uris":{"android":"levelo://app?vid=a14dc323-d128-4c0f-be14-b1aa2dcf2b15","ios":"levelo://app?vid=a14dc323-d128-4c0f-be14-b1aa2dcf2b15"},"vehicle_type_id":"4","last_reported":1738501818,"current_range_meters":33200,"station_id":"ce4bh5p2rcd13ifvqe4g","pricing_plan_id":"cebpf4jnsgd1na2vs0mg"},{"bike_id":"3bba6acd-0e7d-4432-a3d2-d1449130f8dd","system_id":"levelo_inurba_marseille","lat":43.29581,"lon":5.36743,"is_reserved":false,"is_disabled":false,"rental_uris":{"android":"levelo://app?vid=3bba6acd-0e7d-4432-a3d2-d1449130f8dd","ios":"levelo://app?vid=3bba6acd-0e7d-4432-a3d2-d1449130f8dd"},"vehicle_type_id":"4","last_reported":1738501818,"current_range_meters":33600,"station_id":"ce4bgph2rcd13ifvqc2g","pricing_plan_id":"cebpf4jnsgd1na2vs0mg"},{"bike_id":"39deeebf-6ddb-4486-b697-7a127dff7ee4","system_id":"levelo_inurba_marseille","lat":43.24067,"lon":5.37769,"is_reserved":false,"is_disabled":false,"rental_uris":{"android":"levelo://app?vid=39deeebf-6ddb-4486-b697-7a127dff7ee4","ios":"levelo://app?vid=39deeebf-6ddb-4486-b697-7a127dff7ee4"},"vehicle_type_id":"4","last_reported":1738501818,"current_range_meters":38800,"station_id":"ce4bhnp2rcd13ifvqgvg","pricing_plan_id":"cebpf4jnsgd1na2vs0mg"},{"bike_id":"3a60ebc0-dac7-4b3e-a8c5-4699cca32d17","system_id":"levelo_inurba_marseille","lat":43.30799,"lon":5.4353,"is_reserved":false,"is_disabled":false,"rental_uris":{"android":"levelo://app?vid=3a60ebc0-dac7-4b3e-a8c5-4699cca32d17","ios":"levelo://app?vid=3a60ebc0-dac7-4b3e-a8c5-4699cca32d17"},"vehicle_type_id":"4","last_reported":1738501818,"current_range_meters":28800,"station_id":"ce4bhph2rcd13ifvqheg","pricing_plan_id":"cebpf4jnsgd1na2vs0mg"},{"bike_id":"30c92c2f-c1c2-45c4-b8da-3293b66736ed","system_id":"levelo_inurba_marseille","lat":43.32499,"lon":5.36618,"is_reserved":false,"is_disabled":false,"rental_uris":{"android":"levelo://app?vid=30c92c2f-c1c2-45c4-b8da-3293b66736ed","ios":"levelo://app?vid=30c92c2f-c1c2-45c4-b8da-3293b66736ed"},"vehicle_type_id":"4","last_reported":1738501818,"current_range_meters":18800,"station_id":"","pricing_plan_id":"cebpf4jnsgd1na2vs0mg"},{"bike_id":"a667b497-5a94-44a0-a057-8aa9c9b4f031","system_id":"levelo_inurba_marseille","lat":43.28101,"lon":5.37841,"is_reserved":false,"is_disabled":false,"rental_uris":{"android":"levelo://app?vid=a667b497-5a94-44a0-a057-8aa9c9b4f031","ios":"levelo://app?vid=a667b497-5a94-44a0-a057-8aa9c9b4f031"},"vehicle_type_id":"4","last_reported":1738501818,"current_range_meters":38000,"station_id":"ce4bha12rcd13ifvqee0","pricing_plan_id":"cebpf4jnsgd1na2vs0mg"},{"bike_id":"9d6a62ba-12a5-439c-ae4b-e3287b8ced29","system_id":"levelo_inurba_marseille","lat":43.27186,"lon":5.40989,"is_reserved":false,"is_disabled":false,"rental_uris":{"android":"levelo://app?vid=9d6a62ba-12a5-439c-ae4b-e3287b8ced29","ios":"levelo://app?vid=9d6a62ba-12a5-439c-ae4b-e3287b8ced29"},"vehicle_type_id":"4","last_reported":1738501818,"current_range_meters":25600,"station_id":"ce4bhl12rcd13ifvqgf0","pricing_plan_id":"cebpf4jnsgd1na2vs0mg"},{"bike_id":"55588187-a4ea-4de4-8902-f9455c40bdb2","system_id":"levelo_inurba_marseille","lat":43.32481,"lon":5.36566,"is_reserved":false,"is_disabled":false,"rental_uris":{"android":"levelo://app?vid=55588187-a4ea-4de4-8902-f9455c40bdb2","ios":"levelo://app?vid=55588187-a4ea-4de4-8902-f9455c40bdb2"},"vehicle_type_id":"4","last_reported":1738501818,"current_range_meters":17200,"station_id":"ce4bhs12rcd13ifvqhvg","pricing_plan_id":"cebpf4jnsgd1na2vs0mg"},{"bike_id":"fb2c4d40-98f1-437e-8a63-ab9665c0ff0e","system_id":"levelo_inurba_marseille","lat":43.31083,"lon":5.42441,"is_reserved":false,"is_disabled":false,"rental_uris":{"android":"levelo://app?vid=fb2c4d40-98f1-437e-8a63-ab9665c0ff0e","ios":"levelo://app?vid=fb2c4d40-98f1-437e-8a63-ab9665c0ff0e"},"vehicle_type_id":"4","last_reported":1738501818,"current_range_meters":38400,"station_id":"ce4bhp92rcd13ifvqhag","pricing_plan_id":"cebpf4jnsgd1na2vs0mg"},{"bike_id":"56b09552-4219-4565-a734-8e0fd6e4802e","system_id":"levelo_inurba_marseille","lat":43.26223,"lon":5.3745,"is_reserved":false,"is_disabled":false,"rental_uris":{"android":"levelo://app?vid=56b09552-4219-4565-a734-8e0fd6e4802e","ios":"levelo://app?vid=56b09552-4219-4565-a734-8e0fd6e4802e"},"vehicle_type_id":"4","last_reported":1738501818,"current_range_meters":38800,"station_id":"ce4bhgp2rcd13ifvqfc0","pricing_plan_id":"cebpf4jnsgd1na2vs0mg"},{"bike_id":"f9a8bd69-665c-48a7-ad3c-2e9818255e07","system_id":"levelo_inurba_marseille","lat":43.32503,"lon":5.36535,"is_reserved":false,"is_disabled":false,"rental_uris":{"android":"levelo://app?vid=f9a8bd69-665c-48a7-ad3c-2e9818255e07","ios":"levelo://app?vid=f9a8bd69-665c-48a7-ad3c-2e9818255e07"},"vehicle_type_id":"4","last_reported":1738501818,"current_range_meters":36400,"station_id":"ce4bhs12rcd13ifvqhvg","pricing_plan_id":"cebpf4jnsgd1na2vs0mg"},{"bike_id":"d708aa57-14c1-4571-8f74-6f428f61853a","system_id":"levelo_inurba_marseille","lat":43.29853,"lon":5.36311,"is_reserved":false,"is_disabled":false,"rental_uris":{"android":"levelo://app?vid=d708aa57-14c1-4571-8f74-6f428f61853a","ios":"levelo://app?vid=d708aa57-14c1-4571-8f74-6f428f61853a"},"vehicle_type_id":"4","last_reported":1738501818,"current_range_meters":28000,"station_id":"ce4bgpp2rcd13ifvqc3g","pricing_plan_id":"cebpf4jnsgd1na2vs0mg"},{"bike_id":"2abf2e04-64f9-454a-a5ce-482f321c0fbc","system_id":"levelo_inurba_marseille","lat":43.296239,"lon":5.377045,"is_reserved":false,"is_disabled":true,"rental_uris":{"android":"levelo://app?vid=2abf2e04-64f9-454a-a5ce-482f321c0fbc","ios":"levelo://app?vid=2abf2e04-64f9-454a-a5ce-482f321c0fbc"},"vehicle_type_id":"4","last_reported":1738501818,"current_range_meters":0,"station_id":"","pricing_plan_id":"cebpf4jnsgd1na2vs0mg"},{"bike_id":"a400cb11-351f-4890-b5eb-6c927b2cc51d","system_id":"levelo_inurba_marseille","lat":43.32365,"lon":5.38885,"is_reserved":false,"is_disabled":false,"rental_uris":{"android":"levelo://app?vid=a400cb11-351f-4890-b5eb-6c927b2cc51d","ios":"levelo://app?vid=a400cb11-351f-4890-b5eb-6c927b2cc51d"},"vehicle_type_id":"4","last_reported":1738501818,"current_range_meters":17600,"station_id":"ce4bhqp2rcd13ifvqhog","pricing_plan_id":"cebpf4jnsgd1na2vs0mg"},{"bike_id":"ab2c796a-c23b-4a3a-9534-777b873d6a05","system_id":"levelo_inurba_marseille","lat":43.24166,"lon":5.36398,"is_reserved":false,"is_disabled":false,"rental_uris":{"android":"levelo://app?vid=ab2c796a-c23b-4a3a-9534-777b873d6a05","ios":"levelo://app?vid=ab2c796a-c23b-4a3a-9534-777b873d6a05"},"vehicle_type_id":"4","last_reported":1738501818,"current_range_meters":28800,"station_id":"cpo36qri1sfpv3e86is0","pricing_plan_id":"cebpf4jnsgd1na2vs0mg"},{"bike_id":"7425f960-9d6f-463d-9f22-8efe90f42224","system_id":"levelo_inurba_marseille","lat":43.28474,"lon":5.38431,"is_reserved":false,"is_disabled":true,"rental_uris":{"android":"levelo://app?vid=7425f960-9d6f-463d-9f22-8efe90f42224","ios":"levelo://app?vid=7425f960-9d6f-463d-9f22-8efe90f42224"},"vehicle_type_id":"4","last_reported":1738501818,"current_range_meters":0,"station_id":"ce4bh512rcd13ifvqe3g","pricing_plan_id":"cebpf4jnsgd1na2vs0mg"},{"bike_id":"dc1d93f0-8070-4816-adf4-81a36b2979e4","system_id":"levelo_inurba_marseille","lat":43.31203,"lon":5.36813,"is_reserved":false,"is_disabled":false,"rental_uris":{"android":"levelo://app?vid=dc1d93f0-8070-4816-adf4-81a36b2979e4","ios":"levelo://app?vid=dc1d93f0-8070-4816-adf4-81a36b2979e4"},"vehicle_type_id":"4","last_reported":1738501818,"current_range_meters":35600,"station_id":"ce4bgl92rcd13ifvqbq0","pricing_plan_id":"cebpf4jnsgd1na2vs0mg"},{"bike_id":"5828b83b-f7c6-4d80-a783-c5c9cb673d67","system_id":"levelo_inurba_marseille","lat":43.30149,"lon":5.37395,"is_reserved":false,"is_disabled":false,"rental_uris":{"android":"levelo://app?vid=5828b83b-f7c6-4d80-a783-c5c9cb673d67","ios":"levelo://app?vid=5828b83b-f7c6-4d80-a783-c5c9cb673d67"},"vehicle_type_id":"4","last_reported":1738501818,"current_range_meters":38800,"station_id":"ce4bgs92rcd13ifvqcc0","pricing_plan_id":"cebpf4jnsgd1na2vs0mg"},{"bike_id":"58feef8f-17b5-470d-8151-c7a13f0dbe24","system_id":"levelo_inurba_marseille","lat":43.28429,"lon":5.37519,"is_reserved":false,"is_disabled":true,"rental_uris":{"android":"levelo://app?vid=58feef8f-17b5-470d-8151-c7a13f0dbe24","ios":"levelo://app?vid=58feef8f-17b5-470d-8151-c7a13f0dbe24"},"vehicle_type_id":"4","last_reported":1738501818,"current_range_meters":0,"station_id":"ce4bh412rcd13ifvqds0","pricing_plan_id":"cebpf4jnsgd1na2vs0mg"},{"bike_id":"992b75a0-8296-4631-9075-6f277fdbac19","system_id":"levelo_inurba_marseille","lat":43.28417,"lon":5.37524,"is_reserved":false,"is_disabled":false,"rental_uris":{"android":"levelo://app?vid=992b75a0-8296-4631-9075-6f277fdbac19","ios":"levelo://app?vid=992b75a0-8296-4631-9075-6f277fdbac19"},"vehicle_type_id":"4","last_reported":1738501818,"current_range_meters":38800,"station_id":"ce4bh412rcd13ifvqds0","pricing_plan_id":"cebpf4jnsgd1na2vs0mg"},{"bike_id":"c098c1fe-1a19-4fbd-8d1b-88b207b14904","system_id":"levelo_inurba_marseille","lat":43.28428,"lon":5.34968,"is_reserved":false,"is_disabled":false,"rental_uris":{"android":"levelo://app?vid=c098c1fe-1a19-4fbd-8d1b-88b207b14904","ios":"levelo://app?vid=c098c1fe-1a19-4fbd-8d1b-88b207b14904"},"vehicle_type_id":"4","last_reported":1738501818,"current_range_meters":23200,"station_id":"ce4bhbh2rcd13ifvqepg","pricing_plan_id":"cebpf4jnsgd1na2vs0mg"},{"bike_id":"2dee4ecb-8e53-44a3-9726-3bc5c20a1718","system_id":"levelo_inurba_marseille","lat":43.28415,"lon":5.34971,"is_reserved":false,"is_disabled":false,"rental_uris":{"android":"levelo://app?vid=2dee4ecb-8e53-44a3-9726-3bc5c20a1718","ios":"levelo://app?vid=2dee4ecb-8e53-44a3-9726-3bc5c20a1718"},"vehicle_type_id":"4","last_reported":1738501818,"current_range_meters":32800,"station_id":"ce4bhbh2rcd13ifvqepg","pricing_plan_id":"cebpf4jnsgd1na2vs0mg"},{"bike_id":"8ccd2dbf-60c6-4bf2-87d6-24be26c84805","system_id":"levelo_inurba_marseille","lat":43.23207,"lon":5.35551,"is_reserved":false,"is_disabled":false,"rental_uris":{"android":"levelo://app?vid=8ccd2dbf-60c6-4bf2-87d6-24be26c84805","ios":"levelo://app?vid=8ccd2dbf-60c6-4bf2-87d6-24be26c84805"},"vehicle_type_id":"4","last_reported":1738501818,"current_range_meters":31200,"station_id":"ce4bhu92rcd13ifvqi70","pricing_plan_id":"cebpf4jnsgd1na2vs0mg"},{"bike_id":"e91ad5d9-e7e7-46c0-b582-3c39abb7cb1c","system_id":"levelo_inurba_marseille","lat":43.25119,"lon":5.40317,"is_reserved":false,"is_disabled":false,"rental_uris":{"android":"levelo://app?vid=e91ad5d9-e7e7-46c0-b582-3c39abb7cb1c","ios":"levelo://app?vid=e91ad5d9-e7e7-46c0-b582-3c39abb7cb1c"},"vehicle_type_id":"4","last_reported":1738501818,"current_range_meters":26800,"station_id":"ce4bhlh2rcd13ifvqgig","pricing_plan_id":"cebpf4jnsgd1na2vs0mg"},{"bike_id":"b88e0fde-e333-4dd6-a9d2-ff51b84456d1","system_id":"levelo_inurba_marseille","lat":43.28617,"lon":5.35103,"is_reserved":false,"is_disabled":false,"rental_uris":{"android":"levelo://app?vid=b88e0fde-e333-4dd6-a9d2-ff51b84456d1","ios":"levelo://app?vid=b88e0fde-e333-4dd6-a9d2-ff51b84456d1"},"vehicle_type_id":"4","last_reported":1738501818,"current_range_meters":34800,"station_id":"ce4bhch2rcd13ifvqeug","pricing_plan_id":"cebpf4jnsgd1na2vs0mg"},{"bike_id":"f85aba39-8a5f-4b9b-ae02-5805e5d5b06e","system_id":"levelo_inurba_marseille","lat":43.23059,"lon":5.35492,"is_reserved":false,"is_disabled":false,"rental_uris":{"android":"levelo://app?vid=f85aba39-8a5f-4b9b-ae02-5805e5d5b06e","ios":"levelo://app?vid=f85aba39-8a5f-4b9b-ae02-5805e5d5b06e"},"vehicle_type_id":"4","last_reported":1738501818,"current_range_meters":8400,"station_id":"cpo3342slgdg3j2ifvpg","pricing_plan_id":"cebpf4jnsgd1na2vs0mg"},{"bike_id":"e1d4a2f1-c484-42e0-9232-e98e59dd1624","system_id":"levelo_inurba_marseille","lat":43.290315,"lon":5.386389,"is_reserved":false,"is_disabled":true,"rental_uris":{"android":"levelo://app?vid=e1d4a2f1-c484-42e0-9232-e98e59dd1624","ios":"levelo://app?vid=e1d4a2f1-c484-42e0-9232-e98e59dd1624"},"vehicle_type_id":"4","last_reported":1738501818,"current_range_meters":38400,"station_id":"ce4bh4p2rcd13ifvqe0g","pricing_plan_id":"cebpf4jnsgd1na2vs0mg"},{"bike_id":"f5192a48-f127-416f-ac25-5dcd6cb43014","system_id":"levelo_inurba_marseille","lat":43.31077,"lon":5.42427,"is_reserved":false,"is_disabled":false,"rental_uris":{"android":"levelo://app?vid=f5192a48-f127-416f-ac25-5dcd6cb43014","ios":"levelo://app?vid=f5192a48-f127-416f-ac25-5dcd6cb43014"},"vehicle_type_id":"4","last_reported":1738501818,"current_range_meters":33600,"station_id":"ce4bhp92rcd13ifvqhag","pricing_plan_id":"cebpf4jnsgd1na2vs0mg"},{"bike_id":"e8e1f7c6-d773-4c38-bfcc-4a6d773355ce","system_id":"levelo_inurba_marseille","lat":43.22939,"lon":5.35382,"is_reserved":false,"is_disabled":false,"rental_uris":{"android":"levelo://app?vid=e8e1f7c6-d773-4c38-bfcc-4a6d773355ce","ios":"levelo://app?vid=e8e1f7c6-d773-4c38-bfcc-4a6d773355ce"},"vehicle_type_id":"4","last_reported":1738501818,"current_range_meters":38800,"station_id":"cpo3532slgdg3j2ikp40","pricing_plan_id":"cebpf4jnsgd1na2vs0mg"},{"bike_id":"ea6c894d-2016-4405-87c2-24a4ddf729fd","system_id":"levelo_inurba_marseille","lat":43.26213,"lon":5.37436,"is_reserved":false,"is_disabled":false,"rental_uris":{"android":"levelo://app?vid=ea6c894d-2016-4405-87c2-24a4ddf729fd","ios":"levelo://app?vid=ea6c894d-2016-4405-87c2-24a4ddf729fd"},"vehicle_type_id":"4","last_reported":1738501818,"current_range_meters":38800,"station_id":"ce4bhgp2rcd13ifvqfc0","pricing_plan_id":"cebpf4jnsgd1na2vs0mg"},{"bike_id":"6163803b-f9f9-4d78-8e46-cccaf7d870f1","system_id":"levelo_inurba_marseille","lat":43.28266,"lon":5.35072,"is_reserved":false,"is_disabled":false,"rental_uris":{"android":"levelo://app?vid=6163803b-f9f9-4d78-8e46-cccaf7d870f1","ios":"levelo://app?vid=6163803b-f9f9-4d78-8e46-cccaf7d870f1"},"vehicle_type_id":"4","last_reported":1738501818,"current_range_meters":38800,"station_id":"ce4bhbp2rcd13ifvqerg","pricing_plan_id":"cebpf4jnsgd1na2vs0mg"},{"bike_id":"02b2bb89-f7bf-489a-903d-e9038c5d9090","system_id":"levelo_inurba_marseille","lat":43.29244,"lon":5.38439,"is_reserved":false,"is_disabled":true,"rental_uris":{"android":"levelo://app?vid=02b2bb89-f7bf-489a-903d-e9038c5d9090","ios":"levelo://app?vid=02b2bb89-f7bf-489a-903d-e9038c5d9090"},"vehicle_type_id":"4","last_reported":1738501818,"current_range_meters":30000,"station_id":"ce4bh692rcd13ifvqea0","pricing_plan_id":"cebpf4jnsgd1na2vs0mg"},{"bike_id":"6d8d7d5f-bcf3-4645-9619-220b98c5dc26","system_id":"levelo_inurba_marseille","lat":43.28169,"lon":5.42642,"is_reserved":false,"is_disabled":false,"rental_uris":{"android":"levelo://app?vid=6d8d7d5f-bcf3-4645-9619-220b98c5dc26","ios":"levelo://app?vid=6d8d7d5f-bcf3-4645-9619-220b98c5dc26"},"vehicle_type_id":"4","last_reported":1738501818,"current_range_meters":18000,"station_id":"ce4bhnh2rcd13ifvqgug","pricing_plan_id":"cebpf4jnsgd1na2vs0mg"},{"bike_id":"de17a0f3-14c3-4e43-bd21-c461fedf7408","system_id":"levelo_inurba_marseille","lat":43.28401,"lon":5.37541,"is_reserved":false,"is_disabled":false,"rental_uris":{"android":"levelo://app?vid=de17a0f3-14c3-4e43-bd21-c461fedf7408","ios":"levelo://app?vid=de17a0f3-14c3-4e43-bd21-c461fedf7408"},"vehicle_type_id":"4","last_reported":1738501818,"current_range_meters":31200,"station_id":"ce4bh412rcd13ifvqds0","pricing_plan_id":"cebpf4jnsgd1na2vs0mg"},{"bike_id":"5e6dbab8-84b7-4fad-a585-a94dadbb35ed","system_id":"levelo_inurba_marseille","lat":43.28354,"lon":5.38106,"is_reserved":false,"is_disabled":false,"rental_uris":{"android":"levelo://app?vid=5e6dbab8-84b7-4fad-a585-a94dadbb35ed","ios":"levelo://app?vid=5e6dbab8-84b7-4fad-a585-a94dadbb35ed"},"vehicle_type_id":"4","last_reported":1738501818,"current_range_meters":36800,"station_id":"ce4bh412rcd13ifvqdr0","pricing_plan_id":"cebpf4jnsgd1na2vs0mg"},{"bike_id":"995fc9c5-9cc3-404c-bd94-5898daf1a360","system_id":"levelo_inurba_marseille","lat":43.30922,"lon":5.3685,"is_reserved":false,"is_disabled":true,"rental_uris":{"android":"levelo://app?vid=995fc9c5-9cc3-404c-bd94-5898daf1a360","ios":"levelo://app?vid=995fc9c5-9cc3-404c-bd94-5898daf1a360"},"vehicle_type_id":"4","last_reported":1738501818,"current_range_meters":34000,"station_id":"ce4bgn92rcd13ifvqbvg","pricing_plan_id":"cebpf4jnsgd1na2vs0mg"},{"bike_id":"bed8df55-8232-4631-b910-a7e6e5f8c113","system_id":"levelo_inurba_marseille","lat":43.26947,"lon":5.40257,"is_reserved":false,"is_disabled":false,"rental_uris":{"android":"levelo://app?vid=bed8df55-8232-4631-b910-a7e6e5f8c113","ios":"levelo://app?vid=bed8df55-8232-4631-b910-a7e6e5f8c113"},"vehicle_type_id":"4","last_reported":1738501818,"current_range_meters":22400,"station_id":"cjm6bp8fraef2m0cb0m0","pricing_plan_id":"cebpf4jnsgd1na2vs0mg"},{"bike_id":"c7a22820-b767-4670-b8cf-509e26fe468a","system_id":"levelo_inurba_marseille","lat":43.29017,"lon":5.38128,"is_reserved":false,"is_disabled":false,"rental_uris":{"android":"levelo://app?vid=c7a22820-b767-4670-b8cf-509e26fe468a","ios":"levelo://app?vid=c7a22820-b767-4670-b8cf-509e26fe468a"},"vehicle_type_id":"4","last_reported":1738501818,"current_range_meters":6800,"station_id":"ce4bh4p2rcd13ifvqe1g","pricing_plan_id":"cebpf4jnsgd1na2vs0mg"},{"bike_id":"7095d643-c88c-4380-b0d5-45028aa7507f","system_id":"levelo_inurba_marseille","lat":43.24665,"lon":5.38902,"is_reserved":false,"is_disabled":false,"rental_uris":{"android":"levelo://app?vid=7095d643-c88c-4380-b0d5-45028aa7507f","ios":"levelo://app?vid=7095d643-c88c-4380-b0d5-45028aa7507f"},"vehicle_type_id":"4","last_reported":1738501818,"current_range_meters":17600,"station_id":"ce4bhg12rcd13ifvqf60","pricing_plan_id":"cebpf4jnsgd1na2vs0mg"},{"bike_id":"77c22e90-7a17-4358-b308-ca9d9dc19ac2","system_id":"levelo_inurba_marseille","lat":43.27622,"lon":5.36108,"is_reserved":false,"is_disabled":false,"rental_uris":{"android":"levelo://app?vid=77c22e90-7a17-4358-b308-ca9d9dc19ac2","ios":"levelo://app?vid=77c22e90-7a17-4358-b308-ca9d9dc19ac2"},"vehicle_type_id":"4","last_reported":1738501818,"current_range_meters":28000,"station_id":"ce4bgj92rcd13ifvqbe0","pricing_plan_id":"cebpf4jnsgd1na2vs0mg"},{"bike_id":"ddd00e95-387d-4687-9b99-27d0e7bf1447","system_id":"levelo_inurba_marseille","lat":43.296408,"lon":5.390321,"is_reserved":false,"is_disabled":true,"rental_uris":{"android":"levelo://app?vid=ddd00e95-387d-4687-9b99-27d0e7bf1447","ios":"levelo://app?vid=ddd00e95-387d-4687-9b99-27d0e7bf1447"},"vehicle_type_id":"4","last_reported":1738501818,"current_range_meters":0,"station_id":"","pricing_plan_id":"cebpf4jnsgd1na2vs0mg"},{"bike_id":"e48b7af5-236f-4bce-8d1a-6b94b09e9689","system_id":"levelo_inurba_marseille","lat":43.26209,"lon":5.37443,"is_reserved":false,"is_disabled":false,"rental_uris":{"android":"levelo://app?vid=e48b7af5-236f-4bce-8d1a-6b94b09e9689","ios":"levelo://app?vid=e48b7af5-236f-4bce-8d1a-6b94b09e9689"},"vehicle_type_id":"4","last_reported":1738501818,"current_range_meters":25200,"station_id":"ce4bhgp2rcd13ifvqfc0","pricing_plan_id":"cebpf4jnsgd1na2vs0mg"},{"bike_id":"71f34f72-d3b7-46a5-9bd4-1fe057b3152f","system_id":"levelo_inurba_marseille","lat":43.22942,"lon":5.35377,"is_reserved":false,"is_disabled":false,"rental_uris":{"android":"levelo://app?vid=71f34f72-d3b7-46a5-9bd4-1fe057b3152f","ios":"levelo://app?vid=71f34f72-d3b7-46a5-9bd4-1fe057b3152f"},"vehicle_type_id":"4","last_reported":1738501818,"current_range_meters":38800,"station_id":"cpo3532slgdg3j2ikp40","pricing_plan_id":"cebpf4jnsgd1na2vs0mg"},{"bike_id":"ba1b16dd-09e2-4536-8411-babb750bcb3c","system_id":"levelo_inurba_marseille","lat":43.23186,"lon":5.39996,"is_reserved":false,"is_disabled":true,"rental_uris":{"android":"levelo://app?vid=ba1b16dd-09e2-4536-8411-babb750bcb3c","ios":"levelo://app?vid=ba1b16dd-09e2-4536-8411-babb750bcb3c"},"vehicle_type_id":"4","last_reported":1738501818,"current_range_meters":22800,"station_id":"ce4bhn12rcd13ifvqgqg","pricing_plan_id":"cebpf4jnsgd1na2vs0mg"},{"bike_id":"20029bdd-9f9c-4ff9-86e4-5ba6ed30f46a","system_id":"levelo_inurba_marseille","lat":43.23148,"lon":5.43705,"is_reserved":false,"is_disabled":true,"rental_uris":{"android":"levelo://app?vid=20029bdd-9f9c-4ff9-86e4-5ba6ed30f46a","ios":"levelo://app?vid=20029bdd-9f9c-4ff9-86e4-5ba6ed30f46a"},"vehicle_type_id":"4","last_reported":1738501818,"current_range_meters":0,"station_id":"ce4bhmp2rcd13ifvqgog","pricing_plan_id":"cebpf4jnsgd1na2vs0mg"},{"bike_id":"5805abe4-d33a-4c57-986f-3167b5b7a28d","system_id":"levelo_inurba_marseille","lat":43.279114,"lon":5.395864,"is_reserved":false,"is_disabled":true,"rental_uris":{"android":"levelo://app?vid=5805abe4-d33a-4c57-986f-3167b5b7a28d","ios":"levelo://app?vid=5805abe4-d33a-4c57-986f-3167b5b7a28d"},"vehicle_type_id":"4","last_reported":1738501818,"current_range_meters":0,"station_id":"ce4bhf92rcd13ifvqf40","pricing_plan_id":"cebpf4jnsgd1na2vs0mg"},{"bike_id":"5e31f333-773e-4cf8-89d2-21cd17d87b31","system_id":"levelo_inurba_marseille","lat":43.2606,"lon":5.39398,"is_reserved":false,"is_disabled":false,"rental_uris":{"android":"levelo://app?vid=5e31f333-773e-4cf8-89d2-21cd17d87b31","ios":"levelo://app?vid=5e31f333-773e-4cf8-89d2-21cd17d87b31"},"vehicle_type_id":"4","last_reported":1738501818,"current_range_meters":6400,"station_id":"ce4bhh92rcd13ifvqfj0","pricing_plan_id":"cebpf4jnsgd1na2vs0mg"},{"bike_id":"e97f387f-d896-4d48-ad8f-251b931c0807","system_id":"levelo_inurba_marseille","lat":43.24083,"lon":5.37752,"is_reserved":false,"is_disabled":false,"rental_uris":{"android":"levelo://app?vid=e97f387f-d896-4d48-ad8f-251b931c0807","ios":"levelo://app?vid=e97f387f-d896-4d48-ad8f-251b931c0807"},"vehicle_type_id":"4","last_reported":1738501818,"current_range_meters":33600,"station_id":"ce4bhnp2rcd13ifvqgvg","pricing_plan_id":"cebpf4jnsgd1na2vs0mg"},{"bike_id":"4fc2724a-21d0-4608-918b-39e0dd48efc0","system_id":"levelo_inurba_marseille","lat":43.30815,"lon":5.3815,"is_reserved":false,"is_disabled":false,"rental_uris":{"android":"levelo://app?vid=4fc2724a-21d0-4608-918b-39e0dd48efc0","ios":"levelo://app?vid=4fc2724a-21d0-4608-918b-39e0dd48efc0"},"vehicle_type_id":"4","last_reported":1738501818,"current_range_meters":38400,"station_id":"ce4bgt12rcd13ifvqce0","pricing_plan_id":"cebpf4jnsgd1na2vs0mg"},{"bike_id":"491407c5-a175-44f0-86fc-0f4ccadf82e3","system_id":"levelo_inurba_marseille","lat":43.337444,"lon":5.374475,"is_reserved":false,"is_disabled":true,"rental_uris":{"android":"levelo://app?vid=491407c5-a175-44f0-86fc-0f4ccadf82e3","ios":"levelo://app?vid=491407c5-a175-44f0-86fc-0f4ccadf82e3"},"vehicle_type_id":"4","last_reported":1738501818,"current_range_meters":0,"station_id":"","pricing_plan_id":"cebpf4jnsgd1na2vs0mg"},{"bike_id":"acb4c6cc-f34e-4c23-bad1-1a3ddef22e61","system_id":"levelo_inurba_marseille","lat":43.31077,"lon":5.42439,"is_reserved":false,"is_disabled":false,"rental_uris":{"android":"levelo://app?vid=acb4c6cc-f34e-4c23-bad1-1a3ddef22e61","ios":"levelo://app?vid=acb4c6cc-f34e-4c23-bad1-1a3ddef22e61"},"vehicle_type_id":"4","last_reported":1738501818,"current_range_meters":30800,"station_id":"ce4bhp92rcd13ifvqhag","pricing_plan_id":"cebpf4jnsgd1na2vs0mg"},{"bike_id":"1378643c-565d-4955-a191-2b018f9dd2eb","system_id":"levelo_inurba_marseille","lat":43.30393,"lon":5.37076,"is_reserved":false,"is_disabled":false,"rental_uris":{"android":"levelo://app?vid=1378643c-565d-4955-a191-2b018f9dd2eb","ios":"levelo://app?vid=1378643c-565d-4955-a191-2b018f9dd2eb"},"vehicle_type_id":"4","last_reported":1738501818,"current_range_meters":26800,"station_id":"","pricing_plan_id":"cebpf4jnsgd1na2vs0mg"},{"bike_id":"6952e901-778f-4ee9-b48b-80bee4474167","system_id":"levelo_inurba_marseille","lat":43.29584,"lon":5.36741,"is_reserved":false,"is_disabled":false,"rental_uris":{"android":"levelo://app?vid=6952e901-778f-4ee9-b48b-80bee4474167","ios":"levelo://app?vid=6952e901-778f-4ee9-b48b-80bee4474167"},"vehicle_type_id":"4","last_reported":1738501818,"current_range_meters":20400,"station_id":"ce4bgph2rcd13ifvqc2g","pricing_plan_id":"cebpf4jnsgd1na2vs0mg"},{"bike_id":"4a7af680-8a77-45cb-85cc-9f0a7f33be68","system_id":"levelo_inurba_marseille","lat":43.29813,"lon":5.4042,"is_reserved":false,"is_disabled":true,"rental_uris":{"android":"levelo://app?vid=4a7af680-8a77-45cb-85cc-9f0a7f33be68","ios":"levelo://app?vid=4a7af680-8a77-45cb-85cc-9f0a7f33be68"},"vehicle_type_id":"4","last_reported":1738501818,"current_range_meters":27200,"station_id":"ce4bh112rcd13ifvqd90","pricing_plan_id":"cebpf4jnsgd1na2vs0mg"},{"bike_id":"9ffc29dd-7a64-44ac-aa8e-fc46610df52a","system_id":"levelo_inurba_marseille","lat":43.22928,"lon":5.35377,"is_reserved":false,"is_disabled":false,"rental_uris":{"android":"levelo://app?vid=9ffc29dd-7a64-44ac-aa8e-fc46610df52a","ios":"levelo://app?vid=9ffc29dd-7a64-44ac-aa8e-fc46610df52a"},"vehicle_type_id":"4","last_reported":1738501818,"current_range_meters":8400,"station_id":"cpo3532slgdg3j2ikp40","pricing_plan_id":"cebpf4jnsgd1na2vs0mg"},{"bike_id":"249b7b60-8305-4794-bc88-bf145ce1b67c","system_id":"levelo_inurba_marseille","lat":43.23178,"lon":5.39981,"is_reserved":false,"is_disabled":false,"rental_uris":{"android":"levelo://app?vid=249b7b60-8305-4794-bc88-bf145ce1b67c","ios":"levelo://app?vid=249b7b60-8305-4794-bc88-bf145ce1b67c"},"vehicle_type_id":"4","last_reported":1738501818,"current_range_meters":38800,"station_id":"ce4bhn12rcd13ifvqgqg","pricing_plan_id":"cebpf4jnsgd1na2vs0mg"},{"bike_id":"0b439ceb-bbef-470b-b522-3e20f798d948","system_id":"levelo_inurba_marseille","lat":43.290934,"lon":5.38168,"is_reserved":false,"is_disabled":true,"rental_uris":{"android":"levelo://app?vid=0b439ceb-bbef-470b-b522-3e20f798d948","ios":"levelo://app?vid=0b439ceb-bbef-470b-b522-3e20f798d948"},"vehicle_type_id":"4","last_reported":1738501818,"current_range_meters":17600,"station_id":"ce4bh512rcd13ifvqe2g","pricing_plan_id":"cebpf4jnsgd1na2vs0mg"},{"bike_id":"528fe304-774b-4f5e-99b0-3a6df52f7bd5","system_id":"levelo_inurba_marseille","lat":43.26687,"lon":5.38266,"is_reserved":false,"is_disabled":false,"rental_uris":{"android":"levelo://app?vid=528fe304-774b-4f5e-99b0-3a6df52f7bd5","ios":"levelo://app?vid=528fe304-774b-4f5e-99b0-3a6df52f7bd5"},"vehicle_type_id":"4","last_reported":1738501818,"current_range_meters":16000,"station_id":"ce4bhg92rcd13ifvqf90","pricing_plan_id":"cebpf4jnsgd1na2vs0mg"},{"bike_id":"693a29bd-5ac5-4712-a645-e5d8a8553060","system_id":"levelo_inurba_marseille","lat":43.29564,"lon":5.39978,"is_reserved":false,"is_disabled":true,"rental_uris":{"android":"levelo://app?vid=693a29bd-5ac5-4712-a645-e5d8a8553060","ios":"levelo://app?vid=693a29bd-5ac5-4712-a645-e5d8a8553060"},"vehicle_type_id":"4","last_reported":1738501818,"current_range_meters":39200,"station_id":"ce4bh312rcd13ifvqdj0","pricing_plan_id":"cebpf4jnsgd1na2vs0mg"},{"bike_id":"246cfd69-3f92-4e90-aa97-e3988a738d3e","system_id":"levelo_inurba_marseille","lat":43.28667,"lon":5.38657,"is_reserved":false,"is_disabled":true,"rental_uris":{"android":"levelo://app?vid=246cfd69-3f92-4e90-aa97-e3988a738d3e","ios":"levelo://app?vid=246cfd69-3f92-4e90-aa97-e3988a738d3e"},"vehicle_type_id":"4","last_reported":1738501818,"current_range_meters":30800,"station_id":"ce4bh492rcd13ifvqdug","pricing_plan_id":"cebpf4jnsgd1na2vs0mg"},{"bike_id":"f38a9b51-7bc8-4445-89b3-2095fb6b771f","system_id":"levelo_inurba_marseille","lat":43.28707,"lon":5.37407,"is_reserved":false,"is_disabled":true,"rental_uris":{"android":"levelo://app?vid=f38a9b51-7bc8-4445-89b3-2095fb6b771f","ios":"levelo://app?vid=f38a9b51-7bc8-4445-89b3-2095fb6b771f"},"vehicle_type_id":"4","last_reported":1738501818,"current_range_meters":24000,"station_id":"ce4bh3p2rcd13ifvqdq0","pricing_plan_id":"cebpf4jnsgd1na2vs0mg"},{"bike_id":"98b342c9-756e-40dc-aaa5-74bc1533cd1d","system_id":"levelo_inurba_marseille","lat":43.30801,"lon":5.38147,"is_reserved":false,"is_disabled":false,"rental_uris":{"android":"levelo://app?vid=98b342c9-756e-40dc-aaa5-74bc1533cd1d","ios":"levelo://app?vid=98b342c9-756e-40dc-aaa5-74bc1533cd1d"},"vehicle_type_id":"4","last_reported":1738501818,"current_range_meters":31200,"station_id":"ce4bgt12rcd13ifvqce0","pricing_plan_id":"cebpf4jnsgd1na2vs0mg"},{"bike_id":"fe117411-d9ae-46ad-96d7-1d4828206f4a","system_id":"levelo_inurba_marseille","lat":43.259338,"lon":5.409103,"is_reserved":false,"is_disabled":false,"rental_uris":{"android":"levelo://app?vid=fe117411-d9ae-46ad-96d7-1d4828206f4a","ios":"levelo://app?vid=fe117411-d9ae-46ad-96d7-1d4828206f4a"},"vehicle_type_id":"4","last_reported":1738501818,"current_range_meters":36400,"station_id":"ce4bhm92rcd13ifvqglg","pricing_plan_id":"cebpf4jnsgd1na2vs0mg"},{"bike_id":"280a6fd2-e02b-4f1f-b76f-c469c57691c3","system_id":"levelo_inurba_marseille","lat":43.28068,"lon":5.39898,"is_reserved":false,"is_disabled":false,"rental_uris":{"android":"levelo://app?vid=280a6fd2-e02b-4f1f-b76f-c469c57691c3","ios":"levelo://app?vid=280a6fd2-e02b-4f1f-b76f-c469c57691c3"},"vehicle_type_id":"4","last_reported":1738501818,"current_range_meters":31200,"station_id":"","pricing_plan_id":"cebpf4jnsgd1na2vs0mg"},{"bike_id":"7c43dce0-0b5c-4e91-9c4e-353e49a80cc2","system_id":"levelo_inurba_marseille","lat":43.28406,"lon":5.37524,"is_reserved":false,"is_disabled":false,"rental_uris":{"android":"levelo://app?vid=7c43dce0-0b5c-4e91-9c4e-353e49a80cc2","ios":"levelo://app?vid=7c43dce0-0b5c-4e91-9c4e-353e49a80cc2"},"vehicle_type_id":"4","last_reported":1738501818,"current_range_meters":27200,"station_id":"ce4bh412rcd13ifvqds0","pricing_plan_id":"cebpf4jnsgd1na2vs0mg"},{"bike_id":"56e572ca-1b82-4dc8-bd6f-39faf3c0a7b0","system_id":"levelo_inurba_marseille","lat":43.33728,"lon":5.39185,"is_reserved":false,"is_disabled":false,"rental_uris":{"android":"levelo://app?vid=56e572ca-1b82-4dc8-bd6f-39faf3c0a7b0","ios":"levelo://app?vid=56e572ca-1b82-4dc8-bd6f-39faf3c0a7b0"},"vehicle_type_id":"4","last_reported":1738501818,"current_range_meters":28000,"station_id":"ce4bhr92rcd13ifvqhsg","pricing_plan_id":"cebpf4jnsgd1na2vs0mg"},{"bike_id":"f4e770ab-8328-4ab9-86dd-c39638b0ab76","system_id":"levelo_inurba_marseille","lat":43.28483,"lon":5.38427,"is_reserved":false,"is_disabled":false,"rental_uris":{"android":"levelo://app?vid=f4e770ab-8328-4ab9-86dd-c39638b0ab76","ios":"levelo://app?vid=f4e770ab-8328-4ab9-86dd-c39638b0ab76"},"vehicle_type_id":"4","last_reported":1738501818,"current_range_meters":38400,"station_id":"ce4bh512rcd13ifvqe3g","pricing_plan_id":"cebpf4jnsgd1na2vs0mg"},{"bike_id":"f98cdd19-5ebd-4337-86a7-a2ac30f7daed","system_id":"levelo_inurba_marseille","lat":43.31757,"lon":5.3901,"is_reserved":false,"is_disabled":false,"rental_uris":{"android":"levelo://app?vid=f98cdd19-5ebd-4337-86a7-a2ac30f7daed","ios":"levelo://app?vid=f98cdd19-5ebd-4337-86a7-a2ac30f7daed"},"vehicle_type_id":"4","last_reported":1738501818,"current_range_meters":23200,"station_id":"ce4bhqp2rcd13ifvqhng","pricing_plan_id":"cebpf4jnsgd1na2vs0mg"},{"bike_id":"dff2410f-4af5-4630-b92e-ba7b2cac4e8c","system_id":"levelo_inurba_marseille","lat":43.28153,"lon":5.42624,"is_reserved":false,"is_disabled":false,"rental_uris":{"android":"levelo://app?vid=dff2410f-4af5-4630-b92e-ba7b2cac4e8c","ios":"levelo://app?vid=dff2410f-4af5-4630-b92e-ba7b2cac4e8c"},"vehicle_type_id":"4","last_reported":1738501818,"current_range_meters":32800,"station_id":"ce4bhnh2rcd13ifvqgug","pricing_plan_id":"cebpf4jnsgd1na2vs0mg"},{"bike_id":"fe25e42e-6666-4b39-b1e1-07b924955063","system_id":"levelo_inurba_marseille","lat":43.27922,"lon":5.39586,"is_reserved":false,"is_disabled":false,"rental_uris":{"android":"levelo://app?vid=fe25e42e-6666-4b39-b1e1-07b924955063","ios":"levelo://app?vid=fe25e42e-6666-4b39-b1e1-07b924955063"},"vehicle_type_id":"4","last_reported":1738501818,"current_range_meters":18800,"station_id":"ce4bhf92rcd13ifvqf40","pricing_plan_id":"cebpf4jnsgd1na2vs0mg"},{"bike_id":"5b4b22e1-ea8b-4370-9866-4149b2a7b2fe","system_id":"levelo_inurba_marseille","lat":43.28404,"lon":5.34996,"is_reserved":false,"is_disabled":false,"rental_uris":{"android":"levelo://app?vid=5b4b22e1-ea8b-4370-9866-4149b2a7b2fe","ios":"levelo://app?vid=5b4b22e1-ea8b-4370-9866-4149b2a7b2fe"},"vehicle_type_id":"4","last_reported":1738501818,"current_range_meters":17200,"station_id":"ce4bhbh2rcd13ifvqepg","pricing_plan_id":"cebpf4jnsgd1na2vs0mg"},{"bike_id":"ff352fab-4665-450b-9e8c-472e19204552","system_id":"levelo_inurba_marseille","lat":43.25513,"lon":5.3765,"is_reserved":false,"is_disabled":false,"rental_uris":{"android":"levelo://app?vid=ff352fab-4665-450b-9e8c-472e19204552","ios":"levelo://app?vid=ff352fab-4665-450b-9e8c-472e19204552"},"vehicle_type_id":"4","last_reported":1738501818,"current_range_meters":36400,"station_id":"ce4bhh12rcd13ifvqff0","pricing_plan_id":"cebpf4jnsgd1na2vs0mg"},{"bike_id":"6129e9fc-2161-4821-9311-bd60f53cbb9d","system_id":"levelo_inurba_marseille","lat":43.30541,"lon":5.36527,"is_reserved":false,"is_disabled":false,"rental_uris":{"android":"levelo://app?vid=6129e9fc-2161-4821-9311-bd60f53cbb9d","ios":"levelo://app?vid=6129e9fc-2161-4821-9311-bd60f53cbb9d"},"vehicle_type_id":"4","last_reported":1738501818,"current_range_meters":28000,"station_id":"ce4bgs12rcd13ifvqcag","pricing_plan_id":"cebpf4jnsgd1na2vs0mg"},{"bike_id":"dda6866b-0073-4c43-abce-70e6ce62bc4a","system_id":"levelo_inurba_marseille","lat":43.30424,"lon":5.41281,"is_reserved":false,"is_disabled":false,"rental_uris":{"android":"levelo://app?vid=dda6866b-0073-4c43-abce-70e6ce62bc4a","ios":"levelo://app?vid=dda6866b-0073-4c43-abce-70e6ce62bc4a"},"vehicle_type_id":"4","last_reported":1738501818,"current_range_meters":8000,"station_id":"ce4bhop2rcd13ifvqh8g","pricing_plan_id":"cebpf4jnsgd1na2vs0mg"},{"bike_id":"253d7f3f-de7d-4956-b0da-6a71a14d2a64","system_id":"levelo_inurba_marseille","lat":43.2782,"lon":5.4069,"is_reserved":false,"is_disabled":false,"rental_uris":{"android":"levelo://app?vid=253d7f3f-de7d-4956-b0da-6a71a14d2a64","ios":"levelo://app?vid=253d7f3f-de7d-4956-b0da-6a71a14d2a64"},"vehicle_type_id":"4","last_reported":1738501818,"current_range_meters":35600,"station_id":"ce4bhnh2rcd13ifvqgtg","pricing_plan_id":"cebpf4jnsgd1na2vs0mg"},{"bike_id":"1f4e4183-ba38-4674-b19d-0c758736fe8e","system_id":"levelo_inurba_marseille","lat":43.25092,"lon":5.39507,"is_reserved":false,"is_disabled":false,"rental_uris":{"android":"levelo://app?vid=1f4e4183-ba38-4674-b19d-0c758736fe8e","ios":"levelo://app?vid=1f4e4183-ba38-4674-b19d-0c758736fe8e"},"vehicle_type_id":"4","last_reported":1738501818,"current_range_meters":24800,"station_id":"ce4bhm12rcd13ifvqgkg","pricing_plan_id":"cebpf4jnsgd1na2vs0mg"},{"bike_id":"c890785b-a449-4d52-91fc-f5f1b26df012","system_id":"levelo_inurba_marseille","lat":43.25886,"lon":5.39907,"is_reserved":false,"is_disabled":false,"rental_uris":{"android":"levelo://app?vid=c890785b-a449-4d52-91fc-f5f1b26df012","ios":"levelo://app?vid=c890785b-a449-4d52-91fc-f5f1b26df012"},"vehicle_type_id":"4","last_reported":1738501818,"current_range_meters":16400,"station_id":"ce4bhl92rcd13ifvqghg","pricing_plan_id":"cebpf4jnsgd1na2vs0mg"},{"bike_id":"b2f27a28-80a9-4b86-8be3-6a2251dacfe8","system_id":"levelo_inurba_marseille","lat":43.29193,"lon":5.35803,"is_reserved":false,"is_disabled":false,"rental_uris":{"android":"levelo://app?vid=b2f27a28-80a9-4b86-8be3-6a2251dacfe8","ios":"levelo://app?vid=b2f27a28-80a9-4b86-8be3-6a2251dacfe8"},"vehicle_type_id":"4","last_reported":1738501818,"current_range_meters":36800,"station_id":"ce4bhb12rcd13ifvqel0","pricing_plan_id":"cebpf4jnsgd1na2vs0mg"},{"bike_id":"fb4cc7a8-e961-4995-96e8-4cbd01ddee0f","system_id":"levelo_inurba_marseille","lat":43.30305,"lon":5.39195,"is_reserved":false,"is_disabled":true,"rental_uris":{"android":"levelo://app?vid=fb4cc7a8-e961-4995-96e8-4cbd01ddee0f","ios":"levelo://app?vid=fb4cc7a8-e961-4995-96e8-4cbd01ddee0f"},"vehicle_type_id":"4","last_reported":1738501818,"current_range_meters":4400,"station_id":"ce4bgkh2rcd13ifvqbk0","pricing_plan_id":"cebpf4jnsgd1na2vs0mg"},{"bike_id":"56d6b97f-30a2-4c2a-8be6-a12a9fc19507","system_id":"levelo_inurba_marseille","lat":43.31745,"lon":5.38991,"is_reserved":false,"is_disabled":false,"rental_uris":{"android":"levelo://app?vid=56d6b97f-30a2-4c2a-8be6-a12a9fc19507","ios":"levelo://app?vid=56d6b97f-30a2-4c2a-8be6-a12a9fc19507"},"vehicle_type_id":"4","last_reported":1738501818,"current_range_meters":6800,"station_id":"ce4bhqp2rcd13ifvqhng","pricing_plan_id":"cebpf4jnsgd1na2vs0mg"},{"bike_id":"a895efa9-50aa-435c-91d1-c119eaf59a54","system_id":"levelo_inurba_marseille","lat":43.26505,"lon":5.39561,"is_reserved":false,"is_disabled":false,"rental_uris":{"android":"levelo://app?vid=a895efa9-50aa-435c-91d1-c119eaf59a54","ios":"levelo://app?vid=a895efa9-50aa-435c-91d1-c119eaf59a54"},"vehicle_type_id":"4","last_reported":1738501818,"current_range_meters":30800,"station_id":"ce4bhi12rcd13ifvqfq0","pricing_plan_id":"cebpf4jnsgd1na2vs0mg"},{"bike_id":"8e104399-aef2-4f9b-ac7b-a192d80911fa","system_id":"levelo_inurba_marseille","lat":43.26617,"lon":5.38986,"is_reserved":false,"is_disabled":false,"rental_uris":{"android":"levelo://app?vid=8e104399-aef2-4f9b-ac7b-a192d80911fa","ios":"levelo://app?vid=8e104399-aef2-4f9b-ac7b-a192d80911fa"},"vehicle_type_id":"4","last_reported":1738501818,"current_range_meters":37600,"station_id":"ce4bhe12rcd13ifvqf30","pricing_plan_id":"cebpf4jnsgd1na2vs0mg"},{"bike_id":"7e3fb6d9-ccd4-42a0-ad5f-bbecad48c859","system_id":"levelo_inurba_marseille","lat":43.31351,"lon":5.36666,"is_reserved":false,"is_disabled":false,"rental_uris":{"android":"levelo://app?vid=7e3fb6d9-ccd4-42a0-ad5f-bbecad48c859","ios":"levelo://app?vid=7e3fb6d9-ccd4-42a0-ad5f-bbecad48c859"},"vehicle_type_id":"4","last_reported":1738501818,"current_range_meters":28000,"station_id":"ce4bgr92rcd13ifvqc6g","pricing_plan_id":"cebpf4jnsgd1na2vs0mg"},{"bike_id":"d8ed3149-1b3d-468c-b65c-32b89925f608","system_id":"levelo_inurba_marseille","lat":43.33014,"lon":5.41264,"is_reserved":false,"is_disabled":false,"rental_uris":{"android":"levelo://app?vid=d8ed3149-1b3d-468c-b65c-32b89925f608","ios":"levelo://app?vid=d8ed3149-1b3d-468c-b65c-32b89925f608"},"vehicle_type_id":"4","last_reported":1738501818,"current_range_meters":7200,"station_id":"","pricing_plan_id":"cebpf4jnsgd1na2vs0mg"},{"bike_id":"c0e7550b-6f33-4fbd-9387-96500956f50a","system_id":"levelo_inurba_marseille","lat":43.29447,"lon":5.39747,"is_reserved":false,"is_disabled":true,"rental_uris":{"android":"levelo://app?vid=c0e7550b-6f33-4fbd-9387-96500956f50a","ios":"levelo://app?vid=c0e7550b-6f33-4fbd-9387-96500956f50a"},"vehicle_type_id":"4","last_reported":1738501818,"current_range_meters":25600,"station_id":"ce4bh3h2rcd13ifvqdo0","pricing_plan_id":"cebpf4jnsgd1na2vs0mg"},{"bike_id":"415bd4c5-777c-4b6c-92b5-bc0235839c3f","system_id":"levelo_inurba_marseille","lat":43.3018,"lon":5.36603,"is_reserved":false,"is_disabled":false,"rental_uris":{"android":"levelo://app?vid=415bd4c5-777c-4b6c-92b5-bc0235839c3f","ios":"levelo://app?vid=415bd4c5-777c-4b6c-92b5-bc0235839c3f"},"vehicle_type_id":"4","last_reported":1738501818,"current_range_meters":29600,"station_id":"ce4bgrh2rcd13ifvqc8g","pricing_plan_id":"cebpf4jnsgd1na2vs0mg"},{"bike_id":"7a163fc0-07aa-41da-86bd-3a408e536729","system_id":"levelo_inurba_marseille","lat":43.30556,"lon":5.36508,"is_reserved":false,"is_disabled":false,"rental_uris":{"android":"levelo://app?vid=7a163fc0-07aa-41da-86bd-3a408e536729","ios":"levelo://app?vid=7a163fc0-07aa-41da-86bd-3a408e536729"},"vehicle_type_id":"4","last_reported":1738501818,"current_range_meters":20800,"station_id":"ce4bgs12rcd13ifvqcag","pricing_plan_id":"cebpf4jnsgd1na2vs0mg"},{"bike_id":"51e98b31-1659-413c-a2fd-ad1f5f5b25a8","system_id":"levelo_inurba_marseille","lat":43.31008,"lon":5.36715,"is_reserved":false,"is_disabled":false,"rental_uris":{"android":"levelo://app?vid=51e98b31-1659-413c-a2fd-ad1f5f5b25a8","ios":"levelo://app?vid=51e98b31-1659-413c-a2fd-ad1f5f5b25a8"},"vehicle_type_id":"4","last_reported":1738501818,"current_range_meters":32400,"station_id":"","pricing_plan_id":"cebpf4jnsgd1na2vs0mg"},{"bike_id":"87fa070e-4d4a-4e2a-a4ab-d43f6d4d275b","system_id":"levelo_inurba_marseille","lat":43.2758,"lon":5.38428,"is_reserved":false,"is_disabled":false,"rental_uris":{"android":"levelo://app?vid=87fa070e-4d4a-4e2a-a4ab-d43f6d4d275b","ios":"levelo://app?vid=87fa070e-4d4a-4e2a-a4ab-d43f6d4d275b"},"vehicle_type_id":"4","last_reported":1738501818,"current_range_meters":38800,"station_id":"ce4bhh92rcd13ifvqfi0","pricing_plan_id":"cebpf4jnsgd1na2vs0mg"},{"bike_id":"18ad78fc-07dd-4438-b5ad-90588975b3c9","system_id":"levelo_inurba_marseille","lat":43.29101,"lon":5.3812,"is_reserved":false,"is_disabled":false,"rental_uris":{"android":"levelo://app?vid=18ad78fc-07dd-4438-b5ad-90588975b3c9","ios":"levelo://app?vid=18ad78fc-07dd-4438-b5ad-90588975b3c9"},"vehicle_type_id":"4","last_reported":1738501818,"current_range_meters":38800,"station_id":"ce4bh512rcd13ifvqe2g","pricing_plan_id":"cebpf4jnsgd1na2vs0mg"},{"bike_id":"b6b19dfd-669c-4acb-b82f-c19f7cf6d241","system_id":"levelo_inurba_marseille","lat":43.26197,"lon":5.37453,"is_reserved":false,"is_disabled":false,"rental_uris":{"android":"levelo://app?vid=b6b19dfd-669c-4acb-b82f-c19f7cf6d241","ios":"levelo://app?vid=b6b19dfd-669c-4acb-b82f-c19f7cf6d241"},"vehicle_type_id":"4","last_reported":1738501818,"current_range_meters":13600,"station_id":"ce4bhgp2rcd13ifvqfc0","pricing_plan_id":"cebpf4jnsgd1na2vs0mg"},{"bike_id":"5938f325-4537-4f6a-9fb0-d1404a0e5bc9","system_id":"levelo_inurba_marseille","lat":43.23152,"lon":5.43718,"is_reserved":false,"is_disabled":false,"rental_uris":{"android":"levelo://app?vid=5938f325-4537-4f6a-9fb0-d1404a0e5bc9","ios":"levelo://app?vid=5938f325-4537-4f6a-9fb0-d1404a0e5bc9"},"vehicle_type_id":"4","last_reported":1738501818,"current_range_meters":4800,"station_id":"ce4bhmp2rcd13ifvqgog","pricing_plan_id":"cebpf4jnsgd1na2vs0mg"},{"bike_id":"2aa0bf75-01da-4646-a39b-769e1e2c740b","system_id":"levelo_inurba_marseille","lat":43.26191,"lon":5.37454,"is_reserved":false,"is_disabled":false,"rental_uris":{"android":"levelo://app?vid=2aa0bf75-01da-4646-a39b-769e1e2c740b","ios":"levelo://app?vid=2aa0bf75-01da-4646-a39b-769e1e2c740b"},"vehicle_type_id":"4","last_reported":1738501818,"current_range_meters":36400,"station_id":"ce4bhgp2rcd13ifvqfc0","pricing_plan_id":"cebpf4jnsgd1na2vs0mg"},{"bike_id":"c8902182-a8b7-42f9-8e2b-fc0543656163","system_id":"levelo_inurba_marseille","lat":43.25021,"lon":5.38912,"is_reserved":false,"is_disabled":false,"rental_uris":{"android":"levelo://app?vid=c8902182-a8b7-42f9-8e2b-fc0543656163","ios":"levelo://app?vid=c8902182-a8b7-42f9-8e2b-fc0543656163"},"vehicle_type_id":"4","last_reported":1738501818,"current_range_meters":37600,"station_id":"ce4bhgp2rcd13ifvqfd0","pricing_plan_id":"cebpf4jnsgd1na2vs0mg"},{"bike_id":"32d9a329-7366-4eb8-8d55-73b5c99c70c3","system_id":"levelo_inurba_marseille","lat":43.23206,"lon":5.3555,"is_reserved":false,"is_disabled":false,"rental_uris":{"android":"levelo://app?vid=32d9a329-7366-4eb8-8d55-73b5c99c70c3","ios":"levelo://app?vid=32d9a329-7366-4eb8-8d55-73b5c99c70c3"},"vehicle_type_id":"4","last_reported":1738501818,"current_range_meters":38800,"station_id":"ce4bhu92rcd13ifvqi70","pricing_plan_id":"cebpf4jnsgd1na2vs0mg"},{"bike_id":"22264ea7-42c9-425e-a29f-07e9fe3444e8","system_id":"levelo_inurba_marseille","lat":43.24825,"lon":5.37439,"is_reserved":false,"is_disabled":true,"rental_uris":{"android":"levelo://app?vid=22264ea7-42c9-425e-a29f-07e9fe3444e8","ios":"levelo://app?vid=22264ea7-42c9-425e-a29f-07e9fe3444e8"},"vehicle_type_id":"4","last_reported":1738501818,"current_range_meters":25200,"station_id":"ce4bhgh2rcd13ifvqfb0","pricing_plan_id":"cebpf4jnsgd1na2vs0mg"},{"bike_id":"ab2f74c7-063c-4c10-800d-018107c4c0c2","system_id":"levelo_inurba_marseille","lat":43.25608,"lon":5.38221,"is_reserved":false,"is_disabled":false,"rental_uris":{"android":"levelo://app?vid=ab2f74c7-063c-4c10-800d-018107c4c0c2","ios":"levelo://app?vid=ab2f74c7-063c-4c10-800d-018107c4c0c2"},"vehicle_type_id":"4","last_reported":1738501818,"current_range_meters":17200,"station_id":"ce4bhih2rcd13ifvqfs0","pricing_plan_id":"cebpf4jnsgd1na2vs0mg"},{"bike_id":"0a2fd205-d616-4064-aa75-d4d529957d90","system_id":"levelo_inurba_marseille","lat":43.23086,"lon":5.35522,"is_reserved":false,"is_disabled":false,"rental_uris":{"android":"levelo://app?vid=0a2fd205-d616-4064-aa75-d4d529957d90","ios":"levelo://app?vid=0a2fd205-d616-4064-aa75-d4d529957d90"},"vehicle_type_id":"4","last_reported":1738501818,"current_range_meters":11200,"station_id":"cpo3342slgdg3j2ifvpg","pricing_plan_id":"cebpf4jnsgd1na2vs0mg"},{"bike_id":"1d1ba659-9fd7-4b6a-b49b-975c3b33a5ea","system_id":"levelo_inurba_marseille","lat":43.31227,"lon":5.36853,"is_reserved":false,"is_disabled":false,"rental_uris":{"android":"levelo://app?vid=1d1ba659-9fd7-4b6a-b49b-975c3b33a5ea","ios":"levelo://app?vid=1d1ba659-9fd7-4b6a-b49b-975c3b33a5ea"},"vehicle_type_id":"4","last_reported":1738501818,"current_range_meters":37600,"station_id":"ce4bgl92rcd13ifvqbq0","pricing_plan_id":"cebpf4jnsgd1na2vs0mg"},{"bike_id":"c8ef6505-b1e8-46ab-bf59-1ea5e10c0e6e","system_id":"levelo_inurba_marseille","lat":43.30669,"lon":5.40075,"is_reserved":false,"is_disabled":false,"rental_uris":{"android":"levelo://app?vid=c8ef6505-b1e8-46ab-bf59-1ea5e10c0e6e","ios":"levelo://app?vid=c8ef6505-b1e8-46ab-bf59-1ea5e10c0e6e"},"vehicle_type_id":"4","last_reported":1738501818,"current_range_meters":39200,"station_id":"ce4bh112rcd13ifvqda0","pricing_plan_id":"cebpf4jnsgd1na2vs0mg"},{"bike_id":"cb0752ba-1e7b-47b7-b726-60c5941551ad","system_id":"levelo_inurba_marseille","lat":43.24993,"lon":5.38925,"is_reserved":false,"is_disabled":false,"rental_uris":{"android":"levelo://app?vid=cb0752ba-1e7b-47b7-b726-60c5941551ad","ios":"levelo://app?vid=cb0752ba-1e7b-47b7-b726-60c5941551ad"},"vehicle_type_id":"4","last_reported":1738501818,"current_range_meters":36000,"station_id":"ce4bhgp2rcd13ifvqfd0","pricing_plan_id":"cebpf4jnsgd1na2vs0mg"},{"bike_id":"31764389-d8aa-4f55-b11b-2d0cf7ba3557","system_id":"levelo_inurba_marseille","lat":43.3015,"lon":5.37409,"is_reserved":false,"is_disabled":false,"rental_uris":{"android":"levelo://app?vid=31764389-d8aa-4f55-b11b-2d0cf7ba3557","ios":"levelo://app?vid=31764389-d8aa-4f55-b11b-2d0cf7ba3557"},"vehicle_type_id":"4","last_reported":1738501818,"current_range_meters":9600,"station_id":"ce4bgs92rcd13ifvqcc0","pricing_plan_id":"cebpf4jnsgd1na2vs0mg"},{"bike_id":"787cc70c-db25-42d8-bba7-585654938087","system_id":"levelo_inurba_marseille","lat":43.25955,"lon":5.40909,"is_reserved":false,"is_disabled":false,"rental_uris":{"android":"levelo://app?vid=787cc70c-db25-42d8-bba7-585654938087","ios":"levelo://app?vid=787cc70c-db25-42d8-bba7-585654938087"},"vehicle_type_id":"4","last_reported":1738501818,"current_range_meters":19600,"station_id":"ce4bhm92rcd13ifvqglg","pricing_plan_id":"cebpf4jnsgd1na2vs0mg"},{"bike_id":"f9c05556-bf5a-4bea-b1aa-920d71a969d8","system_id":"levelo_inurba_marseille","lat":43.28018,"lon":5.39992,"is_reserved":false,"is_disabled":false,"rental_uris":{"android":"levelo://app?vid=f9c05556-bf5a-4bea-b1aa-920d71a969d8","ios":"levelo://app?vid=f9c05556-bf5a-4bea-b1aa-920d71a969d8"},"vehicle_type_id":"4","last_reported":1738501818,"current_range_meters":38800,"station_id":"ce4bho92rcd13ifvqh4g","pricing_plan_id":"cebpf4jnsgd1na2vs0mg"},{"bike_id":"7a221e70-c10d-4991-913f-6bb90f285758","system_id":"levelo_inurba_marseille","lat":43.29732,"lon":5.36597,"is_reserved":false,"is_disabled":false,"rental_uris":{"android":"levelo://app?vid=7a221e70-c10d-4991-913f-6bb90f285758","ios":"levelo://app?vid=7a221e70-c10d-4991-913f-6bb90f285758"},"vehicle_type_id":"4","last_reported":1738501818,"current_range_meters":39200,"station_id":"ce4bgn12rcd13ifvqbt0","pricing_plan_id":"cebpf4jnsgd1na2vs0mg"},{"bike_id":"72393c56-1f59-4517-9b3a-7cfa7c798b48","system_id":"levelo_inurba_marseille","lat":43.23185,"lon":5.35559,"is_reserved":false,"is_disabled":false,"rental_uris":{"android":"levelo://app?vid=72393c56-1f59-4517-9b3a-7cfa7c798b48","ios":"levelo://app?vid=72393c56-1f59-4517-9b3a-7cfa7c798b48"},"vehicle_type_id":"4","last_reported":1738501818,"current_range_meters":38800,"station_id":"ce4bhu92rcd13ifvqi70","pricing_plan_id":"cebpf4jnsgd1na2vs0mg"},{"bike_id":"fa9fdef0-84cc-4673-b3e8-cfcb0dc65114","system_id":"levelo_inurba_marseille","lat":43.2981,"lon":5.38103,"is_reserved":false,"is_disabled":false,"rental_uris":{"android":"levelo://app?vid=fa9fdef0-84cc-4673-b3e8-cfcb0dc65114","ios":"levelo://app?vid=fa9fdef0-84cc-4673-b3e8-cfcb0dc65114"},"vehicle_type_id":"4","last_reported":1738501818,"current_range_meters":15200,"station_id":"ce4bgip2rcd13ifvqbb0","pricing_plan_id":"cebpf4jnsgd1na2vs0mg"},{"bike_id":"ae1f1e85-ec64-4dc1-ba5d-4214ac0bbd57","system_id":"levelo_inurba_marseille","lat":43.28595,"lon":5.37054,"is_reserved":false,"is_disabled":true,"rental_uris":{"android":"levelo://app?vid=ae1f1e85-ec64-4dc1-ba5d-4214ac0bbd57","ios":"levelo://app?vid=ae1f1e85-ec64-4dc1-ba5d-4214ac0bbd57"},"vehicle_type_id":"4","last_reported":1738501818,"current_range_meters":8000,"station_id":"","pricing_plan_id":"cebpf4jnsgd1na2vs0mg"},{"bike_id":"6337d338-3511-4993-ada0-12102998e834","system_id":"levelo_inurba_marseille","lat":43.23056,"lon":5.35423,"is_reserved":false,"is_disabled":false,"rental_uris":{"android":"levelo://app?vid=6337d338-3511-4993-ada0-12102998e834","ios":"levelo://app?vid=6337d338-3511-4993-ada0-12102998e834"},"vehicle_type_id":"4","last_reported":1738501818,"current_range_meters":6800,"station_id":"cpo3342slgdg3j2ifvpg","pricing_plan_id":"cebpf4jnsgd1na2vs0mg"},{"bike_id":"14cc98f8-07f7-4f8b-8123-ea4c7658a93a","system_id":"levelo_inurba_marseille","lat":43.27909,"lon":5.41208,"is_reserved":false,"is_disabled":false,"rental_uris":{"android":"levelo://app?vid=14cc98f8-07f7-4f8b-8123-ea4c7658a93a","ios":"levelo://app?vid=14cc98f8-07f7-4f8b-8123-ea4c7658a93a"},"vehicle_type_id":"4","last_reported":1738501818,"current_range_meters":14400,"station_id":"","pricing_plan_id":"cebpf4jnsgd1na2vs0mg"},{"bike_id":"2929de6e-bcde-4160-b618-bd81a9a367de","system_id":"levelo_inurba_marseille","lat":43.23207,"lon":5.35556,"is_reserved":false,"is_disabled":false,"rental_uris":{"android":"levelo://app?vid=2929de6e-bcde-4160-b618-bd81a9a367de","ios":"levelo://app?vid=2929de6e-bcde-4160-b618-bd81a9a367de"},"vehicle_type_id":"4","last_reported":1738501818,"current_range_meters":25600,"station_id":"ce4bhu92rcd13ifvqi70","pricing_plan_id":"cebpf4jnsgd1na2vs0mg"},{"bike_id":"a7366e5f-85e5-4b2b-94be-38732432eca2","system_id":"levelo_inurba_marseille","lat":43.32487,"lon":5.3655,"is_reserved":false,"is_disabled":false,"rental_uris":{"android":"levelo://app?vid=a7366e5f-85e5-4b2b-94be-38732432eca2","ios":"levelo://app?vid=a7366e5f-85e5-4b2b-94be-38732432eca2"},"vehicle_type_id":"4","last_reported":1738501818,"current_range_meters":39200,"station_id":"ce4bhs12rcd13ifvqhvg","pricing_plan_id":"cebpf4jnsgd1na2vs0mg"},{"bike_id":"4c837ee0-2ae7-4863-b63a-a6e8f4e96d3f","system_id":"levelo_inurba_marseille","lat":43.25502,"lon":5.37653,"is_reserved":false,"is_disabled":false,"rental_uris":{"android":"levelo://app?vid=4c837ee0-2ae7-4863-b63a-a6e8f4e96d3f","ios":"levelo://app?vid=4c837ee0-2ae7-4863-b63a-a6e8f4e96d3f"},"vehicle_type_id":"4","last_reported":1738501818,"current_range_meters":39200,"station_id":"ce4bhh12rcd13ifvqff0","pricing_plan_id":"cebpf4jnsgd1na2vs0mg"},{"bike_id":"ede78596-c383-4e1a-bc06-db42993062ff","system_id":"levelo_inurba_marseille","lat":43.26195,"lon":5.37465,"is_reserved":false,"is_disabled":false,"rental_uris":{"android":"levelo://app?vid=ede78596-c383-4e1a-bc06-db42993062ff","ios":"levelo://app?vid=ede78596-c383-4e1a-bc06-db42993062ff"},"vehicle_type_id":"4","last_reported":1738501818,"current_range_meters":38800,"station_id":"ce4bhgp2rcd13ifvqfc0","pricing_plan_id":"cebpf4jnsgd1na2vs0mg"},{"bike_id":"a8b93baf-3274-4587-baaf-49795d65f2d2","system_id":"levelo_inurba_marseille","lat":43.29711,"lon":5.37687,"is_reserved":false,"is_disabled":false,"rental_uris":{"android":"levelo://app?vid=a8b93baf-3274-4587-baaf-49795d65f2d2","ios":"levelo://app?vid=a8b93baf-3274-4587-baaf-49795d65f2d2"},"vehicle_type_id":"4","last_reported":1738501818,"current_range_meters":37600,"station_id":"ce4bgkh2rcd13ifvqbl0","pricing_plan_id":"cebpf4jnsgd1na2vs0mg"},{"bike_id":"0d77fa37-1782-4055-8553-c33d223aeebd","system_id":"levelo_inurba_marseille","lat":43.29565,"lon":5.39969,"is_reserved":false,"is_disabled":false,"rental_uris":{"android":"levelo://app?vid=0d77fa37-1782-4055-8553-c33d223aeebd","ios":"levelo://app?vid=0d77fa37-1782-4055-8553-c33d223aeebd"},"vehicle_type_id":"4","last_reported":1738501818,"current_range_meters":32800,"station_id":"ce4bh312rcd13ifvqdj0","pricing_plan_id":"cebpf4jnsgd1na2vs0mg"},{"bike_id":"1f212746-1340-43ae-9cf8-26eb24507165","system_id":"levelo_inurba_marseille","lat":43.31704,"lon":5.43681,"is_reserved":false,"is_disabled":false,"rental_uris":{"android":"levelo://app?vid=1f212746-1340-43ae-9cf8-26eb24507165","ios":"levelo://app?vid=1f212746-1340-43ae-9cf8-26eb24507165"},"vehicle_type_id":"4","last_reported":1738501818,"current_range_meters":38800,"station_id":"ce4bhp92rcd13ifvqhcg","pricing_plan_id":"cebpf4jnsgd1na2vs0mg"},{"bike_id":"a547b61a-d533-4db9-82c4-39a09964b690","system_id":"levelo_inurba_marseille","lat":43.2972,"lon":5.37688,"is_reserved":false,"is_disabled":false,"rental_uris":{"android":"levelo://app?vid=a547b61a-d533-4db9-82c4-39a09964b690","ios":"levelo://app?vid=a547b61a-d533-4db9-82c4-39a09964b690"},"vehicle_type_id":"4","last_reported":1738501818,"current_range_meters":35600,"station_id":"ce4bgkh2rcd13ifvqbl0","pricing_plan_id":"cebpf4jnsgd1na2vs0mg"},{"bike_id":"0042af3f-e4d5-4bc4-a0ea-735f64f21ef2","system_id":"levelo_inurba_marseille","lat":43.29531,"lon":5.38541,"is_reserved":false,"is_disabled":false,"rental_uris":{"android":"levelo://app?vid=0042af3f-e4d5-4bc4-a0ea-735f64f21ef2","ios":"levelo://app?vid=0042af3f-e4d5-4bc4-a0ea-735f64f21ef2"},