{"last_updated":1686506870,"ttl":30,"version":"2.2","data":{"bikes":[{"bike_id":"e215e44b-264e-4626-ae88-2d3a12aefe09","system_id":"levelo_inurba_marseille","lat":43.309076,"lon":5.368465,"is_reserved":false,"is_disabled":false,"rental_uris":{"android":"levelo://app?vid=e215e44b-264e-4626-ae88-2d3a12aefe09","ios":"levelo://app?vid=e215e44b-264e-4626-ae88-2d3a12aefe09"},"vehicle_type_id":"4","last_reported":1686506871,"current_range_meters":8800,"station_id":"ce4bgn92rcd13ifvqbvg","pricing_plan_id":"free"},{"bike_id":"2eeab106-8313-495a-aa69-af557bf6f79b","system_id":"levelo_inurba_marseille","lat":43.309076,"lon":5.368465,"is_reserved":false,"is_disabled":false,"rental_uris":{"android":"levelo://app?vid=2eeab106-8313-495a-aa69-af557bf6f79b","ios":"levelo://app?vid=2eeab106-8313-495a-aa69-af557bf6f79b"},"vehicle_type_id":"4","last_reported":1686506871,"current_range_meters":18800,"station_id":"ce4bgn92rcd13ifvqbvg","pricing_plan_id":"free"},{"bike_id":"0f0d0a7a-e443-4388-ab9a-b000c38638ed","system_id":"levelo_inurba_marseille","lat":43.314811,"lon":5.373103,"is_reserved":false,"is_disabled":false,"rental_uris":{"android":"levelo://app?vid=0f0d0a7a-e443-4388-ab9a-b000c38638ed","ios":"levelo://app?vid=0f0d0a7a-e443-4388-ab9a-b000c38638ed"},"vehicle_type_id":"4","last_reported":1686506871,"current_range_meters":1200,"station_id":"ce4bgt12rcd13ifvqcd0","pricing_plan_id":"free"},{"bike_id":"0528bcd1-0a0f-45f5-8ae7-6ae22fabecc3","system_id":"levelo_inurba_marseille","lat":43.314811,"lon":5.373103,"is_reserved":false,"is_disabled":false,"rental_uris":{"android":"levelo://app?vid=0528bcd1-0a0f-45f5-8ae7-6ae22fabecc3","ios":"levelo://app?vid=0528bcd1-0a0f-45f5-8ae7-6ae22fabecc3"},"vehicle_type_id":"4","last_reported":1686506871,"current_range_meters":2400,"station_id":"ce4bgt12rcd13ifvqcd0","pricing_plan_id":"free"},{"bike_id":"726e69fe-0789-44cc-8872-aafade0684ce","system_id":"levelo_inurba_marseille","lat":43.306,"lon":5.36574,"is_reserved":false,"is_disabled":false,"rental_uris":{"android":"levelo://app?vid=726e69fe-0789-44cc-8872-aafade0684ce","ios":"levelo://app?vid=726e69fe-0789-44cc-8872-aafade0684ce"},"vehicle_type_id":"4","last_reported":1686506871,"current_range_meters":3600,"station_id":"","pricing_plan_id":"free"},{"bike_id":"05d7134e-ccec-4a96-9d7e-fd3d41874a81","system_id":"levelo_inurba_marseille","lat":43.305706,"lon":5.365654,"is_reserved":false,"is_disabled":false,"rental_uris":{"android":"levelo://app?vid=05d7134e-ccec-4a96-9d7e-fd3d41874a81","ios":"levelo://app?vid=05d7134e-ccec-4a96-9d7e-fd3d41874a81"},"vehicle_type_id":"4","last_reported":1686506871,"current_range_meters":0,"station_id":"ce4bgs12rcd13ifvqcag","pricing_plan_id":"free"},{"bike_id":"15f8066e-a781-42d1-8069-8f2db42331b6","system_id":"levelo_inurba_marseille","lat":43.305368,"lon":5.367343,"is_reserved":false,"is_disabled":false,"rental_uris":{"android":"levelo://app?vid=15f8066e-a781-42d1-8069-8f2db42331b6","ios":"levelo://app?vid=15f8066e-a781-42d1-8069-8f2db42331b6"},"vehicle_type_id":"4","last_reported":1686506871,"current_range_meters":8400,"station_id":"ce4bgrp2rcd13ifvqc9g","pricing_plan_id":"free"},{"bike_id":"facd6703-bed8-4e71-a688-0cd5b579c4f0","system_id":"levelo_inurba_marseille","lat":43.305989,"lon":5.37225,"is_reserved":false,"is_disabled":false,"rental_uris":{"android":"levelo://app?vid=facd6703-bed8-4e71-a688-0cd5b579c4f0","ios":"levelo://app?vid=facd6703-bed8-4e71-a688-0cd5b579c4f0"},"vehicle_type_id":"4","last_reported":1686506871,"current_range_meters":2800,"station_id":"ce4bgqh2rcd13ifvqc4g","pricing_plan_id":"free"},{"bike_id":"357ce150-a1bd-49ee-afef-97ce76301f1e","system_id":"levelo_inurba_marseille","lat":43.311131,"lon":5.377651,"is_reserved":false,"is_disabled":false,"rental_uris":{"android":"levelo://app?vid=357ce150-a1bd-49ee-afef-97ce76301f1e","ios":"levelo://app?vid=357ce150-a1bd-49ee-afef-97ce76301f1e"},"vehicle_type_id":"4","last_reported":1686506871,"current_range_meters":14400,"station_id":"ce4bgt92rcd13ifvqcg0","pricing_plan_id":"free"},{"bike_id":"c3ad541e-82b1-4e99-85d4-e477492ef45a","system_id":"levelo_inurba_marseille","lat":43.311131,"lon":5.377651,"is_reserved":false,"is_disabled":false,"rental_uris":{"android":"levelo://app?vid=c3ad541e-82b1-4e99-85d4-e477492ef45a","ios":"levelo://app?vid=c3ad541e-82b1-4e99-85d4-e477492ef45a"},"vehicle_type_id":"4","last_reported":1686506871,"current_range_meters":800,"station_id":"ce4bgt92rcd13ifvqcg0","pricing_plan_id":"free"},{"bike_id":"db56fcab-46c5-4217-ae8f-fb3d20c4f2a3","system_id":"levelo_inurba_marseille","lat":43.311131,"lon":5.377651,"is_reserved":false,"is_disabled":false,"rental_uris":{"android":"levelo://app?vid=db56fcab-46c5-4217-ae8f-fb3d20c4f2a3","ios":"levelo://app?vid=db56fcab-46c5-4217-ae8f-fb3d20c4f2a3"},"vehicle_type_id":"4","last_reported":1686506871,"current_range_meters":0,"station_id":"ce4bgt92rcd13ifvqcg0","pricing_plan_id":"free"},{"bike_id":"a091407e-3852-4930-9b51-9071a4a51b2c","system_id":"levelo_inurba_marseille","lat":43.317075,"lon":5.377367,"is_reserved":false,"is_disabled":false,"rental_uris":{"android":"levelo://app?vid=a091407e-3852-4930-9b51-9071a4a51b2c","ios":"levelo://app?vid=a091407e-3852-4930-9b51-9071a4a51b2c"},"vehicle_type_id":"4","last_reported":1686506871,"current_range_meters":14800,"station_id":"ce4bgth2rcd13ifvqch0","pricing_plan_id":"free"},{"bike_id":"111cd03a-fb3a-483c-9eb6-4b9a54c06d9b","system_id":"levelo_inurba_marseille","lat":43.30308,"lon":5.36888,"is_reserved":false,"is_disabled":false,"rental_uris":{"android":"levelo://app?vid=111cd03a-fb3a-483c-9eb6-4b9a54c06d9b","ios":"levelo://app?vid=111cd03a-fb3a-483c-9eb6-4b9a54c06d9b"},"vehicle_type_id":"4","last_reported":1686506871,"current_range_meters":3200,"station_id":"ce4bgqh2rcd13ifvqc5g","pricing_plan_id":"free"},{"bike_id":"cd18ccbf-25e0-4270-90e3-3ed6654d38d0","system_id":"levelo_inurba_marseille","lat":43.31568,"lon":5.38007,"is_reserved":false,"is_disabled":false,"rental_uris":{"android":"levelo://app?vid=cd18ccbf-25e0-4270-90e3-3ed6654d38d0","ios":"levelo://app?vid=cd18ccbf-25e0-4270-90e3-3ed6654d38d0"},"vehicle_type_id":"4","last_reported":1686506871,"current_range_meters":0,"station_id":"","pricing_plan_id":"free"},{"bike_id":"7e48e539-568f-4a0f-8391-b797c4889ebe","system_id":"levelo_inurba_marseille","lat":43.301939,"lon":5.366286,"is_reserved":false,"is_disabled":false,"rental_uris":{"android":"levelo://app?vid=7e48e539-568f-4a0f-8391-b797c4889ebe","ios":"levelo://app?vid=7e48e539-568f-4a0f-8391-b797c4889ebe"},"vehicle_type_id":"4","last_reported":1686506871,"current_range_meters":6400,"station_id":"ce4bgrh2rcd13ifvqc8g","pricing_plan_id":"free"},{"bike_id":"55c88d34-37ea-42ae-b371-22a40c4caf6b","system_id":"levelo_inurba_marseille","lat":43.301939,"lon":5.366286,"is_reserved":false,"is_disabled":false,"rental_uris":{"android":"levelo://app?vid=55c88d34-37ea-42ae-b371-22a40c4caf6b","ios":"levelo://app?vid=55c88d34-37ea-42ae-b371-22a40c4caf6b"},"vehicle_type_id":"4","last_reported":1686506871,"current_range_meters":13600,"station_id":"ce4bgrh2rcd13ifvqc8g","pricing_plan_id":"free"},{"bike_id":"41581e48-2ae6-48d7-a7d8-f473cb2d1149","system_id":"levelo_inurba_marseille","lat":43.308012,"lon":5.381511,"is_reserved":false,"is_disabled":false,"rental_uris":{"android":"levelo://app?vid=41581e48-2ae6-48d7-a7d8-f473cb2d1149","ios":"levelo://app?vid=41581e48-2ae6-48d7-a7d8-f473cb2d1149"},"vehicle_type_id":"4","last_reported":1686506871,"current_range_meters":800,"station_id":"ce4bgt12rcd13ifvqce0","pricing_plan_id":"free"},{"bike_id":"0f732226-1353-4d28-adc2-e1037f165212","system_id":"levelo_inurba_marseille","lat":43.308012,"lon":5.381511,"is_reserved":false,"is_disabled":false,"rental_uris":{"android":"levelo://app?vid=0f732226-1353-4d28-adc2-e1037f165212","ios":"levelo://app?vid=0f732226-1353-4d28-adc2-e1037f165212"},"vehicle_type_id":"4","last_reported":1686506871,"current_range_meters":7200,"station_id":"ce4bgt12rcd13ifvqce0","pricing_plan_id":"free"},{"bike_id":"40760ae4-6361-4b31-929d-4fda2e89d32b","system_id":"levelo_inurba_marseille","lat":43.308012,"lon":5.381511,"is_reserved":false,"is_disabled":false,"rental_uris":{"android":"levelo://app?vid=40760ae4-6361-4b31-929d-4fda2e89d32b","ios":"levelo://app?vid=40760ae4-6361-4b31-929d-4fda2e89d32b"},"vehicle_type_id":"4","last_reported":1686506871,"current_range_meters":31200,"station_id":"ce4bgt12rcd13ifvqce0","pricing_plan_id":"free"},{"bike_id":"3c35361f-57ef-4fc3-b4fb-6037ba96433a","system_id":"levelo_inurba_marseille","lat":43.308012,"lon":5.381511,"is_reserved":false,"is_disabled":false,"rental_uris":{"android":"levelo://app?vid=3c35361f-57ef-4fc3-b4fb-6037ba96433a","ios":"levelo://app?vid=3c35361f-57ef-4fc3-b4fb-6037ba96433a"},"vehicle_type_id":"4","last_reported":1686506871,"current_range_meters":0,"station_id":"ce4bgt12rcd13ifvqce0","pricing_plan_id":"free"},{"bike_id":"5da04d2d-3413-4378-928d-127f618d2f9a","system_id":"levelo_inurba_marseille","lat":43.304606,"lon":5.379026,"is_reserved":false,"is_disabled":false,"rental_uris":{"android":"levelo://app?vid=5da04d2d-3413-4378-928d-127f618d2f9a","ios":"levelo://app?vid=5da04d2d-3413-4378-928d-127f618d2f9a"},"vehicle_type_id":"4","last_reported":1686506871,"current_range_meters":10000,"station_id":"ce4bgup2rcd13ifvqcn0","pricing_plan_id":"free"},{"bike_id":"27380232-2975-48ed-a084-506d031ce4ea","system_id":"levelo_inurba_marseille","lat":43.304606,"lon":5.379026,"is_reserved":false,"is_disabled":false,"rental_uris":{"android":"levelo://app?vid=27380232-2975-48ed-a084-506d031ce4ea","ios":"levelo://app?vid=27380232-2975-48ed-a084-506d031ce4ea"},"vehicle_type_id":"4","last_reported":1686506871,"current_range_meters":29600,"station_id":"ce4bgup2rcd13ifvqcn0","pricing_plan_id":"free"},{"bike_id":"919d95ea-2620-4663-8244-5a6d977b525a","system_id":"levelo_inurba_marseille","lat":43.30282,"lon":5.37704,"is_reserved":false,"is_disabled":false,"rental_uris":{"android":"levelo://app?vid=919d95ea-2620-4663-8244-5a6d977b525a","ios":"levelo://app?vid=919d95ea-2620-4663-8244-5a6d977b525a"},"vehicle_type_id":"4","last_reported":1686506871,"current_range_meters":0,"station_id":"","pricing_plan_id":"free"},{"bike_id":"99956ffd-faa4-43c5-82e7-9c7367ed8a06","system_id":"levelo_inurba_marseille","lat":43.30143,"lon":5.37413,"is_reserved":false,"is_disabled":false,"rental_uris":{"android":"levelo://app?vid=99956ffd-faa4-43c5-82e7-9c7367ed8a06","ios":"levelo://app?vid=99956ffd-faa4-43c5-82e7-9c7367ed8a06"},"vehicle_type_id":"4","last_reported":1686506871,"current_range_meters":9600,"station_id":"ce4bgs92rcd13ifvqcc0","pricing_plan_id":"free"},{"bike_id":"5168a86d-cb7b-4891-9c87-2d4d17a6d6df","system_id":"levelo_inurba_marseille","lat":43.319935,"lon":5.381699,"is_reserved":false,"is_disabled":false,"rental_uris":{"android":"levelo://app?vid=5168a86d-cb7b-4891-9c87-2d4d17a6d6df","ios":"levelo://app?vid=5168a86d-cb7b-4891-9c87-2d4d17a6d6df"},"vehicle_type_id":"4","last_reported":1686506871,"current_range_meters":16800,"station_id":"ce4bhr12rcd13ifvqhpg","pricing_plan_id":"free"},{"bike_id":"e53edf61-2c97-47eb-8b5f-251197a038c0","system_id":"levelo_inurba_marseille","lat":43.319935,"lon":5.381699,"is_reserved":false,"is_disabled":false,"rental_uris":{"android":"levelo://app?vid=e53edf61-2c97-47eb-8b5f-251197a038c0","ios":"levelo://app?vid=e53edf61-2c97-47eb-8b5f-251197a038c0"},"vehicle_type_id":"4","last_reported":1686506871,"current_range_meters":4000,"station_id":"ce4bhr12rcd13ifvqhpg","pricing_plan_id":"free"},{"bike_id":"ac50a604-a7f0-413b-864d-74ff2e66e24c","system_id":"levelo_inurba_marseille","lat":43.313571,"lon":5.384829,"is_reserved":false,"is_disabled":false,"rental_uris":{"android":"levelo://app?vid=ac50a604-a7f0-413b-864d-74ff2e66e24c","ios":"levelo://app?vid=ac50a604-a7f0-413b-864d-74ff2e66e24c"},"vehicle_type_id":"4","last_reported":1686506871,"current_range_meters":1600,"station_id":"ce4bgt92rcd13ifvqcf0","pricing_plan_id":"free"},{"bike_id":"0a7e2abe-c4fc-44a9-ac07-899f9a130755","system_id":"levelo_inurba_marseille","lat":43.31888,"lon":5.38394,"is_reserved":false,"is_disabled":false,"rental_uris":{"android":"levelo://app?vid=0a7e2abe-c4fc-44a9-ac07-899f9a130755","ios":"levelo://app?vid=0a7e2abe-c4fc-44a9-ac07-899f9a130755"},"vehicle_type_id":"4","last_reported":1686506871,"current_range_meters":9200,"station_id":"ce4bhr12rcd13ifvqhpg","pricing_plan_id":"free"},{"bike_id":"77fe41c5-607b-4e19-8889-0971e6701e2b","system_id":"levelo_inurba_marseille","lat":43.298433,"lon":5.362774,"is_reserved":false,"is_disabled":false,"rental_uris":{"android":"levelo://app?vid=77fe41c5-607b-4e19-8889-0971e6701e2b","ios":"levelo://app?vid=77fe41c5-607b-4e19-8889-0971e6701e2b"},"vehicle_type_id":"4","last_reported":1686506871,"current_range_meters":20400,"station_id":"ce4bgpp2rcd13ifvqc3g","pricing_plan_id":"free"},{"bike_id":"fc620d87-94f9-4815-8782-78d7a4c67136","system_id":"levelo_inurba_marseille","lat":43.298433,"lon":5.362774,"is_reserved":false,"is_disabled":false,"rental_uris":{"android":"levelo://app?vid=fc620d87-94f9-4815-8782-78d7a4c67136","ios":"levelo://app?vid=fc620d87-94f9-4815-8782-78d7a4c67136"},"vehicle_type_id":"4","last_reported":1686506871,"current_range_meters":13600,"station_id":"ce4bgpp2rcd13ifvqc3g","pricing_plan_id":"free"},{"bike_id":"89e1fba7-c3cd-4fe7-ac10-be150cd50a6b","system_id":"levelo_inurba_marseille","lat":43.30541,"lon":5.38425,"is_reserved":false,"is_disabled":false,"rental_uris":{"android":"levelo://app?vid=89e1fba7-c3cd-4fe7-ac10-be150cd50a6b","ios":"levelo://app?vid=89e1fba7-c3cd-4fe7-ac10-be150cd50a6b"},"vehicle_type_id":"4","last_reported":1686506871,"current_range_meters":0,"station_id":"ce4bgg92rcd13ifvqb30","pricing_plan_id":"free"},{"bike_id":"8d458ffa-9286-4a79-9624-32c61481ae11","system_id":"levelo_inurba_marseille","lat":43.298433,"lon":5.362774,"is_reserved":false,"is_disabled":false,"rental_uris":{"android":"levelo://app?vid=8d458ffa-9286-4a79-9624-32c61481ae11","ios":"levelo://app?vid=8d458ffa-9286-4a79-9624-32c61481ae11"},"vehicle_type_id":"4","last_reported":1686506871,"current_range_meters":14400,"station_id":"ce4bgpp2rcd13ifvqc3g","pricing_plan_id":"free"},{"bike_id":"f2d11d1a-17f2-480d-bd2b-f227500c250b","system_id":"levelo_inurba_marseille","lat":43.299243,"lon":5.37481,"is_reserved":false,"is_disabled":false,"rental_uris":{"android":"levelo://app?vid=f2d11d1a-17f2-480d-bd2b-f227500c250b","ios":"levelo://app?vid=f2d11d1a-17f2-480d-bd2b-f227500c250b"},"vehicle_type_id":"4","last_reported":1686506871,"current_range_meters":6800,"station_id":"ce4bgjh2rcd13ifvqbg0","pricing_plan_id":"free"},{"bike_id":"1ea9c2a5-9be2-464f-803f-b83799358aa7","system_id":"levelo_inurba_marseille","lat":43.299243,"lon":5.37481,"is_reserved":false,"is_disabled":false,"rental_uris":{"android":"levelo://app?vid=1ea9c2a5-9be2-464f-803f-b83799358aa7","ios":"levelo://app?vid=1ea9c2a5-9be2-464f-803f-b83799358aa7"},"vehicle_type_id":"4","last_reported":1686506871,"current_range_meters":6400,"station_id":"ce4bgjh2rcd13ifvqbg0","pricing_plan_id":"free"},{"bike_id":"9a4ae28f-58ee-4290-9ced-a6a0f82ac088","system_id":"levelo_inurba_marseille","lat":43.32822,"lon":5.36684,"is_reserved":false,"is_disabled":false,"rental_uris":{"android":"levelo://app?vid=9a4ae28f-58ee-4290-9ced-a6a0f82ac088","ios":"levelo://app?vid=9a4ae28f-58ee-4290-9ced-a6a0f82ac088"},"vehicle_type_id":"4","last_reported":1686506871,"current_range_meters":4800,"station_id":"ce4bhs92rcd13ifvqi0g","pricing_plan_id":"free"},{"bike_id":"1812ffb2-d2e3-46cf-92f4-f87704024973","system_id":"levelo_inurba_marseille","lat":43.32832,"lon":5.36681,"is_reserved":false,"is_disabled":false,"rental_uris":{"android":"levelo://app?vid=1812ffb2-d2e3-46cf-92f4-f87704024973","ios":"levelo://app?vid=1812ffb2-d2e3-46cf-92f4-f87704024973"},"vehicle_type_id":"4","last_reported":1686506871,"current_range_meters":2000,"station_id":"ce4bhs92rcd13ifvqi0g","pricing_plan_id":"free"},{"bike_id":"12b5f6ef-6848-4945-9cfd-8bb6b015c5b8","system_id":"levelo_inurba_marseille","lat":43.296935,"lon":5.376544,"is_reserved":false,"is_disabled":false,"rental_uris":{"android":"levelo://app?vid=12b5f6ef-6848-4945-9cfd-8bb6b015c5b8","ios":"levelo://app?vid=12b5f6ef-6848-4945-9cfd-8bb6b015c5b8"},"vehicle_type_id":"4","last_reported":1686506871,"current_range_meters":5600,"station_id":"ce4bgkh2rcd13ifvqbl0","pricing_plan_id":"free"},{"bike_id":"07e9a93c-b892-4140-a89e-56c0748204bc","system_id":"levelo_inurba_marseille","lat":43.296921,"lon":5.376579,"is_reserved":false,"is_disabled":false,"rental_uris":{"android":"levelo://app?vid=07e9a93c-b892-4140-a89e-56c0748204bc","ios":"levelo://app?vid=07e9a93c-b892-4140-a89e-56c0748204bc"},"vehicle_type_id":"4","last_reported":1686506871,"current_range_meters":4400,"station_id":"ce4bgkh2rcd13ifvqbl0","pricing_plan_id":"free"},{"bike_id":"8a053076-81bc-49b2-98c1-bb795e1d8770","system_id":"levelo_inurba_marseille","lat":43.296921,"lon":5.376579,"is_reserved":false,"is_disabled":false,"rental_uris":{"android":"levelo://app?vid=8a053076-81bc-49b2-98c1-bb795e1d8770","ios":"levelo://app?vid=8a053076-81bc-49b2-98c1-bb795e1d8770"},"vehicle_type_id":"4","last_reported":1686506871,"current_range_meters":17600,"station_id":"ce4bgkh2rcd13ifvqbl0","pricing_plan_id":"free"},{"bike_id":"7a584c8f-ebf4-412f-bce0-546993db397f","system_id":"levelo_inurba_marseille","lat":43.299028,"lon":5.381509,"is_reserved":false,"is_disabled":false,"rental_uris":{"android":"levelo://app?vid=7a584c8f-ebf4-412f-bce0-546993db397f","ios":"levelo://app?vid=7a584c8f-ebf4-412f-bce0-546993db397f"},"vehicle_type_id":"4","last_reported":1686506871,"current_range_meters":18400,"station_id":"ce4bgj12rcd13ifvqbc0","pricing_plan_id":"free"},{"bike_id":"5c9d6cb8-e795-438c-97b1-1ca8a2926ac1","system_id":"levelo_inurba_marseille","lat":43.309589,"lon":5.390258,"is_reserved":false,"is_disabled":false,"rental_uris":{"android":"levelo://app?vid=5c9d6cb8-e795-438c-97b1-1ca8a2926ac1","ios":"levelo://app?vid=5c9d6cb8-e795-438c-97b1-1ca8a2926ac1"},"vehicle_type_id":"4","last_reported":1686506871,"current_range_meters":3600,"station_id":"ce4bgup2rcd13ifvqco0","pricing_plan_id":"free"},{"bike_id":"a2c9e98e-d8ef-4b41-b0d3-02c78545d554","system_id":"levelo_inurba_marseille","lat":43.317557,"lon":5.390173,"is_reserved":false,"is_disabled":false,"rental_uris":{"android":"levelo://app?vid=a2c9e98e-d8ef-4b41-b0d3-02c78545d554","ios":"levelo://app?vid=a2c9e98e-d8ef-4b41-b0d3-02c78545d554"},"vehicle_type_id":"4","last_reported":1686506871,"current_range_meters":22000,"station_id":"ce4bhqp2rcd13ifvqhng","pricing_plan_id":"free"},{"bike_id":"2a125fd6-2319-47b4-9417-c17d14598ecf","system_id":"levelo_inurba_marseille","lat":43.29799,"lon":5.38097,"is_reserved":false,"is_disabled":false,"rental_uris":{"android":"levelo://app?vid=2a125fd6-2319-47b4-9417-c17d14598ecf","ios":"levelo://app?vid=2a125fd6-2319-47b4-9417-c17d14598ecf"},"vehicle_type_id":"4","last_reported":1686506871,"current_range_meters":8000,"station_id":"ce4bgip2rcd13ifvqbb0","pricing_plan_id":"free"},{"bike_id":"0d869f80-5121-4517-8e36-1e057112f6a2","system_id":"levelo_inurba_marseille","lat":43.296277,"lon":5.377108,"is_reserved":false,"is_disabled":false,"rental_uris":{"android":"levelo://app?vid=0d869f80-5121-4517-8e36-1e057112f6a2","ios":"levelo://app?vid=0d869f80-5121-4517-8e36-1e057112f6a2"},"vehicle_type_id":"4","last_reported":1686506871,"current_range_meters":0,"station_id":"ce4bgi92rcd13ifvqb90","pricing_plan_id":"free"},{"bike_id":"daee5978-4b95-4338-9c21-6cb2967f5c4e","system_id":"levelo_inurba_marseille","lat":43.296277,"lon":5.377108,"is_reserved":false,"is_disabled":false,"rental_uris":{"android":"levelo://app?vid=daee5978-4b95-4338-9c21-6cb2967f5c4e","ios":"levelo://app?vid=daee5978-4b95-4338-9c21-6cb2967f5c4e"},"vehicle_type_id":"4","last_reported":1686506871,"current_range_meters":18000,"station_id":"ce4bgi92rcd13ifvqb90","pricing_plan_id":"free"},{"bike_id":"7e1fa9dc-ec1c-4b09-ab4e-25368d8bed83","system_id":"levelo_inurba_marseille","lat":43.296263,"lon":5.377094,"is_reserved":false,"is_disabled":false,"rental_uris":{"android":"levelo://app?vid=7e1fa9dc-ec1c-4b09-ab4e-25368d8bed83","ios":"levelo://app?vid=7e1fa9dc-ec1c-4b09-ab4e-25368d8bed83"},"vehicle_type_id":"4","last_reported":1686506871,"current_range_meters":0,"station_id":"ce4bgi92rcd13ifvqb90","pricing_plan_id":"free"},{"bike_id":"0d67817f-051e-43cd-ad3a-4fe4008cc58f","system_id":"levelo_inurba_marseille","lat":43.29625,"lon":5.37725,"is_reserved":false,"is_disabled":false,"rental_uris":{"android":"levelo://app?vid=0d67817f-051e-43cd-ad3a-4fe4008cc58f","ios":"levelo://app?vid=0d67817f-051e-43cd-ad3a-4fe4008cc58f"},"vehicle_type_id":"4","last_reported":1686506871,"current_range_meters":0,"station_id":"ce4bgi92rcd13ifvqb90","pricing_plan_id":"free"},{"bike_id":"1322fb0e-b753-424b-8689-ee2c74ea5f29","system_id":"levelo_inurba_marseille","lat":43.296263,"lon":5.377094,"is_reserved":false,"is_disabled":false,"rental_uris":{"android":"levelo://app?vid=1322fb0e-b753-424b-8689-ee2c74ea5f29","ios":"levelo://app?vid=1322fb0e-b753-424b-8689-ee2c74ea5f29"},"vehicle_type_id":"4","last_reported":1686506871,"current_range_meters":0,"station_id":"ce4bgi92rcd13ifvqb90","pricing_plan_id":"free"},{"bike_id":"18fa49ff-a54f-4178-a9e6-dbfdfcb02ef2","system_id":"levelo_inurba_marseille","lat":43.29976,"lon":5.3849,"is_reserved":false,"is_disabled":false,"rental_uris":{"android":"levelo://app?vid=18fa49ff-a54f-4178-a9e6-dbfdfcb02ef2","ios":"levelo://app?vid=18fa49ff-a54f-4178-a9e6-dbfdfcb02ef2"},"vehicle_type_id":"4","last_reported":1686506871,"current_range_meters":0,"station_id":"ce4bgj92rcd13ifvqbd0","pricing_plan_id":"free"},{"bike_id":"7d658a7e-496f-4f88-8dbd-c494f53f928b","system_id":"levelo_inurba_marseille","lat":43.30014,"lon":5.38543,"is_reserved":false,"is_disabled":false,"rental_uris":{"android":"levelo://app?vid=7d658a7e-496f-4f88-8dbd-c494f53f928b","ios":"levelo://app?vid=7d658a7e-496f-4f88-8dbd-c494f53f928b"},"vehicle_type_id":"4","last_reported":1686506871,"current_range_meters":2400,"station_id":"","pricing_plan_id":"free"},{"bike_id":"bcca12b3-3d7e-4a2f-9b3f-b9d39dfef661","system_id":"levelo_inurba_marseille","lat":43.299717,"lon":5.384845,"is_reserved":false,"is_disabled":false,"rental_uris":{"android":"levelo://app?vid=bcca12b3-3d7e-4a2f-9b3f-b9d39dfef661","ios":"levelo://app?vid=bcca12b3-3d7e-4a2f-9b3f-b9d39dfef661"},"vehicle_type_id":"4","last_reported":1686506871,"current_range_meters":5200,"station_id":"ce4bgj92rcd13ifvqbd0","pricing_plan_id":"free"},{"bike_id":"28d00185-90f8-451d-921e-3ae977d7decd","system_id":"levelo_inurba_marseille","lat":43.299724,"lon":5.384848,"is_reserved":false,"is_disabled":false,"rental_uris":{"android":"levelo://app?vid=28d00185-90f8-451d-921e-3ae977d7decd","ios":"levelo://app?vid=28d00185-90f8-451d-921e-3ae977d7decd"},"vehicle_type_id":"4","last_reported":1686506871,"current_range_meters":0,"station_id":"ce4bgj92rcd13ifvqbd0","pricing_plan_id":"free"},{"bike_id":"0f1136ec-9b74-4c90-ab5e-42ffc099644d","system_id":"levelo_inurba_marseille","lat":43.299724,"lon":5.384848,"is_reserved":false,"is_disabled":false,"rental_uris":{"android":"levelo://app?vid=0f1136ec-9b74-4c90-ab5e-42ffc099644d","ios":"levelo://app?vid=0f1136ec-9b74-4c90-ab5e-42ffc099644d"},"vehicle_type_id":"4","last_reported":1686506871,"current_range_meters":0,"station_id":"ce4bgj92rcd13ifvqbd0","pricing_plan_id":"free"},{"bike_id":"1a10afdd-816f-4230-96ad-e07afc80891a","system_id":"levelo_inurba_marseille","lat":43.29425,"lon":5.37401,"is_reserved":false,"is_disabled":false,"rental_uris":{"android":"levelo://app?vid=1a10afdd-816f-4230-96ad-e07afc80891a","ios":"levelo://app?vid=1a10afdd-816f-4230-96ad-e07afc80891a"},"vehicle_type_id":"4","last_reported":1686506871,"current_range_meters":15200,"station_id":"","pricing_plan_id":"free"},{"bike_id":"a6428014-c3a5-466f-a0f2-0ad0eca3cc86","system_id":"levelo_inurba_marseille","lat":43.32367,"lon":5.38883,"is_reserved":false,"is_disabled":false,"rental_uris":{"android":"levelo://app?vid=a6428014-c3a5-466f-a0f2-0ad0eca3cc86","ios":"levelo://app?vid=a6428014-c3a5-466f-a0f2-0ad0eca3cc86"},"vehicle_type_id":"4","last_reported":1686506871,"current_range_meters":10000,"station_id":"","pricing_plan_id":"free"},{"bike_id":"3c244823-91a3-449a-9c1c-826a89be7b1b","system_id":"levelo_inurba_marseille","lat":43.323667,"lon":5.388847,"is_reserved":false,"is_disabled":false,"rental_uris":{"android":"levelo://app?vid=3c244823-91a3-449a-9c1c-826a89be7b1b","ios":"levelo://app?vid=3c244823-91a3-449a-9c1c-826a89be7b1b"},"vehicle_type_id":"4","last_reported":1686506871,"current_range_meters":12000,"station_id":"ce4bhqp2rcd13ifvqhog","pricing_plan_id":"free"},{"bike_id":"f00cd5b8-1068-4f48-889a-6822a3c407c6","system_id":"levelo_inurba_marseille","lat":43.29852,"lon":5.38561,"is_reserved":false,"is_disabled":false,"rental_uris":{"android":"levelo://app?vid=f00cd5b8-1068-4f48-889a-6822a3c407c6","ios":"levelo://app?vid=f00cd5b8-1068-4f48-889a-6822a3c407c6"},"vehicle_type_id":"4","last_reported":1686506871,"current_range_meters":0,"station_id":"","pricing_plan_id":"free"},{"bike_id":"0e78509b-4ed6-4f67-b1ca-dd0367096c11","system_id":"levelo_inurba_marseille","lat":43.293249,"lon":5.371578,"is_reserved":false,"is_disabled":false,"rental_uris":{"android":"levelo://app?vid=0e78509b-4ed6-4f67-b1ca-dd0367096c11","ios":"levelo://app?vid=0e78509b-4ed6-4f67-b1ca-dd0367096c11"},"vehicle_type_id":"4","last_reported":1686506871,"current_range_meters":24000,"station_id":"ce4bgh92rcd13ifvqb40","pricing_plan_id":"free"},{"bike_id":"dd6e79b8-9ef2-407f-95a1-a0023a94fab9","system_id":"levelo_inurba_marseille","lat":43.292749,"lon":5.368398,"is_reserved":false,"is_disabled":false,"rental_uris":{"android":"levelo://app?vid=dd6e79b8-9ef2-407f-95a1-a0023a94fab9","ios":"levelo://app?vid=dd6e79b8-9ef2-407f-95a1-a0023a94fab9"},"vehicle_type_id":"4","last_reported":1686506871,"current_range_meters":5600,"station_id":"ce4bhbp2rcd13ifvqesg","pricing_plan_id":"free"},{"bike_id":"679668a1-5f55-42a4-babe-0262445d9a1b","system_id":"levelo_inurba_marseille","lat":43.29307,"lon":5.37163,"is_reserved":false,"is_disabled":false,"rental_uris":{"android":"levelo://app?vid=679668a1-5f55-42a4-babe-0262445d9a1b","ios":"levelo://app?vid=679668a1-5f55-42a4-babe-0262445d9a1b"},"vehicle_type_id":"4","last_reported":1686506871,"current_range_meters":8400,"station_id":"ce4bgh92rcd13ifvqb40","pricing_plan_id":"free"},{"bike_id":"a24965cc-4502-4409-92c1-4d2a0f2fd6ec","system_id":"levelo_inurba_marseille","lat":43.23149,"lon":5.39928,"is_reserved":false,"is_disabled":false,"rental_uris":{"android":"levelo://app?vid=a24965cc-4502-4409-92c1-4d2a0f2fd6ec","ios":"levelo://app?vid=a24965cc-4502-4409-92c1-4d2a0f2fd6ec"},"vehicle_type_id":"4","last_reported":1686506871,"current_range_meters":17200,"station_id":"","pricing_plan_id":"free"},{"bike_id":"61e4ccfd-dc98-4837-8123-2dfa5e087f42","system_id":"levelo_inurba_marseille","lat":43.293723,"lon":5.378443,"is_reserved":false,"is_disabled":false,"rental_uris":{"android":"levelo://app?vid=61e4ccfd-dc98-4837-8123-2dfa5e087f42","ios":"levelo://app?vid=61e4ccfd-dc98-4837-8123-2dfa5e087f42"},"vehicle_type_id":"4","last_reported":1686506871,"current_range_meters":0,"station_id":"","pricing_plan_id":"free"},{"bike_id":"c76d0970-2c9b-4cda-98d8-1476d87287d9","system_id":"levelo_inurba_marseille","lat":43.2936,"lon":5.37835,"is_reserved":false,"is_disabled":false,"rental_uris":{"android":"levelo://app?vid=c76d0970-2c9b-4cda-98d8-1476d87287d9","ios":"levelo://app?vid=c76d0970-2c9b-4cda-98d8-1476d87287d9"},"vehicle_type_id":"4","last_reported":1686506871,"current_range_meters":22800,"station_id":"ce4bgjh2rcd13ifvqbf0","pricing_plan_id":"free"},{"bike_id":"8643c785-db52-4667-8ecc-2ef40672994a","system_id":"levelo_inurba_marseille","lat":43.30085,"lon":5.390856,"is_reserved":false,"is_disabled":false,"rental_uris":{"android":"levelo://app?vid=8643c785-db52-4667-8ecc-2ef40672994a","ios":"levelo://app?vid=8643c785-db52-4667-8ecc-2ef40672994a"},"vehicle_type_id":"4","last_reported":1686506871,"current_range_meters":20800,"station_id":"ce4bh192rcd13ifvqdb0","pricing_plan_id":"free"},{"bike_id":"cc4c2383-1592-4452-b0ef-b818ce8e961f","system_id":"levelo_inurba_marseille","lat":43.291675,"lon":5.371583,"is_reserved":false,"is_disabled":false,"rental_uris":{"android":"levelo://app?vid=cc4c2383-1592-4452-b0ef-b818ce8e961f","ios":"levelo://app?vid=cc4c2383-1592-4452-b0ef-b818ce8e961f"},"vehicle_type_id":"4","last_reported":1686506871,"current_range_meters":11600,"station_id":"ce4bha92rcd13ifvqeh0","pricing_plan_id":"free"},{"bike_id":"42c4c0f3-2d96-4817-83bc-eceb6f592661","system_id":"levelo_inurba_marseille","lat":43.298764,"lon":5.388973,"is_reserved":false,"is_disabled":false,"rental_uris":{"android":"levelo://app?vid=42c4c0f3-2d96-4817-83bc-eceb6f592661","ios":"levelo://app?vid=42c4c0f3-2d96-4817-83bc-eceb6f592661"},"vehicle_type_id":"4","last_reported":1686506871,"current_range_meters":14400,"station_id":"ce4bh392rcd13ifvqdl0","pricing_plan_id":"free"},{"bike_id":"041dfb00-4810-44c6-b4b8-3867e0ec8af3","system_id":"levelo_inurba_marseille","lat":43.29161,"lon":5.37152,"is_reserved":false,"is_disabled":false,"rental_uris":{"android":"levelo://app?vid=041dfb00-4810-44c6-b4b8-3867e0ec8af3","ios":"levelo://app?vid=041dfb00-4810-44c6-b4b8-3867e0ec8af3"},"vehicle_type_id":"4","last_reported":1686506871,"current_range_meters":2400,"station_id":"ce4bha92rcd13ifvqeh0","pricing_plan_id":"free"},{"bike_id":"a2426796-ea4c-4707-9539-220d9b86d451","system_id":"levelo_inurba_marseille","lat":43.309038,"lon":5.396546,"is_reserved":false,"is_disabled":false,"rental_uris":{"android":"levelo://app?vid=a2426796-ea4c-4707-9539-220d9b86d451","ios":"levelo://app?vid=a2426796-ea4c-4707-9539-220d9b86d451"},"vehicle_type_id":"4","last_reported":1686506871,"current_range_meters":24000,"station_id":"ce4bh012rcd13ifvqcv0","pricing_plan_id":"free"},{"bike_id":"5fe1ece1-1420-4a55-aa3d-2761ffcfd2ef","system_id":"levelo_inurba_marseille","lat":43.313291,"lon":5.396838,"is_reserved":false,"is_disabled":false,"rental_uris":{"android":"levelo://app?vid=5fe1ece1-1420-4a55-aa3d-2761ffcfd2ef","ios":"levelo://app?vid=5fe1ece1-1420-4a55-aa3d-2761ffcfd2ef"},"vehicle_type_id":"4","last_reported":1686506871,"current_range_meters":400,"station_id":"ce4bgvp2rcd13ifvqcu0","pricing_plan_id":"free"},{"bike_id":"7eaea741-264f-42cb-af3f-0c9c8af0e4cc","system_id":"levelo_inurba_marseille","lat":43.302008,"lon":5.394694,"is_reserved":false,"is_disabled":false,"rental_uris":{"android":"levelo://app?vid=7eaea741-264f-42cb-af3f-0c9c8af0e4cc","ios":"levelo://app?vid=7eaea741-264f-42cb-af3f-0c9c8af0e4cc"},"vehicle_type_id":"4","last_reported":1686506871,"current_range_meters":7200,"station_id":"ce4bh0p2rcd13ifvqd70","pricing_plan_id":"free"},{"bike_id":"fcc9a846-9884-497a-8465-8c04646688bf","system_id":"levelo_inurba_marseille","lat":43.302008,"lon":5.394694,"is_reserved":false,"is_disabled":false,"rental_uris":{"android":"levelo://app?vid=fcc9a846-9884-497a-8465-8c04646688bf","ios":"levelo://app?vid=fcc9a846-9884-497a-8465-8c04646688bf"},"vehicle_type_id":"4","last_reported":1686506871,"current_range_meters":11600,"station_id":"ce4bh0p2rcd13ifvqd70","pricing_plan_id":"free"},{"bike_id":"d68dd334-257f-4d38-bad5-ed77196fd4bd","system_id":"levelo_inurba_marseille","lat":43.29338,"lon":5.3837,"is_reserved":false,"is_disabled":false,"rental_uris":{"android":"levelo://app?vid=d68dd334-257f-4d38-bad5-ed77196fd4bd","ios":"levelo://app?vid=d68dd334-257f-4d38-bad5-ed77196fd4bd"},"vehicle_type_id":"4","last_reported":1686506871,"current_range_meters":25200,"station_id":"","pricing_plan_id":"free"},{"bike_id":"a21b20de-680e-4db4-9bc7-b1cfcab218f9","system_id":"levelo_inurba_marseille","lat":43.294153,"lon":5.386305,"is_reserved":false,"is_disabled":false,"rental_uris":{"android":"levelo://app?vid=a21b20de-680e-4db4-9bc7-b1cfcab218f9","ios":"levelo://app?vid=a21b20de-680e-4db4-9bc7-b1cfcab218f9"},"vehicle_type_id":"4","last_reported":1686506871,"current_range_meters":0,"station_id":"ce4bh2h2rcd13ifvqdh0","pricing_plan_id":"free"},{"bike_id":"94347f18-b742-4153-aac7-ac667ab2f958","system_id":"levelo_inurba_marseille","lat":43.290327,"lon":5.375711,"is_reserved":false,"is_disabled":false,"rental_uris":{"android":"levelo://app?vid=94347f18-b742-4153-aac7-ac667ab2f958","ios":"levelo://app?vid=94347f18-b742-4153-aac7-ac667ab2f958"},"vehicle_type_id":"4","last_reported":1686506871,"current_range_meters":1200,"station_id":"ce4bh692rcd13ifvqe90","pricing_plan_id":"free"},{"bike_id":"c9ed2382-d98c-4db1-a85f-1e095076b8a6","system_id":"levelo_inurba_marseille","lat":43.294032,"lon":5.386342,"is_reserved":false,"is_disabled":false,"rental_uris":{"android":"levelo://app?vid=c9ed2382-d98c-4db1-a85f-1e095076b8a6","ios":"levelo://app?vid=c9ed2382-d98c-4db1-a85f-1e095076b8a6"},"vehicle_type_id":"4","last_reported":1686506871,"current_range_meters":19200,"station_id":"","pricing_plan_id":"free"},{"bike_id":"b232b08f-4d15-4779-99ee-35e94b69752d","system_id":"levelo_inurba_marseille","lat":43.29271,"lon":5.38446,"is_reserved":false,"is_disabled":false,"rental_uris":{"android":"levelo://app?vid=b232b08f-4d15-4779-99ee-35e94b69752d","ios":"levelo://app?vid=b232b08f-4d15-4779-99ee-35e94b69752d"},"vehicle_type_id":"4","last_reported":1686506871,"current_range_meters":21200,"station_id":"ce4bh692rcd13ifvqea0","pricing_plan_id":"free"},{"bike_id":"abc0475f-3910-4942-85e6-1c56cfb4b1ac","system_id":"levelo_inurba_marseille","lat":43.30284,"lon":5.39676,"is_reserved":false,"is_disabled":false,"rental_uris":{"android":"levelo://app?vid=abc0475f-3910-4942-85e6-1c56cfb4b1ac","ios":"levelo://app?vid=abc0475f-3910-4942-85e6-1c56cfb4b1ac"},"vehicle_type_id":"4","last_reported":1686506871,"current_range_meters":4800,"station_id":"","pricing_plan_id":"free"},{"bike_id":"e79eaf21-5af7-403d-bc9e-b944ce2d0149","system_id":"levelo_inurba_marseille","lat":43.29255,"lon":5.38446,"is_reserved":false,"is_disabled":false,"rental_uris":{"android":"levelo://app?vid=e79eaf21-5af7-403d-bc9e-b944ce2d0149","ios":"levelo://app?vid=e79eaf21-5af7-403d-bc9e-b944ce2d0149"},"vehicle_type_id":"4","last_reported":1686506871,"current_range_meters":30800,"station_id":"ce4bh692rcd13ifvqea0","pricing_plan_id":"free"},{"bike_id":"e9170bf1-c1d4-4557-956e-3de979f19338","system_id":"levelo_inurba_marseille","lat":43.290057,"lon":5.356213,"is_reserved":false,"is_disabled":false,"rental_uris":{"android":"levelo://app?vid=e9170bf1-c1d4-4557-956e-3de979f19338","ios":"levelo://app?vid=e9170bf1-c1d4-4557-956e-3de979f19338"},"vehicle_type_id":"4","last_reported":1686506871,"current_range_meters":8000,"station_id":"","pricing_plan_id":"free"},{"bike_id":"df49cd77-aac3-4d12-adc5-4823f5d010fa","system_id":"levelo_inurba_marseille","lat":43.289741,"lon":5.378306,"is_reserved":false,"is_disabled":false,"rental_uris":{"android":"levelo://app?vid=df49cd77-aac3-4d12-adc5-4823f5d010fa","ios":"levelo://app?vid=df49cd77-aac3-4d12-adc5-4823f5d010fa"},"vehicle_type_id":"4","last_reported":1686506871,"current_range_meters":16000,"station_id":"ce4bh9p2rcd13ifvqed0","pricing_plan_id":"free"},{"bike_id":"33875afd-a08a-4682-939f-5366054104df","system_id":"levelo_inurba_marseille","lat":43.29521,"lon":5.39029,"is_reserved":false,"is_disabled":false,"rental_uris":{"android":"levelo://app?vid=33875afd-a08a-4682-939f-5366054104df","ios":"levelo://app?vid=33875afd-a08a-4682-939f-5366054104df"},"vehicle_type_id":"4","last_reported":1686506871,"current_range_meters":25600,"station_id":"","pricing_plan_id":"free"},{"bike_id":"e97fc5f2-7f34-4f71-9eb2-ecc4fe18e442","system_id":"levelo_inurba_marseille","lat":43.29533,"lon":5.3905,"is_reserved":false,"is_disabled":false,"rental_uris":{"android":"levelo://app?vid=e97fc5f2-7f34-4f71-9eb2-ecc4fe18e442","ios":"levelo://app?vid=e97fc5f2-7f34-4f71-9eb2-ecc4fe18e442"},"vehicle_type_id":"4","last_reported":1686506871,"current_range_meters":15200,"station_id":"ce4bh3p2rcd13ifvqdp0","pricing_plan_id":"free"},{"bike_id":"72aa6ab2-4de0-4230-927c-32047969c58b","system_id":"levelo_inurba_marseille","lat":43.295169,"lon":5.390426,"is_reserved":false,"is_disabled":false,"rental_uris":{"android":"levelo://app?vid=72aa6ab2-4de0-4230-927c-32047969c58b","ios":"levelo://app?vid=72aa6ab2-4de0-4230-927c-32047969c58b"},"vehicle_type_id":"4","last_reported":1686506871,"current_range_meters":11600,"station_id":"ce4bh3p2rcd13ifvqdp0","pricing_plan_id":"free"},{"bike_id":"ff4bc481-a7e4-4b0d-a7b3-f4df358c54b7","system_id":"levelo_inurba_marseille","lat":43.295169,"lon":5.390426,"is_reserved":false,"is_disabled":false,"rental_uris":{"android":"levelo://app?vid=ff4bc481-a7e4-4b0d-a7b3-f4df358c54b7","ios":"levelo://app?vid=ff4bc481-a7e4-4b0d-a7b3-f4df358c54b7"},"vehicle_type_id":"4","last_reported":1686506871,"current_range_meters":24800,"station_id":"ce4bh3p2rcd13ifvqdp0","pricing_plan_id":"free"},{"bike_id":"2164db27-af8c-4c06-9ddb-2262981065d1","system_id":"levelo_inurba_marseille","lat":43.2901,"lon":5.381269,"is_reserved":false,"is_disabled":false,"rental_uris":{"android":"levelo://app?vid=2164db27-af8c-4c06-9ddb-2262981065d1","ios":"levelo://app?vid=2164db27-af8c-4c06-9ddb-2262981065d1"},"vehicle_type_id":"4","last_reported":1686506871,"current_range_meters":17200,"station_id":"ce4bh4p2rcd13ifvqe1g","pricing_plan_id":"free"},{"bike_id":"75b25c55-bcda-4948-9e89-e2c6c6be3595","system_id":"levelo_inurba_marseille","lat":43.28856,"lon":5.358371,"is_reserved":false,"is_disabled":false,"rental_uris":{"android":"levelo://app?vid=75b25c55-bcda-4948-9e89-e2c6c6be3595","ios":"levelo://app?vid=75b25c55-bcda-4948-9e89-e2c6c6be3595"},"vehicle_type_id":"4","last_reported":1686506871,"current_range_meters":17600,"station_id":"ce4bhb12rcd13ifvqem0","pricing_plan_id":"free"},{"bike_id":"265c0905-166c-408b-8d33-95a8e86424e1","system_id":"levelo_inurba_marseille","lat":43.337582,"lon":5.374483,"is_reserved":false,"is_disabled":false,"rental_uris":{"android":"levelo://app?vid=265c0905-166c-408b-8d33-95a8e86424e1","ios":"levelo://app?vid=265c0905-166c-408b-8d33-95a8e86424e1"},"vehicle_type_id":"4","last_reported":1686506871,"current_range_meters":11600,"station_id":"","pricing_plan_id":"free"},{"bike_id":"dc03ba51-5d22-4ed9-b3ed-9499a80f6bd0","system_id":"levelo_inurba_marseille","lat":43.33756,"lon":5.37464,"is_reserved":false,"is_disabled":false,"rental_uris":{"android":"levelo://app?vid=dc03ba51-5d22-4ed9-b3ed-9499a80f6bd0","ios":"levelo://app?vid=dc03ba51-5d22-4ed9-b3ed-9499a80f6bd0"},"vehicle_type_id":"4","last_reported":1686506871,"current_range_meters":30400,"station_id":"","pricing_plan_id":"free"},{"bike_id":"7b92bb4e-c37f-408a-b8c5-8d9651549545","system_id":"levelo_inurba_marseille","lat":43.33769,"lon":5.37431,"is_reserved":false,"is_disabled":false,"rental_uris":{"android":"levelo://app?vid=7b92bb4e-c37f-408a-b8c5-8d9651549545","ios":"levelo://app?vid=7b92bb4e-c37f-408a-b8c5-8d9651549545"},"vehicle_type_id":"4","last_reported":1686506871,"current_range_meters":19600,"station_id":"","pricing_plan_id":"free"},{"bike_id":"fb041ec1-b611-46eb-9d8b-3229cfb3396a","system_id":"levelo_inurba_marseille","lat":43.33768,"lon":5.37459,"is_reserved":false,"is_disabled":false,"rental_uris":{"android":"levelo://app?vid=fb041ec1-b611-46eb-9d8b-3229cfb3396a","ios":"levelo://app?vid=fb041ec1-b611-46eb-9d8b-3229cfb3396a"},"vehicle_type_id":"4","last_reported":1686506871,"current_range_meters":18800,"station_id":"","pricing_plan_id":"free"},{"bike_id":"83e120eb-e7da-465b-a86b-5eb6bd0ef45b","system_id":"levelo_inurba_marseille","lat":43.306412,"lon":5.401035,"is_reserved":false,"is_disabled":false,"rental_uris":{"android":"levelo://app?vid=83e120eb-e7da-465b-a86b-5eb6bd0ef45b","ios":"levelo://app?vid=83e120eb-e7da-465b-a86b-5eb6bd0ef45b"},"vehicle_type_id":"4","last_reported":1686506871,"current_range_meters":0,"station_id":"ce4bh112rcd13ifvqda0","pricing_plan_id":"free"},{"bike_id":"e0f69aba-280a-488e-aefa-0ab620276f3b","system_id":"levelo_inurba_marseille","lat":43.301117,"lon":5.398795,"is_reserved":false,"is_disabled":false,"rental_uris":{"android":"levelo://app?vid=e0f69aba-280a-488e-aefa-0ab620276f3b","ios":"levelo://app?vid=e0f69aba-280a-488e-aefa-0ab620276f3b"},"vehicle_type_id":"4","last_reported":1686506871,"current_range_meters":16400,"station_id":"ce4bh0h2rcd13ifvqd40","pricing_plan_id":"free"},{"bike_id":"a52d06f2-b7fc-4686-b72e-507f43c94998","system_id":"levelo_inurba_marseille","lat":43.298681,"lon":5.397225,"is_reserved":false,"is_disabled":false,"rental_uris":{"android":"levelo://app?vid=a52d06f2-b7fc-4686-b72e-507f43c94998","ios":"levelo://app?vid=a52d06f2-b7fc-4686-b72e-507f43c94998"},"vehicle_type_id":"4","last_reported":1686506871,"current_range_meters":11600,"station_id":"ce4bh0h2rcd13ifvqd50","pricing_plan_id":"free"},{"bike_id":"beaec097-b72d-453a-9fdf-5554777042c4","system_id":"levelo_inurba_marseille","lat":43.29869,"lon":5.39734,"is_reserved":false,"is_disabled":false,"rental_uris":{"android":"levelo://app?vid=beaec097-b72d-453a-9fdf-5554777042c4","ios":"levelo://app?vid=beaec097-b72d-453a-9fdf-5554777042c4"},"vehicle_type_id":"4","last_reported":1686506871,"current_range_meters":21200,"station_id":"ce4bh0h2rcd13ifvqd50","pricing_plan_id":"free"},{"bike_id":"f2cd7d37-14f3-417d-8fd3-319ba51a618f","system_id":"levelo_inurba_marseille","lat":43.29874,"lon":5.39743,"is_reserved":false,"is_disabled":false,"rental_uris":{"android":"levelo://app?vid=f2cd7d37-14f3-417d-8fd3-319ba51a618f","ios":"levelo://app?vid=f2cd7d37-14f3-417d-8fd3-319ba51a618f"},"vehicle_type_id":"4","last_reported":1686506871,"current_range_meters":12000,"station_id":"ce4bh0h2rcd13ifvqd50","pricing_plan_id":"free"},{"bike_id":"4abdf431-1e69-4429-9178-6e1817b57e76","system_id":"levelo_inurba_marseille","lat":43.28698,"lon":5.37392,"is_reserved":false,"is_disabled":false,"rental_uris":{"android":"levelo://app?vid=4abdf431-1e69-4429-9178-6e1817b57e76","ios":"levelo://app?vid=4abdf431-1e69-4429-9178-6e1817b57e76"},"vehicle_type_id":"4","last_reported":1686506871,"current_range_meters":14400,"station_id":"","pricing_plan_id":"free"},{"bike_id":"eaff81ab-ffb6-4885-abee-eb8a54febaef","system_id":"levelo_inurba_marseille","lat":43.28697,"lon":5.37394,"is_reserved":false,"is_disabled":false,"rental_uris":{"android":"levelo://app?vid=eaff81ab-ffb6-4885-abee-eb8a54febaef","ios":"levelo://app?vid=eaff81ab-ffb6-4885-abee-eb8a54febaef"},"vehicle_type_id":"4","last_reported":1686506871,"current_range_meters":6000,"station_id":"","pricing_plan_id":"free"},{"bike_id":"8cbf3ba5-fca2-4799-a69a-212af1120239","system_id":"levelo_inurba_marseille","lat":43.29521,"lon":5.39399,"is_reserved":false,"is_disabled":false,"rental_uris":{"android":"levelo://app?vid=8cbf3ba5-fca2-4799-a69a-212af1120239","ios":"levelo://app?vid=8cbf3ba5-fca2-4799-a69a-212af1120239"},"vehicle_type_id":"4","last_reported":1686506871,"current_range_meters":28800,"station_id":"ce4bh292rcd13ifvqdf0","pricing_plan_id":"free"},{"bike_id":"ba14619a-4444-4984-88fb-41a94bb769d2","system_id":"levelo_inurba_marseille","lat":43.295196,"lon":5.39397,"is_reserved":false,"is_disabled":false,"rental_uris":{"android":"levelo://app?vid=ba14619a-4444-4984-88fb-41a94bb769d2","ios":"levelo://app?vid=ba14619a-4444-4984-88fb-41a94bb769d2"},"vehicle_type_id":"4","last_reported":1686506871,"current_range_meters":31200,"station_id":"ce4bh292rcd13ifvqdf0","pricing_plan_id":"free"},{"bike_id":"e72c255a-3e0d-461b-83ac-3a433a8f846c","system_id":"levelo_inurba_marseille","lat":43.295196,"lon":5.39397,"is_reserved":false,"is_disabled":false,"rental_uris":{"android":"levelo://app?vid=e72c255a-3e0d-461b-83ac-3a433a8f846c","ios":"levelo://app?vid=e72c255a-3e0d-461b-83ac-3a433a8f846c"},"vehicle_type_id":"4","last_reported":1686506871,"current_range_meters":27200,"station_id":"ce4bh292rcd13ifvqdf0","pricing_plan_id":"free"},{"bike_id":"f05ce419-04a0-459a-8f90-fe65c72fa6b4","system_id":"levelo_inurba_marseille","lat":43.295194,"lon":5.39397,"is_reserved":false,"is_disabled":false,"rental_uris":{"android":"levelo://app?vid=f05ce419-04a0-459a-8f90-fe65c72fa6b4","ios":"levelo://app?vid=f05ce419-04a0-459a-8f90-fe65c72fa6b4"},"vehicle_type_id":"4","last_reported":1686506871,"current_range_meters":31600,"station_id":"ce4bh292rcd13ifvqdf0","pricing_plan_id":"free"},{"bike_id":"6ebd2b7f-8821-4508-b6a2-f8801af52fe6","system_id":"levelo_inurba_marseille","lat":43.290336,"lon":5.386425,"is_reserved":false,"is_disabled":false,"rental_uris":{"android":"levelo://app?vid=6ebd2b7f-8821-4508-b6a2-f8801af52fe6","ios":"levelo://app?vid=6ebd2b7f-8821-4508-b6a2-f8801af52fe6"},"vehicle_type_id":"4","last_reported":1686506871,"current_range_meters":20000,"station_id":"ce4bh4p2rcd13ifvqe0g","pricing_plan_id":"free"},{"bike_id":"5f7ee111-d0d7-4c6b-b1f5-21bd7faefa50","system_id":"levelo_inurba_marseille","lat":43.286039,"lon":5.370681,"is_reserved":false,"is_disabled":false,"rental_uris":{"android":"levelo://app?vid=5f7ee111-d0d7-4c6b-b1f5-21bd7faefa50","ios":"levelo://app?vid=5f7ee111-d0d7-4c6b-b1f5-21bd7faefa50"},"vehicle_type_id":"4","last_reported":1686506871,"current_range_meters":18400,"station_id":"ce4bht12rcd13ifvqi60","pricing_plan_id":"free"},{"bike_id":"3ccd0029-db2d-478b-91f2-e7f666a8cc12","system_id":"levelo_inurba_marseille","lat":43.286039,"lon":5.370679,"is_reserved":false,"is_disabled":false,"rental_uris":{"android":"levelo://app?vid=3ccd0029-db2d-478b-91f2-e7f666a8cc12","ios":"levelo://app?vid=3ccd0029-db2d-478b-91f2-e7f666a8cc12"},"vehicle_type_id":"4","last_reported":1686506871,"current_range_meters":30400,"station_id":"ce4bht12rcd13ifvqi60","pricing_plan_id":"free"},{"bike_id":"eff298ea-3fe5-4d73-a93f-7384cf88b79d","system_id":"levelo_inurba_marseille","lat":43.316517,"lon":5.404375,"is_reserved":false,"is_disabled":false,"rental_uris":{"android":"levelo://app?vid=eff298ea-3fe5-4d73-a93f-7384cf88b79d","ios":"levelo://app?vid=eff298ea-3fe5-4d73-a93f-7384cf88b79d"},"vehicle_type_id":"4","last_reported":1686506871,"current_range_meters":28800,"station_id":"ce4bh012rcd13ifvqd00","pricing_plan_id":"free"},{"bike_id":"e78b12af-5619-41f3-bbec-8cc9b488d0c9","system_id":"levelo_inurba_marseille","lat":43.2862,"lon":5.37753,"is_reserved":false,"is_disabled":false,"rental_uris":{"android":"levelo://app?vid=e78b12af-5619-41f3-bbec-8cc9b488d0c9","ios":"levelo://app?vid=e78b12af-5619-41f3-bbec-8cc9b488d0c9"},"vehicle_type_id":"4","last_reported":1686506871,"current_range_meters":22800,"station_id":"ce4bha12rcd13ifvqee0","pricing_plan_id":"free"},{"bike_id":"07fdd42e-f1d7-4d54-8195-e03ae853b6c7","system_id":"levelo_inurba_marseille","lat":43.29203,"lon":5.39328,"is_reserved":false,"is_disabled":false,"rental_uris":{"android":"levelo://app?vid=07fdd42e-f1d7-4d54-8195-e03ae853b6c7","ios":"levelo://app?vid=07fdd42e-f1d7-4d54-8195-e03ae853b6c7"},"vehicle_type_id":"4","last_reported":1686506871,"current_range_meters":1200,"station_id":"","pricing_plan_id":"free"},{"bike_id":"71c136a9-23ab-4eb0-a675-8c0ce0a4daf4","system_id":"levelo_inurba_marseille","lat":43.29192,"lon":5.39324,"is_reserved":false,"is_disabled":false,"rental_uris":{"android":"levelo://app?vid=71c136a9-23ab-4eb0-a675-8c0ce0a4daf4","ios":"levelo://app?vid=71c136a9-23ab-4eb0-a675-8c0ce0a4daf4"},"vehicle_type_id":"4","last_reported":1686506871,"current_range_meters":16000,"station_id":"","pricing_plan_id":"free"},{"bike_id":"5fef70ac-fec2-4de4-af00-27344f77db02","system_id":"levelo_inurba_marseille","lat":43.291994,"lon":5.392907,"is_reserved":false,"is_disabled":false,"rental_uris":{"android":"levelo://app?vid=5fef70ac-fec2-4de4-af00-27344f77db02","ios":"levelo://app?vid=5fef70ac-fec2-4de4-af00-27344f77db02"},"vehicle_type_id":"4","last_reported":1686506871,"current_range_meters":3600,"station_id":"ce4bh192rcd13ifvqdd0","pricing_plan_id":"free"},{"bike_id":"0b89d82f-c3cd-41c8-885b-31bdcd9d1d0d","system_id":"levelo_inurba_marseille","lat":43.295713,"lon":5.399639,"is_reserved":false,"is_disabled":false,"rental_uris":{"android":"levelo://app?vid=0b89d82f-c3cd-41c8-885b-31bdcd9d1d0d","ios":"levelo://app?vid=0b89d82f-c3cd-41c8-885b-31bdcd9d1d0d"},"vehicle_type_id":"4","last_reported":1686506871,"current_range_meters":4000,"station_id":"ce4bh312rcd13ifvqdj0","pricing_plan_id":"free"},{"bike_id":"b95f81e1-5592-4270-b090-6699a81784ec","system_id":"levelo_inurba_marseille","lat":43.295713,"lon":5.399639,"is_reserved":false,"is_disabled":false,"rental_uris":{"android":"levelo://app?vid=b95f81e1-5592-4270-b090-6699a81784ec","ios":"levelo://app?vid=b95f81e1-5592-4270-b090-6699a81784ec"},"vehicle_type_id":"4","last_reported":1686506871,"current_range_meters":4800,"station_id":"ce4bh312rcd13ifvqdj0","pricing_plan_id":"free"},{"bike_id":"a01757e3-df67-4b12-9ed1-b716c2fa2a4c","system_id":"levelo_inurba_marseille","lat":43.296263,"lon":5.40601,"is_reserved":false,"is_disabled":false,"rental_uris":{"android":"levelo://app?vid=a01757e3-df67-4b12-9ed1-b716c2fa2a4c","ios":"levelo://app?vid=a01757e3-df67-4b12-9ed1-b716c2fa2a4c"},"vehicle_type_id":"4","last_reported":1686506871,"current_range_meters":20000,"station_id":"ce4bh0h2rcd13ifvqd60","pricing_plan_id":"free"},{"bike_id":"df76a7f0-d50c-446a-92ae-fbd371fa58d8","system_id":"levelo_inurba_marseille","lat":43.295713,"lon":5.399639,"is_reserved":false,"is_disabled":false,"rental_uris":{"android":"levelo://app?vid=df76a7f0-d50c-446a-92ae-fbd371fa58d8","ios":"levelo://app?vid=df76a7f0-d50c-446a-92ae-fbd371fa58d8"},"vehicle_type_id":"4","last_reported":1686506871,"current_range_meters":26000,"station_id":"ce4bh312rcd13ifvqdj0","pricing_plan_id":"free"},{"bike_id":"1a68c28c-407b-4404-8de1-7f3f883eec7e","system_id":"levelo_inurba_marseille","lat":43.295713,"lon":5.399639,"is_reserved":false,"is_disabled":false,"rental_uris":{"android":"levelo://app?vid=1a68c28c-407b-4404-8de1-7f3f883eec7e","ios":"levelo://app?vid=1a68c28c-407b-4404-8de1-7f3f883eec7e"},"vehicle_type_id":"4","last_reported":1686506871,"current_range_meters":14800,"station_id":"ce4bh312rcd13ifvqdj0","pricing_plan_id":"free"},{"bike_id":"ff710ced-6a55-46dc-b29d-7b8e6952c21e","system_id":"levelo_inurba_marseille","lat":43.286595,"lon":5.386795,"is_reserved":false,"is_disabled":false,"rental_uris":{"android":"levelo://app?vid=ff710ced-6a55-46dc-b29d-7b8e6952c21e","ios":"levelo://app?vid=ff710ced-6a55-46dc-b29d-7b8e6952c21e"},"vehicle_type_id":"4","last_reported":1686506871,"current_range_meters":2000,"station_id":"ce4bh492rcd13ifvqdug","pricing_plan_id":"free"},{"bike_id":"94783ff9-d63f-4314-a42f-617e764a1b17","system_id":"levelo_inurba_marseille","lat":43.28543,"lon":5.35032,"is_reserved":false,"is_disabled":false,"rental_uris":{"android":"levelo://app?vid=94783ff9-d63f-4314-a42f-617e764a1b17","ios":"levelo://app?vid=94783ff9-d63f-4314-a42f-617e764a1b17"},"vehicle_type_id":"4","last_reported":1686506871,"current_range_meters":8800,"station_id":"ce4bhbh2rcd13ifvqepg","pricing_plan_id":"free"},{"bike_id":"f0eeb637-cbe8-438c-95a5-550e2ea3da45","system_id":"levelo_inurba_marseille","lat":43.290327,"lon":5.375711,"is_reserved":false,"is_disabled":false,"rental_uris":{"android":"levelo://app?vid=f0eeb637-cbe8-438c-95a5-550e2ea3da45","ios":"levelo://app?vid=f0eeb637-cbe8-438c-95a5-550e2ea3da45"},"vehicle_type_id":"4","last_reported":1686506871,"current_range_meters":22800,"station_id":"ce4bh692rcd13ifvqe90","pricing_plan_id":"free"},{"bike_id":"5d501cb1-669d-44db-8610-1e2383559f92","system_id":"levelo_inurba_marseille","lat":43.323464,"lon":5.406297,"is_reserved":false,"is_disabled":false,"rental_uris":{"android":"levelo://app?vid=5d501cb1-669d-44db-8610-1e2383559f92","ios":"levelo://app?vid=5d501cb1-669d-44db-8610-1e2383559f92"},"vehicle_type_id":"4","last_reported":1686506871,"current_range_meters":31600,"station_id":"ce4bhq92rcd13ifvqhjg","pricing_plan_id":"free"},{"bike_id":"9eda130d-4192-4a71-9d9c-af5cb0ce2ffb","system_id":"levelo_inurba_marseille","lat":43.284793,"lon":5.384113,"is_reserved":false,"is_disabled":false,"rental_uris":{"android":"levelo://app?vid=9eda130d-4192-4a71-9d9c-af5cb0ce2ffb","ios":"levelo://app?vid=9eda130d-4192-4a71-9d9c-af5cb0ce2ffb"},"vehicle_type_id":"4","last_reported":1686506871,"current_range_meters":0,"station_id":"ce4bh512rcd13ifvqe3g","pricing_plan_id":"free"},{"bike_id":"41f2d7a2-80eb-41ae-97f7-2bff0670eda4","system_id":"levelo_inurba_marseille","lat":43.323464,"lon":5.406297,"is_reserved":false,"is_disabled":false,"rental_uris":{"android":"levelo://app?vid=41f2d7a2-80eb-41ae-97f7-2bff0670eda4","ios":"levelo://app?vid=41f2d7a2-80eb-41ae-97f7-2bff0670eda4"},"vehicle_type_id":"4","last_reported":1686506871,"current_range_meters":10800,"station_id":"ce4bhq92rcd13ifvqhjg","pricing_plan_id":"free"},{"bike_id":"7d89e3b5-958d-47f6-80fa-adc2175a1ff9","system_id":"levelo_inurba_marseille","lat":43.323464,"lon":5.406297,"is_reserved":false,"is_disabled":false,"rental_uris":{"android":"levelo://app?vid=7d89e3b5-958d-47f6-80fa-adc2175a1ff9","ios":"levelo://app?vid=7d89e3b5-958d-47f6-80fa-adc2175a1ff9"},"vehicle_type_id":"4","last_reported":1686506871,"current_range_meters":30400,"station_id":"ce4bhq92rcd13ifvqhjg","pricing_plan_id":"free"},{"bike_id":"ba019977-f266-49f9-b8c0-4ba8e8943bc1","system_id":"levelo_inurba_marseille","lat":43.323464,"lon":5.406297,"is_reserved":false,"is_disabled":false,"rental_uris":{"android":"levelo://app?vid=ba019977-f266-49f9-b8c0-4ba8e8943bc1","ios":"levelo://app?vid=ba019977-f266-49f9-b8c0-4ba8e8943bc1"},"vehicle_type_id":"4","last_reported":1686506871,"current_range_meters":29200,"station_id":"ce4bhq92rcd13ifvqhjg","pricing_plan_id":"free"},{"bike_id":"27534a1e-2306-4f0f-ae01-c0f1f95acd1f","system_id":"levelo_inurba_marseille","lat":43.323464,"lon":5.406297,"is_reserved":false,"is_disabled":false,"rental_uris":{"android":"levelo://app?vid=27534a1e-2306-4f0f-ae01-c0f1f95acd1f","ios":"levelo://app?vid=27534a1e-2306-4f0f-ae01-c0f1f95acd1f"},"vehicle_type_id":"4","last_reported":1686506871,"current_range_meters":6800,"station_id":"ce4bhq92rcd13ifvqhjg","pricing_plan_id":"free"},{"bike_id":"f4decb66-7736-4eda-865e-f800c4331593","system_id":"levelo_inurba_marseille","lat":43.284793,"lon":5.384113,"is_reserved":false,"is_disabled":false,"rental_uris":{"android":"levelo://app?vid=f4decb66-7736-4eda-865e-f800c4331593","ios":"levelo://app?vid=f4decb66-7736-4eda-865e-f800c4331593"},"vehicle_type_id":"4","last_reported":1686506871,"current_range_meters":12400,"station_id":"ce4bh512rcd13ifvqe3g","pricing_plan_id":"free"},{"bike_id":"3ca3393b-15d5-4ebb-bbc2-9f00fd75304f","system_id":"levelo_inurba_marseille","lat":43.288497,"lon":5.393089,"is_reserved":false,"is_disabled":false,"rental_uris":{"android":"levelo://app?vid=3ca3393b-15d5-4ebb-bbc2-9f00fd75304f","ios":"levelo://app?vid=3ca3393b-15d5-4ebb-bbc2-9f00fd75304f"},"vehicle_type_id":"4","last_reported":1686506871,"current_range_meters":29200,"station_id":"ce4bh2p2rcd13ifvqdi0","pricing_plan_id":"free"},{"bike_id":"7bbe7c19-359d-4d00-9215-0d52c937c26a","system_id":"levelo_inurba_marseille","lat":43.288501,"lon":5.393087,"is_reserved":false,"is_disabled":false,"rental_uris":{"android":"levelo://app?vid=7bbe7c19-359d-4d00-9215-0d52c937c26a","ios":"levelo://app?vid=7bbe7c19-359d-4d00-9215-0d52c937c26a"},"vehicle_type_id":"4","last_reported":1686506871,"current_range_meters":14400,"station_id":"ce4bh2p2rcd13ifvqdi0","pricing_plan_id":"free"},{"bike_id":"84de4887-79bd-43bc-be43-baee9e4fe0ec","system_id":"levelo_inurba_marseille","lat":43.283494,"lon":5.380945,"is_reserved":false,"is_disabled":false,"rental_uris":{"android":"levelo://app?vid=84de4887-79bd-43bc-be43-baee9e4fe0ec","ios":"levelo://app?vid=84de4887-79bd-43bc-be43-baee9e4fe0ec"},"vehicle_type_id":"4","last_reported":1686506871,"current_range_meters":0,"station_id":"ce4bh412rcd13ifvqdr0","pricing_plan_id":"free"},{"bike_id":"2c858e0d-7c5b-421a-b614-acf886692536","system_id":"levelo_inurba_marseille","lat":43.283498,"lon":5.380948,"is_reserved":false,"is_disabled":false,"rental_uris":{"android":"levelo://app?vid=2c858e0d-7c5b-421a-b614-acf886692536","ios":"levelo://app?vid=2c858e0d-7c5b-421a-b614-acf886692536"},"vehicle_type_id":"4","last_reported":1686506871,"current_range_meters":8400,"station_id":"ce4bh412rcd13ifvqdr0","pricing_plan_id":"free"},{"bike_id":"e55cd631-4b87-4271-a189-185fa5411a5f","system_id":"levelo_inurba_marseille","lat":43.28456,"lon":5.38467,"is_reserved":false,"is_disabled":false,"rental_uris":{"android":"levelo://app?vid=e55cd631-4b87-4271-a189-185fa5411a5f","ios":"levelo://app?vid=e55cd631-4b87-4271-a189-185fa5411a5f"},"vehicle_type_id":"4","last_reported":1686506871,"current_range_meters":28400,"station_id":"","pricing_plan_id":"free"},{"bike_id":"21b4f291-d792-40ae-ba96-7e88d54430df","system_id":"levelo_inurba_marseille","lat":43.292724,"lon":5.401131,"is_reserved":false,"is_disabled":false,"rental_uris":{"android":"levelo://app?vid=21b4f291-d792-40ae-ba96-7e88d54430df","ios":"levelo://app?vid=21b4f291-d792-40ae-ba96-7e88d54430df"},"vehicle_type_id":"4","last_reported":1686506871,"current_range_meters":24400,"station_id":"ce4bh312rcd13ifvqdk0","pricing_plan_id":"free"},{"bike_id":"36d63b54-054d-4f6f-b3a9-cdeee27fc211","system_id":"levelo_inurba_marseille","lat":43.28039,"lon":5.369297,"is_reserved":false,"is_disabled":false,"rental_uris":{"android":"levelo://app?vid=36d63b54-054d-4f6f-b3a9-cdeee27fc211","ios":"levelo://app?vid=36d63b54-054d-4f6f-b3a9-cdeee27fc211"},"vehicle_type_id":"4","last_reported":1686506871,"current_range_meters":800,"station_id":"ce4bha12rcd13ifvqef0","pricing_plan_id":"free"},{"bike_id":"8e5635d5-1b1e-4d82-8734-04c2ca1e91c9","system_id":"levelo_inurba_marseille","lat":43.290412,"lon":5.399633,"is_reserved":false,"is_disabled":false,"rental_uris":{"android":"levelo://app?vid=8e5635d5-1b1e-4d82-8734-04c2ca1e91c9","ios":"levelo://app?vid=8e5635d5-1b1e-4d82-8734-04c2ca1e91c9"},"vehicle_type_id":"4","last_reported":1686506871,"current_range_meters":24400,"station_id":"ce4bh392rcd13ifvqdm0","pricing_plan_id":"free"},{"bike_id":"f583957c-c41e-4600-88ee-1e4f40b50284","system_id":"levelo_inurba_marseille","lat":43.281044,"lon":5.378308,"is_reserved":false,"is_disabled":false,"rental_uris":{"android":"levelo://app?vid=f583957c-c41e-4600-88ee-1e4f40b50284","ios":"levelo://app?vid=f583957c-c41e-4600-88ee-1e4f40b50284"},"vehicle_type_id":"4","last_reported":1686506871,"current_range_meters":2000,"station_id":"ce4bha12rcd13ifvqee0","pricing_plan_id":"free"},{"bike_id":"b9174737-93db-4dd6-974f-29fddc15f547","system_id":"levelo_inurba_marseille","lat":43.28104,"lon":5.37849,"is_reserved":false,"is_disabled":false,"rental_uris":{"android":"levelo://app?vid=b9174737-93db-4dd6-974f-29fddc15f547","ios":"levelo://app?vid=b9174737-93db-4dd6-974f-29fddc15f547"},"vehicle_type_id":"4","last_reported":1686506871,"current_range_meters":31200,"station_id":"ce4bha12rcd13ifvqee0","pricing_plan_id":"free"},{"bike_id":"8d956d6f-e46a-49a5-ae67-ae2ef943bab9","system_id":"levelo_inurba_marseille","lat":43.28103,"lon":5.37846,"is_reserved":false,"is_disabled":false,"rental_uris":{"android":"levelo://app?vid=8d956d6f-e46a-49a5-ae67-ae2ef943bab9","ios":"levelo://app?vid=8d956d6f-e46a-49a5-ae67-ae2ef943bab9"},"vehicle_type_id":"4","last_reported":1686506871,"current_range_meters":31200,"station_id":"ce4bha12rcd13ifvqee0","pricing_plan_id":"free"},{"bike_id":"795b2a56-a1a0-4ff1-8750-6f763471d865","system_id":"levelo_inurba_marseille","lat":43.28573,"lon":5.394992,"is_reserved":false,"is_disabled":false,"rental_uris":{"android":"levelo://app?vid=795b2a56-a1a0-4ff1-8750-6f763471d865","ios":"levelo://app?vid=795b2a56-a1a0-4ff1-8750-6f763471d865"},"vehicle_type_id":"4","last_reported":1686506871,"current_range_meters":24000,"station_id":"ce4bh292rcd13ifvqdg0","pricing_plan_id":"free"},{"bike_id":"bdcf492a-57ef-4c5b-8bd3-c41d9e6341cf","system_id":"levelo_inurba_marseille","lat":43.285742,"lon":5.395004,"is_reserved":false,"is_disabled":false,"rental_uris":{"android":"levelo://app?vid=bdcf492a-57ef-4c5b-8bd3-c41d9e6341cf","ios":"levelo://app?vid=bdcf492a-57ef-4c5b-8bd3-c41d9e6341cf"},"vehicle_type_id":"4","last_reported":1686506871,"current_range_meters":0,"station_id":"ce4bh292rcd13ifvqdg0","pricing_plan_id":"free"},{"bike_id":"10cd2aa0-a2de-4dc1-b57a-357ab96712e6","system_id":"levelo_inurba_marseille","lat":43.320045,"lon":5.415046,"is_reserved":false,"is_disabled":false,"rental_uris":{"android":"levelo://app?vid=10cd2aa0-a2de-4dc1-b57a-357ab96712e6","ios":"levelo://app?vid=10cd2aa0-a2de-4dc1-b57a-357ab96712e6"},"vehicle_type_id":"4","last_reported":1686506871,"current_range_meters":18000,"station_id":"ce4bhq92rcd13ifvqhkg","pricing_plan_id":"free"},{"bike_id":"ce0aa8c7-35e9-4b79-bdd4-a0da521e2a96","system_id":"levelo_inurba_marseille","lat":43.320045,"lon":5.415046,"is_reserved":false,"is_disabled":false,"rental_uris":{"android":"levelo://app?vid=ce0aa8c7-35e9-4b79-bdd4-a0da521e2a96","ios":"levelo://app?vid=ce0aa8c7-35e9-4b79-bdd4-a0da521e2a96"},"vehicle_type_id":"4","last_reported":1686506871,"current_range_meters":31200,"station_id":"ce4bhq92rcd13ifvqhkg","pricing_plan_id":"free"},{"bike_id":"abecd1c5-3044-4da0-90d5-520110b8e94d","system_id":"levelo_inurba_marseille","lat":43.292569,"lon":5.409107,"is_reserved":false,"is_disabled":false,"rental_uris":{"android":"levelo://app?vid=abecd1c5-3044-4da0-90d5-520110b8e94d","ios":"levelo://app?vid=abecd1c5-3044-4da0-90d5-520110b8e94d"},"vehicle_type_id":"4","last_reported":1686506871,"current_range_meters":13200,"station_id":"ce4bh192rcd13ifvqdc0","pricing_plan_id":"free"},{"bike_id":"192f750b-320b-467f-9555-224aa35f96ff","system_id":"levelo_inurba_marseille","lat":43.27618,"lon":5.361009,"is_reserved":false,"is_disabled":false,"rental_uris":{"android":"levelo://app?vid=192f750b-320b-467f-9555-224aa35f96ff","ios":"levelo://app?vid=192f750b-320b-467f-9555-224aa35f96ff"},"vehicle_type_id":"4","last_reported":1686506871,"current_range_meters":21600,"station_id":"ce4bgj92rcd13ifvqbe0","pricing_plan_id":"free"},{"bike_id":"28b3fb03-12f5-4103-8f5a-2b1bb3987b88","system_id":"levelo_inurba_marseille","lat":43.280784,"lon":5.396622,"is_reserved":false,"is_disabled":false,"rental_uris":{"android":"levelo://app?vid=28b3fb03-12f5-4103-8f5a-2b1bb3987b88","ios":"levelo://app?vid=28b3fb03-12f5-4103-8f5a-2b1bb3987b88"},"vehicle_type_id":"4","last_reported":1686506871,"current_range_meters":1200,"station_id":"ce4bho12rcd13ifvqh2g","pricing_plan_id":"free"},{"bike_id":"0041724c-111a-49a2-8a13-2cf8d3f31a33","system_id":"levelo_inurba_marseille","lat":43.336134,"lon":5.410341,"is_reserved":false,"is_disabled":false,"rental_uris":{"android":"levelo://app?vid=0041724c-111a-49a2-8a13-2cf8d3f31a33","ios":"levelo://app?vid=0041724c-111a-49a2-8a13-2cf8d3f31a33"},"vehicle_type_id":"4","last_reported":1686506871,"current_range_meters":9600,"station_id":"ce4bhqh2rcd13ifvqhmg","pricing_plan_id":"free"},{"bike_id":"765578fc-e5da-46be-9f39-31aa6cb556f9","system_id":"levelo_inurba_marseille","lat":43.278399,"lon":5.392139,"is_reserved":false,"is_disabled":false,"rental_uris":{"android":"levelo://app?vid=765578fc-e5da-46be-9f39-31aa6cb556f9","ios":"levelo://app?vid=765578fc-e5da-46be-9f39-31aa6cb556f9"},"vehicle_type_id":"4","last_reported":1686506871,"current_range_meters":1200,"station_id":"ce4bhjp2rcd13ifvqga0","pricing_plan_id":"free"},{"bike_id":"5d9c18e7-e61f-4c9b-a878-8c0dbed55fad","system_id":"levelo_inurba_marseille","lat":43.273613,"lon":5.362705,"is_reserved":false,"is_disabled":false,"rental_uris":{"android":"levelo://app?vid=5d9c18e7-e61f-4c9b-a878-8c0dbed55fad","ios":"levelo://app?vid=5d9c18e7-e61f-4c9b-a878-8c0dbed55fad"},"vehicle_type_id":"4","last_reported":1686506871,"current_range_meters":32000,"station_id":"ce4bhbh2rcd13ifvqeo0","pricing_plan_id":"free"},{"bike_id":"19e1df7e-0428-428f-9c0d-d5d504c42f17","system_id":"levelo_inurba_marseille","lat":43.27373,"lon":5.36246,"is_reserved":false,"is_disabled":false,"rental_uris":{"android":"levelo://app?vid=19e1df7e-0428-428f-9c0d-d5d504c42f17","ios":"levelo://app?vid=19e1df7e-0428-428f-9c0d-d5d504c42f17"},"vehicle_type_id":"4","last_reported":1686506871,"current_range_meters":0,"station_id":"ce4bhbh2rcd13ifvqeo0","pricing_plan_id":"free"},{"bike_id":"39612b5b-e1ea-497b-85ad-4772551df064","system_id":"levelo_inurba_marseille","lat":43.336134,"lon":5.410341,"is_reserved":false,"is_disabled":false,"rental_uris":{"android":"levelo://app?vid=39612b5b-e1ea-497b-85ad-4772551df064","ios":"levelo://app?vid=39612b5b-e1ea-497b-85ad-4772551df064"},"vehicle_type_id":"4","last_reported":1686506871,"current_range_meters":24800,"station_id":"ce4bhqh2rcd13ifvqhmg","pricing_plan_id":"free"},{"bike_id":"c32d9a17-b4ba-47a1-b2dc-974b8a4f3c9c","system_id":"levelo_inurba_marseille","lat":43.336134,"lon":5.410341,"is_reserved":false,"is_disabled":false,"rental_uris":{"android":"levelo://app?vid=c32d9a17-b4ba-47a1-b2dc-974b8a4f3c9c","ios":"levelo://app?vid=c32d9a17-b4ba-47a1-b2dc-974b8a4f3c9c"},"vehicle_type_id":"4","last_reported":1686506871,"current_range_meters":16400,"station_id":"ce4bhqh2rcd13ifvqhmg","pricing_plan_id":"free"},{"bike_id":"6b504e04-b2db-4dba-8090-30ffcd8c19f2","system_id":"levelo_inurba_marseille","lat":43.27556,"lon":5.38432,"is_reserved":false,"is_disabled":false,"rental_uris":{"android":"levelo://app?vid=6b504e04-b2db-4dba-8090-30ffcd8c19f2","ios":"levelo://app?vid=6b504e04-b2db-4dba-8090-30ffcd8c19f2"},"vehicle_type_id":"4","last_reported":1686506871,"current_range_meters":6800,"station_id":"","pricing_plan_id":"free"},{"bike_id":"97ce5bce-ffc5-4903-adf2-5f6accf2241e","system_id":"levelo_inurba_marseille","lat":43.336134,"lon":5.410341,"is_reserved":false,"is_disabled":false,"rental_uris":{"android":"levelo://app?vid=97ce5bce-ffc5-4903-adf2-5f6accf2241e","ios":"levelo://app?vid=97ce5bce-ffc5-4903-adf2-5f6accf2241e"},"vehicle_type_id":"4","last_reported":1686506871,"current_range_meters":7600,"station_id":"ce4bhqh2rcd13ifvqhmg","pricing_plan_id":"free"},{"bike_id":"0d8127f9-d931-4886-ae1d-cc889ece4400","system_id":"levelo_inurba_marseille","lat":43.33608,"lon":5.4104,"is_reserved":false,"is_disabled":false,"rental_uris":{"android":"levelo://app?vid=0d8127f9-d931-4886-ae1d-cc889ece4400","ios":"levelo://app?vid=0d8127f9-d931-4886-ae1d-cc889ece4400"},"vehicle_type_id":"4","last_reported":1686506871,"current_range_meters":22000,"station_id":"ce4bhqh2rcd13ifvqhmg","pricing_plan_id":"free"},{"bike_id":"486cd25e-8e09-4a6d-ae93-ee6bbcee29aa","system_id":"levelo_inurba_marseille","lat":43.276771,"lon":5.388799,"is_reserved":false,"is_disabled":false,"rental_uris":{"android":"levelo://app?vid=486cd25e-8e09-4a6d-ae93-ee6bbcee29aa","ios":"levelo://app?vid=486cd25e-8e09-4a6d-ae93-ee6bbcee29aa"},"vehicle_type_id":"4","last_reported":1686506871,"current_range_meters":3200,"station_id":"ce4bhi12rcd13ifvqfo0","pricing_plan_id":"free"},{"bike_id":"a3ab487b-562c-4c45-bd3a-3040ffdeefd4","system_id":"levelo_inurba_marseille","lat":43.27812,"lon":5.39535,"is_reserved":false,"is_disabled":false,"rental_uris":{"android":"levelo://app?vid=a3ab487b-562c-4c45-bd3a-3040ffdeefd4","ios":"levelo://app?vid=a3ab487b-562c-4c45-bd3a-3040ffdeefd4"},"vehicle_type_id":"4","last_reported":1686506871,"current_range_meters":400,"station_id":"","pricing_plan_id":"free"},{"bike_id":"c75ec162-0efe-467a-a98a-50133ea5de05","system_id":"levelo_inurba_marseille","lat":43.27614,"lon":5.39489,"is_reserved":false,"is_disabled":false,"rental_uris":{"android":"levelo://app?vid=c75ec162-0efe-467a-a98a-50133ea5de05","ios":"levelo://app?vid=c75ec162-0efe-467a-a98a-50133ea5de05"},"vehicle_type_id":"4","last_reported":1686506871,"current_range_meters":16000,"station_id":"","pricing_plan_id":"free"},{"bike_id":"e023cfb7-bb30-43f0-b5f8-8eaa3a03840c","system_id":"levelo_inurba_marseille","lat":43.273129,"lon":5.390725,"is_reserved":false,"is_disabled":false,"rental_uris":{"android":"levelo://app?vid=e023cfb7-bb30-43f0-b5f8-8eaa3a03840c","ios":"levelo://app?vid=e023cfb7-bb30-43f0-b5f8-8eaa3a03840c"},"vehicle_type_id":"4","last_reported":1686506871,"current_range_meters":10400,"station_id":"ce4bhgp2rcd13ifvqfe0","pricing_plan_id":"free"},{"bike_id":"27d37d84-14e7-47e9-95f2-d9ab8231d56d","system_id":"levelo_inurba_marseille","lat":43.2607,"lon":5.393983,"is_reserved":false,"is_disabled":false,"rental_uris":{"android":"levelo://app?vid=27d37d84-14e7-47e9-95f2-d9ab8231d56d","ios":"levelo://app?vid=27d37d84-14e7-47e9-95f2-d9ab8231d56d"},"vehicle_type_id":"4","last_reported":1686506871,"current_range_meters":15600,"station_id":"ce4bhh92rcd13ifvqfj0","pricing_plan_id":"free"},{"bike_id":"c61211a5-5719-4f69-8995-2305b5031c1c","system_id":"levelo_inurba_marseille","lat":43.295523,"lon":5.422926,"is_reserved":false,"is_disabled":false,"rental_uris":{"android":"levelo://app?vid=c61211a5-5719-4f69-8995-2305b5031c1c","ios":"levelo://app?vid=c61211a5-5719-4f69-8995-2305b5031c1c"},"vehicle_type_id":"4","last_reported":1686506871,"current_range_meters":30000,"station_id":"ce4bhph2rcd13ifvqhdg","pricing_plan_id":"free"},{"bike_id":"27db1f23-4acb-498f-85d9-857d154edd66","system_id":"levelo_inurba_marseille","lat":43.295568,"lon":5.422968,"is_reserved":false,"is_disabled":false,"rental_uris":{"android":"levelo://app?vid=27db1f23-4acb-498f-85d9-857d154edd66","ios":"levelo://app?vid=27db1f23-4acb-498f-85d9-857d154edd66"},"vehicle_type_id":"4","last_reported":1686506871,"current_range_meters":0,"station_id":"ce4bhph2rcd13ifvqhdg","pricing_plan_id":"free"},{"bike_id":"94c2c3dd-e251-4f69-94fb-06352d89fc2a","system_id":"levelo_inurba_marseille","lat":43.295523,"lon":5.422926,"is_reserved":false,"is_disabled":false,"rental_uris":{"android":"levelo://app?vid=94c2c3dd-e251-4f69-94fb-06352d89fc2a","ios":"levelo://app?vid=94c2c3dd-e251-4f69-94fb-06352d89fc2a"},"vehicle_type_id":"4","last_reported":1686506871,"current_range_meters":31200,"station_id":"ce4bhph2rcd13ifvqhdg","pricing_plan_id":"free"},{"bike_id":"0f593172-f356-4edb-8926-9e955f527f49","system_id":"levelo_inurba_marseille","lat":43.295523,"lon":5.422926,"is_reserved":false,"is_disabled":false,"rental_uris":{"android":"levelo://app?vid=0f593172-f356-4edb-8926-9e955f527f49","ios":"levelo://app?vid=0f593172-f356-4edb-8926-9e955f527f49"},"vehicle_type_id":"4","last_reported":1686506871,"current_range_meters":31200,"station_id":"ce4bhph2rcd13ifvqhdg","pricing_plan_id":"free"},{"bike_id":"ee96639b-e394-48d8-ae41-ba904a5102e9","system_id":"levelo_inurba_marseille","lat":43.295523,"lon":5.422926,"is_reserved":false,"is_disabled":false,"rental_uris":{"android":"levelo://app?vid=ee96639b-e394-48d8-ae41-ba904a5102e9","ios":"levelo://app?vid=ee96639b-e394-48d8-ae41-ba904a5102e9"},"vehicle_type_id":"4","last_reported":1686506871,"current_range_meters":30000,"station_id":"ce4bhph2rcd13ifvqhdg","pricing_plan_id":"free"},{"bike_id":"ea995902-89b5-4024-b3eb-675fd6111cd7","system_id":"levelo_inurba_marseille","lat":43.29556,"lon":5.423002,"is_reserved":false,"is_disabled":false,"rental_uris":{"android":"levelo://app?vid=ea995902-89b5-4024-b3eb-675fd6111cd7","ios":"levelo://app?vid=ea995902-89b5-4024-b3eb-675fd6111cd7"},"vehicle_type_id":"4","last_reported":1686506871,"current_range_meters":10800,"station_id":"ce4bhph2rcd13ifvqhdg","pricing_plan_id":"free"},{"bike_id":"8ca2f392-6afa-4f91-b3f6-a319df69c982","system_id":"levelo_inurba_marseille","lat":43.27203,"lon":5.39187,"is_reserved":false,"is_disabled":false,"rental_uris":{"android":"levelo://app?vid=8ca2f392-6afa-4f91-b3f6-a319df69c982","ios":"levelo://app?vid=8ca2f392-6afa-4f91-b3f6-a319df69c982"},"vehicle_type_id":"4","last_reported":1686506871,"current_range_meters":4800,"station_id":"ce4bhhp2rcd13ifvqfm0","pricing_plan_id":"free"},{"bike_id":"b34f41b8-51a7-4879-afac-4b1a95d01a94","system_id":"levelo_inurba_marseille","lat":43.26942,"lon":5.38918,"is_reserved":false,"is_disabled":false,"rental_uris":{"android":"levelo://app?vid=b34f41b8-51a7-4879-afac-4b1a95d01a94","ios":"levelo://app?vid=b34f41b8-51a7-4879-afac-4b1a95d01a94"},"vehicle_type_id":"4","last_reported":1686506871,"current_range_meters":18800,"station_id":"ce4bhhh2rcd13ifvqfl0","pricing_plan_id":"free"},{"bike_id":"7905a78d-9ab1-4afc-b07e-abcc74eddd9a","system_id":"levelo_inurba_marseille","lat":43.269319,"lon":5.389397,"is_reserved":false,"is_disabled":false,"rental_uris":{"android":"levelo://app?vid=7905a78d-9ab1-4afc-b07e-abcc74eddd9a","ios":"levelo://app?vid=7905a78d-9ab1-4afc-b07e-abcc74eddd9a"},"vehicle_type_id":"4","last_reported":1686506871,"current_range_meters":23600,"station_id":"ce4bhhh2rcd13ifvqfl0","pricing_plan_id":"free"},{"bike_id":"9894d5d3-ef9d-4d32-b26a-b6c7d3993d4f","system_id":"levelo_inurba_marseille","lat":43.26543,"lon":5.37325,"is_reserved":false,"is_disabled":false,"rental_uris":{"android":"levelo://app?vid=9894d5d3-ef9d-4d32-b26a-b6c7d3993d4f","ios":"levelo://app?vid=9894d5d3-ef9d-4d32-b26a-b6c7d3993d4f"},"vehicle_type_id":"4","last_reported":1686506871,"current_range_meters":0,"station_id":"","pricing_plan_id":"free"},{"bike_id":"2cb6bad8-efca-4812-8844-42f1973c875e","system_id":"levelo_inurba_marseille","lat":43.27996,"lon":5.41658,"is_reserved":false,"is_disabled":false,"rental_uris":{"android":"levelo://app?vid=2cb6bad8-efca-4812-8844-42f1973c875e","ios":"levelo://app?vid=2cb6bad8-efca-4812-8844-42f1973c875e"},"vehicle_type_id":"4","last_reported":1686506871,"current_range_meters":16000,"station_id":"ce4bho12rcd13ifvqh1g","pricing_plan_id":"free"},{"bike_id":"44df57a6-707a-4d51-9679-f6a683120cbb","system_id":"levelo_inurba_marseille","lat":43.27992,"lon":5.41659,"is_reserved":false,"is_disabled":false,"rental_uris":{"android":"levelo://app?vid=44df57a6-707a-4d51-9679-f6a683120cbb","ios":"levelo://app?vid=44df57a6-707a-4d51-9679-f6a683120cbb"},"vehicle_type_id":"4","last_reported":1686506871,"current_range_meters":14000,"station_id":"ce4bho12rcd13ifvqh1g","pricing_plan_id":"free"},{"bike_id":"374f24f3-b410-4378-813e-906f60e552cd","system_id":"levelo_inurba_marseille","lat":43.267966,"lon":5.393976,"is_reserved":false,"is_disabled":false,"rental_uris":{"android":"levelo://app?vid=374f24f3-b410-4378-813e-906f60e552cd","ios":"levelo://app?vid=374f24f3-b410-4378-813e-906f60e552cd"},"vehicle_type_id":"4","last_reported":1686506871,"current_range_meters":2000,"station_id":"ce4bhh12rcd13ifvqfg0","pricing_plan_id":"free"},{"bike_id":"025c652d-bbb7-4a53-9f16-ed1a6df4b4a6","system_id":"levelo_inurba_marseille","lat":43.33231,"lon":5.42938,"is_reserved":false,"is_disabled":false,"rental_uris":{"android":"levelo://app?vid=025c652d-bbb7-4a53-9f16-ed1a6df4b4a6","ios":"levelo://app?vid=025c652d-bbb7-4a53-9f16-ed1a6df4b4a6"},"vehicle_type_id":"4","last_reported":1686506871,"current_range_meters":16400,"station_id":"","pricing_plan_id":"free"},{"bike_id":"78a0e235-0cde-473d-a1c4-1a3d90852a84","system_id":"levelo_inurba_marseille","lat":43.31568,"lon":5.43508,"is_reserved":false,"is_disabled":false,"rental_uris":{"android":"levelo://app?vid=78a0e235-0cde-473d-a1c4-1a3d90852a84","ios":"levelo://app?vid=78a0e235-0cde-473d-a1c4-1a3d90852a84"},"vehicle_type_id":"4","last_reported":1686506871,"current_range_meters":22000,"station_id":"","pricing_plan_id":"free"},{"bike_id":"2a843613-41c9-46cd-a008-cadee2d64375","system_id":"levelo_inurba_marseille","lat":43.33222,"lon":5.42995,"is_reserved":false,"is_disabled":false,"rental_uris":{"android":"levelo://app?vid=2a843613-41c9-46cd-a008-cadee2d64375","ios":"levelo://app?vid=2a843613-41c9-46cd-a008-cadee2d64375"},"vehicle_type_id":"4","last_reported":1686506871,"current_range_meters":7200,"station_id":"","pricing_plan_id":"free"},{"bike_id":"acecd038-56ee-410d-881c-ffa02850a176","system_id":"levelo_inurba_marseille","lat":43.27113,"lon":5.40466,"is_reserved":false,"is_disabled":false,"rental_uris":{"android":"levelo://app?vid=acecd038-56ee-410d-881c-ffa02850a176","ios":"levelo://app?vid=acecd038-56ee-410d-881c-ffa02850a176"},"vehicle_type_id":"4","last_reported":1686506871,"current_range_meters":0,"station_id":"","pricing_plan_id":"free"},{"bike_id":"1e50d4c5-46cf-4d7c-9130-3b1369edbffb","system_id":"levelo_inurba_marseille","lat":43.27149,"lon":5.40542,"is_reserved":false,"is_disabled":false,"rental_uris":{"android":"levelo://app?vid=1e50d4c5-46cf-4d7c-9130-3b1369edbffb","ios":"levelo://app?vid=1e50d4c5-46cf-4d7c-9130-3b1369edbffb"},"vehicle_type_id":"4","last_reported":1686506871,"current_range_meters":14400,"station_id":"","pricing_plan_id":"free"},{"bike_id":"a8758f9b-0351-49f1-ab55-280eb8f3f2b2","system_id":"levelo_inurba_marseille","lat":43.27114,"lon":5.40489,"is_reserved":false,"is_disabled":false,"rental_uris":{"android":"levelo://app?vid=a8758f9b-0351-49f1-ab55-280eb8f3f2b2","ios":"levelo://app?vid=a8758f9b-0351-49f1-ab55-280eb8f3f2b2"},"vehicle_type_id":"4","last_reported":1686506871,"current_range_meters":28400,"station_id":"","pricing_plan_id":"free"},{"bike_id":"f9eeff49-f17a-4155-b7fa-411650003821","system_id":"levelo_inurba_marseille","lat":43.30802,"lon":5.43528,"is_reserved":false,"is_disabled":false,"rental_uris":{"android":"levelo://app?vid=f9eeff49-f17a-4155-b7fa-411650003821","ios":"levelo://app?vid=f9eeff49-f17a-4155-b7fa-411650003821"},"vehicle_type_id":"4","last_reported":1686506871,"current_range_meters":10400,"station_id":"","pricing_plan_id":"free"},{"bike_id":"9e0cd082-03ed-4728-8be6-64d65cf600fa","system_id":"levelo_inurba_marseille","lat":43.265569,"lon":5.390047,"is_reserved":false,"is_disabled":false,"rental_uris":{"android":"levelo://app?vid=9e0cd082-03ed-4728-8be6-64d65cf600fa","ios":"levelo://app?vid=9e0cd082-03ed-4728-8be6-64d65cf600fa"},"vehicle_type_id":"4","last_reported":1686506871,"current_range_meters":400,"station_id":"ce4bhe12rcd13ifvqf30","pricing_plan_id":"free"},{"bike_id":"91d94c71-8533-4efc-a134-db40f05119ac","system_id":"levelo_inurba_marseille","lat":43.26234,"lon":5.37046,"is_reserved":false,"is_disabled":false,"rental_uris":{"android":"levelo://app?vid=91d94c71-8533-4efc-a134-db40f05119ac","ios":"levelo://app?vid=91d94c71-8533-4efc-a134-db40f05119ac"},"vehicle_type_id":"4","last_reported":1686506871,"current_range_meters":12000,"station_id":"","pricing_plan_id":"free"},{"bike_id":"09706511-9637-4cfb-a8cf-69d9cc386777","system_id":"levelo_inurba_marseille","lat":43.2808,"lon":5.4215,"is_reserved":false,"is_disabled":false,"rental_uris":{"android":"levelo://app?vid=09706511-9637-4cfb-a8cf-69d9cc386777","ios":"levelo://app?vid=09706511-9637-4cfb-a8cf-69d9cc386777"},"vehicle_type_id":"4","last_reported":1686506871,"current_range_meters":24400,"station_id":"","pricing_plan_id":"free"},{"bike_id":"36689c64-c8b7-407d-acb3-1cc93a166a55","system_id":"levelo_inurba_marseille","lat":43.261782,"lon":5.374515,"is_reserved":false,"is_disabled":false,"rental_uris":{"android":"levelo://app?vid=36689c64-c8b7-407d-acb3-1cc93a166a55","ios":"levelo://app?vid=36689c64-c8b7-407d-acb3-1cc93a166a55"},"vehicle_type_id":"4","last_reported":1686506871,"current_range_meters":23600,"station_id":"ce4bhgp2rcd13ifvqfc0","pricing_plan_id":"free"},{"bike_id":"50b48ede-4cc5-4969-ab1c-1d7a66a273c2","system_id":"levelo_inurba_marseille","lat":43.31741,"lon":5.43706,"is_reserved":false,"is_disabled":false,"rental_uris":{"android":"levelo://app?vid=50b48ede-4cc5-4969-ab1c-1d7a66a273c2","ios":"levelo://app?vid=50b48ede-4cc5-4969-ab1c-1d7a66a273c2"},"vehicle_type_id":"4","last_reported":1686506871,"current_range_meters":28800,"station_id":"","pricing_plan_id":"free"},{"bike_id":"da194df1-8147-4b18-9d6c-99bc922c0acf","system_id":"levelo_inurba_marseille","lat":43.27188,"lon":5.40993,"is_reserved":false,"is_disabled":false,"rental_uris":{"android":"levelo://app?vid=da194df1-8147-4b18-9d6c-99bc922c0acf","ios":"levelo://app?vid=da194df1-8147-4b18-9d6c-99bc922c0acf"},"vehicle_type_id":"4","last_reported":1686506871,"current_range_meters":28400,"station_id":"","pricing_plan_id":"free"},{"bike_id":"0a84d226-a987-4905-9bd1-864593ddf54d","system_id":"levelo_inurba_marseille","lat":43.27175,"lon":5.40993,"is_reserved":false,"is_disabled":false,"rental_uris":{"android":"levelo://app?vid=0a84d226-a987-4905-9bd1-864593ddf54d","ios":"levelo://app?vid=0a84d226-a987-4905-9bd1-864593ddf54d"},"vehicle_type_id":"4","last_reported":1686506871,"current_range_meters":28000,"station_id":"","pricing_plan_id":"free"},{"bike_id":"363f1728-0e5d-4438-9158-c2d648af2e60","system_id":"levelo_inurba_marseille","lat":43.271368,"lon":5.40928,"is_reserved":false,"is_disabled":false,"rental_uris":{"android":"levelo://app?vid=363f1728-0e5d-4438-9158-c2d648af2e60","ios":"levelo://app?vid=363f1728-0e5d-4438-9158-c2d648af2e60"},"vehicle_type_id":"4","last_reported":1686506871,"current_range_meters":0,"station_id":"ce4bhl12rcd13ifvqgf0","pricing_plan_id":"free"},{"bike_id":"f3f6756d-2250-46a1-8a7f-5a9779258aeb","system_id":"levelo_inurba_marseille","lat":43.26811,"lon":5.40271,"is_reserved":false,"is_disabled":false,"rental_uris":{"android":"levelo://app?vid=f3f6756d-2250-46a1-8a7f-5a9779258aeb","ios":"levelo://app?vid=f3f6756d-2250-46a1-8a7f-5a9779258aeb"},"vehicle_type_id":"4","last_reported":1686506871,"current_range_meters":12800,"station_id":"ce501612rcd8frsf0b60","pricing_plan_id":"free"},{"bike_id":"6853ea80-78f9-4825-8105-002e10c67b8f","system_id":"levelo_inurba_marseille","lat":43.33286,"lon":5.43578,"is_reserved":false,"is_disabled":false,"rental_uris":{"android":"levelo://app?vid=6853ea80-78f9-4825-8105-002e10c67b8f","ios":"levelo://app?vid=6853ea80-78f9-4825-8105-002e10c67b8f"},"vehicle_type_id":"4","last_reported":1686506871,"current_range_meters":14000,"station_id":"","pricing_plan_id":"free"},{"bike_id":"d08097bb-9695-444e-8450-899e276525e0","system_id":"levelo_inurba_marseille","lat":43.2607,"lon":5.393983,"is_reserved":false,"is_disabled":false,"rental_uris":{"android":"levelo://app?vid=d08097bb-9695-444e-8450-899e276525e0","ios":"levelo://app?vid=d08097bb-9695-444e-8450-899e276525e0"},"vehicle_type_id":"4","last_reported":1686506871,"current_range_meters":7600,"station_id":"ce4bhh92rcd13ifvqfj0","pricing_plan_id":"free"},{"bike_id":"c793f240-4a70-47f3-bb8b-31bd6429a337","system_id":"levelo_inurba_marseille","lat":43.260912,"lon":5.397584,"is_reserved":false,"is_disabled":false,"rental_uris":{"android":"levelo://app?vid=c793f240-4a70-47f3-bb8b-31bd6429a337","ios":"levelo://app?vid=c793f240-4a70-47f3-bb8b-31bd6429a337"},"vehicle_type_id":"4","last_reported":1686506871,"current_range_meters":1200,"station_id":"ce4bhi12rcd13ifvqfq0","pricing_plan_id":"free"},{"bike_id":"432f15c2-cd0a-4a60-b518-8583c80784eb","system_id":"levelo_inurba_marseille","lat":43.275028,"lon":5.424534,"is_reserved":false,"is_disabled":false,"rental_uris":{"android":"levelo://app?vid=432f15c2-cd0a-4a60-b518-8583c80784eb","ios":"levelo://app?vid=432f15c2-cd0a-4a60-b518-8583c80784eb"},"vehicle_type_id":"4","last_reported":1686506871,"current_range_meters":14400,"station_id":"ce4bhn92rcd13ifvqgrg","pricing_plan_id":"free"},{"bike_id":"08ec1479-9314-4a5d-8643-0ae568f13a1a","system_id":"levelo_inurba_marseille","lat":43.275028,"lon":5.424534,"is_reserved":false,"is_disabled":false,"rental_uris":{"android":"levelo://app?vid=08ec1479-9314-4a5d-8643-0ae568f13a1a","ios":"levelo://app?vid=08ec1479-9314-4a5d-8643-0ae568f13a1a"},"vehicle_type_id":"4","last_reported":1686506871,"current_range_meters":3600,"station_id":"ce4bhn92rcd13ifvqgrg","pricing_plan_id":"free"},{"bike_id":"a781a343-b241-4f95-ab3c-8b2df648c6cb","system_id":"levelo_inurba_marseille","lat":43.33312,"lon":5.44167,"is_reserved":false,"is_disabled":false,"rental_uris":{"android":"levelo://app?vid=a781a343-b241-4f95-ab3c-8b2df648c6cb","ios":"levelo://app?vid=a781a343-b241-4f95-ab3c-8b2df648c6cb"},"vehicle_type_id":"4","last_reported":1686506871,"current_range_meters":1200,"station_id":"","pricing_plan_id":"free"},{"bike_id":"70188859-b82f-45a1-b3b7-6fbe08f898a5","system_id":"levelo_inurba_marseille","lat":43.254947,"lon":5.376454,"is_reserved":false,"is_disabled":false,"rental_uris":{"android":"levelo://app?vid=70188859-b82f-45a1-b3b7-6fbe08f898a5","ios":"levelo://app?vid=70188859-b82f-45a1-b3b7-6fbe08f898a5"},"vehicle_type_id":"4","last_reported":1686506871,"current_range_meters":30800,"station_id":"ce4bhh12rcd13ifvqff0","pricing_plan_id":"free"},{"bike_id":"3246d132-58b0-480b-85b0-5b35d522ee7a","system_id":"levelo_inurba_marseille","lat":43.254947,"lon":5.376454,"is_reserved":false,"is_disabled":false,"rental_uris":{"android":"levelo://app?vid=3246d132-58b0-480b-85b0-5b35d522ee7a","ios":"levelo://app?vid=3246d132-58b0-480b-85b0-5b35d522ee7a"},"vehicle_type_id":"4","last_reported":1686506871,"current_range_meters":4800,"station_id":"ce4bhh12rcd13ifvqff0","pricing_plan_id":"free"},{"bike_id":"feb77519-92bc-43a4-b4d2-08903179f1f4","system_id":"levelo_inurba_marseille","lat":43.25858,"lon":5.39911,"is_reserved":false,"is_disabled":false,"rental_uris":{"android":"levelo://app?vid=feb77519-92bc-43a4-b4d2-08903179f1f4","ios":"levelo://app?vid=feb77519-92bc-43a4-b4d2-08903179f1f4"},"vehicle_type_id":"4","last_reported":1686506871,"current_range_meters":31200,"station_id":"ce4bhl92rcd13ifvqghg","pricing_plan_id":"free"},{"bike_id":"1ed5dd8d-1f28-4678-b8a8-b332f870292f","system_id":"levelo_inurba_marseille","lat":43.28113,"lon":5.43855,"is_reserved":false,"is_disabled":false,"rental_uris":{"android":"levelo://app?vid=1ed5dd8d-1f28-4678-b8a8-b332f870292f","ios":"levelo://app?vid=1ed5dd8d-1f28-4678-b8a8-b332f870292f"},"vehicle_type_id":"4","last_reported":1686506871,"current_range_meters":22800,"station_id":"","pricing_plan_id":"free"},{"bike_id":"7d7e6400-fc86-45f9-ac86-6c8de1651d85","system_id":"levelo_inurba_marseille","lat":43.25937,"lon":5.40901,"is_reserved":false,"is_disabled":false,"rental_uris":{"android":"levelo://app?vid=7d7e6400-fc86-45f9-ac86-6c8de1651d85","ios":"levelo://app?vid=7d7e6400-fc86-45f9-ac86-6c8de1651d85"},"vehicle_type_id":"4","last_reported":1686506871,"current_range_meters":0,"station_id":"","pricing_plan_id":"free"},{"bike_id":"694766fa-8191-48dd-ba83-4c991e110a0e","system_id":"levelo_inurba_marseille","lat":43.25926,"lon":5.40907,"is_reserved":false,"is_disabled":false,"rental_uris":{"android":"levelo://app?vid=694766fa-8191-48dd-ba83-4c991e110a0e","ios":"levelo://app?vid=694766fa-8191-48dd-ba83-4c991e110a0e"},"vehicle_type_id":"4","last_reported":1686506871,"current_range_meters":12000,"station_id":"ce4bhm92rcd13ifvqglg","pricing_plan_id":"free"},{"bike_id":"899c417a-93c2-4b71-a3ef-f2e5fba62277","system_id":"levelo_inurba_marseille","lat":43.250009,"lon":5.389195,"is_reserved":false,"is_disabled":false,"rental_uris":{"android":"levelo://app?vid=899c417a-93c2-4b71-a3ef-f2e5fba62277","ios":"levelo://app?vid=899c417a-93c2-4b71-a3ef-f2e5fba62277"},"vehicle_type_id":"4","last_reported":1686506871,"current_range_meters":400,"station_id":"ce4bhgp2rcd13ifvqfd0","pricing_plan_id":"free"},{"bike_id":"fe5e1d24-6883-4190-ade3-e374e4a02e48","system_id":"levelo_inurba_marseille","lat":43.250009,"lon":5.389195,"is_reserved":false,"is_disabled":false,"rental_uris":{"android":"levelo://app?vid=fe5e1d24-6883-4190-ade3-e374e4a02e48","ios":"levelo://app?vid=fe5e1d24-6883-4190-ade3-e374e4a02e48"},"vehicle_type_id":"4","last_reported":1686506871,"current_range_meters":24000,"station_id":"ce4bhgp2rcd13ifvqfd0","pricing_plan_id":"free"},{"bike_id":"554b88ab-38c0-4bfe-bc41-d10ab477843b","system_id":"levelo_inurba_marseille","lat":43.24806,"lon":5.37457,"is_reserved":false,"is_disabled":false,"rental_uris":{"android":"levelo://app?vid=554b88ab-38c0-4bfe-bc41-d10ab477843b","ios":"levelo://app?vid=554b88ab-38c0-4bfe-bc41-d10ab477843b"},"vehicle_type_id":"4","last_reported":1686506871,"current_range_meters":400,"station_id":"ce4bhgh2rcd13ifvqfb0","pricing_plan_id":"free"},{"bike_id":"40ae627b-298f-46c3-b9ac-aab63b124eef","system_id":"levelo_inurba_marseille","lat":43.2479,"lon":5.374457,"is_reserved":false,"is_disabled":false,"rental_uris":{"android":"levelo://app?vid=40ae627b-298f-46c3-b9ac-aab63b124eef","ios":"levelo://app?vid=40ae627b-298f-46c3-b9ac-aab63b124eef"},"vehicle_type_id":"4","last_reported":1686506871,"current_range_meters":20800,"station_id":"ce4bhgh2rcd13ifvqfb0","pricing_plan_id":"free"},{"bike_id":"87517ceb-56d7-4b74-89d7-02d19a7d0b17","system_id":"levelo_inurba_marseille","lat":43.250966,"lon":5.395186,"is_reserved":false,"is_disabled":false,"rental_uris":{"android":"levelo://app?vid=87517ceb-56d7-4b74-89d7-02d19a7d0b17","ios":"levelo://app?vid=87517ceb-56d7-4b74-89d7-02d19a7d0b17"},"vehicle_type_id":"4","last_reported":1686506871,"current_range_meters":8400,"station_id":"ce4bhm12rcd13ifvqgkg","pricing_plan_id":"free"},{"bike_id":"e37e792a-19a9-4236-93f5-c6685ad3c980","system_id":"levelo_inurba_marseille","lat":43.250966,"lon":5.395186,"is_reserved":false,"is_disabled":false,"rental_uris":{"android":"levelo://app?vid=e37e792a-19a9-4236-93f5-c6685ad3c980","ios":"levelo://app?vid=e37e792a-19a9-4236-93f5-c6685ad3c980"},"vehicle_type_id":"4","last_reported":1686506871,"current_range_meters":13600,"station_id":"ce4bhm12rcd13ifvqgkg","pricing_plan_id":"free"},{"bike_id":"8cd77778-70c3-4f58-8a53-2f5225fffaaf","system_id":"levelo_inurba_marseille","lat":43.250966,"lon":5.395186,"is_reserved":false,"is_disabled":false,"rental_uris":{"android":"levelo://app?vid=8cd77778-70c3-4f58-8a53-2f5225fffaaf","ios":"levelo://app?vid=8cd77778-70c3-4f58-8a53-2f5225fffaaf"},"vehicle_type_id":"4","last_reported":1686506871,"current_range_meters":4000,"station_id":"ce4bhm12rcd13ifvqgkg","pricing_plan_id":"free"},{"bike_id":"38404ddf-94ca-4bd8-b64e-3be25be01a60","system_id":"levelo_inurba_marseille","lat":43.25102,"lon":5.403214,"is_reserved":false,"is_disabled":false,"rental_uris":{"android":"levelo://app?vid=38404ddf-94ca-4bd8-b64e-3be25be01a60","ios":"levelo://app?vid=38404ddf-94ca-4bd8-b64e-3be25be01a60"},"vehicle_type_id":"4","last_reported":1686506871,"current_range_meters":16000,"station_id":"ce4bhlh2rcd13ifvqgig","pricing_plan_id":"free"},{"bike_id":"e32ab8e2-70de-47a6-8038-3648b87cfb2d","system_id":"levelo_inurba_marseille","lat":43.246461,"lon":5.389014,"is_reserved":false,"is_disabled":false,"rental_uris":{"android":"levelo://app?vid=e32ab8e2-70de-47a6-8038-3648b87cfb2d","ios":"levelo://app?vid=e32ab8e2-70de-47a6-8038-3648b87cfb2d"},"vehicle_type_id":"4","last_reported":1686506871,"current_range_meters":22000,"station_id":"ce4bhg12rcd13ifvqf60","pricing_plan_id":"free"},{"bike_id":"b58f847f-aef6-46b6-88ed-16ed71b507c6","system_id":"levelo_inurba_marseille","lat":43.2607,"lon":5.393983,"is_reserved":false,"is_disabled":false,"rental_uris":{"android":"levelo://app?vid=b58f847f-aef6-46b6-88ed-16ed71b507c6","ios":"levelo://app?vid=b58f847f-aef6-46b6-88ed-16ed71b507c6"},"vehicle_type_id":"4","last_reported":1686506871,"current_range_meters":13600,"station_id":"ce4bhh92rcd13ifvqfj0","pricing_plan_id":"free"},{"bike_id":"bd10afd8-5845-4275-aac5-f79369f8182f","system_id":"levelo_inurba_marseille","lat":43.245581,"lon":5.395069,"is_reserved":false,"is_disabled":false,"rental_uris":{"android":"levelo://app?vid=bd10afd8-5845-4275-aac5-f79369f8182f","ios":"levelo://app?vid=bd10afd8-5845-4275-aac5-f79369f8182f"},"vehicle_type_id":"4","last_reported":1686506871,"current_range_meters":28400,"station_id":"ce4bhlp2rcd13ifvqgjg","pricing_plan_id":"free"},{"bike_id":"bc606c44-d26d-4f36-9603-35d7a2203e7a","system_id":"levelo_inurba_marseille","lat":43.28891,"lon":5.45952,"is_reserved":false,"is_disabled":false,"rental_uris":{"android":"levelo://app?vid=bc606c44-d26d-4f36-9603-35d7a2203e7a","ios":"levelo://app?vid=bc606c44-d26d-4f36-9603-35d7a2203e7a"},"vehicle_type_id":"4","last_reported":1686506871,"current_range_meters":28800,"station_id":"","pricing_plan_id":"free"},{"bike_id":"df98a13e-db49-448e-888b-b9a7abad58d5","system_id":"levelo_inurba_marseille","lat":43.24165,"lon":5.37904,"is_reserved":false,"is_disabled":false,"rental_uris":{"android":"levelo://app?vid=df98a13e-db49-448e-888b-b9a7abad58d5","ios":"levelo://app?vid=df98a13e-db49-448e-888b-b9a7abad58d5"},"vehicle_type_id":"4","last_reported":1686506871,"current_range_meters":19600,"station_id":"","pricing_plan_id":"free"},{"bike_id":"84f83c29-98f1-4f17-85ad-734abb20890b","system_id":"levelo_inurba_marseille","lat":43.24081,"lon":5.37751,"is_reserved":false,"is_disabled":false,"rental_uris":{"android":"levelo://app?vid=84f83c29-98f1-4f17-85ad-734abb20890b","ios":"levelo://app?vid=84f83c29-98f1-4f17-85ad-734abb20890b"},"vehicle_type_id":"4","last_reported":1686506871,"current_range_meters":18800,"station_id":"","pricing_plan_id":"free"},{"bike_id":"93ac5870-31df-4500-9016-4c7b55ce56eb","system_id":"levelo_inurba_marseille","lat":43.2408,"lon":5.37752,"is_reserved":false,"is_disabled":false,"rental_uris":{"android":"levelo://app?vid=93ac5870-31df-4500-9016-4c7b55ce56eb","ios":"levelo://app?vid=93ac5870-31df-4500-9016-4c7b55ce56eb"},"vehicle_type_id":"4","last_reported":1686506871,"current_range_meters":25600,"station_id":"","pricing_plan_id":"free"},{"bike_id":"16970c28-d20b-46e7-aba8-1c1ab4c8a956","system_id":"levelo_inurba_marseille","lat":43.24079,"lon":5.37752,"is_reserved":false,"is_disabled":false,"rental_uris":{"android":"levelo://app?vid=16970c28-d20b-46e7-aba8-1c1ab4c8a956","ios":"levelo://app?vid=16970c28-d20b-46e7-aba8-1c1ab4c8a956"},"vehicle_type_id":"4","last_reported":1686506871,"current_range_meters":12400,"station_id":"","pricing_plan_id":"free"},{"bike_id":"bbb111dd-d12a-4d7f-9d15-3eb82c763f52","system_id":"levelo_inurba_marseille","lat":43.24079,"lon":5.37755,"is_reserved":false,"is_disabled":false,"rental_uris":{"android":"levelo://app?vid=bbb111dd-d12a-4d7f-9d15-3eb82c763f52","ios":"levelo://app?vid=bbb111dd-d12a-4d7f-9d15-3eb82c763f52"},"vehicle_type_id":"4","last_reported":1686506871,"current_range_meters":7200,"station_id":"","pricing_plan_id":"free"},{"bike_id":"9c1c9876-dffc-438a-9263-4647c12859af","system_id":"levelo_inurba_marseille","lat":43.239588,"lon":5.366238,"is_reserved":false,"is_disabled":false,"rental_uris":{"android":"levelo://app?vid=9c1c9876-dffc-438a-9263-4647c12859af","ios":"levelo://app?vid=9c1c9876-dffc-438a-9263-4647c12859af"},"vehicle_type_id":"4","last_reported":1686506871,"current_range_meters":28400,"station_id":"ce4bhi12rcd13ifvqfp0","pricing_plan_id":"free"},{"bike_id":"df6b1aea-3718-4848-a675-933455200ba3","system_id":"levelo_inurba_marseille","lat":43.239588,"lon":5.366238,"is_reserved":false,"is_disabled":false,"rental_uris":{"android":"levelo://app?vid=df6b1aea-3718-4848-a675-933455200ba3","ios":"levelo://app?vid=df6b1aea-3718-4848-a675-933455200ba3"},"vehicle_type_id":"4","last_reported":1686506871,"current_range_meters":13600,"station_id":"ce4bhi12rcd13ifvqfp0","pricing_plan_id":"free"},{"bike_id":"3c0d63a1-bf77-4a3b-9def-ae8da33f563f","system_id":"levelo_inurba_marseille","lat":43.23855,"lon":5.38969,"is_reserved":false,"is_disabled":false,"rental_uris":{"android":"levelo://app?vid=3c0d63a1-bf77-4a3b-9def-ae8da33f563f","ios":"levelo://app?vid=3c0d63a1-bf77-4a3b-9def-ae8da33f563f"},"vehicle_type_id":"4","last_reported":1686506871,"current_range_meters":0,"station_id":"","pricing_plan_id":"free"},{"bike_id":"fd461ece-557d-4548-8b91-df50aa3975ef","system_id":"levelo_inurba_marseille","lat":43.23203,"lon":5.35543,"is_reserved":false,"is_disabled":false,"rental_uris":{"android":"levelo://app?vid=fd461ece-557d-4548-8b91-df50aa3975ef","ios":"levelo://app?vid=fd461ece-557d-4548-8b91-df50aa3975ef"},"vehicle_type_id":"4","last_reported":1686506871,"current_range_meters":31200,"station_id":"ce4bhu92rcd13ifvqi70","pricing_plan_id":"free"},{"bike_id":"1fb7bdc5-0925-46a0-8331-661129b9e02d","system_id":"levelo_inurba_marseille","lat":43.23197,"lon":5.35549,"is_reserved":false,"is_disabled":false,"rental_uris":{"android":"levelo://app?vid=1fb7bdc5-0925-46a0-8331-661129b9e02d","ios":"levelo://app?vid=1fb7bdc5-0925-46a0-8331-661129b9e02d"},"vehicle_type_id":"4","last_reported":1686506871,"current_range_meters":30000,"station_id":"ce4bhu92rcd13ifvqi70","pricing_plan_id":"free"},{"bike_id":"b028e00d-c3a3-4682-9240-25553554a2ce","system_id":"levelo_inurba_marseille","lat":43.23195,"lon":5.35548,"is_reserved":false,"is_disabled":false,"rental_uris":{"android":"levelo://app?vid=b028e00d-c3a3-4682-9240-25553554a2ce","ios":"levelo://app?vid=b028e00d-c3a3-4682-9240-25553554a2ce"},"vehicle_type_id":"4","last_reported":1686506871,"current_range_meters":29200,"station_id":"ce4bhu92rcd13ifvqi70","pricing_plan_id":"free"},{"bike_id":"08e2f671-1b1f-4ff1-9a72-65e0539e17de","system_id":"levelo_inurba_marseille","lat":43.23194,"lon":5.35555,"is_reserved":false,"is_disabled":false,"rental_uris":{"android":"levelo://app?vid=08e2f671-1b1f-4ff1-9a72-65e0539e17de","ios":"levelo://app?vid=08e2f671-1b1f-4ff1-9a72-65e0539e17de"},"vehicle_type_id":"4","last_reported":1686506871,"current_range_meters":18000,"station_id":"ce4bhu92rcd13ifvqi70","pricing_plan_id":"free"},{"bike_id":"34ed6d9f-eee4-4ba9-b834-305b1f49116e","system_id":"levelo_inurba_marseille","lat":43.2319,"lon":5.35556,"is_reserved":false,"is_disabled":false,"rental_uris":{"android":"levelo://app?vid=34ed6d9f-eee4-4ba9-b834-305b1f49116e","ios":"levelo://app?vid=34ed6d9f-eee4-4ba9-b834-305b1f49116e"},"vehicle_type_id":"4","last_reported":1686506871,"current_range_meters":31200,"station_id":"ce4bhu92rcd13ifvqi70","pricing_plan_id":"free"},{"bike_id":"100c3137-cbc1-4a01-bfcc-e8cde257bd40","system_id":"levelo_inurba_marseille","lat":43.23189,"lon":5.35562,"is_reserved":false,"is_disabled":false,"rental_uris":{"android":"levelo://app?vid=100c3137-cbc1-4a01-bfcc-e8cde257bd40","ios":"levelo://app?vid=100c3137-cbc1-4a01-bfcc-e8cde257bd40"},"vehicle_type_id":"4","last_reported":1686506871,"current_range_meters":31200,"station_id":"ce4bhu92rcd13ifvqi70","pricing_plan_id":"free"},{"bike_id":"f4055306-ed12-4770-965b-c3500487729e","system_id":"levelo_inurba_marseille","lat":43.23188,"lon":5.35563,"is_reserved":false,"is_disabled":false,"rental_uris":{"android":"levelo://app?vid=f4055306-ed12-4770-965b-c3500487729e","ios":"levelo://app?vid=f4055306-ed12-4770-965b-c3500487729e"},"vehicle_type_id":"4","last_reported":1686506871,"current_range_meters":27600,"station_id":"ce4bhu92rcd13ifvqi70","pricing_plan_id":"free"},{"bike_id":"b21af463-fe12-4b80-aba1-b23b17540203","system_id":"levelo_inurba_marseille","lat":43.23188,"lon":5.35557,"is_reserved":false,"is_disabled":false,"rental_uris":{"android":"levelo://app?vid=b21af463-fe12-4b80-aba1-b23b17540203","ios":"levelo://app?vid=b21af463-fe12-4b80-aba1-b23b17540203"},"vehicle_type_id":"4","last_reported":1686506871,"current_range_meters":27200,"station_id":"ce4bhu92rcd13ifvqi70","pricing_plan_id":"free"},{"bike_id":"4c22d342-8da5-42d6-a820-e3ab8c6b3f35","system_id":"levelo_inurba_marseille","lat":43.23187,"lon":5.35561,"is_reserved":false,"is_disabled":false,"rental_uris":{"android":"levelo://app?vid=4c22d342-8da5-42d6-a820-e3ab8c6b3f35","ios":"levelo://app?vid=4c22d342-8da5-42d6-a820-e3ab8c6b3f35"},"vehicle_type_id":"4","last_reported":1686506871,"current_range_meters":31200,"station_id":"ce4bhu92rcd13ifvqi70","pricing_plan_id":"free"},{"bike_id":"71328c9f-50bf-495f-b780-5936f50ce102","system_id":"levelo_inurba_marseille","lat":43.23185,"lon":5.35556,"is_reserved":false,"is_disabled":false,"rental_uris":{"android":"levelo://app?vid=71328c9f-50bf-495f-b780-5936f50ce102","ios":"levelo://app?vid=71328c9f-50bf-495f-b780-5936f50ce102"},"vehicle_type_id":"4","last_reported":1686506871,"current_range_meters":14000,"station_id":"ce4bhu92rcd13ifvqi70","pricing_plan_id":"free"},{"bike_id":"f28e50b7-b345-4f33-9fb2-ac05f04d2777","system_id":"levelo_inurba_marseille","lat":43.23182,"lon":5.35553,"is_reserved":false,"is_disabled":false,"rental_uris":{"android":"levelo://app?vid=f28e50b7-b345-4f33-9fb2-ac05f04d2777","ios":"levelo://app?vid=f28e50b7-b345-4f33-9fb2-ac05f04d2777"},"vehicle_type_id":"4","last_reported":1686506871,"current_range_meters":31200,"station_id":"ce4bhu92rcd13ifvqi70","pricing_plan_id":"free"},{"bike_id":"f6c119ab-bea6-4577-b43d-3e76fc9f2f8c","system_id":"levelo_inurba_marseille","lat":43.231793,"lon":5.400044,"is_reserved":false,"is_disabled":false,"rental_uris":{"android":"levelo://app?vid=f6c119ab-bea6-4577-b43d-3e76fc9f2f8c","ios":"levelo://app?vid=f6c119ab-bea6-4577-b43d-3e76fc9f2f8c"},