{"last_updated":1753045781,"ttl":60,"version":"2.2","data":{"bikes":[{"bike_id":"53b742a7-31ae-4272-9bba-7740339e2a2f","system_id":"levelo_inurba_marseille","lat":43.33747,"lon":5.37463,"is_reserved":false,"is_disabled":false,"rental_uris":{"android":"levelo://app?vid=53b742a7-31ae-4272-9bba-7740339e2a2f","ios":"levelo://app?vid=53b742a7-31ae-4272-9bba-7740339e2a2f"},"vehicle_type_id":"1","last_reported":1753045781,"current_range_meters":9200,"station_id":"","pricing_plan_id":"cebpf4jnsgd1na2vs0mg"},{"bike_id":"4156f823-9996-4298-bb5b-7c59c9d164b5","system_id":"levelo_inurba_marseille","lat":43.29183,"lon":5.37159,"is_reserved":false,"is_disabled":true,"rental_uris":{"android":"levelo://app?vid=4156f823-9996-4298-bb5b-7c59c9d164b5","ios":"levelo://app?vid=4156f823-9996-4298-bb5b-7c59c9d164b5"},"vehicle_type_id":"4","last_reported":1753045781,"current_range_meters":3200,"station_id":"ce4bha92rcd13ifvqeh0","pricing_plan_id":"cebpf4jnsgd1na2vs0mg"},{"bike_id":"c6db0f6a-96fe-4e1d-8ded-c2ef38c9bab4","system_id":"levelo_inurba_marseille","lat":43.305688,"lon":5.418387,"is_reserved":false,"is_disabled":true,"rental_uris":{"android":"levelo://app?vid=c6db0f6a-96fe-4e1d-8ded-c2ef38c9bab4","ios":"levelo://app?vid=c6db0f6a-96fe-4e1d-8ded-c2ef38c9bab4"},"vehicle_type_id":"4","last_reported":1753045781,"current_range_meters":3200,"station_id":"ce4bht12rcd13ifvqi60","pricing_plan_id":"cebpf4jnsgd1na2vs0mg"},{"bike_id":"2e532954-91d6-45d0-820d-bd93ef877e83","system_id":"levelo_inurba_marseille","lat":43.303243,"lon":5.394574,"is_reserved":false,"is_disabled":true,"rental_uris":{"android":"levelo://app?vid=2e532954-91d6-45d0-820d-bd93ef877e83","ios":"levelo://app?vid=2e532954-91d6-45d0-820d-bd93ef877e83"},"vehicle_type_id":"4","last_reported":1753045781,"current_range_meters":3200,"station_id":"","pricing_plan_id":"cebpf4jnsgd1na2vs0mg"},{"bike_id":"b191fde6-72dc-4c26-ad46-042891e31e32","system_id":"levelo_inurba_marseille","lat":43.295671,"lon":5.399892,"is_reserved":false,"is_disabled":false,"rental_uris":{"android":"levelo://app?vid=b191fde6-72dc-4c26-ad46-042891e31e32","ios":"levelo://app?vid=b191fde6-72dc-4c26-ad46-042891e31e32"},"vehicle_type_id":"4","last_reported":1753045781,"current_range_meters":3200,"station_id":"ce4bh312rcd13ifvqdj0","pricing_plan_id":"cebpf4jnsgd1na2vs0mg"},{"bike_id":"dc56b77c-7905-45bd-8439-3b3538eb6e0a","system_id":"levelo_inurba_marseille","lat":43.29502,"lon":5.38185,"is_reserved":false,"is_disabled":false,"rental_uris":{"android":"levelo://app?vid=dc56b77c-7905-45bd-8439-3b3538eb6e0a","ios":"levelo://app?vid=dc56b77c-7905-45bd-8439-3b3538eb6e0a"},"vehicle_type_id":"4","last_reported":1753045781,"current_range_meters":3600,"station_id":"","pricing_plan_id":"cebpf4jnsgd1na2vs0mg"},{"bike_id":"57bb565d-2136-465a-803d-648474c4a3a7","system_id":"levelo_inurba_marseille","lat":43.33085,"lon":5.35497,"is_reserved":false,"is_disabled":false,"rental_uris":{"android":"levelo://app?vid=57bb565d-2136-465a-803d-648474c4a3a7","ios":"levelo://app?vid=57bb565d-2136-465a-803d-648474c4a3a7"},"vehicle_type_id":"4","last_reported":1753045781,"current_range_meters":3600,"station_id":"","pricing_plan_id":"cebpf4jnsgd1na2vs0mg"},{"bike_id":"c66a90f8-4ca1-4dcc-a7b7-20a5779ac6a3","system_id":"levelo_inurba_marseille","lat":43.27976,"lon":5.38751,"is_reserved":false,"is_disabled":false,"rental_uris":{"android":"levelo://app?vid=c66a90f8-4ca1-4dcc-a7b7-20a5779ac6a3","ios":"levelo://app?vid=c66a90f8-4ca1-4dcc-a7b7-20a5779ac6a3"},"vehicle_type_id":"4","last_reported":1753045781,"current_range_meters":3600,"station_id":"ce4bhg12rcd13ifvqf80","pricing_plan_id":"cebpf4jnsgd1na2vs0mg"},{"bike_id":"bc71386f-1818-4471-9687-ebbd8fde0dd7","system_id":"levelo_inurba_marseille","lat":43.2695,"lon":5.36642,"is_reserved":false,"is_disabled":false,"rental_uris":{"android":"levelo://app?vid=bc71386f-1818-4471-9687-ebbd8fde0dd7","ios":"levelo://app?vid=bc71386f-1818-4471-9687-ebbd8fde0dd7"},"vehicle_type_id":"4","last_reported":1753045781,"current_range_meters":3600,"station_id":"","pricing_plan_id":"cebpf4jnsgd1na2vs0mg"},{"bike_id":"a40b8afd-2ece-4855-ab59-057d21ae1993","system_id":"levelo_inurba_marseille","lat":43.25107,"lon":5.40327,"is_reserved":false,"is_disabled":false,"rental_uris":{"android":"levelo://app?vid=a40b8afd-2ece-4855-ab59-057d21ae1993","ios":"levelo://app?vid=a40b8afd-2ece-4855-ab59-057d21ae1993"},"vehicle_type_id":"4","last_reported":1753045781,"current_range_meters":4000,"station_id":"ce4bhlh2rcd13ifvqgig","pricing_plan_id":"cebpf4jnsgd1na2vs0mg"},{"bike_id":"f0f99d7b-10a2-4559-93ca-97d88b1a8261","system_id":"levelo_inurba_marseille","lat":43.27917,"lon":5.39588,"is_reserved":false,"is_disabled":false,"rental_uris":{"android":"levelo://app?vid=f0f99d7b-10a2-4559-93ca-97d88b1a8261","ios":"levelo://app?vid=f0f99d7b-10a2-4559-93ca-97d88b1a8261"},"vehicle_type_id":"4","last_reported":1753045781,"current_range_meters":4000,"station_id":"ce4bhf92rcd13ifvqf40","pricing_plan_id":"cebpf4jnsgd1na2vs0mg"},{"bike_id":"7ade5153-e96b-4711-b49a-8c2d78961d6b","system_id":"levelo_inurba_marseille","lat":43.29238,"lon":5.40909,"is_reserved":false,"is_disabled":false,"rental_uris":{"android":"levelo://app?vid=7ade5153-e96b-4711-b49a-8c2d78961d6b","ios":"levelo://app?vid=7ade5153-e96b-4711-b49a-8c2d78961d6b"},"vehicle_type_id":"4","last_reported":1753045781,"current_range_meters":4400,"station_id":"ce4bh192rcd13ifvqdc0","pricing_plan_id":"cebpf4jnsgd1na2vs0mg"},{"bike_id":"93d0ff93-e2ee-4864-a512-1c10069516bd","system_id":"levelo_inurba_marseille","lat":43.30126,"lon":5.39885,"is_reserved":false,"is_disabled":false,"rental_uris":{"android":"levelo://app?vid=93d0ff93-e2ee-4864-a512-1c10069516bd","ios":"levelo://app?vid=93d0ff93-e2ee-4864-a512-1c10069516bd"},"vehicle_type_id":"4","last_reported":1753045781,"current_range_meters":4400,"station_id":"ce4bh0h2rcd13ifvqd40","pricing_plan_id":"cebpf4jnsgd1na2vs0mg"},{"bike_id":"1b515ae0-34e6-4013-b1ec-6d51722c2344","system_id":"levelo_inurba_marseille","lat":43.28661,"lon":5.36346,"is_reserved":false,"is_disabled":false,"rental_uris":{"android":"levelo://app?vid=1b515ae0-34e6-4013-b1ec-6d51722c2344","ios":"levelo://app?vid=1b515ae0-34e6-4013-b1ec-6d51722c2344"},"vehicle_type_id":"4","last_reported":1753045781,"current_range_meters":4000,"station_id":"ce4bhah2rcd13ifvqej0","pricing_plan_id":"cebpf4jnsgd1na2vs0mg"},{"bike_id":"78cf64b6-550a-44f0-8152-cbd9443a024f","system_id":"levelo_inurba_marseille","lat":43.300456,"lon":5.366096,"is_reserved":false,"is_disabled":false,"rental_uris":{"android":"levelo://app?vid=78cf64b6-550a-44f0-8152-cbd9443a024f","ios":"levelo://app?vid=78cf64b6-550a-44f0-8152-cbd9443a024f"},"vehicle_type_id":"4","last_reported":1753045781,"current_range_meters":4800,"station_id":"","pricing_plan_id":"cebpf4jnsgd1na2vs0mg"},{"bike_id":"15f3c42a-391f-499b-bd1b-2f3785b7ce4e","system_id":"levelo_inurba_marseille","lat":43.29259,"lon":5.40918,"is_reserved":false,"is_disabled":false,"rental_uris":{"android":"levelo://app?vid=15f3c42a-391f-499b-bd1b-2f3785b7ce4e","ios":"levelo://app?vid=15f3c42a-391f-499b-bd1b-2f3785b7ce4e"},"vehicle_type_id":"4","last_reported":1753045781,"current_range_meters":4800,"station_id":"ce4bh192rcd13ifvqdc0","pricing_plan_id":"cebpf4jnsgd1na2vs0mg"},{"bike_id":"3dff2ca0-85ac-4cac-94de-f3e109604526","system_id":"levelo_inurba_marseille","lat":43.32334,"lon":5.40615,"is_reserved":false,"is_disabled":false,"rental_uris":{"android":"levelo://app?vid=3dff2ca0-85ac-4cac-94de-f3e109604526","ios":"levelo://app?vid=3dff2ca0-85ac-4cac-94de-f3e109604526"},"vehicle_type_id":"4","last_reported":1753045781,"current_range_meters":5600,"station_id":"ce4bhq92rcd13ifvqhjg","pricing_plan_id":"cebpf4jnsgd1na2vs0mg"},{"bike_id":"2d5426b7-c5ef-4761-9a4a-28e19dac621a","system_id":"levelo_inurba_marseille","lat":43.304266,"lon":5.412784,"is_reserved":false,"is_disabled":true,"rental_uris":{"android":"levelo://app?vid=2d5426b7-c5ef-4761-9a4a-28e19dac621a","ios":"levelo://app?vid=2d5426b7-c5ef-4761-9a4a-28e19dac621a"},"vehicle_type_id":"4","last_reported":1753045781,"current_range_meters":5600,"station_id":"","pricing_plan_id":"cebpf4jnsgd1na2vs0mg"},{"bike_id":"808c8efe-bcf9-413d-9a75-e1b93dbb2d8b","system_id":"levelo_inurba_marseille","lat":43.32483,"lon":5.3657,"is_reserved":false,"is_disabled":false,"rental_uris":{"android":"levelo://app?vid=808c8efe-bcf9-413d-9a75-e1b93dbb2d8b","ios":"levelo://app?vid=808c8efe-bcf9-413d-9a75-e1b93dbb2d8b"},"vehicle_type_id":"4","last_reported":1753045781,"current_range_meters":5600,"station_id":"ce4bhs12rcd13ifvqhvg","pricing_plan_id":"cebpf4jnsgd1na2vs0mg"},{"bike_id":"6f18ab1b-0c74-47b1-bed8-837677176207","system_id":"levelo_inurba_marseille","lat":43.32027,"lon":5.40953,"is_reserved":false,"is_disabled":true,"rental_uris":{"android":"levelo://app?vid=6f18ab1b-0c74-47b1-bed8-837677176207","ios":"levelo://app?vid=6f18ab1b-0c74-47b1-bed8-837677176207"},"vehicle_type_id":"4","last_reported":1753045781,"current_range_meters":5600,"station_id":"","pricing_plan_id":"cebpf4jnsgd1na2vs0mg"},{"bike_id":"bb1cd7a1-464c-4c8c-b894-6306d52075e4","system_id":"levelo_inurba_marseille","lat":43.35013,"lon":5.35073,"is_reserved":false,"is_disabled":false,"rental_uris":{"android":"levelo://app?vid=bb1cd7a1-464c-4c8c-b894-6306d52075e4","ios":"levelo://app?vid=bb1cd7a1-464c-4c8c-b894-6306d52075e4"},"vehicle_type_id":"4","last_reported":1753045781,"current_range_meters":6000,"station_id":"","pricing_plan_id":"cebpf4jnsgd1na2vs0mg"},{"bike_id":"21298d24-a76a-4fd6-88f9-bc3c3feeeed6","system_id":"levelo_inurba_marseille","lat":43.24676,"lon":5.38175,"is_reserved":false,"is_disabled":true,"rental_uris":{"android":"levelo://app?vid=21298d24-a76a-4fd6-88f9-bc3c3feeeed6","ios":"levelo://app?vid=21298d24-a76a-4fd6-88f9-bc3c3feeeed6"},"vehicle_type_id":"4","last_reported":1753045781,"current_range_meters":6000,"station_id":"ce4bhih2rcd13ifvqfr0","pricing_plan_id":"cebpf4jnsgd1na2vs0mg"},{"bike_id":"502283da-8186-48ae-9aa4-75078e7b54da","system_id":"levelo_inurba_marseille","lat":43.3168,"lon":5.40476,"is_reserved":false,"is_disabled":false,"rental_uris":{"android":"levelo://app?vid=502283da-8186-48ae-9aa4-75078e7b54da","ios":"levelo://app?vid=502283da-8186-48ae-9aa4-75078e7b54da"},"vehicle_type_id":"4","last_reported":1753045781,"current_range_meters":6000,"station_id":"ce4bh012rcd13ifvqd00","pricing_plan_id":"cebpf4jnsgd1na2vs0mg"},{"bike_id":"83d94e96-0687-4858-960c-305dd98c6aef","system_id":"levelo_inurba_marseille","lat":43.30258,"lon":5.40073,"is_reserved":false,"is_disabled":false,"rental_uris":{"android":"levelo://app?vid=83d94e96-0687-4858-960c-305dd98c6aef","ios":"levelo://app?vid=83d94e96-0687-4858-960c-305dd98c6aef"},"vehicle_type_id":"4","last_reported":1753045781,"current_range_meters":6000,"station_id":"ce4bgvh2rcd13ifvqcs0","pricing_plan_id":"cebpf4jnsgd1na2vs0mg"},{"bike_id":"475b9799-8c28-49d7-a2bd-b989a871d401","system_id":"levelo_inurba_marseille","lat":43.240742,"lon":5.377536,"is_reserved":false,"is_disabled":true,"rental_uris":{"android":"levelo://app?vid=475b9799-8c28-49d7-a2bd-b989a871d401","ios":"levelo://app?vid=475b9799-8c28-49d7-a2bd-b989a871d401"},"vehicle_type_id":"4","last_reported":1753045781,"current_range_meters":6400,"station_id":"ce4bhnp2rcd13ifvqgvg","pricing_plan_id":"cebpf4jnsgd1na2vs0mg"},{"bike_id":"06fcaf41-a3b3-4096-a515-28545e82af83","system_id":"levelo_inurba_marseille","lat":43.22703,"lon":5.34833,"is_reserved":false,"is_disabled":false,"rental_uris":{"android":"levelo://app?vid=06fcaf41-a3b3-4096-a515-28545e82af83","ios":"levelo://app?vid=06fcaf41-a3b3-4096-a515-28545e82af83"},"vehicle_type_id":"4","last_reported":1753045781,"current_range_meters":6800,"station_id":"","pricing_plan_id":"cebpf4jnsgd1na2vs0mg"},{"bike_id":"7df25667-2798-4ded-a55e-c9c452915261","system_id":"levelo_inurba_marseille","lat":43.29534,"lon":5.38562,"is_reserved":false,"is_disabled":false,"rental_uris":{"android":"levelo://app?vid=7df25667-2798-4ded-a55e-c9c452915261","ios":"levelo://app?vid=7df25667-2798-4ded-a55e-c9c452915261"},"vehicle_type_id":"4","last_reported":1753045781,"current_range_meters":7200,"station_id":"ce4bgih2rcd13ifvqba0","pricing_plan_id":"cebpf4jnsgd1na2vs0mg"},{"bike_id":"350d0b07-ac8c-49c4-a3ea-0646a3dee29d","system_id":"levelo_inurba_marseille","lat":43.2892,"lon":5.38406,"is_reserved":false,"is_disabled":false,"rental_uris":{"android":"levelo://app?vid=350d0b07-ac8c-49c4-a3ea-0646a3dee29d","ios":"levelo://app?vid=350d0b07-ac8c-49c4-a3ea-0646a3dee29d"},"vehicle_type_id":"4","last_reported":1753045781,"current_range_meters":6800,"station_id":"ce4bh612rcd13ifvqe6g","pricing_plan_id":"cebpf4jnsgd1na2vs0mg"},{"bike_id":"a0bd12d3-a3a9-4cec-bcb6-df6b6a4afc59","system_id":"levelo_inurba_marseille","lat":43.27848,"lon":5.39252,"is_reserved":false,"is_disabled":false,"rental_uris":{"android":"levelo://app?vid=a0bd12d3-a3a9-4cec-bcb6-df6b6a4afc59","ios":"levelo://app?vid=a0bd12d3-a3a9-4cec-bcb6-df6b6a4afc59"},"vehicle_type_id":"4","last_reported":1753045781,"current_range_meters":7200,"station_id":"ce4bhjp2rcd13ifvqga0","pricing_plan_id":"cebpf4jnsgd1na2vs0mg"},{"bike_id":"11a43a3e-2d75-4df3-ba59-43e1875d5f3e","system_id":"levelo_inurba_marseille","lat":43.24174,"lon":5.36447,"is_reserved":false,"is_disabled":true,"rental_uris":{"android":"levelo://app?vid=11a43a3e-2d75-4df3-ba59-43e1875d5f3e","ios":"levelo://app?vid=11a43a3e-2d75-4df3-ba59-43e1875d5f3e"},"vehicle_type_id":"4","last_reported":1753045781,"current_range_meters":7200,"station_id":"cpo36qri1sfpv3e86is0","pricing_plan_id":"cebpf4jnsgd1na2vs0mg"},{"bike_id":"94c07cb2-0943-4d24-99f2-97bdab47aa3f","system_id":"levelo_inurba_marseille","lat":43.337444,"lon":5.374475,"is_reserved":false,"is_disabled":false,"rental_uris":{"android":"levelo://app?vid=94c07cb2-0943-4d24-99f2-97bdab47aa3f","ios":"levelo://app?vid=94c07cb2-0943-4d24-99f2-97bdab47aa3f"},"vehicle_type_id":"4","last_reported":1753045781,"current_range_meters":7200,"station_id":"","pricing_plan_id":"cebpf4jnsgd1na2vs0mg"},{"bike_id":"ac141403-2eff-454e-8bd1-3d400d40ed2b","system_id":"levelo_inurba_marseille","lat":43.331051,"lon":5.400049,"is_reserved":false,"is_disabled":false,"rental_uris":{"android":"levelo://app?vid=ac141403-2eff-454e-8bd1-3d400d40ed2b","ios":"levelo://app?vid=ac141403-2eff-454e-8bd1-3d400d40ed2b"},"vehicle_type_id":"4","last_reported":1753045781,"current_range_meters":8000,"station_id":"","pricing_plan_id":"cebpf4jnsgd1na2vs0mg"},{"bike_id":"192c0fa5-c826-4847-bdd0-11edb7180ff9","system_id":"levelo_inurba_marseille","lat":43.30662,"lon":5.40093,"is_reserved":false,"is_disabled":true,"rental_uris":{"android":"levelo://app?vid=192c0fa5-c826-4847-bdd0-11edb7180ff9","ios":"levelo://app?vid=192c0fa5-c826-4847-bdd0-11edb7180ff9"},"vehicle_type_id":"4","last_reported":1753045781,"current_range_meters":8000,"station_id":"ce4bh112rcd13ifvqda0","pricing_plan_id":"cebpf4jnsgd1na2vs0mg"},{"bike_id":"310e8583-68d3-4d11-b29c-316e58d6bd35","system_id":"levelo_inurba_marseille","lat":43.27988,"lon":5.41661,"is_reserved":false,"is_disabled":false,"rental_uris":{"android":"levelo://app?vid=310e8583-68d3-4d11-b29c-316e58d6bd35","ios":"levelo://app?vid=310e8583-68d3-4d11-b29c-316e58d6bd35"},"vehicle_type_id":"4","last_reported":1753045781,"current_range_meters":8000,"station_id":"ce4bho12rcd13ifvqh1g","pricing_plan_id":"cebpf4jnsgd1na2vs0mg"},{"bike_id":"dbe3f53f-5cf1-428e-b135-1e976ecdd9e1","system_id":"levelo_inurba_marseille","lat":43.229295,"lon":5.353761,"is_reserved":false,"is_disabled":true,"rental_uris":{"android":"levelo://app?vid=dbe3f53f-5cf1-428e-b135-1e976ecdd9e1","ios":"levelo://app?vid=dbe3f53f-5cf1-428e-b135-1e976ecdd9e1"},"vehicle_type_id":"4","last_reported":1753045781,"current_range_meters":8000,"station_id":"","pricing_plan_id":"cebpf4jnsgd1na2vs0mg"},{"bike_id":"0fd02cf6-67fb-4589-807f-241dd50b7e1a","system_id":"levelo_inurba_marseille","lat":43.299097,"lon":5.436478,"is_reserved":false,"is_disabled":true,"rental_uris":{"android":"levelo://app?vid=0fd02cf6-67fb-4589-807f-241dd50b7e1a","ios":"levelo://app?vid=0fd02cf6-67fb-4589-807f-241dd50b7e1a"},"vehicle_type_id":"4","last_reported":1753045781,"current_range_meters":8800,"station_id":"ce4bhpp2rcd13ifvqhfg","pricing_plan_id":"cebpf4jnsgd1na2vs0mg"},{"bike_id":"b04b5fc8-ae7c-46e0-b8d8-1389c264bcb3","system_id":"levelo_inurba_marseille","lat":43.24077,"lon":5.37754,"is_reserved":false,"is_disabled":false,"rental_uris":{"android":"levelo://app?vid=b04b5fc8-ae7c-46e0-b8d8-1389c264bcb3","ios":"levelo://app?vid=b04b5fc8-ae7c-46e0-b8d8-1389c264bcb3"},"vehicle_type_id":"4","last_reported":1753045781,"current_range_meters":8800,"station_id":"ce4bhnp2rcd13ifvqgvg","pricing_plan_id":"cebpf4jnsgd1na2vs0mg"},{"bike_id":"589de5b0-1c97-4dc8-b509-5ff6bef86054","system_id":"levelo_inurba_marseille","lat":43.269555,"lon":5.421515,"is_reserved":false,"is_disabled":false,"rental_uris":{"android":"levelo://app?vid=589de5b0-1c97-4dc8-b509-5ff6bef86054","ios":"levelo://app?vid=589de5b0-1c97-4dc8-b509-5ff6bef86054"},"vehicle_type_id":"4","last_reported":1753045781,"current_range_meters":8800,"station_id":"ce4bhmh2rcd13ifvqgmg","pricing_plan_id":"cebpf4jnsgd1na2vs0mg"},{"bike_id":"975b616f-9f12-42e6-a8f7-55e620b0fd29","system_id":"levelo_inurba_marseille","lat":43.30799,"lon":5.38168,"is_reserved":false,"is_disabled":false,"rental_uris":{"android":"levelo://app?vid=975b616f-9f12-42e6-a8f7-55e620b0fd29","ios":"levelo://app?vid=975b616f-9f12-42e6-a8f7-55e620b0fd29"},"vehicle_type_id":"4","last_reported":1753045781,"current_range_meters":8000,"station_id":"ce4bgt12rcd13ifvqce0","pricing_plan_id":"cebpf4jnsgd1na2vs0mg"},{"bike_id":"cf9f7b6f-b252-45aa-bd41-e7b8a5947e88","system_id":"levelo_inurba_marseille","lat":43.269424,"lon":5.402835,"is_reserved":false,"is_disabled":true,"rental_uris":{"android":"levelo://app?vid=cf9f7b6f-b252-45aa-bd41-e7b8a5947e88","ios":"levelo://app?vid=cf9f7b6f-b252-45aa-bd41-e7b8a5947e88"},"vehicle_type_id":"4","last_reported":1753045781,"current_range_meters":9200,"station_id":"cjm6bp8fraef2m0cb0m0","pricing_plan_id":"cebpf4jnsgd1na2vs0mg"},{"bike_id":"2f7b9cdf-b6c7-4492-81a2-2bd894f35745","system_id":"levelo_inurba_marseille","lat":43.22999,"lon":5.35504,"is_reserved":false,"is_disabled":true,"rental_uris":{"android":"levelo://app?vid=2f7b9cdf-b6c7-4492-81a2-2bd894f35745","ios":"levelo://app?vid=2f7b9cdf-b6c7-4492-81a2-2bd894f35745"},"vehicle_type_id":"4","last_reported":1753045781,"current_range_meters":9200,"station_id":"","pricing_plan_id":"cebpf4jnsgd1na2vs0mg"},{"bike_id":"cbd7089c-9d2d-42db-a268-faaaa69d7343","system_id":"levelo_inurba_marseille","lat":43.262232,"lon":5.374473,"is_reserved":false,"is_disabled":true,"rental_uris":{"android":"levelo://app?vid=cbd7089c-9d2d-42db-a268-faaaa69d7343","ios":"levelo://app?vid=cbd7089c-9d2d-42db-a268-faaaa69d7343"},"vehicle_type_id":"4","last_reported":1753045781,"current_range_meters":9200,"station_id":"","pricing_plan_id":"cebpf4jnsgd1na2vs0mg"},{"bike_id":"104dd5b6-a352-468a-8ba1-f20c117fc0cc","system_id":"levelo_inurba_marseille","lat":43.28079,"lon":5.3966,"is_reserved":false,"is_disabled":false,"rental_uris":{"android":"levelo://app?vid=104dd5b6-a352-468a-8ba1-f20c117fc0cc","ios":"levelo://app?vid=104dd5b6-a352-468a-8ba1-f20c117fc0cc"},"vehicle_type_id":"4","last_reported":1753045781,"current_range_meters":9200,"station_id":"ce4bho12rcd13ifvqh2g","pricing_plan_id":"cebpf4jnsgd1na2vs0mg"},{"bike_id":"e039b516-3bfb-4284-a272-cb235965692f","system_id":"levelo_inurba_marseille","lat":43.29522,"lon":5.390373,"is_reserved":false,"is_disabled":false,"rental_uris":{"android":"levelo://app?vid=e039b516-3bfb-4284-a272-cb235965692f","ios":"levelo://app?vid=e039b516-3bfb-4284-a272-cb235965692f"},"vehicle_type_id":"4","last_reported":1753045781,"current_range_meters":9600,"station_id":"ce4bh3p2rcd13ifvqdp0","pricing_plan_id":"cebpf4jnsgd1na2vs0mg"},{"bike_id":"4000978c-75c0-4297-9227-f158eb426b15","system_id":"levelo_inurba_marseille","lat":43.31124,"lon":5.36936,"is_reserved":false,"is_disabled":false,"rental_uris":{"android":"levelo://app?vid=4000978c-75c0-4297-9227-f158eb426b15","ios":"levelo://app?vid=4000978c-75c0-4297-9227-f158eb426b15"},"vehicle_type_id":"4","last_reported":1753045781,"current_range_meters":9600,"station_id":"","pricing_plan_id":"cebpf4jnsgd1na2vs0mg"},{"bike_id":"4401d2b4-1201-4287-afdd-550c906fb306","system_id":"levelo_inurba_marseille","lat":43.31684,"lon":5.40466,"is_reserved":false,"is_disabled":false,"rental_uris":{"android":"levelo://app?vid=4401d2b4-1201-4287-afdd-550c906fb306","ios":"levelo://app?vid=4401d2b4-1201-4287-afdd-550c906fb306"},"vehicle_type_id":"4","last_reported":1753045781,"current_range_meters":9600,"station_id":"ce4bh012rcd13ifvqd00","pricing_plan_id":"cebpf4jnsgd1na2vs0mg"},{"bike_id":"ff4d55d2-06e1-4a89-ba66-8dfb99920e85","system_id":"levelo_inurba_marseille","lat":43.28926,"lon":5.36391,"is_reserved":false,"is_disabled":true,"rental_uris":{"android":"levelo://app?vid=ff4d55d2-06e1-4a89-ba66-8dfb99920e85","ios":"levelo://app?vid=ff4d55d2-06e1-4a89-ba66-8dfb99920e85"},"vehicle_type_id":"4","last_reported":1753045781,"current_range_meters":9600,"station_id":"ce4bhc92rcd13ifvqetg","pricing_plan_id":"cebpf4jnsgd1na2vs0mg"},{"bike_id":"a6de290b-5c15-427b-bc37-8301607e1735","system_id":"levelo_inurba_marseille","lat":43.337444,"lon":5.374475,"is_reserved":false,"is_disabled":false,"rental_uris":{"android":"levelo://app?vid=a6de290b-5c15-427b-bc37-8301607e1735","ios":"levelo://app?vid=a6de290b-5c15-427b-bc37-8301607e1735"},"vehicle_type_id":"4","last_reported":1753045781,"current_range_meters":10000,"station_id":"","pricing_plan_id":"cebpf4jnsgd1na2vs0mg"},{"bike_id":"01b603ab-acdc-4744-ae9c-398cb1c4c016","system_id":"levelo_inurba_marseille","lat":43.2319,"lon":5.35559,"is_reserved":false,"is_disabled":false,"rental_uris":{"android":"levelo://app?vid=01b603ab-acdc-4744-ae9c-398cb1c4c016","ios":"levelo://app?vid=01b603ab-acdc-4744-ae9c-398cb1c4c016"},"vehicle_type_id":"4","last_reported":1753045781,"current_range_meters":10000,"station_id":"ce4bhu92rcd13ifvqi70","pricing_plan_id":"cebpf4jnsgd1na2vs0mg"},{"bike_id":"ed415a14-b4b4-4caf-8a06-7fd1c907bac5","system_id":"levelo_inurba_marseille","lat":43.217436,"lon":5.346034,"is_reserved":false,"is_disabled":false,"rental_uris":{"android":"levelo://app?vid=ed415a14-b4b4-4caf-8a06-7fd1c907bac5","ios":"levelo://app?vid=ed415a14-b4b4-4caf-8a06-7fd1c907bac5"},"vehicle_type_id":"4","last_reported":1753045781,"current_range_meters":10000,"station_id":"st_cvj6r9ubvosntc0bgbag","pricing_plan_id":"cebpf4jnsgd1na2vs0mg"},{"bike_id":"892e06aa-05f6-415f-96f6-13455b0802de","system_id":"levelo_inurba_marseille","lat":43.29591,"lon":5.37519,"is_reserved":false,"is_disabled":true,"rental_uris":{"android":"levelo://app?vid=892e06aa-05f6-415f-96f6-13455b0802de","ios":"levelo://app?vid=892e06aa-05f6-415f-96f6-13455b0802de"},"vehicle_type_id":"4","last_reported":1753045781,"current_range_meters":10000,"station_id":"ce4bgh92rcd13ifvqb50","pricing_plan_id":"cebpf4jnsgd1na2vs0mg"},{"bike_id":"6a3d7c78-79a9-459d-9300-696e7920ae8c","system_id":"levelo_inurba_marseille","lat":43.29368,"lon":5.39892,"is_reserved":false,"is_disabled":false,"rental_uris":{"android":"levelo://app?vid=6a3d7c78-79a9-459d-9300-696e7920ae8c","ios":"levelo://app?vid=6a3d7c78-79a9-459d-9300-696e7920ae8c"},"vehicle_type_id":"4","last_reported":1753045781,"current_range_meters":10000,"station_id":"","pricing_plan_id":"cebpf4jnsgd1na2vs0mg"},{"bike_id":"f18952d9-de72-4b00-ac50-ca46d1bc16b9","system_id":"levelo_inurba_marseille","lat":43.21192,"lon":5.35075,"is_reserved":false,"is_disabled":false,"rental_uris":{"android":"levelo://app?vid=f18952d9-de72-4b00-ac50-ca46d1bc16b9","ios":"levelo://app?vid=f18952d9-de72-4b00-ac50-ca46d1bc16b9"},"vehicle_type_id":"4","last_reported":1753045781,"current_range_meters":10000,"station_id":"st_cvj6sg6p6f1abm77japg","pricing_plan_id":"cebpf4jnsgd1na2vs0mg"},{"bike_id":"bdd969c3-9e0a-4f25-9eb0-adc05f5732c3","system_id":"levelo_inurba_marseille","lat":43.261829,"lon":5.374629,"is_reserved":false,"is_disabled":true,"rental_uris":{"android":"levelo://app?vid=bdd969c3-9e0a-4f25-9eb0-adc05f5732c3","ios":"levelo://app?vid=bdd969c3-9e0a-4f25-9eb0-adc05f5732c3"},"vehicle_type_id":"4","last_reported":1753045781,"current_range_meters":10000,"station_id":"ce4bhgp2rcd13ifvqfc0","pricing_plan_id":"cebpf4jnsgd1na2vs0mg"},{"bike_id":"d25b3b74-1eb0-48d4-998a-10d14228da57","system_id":"levelo_inurba_marseille","lat":43.29669,"lon":5.36628,"is_reserved":false,"is_disabled":true,"rental_uris":{"android":"levelo://app?vid=d25b3b74-1eb0-48d4-998a-10d14228da57","ios":"levelo://app?vid=d25b3b74-1eb0-48d4-998a-10d14228da57"},"vehicle_type_id":"4","last_reported":1753045781,"current_range_meters":10800,"station_id":"ce4bgn12rcd13ifvqbt0","pricing_plan_id":"cebpf4jnsgd1na2vs0mg"},{"bike_id":"062bbb10-b618-4ad3-a0ed-8e450d7a15cc","system_id":"levelo_inurba_marseille","lat":43.288485,"lon":5.393213,"is_reserved":false,"is_disabled":false,"rental_uris":{"android":"levelo://app?vid=062bbb10-b618-4ad3-a0ed-8e450d7a15cc","ios":"levelo://app?vid=062bbb10-b618-4ad3-a0ed-8e450d7a15cc"},"vehicle_type_id":"4","last_reported":1753045781,"current_range_meters":10800,"station_id":"ce4bh2p2rcd13ifvqdi0","pricing_plan_id":"cebpf4jnsgd1na2vs0mg"},{"bike_id":"b9d2f6b1-2316-4e08-a5d8-0d15d3bb3c6d","system_id":"levelo_inurba_marseille","lat":43.27417,"lon":5.38828,"is_reserved":false,"is_disabled":false,"rental_uris":{"android":"levelo://app?vid=b9d2f6b1-2316-4e08-a5d8-0d15d3bb3c6d","ios":"levelo://app?vid=b9d2f6b1-2316-4e08-a5d8-0d15d3bb3c6d"},"vehicle_type_id":"4","last_reported":1753045781,"current_range_meters":10800,"station_id":"","pricing_plan_id":"cebpf4jnsgd1na2vs0mg"},{"bike_id":"3befe6a2-0040-47b1-be86-8d135e568ba6","system_id":"levelo_inurba_marseille","lat":43.29795,"lon":5.40401,"is_reserved":false,"is_disabled":false,"rental_uris":{"android":"levelo://app?vid=3befe6a2-0040-47b1-be86-8d135e568ba6","ios":"levelo://app?vid=3befe6a2-0040-47b1-be86-8d135e568ba6"},"vehicle_type_id":"4","last_reported":1753045781,"current_range_meters":11200,"station_id":"ce4bh112rcd13ifvqd90","pricing_plan_id":"cebpf4jnsgd1na2vs0mg"},{"bike_id":"20597f8e-6c1b-4a51-9e3f-8ecf88381375","system_id":"levelo_inurba_marseille","lat":43.30308,"lon":5.39213,"is_reserved":false,"is_disabled":true,"rental_uris":{"android":"levelo://app?vid=20597f8e-6c1b-4a51-9e3f-8ecf88381375","ios":"levelo://app?vid=20597f8e-6c1b-4a51-9e3f-8ecf88381375"},"vehicle_type_id":"4","last_reported":1753045781,"current_range_meters":11200,"station_id":"ce4bgkh2rcd13ifvqbk0","pricing_plan_id":"cebpf4jnsgd1na2vs0mg"},{"bike_id":"1c73d57b-8ea1-45cf-89cf-c6c96315b119","system_id":"levelo_inurba_marseille","lat":43.22942,"lon":5.35385,"is_reserved":false,"is_disabled":false,"rental_uris":{"android":"levelo://app?vid=1c73d57b-8ea1-45cf-89cf-c6c96315b119","ios":"levelo://app?vid=1c73d57b-8ea1-45cf-89cf-c6c96315b119"},"vehicle_type_id":"4","last_reported":1753045781,"current_range_meters":11200,"station_id":"cpo3532slgdg3j2ikp40","pricing_plan_id":"cebpf4jnsgd1na2vs0mg"},{"bike_id":"747a9921-9b97-445c-9bab-2721d1fdcbc0","system_id":"levelo_inurba_marseille","lat":43.28715,"lon":5.37968,"is_reserved":false,"is_disabled":false,"rental_uris":{"android":"levelo://app?vid=747a9921-9b97-445c-9bab-2721d1fdcbc0","ios":"levelo://app?vid=747a9921-9b97-445c-9bab-2721d1fdcbc0"},"vehicle_type_id":"4","last_reported":1753045781,"current_range_meters":11200,"station_id":"ce4bh9p2rcd13ifvqec0","pricing_plan_id":"cebpf4jnsgd1na2vs0mg"},{"bike_id":"fa06e38c-58b9-4aea-bcf5-74a645703fd3","system_id":"levelo_inurba_marseille","lat":43.28678,"lon":5.40009,"is_reserved":false,"is_disabled":true,"rental_uris":{"android":"levelo://app?vid=fa06e38c-58b9-4aea-bcf5-74a645703fd3","ios":"levelo://app?vid=fa06e38c-58b9-4aea-bcf5-74a645703fd3"},"vehicle_type_id":"4","last_reported":1753045781,"current_range_meters":11600,"station_id":"ce4bho92rcd13ifvqh3g","pricing_plan_id":"cebpf4jnsgd1na2vs0mg"},{"bike_id":"e00ce506-3076-474d-93bd-071948f431ca","system_id":"levelo_inurba_marseille","lat":43.281038,"lon":5.378532,"is_reserved":false,"is_disabled":false,"rental_uris":{"android":"levelo://app?vid=e00ce506-3076-474d-93bd-071948f431ca","ios":"levelo://app?vid=e00ce506-3076-474d-93bd-071948f431ca"},"vehicle_type_id":"4","last_reported":1753045781,"current_range_meters":11600,"station_id":"ce4bha12rcd13ifvqee0","pricing_plan_id":"cebpf4jnsgd1na2vs0mg"},{"bike_id":"1e8b1880-264c-4b77-bf82-6c996a6dc688","system_id":"levelo_inurba_marseille","lat":43.21211,"lon":5.35092,"is_reserved":false,"is_disabled":false,"rental_uris":{"android":"levelo://app?vid=1e8b1880-264c-4b77-bf82-6c996a6dc688","ios":"levelo://app?vid=1e8b1880-264c-4b77-bf82-6c996a6dc688"},"vehicle_type_id":"4","last_reported":1753045781,"current_range_meters":11600,"station_id":"st_cvj6sg6p6f1abm77japg","pricing_plan_id":"cebpf4jnsgd1na2vs0mg"},{"bike_id":"ec56498c-7315-46d2-8779-4f1d12c61dba","system_id":"levelo_inurba_marseille","lat":43.26757,"lon":5.37791,"is_reserved":false,"is_disabled":false,"rental_uris":{"android":"levelo://app?vid=ec56498c-7315-46d2-8779-4f1d12c61dba","ios":"levelo://app?vid=ec56498c-7315-46d2-8779-4f1d12c61dba"},"vehicle_type_id":"4","last_reported":1753045781,"current_range_meters":12000,"station_id":"","pricing_plan_id":"cebpf4jnsgd1na2vs0mg"},{"bike_id":"7f7c773c-89c7-4474-b9ba-9373822aea52","system_id":"levelo_inurba_marseille","lat":43.2587,"lon":5.39916,"is_reserved":false,"is_disabled":true,"rental_uris":{"android":"levelo://app?vid=7f7c773c-89c7-4474-b9ba-9373822aea52","ios":"levelo://app?vid=7f7c773c-89c7-4474-b9ba-9373822aea52"},"vehicle_type_id":"4","last_reported":1753045781,"current_range_meters":12000,"station_id":"ce4bhl92rcd13ifvqghg","pricing_plan_id":"cebpf4jnsgd1na2vs0mg"},{"bike_id":"7988183c-a382-4df8-bfe0-44c34ab63148","system_id":"levelo_inurba_marseille","lat":43.24668,"lon":5.38183,"is_reserved":false,"is_disabled":false,"rental_uris":{"android":"levelo://app?vid=7988183c-a382-4df8-bfe0-44c34ab63148","ios":"levelo://app?vid=7988183c-a382-4df8-bfe0-44c34ab63148"},"vehicle_type_id":"4","last_reported":1753045781,"current_range_meters":12000,"station_id":"ce4bhih2rcd13ifvqfr0","pricing_plan_id":"cebpf4jnsgd1na2vs0mg"},{"bike_id":"95b5bcfa-54af-48c0-bd18-8f73f959ce2b","system_id":"levelo_inurba_marseille","lat":43.31935,"lon":5.37313,"is_reserved":false,"is_disabled":true,"rental_uris":{"android":"levelo://app?vid=95b5bcfa-54af-48c0-bd18-8f73f959ce2b","ios":"levelo://app?vid=95b5bcfa-54af-48c0-bd18-8f73f959ce2b"},"vehicle_type_id":"4","last_reported":1753045781,"current_range_meters":12000,"station_id":"","pricing_plan_id":"cebpf4jnsgd1na2vs0mg"},{"bike_id":"299ec8a6-d5a7-41ea-8121-1c7f792257d2","system_id":"levelo_inurba_marseille","lat":43.27366,"lon":5.36265,"is_reserved":false,"is_disabled":true,"rental_uris":{"android":"levelo://app?vid=299ec8a6-d5a7-41ea-8121-1c7f792257d2","ios":"levelo://app?vid=299ec8a6-d5a7-41ea-8121-1c7f792257d2"},"vehicle_type_id":"4","last_reported":1753045781,"current_range_meters":12400,"station_id":"ce4bhbh2rcd13ifvqeo0","pricing_plan_id":"cebpf4jnsgd1na2vs0mg"},{"bike_id":"218a227e-c64f-4f98-8a22-59cb1cdfd846","system_id":"levelo_inurba_marseille","lat":43.24091,"lon":5.37757,"is_reserved":false,"is_disabled":true,"rental_uris":{"android":"levelo://app?vid=218a227e-c64f-4f98-8a22-59cb1cdfd846","ios":"levelo://app?vid=218a227e-c64f-4f98-8a22-59cb1cdfd846"},"vehicle_type_id":"4","last_reported":1753045781,"current_range_meters":12400,"station_id":"ce4bhnp2rcd13ifvqgvg","pricing_plan_id":"cebpf4jnsgd1na2vs0mg"},{"bike_id":"96793585-b370-4499-97b5-55297e845c8f","system_id":"levelo_inurba_marseille","lat":43.21732,"lon":5.34614,"is_reserved":false,"is_disabled":true,"rental_uris":{"android":"levelo://app?vid=96793585-b370-4499-97b5-55297e845c8f","ios":"levelo://app?vid=96793585-b370-4499-97b5-55297e845c8f"},"vehicle_type_id":"4","last_reported":1753045781,"current_range_meters":12400,"station_id":"st_cvj6r9ubvosntc0bgbag","pricing_plan_id":"cebpf4jnsgd1na2vs0mg"},{"bike_id":"f96368a8-c94b-4619-a4ff-e99b0b02d119","system_id":"levelo_inurba_marseille","lat":43.30891,"lon":5.37204,"is_reserved":false,"is_disabled":false,"rental_uris":{"android":"levelo://app?vid=f96368a8-c94b-4619-a4ff-e99b0b02d119","ios":"levelo://app?vid=f96368a8-c94b-4619-a4ff-e99b0b02d119"},"vehicle_type_id":"4","last_reported":1753045781,"current_range_meters":12400,"station_id":"ce4bguh2rcd13ifvqckg","pricing_plan_id":"cebpf4jnsgd1na2vs0mg"},{"bike_id":"dee6628b-f370-478a-a4db-32c84542aee7","system_id":"levelo_inurba_marseille","lat":43.332793,"lon":5.390288,"is_reserved":false,"is_disabled":false,"rental_uris":{"android":"levelo://app?vid=dee6628b-f370-478a-a4db-32c84542aee7","ios":"levelo://app?vid=dee6628b-f370-478a-a4db-32c84542aee7"},"vehicle_type_id":"4","last_reported":1753045781,"current_range_meters":12400,"station_id":"","pricing_plan_id":"cebpf4jnsgd1na2vs0mg"},{"bike_id":"590f4077-86f6-403a-9813-b406512a7a2d","system_id":"levelo_inurba_marseille","lat":43.29772,"lon":5.37086,"is_reserved":false,"is_disabled":false,"rental_uris":{"android":"levelo://app?vid=590f4077-86f6-403a-9813-b406512a7a2d","ios":"levelo://app?vid=590f4077-86f6-403a-9813-b406512a7a2d"},"vehicle_type_id":"4","last_reported":1753045781,"current_range_meters":12400,"station_id":"ce4bgop2rcd13ifvqc1g","pricing_plan_id":"cebpf4jnsgd1na2vs0mg"},{"bike_id":"7e31bd79-64d2-4fb2-aa62-00beebedde42","system_id":"levelo_inurba_marseille","lat":43.31703,"lon":5.37731,"is_reserved":false,"is_disabled":false,"rental_uris":{"android":"levelo://app?vid=7e31bd79-64d2-4fb2-aa62-00beebedde42","ios":"levelo://app?vid=7e31bd79-64d2-4fb2-aa62-00beebedde42"},"vehicle_type_id":"4","last_reported":1753045781,"current_range_meters":12800,"station_id":"ce4bgth2rcd13ifvqch0","pricing_plan_id":"cebpf4jnsgd1na2vs0mg"},{"bike_id":"3c612d33-b46b-45b5-9dc2-3d6c81b25914","system_id":"levelo_inurba_marseille","lat":43.29272,"lon":5.3846,"is_reserved":false,"is_disabled":false,"rental_uris":{"android":"levelo://app?vid=3c612d33-b46b-45b5-9dc2-3d6c81b25914","ios":"levelo://app?vid=3c612d33-b46b-45b5-9dc2-3d6c81b25914"},"vehicle_type_id":"4","last_reported":1753045781,"current_range_meters":12800,"station_id":"ce4bh692rcd13ifvqea0","pricing_plan_id":"cebpf4jnsgd1na2vs0mg"},{"bike_id":"86c3422c-5828-4ec9-8c82-7bec17ac3699","system_id":"levelo_inurba_marseille","lat":43.232,"lon":5.39981,"is_reserved":false,"is_disabled":false,"rental_uris":{"android":"levelo://app?vid=86c3422c-5828-4ec9-8c82-7bec17ac3699","ios":"levelo://app?vid=86c3422c-5828-4ec9-8c82-7bec17ac3699"},"vehicle_type_id":"4","last_reported":1753045781,"current_range_meters":12800,"station_id":"ce4bhn12rcd13ifvqgqg","pricing_plan_id":"cebpf4jnsgd1na2vs0mg"},{"bike_id":"46a59e2c-3aad-48f2-a477-6c7370b53490","system_id":"levelo_inurba_marseille","lat":43.279,"lon":5.38031,"is_reserved":false,"is_disabled":false,"rental_uris":{"android":"levelo://app?vid=46a59e2c-3aad-48f2-a477-6c7370b53490","ios":"levelo://app?vid=46a59e2c-3aad-48f2-a477-6c7370b53490"},"vehicle_type_id":"4","last_reported":1753045781,"current_range_meters":12400,"station_id":"ce4bhf92rcd13ifvqf50","pricing_plan_id":"cebpf4jnsgd1na2vs0mg"},{"bike_id":"03635c92-c916-417c-a6f6-78b349df6203","system_id":"levelo_inurba_marseille","lat":43.29935,"lon":5.365462,"is_reserved":false,"is_disabled":false,"rental_uris":{"android":"levelo://app?vid=03635c92-c916-417c-a6f6-78b349df6203","ios":"levelo://app?vid=03635c92-c916-417c-a6f6-78b349df6203"},"vehicle_type_id":"4","last_reported":1753045781,"current_range_meters":12800,"station_id":"ce4bgm92rcd13ifvqbr0","pricing_plan_id":"cebpf4jnsgd1na2vs0mg"},{"bike_id":"d3aca52a-4e64-461a-8fd1-e9a035bafbdf","system_id":"levelo_inurba_marseille","lat":43.257213,"lon":5.411019,"is_reserved":false,"is_disabled":false,"rental_uris":{"android":"levelo://app?vid=d3aca52a-4e64-461a-8fd1-e9a035bafbdf","ios":"levelo://app?vid=d3aca52a-4e64-461a-8fd1-e9a035bafbdf"},"vehicle_type_id":"4","last_reported":1753045781,"current_range_meters":12800,"station_id":"","pricing_plan_id":"cebpf4jnsgd1na2vs0mg"},{"bike_id":"ef5bec01-1508-4f8d-9a81-91129dfbdd34","system_id":"levelo_inurba_marseille","lat":43.25105,"lon":5.40324,"is_reserved":false,"is_disabled":false,"rental_uris":{"android":"levelo://app?vid=ef5bec01-1508-4f8d-9a81-91129dfbdd34","ios":"levelo://app?vid=ef5bec01-1508-4f8d-9a81-91129dfbdd34"},"vehicle_type_id":"4","last_reported":1753045781,"current_range_meters":12800,"station_id":"ce4bhlh2rcd13ifvqgig","pricing_plan_id":"cebpf4jnsgd1na2vs0mg"},{"bike_id":"e51dded4-11aa-415b-97a4-683a5822221c","system_id":"levelo_inurba_marseille","lat":43.24072,"lon":5.37766,"is_reserved":false,"is_disabled":false,"rental_uris":{"android":"levelo://app?vid=e51dded4-11aa-415b-97a4-683a5822221c","ios":"levelo://app?vid=e51dded4-11aa-415b-97a4-683a5822221c"},"vehicle_type_id":"4","last_reported":1753045781,"current_range_meters":12800,"station_id":"ce4bhnp2rcd13ifvqgvg","pricing_plan_id":"cebpf4jnsgd1na2vs0mg"},{"bike_id":"053762ef-2967-4c03-83aa-9c21c06b9aed","system_id":"levelo_inurba_marseille","lat":43.24064,"lon":5.37735,"is_reserved":false,"is_disabled":false,"rental_uris":{"android":"levelo://app?vid=053762ef-2967-4c03-83aa-9c21c06b9aed","ios":"levelo://app?vid=053762ef-2967-4c03-83aa-9c21c06b9aed"},"vehicle_type_id":"4","last_reported":1753045781,"current_range_meters":12800,"station_id":"ce4bhnp2rcd13ifvqgvg","pricing_plan_id":"cebpf4jnsgd1na2vs0mg"},{"bike_id":"d67a0051-67ef-4e02-a635-cec8e9781a5a","system_id":"levelo_inurba_marseille","lat":43.30331,"lon":5.40446,"is_reserved":false,"is_disabled":false,"rental_uris":{"android":"levelo://app?vid=d67a0051-67ef-4e02-a635-cec8e9781a5a","ios":"levelo://app?vid=d67a0051-67ef-4e02-a635-cec8e9781a5a"},"vehicle_type_id":"4","last_reported":1753045781,"current_range_meters":12800,"station_id":"ce4bh012rcd13ifvqd10","pricing_plan_id":"cebpf4jnsgd1na2vs0mg"},{"bike_id":"407186b4-bd93-4e8b-8d10-1a0e59a62a75","system_id":"levelo_inurba_marseille","lat":43.230672,"lon":5.35475,"is_reserved":false,"is_disabled":false,"rental_uris":{"android":"levelo://app?vid=407186b4-bd93-4e8b-8d10-1a0e59a62a75","ios":"levelo://app?vid=407186b4-bd93-4e8b-8d10-1a0e59a62a75"},"vehicle_type_id":"4","last_reported":1753045781,"current_range_meters":12800,"station_id":"cpo3342slgdg3j2ifvpg","pricing_plan_id":"cebpf4jnsgd1na2vs0mg"},{"bike_id":"c9695da4-3048-4cfc-83f0-62c3fac1ccbe","system_id":"levelo_inurba_marseille","lat":43.23062,"lon":5.35501,"is_reserved":false,"is_disabled":true,"rental_uris":{"android":"levelo://app?vid=c9695da4-3048-4cfc-83f0-62c3fac1ccbe","ios":"levelo://app?vid=c9695da4-3048-4cfc-83f0-62c3fac1ccbe"},"vehicle_type_id":"4","last_reported":1753045781,"current_range_meters":13600,"station_id":"cpo3342slgdg3j2ifvpg","pricing_plan_id":"cebpf4jnsgd1na2vs0mg"},{"bike_id":"696c5e5f-ee49-4cdd-b0d3-ceab6c87d298","system_id":"levelo_inurba_marseille","lat":43.32105,"lon":5.36768,"is_reserved":false,"is_disabled":false,"rental_uris":{"android":"levelo://app?vid=696c5e5f-ee49-4cdd-b0d3-ceab6c87d298","ios":"levelo://app?vid=696c5e5f-ee49-4cdd-b0d3-ceab6c87d298"},"vehicle_type_id":"4","last_reported":1753045781,"current_range_meters":13600,"station_id":"ce4bhrh2rcd13ifvqhug","pricing_plan_id":"cebpf4jnsgd1na2vs0mg"},{"bike_id":"02c734a1-449a-4577-93cf-d6c608c78150","system_id":"levelo_inurba_marseille","lat":43.28707,"lon":5.37943,"is_reserved":false,"is_disabled":false,"rental_uris":{"android":"levelo://app?vid=02c734a1-449a-4577-93cf-d6c608c78150","ios":"levelo://app?vid=02c734a1-449a-4577-93cf-d6c608c78150"},"vehicle_type_id":"4","last_reported":1753045781,"current_range_meters":13600,"station_id":"ce4bh9p2rcd13ifvqec0","pricing_plan_id":"cebpf4jnsgd1na2vs0mg"},{"bike_id":"25ba3407-5a3a-4241-bff3-f1bbd1fc5162","system_id":"levelo_inurba_marseille","lat":43.292546,"lon":5.409154,"is_reserved":false,"is_disabled":false,"rental_uris":{"android":"levelo://app?vid=25ba3407-5a3a-4241-bff3-f1bbd1fc5162","ios":"levelo://app?vid=25ba3407-5a3a-4241-bff3-f1bbd1fc5162"},"vehicle_type_id":"4","last_reported":1753045781,"current_range_meters":13600,"station_id":"ce4bh192rcd13ifvqdc0","pricing_plan_id":"cebpf4jnsgd1na2vs0mg"},{"bike_id":"0f07c0e6-8028-4fab-9691-a2c5085cf8ec","system_id":"levelo_inurba_marseille","lat":43.32364,"lon":5.3889,"is_reserved":false,"is_disabled":false,"rental_uris":{"android":"levelo://app?vid=0f07c0e6-8028-4fab-9691-a2c5085cf8ec","ios":"levelo://app?vid=0f07c0e6-8028-4fab-9691-a2c5085cf8ec"},"vehicle_type_id":"4","last_reported":1753045781,"current_range_meters":13600,"station_id":"ce4bhqp2rcd13ifvqhog","pricing_plan_id":"cebpf4jnsgd1na2vs0mg"},{"bike_id":"50cd743f-4f16-4525-a89b-26c234741baf","system_id":"levelo_inurba_marseille","lat":43.242301,"lon":5.369306,"is_reserved":false,"is_disabled":false,"rental_uris":{"android":"levelo://app?vid=50cd743f-4f16-4525-a89b-26c234741baf","ios":"levelo://app?vid=50cd743f-4f16-4525-a89b-26c234741baf"},"vehicle_type_id":"4","last_reported":1753045781,"current_range_meters":13600,"station_id":"ce4bhi12rcd13ifvqfp0","pricing_plan_id":"cebpf4jnsgd1na2vs0mg"},{"bike_id":"24677df8-3180-482b-ad1e-30fa45751a3e","system_id":"levelo_inurba_marseille","lat":43.25933,"lon":5.40915,"is_reserved":false,"is_disabled":false,"rental_uris":{"android":"levelo://app?vid=24677df8-3180-482b-ad1e-30fa45751a3e","ios":"levelo://app?vid=24677df8-3180-482b-ad1e-30fa45751a3e"},"vehicle_type_id":"4","last_reported":1753045781,"current_range_meters":13600,"station_id":"ce4bhm92rcd13ifvqglg","pricing_plan_id":"cebpf4jnsgd1na2vs0mg"},{"bike_id":"ff2c165e-5b5b-40b7-9ef9-0c664fd09a94","system_id":"levelo_inurba_marseille","lat":43.29031,"lon":5.38624,"is_reserved":false,"is_disabled":true,"rental_uris":{"android":"levelo://app?vid=ff2c165e-5b5b-40b7-9ef9-0c664fd09a94","ios":"levelo://app?vid=ff2c165e-5b5b-40b7-9ef9-0c664fd09a94"},"vehicle_type_id":"4","last_reported":1753045781,"current_range_meters":13600,"station_id":"ce4bh4p2rcd13ifvqe0g","pricing_plan_id":"cebpf4jnsgd1na2vs0mg"},{"bike_id":"0cb2c80a-7457-4a4a-ad92-f0361b5225d6","system_id":"levelo_inurba_marseille","lat":43.24406,"lon":5.37425,"is_reserved":false,"is_disabled":false,"rental_uris":{"android":"levelo://app?vid=0cb2c80a-7457-4a4a-ad92-f0361b5225d6","ios":"levelo://app?vid=0cb2c80a-7457-4a4a-ad92-f0361b5225d6"},"vehicle_type_id":"4","last_reported":1753045781,"current_range_meters":14000,"station_id":"","pricing_plan_id":"cebpf4jnsgd1na2vs0mg"},{"bike_id":"8af4ec46-0e3d-4672-8f3f-e4983f9d320c","system_id":"levelo_inurba_marseille","lat":43.29868,"lon":5.39743,"is_reserved":false,"is_disabled":false,"rental_uris":{"android":"levelo://app?vid=8af4ec46-0e3d-4672-8f3f-e4983f9d320c","ios":"levelo://app?vid=8af4ec46-0e3d-4672-8f3f-e4983f9d320c"},"vehicle_type_id":"4","last_reported":1753045781,"current_range_meters":14400,"station_id":"ce4bh0h2rcd13ifvqd50","pricing_plan_id":"cebpf4jnsgd1na2vs0mg"},{"bike_id":"3243cca7-3192-40a9-8b8d-9cef1f6ab34f","system_id":"levelo_inurba_marseille","lat":43.30583,"lon":5.39355,"is_reserved":false,"is_disabled":false,"rental_uris":{"android":"levelo://app?vid=3243cca7-3192-40a9-8b8d-9cef1f6ab34f","ios":"levelo://app?vid=3243cca7-3192-40a9-8b8d-9cef1f6ab34f"},"vehicle_type_id":"4","last_reported":1753045781,"current_range_meters":14000,"station_id":"ce4bh0p2rcd13ifvqd80","pricing_plan_id":"cebpf4jnsgd1na2vs0mg"},{"bike_id":"c1e6057c-ff5a-4477-a9f1-93444a633642","system_id":"levelo_inurba_marseille","lat":43.27318,"lon":5.39003,"is_reserved":false,"is_disabled":false,"rental_uris":{"android":"levelo://app?vid=c1e6057c-ff5a-4477-a9f1-93444a633642","ios":"levelo://app?vid=c1e6057c-ff5a-4477-a9f1-93444a633642"},"vehicle_type_id":"4","last_reported":1753045781,"current_range_meters":14400,"station_id":"","pricing_plan_id":"cebpf4jnsgd1na2vs0mg"},{"bike_id":"aa7039ed-31a0-4747-a640-e94f3558d15e","system_id":"levelo_inurba_marseille","lat":43.22503,"lon":5.34793,"is_reserved":false,"is_disabled":true,"rental_uris":{"android":"levelo://app?vid=aa7039ed-31a0-4747-a640-e94f3558d15e","ios":"levelo://app?vid=aa7039ed-31a0-4747-a640-e94f3558d15e"},"vehicle_type_id":"4","last_reported":1753045781,"current_range_meters":14400,"station_id":"","pricing_plan_id":"cebpf4jnsgd1na2vs0mg"},{"bike_id":"9980735b-2531-41d0-ad17-620a252aaf32","system_id":"levelo_inurba_marseille","lat":43.2969,"lon":5.3729,"is_reserved":false,"is_disabled":false,"rental_uris":{"android":"levelo://app?vid=9980735b-2531-41d0-ad17-620a252aaf32","ios":"levelo://app?vid=9980735b-2531-41d0-ad17-620a252aaf32"},"vehicle_type_id":"4","last_reported":1753045781,"current_range_meters":14400,"station_id":"ce4bgk12rcd13ifvqbj0","pricing_plan_id":"cebpf4jnsgd1na2vs0mg"},{"bike_id":"b35812c3-4d9b-4d7a-953d-5a654033ba18","system_id":"levelo_inurba_marseille","lat":43.31058,"lon":5.40083,"is_reserved":false,"is_disabled":false,"rental_uris":{"android":"levelo://app?vid=b35812c3-4d9b-4d7a-953d-5a654033ba18","ios":"levelo://app?vid=b35812c3-4d9b-4d7a-953d-5a654033ba18"},"vehicle_type_id":"4","last_reported":1753045781,"current_range_meters":14400,"station_id":"","pricing_plan_id":"cebpf4jnsgd1na2vs0mg"},{"bike_id":"576cf567-8fff-4070-a670-c7b70ab60708","system_id":"levelo_inurba_marseille","lat":43.29782,"lon":5.39361,"is_reserved":false,"is_disabled":false,"rental_uris":{"android":"levelo://app?vid=576cf567-8fff-4070-a670-c7b70ab60708","ios":"levelo://app?vid=576cf567-8fff-4070-a670-c7b70ab60708"},"vehicle_type_id":"4","last_reported":1753045781,"current_range_meters":14400,"station_id":"chh1huq6cuj3fo74tm60","pricing_plan_id":"cebpf4jnsgd1na2vs0mg"},{"bike_id":"4505f6b7-6ff4-4178-8278-62348175a8bb","system_id":"levelo_inurba_marseille","lat":43.25206,"lon":5.40378,"is_reserved":false,"is_disabled":false,"rental_uris":{"android":"levelo://app?vid=4505f6b7-6ff4-4178-8278-62348175a8bb","ios":"levelo://app?vid=4505f6b7-6ff4-4178-8278-62348175a8bb"},"vehicle_type_id":"4","last_reported":1753045781,"current_range_meters":14400,"station_id":"","pricing_plan_id":"cebpf4jnsgd1na2vs0mg"},{"bike_id":"482f6641-abe7-4780-9bcd-2e246966a766","system_id":"levelo_inurba_marseille","lat":43.28714,"lon":5.37925,"is_reserved":false,"is_disabled":false,"rental_uris":{"android":"levelo://app?vid=482f6641-abe7-4780-9bcd-2e246966a766","ios":"levelo://app?vid=482f6641-abe7-4780-9bcd-2e246966a766"},"vehicle_type_id":"4","last_reported":1753045781,"current_range_meters":14400,"station_id":"ce4bh9p2rcd13ifvqec0","pricing_plan_id":"cebpf4jnsgd1na2vs0mg"},{"bike_id":"b6be07a3-7a9c-445f-bcd4-e72795f5f4af","system_id":"levelo_inurba_marseille","lat":43.27549,"lon":5.38425,"is_reserved":false,"is_disabled":false,"rental_uris":{"android":"levelo://app?vid=b6be07a3-7a9c-445f-bcd4-e72795f5f4af","ios":"levelo://app?vid=b6be07a3-7a9c-445f-bcd4-e72795f5f4af"},"vehicle_type_id":"4","last_reported":1753045781,"current_range_meters":14400,"station_id":"ce4bhh92rcd13ifvqfi0","pricing_plan_id":"cebpf4jnsgd1na2vs0mg"},{"bike_id":"d9ffc317-5093-4b79-a3ac-b6a04220854f","system_id":"levelo_inurba_marseille","lat":43.28715,"lon":5.3796,"is_reserved":false,"is_disabled":false,"rental_uris":{"android":"levelo://app?vid=d9ffc317-5093-4b79-a3ac-b6a04220854f","ios":"levelo://app?vid=d9ffc317-5093-4b79-a3ac-b6a04220854f"},"vehicle_type_id":"4","last_reported":1753045781,"current_range_meters":14400,"station_id":"ce4bh9p2rcd13ifvqec0","pricing_plan_id":"cebpf4jnsgd1na2vs0mg"},{"bike_id":"07fb1559-bb03-4902-a00a-f9dcbdfe6cfb","system_id":"levelo_inurba_marseille","lat":43.28703,"lon":5.37412,"is_reserved":false,"is_disabled":false,"rental_uris":{"android":"levelo://app?vid=07fb1559-bb03-4902-a00a-f9dcbdfe6cfb","ios":"levelo://app?vid=07fb1559-bb03-4902-a00a-f9dcbdfe6cfb"},"vehicle_type_id":"4","last_reported":1753045781,"current_range_meters":14800,"station_id":"ce4bh3p2rcd13ifvqdq0","pricing_plan_id":"cebpf4jnsgd1na2vs0mg"},{"bike_id":"f335eb8b-f2b0-48df-963c-2425602f9038","system_id":"levelo_inurba_marseille","lat":43.270044,"lon":5.401204,"is_reserved":false,"is_disabled":true,"rental_uris":{"android":"levelo://app?vid=f335eb8b-f2b0-48df-963c-2425602f9038","ios":"levelo://app?vid=f335eb8b-f2b0-48df-963c-2425602f9038"},"vehicle_type_id":"4","last_reported":1753045781,"current_range_meters":14800,"station_id":"","pricing_plan_id":"cebpf4jnsgd1na2vs0mg"},{"bike_id":"eb240428-00e7-472b-91f5-4bf4c52fb633","system_id":"levelo_inurba_marseille","lat":43.2621,"lon":5.379255,"is_reserved":false,"is_disabled":true,"rental_uris":{"android":"levelo://app?vid=eb240428-00e7-472b-91f5-4bf4c52fb633","ios":"levelo://app?vid=eb240428-00e7-472b-91f5-4bf4c52fb633"},"vehicle_type_id":"4","last_reported":1753045781,"current_range_meters":14800,"station_id":"ce4bhjp2rcd13ifvqg90","pricing_plan_id":"cebpf4jnsgd1na2vs0mg"},{"bike_id":"ff304561-c8ce-4ac1-9008-9c7fa7a2d85b","system_id":"levelo_inurba_marseille","lat":43.29248,"lon":5.38436,"is_reserved":false,"is_disabled":true,"rental_uris":{"android":"levelo://app?vid=ff304561-c8ce-4ac1-9008-9c7fa7a2d85b","ios":"levelo://app?vid=ff304561-c8ce-4ac1-9008-9c7fa7a2d85b"},"vehicle_type_id":"4","last_reported":1753045781,"current_range_meters":14800,"station_id":"ce4bh692rcd13ifvqea0","pricing_plan_id":"cebpf4jnsgd1na2vs0mg"},{"bike_id":"cb331a89-56a6-4651-9865-7241cd4ca587","system_id":"levelo_inurba_marseille","lat":43.32483,"lon":5.36551,"is_reserved":false,"is_disabled":false,"rental_uris":{"android":"levelo://app?vid=cb331a89-56a6-4651-9865-7241cd4ca587","ios":"levelo://app?vid=cb331a89-56a6-4651-9865-7241cd4ca587"},"vehicle_type_id":"4","last_reported":1753045781,"current_range_meters":14800,"station_id":"ce4bhs12rcd13ifvqhvg","pricing_plan_id":"cebpf4jnsgd1na2vs0mg"},{"bike_id":"bdc1fd4b-3be2-43ec-8490-24512b54e93c","system_id":"levelo_inurba_marseille","lat":43.28859,"lon":5.39333,"is_reserved":false,"is_disabled":false,"rental_uris":{"android":"levelo://app?vid=bdc1fd4b-3be2-43ec-8490-24512b54e93c","ios":"levelo://app?vid=bdc1fd4b-3be2-43ec-8490-24512b54e93c"},"vehicle_type_id":"4","last_reported":1753045781,"current_range_meters":14800,"station_id":"ce4bh2p2rcd13ifvqdi0","pricing_plan_id":"cebpf4jnsgd1na2vs0mg"},{"bike_id":"5ccf6fcb-646f-4acf-9fbc-c7f16de7c973","system_id":"levelo_inurba_marseille","lat":43.32651,"lon":5.42369,"is_reserved":false,"is_disabled":false,"rental_uris":{"android":"levelo://app?vid=5ccf6fcb-646f-4acf-9fbc-c7f16de7c973","ios":"levelo://app?vid=5ccf6fcb-646f-4acf-9fbc-c7f16de7c973"},"vehicle_type_id":"4","last_reported":1753045781,"current_range_meters":14800,"station_id":"","pricing_plan_id":"cebpf4jnsgd1na2vs0mg"},{"bike_id":"b6380031-1931-4b9b-95e3-9731b8b81348","system_id":"levelo_inurba_marseille","lat":43.29789,"lon":5.371987,"is_reserved":false,"is_disabled":true,"rental_uris":{"android":"levelo://app?vid=b6380031-1931-4b9b-95e3-9731b8b81348","ios":"levelo://app?vid=b6380031-1931-4b9b-95e3-9731b8b81348"},"vehicle_type_id":"4","last_reported":1753045781,"current_range_meters":14800,"station_id":"","pricing_plan_id":"cebpf4jnsgd1na2vs0mg"},{"bike_id":"c297701c-c5e4-4588-bc94-b2867a1562aa","system_id":"levelo_inurba_marseille","lat":43.299191,"lon":5.38143,"is_reserved":false,"is_disabled":false,"rental_uris":{"android":"levelo://app?vid=c297701c-c5e4-4588-bc94-b2867a1562aa","ios":"levelo://app?vid=c297701c-c5e4-4588-bc94-b2867a1562aa"},"vehicle_type_id":"4","last_reported":1753045781,"current_range_meters":14800,"station_id":"ce4bgj12rcd13ifvqbc0","pricing_plan_id":"cebpf4jnsgd1na2vs0mg"},{"bike_id":"8b70e333-db95-4dad-9f25-3f58617e52f2","system_id":"levelo_inurba_marseille","lat":43.29894,"lon":5.43666,"is_reserved":false,"is_disabled":false,"rental_uris":{"android":"levelo://app?vid=8b70e333-db95-4dad-9f25-3f58617e52f2","ios":"levelo://app?vid=8b70e333-db95-4dad-9f25-3f58617e52f2"},"vehicle_type_id":"4","last_reported":1753045781,"current_range_meters":14800,"station_id":"ce4bhpp2rcd13ifvqhfg","pricing_plan_id":"cebpf4jnsgd1na2vs0mg"},{"bike_id":"ca4e61d9-cfbc-49a2-8ca2-b4018d243d8a","system_id":"levelo_inurba_marseille","lat":43.28573,"lon":5.39503,"is_reserved":false,"is_disabled":false,"rental_uris":{"android":"levelo://app?vid=ca4e61d9-cfbc-49a2-8ca2-b4018d243d8a","ios":"levelo://app?vid=ca4e61d9-cfbc-49a2-8ca2-b4018d243d8a"},"vehicle_type_id":"4","last_reported":1753045781,"current_range_meters":14400,"station_id":"ce4bh292rcd13ifvqdg0","pricing_plan_id":"cebpf4jnsgd1na2vs0mg"},{"bike_id":"341eec4e-ddcf-4f75-95c6-ecd84ef432ec","system_id":"levelo_inurba_marseille","lat":43.22962,"lon":5.35398,"is_reserved":false,"is_disabled":false,"rental_uris":{"android":"levelo://app?vid=341eec4e-ddcf-4f75-95c6-ecd84ef432ec","ios":"levelo://app?vid=341eec4e-ddcf-4f75-95c6-ecd84ef432ec"},"vehicle_type_id":"4","last_reported":1753045781,"current_range_meters":15200,"station_id":"cpo3532slgdg3j2ikp40","pricing_plan_id":"cebpf4jnsgd1na2vs0mg"},{"bike_id":"53cb4f43-b1af-4efe-9f40-e0338804f4d4","system_id":"levelo_inurba_marseille","lat":43.31281,"lon":5.39059,"is_reserved":false,"is_disabled":false,"rental_uris":{"android":"levelo://app?vid=53cb4f43-b1af-4efe-9f40-e0338804f4d4","ios":"levelo://app?vid=53cb4f43-b1af-4efe-9f40-e0338804f4d4"},"vehicle_type_id":"4","last_reported":1753045781,"current_range_meters":15200,"station_id":"","pricing_plan_id":"cebpf4jnsgd1na2vs0mg"},{"bike_id":"7230cb4d-8cd2-4957-9d99-c27265ab6ce1","system_id":"levelo_inurba_marseille","lat":43.29299,"lon":5.37168,"is_reserved":false,"is_disabled":false,"rental_uris":{"android":"levelo://app?vid=7230cb4d-8cd2-4957-9d99-c27265ab6ce1","ios":"levelo://app?vid=7230cb4d-8cd2-4957-9d99-c27265ab6ce1"},"vehicle_type_id":"4","last_reported":1753045781,"current_range_meters":15200,"station_id":"","pricing_plan_id":"cebpf4jnsgd1na2vs0mg"},{"bike_id":"37d8cb1b-1988-4390-9e4c-4eca73c82c19","system_id":"levelo_inurba_marseille","lat":43.262,"lon":5.37473,"is_reserved":false,"is_disabled":true,"rental_uris":{"android":"levelo://app?vid=37d8cb1b-1988-4390-9e4c-4eca73c82c19","ios":"levelo://app?vid=37d8cb1b-1988-4390-9e4c-4eca73c82c19"},"vehicle_type_id":"4","last_reported":1753045781,"current_range_meters":15200,"station_id":"ce4bhgp2rcd13ifvqfc0","pricing_plan_id":"cebpf4jnsgd1na2vs0mg"},{"bike_id":"63b0b856-af33-4970-b22e-c07117f2395e","system_id":"levelo_inurba_marseille","lat":43.2119,"lon":5.35075,"is_reserved":false,"is_disabled":false,"rental_uris":{"android":"levelo://app?vid=63b0b856-af33-4970-b22e-c07117f2395e","ios":"levelo://app?vid=63b0b856-af33-4970-b22e-c07117f2395e"},"vehicle_type_id":"4","last_reported":1753045781,"current_range_meters":15200,"station_id":"st_cvj6sg6p6f1abm77japg","pricing_plan_id":"cebpf4jnsgd1na2vs0mg"},{"bike_id":"4355836e-ae99-4039-b85f-c4e239c9dca5","system_id":"levelo_inurba_marseille","lat":43.299061,"lon":5.436673,"is_reserved":false,"is_disabled":false,"rental_uris":{"android":"levelo://app?vid=4355836e-ae99-4039-b85f-c4e239c9dca5","ios":"levelo://app?vid=4355836e-ae99-4039-b85f-c4e239c9dca5"},"vehicle_type_id":"4","last_reported":1753045781,"current_range_meters":16000,"station_id":"ce4bhpp2rcd13ifvqhfg","pricing_plan_id":"cebpf4jnsgd1na2vs0mg"},{"bike_id":"6e9a1427-dc9c-43d9-92e2-3c03a7d4d52f","system_id":"levelo_inurba_marseille","lat":43.33146,"lon":5.38174,"is_reserved":false,"is_disabled":false,"rental_uris":{"android":"levelo://app?vid=6e9a1427-dc9c-43d9-92e2-3c03a7d4d52f","ios":"levelo://app?vid=6e9a1427-dc9c-43d9-92e2-3c03a7d4d52f"},"vehicle_type_id":"4","last_reported":1753045781,"current_range_meters":16000,"station_id":"","pricing_plan_id":"cebpf4jnsgd1na2vs0mg"},{"bike_id":"1fb46a66-c105-4aab-b379-15a019e1d2d6","system_id":"levelo_inurba_marseille","lat":43.307434,"lon":5.373696,"is_reserved":false,"is_disabled":false,"rental_uris":{"android":"levelo://app?vid=1fb46a66-c105-4aab-b379-15a019e1d2d6","ios":"levelo://app?vid=1fb46a66-c105-4aab-b379-15a019e1d2d6"},"vehicle_type_id":"4","last_reported":1753045781,"current_range_meters":16000,"station_id":"","pricing_plan_id":"cebpf4jnsgd1na2vs0mg"},{"bike_id":"ed83db62-6737-4e98-842e-539131f64a6c","system_id":"levelo_inurba_marseille","lat":43.30133,"lon":5.38781,"is_reserved":false,"is_disabled":false,"rental_uris":{"android":"levelo://app?vid=ed83db62-6737-4e98-842e-539131f64a6c","ios":"levelo://app?vid=ed83db62-6737-4e98-842e-539131f64a6c"},"vehicle_type_id":"4","last_reported":1753045781,"current_range_meters":16000,"station_id":"ce4bghh2rcd13ifvqb60","pricing_plan_id":"cebpf4jnsgd1na2vs0mg"},{"bike_id":"4c8283f7-9214-4f90-b93f-b371d5ff3abb","system_id":"levelo_inurba_marseille","lat":43.21186,"lon":5.35078,"is_reserved":false,"is_disabled":false,"rental_uris":{"android":"levelo://app?vid=4c8283f7-9214-4f90-b93f-b371d5ff3abb","ios":"levelo://app?vid=4c8283f7-9214-4f90-b93f-b371d5ff3abb"},"vehicle_type_id":"4","last_reported":1753045781,"current_range_meters":16000,"station_id":"st_cvj6sg6p6f1abm77japg","pricing_plan_id":"cebpf4jnsgd1na2vs0mg"},{"bike_id":"f3f581c3-7fd6-46b6-b25c-df950de01306","system_id":"levelo_inurba_marseille","lat":43.28707,"lon":5.39993,"is_reserved":false,"is_disabled":true,"rental_uris":{"android":"levelo://app?vid=f3f581c3-7fd6-46b6-b25c-df950de01306","ios":"levelo://app?vid=f3f581c3-7fd6-46b6-b25c-df950de01306"},"vehicle_type_id":"4","last_reported":1753045781,"current_range_meters":16000,"station_id":"ce4bho92rcd13ifvqh3g","pricing_plan_id":"cebpf4jnsgd1na2vs0mg"},{"bike_id":"91f3f1b7-ec72-46d1-a603-4babab5fd129","system_id":"levelo_inurba_marseille","lat":43.28695,"lon":5.37386,"is_reserved":false,"is_disabled":false,"rental_uris":{"android":"levelo://app?vid=91f3f1b7-ec72-46d1-a603-4babab5fd129","ios":"levelo://app?vid=91f3f1b7-ec72-46d1-a603-4babab5fd129"},"vehicle_type_id":"4","last_reported":1753045781,"current_range_meters":16000,"station_id":"ce4bh3p2rcd13ifvqdq0","pricing_plan_id":"cebpf4jnsgd1na2vs0mg"},{"bike_id":"b2c7c751-4049-4e79-8934-45d577262a53","system_id":"levelo_inurba_marseille","lat":43.29707,"lon":5.3662,"is_reserved":false,"is_disabled":false,"rental_uris":{"android":"levelo://app?vid=b2c7c751-4049-4e79-8934-45d577262a53","ios":"levelo://app?vid=b2c7c751-4049-4e79-8934-45d577262a53"},"vehicle_type_id":"4","last_reported":1753045781,"current_range_meters":16000,"station_id":"ce4bgn12rcd13ifvqbt0","pricing_plan_id":"cebpf4jnsgd1na2vs0mg"},{"bike_id":"8979afbb-d831-492b-8bd1-2b5d774796f7","system_id":"levelo_inurba_marseille","lat":43.27069,"lon":5.42286,"is_reserved":false,"is_disabled":false,"rental_uris":{"android":"levelo://app?vid=8979afbb-d831-492b-8bd1-2b5d774796f7","ios":"levelo://app?vid=8979afbb-d831-492b-8bd1-2b5d774796f7"},"vehicle_type_id":"4","last_reported":1753045781,"current_range_meters":16000,"station_id":"ce4bhk92rcd13ifvqgb0","pricing_plan_id":"cebpf4jnsgd1na2vs0mg"},{"bike_id":"38188964-4978-44c1-8278-3d99d01337ed","system_id":"levelo_inurba_marseille","lat":43.29256,"lon":5.38446,"is_reserved":false,"is_disabled":false,"rental_uris":{"android":"levelo://app?vid=38188964-4978-44c1-8278-3d99d01337ed","ios":"levelo://app?vid=38188964-4978-44c1-8278-3d99d01337ed"},"vehicle_type_id":"4","last_reported":1753045781,"current_range_meters":16000,"station_id":"ce4bh692rcd13ifvqea0","pricing_plan_id":"cebpf4jnsgd1na2vs0mg"},{"bike_id":"4e5823ac-9313-4e20-81da-720a18c2dac7","system_id":"levelo_inurba_marseille","lat":43.32098,"lon":5.36784,"is_reserved":false,"is_disabled":false,"rental_uris":{"android":"levelo://app?vid=4e5823ac-9313-4e20-81da-720a18c2dac7","ios":"levelo://app?vid=4e5823ac-9313-4e20-81da-720a18c2dac7"},"vehicle_type_id":"4","last_reported":1753045781,"current_range_meters":16000,"station_id":"ce4bhrh2rcd13ifvqhug","pricing_plan_id":"cebpf4jnsgd1na2vs0mg"},{"bike_id":"03772b11-05f4-48cd-b352-479340b3f53c","system_id":"levelo_inurba_marseille","lat":43.28498,"lon":5.38492,"is_reserved":false,"is_disabled":true,"rental_uris":{"android":"levelo://app?vid=03772b11-05f4-48cd-b352-479340b3f53c","ios":"levelo://app?vid=03772b11-05f4-48cd-b352-479340b3f53c"},"vehicle_type_id":"4","last_reported":1753045781,"current_range_meters":16000,"station_id":"","pricing_plan_id":"cebpf4jnsgd1na2vs0mg"},{"bike_id":"42752829-3ee2-4e84-849d-429017304915","system_id":"levelo_inurba_marseille","lat":43.28471,"lon":5.35927,"is_reserved":false,"is_disabled":true,"rental_uris":{"android":"levelo://app?vid=42752829-3ee2-4e84-849d-429017304915","ios":"levelo://app?vid=42752829-3ee2-4e84-849d-429017304915"},"vehicle_type_id":"4","last_reported":1753045781,"current_range_meters":16000,"station_id":"ce4bhah2rcd13ifvqei0","pricing_plan_id":"cebpf4jnsgd1na2vs0mg"},{"bike_id":"3a0ad0b3-730c-4b6f-afc8-d25401cb7d69","system_id":"levelo_inurba_marseille","lat":43.246682,"lon":5.381619,"is_reserved":false,"is_disabled":false,"rental_uris":{"android":"levelo://app?vid=3a0ad0b3-730c-4b6f-afc8-d25401cb7d69","ios":"levelo://app?vid=3a0ad0b3-730c-4b6f-afc8-d25401cb7d69"},"vehicle_type_id":"4","last_reported":1753045781,"current_range_meters":16000,"station_id":"ce4bhih2rcd13ifvqfr0","pricing_plan_id":"cebpf4jnsgd1na2vs0mg"},{"bike_id":"0a49370d-5c64-49b9-9eeb-65d71d2a8d7f","system_id":"levelo_inurba_marseille","lat":43.29794,"lon":5.39344,"is_reserved":false,"is_disabled":false,"rental_uris":{"android":"levelo://app?vid=0a49370d-5c64-49b9-9eeb-65d71d2a8d7f","ios":"levelo://app?vid=0a49370d-5c64-49b9-9eeb-65d71d2a8d7f"},"vehicle_type_id":"4","last_reported":1753045781,"current_range_meters":16000,"station_id":"chh1huq6cuj3fo74tm60","pricing_plan_id":"cebpf4jnsgd1na2vs0mg"},{"bike_id":"48153e62-e069-4aa4-8236-6d8f8c3e6c8b","system_id":"levelo_inurba_marseille","lat":43.28432,"lon":5.39195,"is_reserved":false,"is_disabled":false,"rental_uris":{"android":"levelo://app?vid=48153e62-e069-4aa4-8236-6d8f8c3e6c8b","ios":"levelo://app?vid=48153e62-e069-4aa4-8236-6d8f8c3e6c8b"},"vehicle_type_id":"4","last_reported":1753045781,"current_range_meters":16000,"station_id":"ce4bhoh2rcd13ifvqh5g","pricing_plan_id":"cebpf4jnsgd1na2vs0mg"},{"bike_id":"4825f572-5606-4699-8c58-8ed13b8f359f","system_id":"levelo_inurba_marseille","lat":43.241692,"lon":5.364064,"is_reserved":false,"is_disabled":true,"rental_uris":{"android":"levelo://app?vid=4825f572-5606-4699-8c58-8ed13b8f359f","ios":"levelo://app?vid=4825f572-5606-4699-8c58-8ed13b8f359f"},"vehicle_type_id":"4","last_reported":1753045781,"current_range_meters":16400,"station_id":"cpo36qri1sfpv3e86is0","pricing_plan_id":"cebpf4jnsgd1na2vs0mg"},{"bike_id":"b1c7f2f0-1a0a-4a9d-8ee6-abe3950a939e","system_id":"levelo_inurba_marseille","lat":43.2885,"lon":5.39323,"is_reserved":false,"is_disabled":false,"rental_uris":{"android":"levelo://app?vid=b1c7f2f0-1a0a-4a9d-8ee6-abe3950a939e","ios":"levelo://app?vid=b1c7f2f0-1a0a-4a9d-8ee6-abe3950a939e"},"vehicle_type_id":"4","last_reported":1753045781,"current_range_meters":16400,"station_id":"ce4bh2p2rcd13ifvqdi0","pricing_plan_id":"cebpf4jnsgd1na2vs0mg"},{"bike_id":"e0785b12-a3f3-4d52-8157-2005b5688f24","system_id":"levelo_inurba_marseille","lat":43.310743,"lon":5.383556,"is_reserved":false,"is_disabled":false,"rental_uris":{"android":"levelo://app?vid=e0785b12-a3f3-4d52-8157-2005b5688f24","ios":"levelo://app?vid=e0785b12-a3f3-4d52-8157-2005b5688f24"},"vehicle_type_id":"4","last_reported":1753045781,"current_range_meters":16400,"station_id":"","pricing_plan_id":"cebpf4jnsgd1na2vs0mg"},{"bike_id":"5f90b9be-8027-4172-b500-9c12ba4f7cd6","system_id":"levelo_inurba_marseille","lat":43.28846,"lon":5.39318,"is_reserved":false,"is_disabled":false,"rental_uris":{"android":"levelo://app?vid=5f90b9be-8027-4172-b500-9c12ba4f7cd6","ios":"levelo://app?vid=5f90b9be-8027-4172-b500-9c12ba4f7cd6"},"vehicle_type_id":"4","last_reported":1753045781,"current_range_meters":16400,"station_id":"ce4bh2p2rcd13ifvqdi0","pricing_plan_id":"cebpf4jnsgd1na2vs0mg"},{"bike_id":"61544ea3-a0b6-4fb1-9f76-fa48ec8fc6a3","system_id":"levelo_inurba_marseille","lat":43.30293,"lon":5.37736,"is_reserved":false,"is_disabled":true,"rental_uris":{"android":"levelo://app?vid=61544ea3-a0b6-4fb1-9f76-fa48ec8fc6a3","ios":"levelo://app?vid=61544ea3-a0b6-4fb1-9f76-fa48ec8fc6a3"},"vehicle_type_id":"4","last_reported":1753045781,"current_range_meters":16400,"station_id":"ce4bguh2rcd13ifvqcj0","pricing_plan_id":"cebpf4jnsgd1na2vs0mg"},{"bike_id":"3d36c590-bfb3-4f3d-a821-3b0275041fa7","system_id":"levelo_inurba_marseille","lat":43.3042,"lon":5.41324,"is_reserved":false,"is_disabled":false,"rental_uris":{"android":"levelo://app?vid=3d36c590-bfb3-4f3d-a821-3b0275041fa7","ios":"levelo://app?vid=3d36c590-bfb3-4f3d-a821-3b0275041fa7"},"vehicle_type_id":"4","last_reported":1753045781,"current_range_meters":16400,"station_id":"ce4bhop2rcd13ifvqh8g","pricing_plan_id":"cebpf4jnsgd1na2vs0mg"},{"bike_id":"fa24b12e-5e9d-48af-8a50-21aeb28ea592","system_id":"levelo_inurba_marseille","lat":43.296936,"lon":5.366025,"is_reserved":false,"is_disabled":false,"rental_uris":{"android":"levelo://app?vid=fa24b12e-5e9d-48af-8a50-21aeb28ea592","ios":"levelo://app?vid=fa24b12e-5e9d-48af-8a50-21aeb28ea592"},"vehicle_type_id":"4","last_reported":1753045781,"current_range_meters":16400,"station_id":"ce4bh492rcd13ifvqdvg","pricing_plan_id":"cebpf4jnsgd1na2vs0mg"},{"bike_id":"a67cc09e-a83f-40ef-b187-cbe92825a373","system_id":"levelo_inurba_marseille","lat":43.31354,"lon":5.38499,"is_reserved":false,"is_disabled":false,"rental_uris":{"android":"levelo://app?vid=a67cc09e-a83f-40ef-b187-cbe92825a373","ios":"levelo://app?vid=a67cc09e-a83f-40ef-b187-cbe92825a373"},"vehicle_type_id":"4","last_reported":1753045781,"current_range_meters":16400,"station_id":"ce4bgt92rcd13ifvqcf0","pricing_plan_id":"cebpf4jnsgd1na2vs0mg"},{"bike_id":"467330b1-db29-4f7c-9996-7d9d9b90c877","system_id":"levelo_inurba_marseille","lat":43.2903,"lon":5.38153,"is_reserved":false,"is_disabled":false,"rental_uris":{"android":"levelo://app?vid=467330b1-db29-4f7c-9996-7d9d9b90c877","ios":"levelo://app?vid=467330b1-db29-4f7c-9996-7d9d9b90c877"},"vehicle_type_id":"4","last_reported":1753045781,"current_range_meters":16400,"station_id":"ce4bh4p2rcd13ifvqe1g","pricing_plan_id":"cebpf4jnsgd1na2vs0mg"},{"bike_id":"d2a9ef2a-3ecf-454e-ac8d-c81b3a196753","system_id":"levelo_inurba_marseille","lat":43.28623,"lon":5.3822,"is_reserved":false,"is_disabled":false,"rental_uris":{"android":"levelo://app?vid=d2a9ef2a-3ecf-454e-ac8d-c81b3a196753","ios":"levelo://app?vid=d2a9ef2a-3ecf-454e-ac8d-c81b3a196753"},"vehicle_type_id":"4","last_reported":1753045781,"current_range_meters":16400,"station_id":"","pricing_plan_id":"cebpf4jnsgd1na2vs0mg"},{"bike_id":"d31140e6-d77e-4e57-8fd6-2b5c45c2d68b","system_id":"levelo_inurba_marseille","lat":43.28719,"lon":5.37957,"is_reserved":false,"is_disabled":false,"rental_uris":{"android":"levelo://app?vid=d31140e6-d77e-4e57-8fd6-2b5c45c2d68b","ios":"levelo://app?vid=d31140e6-d77e-4e57-8fd6-2b5c45c2d68b"},"vehicle_type_id":"4","last_reported":1753045781,"current_range_meters":16400,"station_id":"ce4bh9p2rcd13ifvqec0","pricing_plan_id":"cebpf4jnsgd1na2vs0mg"},{"bike_id":"841226dc-d800-4af0-adb4-d3fc7c7cf8e8","system_id":"levelo_inurba_marseille","lat":43.29552,"lon":5.42298,"is_reserved":false,"is_disabled":true,"rental_uris":{"android":"levelo://app?vid=841226dc-d800-4af0-adb4-d3fc7c7cf8e8","ios":"levelo://app?vid=841226dc-d800-4af0-adb4-d3fc7c7cf8e8"},"vehicle_type_id":"4","last_reported":1753045781,"current_range_meters":16400,"station_id":"ce4bhph2rcd13ifvqhdg","pricing_plan_id":"cebpf4jnsgd1na2vs0mg"},{"bike_id":"1705f469-72b3-4b6b-a3ab-684dfcba22ca","system_id":"levelo_inurba_marseille","lat":43.265669,"lon":5.390055,"is_reserved":false,"is_disabled":true,"rental_uris":{"android":"levelo://app?vid=1705f469-72b3-4b6b-a3ab-684dfcba22ca","ios":"levelo://app?vid=1705f469-72b3-4b6b-a3ab-684dfcba22ca"},"vehicle_type_id":"4","last_reported":1753045781,"current_range_meters":16400,"station_id":"ce4bhe12rcd13ifvqf30","pricing_plan_id":"cebpf4jnsgd1na2vs0mg"},{"bike_id":"43e703c6-9907-49a0-ac06-2809026f4383","system_id":"levelo_inurba_marseille","lat":43.22499,"lon":5.34777,"is_reserved":false,"is_disabled":false,"rental_uris":{"android":"levelo://app?vid=43e703c6-9907-49a0-ac06-2809026f4383","ios":"levelo://app?vid=43e703c6-9907-49a0-ac06-2809026f4383"},"vehicle_type_id":"4","last_reported":1753045781,"current_range_meters":16400,"station_id":"st_cvj5dfep6f1abm77gieg","pricing_plan_id":"cebpf4jnsgd1na2vs0mg"},{"bike_id":"36727d4b-342f-4746-8c64-f19f1cc15835","system_id":"levelo_inurba_marseille","lat":43.28435,"lon":5.39202,"is_reserved":false,"is_disabled":false,"rental_uris":{"android":"levelo://app?vid=36727d4b-342f-4746-8c64-f19f1cc15835","ios":"levelo://app?vid=36727d4b-342f-4746-8c64-f19f1cc15835"},"vehicle_type_id":"4","last_reported":1753045781,"current_range_meters":16800,"station_id":"ce4bhoh2rcd13ifvqh5g","pricing_plan_id":"cebpf4jnsgd1na2vs0mg"},{"bike_id":"9122425b-c5cf-427e-9633-739726b096af","system_id":"levelo_inurba_marseille","lat":43.29422,"lon":5.386006,"is_reserved":false,"is_disabled":false,"rental_uris":{"android":"levelo://app?vid=9122425b-c5cf-427e-9633-739726b096af","ios":"levelo://app?vid=9122425b-c5cf-427e-9633-739726b096af"},"vehicle_type_id":"4","last_reported":1753045781,"current_range_meters":16800,"station_id":"ce4bho92rcd13ifvqh3g","pricing_plan_id":"cebpf4jnsgd1na2vs0mg"},{"bike_id":"6a6b2ff3-cee3-4205-bb5e-82a0645ef825","system_id":"levelo_inurba_marseille","lat":43.29896,"lon":5.39779,"is_reserved":false,"is_disabled":false,"rental_uris":{"android":"levelo://app?vid=6a6b2ff3-cee3-4205-bb5e-82a0645ef825","ios":"levelo://app?vid=6a6b2ff3-cee3-4205-bb5e-82a0645ef825"},"vehicle_type_id":"4","last_reported":1753045781,"current_range_meters":16800,"station_id":"ce4bh0h2rcd13ifvqd50","pricing_plan_id":"cebpf4jnsgd1na2vs0mg"},{"bike_id":"01ef6f38-0cb9-4831-9c9a-0f76f326e484","system_id":"levelo_inurba_marseille","lat":43.29008,"lon":5.356086,"is_reserved":false,"is_disabled":true,"rental_uris":{"android":"levelo://app?vid=01ef6f38-0cb9-4831-9c9a-0f76f326e484","ios":"levelo://app?vid=01ef6f38-0cb9-4831-9c9a-0f76f326e484"},"vehicle_type_id":"4","last_reported":1753045781,"current_range_meters":16800,"station_id":"ce4bhb92rcd13ifvqen0","pricing_plan_id":"cebpf4jnsgd1na2vs0mg"},{"bike_id":"4fd0694f-0d35-473d-a82b-3d5b06754cb4","system_id":"levelo_inurba_marseille","lat":43.32428,"lon":5.44956,"is_reserved":false,"is_disabled":false,"rental_uris":{"android":"levelo://app?vid=4fd0694f-0d35-473d-a82b-3d5b06754cb4","ios":"levelo://app?vid=4fd0694f-0d35-473d-a82b-3d5b06754cb4"},"vehicle_type_id":"4","last_reported":1753045781,"current_range_meters":16800,"station_id":"","pricing_plan_id":"cebpf4jnsgd1na2vs0mg"},{"bike_id":"53f4b33d-8041-4b3e-b9d9-1ca86025dec5","system_id":"levelo_inurba_marseille","lat":43.31989,"lon":5.38165,"is_reserved":false,"is_disabled":false,"rental_uris":{"android":"levelo://app?vid=53f4b33d-8041-4b3e-b9d9-1ca86025dec5","ios":"levelo://app?vid=53f4b33d-8041-4b3e-b9d9-1ca86025dec5"},"vehicle_type_id":"4","last_reported":1753045781,"current_range_meters":16800,"station_id":"ce4bhr12rcd13ifvqhpg","pricing_plan_id":"cebpf4jnsgd1na2vs0mg"},{"bike_id":"b63cecec-9566-4568-8597-5af41c5ae1f5","system_id":"levelo_inurba_marseille","lat":43.30311,"lon":5.39219,"is_reserved":false,"is_disabled":false,"rental_uris":{"android":"levelo://app?vid=b63cecec-9566-4568-8597-5af41c5ae1f5","ios":"levelo://app?vid=b63cecec-9566-4568-8597-5af41c5ae1f5"},"vehicle_type_id":"4","last_reported":1753045781,"current_range_meters":16400,"station_id":"ce4bgkh2rcd13ifvqbk0","pricing_plan_id":"cebpf4jnsgd1na2vs0mg"},{"bike_id":"428abd34-efd3-468f-8690-edd428d4e84d","system_id":"levelo_inurba_marseille","lat":43.28152,"lon":5.42639,"is_reserved":false,"is_disabled":false,"rental_uris":{"android":"levelo://app?vid=428abd34-efd3-468f-8690-edd428d4e84d","ios":"levelo://app?vid=428abd34-efd3-468f-8690-edd428d4e84d"},"vehicle_type_id":"4","last_reported":1753045781,"current_range_meters":16800,"station_id":"ce4bhnh2rcd13ifvqgug","pricing_plan_id":"cebpf4jnsgd1na2vs0mg"},{"bike_id":"e405ae99-724b-45b8-89d4-31a24be84588","system_id":"levelo_inurba_marseille","lat":43.31221,"lon":5.36869,"is_reserved":false,"is_disabled":false,"rental_uris":{"android":"levelo://app?vid=e405ae99-724b-45b8-89d4-31a24be84588","ios":"levelo://app?vid=e405ae99-724b-45b8-89d4-31a24be84588"},"vehicle_type_id":"4","last_reported":1753045781,"current_range_meters":16800,"station_id":"ce4bgl92rcd13ifvqbq0","pricing_plan_id":"cebpf4jnsgd1na2vs0mg"},{"bike_id":"97af3312-6a5f-4b04-9619-202874ae8295","system_id":"levelo_inurba_marseille","lat":43.29429,"lon":5.38584,"is_reserved":false,"is_disabled":false,"rental_uris":{"android":"levelo://app?vid=97af3312-6a5f-4b04-9619-202874ae8295","ios":"levelo://app?vid=97af3312-6a5f-4b04-9619-202874ae8295"},"vehicle_type_id":"4","last_reported":1753045781,"current_range_meters":16800,"station_id":"ce4bh2h2rcd13ifvqdh0","pricing_plan_id":"cebpf4jnsgd1na2vs0mg"},{"bike_id":"8a56a1fa-3b31-48a4-8c96-36e0e38e1642","system_id":"levelo_inurba_marseille","lat":43.30448,"lon":5.389064,"is_reserved":false,"is_disabled":false,"rental_uris":{"android":"levelo://app?vid=8a56a1fa-3b31-48a4-8c96-36e0e38e1642","ios":"levelo://app?vid=8a56a1fa-3b31-48a4-8c96-36e0e38e1642"},"vehicle_type_id":"4","last_reported":1753045781,"current_range_meters":17200,"station_id":"ce4bgk12rcd13ifvqbi0","pricing_plan_id":"cebpf4jnsgd1na2vs0mg"},{"bike_id":"f0cc2e5c-03da-463d-8f90-d58405d84b6c","system_id":"levelo_inurba_marseille","lat":43.3105,"lon":5.38356,"is_reserved":false,"is_disabled":false,"rental_uris":{"android":"levelo://app?vid=f0cc2e5c-03da-463d-8f90-d58405d84b6c","ios":"levelo://app?vid=f0cc2e5c-03da-463d-8f90-d58405d84b6c"},"vehicle_type_id":"4","last_reported":1753045781,"current_range_meters":17200,"station_id":"ce4bgv92rcd13ifvqcr0","pricing_plan_id":"cebpf4jnsgd1na2vs0mg"},{"bike_id":"736c363b-3641-43dd-b890-bd43d8fd5283","system_id":"levelo_inurba_marseille","lat":43.21188,"lon":5.35075,"is_reserved":false,"is_disabled":false,"rental_uris":{"android":"levelo://app?vid=736c363b-3641-43dd-b890-bd43d8fd5283","ios":"levelo://app?vid=736c363b-3641-43dd-b890-bd43d8fd5283"},"vehicle_type_id":"4","last_reported":1753045781,"current_range_meters":17200,"station_id":"st_cvj6sg6p6f1abm77japg","pricing_plan_id":"cebpf4jnsgd1na2vs0mg"},{"bike_id":"52fc553f-1e8c-4701-a604-31e90c76b1d4","system_id":"levelo_inurba_marseille","lat":43.31504,"lon":5.37285,"is_reserved":false,"is_disabled":false,"rental_uris":{"android":"levelo://app?vid=52fc553f-1e8c-4701-a604-31e90c76b1d4","ios":"levelo://app?vid=52fc553f-1e8c-4701-a604-31e90c76b1d4"},"vehicle_type_id":"4","last_reported":1753045781,"current_range_meters":17200,"station_id":"ce4bgt12rcd13ifvqcd0","pricing_plan_id":"cebpf4jnsgd1na2vs0mg"},{"bike_id":"0001f9d7-4dd3-4ff4-82da-11f97711656c","system_id":"levelo_inurba_marseille","lat":43.29265,"lon":5.38442,"is_reserved":false,"is_disabled":false,"rental_uris":{"android":"levelo://app?vid=0001f9d7-4dd3-4ff4-82da-11f97711656c","ios":"levelo://app?vid=0001f9d7-4dd3-4ff4-82da-11f97711656c"},"vehicle_type_id":"4","last_reported":1753045781,"current_range_meters":17200,"station_id":"ce4bh692rcd13ifvqea0","pricing_plan_id":"cebpf4jnsgd1na2vs0mg"},{"bike_id":"b534867f-17a8-457a-970a-04c8d6f713ed","system_id":"levelo_inurba_marseille","lat":43.284859,"lon":5.374055,"is_reserved":false,"is_disabled":false,"rental_uris":{"android":"levelo://app?vid=b534867f-17a8-457a-970a-04c8d6f713ed","ios":"levelo://app?vid=b534867f-17a8-457a-970a-04c8d6f713ed"},"vehicle_type_id":"4","last_reported":1753045781,"current_range_meters":17200,"station_id":"","pricing_plan_id":"cebpf4jnsgd1na2vs0mg"},{"bike_id":"1c37a6c0-7fed-49e2-8fd4-2d775c26b7b0","system_id":"levelo_inurba_marseille","lat":43.23194,"lon":5.35566,"is_reserved":false,"is_disabled":false,"rental_uris":{"android":"levelo://app?vid=1c37a6c0-7fed-49e2-8fd4-2d775c26b7b0","ios":"levelo://app?vid=1c37a6c0-7fed-49e2-8fd4-2d775c26b7b0"},"vehicle_type_id":"4","last_reported":1753045781,"current_range_meters":17200,"station_id":"ce4bhu92rcd13ifvqi70","pricing_plan_id":"cebpf4jnsgd1na2vs0mg"},{"bike_id":"474ac65d-bd8b-4629-a217-92eff3842408","system_id":"levelo_inurba_marseille","lat":43.29388,"lon":5.37889,"is_reserved":false,"is_disabled":true,"rental_uris":{"android":"levelo://app?vid=474ac65d-bd8b-4629-a217-92eff3842408","ios":"levelo://app?vid=474ac65d-bd8b-4629-a217-92eff3842408"},"vehicle_type_id":"4","last_reported":1753045781,"current_range_meters":17200,"station_id":"ce4bgjh2rcd13ifvqbf0","pricing_plan_id":"cebpf4jnsgd1na2vs0mg"},{"bike_id":"d100812f-9e77-4b3a-a11b-18211b570584","system_id":"levelo_inurba_marseille","lat":43.32502,"lon":5.36553,"is_reserved":false,"is_disabled":false,"rental_uris":{"android":"levelo://app?vid=d100812f-9e77-4b3a-a11b-18211b570584","ios":"levelo://app?vid=d100812f-9e77-4b3a-a11b-18211b570584"},"vehicle_type_id":"4","last_reported":1753045781,"current_range_meters":17200,"station_id":"ce4bhs12rcd13ifvqhvg","pricing_plan_id":"cebpf4jnsgd1na2vs0mg"},{"bike_id":"b2450978-2353-4d4d-93bd-ec44ae81fd08","system_id":"levelo_inurba_marseille","lat":43.28855,"lon":5.39309,"is_reserved":false,"is_disabled":false,"rental_uris":{"android":"levelo://app?vid=b2450978-2353-4d4d-93bd-ec44ae81fd08","ios":"levelo://app?vid=b2450978-2353-4d4d-93bd-ec44ae81fd08"},"vehicle_type_id":"4","last_reported":1753045781,"current_range_meters":17200,"station_id":"ce4bh2p2rcd13ifvqdi0","pricing_plan_id":"cebpf4jnsgd1na2vs0mg"},{"bike_id":"3527e5ec-8e88-4544-ab6a-55654224d928","system_id":"levelo_inurba_marseille","lat":43.23061,"lon":5.355,"is_reserved":false,"is_disabled":false,"rental_uris":{"android":"levelo://app?vid=3527e5ec-8e88-4544-ab6a-55654224d928","ios":"levelo://app?vid=3527e5ec-8e88-4544-ab6a-55654224d928"},"vehicle_type_id":"4","last_reported":1753045781,"current_range_meters":17200,"station_id":"cpo3342slgdg3j2ifvpg","pricing_plan_id":"cebpf4jnsgd1na2vs0mg"},{"bike_id":"a4079345-6dd8-477a-a102-aafe066ca027","system_id":"levelo_inurba_marseille","lat":43.31074,"lon":5.38357,"is_reserved":false,"is_disabled":false,"rental_uris":{"android":"levelo://app?vid=a4079345-6dd8-477a-a102-aafe066ca027","ios":"levelo://app?vid=a4079345-6dd8-477a-a102-aafe066ca027"},"vehicle_type_id":"4","last_reported":1753045781,"current_range_meters":13600,"station_id":"ce4bgv92rcd13ifvqcr0","pricing_plan_id":"cebpf4jnsgd1na2vs0mg"},{"bike_id":"4b3243a8-c0c2-41ba-9c13-289ed3f6effe","system_id":"levelo_inurba_marseille","lat":43.28572,"lon":5.394976,"is_reserved":false,"is_disabled":false,"rental_uris":{"android":"levelo://app?vid=4b3243a8-c0c2-41ba-9c13-289ed3f6effe","ios":"levelo://app?vid=4b3243a8-c0c2-41ba-9c13-289ed3f6effe"},"vehicle_type_id":"4","last_reported":1753045781,"current_range_meters":17200,"station_id":"ce4bh292rcd13ifvqdg0","pricing_plan_id":"cebpf4jnsgd1na2vs0mg"},{"bike_id":"c47c4612-aa9a-40e0-9a78-5da247b20688","system_id":"levelo_inurba_marseille","lat":43.22505,"lon":5.34779,"is_reserved":false,"is_disabled":false,"rental_uris":{"android":"levelo://app?vid=c47c4612-aa9a-40e0-9a78-5da247b20688","ios":"levelo://app?vid=c47c4612-aa9a-40e0-9a78-5da247b20688"},"vehicle_type_id":"4","last_reported":1753045781,"current_range_meters":17200,"station_id":"st_cvj5dfep6f1abm77gieg","pricing_plan_id":"cebpf4jnsgd1na2vs0mg"},{"bike_id":"c82a52a4-3569-456f-8537-5f2257772393","system_id":"levelo_inurba_marseille","lat":43.28352,"lon":5.38622,"is_reserved":false,"is_disabled":false,"rental_uris":{"android":"levelo://app?vid=c82a52a4-3569-456f-8537-5f2257772393","ios":"levelo://app?vid=c82a52a4-3569-456f-8537-5f2257772393"},"vehicle_type_id":"4","last_reported":1753045781,"current_range_meters":17200,"station_id":"ce4bh492rcd13ifvqdvg","pricing_plan_id":"cebpf4jnsgd1na2vs0mg"},{"bike_id":"81453f1a-5833-4c46-b3e6-af6fd320d81b","system_id":"levelo_inurba_marseille","lat":43.29443,"lon":5.3975,"is_reserved":false,"is_disabled":false,"rental_uris":{"android":"levelo://app?vid=81453f1a-5833-4c46-b3e6-af6fd320d81b","ios":"levelo://app?vid=81453f1a-5833-4c46-b3e6-af6fd320d81b"},"vehicle_type_id":"4","last_reported":1753045781,"current_range_meters":16800,"station_id":"ce4bh3h2rcd13ifvqdo0","pricing_plan_id":"cebpf4jnsgd1na2vs0mg"},{"bike_id":"1bff2a07-f5ea-43a5-9113-6ab29a6a6cf8","system_id":"levelo_inurba_marseille","lat":43.31264,"lon":5.40168,"is_reserved":false,"is_disabled":false,"rental_uris":{"android":"levelo://app?vid=1bff2a07-f5ea-43a5-9113-6ab29a6a6cf8","ios":"levelo://app?vid=1bff2a07-f5ea-43a5-9113-6ab29a6a6cf8"},"vehicle_type_id":"4","last_reported":1753045781,"current_range_meters":17600,"station_id":"ce4bh092rcd13ifvqd30","pricing_plan_id":"cebpf4jnsgd1na2vs0mg"},{"bike_id":"402aa937-20f3-4a3d-a8f3-5a18633f6a79","system_id":"levelo_inurba_marseille","lat":43.30593,"lon":5.37236,"is_reserved":false,"is_disabled":false,"rental_uris":{"android":"levelo://app?vid=402aa937-20f3-4a3d-a8f3-5a18633f6a79","ios":"levelo://app?vid=402aa937-20f3-4a3d-a8f3-5a18633f6a79"},"vehicle_type_id":"4","last_reported":1753045781,"current_range_meters":17200,"station_id":"ce4bgqh2rcd13ifvqc4g","pricing_plan_id":"cebpf4jnsgd1na2vs0mg"},{"bike_id":"0c5b53bf-5a0f-40cf-909e-c731f335d331","system_id":"levelo_inurba_marseille","lat":43.308022,"lon":5.381499,"is_reserved":false,"is_disabled":false,"rental_uris":{"android":"levelo://app?vid=0c5b53bf-5a0f-40cf-909e-c731f335d331","ios":"levelo://app?vid=0c5b53bf-5a0f-40cf-909e-c731f335d331"},"vehicle_type_id":"4","last_reported":1753045781,"current_range_meters":17600,"station_id":"ce4bgt12rcd13ifvqce0","pricing_plan_id":"cebpf4jnsgd1na2vs0mg"},{"bike_id":"57abbde9-9ee5-483b-8063-641c82b7c2e7","system_id":"levelo_inurba_marseille","lat":43.23266,"lon":5.39983,"is_reserved":false,"is_disabled":false,"rental_uris":{"android":"levelo://app?vid=57abbde9-9ee5-483b-8063-641c82b7c2e7","ios":"levelo://app?vid=57abbde9-9ee5-483b-8063-641c82b7c2e7"},"vehicle_type_id":"4","last_reported":1753045781,"current_range_meters":17600,"station_id":"","pricing_plan_id":"cebpf4jnsgd1na2vs0mg"},{"bike_id":"f69f5847-7ef4-4111-b448-8564f10656eb","system_id":"levelo_inurba_marseille","lat":43.28851,"lon":5.39321,"is_reserved":false,"is_disabled":false,"rental_uris":{"android":"levelo://app?vid=f69f5847-7ef4-4111-b448-8564f10656eb","ios":"levelo://app?vid=f69f5847-7ef4-4111-b448-8564f10656eb"},"vehicle_type_id":"4","last_reported":1753045781,"current_range_meters":17600,"station_id":"ce4bh2p2rcd13ifvqdi0","pricing_plan_id":"cebpf4jnsgd1na2vs0mg"},{"bike_id":"c86dc404-7f10-4f08-a031-782181030842","system_id":"levelo_inurba_marseille","lat":43.23187,"lon":5.39974,"is_reserved":false,"is_disabled":false,"rental_uris":{"android":"levelo://app?vid=c86dc404-7f10-4f08-a031-782181030842","ios":"levelo://app?vid=c86dc404-7f10-4f08-a031-782181030842"},"vehicle_type_id":"4","last_reported":1753045781,"current_range_meters":17600,"station_id":"ce4bhn12rcd13ifvqgqg","pricing_plan_id":"cebpf4jnsgd1na2vs0mg"},{"bike_id":"ac49738a-4d4f-43d3-9c67-46980e61ae95","system_id":"levelo_inurba_marseille","lat":43.31719,"lon":5.37673,"is_reserved":false,"is_disabled":false,"rental_uris":{"android":"levelo://app?vid=ac49738a-4d4f-43d3-9c67-46980e61ae95","ios":"levelo://app?vid=ac49738a-4d4f-43d3-9c67-46980e61ae95"},"vehicle_type_id":"4","last_reported":1753045781,"current_range_meters":17600,"station_id":"","pricing_plan_id":"cebpf4jnsgd1na2vs0mg"},{"bike_id":"ff5bba57-6d14-4f97-bab2-4d71c3e63161","system_id":"levelo_inurba_marseille","lat":43.21191,"lon":5.35075,"is_reserved":false,"is_disabled":false,"rental_uris":{"android":"levelo://app?vid=ff5bba57-6d14-4f97-bab2-4d71c3e63161","ios":"levelo://app?vid=ff5bba57-6d14-4f97-bab2-4d71c3e63161"},"vehicle_type_id":"4","last_reported":1753045781,"current_range_meters":18000,"station_id":"st_cvj6sg6p6f1abm77japg","pricing_plan_id":"cebpf4jnsgd1na2vs0mg"},{"bike_id":"551976cf-01df-4655-b8b6-f004d6681f19","system_id":"levelo_inurba_marseille","lat":43.27102,"lon":5.40251,"is_reserved":false,"is_disabled":true,"rental_uris":{"android":"levelo://app?vid=551976cf-01df-4655-b8b6-f004d6681f19","ios":"levelo://app?vid=551976cf-01df-4655-b8b6-f004d6681f19"},"vehicle_type_id":"4","last_reported":1753045781,"current_range_meters":18000,"station_id":"ce4bhk92rcd13ifvqgc0","pricing_plan_id":"cebpf4jnsgd1na2vs0mg"},{"bike_id":"61c61d89-1eb6-4e74-9fe2-b69423253fe9","system_id":"levelo_inurba_marseille","lat":43.2396,"lon":5.36641,"is_reserved":false,"is_disabled":false,"rental_uris":{"android":"levelo://app?vid=61c61d89-1eb6-4e74-9fe2-b69423253fe9","ios":"levelo://app?vid=61c61d89-1eb6-4e74-9fe2-b69423253fe9"},"vehicle_type_id":"4","last_reported":1753045781,"current_range_meters":18000,"station_id":"ce4bhi12rcd13ifvqfp0","pricing_plan_id":"cebpf4jnsgd1na2vs0mg"},{"bike_id":"de6a3c05-55e2-41e1-816b-dcb3e0ba55c7","system_id":"levelo_inurba_marseille","lat":43.283546,"lon":5.381056,"is_reserved":false,"is_disabled":false,"rental_uris":{"android":"levelo://app?vid=de6a3c05-55e2-41e1-816b-dcb3e0ba55c7","ios":"levelo://app?vid=de6a3c05-55e2-41e1-816b-dcb3e0ba55c7"},"vehicle_type_id":"4","last_reported":1753045781,"current_range_meters":18000,"station_id":"ce4bh412rcd13ifvqdr0","pricing_plan_id":"cebpf4jnsgd1na2vs0mg"},{"bike_id":"19665075-1169-45a7-af41-9f1c346d2c17","system_id":"levelo_inurba_marseille","lat":43.23956,"lon":5.36626,"is_reserved":false,"is_disabled":true,"rental_uris":{"android":"levelo://app?vid=19665075-1169-45a7-af41-9f1c346d2c17","ios":"levelo://app?vid=19665075-1169-45a7-af41-9f1c346d2c17"},"vehicle_type_id":"4","last_reported":1753045781,"current_range_meters":18000,"station_id":"ce4bhi12rcd13ifvqfp0","pricing_plan_id":"cebpf4jnsgd1na2vs0mg"},{"bike_id":"5c7cfd38-807b-4bef-9c5d-c2f0c95ce8df","system_id":"levelo_inurba_marseille","lat":43.23092,"lon":5.3553,"is_reserved":false,"is_disabled":false,"rental_uris":{"android":"levelo://app?vid=5c7cfd38-807b-4bef-9c5d-c2f0c95ce8df","ios":"levelo://app?vid=5c7cfd38-807b-4bef-9c5d-c2f0c95ce8df"},"vehicle_type_id":"4","last_reported":1753045781,"current_range_meters":18000,"station_id":"","pricing_plan_id":"cebpf4jnsgd1na2vs0mg"},{"bike_id":"6f487aa9-64df-4433-adac-ddee73d3666c","system_id":"levelo_inurba_marseille","lat":43.28573,"lon":5.39501,"is_reserved":false,"is_disabled":false,"rental_uris":{"android":"levelo://app?vid=6f487aa9-64df-4433-adac-ddee73d3666c","ios":"levelo://app?vid=6f487aa9-64df-4433-adac-ddee73d3666c"},"vehicle_type_id":"4","last_reported":1753045781,"current_range_meters":17600,"station_id":"ce4bh292rcd13ifvqdg0","pricing_plan_id":"cebpf4jnsgd1na2vs0mg"},{"bike_id":"a0d354d7-2bf5-4aec-8013-b95deff3ae53","system_id":"levelo_inurba_marseille","lat":43.21189,"lon":5.35083,"is_reserved":false,"is_disabled":false,"rental_uris":{"android":"levelo://app?vid=a0d354d7-2bf5-4aec-8013-b95deff3ae53","ios":"levelo://app?vid=a0d354d7-2bf5-4aec-8013-b95deff3ae53"},"vehicle_type_id":"4","last_reported":1753045781,"current_range_meters":18000,"station_id":"","pricing_plan_id":"cebpf4jnsgd1na2vs0mg"},{"bike_id":"3117258b-a0b2-4038-960e-7505313a6719","system_id":"levelo_inurba_marseille","lat":43.32108,"lon":5.367736,"is_reserved":false,"is_disabled":false,"rental_uris":{"android":"levelo://app?vid=3117258b-a0b2-4038-960e-7505313a6719","ios":"levelo://app?vid=3117258b-a0b2-4038-960e-7505313a6719"},"vehicle_type_id":"4","last_reported":1753045781,"current_range_meters":18000,"station_id":"ce4bhrh2rcd13ifvqhug","pricing_plan_id":"cebpf4jnsgd1na2vs0mg"},{"bike_id":"7f65ce50-53c3-4a03-9179-831deed16192","system_id":"levelo_inurba_marseille","lat":43.23187,"lon":5.35573,"is_reserved":false,"is_disabled":false,"rental_uris":{"android":"levelo://app?vid=7f65ce50-53c3-4a03-9179-831deed16192","ios":"levelo://app?vid=7f65ce50-53c3-4a03-9179-831deed16192"},"vehicle_type_id":"4","last_reported":1753045781,"current_range_meters":18000,"station_id":"ce4bhu92rcd13ifvqi70","pricing_plan_id":"cebpf4jnsgd1na2vs0mg"},{"bike_id":"02bda465-5730-4d42-a0d1-5ffc89217a3f","system_id":"levelo_inurba_marseille","lat":43.28258,"lon":5.35066,"is_reserved":false,"is_disabled":false,"rental_uris":{"android":"levelo://app?vid=02bda465-5730-4d42-a0d1-5ffc89217a3f","ios":"levelo://app?vid=02bda465-5730-4d42-a0d1-5ffc89217a3f"},"vehicle_type_id":"4","last_reported":1753045781,"current_range_meters":18000,"station_id":"","pricing_plan_id":"cebpf4jnsgd1na2vs0mg"},{"bike_id":"ecdfd721-9355-47ec-bb72-adc3ee5af59a","system_id":"levelo_inurba_marseille","lat":43.27178,"lon":5.40987,"is_reserved":false,"is_disabled":false,"rental_uris":{"android":"levelo://app?vid=ecdfd721-9355-47ec-bb72-adc3ee5af59a","ios":"levelo://app?vid=ecdfd721-9355-47ec-bb72-adc3ee5af59a"},"vehicle_type_id":"4","last_reported":1753045781,"current_range_meters":18000,"station_id":"ce4bhl12rcd13ifvqgf0","pricing_plan_id":"cebpf4jnsgd1na2vs0mg"},{"bike_id":"15859cd3-d785-4a8f-ae1f-8acb5a6b79a4","system_id":"levelo_inurba_marseille","lat":43.231936,"lon":5.355448,"is_reserved":false,"is_disabled":true,"rental_uris":{"android":"levelo://app?vid=15859cd3-d785-4a8f-ae1f-8acb5a6b79a4","ios":"levelo://app?vid=15859cd3-d785-4a8f-ae1f-8acb5a6b79a4"},"vehicle_type_id":"4","last_reported":1753045781,"current_range_meters":18000,"station_id":"ce4bhu92rcd13ifvqi70","pricing_plan_id":"cebpf4jnsgd1na2vs0mg"},{"bike_id":"7e4d7321-d7a6-43eb-b1cd-836208df3732","system_id":"levelo_inurba_marseille","lat":43.25122,"lon":5.40318,"is_reserved":false,"is_disabled":false,"rental_uris":{"android":"levelo://app?vid=7e4d7321-d7a6-43eb-b1cd-836208df3732","ios":"levelo://app?vid=7e4d7321-d7a6-43eb-b1cd-836208df3732"},"vehicle_type_id":"4","last_reported":1753045781,"current_range_meters":18000,"station_id":"ce4bhlh2rcd13ifvqgig","pricing_plan_id":"cebpf4jnsgd1na2vs0mg"},{"bike_id":"c9070665-9df3-4d88-9457-2dce5256ff0f","system_id":"levelo_inurba_marseille","lat":43.2407,"lon":5.3776,"is_reserved":false,"is_disabled":false,"rental_uris":{"android":"levelo://app?vid=c9070665-9df3-4d88-9457-2dce5256ff0f","ios":"levelo://app?vid=c9070665-9df3-4d88-9457-2dce5256ff0f"},"vehicle_type_id":"4","last_reported":1753045781,"current_range_meters":18000,"station_id":"ce4bhnp2rcd13ifvqgvg","pricing_plan_id":"cebpf4jnsgd1na2vs0mg"},{"bike_id":"50d16da1-39af-48c8-9080-8fc1a2184959","system_id":"levelo_inurba_marseille","lat":43.2121,"lon":5.35083,"is_reserved":false,"is_disabled":false,"rental_uris":{"android":"levelo://app?vid=50d16da1-39af-48c8-9080-8fc1a2184959","ios":"levelo://app?vid=50d16da1-39af-48c8-9080-8fc1a2184959"},"vehicle_type_id":"4","last_reported":1753045781,"current_range_meters":18000,"station_id":"st_cvj6sg6p6f1abm77japg","pricing_plan_id":"cebpf4jnsgd1na2vs0mg"},{"bike_id":"72529cae-3f3c-4b7d-bbb8-594b9baae14f","system_id":"levelo_inurba_marseille","lat":43.30409,"lon":5.3877,"is_reserved":false,"is_disabled":false,"rental_uris":{"android":"levelo://app?vid=72529cae-3f3c-4b7d-bbb8-594b9baae14f","ios":"levelo://app?vid=72529cae-3f3c-4b7d-bbb8-594b9baae14f"},"vehicle_type_id":"4","last_reported":1753045781,"current_range_meters":18000,"station_id":"","pricing_plan_id":"cebpf4jnsgd1na2vs0mg"},{"bike_id":"e61408fa-24aa-4b8e-a320-31aa89d979cf","system_id":"levelo_inurba_marseille","lat":43.28721,"lon":5.37942,"is_reserved":false,"is_disabled":false,"rental_uris":{"android":"levelo://app?vid=e61408fa-24aa-4b8e-a320-31aa89d979cf","ios":"levelo://app?vid=e61408fa-24aa-4b8e-a320-31aa89d979cf"},"vehicle_type_id":"4","last_reported":1753045781,"current_range_meters":18000,"station_id":"ce4bh9p2rcd13ifvqec0","pricing_plan_id":"cebpf4jnsgd1na2vs0mg"},{"bike_id":"769c4b0c-fb9f-4557-9117-a489df99f277","system_id":"levelo_inurba_marseille","lat":43.29879,"lon":5.38903,"is_reserved":false,"is_disabled":false,"rental_uris":{"android":"levelo://app?vid=769c4b0c-fb9f-4557-9117-a489df99f277","ios":"levelo://app?vid=769c4b0c-fb9f-4557-9117-a489df99f277"},"vehicle_type_id":"4","last_reported":1753045781,"current_range_meters":18000,"station_id":"ce4bh392rcd13ifvqdl0","pricing_plan_id":"cebpf4jnsgd1na2vs0mg"},{"bike_id":"f7bdf980-c8f6-48ad-805b-3aabd31a0cfc","system_id":"levelo_inurba_marseille","lat":43.301342,"lon":5.398634,"is_reserved":false,"is_disabled":false,"rental_uris":{"android":"levelo://app?vid=f7bdf980-c8f6-48ad-805b-3aabd31a0cfc","ios":"levelo://app?vid=f7bdf980-c8f6-48ad-805b-3aabd31a0cfc"},"vehicle_type_id":"4","last_reported":1753045781,"current_range_meters":18800,"station_id":"ce4bh0h2rcd13ifvqd40","pricing_plan_id":"cebpf4jnsgd1na2vs0mg"},{"bike_id":"a95607eb-463b-4cda-a224-f545762ec41b","system_id":"levelo_inurba_marseille","lat":43.29444,"lon":5.38606,"is_reserved":false,"is_disabled":true,"rental_uris":{"android":"levelo://app?vid=a95607eb-463b-4cda-a224-f545762ec41b","ios":"levelo://app?vid=a95607eb-463b-4cda-a224-f545762ec41b"},"vehicle_type_id":"4","last_reported":1753045781,"current_range_meters":18800,"station_id":"ce4bh2h2rcd13ifvqdh0","pricing_plan_id":"cebpf4jnsgd1na2vs0mg"},{"bike_id":"5819bf3a-2d92-4011-9c9f-8436a120fa30","system_id":"levelo_inurba_marseille","lat":43.2694,"lon":5.38637,"is_reserved":false,"is_disabled":false,"rental_uris":{"android":"levelo://app?vid=5819bf3a-2d92-4011-9c9f-8436a120fa30","ios":"levelo://app?vid=5819bf3a-2d92-4011-9c9f-8436a120fa30"},"vehicle_type_id":"4","last_reported":1753045781,"current_range_meters":18800,"station_id":"ce4bhh92rcd13ifvqfh0","pricing_plan_id":"cebpf4jnsgd1na2vs0mg"},{"bike_id":"c695f162-6b42-40d7-8780-ed224e75f8e8","system_id":"levelo_inurba_marseille","lat":43.22788,"lon":5.34966,"is_reserved":false,"is_disabled":false,"rental_uris":{"android":"levelo://app?vid=c695f162-6b42-40d7-8780-ed224e75f8e8","ios":"levelo://app?vid=c695f162-6b42-40d7-8780-ed224e75f8e8"},"vehicle_type_id":"4","last_reported":1753045781,"current_range_meters":18800,"station_id":"","pricing_plan_id":"cebpf4jnsgd1na2vs0mg"},{"bike_id":"a150e1d6-c311-468e-81dc-881f6dfaeb28","system_id":"levelo_inurba_marseille","lat":43.23196,"lon":5.35593,"is_reserved":false,"is_disabled":false,"rental_uris":{"android":"levelo://app?vid=a150e1d6-c311-468e-81dc-881f6dfaeb28","ios":"levelo://app?vid=a150e1d6-c311-468e-81dc-881f6dfaeb28"},"vehicle_type_id":"4","last_reported":1753045781,"current_range_meters":18800,"station_id":"ce4bhu92rcd13ifvqi70","pricing_plan_id":"cebpf4jnsgd1na2vs0mg"},{"bike_id":"ea8732f4-0a6d-48aa-9a2f-8257067a4a7d","system_id":"levelo_inurba_marseille","lat":43.314833,"lon":5.372992,"is_reserved":false,"is_disabled":false,"rental_uris":{"android":"levelo://app?vid=ea8732f4-0a6d-48aa-9a2f-8257067a4a7d","ios":"levelo://app?vid=ea8732f4-0a6d-48aa-9a2f-8257067a4a7d"},"vehicle_type_id":"4","last_reported":1753045781,"current_range_meters":18800,"station_id":"ce4bgt12rcd13ifvqcd0","pricing_plan_id":"cebpf4jnsgd1na2vs0mg"},{"bike_id":"42c6daca-a04f-4385-b335-d79919ebfbf3","system_id":"levelo_inurba_marseille","lat":43.3249,"lon":5.36558,"is_reserved":false,"is_disabled":false,"rental_uris":{"android":"levelo://app?vid=42c6daca-a04f-4385-b335-d79919ebfbf3","ios":"levelo://app?vid=42c6daca-a04f-4385-b335-d79919ebfbf3"},"vehicle_type_id":"4","last_reported":1753045781,"current_range_meters":18800,"station_id":"ce4bhs12rcd13ifvqhvg","pricing_plan_id":"cebpf4jnsgd1na2vs0mg"},{"bike_id":"1c22819b-ef69-41c3-af80-068c7a58af48","system_id":"levelo_inurba_marseille","lat":43.32119,"lon":5.36783,"is_reserved":false,"is_disabled":false,"rental_uris":{"android":"levelo://app?vid=1c22819b-ef69-41c3-af80-068c7a58af48","ios":"levelo://app?vid=1c22819b-ef69-41c3-af80-068c7a58af48"},"vehicle_type_id":"4","last_reported":1753045781,"current_range_meters":18800,"station_id":"ce4bhrh2rcd13ifvqhug","pricing_plan_id":"cebpf4jnsgd1na2vs0mg"},{"bike_id":"4381b79f-5ace-4556-aae3-c1bc97d5c4f2","system_id":"levelo_inurba_marseille","lat":43.28853,"lon":5.39344,"is_reserved":false,"is_disabled":false,"rental_uris":{"android":"levelo://app?vid=4381b79f-5ace-4556-aae3-c1bc97d5c4f2","ios":"levelo://app?vid=4381b79f-5ace-4556-aae3-c1bc97d5c4f2"},"vehicle_type_id":"4","last_reported":1753045781,"current_range_meters":18800,"station_id":"ce4bh2p2rcd13ifvqdi0","pricing_plan_id":"cebpf4jnsgd1na2vs0mg"},{"bike_id":"d778a561-0abe-4676-9dca-d85a214615cb","system_id":"levelo_inurba_marseille","lat":43.337743,"lon":5.374289,"is_reserved":false,"is_disabled":false,"rental_uris":{"android":"levelo://app?vid=d778a561-0abe-4676-9dca-d85a214615cb","ios":"levelo://app?vid=d778a561-0abe-4676-9dca-d85a214615cb"},"vehicle_type_id":"4","last_reported":1753045781,"current_range_meters":19200,"station_id":"","pricing_plan_id":"cebpf4jnsgd1na2vs0mg"},{"bike_id":"c4ddf749-008b-4a14-af16-f3a13a431402","system_id":"levelo_inurba_marseille","lat":43.21187,"lon":5.350673,"is_reserved":false,"is_disabled":false,"rental_uris":{"android":"levelo://app?vid=c4ddf749-008b-4a14-af16-f3a13a431402","ios":"levelo://app?vid=c4ddf749-008b-4a14-af16-f3a13a431402"},"vehicle_type_id":"4","last_reported":1753045781,"current_range_meters":19200,"station_id":"st_cvj6sg6p6f1abm77japg","pricing_plan_id":"cebpf4jnsgd1na2vs0mg"},{"bike_id":"aa62f7b5-d82c-438c-82f4-4fbda3ce2b98","system_id":"levelo_inurba_marseille","lat":43.29794,"lon":5.40404,"is_reserved":false,"is_disabled":false,"rental_uris":{"android":"levelo://app?vid=aa62f7b5-d82c-438c-82f4-4fbda3ce2b98","ios":"levelo://app?vid=aa62f7b5-d82c-438c-82f4-4fbda3ce2b98"},"vehicle_type_id":"4","last_reported":1753045781,"current_range_meters":19200,"station_id":"ce4bh112rcd13ifvqd90","pricing_plan_id":"cebpf4jnsgd1na2vs0mg"},{"bike_id":"6cf1ed0c-445d-47e0-a831-c7549e62beed","system_id":"levelo_inurba_marseille","lat":43.30419,"lon":5.38965,"is_reserved":false,"is_disabled":true,"rental_uris":{"android":"levelo://app?vid=6cf1ed0c-445d-47e0-a831-c7549e62beed","ios":"levelo://app?vid=6cf1ed0c-445d-47e0-a831-c7549e62beed"},"vehicle_type_id":"4","last_reported":1753045781,"current_range_meters":19200,"station_id":"ce4bgk12rcd13ifvqbi0","pricing_plan_id":"cebpf4jnsgd1na2vs0mg"},{"bike_id":"8e7beff7-775d-4a5d-a875-86c3add653bc","system_id":"levelo_inurba_marseille","lat":43.28699,"lon":5.39983,"is_reserved":false,"is_disabled":false,"rental_uris":{"android":"levelo://app?vid=8e7beff7-775d-4a5d-a875-86c3add653bc","ios":"levelo://app?vid=8e7beff7-775d-4a5d-a875-86c3add653bc"},"vehicle_type_id":"4","last_reported":1753045781,"current_range_meters":19200,"station_id":"ce4bho92rcd13ifvqh3g","pricing_plan_id":"cebpf4jnsgd1na2vs0mg"},{"bike_id":"d2547933-ca48-418a-b2e1-db528c786820","system_id":"levelo_inurba_marseille","lat":43.23197,"lon":5.35558,"is_reserved":false,"is_disabled":false,"rental_uris":{"android":"levelo://app?vid=d2547933-ca48-418a-b2e1-db528c786820","ios":"levelo://app?vid=d2547933-ca48-418a-b2e1-db528c786820"},"vehicle_type_id":"4","last_reported":1753045781,"current_range_meters":19200,"station_id":"ce4bhu92rcd13ifvqi70","pricing_plan_id":"cebpf4jnsgd1na2vs0mg"},{"bike_id":"79d1d74e-60aa-4fd1-bd06-56f514b1335c","system_id":"levelo_inurba_marseille","lat":43.2993,"lon":5.36544,"is_reserved":false,"is_disabled":false,"rental_uris":{"android":"levelo://app?vid=79d1d74e-60aa-4fd1-bd06-56f514b1335c","ios":"levelo://app?vid=79d1d74e-60aa-4fd1-bd06-56f514b1335c"},"vehicle_type_id":"4","last_reported":1753045781,"current_range_meters":19200,"station_id":"ce4bgm92rcd13ifvqbr0","pricing_plan_id":"cebpf4jnsgd1na2vs0mg"},{"bike_id":"57e918e5-eb24-415f-9aa1-9231b6c6bbb7","system_id":"levelo_inurba_marseille","lat":43.30141,"lon":5.3742,"is_reserved":false,"is_disabled":false,"rental_uris":{"android":"levelo://app?vid=57e918e5-eb24-415f-9aa1-9231b6c6bbb7","ios":"levelo://app?vid=57e918e5-eb24-415f-9aa1-9231b6c6bbb7"},"vehicle_type_id":"4","last_reported":1753045781,"current_range_meters":18800,"station_id":"ce4bgs92rcd13ifvqcc0","pricing_plan_id":"cebpf4jnsgd1na2vs0mg"},{"bike_id":"3865ff14-736d-4b19-8f7c-e2d5e48a50d2","system_id":"levelo_inurba_marseille","lat":43.32368,"lon":5.38896,"is_reserved":false,"is_disabled":false,"rental_uris":{"android":"levelo://app?vid=3865ff14-736d-4b19-8f7c-e2d5e48a50d2","ios":"levelo://app?vid=3865ff14-736d-4b19-8f7c-e2d5e48a50d2"},