{"last_updated":1719421622,"ttl":30,"version":"2.2","data":{"bikes":[{"bike_id":"bcc3e4e7-49ad-4827-ad72-a8aac5cd29e6","system_id":"levelo_inurba_marseille","lat":43.31509,"lon":5.37089,"is_reserved":false,"is_disabled":false,"rental_uris":{"android":"levelo://app?vid=bcc3e4e7-49ad-4827-ad72-a8aac5cd29e6","ios":"levelo://app?vid=bcc3e4e7-49ad-4827-ad72-a8aac5cd29e6"},"vehicle_type_id":"4","last_reported":1719421622,"current_range_meters":15200,"station_id":"","pricing_plan_id":"cebpf4jnsgd1na2vs0mg"},{"bike_id":"42990db5-4939-40b2-9ccc-8bba25074754","system_id":"levelo_inurba_marseille","lat":43.314811,"lon":5.373104,"is_reserved":false,"is_disabled":false,"rental_uris":{"android":"levelo://app?vid=42990db5-4939-40b2-9ccc-8bba25074754","ios":"levelo://app?vid=42990db5-4939-40b2-9ccc-8bba25074754"},"vehicle_type_id":"4","last_reported":1719421622,"current_range_meters":22800,"station_id":"ce4bgt12rcd13ifvqcd0","pricing_plan_id":"cebpf4jnsgd1na2vs0mg"},{"bike_id":"ac0c95dc-9464-4d68-ba22-3d8ce3799f86","system_id":"levelo_inurba_marseille","lat":43.305714,"lon":5.365633,"is_reserved":false,"is_disabled":false,"rental_uris":{"android":"levelo://app?vid=ac0c95dc-9464-4d68-ba22-3d8ce3799f86","ios":"levelo://app?vid=ac0c95dc-9464-4d68-ba22-3d8ce3799f86"},"vehicle_type_id":"4","last_reported":1719421622,"current_range_meters":0,"station_id":"ce4bgs12rcd13ifvqcag","pricing_plan_id":"cebpf4jnsgd1na2vs0mg"},{"bike_id":"efc7615d-30bb-4754-a9dd-645c7db295a4","system_id":"levelo_inurba_marseille","lat":43.30538,"lon":5.366705,"is_reserved":false,"is_disabled":false,"rental_uris":{"android":"levelo://app?vid=efc7615d-30bb-4754-a9dd-645c7db295a4","ios":"levelo://app?vid=efc7615d-30bb-4754-a9dd-645c7db295a4"},"vehicle_type_id":"4","last_reported":1719421622,"current_range_meters":30800,"station_id":"","pricing_plan_id":"cebpf4jnsgd1na2vs0mg"},{"bike_id":"d8d0ac79-c412-4979-bb18-bed036321bf2","system_id":"levelo_inurba_marseille","lat":43.305368,"lon":5.367343,"is_reserved":false,"is_disabled":false,"rental_uris":{"android":"levelo://app?vid=d8d0ac79-c412-4979-bb18-bed036321bf2","ios":"levelo://app?vid=d8d0ac79-c412-4979-bb18-bed036321bf2"},"vehicle_type_id":"4","last_reported":1719421622,"current_range_meters":3200,"station_id":"ce4bgrp2rcd13ifvqc9g","pricing_plan_id":"cebpf4jnsgd1na2vs0mg"},{"bike_id":"8044bc91-ca4f-4017-bb29-eb164b6b5896","system_id":"levelo_inurba_marseille","lat":43.305706,"lon":5.365654,"is_reserved":false,"is_disabled":false,"rental_uris":{"android":"levelo://app?vid=8044bc91-ca4f-4017-bb29-eb164b6b5896","ios":"levelo://app?vid=8044bc91-ca4f-4017-bb29-eb164b6b5896"},"vehicle_type_id":"4","last_reported":1719421622,"current_range_meters":11600,"station_id":"ce4bgs12rcd13ifvqcag","pricing_plan_id":"cebpf4jnsgd1na2vs0mg"},{"bike_id":"b3be33fc-e778-4040-bccf-8938bdfc6104","system_id":"levelo_inurba_marseille","lat":43.305989,"lon":5.37225,"is_reserved":false,"is_disabled":false,"rental_uris":{"android":"levelo://app?vid=b3be33fc-e778-4040-bccf-8938bdfc6104","ios":"levelo://app?vid=b3be33fc-e778-4040-bccf-8938bdfc6104"},"vehicle_type_id":"4","last_reported":1719421622,"current_range_meters":18000,"station_id":"ce4bgqh2rcd13ifvqc4g","pricing_plan_id":"cebpf4jnsgd1na2vs0mg"},{"bike_id":"36c140fe-d18f-4ff5-be8f-386de33eddf0","system_id":"levelo_inurba_marseille","lat":43.311178,"lon":5.377647,"is_reserved":false,"is_disabled":false,"rental_uris":{"android":"levelo://app?vid=36c140fe-d18f-4ff5-be8f-386de33eddf0","ios":"levelo://app?vid=36c140fe-d18f-4ff5-be8f-386de33eddf0"},"vehicle_type_id":"4","last_reported":1719421622,"current_range_meters":24800,"station_id":"ce4bgt92rcd13ifvqcg0","pricing_plan_id":"cebpf4jnsgd1na2vs0mg"},{"bike_id":"4ca6316d-f21b-4a74-af87-fde7b4ce0ab1","system_id":"levelo_inurba_marseille","lat":43.311131,"lon":5.377651,"is_reserved":false,"is_disabled":false,"rental_uris":{"android":"levelo://app?vid=4ca6316d-f21b-4a74-af87-fde7b4ce0ab1","ios":"levelo://app?vid=4ca6316d-f21b-4a74-af87-fde7b4ce0ab1"},"vehicle_type_id":"4","last_reported":1719421622,"current_range_meters":0,"station_id":"ce4bgt92rcd13ifvqcg0","pricing_plan_id":"cebpf4jnsgd1na2vs0mg"},{"bike_id":"96b7638e-4665-40b5-9e84-6face7e8b6af","system_id":"levelo_inurba_marseille","lat":43.307945,"lon":5.376487,"is_reserved":false,"is_disabled":false,"rental_uris":{"android":"levelo://app?vid=96b7638e-4665-40b5-9e84-6face7e8b6af","ios":"levelo://app?vid=96b7638e-4665-40b5-9e84-6face7e8b6af"},"vehicle_type_id":"4","last_reported":1719421622,"current_range_meters":2400,"station_id":"ce4bgv92rcd13ifvqcq0","pricing_plan_id":"cebpf4jnsgd1na2vs0mg"},{"bike_id":"ba3308b5-b438-40c3-a7bb-8a72edecc98d","system_id":"levelo_inurba_marseille","lat":43.317075,"lon":5.377367,"is_reserved":false,"is_disabled":false,"rental_uris":{"android":"levelo://app?vid=ba3308b5-b438-40c3-a7bb-8a72edecc98d","ios":"levelo://app?vid=ba3308b5-b438-40c3-a7bb-8a72edecc98d"},"vehicle_type_id":"4","last_reported":1719421622,"current_range_meters":31600,"station_id":"ce4bgth2rcd13ifvqch0","pricing_plan_id":"cebpf4jnsgd1na2vs0mg"},{"bike_id":"f8786749-7ea7-4c68-b77c-ad4c2e149b9f","system_id":"levelo_inurba_marseille","lat":43.317075,"lon":5.377367,"is_reserved":false,"is_disabled":false,"rental_uris":{"android":"levelo://app?vid=f8786749-7ea7-4c68-b77c-ad4c2e149b9f","ios":"levelo://app?vid=f8786749-7ea7-4c68-b77c-ad4c2e149b9f"},"vehicle_type_id":"4","last_reported":1719421622,"current_range_meters":18800,"station_id":"ce4bgth2rcd13ifvqch0","pricing_plan_id":"cebpf4jnsgd1na2vs0mg"},{"bike_id":"3372acd6-dca1-488b-bbe7-4ab3285a1392","system_id":"levelo_inurba_marseille","lat":43.317075,"lon":5.377367,"is_reserved":false,"is_disabled":false,"rental_uris":{"android":"levelo://app?vid=3372acd6-dca1-488b-bbe7-4ab3285a1392","ios":"levelo://app?vid=3372acd6-dca1-488b-bbe7-4ab3285a1392"},"vehicle_type_id":"4","last_reported":1719421622,"current_range_meters":26800,"station_id":"ce4bgth2rcd13ifvqch0","pricing_plan_id":"cebpf4jnsgd1na2vs0mg"},{"bike_id":"0b64ae75-7535-4f4d-bb4e-81b656fcf4a8","system_id":"levelo_inurba_marseille","lat":43.31537,"lon":5.38033,"is_reserved":false,"is_disabled":false,"rental_uris":{"android":"levelo://app?vid=0b64ae75-7535-4f4d-bb4e-81b656fcf4a8","ios":"levelo://app?vid=0b64ae75-7535-4f4d-bb4e-81b656fcf4a8"},"vehicle_type_id":"4","last_reported":1719421622,"current_range_meters":23600,"station_id":"ce4bhsp2rcd13ifvqi50","pricing_plan_id":"cebpf4jnsgd1na2vs0mg"},{"bike_id":"a454d350-1173-41e7-9248-4b4f1e0ed36a","system_id":"levelo_inurba_marseille","lat":43.3153,"lon":5.38042,"is_reserved":false,"is_disabled":false,"rental_uris":{"android":"levelo://app?vid=a454d350-1173-41e7-9248-4b4f1e0ed36a","ios":"levelo://app?vid=a454d350-1173-41e7-9248-4b4f1e0ed36a"},"vehicle_type_id":"4","last_reported":1719421622,"current_range_meters":6400,"station_id":"ce4bhsp2rcd13ifvqi50","pricing_plan_id":"cebpf4jnsgd1na2vs0mg"},{"bike_id":"3b459843-6a76-4599-96c9-90cb482b79f8","system_id":"levelo_inurba_marseille","lat":43.301939,"lon":5.366286,"is_reserved":false,"is_disabled":false,"rental_uris":{"android":"levelo://app?vid=3b459843-6a76-4599-96c9-90cb482b79f8","ios":"levelo://app?vid=3b459843-6a76-4599-96c9-90cb482b79f8"},"vehicle_type_id":"4","last_reported":1719421622,"current_range_meters":30400,"station_id":"ce4bgrh2rcd13ifvqc8g","pricing_plan_id":"cebpf4jnsgd1na2vs0mg"},{"bike_id":"8cd9f228-a4b0-4067-9cc5-6515d0fb5c06","system_id":"levelo_inurba_marseille","lat":43.30166,"lon":5.36619,"is_reserved":false,"is_disabled":false,"rental_uris":{"android":"levelo://app?vid=8cd9f228-a4b0-4067-9cc5-6515d0fb5c06","ios":"levelo://app?vid=8cd9f228-a4b0-4067-9cc5-6515d0fb5c06"},"vehicle_type_id":"4","last_reported":1719421622,"current_range_meters":1600,"station_id":"ce4bgrh2rcd13ifvqc8g","pricing_plan_id":"cebpf4jnsgd1na2vs0mg"},{"bike_id":"f67e530a-efed-47f8-8974-03293326a4cf","system_id":"levelo_inurba_marseille","lat":43.33717,"lon":5.391857,"is_reserved":false,"is_disabled":false,"rental_uris":{"android":"levelo://app?vid=f67e530a-efed-47f8-8974-03293326a4cf","ios":"levelo://app?vid=f67e530a-efed-47f8-8974-03293326a4cf"},"vehicle_type_id":"4","last_reported":1719421622,"current_range_meters":24400,"station_id":"ce4bhr92rcd13ifvqhsg","pricing_plan_id":"cebpf4jnsgd1na2vs0mg"},{"bike_id":"a5f4012f-c87e-4e2d-a8d6-86178f65ef68","system_id":"levelo_inurba_marseille","lat":43.308012,"lon":5.381511,"is_reserved":false,"is_disabled":false,"rental_uris":{"android":"levelo://app?vid=a5f4012f-c87e-4e2d-a8d6-86178f65ef68","ios":"levelo://app?vid=a5f4012f-c87e-4e2d-a8d6-86178f65ef68"},"vehicle_type_id":"4","last_reported":1719421622,"current_range_meters":0,"station_id":"ce4bgt12rcd13ifvqce0","pricing_plan_id":"cebpf4jnsgd1na2vs0mg"},{"bike_id":"1b7d2f89-1dc2-48b3-82ec-79663dc3517c","system_id":"levelo_inurba_marseille","lat":43.304606,"lon":5.379026,"is_reserved":false,"is_disabled":false,"rental_uris":{"android":"levelo://app?vid=1b7d2f89-1dc2-48b3-82ec-79663dc3517c","ios":"levelo://app?vid=1b7d2f89-1dc2-48b3-82ec-79663dc3517c"},"vehicle_type_id":"4","last_reported":1719421622,"current_range_meters":2000,"station_id":"ce4bgup2rcd13ifvqcn0","pricing_plan_id":"cebpf4jnsgd1na2vs0mg"},{"bike_id":"a9e8af42-2056-4b13-afed-d098ef516525","system_id":"levelo_inurba_marseille","lat":43.324771,"lon":5.36557,"is_reserved":false,"is_disabled":false,"rental_uris":{"android":"levelo://app?vid=a9e8af42-2056-4b13-afed-d098ef516525","ios":"levelo://app?vid=a9e8af42-2056-4b13-afed-d098ef516525"},"vehicle_type_id":"4","last_reported":1719421622,"current_range_meters":27600,"station_id":"ce4bhs12rcd13ifvqhvg","pricing_plan_id":"cebpf4jnsgd1na2vs0mg"},{"bike_id":"98f25d7d-9e0b-4aab-829f-17bffebc5f8d","system_id":"levelo_inurba_marseille","lat":43.324771,"lon":5.36557,"is_reserved":false,"is_disabled":false,"rental_uris":{"android":"levelo://app?vid=98f25d7d-9e0b-4aab-829f-17bffebc5f8d","ios":"levelo://app?vid=98f25d7d-9e0b-4aab-829f-17bffebc5f8d"},"vehicle_type_id":"4","last_reported":1719421622,"current_range_meters":18400,"station_id":"ce4bhs12rcd13ifvqhvg","pricing_plan_id":"cebpf4jnsgd1na2vs0mg"},{"bike_id":"37f19f28-6219-490d-b282-ef257077f032","system_id":"levelo_inurba_marseille","lat":43.324771,"lon":5.36557,"is_reserved":false,"is_disabled":false,"rental_uris":{"android":"levelo://app?vid=37f19f28-6219-490d-b282-ef257077f032","ios":"levelo://app?vid=37f19f28-6219-490d-b282-ef257077f032"},"vehicle_type_id":"4","last_reported":1719421622,"current_range_meters":0,"station_id":"ce4bhs12rcd13ifvqhvg","pricing_plan_id":"cebpf4jnsgd1na2vs0mg"},{"bike_id":"0e4c3956-c87f-4ff9-995d-48dca94c1192","system_id":"levelo_inurba_marseille","lat":43.324771,"lon":5.36557,"is_reserved":false,"is_disabled":false,"rental_uris":{"android":"levelo://app?vid=0e4c3956-c87f-4ff9-995d-48dca94c1192","ios":"levelo://app?vid=0e4c3956-c87f-4ff9-995d-48dca94c1192"},"vehicle_type_id":"4","last_reported":1719421622,"current_range_meters":20800,"station_id":"ce4bhs12rcd13ifvqhvg","pricing_plan_id":"cebpf4jnsgd1na2vs0mg"},{"bike_id":"2b61a5bb-2a53-447e-a4f9-9eaff8f7b5af","system_id":"levelo_inurba_marseille","lat":43.324771,"lon":5.36557,"is_reserved":false,"is_disabled":false,"rental_uris":{"android":"levelo://app?vid=2b61a5bb-2a53-447e-a4f9-9eaff8f7b5af","ios":"levelo://app?vid=2b61a5bb-2a53-447e-a4f9-9eaff8f7b5af"},"vehicle_type_id":"4","last_reported":1719421622,"current_range_meters":8000,"station_id":"ce4bhs12rcd13ifvqhvg","pricing_plan_id":"cebpf4jnsgd1na2vs0mg"},{"bike_id":"6e9c1d1a-73a9-4d85-9547-e8c5dd3a1147","system_id":"levelo_inurba_marseille","lat":43.310804,"lon":5.38359,"is_reserved":false,"is_disabled":false,"rental_uris":{"android":"levelo://app?vid=6e9c1d1a-73a9-4d85-9547-e8c5dd3a1147","ios":"levelo://app?vid=6e9c1d1a-73a9-4d85-9547-e8c5dd3a1147"},"vehicle_type_id":"4","last_reported":1719421622,"current_range_meters":4000,"station_id":"ce4bgv92rcd13ifvqcr0","pricing_plan_id":"cebpf4jnsgd1na2vs0mg"},{"bike_id":"61a2add8-d3ce-4a48-8d44-6384ca4c06a7","system_id":"levelo_inurba_marseille","lat":43.310804,"lon":5.38359,"is_reserved":false,"is_disabled":false,"rental_uris":{"android":"levelo://app?vid=61a2add8-d3ce-4a48-8d44-6384ca4c06a7","ios":"levelo://app?vid=61a2add8-d3ce-4a48-8d44-6384ca4c06a7"},"vehicle_type_id":"4","last_reported":1719421622,"current_range_meters":2000,"station_id":"ce4bgv92rcd13ifvqcr0","pricing_plan_id":"cebpf4jnsgd1na2vs0mg"},{"bike_id":"ee39f0f5-894b-4c6d-9a31-abd48b5a5dc2","system_id":"levelo_inurba_marseille","lat":43.301429,"lon":5.37413,"is_reserved":false,"is_disabled":false,"rental_uris":{"android":"levelo://app?vid=ee39f0f5-894b-4c6d-9a31-abd48b5a5dc2","ios":"levelo://app?vid=ee39f0f5-894b-4c6d-9a31-abd48b5a5dc2"},"vehicle_type_id":"4","last_reported":1719421622,"current_range_meters":14000,"station_id":"ce4bgs92rcd13ifvqcc0","pricing_plan_id":"cebpf4jnsgd1na2vs0mg"},{"bike_id":"ee848a42-fc80-44c9-9fef-f9ab365bbc8a","system_id":"levelo_inurba_marseille","lat":43.3027,"lon":5.37722,"is_reserved":false,"is_disabled":false,"rental_uris":{"android":"levelo://app?vid=ee848a42-fc80-44c9-9fef-f9ab365bbc8a","ios":"levelo://app?vid=ee848a42-fc80-44c9-9fef-f9ab365bbc8a"},"vehicle_type_id":"4","last_reported":1719421622,"current_range_meters":16400,"station_id":"","pricing_plan_id":"cebpf4jnsgd1na2vs0mg"},{"bike_id":"c5b2f1c3-ce56-4e8a-b0d3-612d8e77a7c1","system_id":"levelo_inurba_marseille","lat":43.313571,"lon":5.384829,"is_reserved":false,"is_disabled":false,"rental_uris":{"android":"levelo://app?vid=c5b2f1c3-ce56-4e8a-b0d3-612d8e77a7c1","ios":"levelo://app?vid=c5b2f1c3-ce56-4e8a-b0d3-612d8e77a7c1"},"vehicle_type_id":"4","last_reported":1719421622,"current_range_meters":16400,"station_id":"ce4bgt92rcd13ifvqcf0","pricing_plan_id":"cebpf4jnsgd1na2vs0mg"},{"bike_id":"d9918f75-33ba-4824-8196-b524d5c67ac8","system_id":"levelo_inurba_marseille","lat":43.313571,"lon":5.384829,"is_reserved":false,"is_disabled":false,"rental_uris":{"android":"levelo://app?vid=d9918f75-33ba-4824-8196-b524d5c67ac8","ios":"levelo://app?vid=d9918f75-33ba-4824-8196-b524d5c67ac8"},"vehicle_type_id":"4","last_reported":1719421622,"current_range_meters":10400,"station_id":"ce4bgt92rcd13ifvqcf0","pricing_plan_id":"cebpf4jnsgd1na2vs0mg"},{"bike_id":"26f48a42-0141-4e4b-86f1-11e360e2ac1a","system_id":"levelo_inurba_marseille","lat":43.313571,"lon":5.384829,"is_reserved":false,"is_disabled":false,"rental_uris":{"android":"levelo://app?vid=26f48a42-0141-4e4b-86f1-11e360e2ac1a","ios":"levelo://app?vid=26f48a42-0141-4e4b-86f1-11e360e2ac1a"},"vehicle_type_id":"4","last_reported":1719421622,"current_range_meters":0,"station_id":"ce4bgt92rcd13ifvqcf0","pricing_plan_id":"cebpf4jnsgd1na2vs0mg"},{"bike_id":"5951fa12-c5ad-4fa6-b8ae-6d4371bc40fe","system_id":"levelo_inurba_marseille","lat":43.31365,"lon":5.38493,"is_reserved":false,"is_disabled":false,"rental_uris":{"android":"levelo://app?vid=5951fa12-c5ad-4fa6-b8ae-6d4371bc40fe","ios":"levelo://app?vid=5951fa12-c5ad-4fa6-b8ae-6d4371bc40fe"},"vehicle_type_id":"4","last_reported":1719421622,"current_range_meters":2800,"station_id":"ce4bgt92rcd13ifvqcf0","pricing_plan_id":"cebpf4jnsgd1na2vs0mg"},{"bike_id":"74c48921-210a-4762-9efb-d787ee54b96f","system_id":"levelo_inurba_marseille","lat":43.31369,"lon":5.38498,"is_reserved":false,"is_disabled":false,"rental_uris":{"android":"levelo://app?vid=74c48921-210a-4762-9efb-d787ee54b96f","ios":"levelo://app?vid=74c48921-210a-4762-9efb-d787ee54b96f"},"vehicle_type_id":"4","last_reported":1719421622,"current_range_meters":800,"station_id":"ce4bgt92rcd13ifvqcf0","pricing_plan_id":"cebpf4jnsgd1na2vs0mg"},{"bike_id":"12449a4a-297c-4659-817d-bc91b57fcac3","system_id":"levelo_inurba_marseille","lat":43.313613,"lon":5.385013,"is_reserved":false,"is_disabled":false,"rental_uris":{"android":"levelo://app?vid=12449a4a-297c-4659-817d-bc91b57fcac3","ios":"levelo://app?vid=12449a4a-297c-4659-817d-bc91b57fcac3"},"vehicle_type_id":"4","last_reported":1719421622,"current_range_meters":12800,"station_id":"ce4bgt92rcd13ifvqcf0","pricing_plan_id":"cebpf4jnsgd1na2vs0mg"},{"bike_id":"0549f69a-cbcc-4b12-9355-0fbedef5363f","system_id":"levelo_inurba_marseille","lat":43.299222,"lon":5.365554,"is_reserved":false,"is_disabled":false,"rental_uris":{"android":"levelo://app?vid=0549f69a-cbcc-4b12-9355-0fbedef5363f","ios":"levelo://app?vid=0549f69a-cbcc-4b12-9355-0fbedef5363f"},"vehicle_type_id":"4","last_reported":1719421622,"current_range_meters":0,"station_id":"ce4bgm92rcd13ifvqbr0","pricing_plan_id":"cebpf4jnsgd1na2vs0mg"},{"bike_id":"1b665810-5b62-42b2-a0c6-f6fd3519bb93","system_id":"levelo_inurba_marseille","lat":43.318819,"lon":5.384536,"is_reserved":false,"is_disabled":false,"rental_uris":{"android":"levelo://app?vid=1b665810-5b62-42b2-a0c6-f6fd3519bb93","ios":"levelo://app?vid=1b665810-5b62-42b2-a0c6-f6fd3519bb93"},"vehicle_type_id":"4","last_reported":1719421622,"current_range_meters":24400,"station_id":"","pricing_plan_id":"cebpf4jnsgd1na2vs0mg"},{"bike_id":"b4e90371-b51b-4bb3-9f26-7d543acd8573","system_id":"levelo_inurba_marseille","lat":43.30945,"lon":5.38637,"is_reserved":false,"is_disabled":false,"rental_uris":{"android":"levelo://app?vid=b4e90371-b51b-4bb3-9f26-7d543acd8573","ios":"levelo://app?vid=b4e90371-b51b-4bb3-9f26-7d543acd8573"},"vehicle_type_id":"4","last_reported":1719421622,"current_range_meters":20000,"station_id":"","pricing_plan_id":"cebpf4jnsgd1na2vs0mg"},{"bike_id":"0a98e4ed-47b4-408f-9e76-1e4dd8ef0afa","system_id":"levelo_inurba_marseille","lat":43.29915,"lon":5.37463,"is_reserved":false,"is_disabled":false,"rental_uris":{"android":"levelo://app?vid=0a98e4ed-47b4-408f-9e76-1e4dd8ef0afa","ios":"levelo://app?vid=0a98e4ed-47b4-408f-9e76-1e4dd8ef0afa"},"vehicle_type_id":"4","last_reported":1719421622,"current_range_meters":27200,"station_id":"","pricing_plan_id":"cebpf4jnsgd1na2vs0mg"},{"bike_id":"b01a4977-d291-4233-8701-c6793f5bdf33","system_id":"levelo_inurba_marseille","lat":43.297163,"lon":5.365866,"is_reserved":false,"is_disabled":false,"rental_uris":{"android":"levelo://app?vid=b01a4977-d291-4233-8701-c6793f5bdf33","ios":"levelo://app?vid=b01a4977-d291-4233-8701-c6793f5bdf33"},"vehicle_type_id":"4","last_reported":1719421622,"current_range_meters":0,"station_id":"ce4bgn12rcd13ifvqbt0","pricing_plan_id":"cebpf4jnsgd1na2vs0mg"},{"bike_id":"0c481705-5389-4c7e-aa81-fa330387ac0b","system_id":"levelo_inurba_marseille","lat":43.29783,"lon":5.37122,"is_reserved":false,"is_disabled":false,"rental_uris":{"android":"levelo://app?vid=0c481705-5389-4c7e-aa81-fa330387ac0b","ios":"levelo://app?vid=0c481705-5389-4c7e-aa81-fa330387ac0b"},"vehicle_type_id":"4","last_reported":1719421622,"current_range_meters":6000,"station_id":"ce4bgop2rcd13ifvqc1g","pricing_plan_id":"cebpf4jnsgd1na2vs0mg"},{"bike_id":"03380d49-48df-4caf-a543-f21c6d13b8e5","system_id":"levelo_inurba_marseille","lat":43.29779,"lon":5.36288,"is_reserved":false,"is_disabled":false,"rental_uris":{"android":"levelo://app?vid=03380d49-48df-4caf-a543-f21c6d13b8e5","ios":"levelo://app?vid=03380d49-48df-4caf-a543-f21c6d13b8e5"},"vehicle_type_id":"4","last_reported":1719421622,"current_range_meters":0,"station_id":"","pricing_plan_id":"cebpf4jnsgd1na2vs0mg"},{"bike_id":"878f5f5b-f7d1-4c47-a7a4-a1ab4110cefd","system_id":"levelo_inurba_marseille","lat":43.322872,"lon":5.382756,"is_reserved":false,"is_disabled":false,"rental_uris":{"android":"levelo://app?vid=878f5f5b-f7d1-4c47-a7a4-a1ab4110cefd","ios":"levelo://app?vid=878f5f5b-f7d1-4c47-a7a4-a1ab4110cefd"},"vehicle_type_id":"4","last_reported":1719421622,"current_range_meters":21600,"station_id":"ce4bhr12rcd13ifvqhqg","pricing_plan_id":"cebpf4jnsgd1na2vs0mg"},{"bike_id":"bcfeee5e-e88a-45f0-bc38-0324d6034e2d","system_id":"levelo_inurba_marseille","lat":43.29881,"lon":5.37639,"is_reserved":false,"is_disabled":false,"rental_uris":{"android":"levelo://app?vid=bcfeee5e-e88a-45f0-bc38-0324d6034e2d","ios":"levelo://app?vid=bcfeee5e-e88a-45f0-bc38-0324d6034e2d"},"vehicle_type_id":"4","last_reported":1719421622,"current_range_meters":0,"station_id":"","pricing_plan_id":"cebpf4jnsgd1na2vs0mg"},{"bike_id":"258ab046-1880-4c64-9e30-00bf66e5aa74","system_id":"levelo_inurba_marseille","lat":43.29714,"lon":5.36599,"is_reserved":false,"is_disabled":false,"rental_uris":{"android":"levelo://app?vid=258ab046-1880-4c64-9e30-00bf66e5aa74","ios":"levelo://app?vid=258ab046-1880-4c64-9e30-00bf66e5aa74"},"vehicle_type_id":"4","last_reported":1719421622,"current_range_meters":0,"station_id":"ce4bgn12rcd13ifvqbt0","pricing_plan_id":"cebpf4jnsgd1na2vs0mg"},{"bike_id":"18af5eea-8b09-49f3-a8fc-f6ecb650ba0d","system_id":"levelo_inurba_marseille","lat":43.313291,"lon":5.396838,"is_reserved":false,"is_disabled":false,"rental_uris":{"android":"levelo://app?vid=18af5eea-8b09-49f3-a8fc-f6ecb650ba0d","ios":"levelo://app?vid=18af5eea-8b09-49f3-a8fc-f6ecb650ba0d"},"vehicle_type_id":"4","last_reported":1719421622,"current_range_meters":20000,"station_id":"ce4bgvp2rcd13ifvqcu0","pricing_plan_id":"cebpf4jnsgd1na2vs0mg"},{"bike_id":"1ac4d986-a12a-488e-9054-1843004036b8","system_id":"levelo_inurba_marseille","lat":43.296129,"lon":5.370777,"is_reserved":false,"is_disabled":false,"rental_uris":{"android":"levelo://app?vid=1ac4d986-a12a-488e-9054-1843004036b8","ios":"levelo://app?vid=1ac4d986-a12a-488e-9054-1843004036b8"},"vehicle_type_id":"4","last_reported":1719421622,"current_range_meters":6800,"station_id":"ce4bgnh2rcd13ifvqc0g","pricing_plan_id":"cebpf4jnsgd1na2vs0mg"},{"bike_id":"686ef8df-4ad4-4006-9493-e1a91ce00b20","system_id":"levelo_inurba_marseille","lat":43.295985,"lon":5.37296,"is_reserved":false,"is_disabled":false,"rental_uris":{"android":"levelo://app?vid=686ef8df-4ad4-4006-9493-e1a91ce00b20","ios":"levelo://app?vid=686ef8df-4ad4-4006-9493-e1a91ce00b20"},"vehicle_type_id":"4","last_reported":1719421622,"current_range_meters":14400,"station_id":"ce4bgj92rcd13ifvqbd0","pricing_plan_id":"cebpf4jnsgd1na2vs0mg"},{"bike_id":"2f635137-ee63-41be-bf2d-d6dfd1ff0a1d","system_id":"levelo_inurba_marseille","lat":43.309589,"lon":5.390258,"is_reserved":false,"is_disabled":false,"rental_uris":{"android":"levelo://app?vid=2f635137-ee63-41be-bf2d-d6dfd1ff0a1d","ios":"levelo://app?vid=2f635137-ee63-41be-bf2d-d6dfd1ff0a1d"},"vehicle_type_id":"4","last_reported":1719421622,"current_range_meters":16400,"station_id":"ce4bgup2rcd13ifvqco0","pricing_plan_id":"cebpf4jnsgd1na2vs0mg"},{"bike_id":"b4ecc75d-fe40-476f-8ea7-4927cd15ca43","system_id":"levelo_inurba_marseille","lat":43.317557,"lon":5.390173,"is_reserved":false,"is_disabled":false,"rental_uris":{"android":"levelo://app?vid=b4ecc75d-fe40-476f-8ea7-4927cd15ca43","ios":"levelo://app?vid=b4ecc75d-fe40-476f-8ea7-4927cd15ca43"},"vehicle_type_id":"4","last_reported":1719421622,"current_range_meters":2800,"station_id":"ce4bhqp2rcd13ifvqhng","pricing_plan_id":"cebpf4jnsgd1na2vs0mg"},{"bike_id":"14546447-dd83-4aaa-83c7-f39c8098406e","system_id":"levelo_inurba_marseille","lat":43.317557,"lon":5.390173,"is_reserved":false,"is_disabled":false,"rental_uris":{"android":"levelo://app?vid=14546447-dd83-4aaa-83c7-f39c8098406e","ios":"levelo://app?vid=14546447-dd83-4aaa-83c7-f39c8098406e"},"vehicle_type_id":"4","last_reported":1719421622,"current_range_meters":10400,"station_id":"ce4bhqp2rcd13ifvqhng","pricing_plan_id":"cebpf4jnsgd1na2vs0mg"},{"bike_id":"ae6bfc36-0c1d-4625-8892-3b89660fbeda","system_id":"levelo_inurba_marseille","lat":43.317565,"lon":5.390203,"is_reserved":false,"is_disabled":false,"rental_uris":{"android":"levelo://app?vid=ae6bfc36-0c1d-4625-8892-3b89660fbeda","ios":"levelo://app?vid=ae6bfc36-0c1d-4625-8892-3b89660fbeda"},"vehicle_type_id":"4","last_reported":1719421622,"current_range_meters":17200,"station_id":"ce4bhqp2rcd13ifvqhng","pricing_plan_id":"cebpf4jnsgd1na2vs0mg"},{"bike_id":"28f0afbb-dd00-4313-ac88-0f4e7edb8adc","system_id":"levelo_inurba_marseille","lat":43.298037,"lon":5.381066,"is_reserved":false,"is_disabled":false,"rental_uris":{"android":"levelo://app?vid=28f0afbb-dd00-4313-ac88-0f4e7edb8adc","ios":"levelo://app?vid=28f0afbb-dd00-4313-ac88-0f4e7edb8adc"},"vehicle_type_id":"4","last_reported":1719421622,"current_range_meters":0,"station_id":"ce4bgip2rcd13ifvqbb0","pricing_plan_id":"cebpf4jnsgd1na2vs0mg"},{"bike_id":"75396b1c-590e-4c48-ab1b-00c66f97eb81","system_id":"levelo_inurba_marseille","lat":43.298037,"lon":5.381066,"is_reserved":false,"is_disabled":false,"rental_uris":{"android":"levelo://app?vid=75396b1c-590e-4c48-ab1b-00c66f97eb81","ios":"levelo://app?vid=75396b1c-590e-4c48-ab1b-00c66f97eb81"},"vehicle_type_id":"4","last_reported":1719421622,"current_range_meters":22000,"station_id":"ce4bgip2rcd13ifvqbb0","pricing_plan_id":"cebpf4jnsgd1na2vs0mg"},{"bike_id":"2b9ec4e9-e6f3-4cd7-b1ca-6d54109fd0c2","system_id":"levelo_inurba_marseille","lat":43.29792,"lon":5.38093,"is_reserved":false,"is_disabled":false,"rental_uris":{"android":"levelo://app?vid=2b9ec4e9-e6f3-4cd7-b1ca-6d54109fd0c2","ios":"levelo://app?vid=2b9ec4e9-e6f3-4cd7-b1ca-6d54109fd0c2"},"vehicle_type_id":"4","last_reported":1719421622,"current_range_meters":0,"station_id":"ce4bgip2rcd13ifvqbb0","pricing_plan_id":"cebpf4jnsgd1na2vs0mg"},{"bike_id":"543162d8-4463-4a50-a4fd-747396fc19b8","system_id":"levelo_inurba_marseille","lat":43.304335,"lon":5.389,"is_reserved":false,"is_disabled":false,"rental_uris":{"android":"levelo://app?vid=543162d8-4463-4a50-a4fd-747396fc19b8","ios":"levelo://app?vid=543162d8-4463-4a50-a4fd-747396fc19b8"},"vehicle_type_id":"4","last_reported":1719421622,"current_range_meters":0,"station_id":"ce4bgk12rcd13ifvqbi0","pricing_plan_id":"cebpf4jnsgd1na2vs0mg"},{"bike_id":"49e3d12d-cc67-4b52-a378-3dd2c2e4518d","system_id":"levelo_inurba_marseille","lat":43.296277,"lon":5.377108,"is_reserved":false,"is_disabled":false,"rental_uris":{"android":"levelo://app?vid=49e3d12d-cc67-4b52-a378-3dd2c2e4518d","ios":"levelo://app?vid=49e3d12d-cc67-4b52-a378-3dd2c2e4518d"},"vehicle_type_id":"4","last_reported":1719421622,"current_range_meters":9200,"station_id":"ce4bgi92rcd13ifvqb90","pricing_plan_id":"cebpf4jnsgd1na2vs0mg"},{"bike_id":"d72077ef-795c-4c8b-9608-ed52a2280ad1","system_id":"levelo_inurba_marseille","lat":43.299707,"lon":5.384859,"is_reserved":false,"is_disabled":false,"rental_uris":{"android":"levelo://app?vid=d72077ef-795c-4c8b-9608-ed52a2280ad1","ios":"levelo://app?vid=d72077ef-795c-4c8b-9608-ed52a2280ad1"},"vehicle_type_id":"4","last_reported":1719421622,"current_range_meters":5600,"station_id":"ce4bgj92rcd13ifvqbd0","pricing_plan_id":"cebpf4jnsgd1na2vs0mg"},{"bike_id":"04776736-4a95-4f3c-bd45-9516f3bfb078","system_id":"levelo_inurba_marseille","lat":43.298037,"lon":5.381066,"is_reserved":false,"is_disabled":false,"rental_uris":{"android":"levelo://app?vid=04776736-4a95-4f3c-bd45-9516f3bfb078","ios":"levelo://app?vid=04776736-4a95-4f3c-bd45-9516f3bfb078"},"vehicle_type_id":"4","last_reported":1719421622,"current_range_meters":0,"station_id":"ce4bgip2rcd13ifvqbb0","pricing_plan_id":"cebpf4jnsgd1na2vs0mg"},{"bike_id":"5872b11a-5025-458c-8cf3-fd85ee899c62","system_id":"levelo_inurba_marseille","lat":43.299707,"lon":5.384859,"is_reserved":false,"is_disabled":false,"rental_uris":{"android":"levelo://app?vid=5872b11a-5025-458c-8cf3-fd85ee899c62","ios":"levelo://app?vid=5872b11a-5025-458c-8cf3-fd85ee899c62"},"vehicle_type_id":"4","last_reported":1719421622,"current_range_meters":31600,"station_id":"ce4bgj92rcd13ifvqbd0","pricing_plan_id":"cebpf4jnsgd1na2vs0mg"},{"bike_id":"d9fbd79e-5c14-45ec-94e9-dd36a8bfd98e","system_id":"levelo_inurba_marseille","lat":43.29982,"lon":5.38488,"is_reserved":false,"is_disabled":false,"rental_uris":{"android":"levelo://app?vid=d9fbd79e-5c14-45ec-94e9-dd36a8bfd98e","ios":"levelo://app?vid=d9fbd79e-5c14-45ec-94e9-dd36a8bfd98e"},"vehicle_type_id":"4","last_reported":1719421622,"current_range_meters":24800,"station_id":"ce4bgj92rcd13ifvqbd0","pricing_plan_id":"cebpf4jnsgd1na2vs0mg"},{"bike_id":"50e6d3ae-bac6-43c8-9f7e-c6f6b09b881c","system_id":"levelo_inurba_marseille","lat":43.299707,"lon":5.384859,"is_reserved":false,"is_disabled":false,"rental_uris":{"android":"levelo://app?vid=50e6d3ae-bac6-43c8-9f7e-c6f6b09b881c","ios":"levelo://app?vid=50e6d3ae-bac6-43c8-9f7e-c6f6b09b881c"},"vehicle_type_id":"4","last_reported":1719421622,"current_range_meters":31600,"station_id":"ce4bgj92rcd13ifvqbd0","pricing_plan_id":"cebpf4jnsgd1na2vs0mg"},{"bike_id":"76006d16-584d-4d9f-b618-8c39c397a56e","system_id":"levelo_inurba_marseille","lat":43.299707,"lon":5.384859,"is_reserved":false,"is_disabled":false,"rental_uris":{"android":"levelo://app?vid=76006d16-584d-4d9f-b618-8c39c397a56e","ios":"levelo://app?vid=76006d16-584d-4d9f-b618-8c39c397a56e"},"vehicle_type_id":"4","last_reported":1719421622,"current_range_meters":15600,"station_id":"ce4bgj92rcd13ifvqbd0","pricing_plan_id":"cebpf4jnsgd1na2vs0mg"},{"bike_id":"9af85b4e-e81d-43a9-ad76-aacf5a5a05fa","system_id":"levelo_inurba_marseille","lat":43.299707,"lon":5.384859,"is_reserved":false,"is_disabled":false,"rental_uris":{"android":"levelo://app?vid=9af85b4e-e81d-43a9-ad76-aacf5a5a05fa","ios":"levelo://app?vid=9af85b4e-e81d-43a9-ad76-aacf5a5a05fa"},"vehicle_type_id":"4","last_reported":1719421622,"current_range_meters":15200,"station_id":"ce4bgj92rcd13ifvqbd0","pricing_plan_id":"cebpf4jnsgd1na2vs0mg"},{"bike_id":"7d38f138-d07c-47c2-9230-d0a486e39ea6","system_id":"levelo_inurba_marseille","lat":43.299707,"lon":5.384859,"is_reserved":false,"is_disabled":false,"rental_uris":{"android":"levelo://app?vid=7d38f138-d07c-47c2-9230-d0a486e39ea6","ios":"levelo://app?vid=7d38f138-d07c-47c2-9230-d0a486e39ea6"},"vehicle_type_id":"4","last_reported":1719421622,"current_range_meters":17200,"station_id":"ce4bgj92rcd13ifvqbd0","pricing_plan_id":"cebpf4jnsgd1na2vs0mg"},{"bike_id":"d5bdfc38-0090-4700-a1b6-eb7fa2b19c30","system_id":"levelo_inurba_marseille","lat":43.299707,"lon":5.384859,"is_reserved":false,"is_disabled":false,"rental_uris":{"android":"levelo://app?vid=d5bdfc38-0090-4700-a1b6-eb7fa2b19c30","ios":"levelo://app?vid=d5bdfc38-0090-4700-a1b6-eb7fa2b19c30"},"vehicle_type_id":"4","last_reported":1719421622,"current_range_meters":25200,"station_id":"ce4bgj92rcd13ifvqbd0","pricing_plan_id":"cebpf4jnsgd1na2vs0mg"},{"bike_id":"c3607c6a-ba2d-4965-87ae-4e71be6433b6","system_id":"levelo_inurba_marseille","lat":43.29968,"lon":5.38499,"is_reserved":false,"is_disabled":false,"rental_uris":{"android":"levelo://app?vid=c3607c6a-ba2d-4965-87ae-4e71be6433b6","ios":"levelo://app?vid=c3607c6a-ba2d-4965-87ae-4e71be6433b6"},"vehicle_type_id":"4","last_reported":1719421622,"current_range_meters":31200,"station_id":"ce4bgj92rcd13ifvqbd0","pricing_plan_id":"cebpf4jnsgd1na2vs0mg"},{"bike_id":"2068931f-d7ef-494d-89b5-cf3cd401d158","system_id":"levelo_inurba_marseille","lat":43.299724,"lon":5.384848,"is_reserved":false,"is_disabled":false,"rental_uris":{"android":"levelo://app?vid=2068931f-d7ef-494d-89b5-cf3cd401d158","ios":"levelo://app?vid=2068931f-d7ef-494d-89b5-cf3cd401d158"},"vehicle_type_id":"4","last_reported":1719421622,"current_range_meters":4000,"station_id":"ce4bgj92rcd13ifvqbd0","pricing_plan_id":"cebpf4jnsgd1na2vs0mg"},{"bike_id":"250918c4-d97f-403d-a01d-a7c79094d158","system_id":"levelo_inurba_marseille","lat":43.299724,"lon":5.384848,"is_reserved":false,"is_disabled":false,"rental_uris":{"android":"levelo://app?vid=250918c4-d97f-403d-a01d-a7c79094d158","ios":"levelo://app?vid=250918c4-d97f-403d-a01d-a7c79094d158"},"vehicle_type_id":"4","last_reported":1719421622,"current_range_meters":30000,"station_id":"ce4bgj92rcd13ifvqbd0","pricing_plan_id":"cebpf4jnsgd1na2vs0mg"},{"bike_id":"96495d73-af23-4b57-99a4-17c550f13aaa","system_id":"levelo_inurba_marseille","lat":43.299707,"lon":5.384859,"is_reserved":false,"is_disabled":false,"rental_uris":{"android":"levelo://app?vid=96495d73-af23-4b57-99a4-17c550f13aaa","ios":"levelo://app?vid=96495d73-af23-4b57-99a4-17c550f13aaa"},"vehicle_type_id":"4","last_reported":1719421622,"current_range_meters":5600,"station_id":"ce4bgj92rcd13ifvqbd0","pricing_plan_id":"cebpf4jnsgd1na2vs0mg"},{"bike_id":"5ef769e6-8b7a-493e-9f7a-6c96cdf0741d","system_id":"levelo_inurba_marseille","lat":43.296,"lon":5.38104,"is_reserved":false,"is_disabled":false,"rental_uris":{"android":"levelo://app?vid=5ef769e6-8b7a-493e-9f7a-6c96cdf0741d","ios":"levelo://app?vid=5ef769e6-8b7a-493e-9f7a-6c96cdf0741d"},"vehicle_type_id":"4","last_reported":1719421622,"current_range_meters":12800,"station_id":"ce4bgl12rcd13ifvqbo0","pricing_plan_id":"cebpf4jnsgd1na2vs0mg"},{"bike_id":"c92fc14c-0abb-4324-9687-56b31fe5773a","system_id":"levelo_inurba_marseille","lat":43.29595,"lon":5.381027,"is_reserved":false,"is_disabled":false,"rental_uris":{"android":"levelo://app?vid=c92fc14c-0abb-4324-9687-56b31fe5773a","ios":"levelo://app?vid=c92fc14c-0abb-4324-9687-56b31fe5773a"},"vehicle_type_id":"4","last_reported":1719421622,"current_range_meters":0,"station_id":"ce4bgl12rcd13ifvqbo0","pricing_plan_id":"cebpf4jnsgd1na2vs0mg"},{"bike_id":"31812a2e-9c89-4354-b9a1-314e960c52ad","system_id":"levelo_inurba_marseille","lat":43.292749,"lon":5.368402,"is_reserved":false,"is_disabled":false,"rental_uris":{"android":"levelo://app?vid=31812a2e-9c89-4354-b9a1-314e960c52ad","ios":"levelo://app?vid=31812a2e-9c89-4354-b9a1-314e960c52ad"},"vehicle_type_id":"4","last_reported":1719421622,"current_range_meters":0,"station_id":"ce4bhbp2rcd13ifvqesg","pricing_plan_id":"cebpf4jnsgd1na2vs0mg"},{"bike_id":"8a4ed60b-ca98-4364-bc94-75e1e3d09017","system_id":"levelo_inurba_marseille","lat":43.297774,"lon":5.370875,"is_reserved":false,"is_disabled":false,"rental_uris":{"android":"levelo://app?vid=8a4ed60b-ca98-4364-bc94-75e1e3d09017","ios":"levelo://app?vid=8a4ed60b-ca98-4364-bc94-75e1e3d09017"},"vehicle_type_id":"4","last_reported":1719421622,"current_range_meters":12800,"station_id":"ce4bgop2rcd13ifvqc1g","pricing_plan_id":"cebpf4jnsgd1na2vs0mg"},{"bike_id":"fce44e39-5234-4b2b-818b-7089556f6e6a","system_id":"levelo_inurba_marseille","lat":43.293009,"lon":5.374584,"is_reserved":false,"is_disabled":false,"rental_uris":{"android":"levelo://app?vid=fce44e39-5234-4b2b-818b-7089556f6e6a","ios":"levelo://app?vid=fce44e39-5234-4b2b-818b-7089556f6e6a"},"vehicle_type_id":"4","last_reported":1719421622,"current_range_meters":31200,"station_id":"ce4bgi12rcd13ifvqb70","pricing_plan_id":"cebpf4jnsgd1na2vs0mg"},{"bike_id":"fb447734-f71c-45b8-9c9a-16ac42714099","system_id":"levelo_inurba_marseille","lat":43.293009,"lon":5.374584,"is_reserved":false,"is_disabled":false,"rental_uris":{"android":"levelo://app?vid=fb447734-f71c-45b8-9c9a-16ac42714099","ios":"levelo://app?vid=fb447734-f71c-45b8-9c9a-16ac42714099"},"vehicle_type_id":"4","last_reported":1719421622,"current_range_meters":0,"station_id":"ce4bgi12rcd13ifvqb70","pricing_plan_id":"cebpf4jnsgd1na2vs0mg"},{"bike_id":"94fbeb8b-7060-450b-801d-21dfb2d69658","system_id":"levelo_inurba_marseille","lat":43.293009,"lon":5.374584,"is_reserved":false,"is_disabled":false,"rental_uris":{"android":"levelo://app?vid=94fbeb8b-7060-450b-801d-21dfb2d69658","ios":"levelo://app?vid=94fbeb8b-7060-450b-801d-21dfb2d69658"},"vehicle_type_id":"4","last_reported":1719421622,"current_range_meters":28800,"station_id":"ce4bgi12rcd13ifvqb70","pricing_plan_id":"cebpf4jnsgd1na2vs0mg"},{"bike_id":"8aef0ecc-1778-4c0d-b3c0-50ebcce1eff6","system_id":"levelo_inurba_marseille","lat":43.293009,"lon":5.374584,"is_reserved":false,"is_disabled":false,"rental_uris":{"android":"levelo://app?vid=8aef0ecc-1778-4c0d-b3c0-50ebcce1eff6","ios":"levelo://app?vid=8aef0ecc-1778-4c0d-b3c0-50ebcce1eff6"},"vehicle_type_id":"4","last_reported":1719421622,"current_range_meters":31200,"station_id":"ce4bgi12rcd13ifvqb70","pricing_plan_id":"cebpf4jnsgd1na2vs0mg"},{"bike_id":"da1d02e7-744e-43dc-b8e4-a5babbdb8864","system_id":"levelo_inurba_marseille","lat":43.293009,"lon":5.374584,"is_reserved":false,"is_disabled":false,"rental_uris":{"android":"levelo://app?vid=da1d02e7-744e-43dc-b8e4-a5babbdb8864","ios":"levelo://app?vid=da1d02e7-744e-43dc-b8e4-a5babbdb8864"},"vehicle_type_id":"4","last_reported":1719421622,"current_range_meters":0,"station_id":"ce4bgi12rcd13ifvqb70","pricing_plan_id":"cebpf4jnsgd1na2vs0mg"},{"bike_id":"d96da33a-4f87-4724-88a4-7fd31bc645cb","system_id":"levelo_inurba_marseille","lat":43.292917,"lon":5.374586,"is_reserved":false,"is_disabled":false,"rental_uris":{"android":"levelo://app?vid=d96da33a-4f87-4724-88a4-7fd31bc645cb","ios":"levelo://app?vid=d96da33a-4f87-4724-88a4-7fd31bc645cb"},"vehicle_type_id":"4","last_reported":1719421622,"current_range_meters":28800,"station_id":"ce4bgi12rcd13ifvqb70","pricing_plan_id":"cebpf4jnsgd1na2vs0mg"},{"bike_id":"aa1ad31e-7712-4d15-ae7c-deab3ca6136a","system_id":"levelo_inurba_marseille","lat":43.305994,"lon":5.393687,"is_reserved":false,"is_disabled":false,"rental_uris":{"android":"levelo://app?vid=aa1ad31e-7712-4d15-ae7c-deab3ca6136a","ios":"levelo://app?vid=aa1ad31e-7712-4d15-ae7c-deab3ca6136a"},"vehicle_type_id":"4","last_reported":1719421622,"current_range_meters":5200,"station_id":"ce4bh0p2rcd13ifvqd80","pricing_plan_id":"cebpf4jnsgd1na2vs0mg"},{"bike_id":"5adf74a9-4734-4769-a29f-dbfac51fe5a2","system_id":"levelo_inurba_marseille","lat":43.305994,"lon":5.393687,"is_reserved":false,"is_disabled":false,"rental_uris":{"android":"levelo://app?vid=5adf74a9-4734-4769-a29f-dbfac51fe5a2","ios":"levelo://app?vid=5adf74a9-4734-4769-a29f-dbfac51fe5a2"},"vehicle_type_id":"4","last_reported":1719421622,"current_range_meters":0,"station_id":"ce4bh0p2rcd13ifvqd80","pricing_plan_id":"cebpf4jnsgd1na2vs0mg"},{"bike_id":"de09af6c-5c25-4af1-97ed-c0ac161e479a","system_id":"levelo_inurba_marseille","lat":43.30307,"lon":5.39199,"is_reserved":false,"is_disabled":false,"rental_uris":{"android":"levelo://app?vid=de09af6c-5c25-4af1-97ed-c0ac161e479a","ios":"levelo://app?vid=de09af6c-5c25-4af1-97ed-c0ac161e479a"},"vehicle_type_id":"4","last_reported":1719421622,"current_range_meters":28400,"station_id":"ce4bgkh2rcd13ifvqbk0","pricing_plan_id":"cebpf4jnsgd1na2vs0mg"},{"bike_id":"7899af2e-86e9-45bf-b449-ae42d284e9c2","system_id":"levelo_inurba_marseille","lat":43.30085,"lon":5.390856,"is_reserved":false,"is_disabled":false,"rental_uris":{"android":"levelo://app?vid=7899af2e-86e9-45bf-b449-ae42d284e9c2","ios":"levelo://app?vid=7899af2e-86e9-45bf-b449-ae42d284e9c2"},"vehicle_type_id":"4","last_reported":1719421622,"current_range_meters":12000,"station_id":"ce4bh192rcd13ifvqdb0","pricing_plan_id":"cebpf4jnsgd1na2vs0mg"},{"bike_id":"298da1de-45bf-48cc-abb9-88b0185fbfc2","system_id":"levelo_inurba_marseille","lat":43.298764,"lon":5.388973,"is_reserved":false,"is_disabled":false,"rental_uris":{"android":"levelo://app?vid=298da1de-45bf-48cc-abb9-88b0185fbfc2","ios":"levelo://app?vid=298da1de-45bf-48cc-abb9-88b0185fbfc2"},"vehicle_type_id":"4","last_reported":1719421622,"current_range_meters":22800,"station_id":"ce4bh392rcd13ifvqdl0","pricing_plan_id":"cebpf4jnsgd1na2vs0mg"},{"bike_id":"8bc68be2-303d-475e-b8d6-9e1e0acca21b","system_id":"levelo_inurba_marseille","lat":43.29697,"lon":5.3865,"is_reserved":false,"is_disabled":false,"rental_uris":{"android":"levelo://app?vid=8bc68be2-303d-475e-b8d6-9e1e0acca21b","ios":"levelo://app?vid=8bc68be2-303d-475e-b8d6-9e1e0acca21b"},"vehicle_type_id":"4","last_reported":1719421622,"current_range_meters":6800,"station_id":"","pricing_plan_id":"cebpf4jnsgd1na2vs0mg"},{"bike_id":"9d2bc4a5-fd54-4f67-94f7-f6af7720976f","system_id":"levelo_inurba_marseille","lat":43.298764,"lon":5.388973,"is_reserved":false,"is_disabled":false,"rental_uris":{"android":"levelo://app?vid=9d2bc4a5-fd54-4f67-94f7-f6af7720976f","ios":"levelo://app?vid=9d2bc4a5-fd54-4f67-94f7-f6af7720976f"},"vehicle_type_id":"4","last_reported":1719421622,"current_range_meters":29600,"station_id":"ce4bh392rcd13ifvqdl0","pricing_plan_id":"cebpf4jnsgd1na2vs0mg"},{"bike_id":"0f643685-d5b1-4fec-9bc5-5a1e19fc4dba","system_id":"levelo_inurba_marseille","lat":43.298764,"lon":5.388973,"is_reserved":false,"is_disabled":false,"rental_uris":{"android":"levelo://app?vid=0f643685-d5b1-4fec-9bc5-5a1e19fc4dba","ios":"levelo://app?vid=0f643685-d5b1-4fec-9bc5-5a1e19fc4dba"},"vehicle_type_id":"4","last_reported":1719421622,"current_range_meters":16800,"station_id":"ce4bh392rcd13ifvqdl0","pricing_plan_id":"cebpf4jnsgd1na2vs0mg"},{"bike_id":"f80f68b9-263c-4e63-b6c0-55b2db76ccc1","system_id":"levelo_inurba_marseille","lat":43.298764,"lon":5.388973,"is_reserved":false,"is_disabled":false,"rental_uris":{"android":"levelo://app?vid=f80f68b9-263c-4e63-b6c0-55b2db76ccc1","ios":"levelo://app?vid=f80f68b9-263c-4e63-b6c0-55b2db76ccc1"},"vehicle_type_id":"4","last_reported":1719421622,"current_range_meters":22000,"station_id":"ce4bh392rcd13ifvqdl0","pricing_plan_id":"cebpf4jnsgd1na2vs0mg"},{"bike_id":"1fbf072e-7936-4551-ad53-15e4ab536aed","system_id":"levelo_inurba_marseille","lat":43.309038,"lon":5.396546,"is_reserved":false,"is_disabled":false,"rental_uris":{"android":"levelo://app?vid=1fbf072e-7936-4551-ad53-15e4ab536aed","ios":"levelo://app?vid=1fbf072e-7936-4551-ad53-15e4ab536aed"},"vehicle_type_id":"4","last_reported":1719421622,"current_range_meters":0,"station_id":"ce4bh012rcd13ifvqcv0","pricing_plan_id":"cebpf4jnsgd1na2vs0mg"},{"bike_id":"4a06ee91-d266-4c9a-a25f-38d68bb747a7","system_id":"levelo_inurba_marseille","lat":43.313291,"lon":5.396838,"is_reserved":false,"is_disabled":false,"rental_uris":{"android":"levelo://app?vid=4a06ee91-d266-4c9a-a25f-38d68bb747a7","ios":"levelo://app?vid=4a06ee91-d266-4c9a-a25f-38d68bb747a7"},"vehicle_type_id":"4","last_reported":1719421622,"current_range_meters":7600,"station_id":"ce4bgvp2rcd13ifvqcu0","pricing_plan_id":"cebpf4jnsgd1na2vs0mg"},{"bike_id":"e2d150fc-86ce-47aa-8bbc-9a2986d32f82","system_id":"levelo_inurba_marseille","lat":43.309038,"lon":5.396546,"is_reserved":false,"is_disabled":false,"rental_uris":{"android":"levelo://app?vid=e2d150fc-86ce-47aa-8bbc-9a2986d32f82","ios":"levelo://app?vid=e2d150fc-86ce-47aa-8bbc-9a2986d32f82"},"vehicle_type_id":"4","last_reported":1719421622,"current_range_meters":18000,"station_id":"ce4bh012rcd13ifvqcv0","pricing_plan_id":"cebpf4jnsgd1na2vs0mg"},{"bike_id":"59fd47fc-376c-4b27-b2f2-1a22469ce656","system_id":"levelo_inurba_marseille","lat":43.29529,"lon":5.385581,"is_reserved":false,"is_disabled":false,"rental_uris":{"android":"levelo://app?vid=59fd47fc-376c-4b27-b2f2-1a22469ce656","ios":"levelo://app?vid=59fd47fc-376c-4b27-b2f2-1a22469ce656"},"vehicle_type_id":"4","last_reported":1719421622,"current_range_meters":22800,"station_id":"ce4bgih2rcd13ifvqba0","pricing_plan_id":"cebpf4jnsgd1na2vs0mg"},{"bike_id":"0a70f146-5c73-4385-801a-4d4d8ea0484e","system_id":"levelo_inurba_marseille","lat":43.29534,"lon":5.38538,"is_reserved":false,"is_disabled":false,"rental_uris":{"android":"levelo://app?vid=0a70f146-5c73-4385-801a-4d4d8ea0484e","ios":"levelo://app?vid=0a70f146-5c73-4385-801a-4d4d8ea0484e"},"vehicle_type_id":"4","last_reported":1719421622,"current_range_meters":0,"station_id":"ce4bgih2rcd13ifvqba0","pricing_plan_id":"cebpf4jnsgd1na2vs0mg"},{"bike_id":"35eab4b8-4b8a-4041-b293-61f27b47c112","system_id":"levelo_inurba_marseille","lat":43.29529,"lon":5.38533,"is_reserved":false,"is_disabled":false,"rental_uris":{"android":"levelo://app?vid=35eab4b8-4b8a-4041-b293-61f27b47c112","ios":"levelo://app?vid=35eab4b8-4b8a-4041-b293-61f27b47c112"},"vehicle_type_id":"4","last_reported":1719421622,"current_range_meters":10800,"station_id":"ce4bgih2rcd13ifvqba0","pricing_plan_id":"cebpf4jnsgd1na2vs0mg"},{"bike_id":"76ac724c-9054-43e8-aaed-6b368f6d8e27","system_id":"levelo_inurba_marseille","lat":43.309038,"lon":5.396546,"is_reserved":false,"is_disabled":false,"rental_uris":{"android":"levelo://app?vid=76ac724c-9054-43e8-aaed-6b368f6d8e27","ios":"levelo://app?vid=76ac724c-9054-43e8-aaed-6b368f6d8e27"},"vehicle_type_id":"4","last_reported":1719421622,"current_range_meters":0,"station_id":"ce4bh012rcd13ifvqcv0","pricing_plan_id":"cebpf4jnsgd1na2vs0mg"},{"bike_id":"06577208-4672-4128-a08a-39bb0d1e874f","system_id":"levelo_inurba_marseille","lat":43.29538,"lon":5.38553,"is_reserved":false,"is_disabled":false,"rental_uris":{"android":"levelo://app?vid=06577208-4672-4128-a08a-39bb0d1e874f","ios":"levelo://app?vid=06577208-4672-4128-a08a-39bb0d1e874f"},"vehicle_type_id":"4","last_reported":1719421622,"current_range_meters":31200,"station_id":"ce4bgih2rcd13ifvqba0","pricing_plan_id":"cebpf4jnsgd1na2vs0mg"},{"bike_id":"3c93cf2f-c945-4bcd-b900-20853b3adc5b","system_id":"levelo_inurba_marseille","lat":43.29529,"lon":5.385581,"is_reserved":false,"is_disabled":false,"rental_uris":{"android":"levelo://app?vid=3c93cf2f-c945-4bcd-b900-20853b3adc5b","ios":"levelo://app?vid=3c93cf2f-c945-4bcd-b900-20853b3adc5b"},"vehicle_type_id":"4","last_reported":1719421622,"current_range_meters":1600,"station_id":"ce4bgih2rcd13ifvqba0","pricing_plan_id":"cebpf4jnsgd1na2vs0mg"},{"bike_id":"a9cf4cc1-1eba-4b3d-8c1d-87ab2fce128c","system_id":"levelo_inurba_marseille","lat":43.29529,"lon":5.385581,"is_reserved":false,"is_disabled":false,"rental_uris":{"android":"levelo://app?vid=a9cf4cc1-1eba-4b3d-8c1d-87ab2fce128c","ios":"levelo://app?vid=a9cf4cc1-1eba-4b3d-8c1d-87ab2fce128c"},"vehicle_type_id":"4","last_reported":1719421622,"current_range_meters":0,"station_id":"ce4bgih2rcd13ifvqba0","pricing_plan_id":"cebpf4jnsgd1na2vs0mg"},{"bike_id":"17acf2fa-a83c-4f7b-af31-c2d5b5010fbb","system_id":"levelo_inurba_marseille","lat":43.29529,"lon":5.3855,"is_reserved":false,"is_disabled":false,"rental_uris":{"android":"levelo://app?vid=17acf2fa-a83c-4f7b-af31-c2d5b5010fbb","ios":"levelo://app?vid=17acf2fa-a83c-4f7b-af31-c2d5b5010fbb"},"vehicle_type_id":"4","last_reported":1719421622,"current_range_meters":31200,"station_id":"ce4bgih2rcd13ifvqba0","pricing_plan_id":"cebpf4jnsgd1na2vs0mg"},{"bike_id":"ca6a4915-52ea-499a-91f6-a79d3207e601","system_id":"levelo_inurba_marseille","lat":43.29529,"lon":5.385581,"is_reserved":false,"is_disabled":false,"rental_uris":{"android":"levelo://app?vid=ca6a4915-52ea-499a-91f6-a79d3207e601","ios":"levelo://app?vid=ca6a4915-52ea-499a-91f6-a79d3207e601"},"vehicle_type_id":"4","last_reported":1719421622,"current_range_meters":19600,"station_id":"ce4bgih2rcd13ifvqba0","pricing_plan_id":"cebpf4jnsgd1na2vs0mg"},{"bike_id":"ac3a0c42-90f5-4fbb-bda1-9ea9fc6c0b82","system_id":"levelo_inurba_marseille","lat":43.29529,"lon":5.385581,"is_reserved":false,"is_disabled":false,"rental_uris":{"android":"levelo://app?vid=ac3a0c42-90f5-4fbb-bda1-9ea9fc6c0b82","ios":"levelo://app?vid=ac3a0c42-90f5-4fbb-bda1-9ea9fc6c0b82"},"vehicle_type_id":"4","last_reported":1719421622,"current_range_meters":24000,"station_id":"ce4bgih2rcd13ifvqba0","pricing_plan_id":"cebpf4jnsgd1na2vs0mg"},{"bike_id":"964663eb-065f-4ca9-a5f1-f02392ec2591","system_id":"levelo_inurba_marseille","lat":43.29529,"lon":5.385581,"is_reserved":false,"is_disabled":false,"rental_uris":{"android":"levelo://app?vid=964663eb-065f-4ca9-a5f1-f02392ec2591","ios":"levelo://app?vid=964663eb-065f-4ca9-a5f1-f02392ec2591"},"vehicle_type_id":"4","last_reported":1719421622,"current_range_meters":0,"station_id":"ce4bgih2rcd13ifvqba0","pricing_plan_id":"cebpf4jnsgd1na2vs0mg"},{"bike_id":"ebff3afa-58b5-4615-96d7-e9505e16f498","system_id":"levelo_inurba_marseille","lat":43.290779,"lon":5.371482,"is_reserved":false,"is_disabled":false,"rental_uris":{"android":"levelo://app?vid=ebff3afa-58b5-4615-96d7-e9505e16f498","ios":"levelo://app?vid=ebff3afa-58b5-4615-96d7-e9505e16f498"},"vehicle_type_id":"4","last_reported":1719421622,"current_range_meters":6000,"station_id":"ce4bh5p2rcd13ifvqe4g","pricing_plan_id":"cebpf4jnsgd1na2vs0mg"},{"bike_id":"9ee742d1-06c7-483c-b737-b4af4effae56","system_id":"levelo_inurba_marseille","lat":43.302008,"lon":5.394694,"is_reserved":false,"is_disabled":false,"rental_uris":{"android":"levelo://app?vid=9ee742d1-06c7-483c-b737-b4af4effae56","ios":"levelo://app?vid=9ee742d1-06c7-483c-b737-b4af4effae56"},"vehicle_type_id":"4","last_reported":1719421622,"current_range_meters":9600,"station_id":"ce4bh0p2rcd13ifvqd70","pricing_plan_id":"cebpf4jnsgd1na2vs0mg"},{"bike_id":"cad2492a-444e-4d4a-a54c-b904bfc82f35","system_id":"levelo_inurba_marseille","lat":43.302008,"lon":5.394694,"is_reserved":false,"is_disabled":false,"rental_uris":{"android":"levelo://app?vid=cad2492a-444e-4d4a-a54c-b904bfc82f35","ios":"levelo://app?vid=cad2492a-444e-4d4a-a54c-b904bfc82f35"},"vehicle_type_id":"4","last_reported":1719421622,"current_range_meters":2800,"station_id":"ce4bh0p2rcd13ifvqd70","pricing_plan_id":"cebpf4jnsgd1na2vs0mg"},{"bike_id":"0cf7f930-b9fe-4218-9ac0-c359eb711ee8","system_id":"levelo_inurba_marseille","lat":43.302008,"lon":5.394694,"is_reserved":false,"is_disabled":false,"rental_uris":{"android":"levelo://app?vid=0cf7f930-b9fe-4218-9ac0-c359eb711ee8","ios":"levelo://app?vid=0cf7f930-b9fe-4218-9ac0-c359eb711ee8"},"vehicle_type_id":"4","last_reported":1719421622,"current_range_meters":5600,"station_id":"ce4bh0p2rcd13ifvqd70","pricing_plan_id":"cebpf4jnsgd1na2vs0mg"},{"bike_id":"76d4fa8e-cac9-481e-ab37-6d806c0205da","system_id":"levelo_inurba_marseille","lat":43.302008,"lon":5.394694,"is_reserved":false,"is_disabled":false,"rental_uris":{"android":"levelo://app?vid=76d4fa8e-cac9-481e-ab37-6d806c0205da","ios":"levelo://app?vid=76d4fa8e-cac9-481e-ab37-6d806c0205da"},"vehicle_type_id":"4","last_reported":1719421622,"current_range_meters":0,"station_id":"ce4bh0p2rcd13ifvqd70","pricing_plan_id":"cebpf4jnsgd1na2vs0mg"},{"bike_id":"15669d9e-b8c7-42b1-b45d-c404b70a263f","system_id":"levelo_inurba_marseille","lat":43.290631,"lon":5.359244,"is_reserved":false,"is_disabled":false,"rental_uris":{"android":"levelo://app?vid=15669d9e-b8c7-42b1-b45d-c404b70a263f","ios":"levelo://app?vid=15669d9e-b8c7-42b1-b45d-c404b70a263f"},"vehicle_type_id":"4","last_reported":1719421622,"current_range_meters":5600,"station_id":"ce4bha92rcd13ifvqeg0","pricing_plan_id":"cebpf4jnsgd1na2vs0mg"},{"bike_id":"4f831e80-7131-4ec4-8876-39b042940b6c","system_id":"levelo_inurba_marseille","lat":43.29425,"lon":5.38627,"is_reserved":false,"is_disabled":false,"rental_uris":{"android":"levelo://app?vid=4f831e80-7131-4ec4-8876-39b042940b6c","ios":"levelo://app?vid=4f831e80-7131-4ec4-8876-39b042940b6c"},"vehicle_type_id":"4","last_reported":1719421622,"current_range_meters":0,"station_id":"ce4bh2h2rcd13ifvqdh0","pricing_plan_id":"cebpf4jnsgd1na2vs0mg"},{"bike_id":"b9bb72b3-f880-40c9-b18f-8002c71b4209","system_id":"levelo_inurba_marseille","lat":43.294153,"lon":5.386305,"is_reserved":false,"is_disabled":false,"rental_uris":{"android":"levelo://app?vid=b9bb72b3-f880-40c9-b18f-8002c71b4209","ios":"levelo://app?vid=b9bb72b3-f880-40c9-b18f-8002c71b4209"},"vehicle_type_id":"4","last_reported":1719421622,"current_range_meters":14000,"station_id":"ce4bh2h2rcd13ifvqdh0","pricing_plan_id":"cebpf4jnsgd1na2vs0mg"},{"bike_id":"98846c96-d4fa-477f-95f2-a5af1f305b9d","system_id":"levelo_inurba_marseille","lat":43.294153,"lon":5.386305,"is_reserved":false,"is_disabled":false,"rental_uris":{"android":"levelo://app?vid=98846c96-d4fa-477f-95f2-a5af1f305b9d","ios":"levelo://app?vid=98846c96-d4fa-477f-95f2-a5af1f305b9d"},"vehicle_type_id":"4","last_reported":1719421622,"current_range_meters":19200,"station_id":"ce4bh2h2rcd13ifvqdh0","pricing_plan_id":"cebpf4jnsgd1na2vs0mg"},{"bike_id":"ad756477-620f-4c14-a182-c994f23bbe04","system_id":"levelo_inurba_marseille","lat":43.294153,"lon":5.386305,"is_reserved":false,"is_disabled":false,"rental_uris":{"android":"levelo://app?vid=ad756477-620f-4c14-a182-c994f23bbe04","ios":"levelo://app?vid=ad756477-620f-4c14-a182-c994f23bbe04"},"vehicle_type_id":"4","last_reported":1719421622,"current_range_meters":5200,"station_id":"ce4bh2h2rcd13ifvqdh0","pricing_plan_id":"cebpf4jnsgd1na2vs0mg"},{"bike_id":"8deb71d4-323f-4239-a13b-843fb84c7d83","system_id":"levelo_inurba_marseille","lat":43.294162,"lon":5.386292,"is_reserved":false,"is_disabled":false,"rental_uris":{"android":"levelo://app?vid=8deb71d4-323f-4239-a13b-843fb84c7d83","ios":"levelo://app?vid=8deb71d4-323f-4239-a13b-843fb84c7d83"},"vehicle_type_id":"4","last_reported":1719421622,"current_range_meters":15600,"station_id":"ce4bh2h2rcd13ifvqdh0","pricing_plan_id":"cebpf4jnsgd1na2vs0mg"},{"bike_id":"1df4f8ad-019f-43e9-a960-4e4e6f3c4921","system_id":"levelo_inurba_marseille","lat":43.289184,"lon":5.366408,"is_reserved":false,"is_disabled":false,"rental_uris":{"android":"levelo://app?vid=1df4f8ad-019f-43e9-a960-4e4e6f3c4921","ios":"levelo://app?vid=1df4f8ad-019f-43e9-a960-4e4e6f3c4921"},"vehicle_type_id":"4","last_reported":1719421622,"current_range_meters":4000,"station_id":"ce4bhap2rcd13ifvqek0","pricing_plan_id":"cebpf4jnsgd1na2vs0mg"},{"bike_id":"8f5bd139-364b-48a7-aba5-69c4267c3605","system_id":"levelo_inurba_marseille","lat":43.294153,"lon":5.386305,"is_reserved":false,"is_disabled":false,"rental_uris":{"android":"levelo://app?vid=8f5bd139-364b-48a7-aba5-69c4267c3605","ios":"levelo://app?vid=8f5bd139-364b-48a7-aba5-69c4267c3605"},"vehicle_type_id":"4","last_reported":1719421622,"current_range_meters":12000,"station_id":"ce4bh2h2rcd13ifvqdh0","pricing_plan_id":"cebpf4jnsgd1na2vs0mg"},{"bike_id":"dd520cfb-d621-4cc4-97ae-3fbcb05f803d","system_id":"levelo_inurba_marseille","lat":43.29416,"lon":5.38633,"is_reserved":false,"is_disabled":false,"rental_uris":{"android":"levelo://app?vid=dd520cfb-d621-4cc4-97ae-3fbcb05f803d","ios":"levelo://app?vid=dd520cfb-d621-4cc4-97ae-3fbcb05f803d"},"vehicle_type_id":"4","last_reported":1719421622,"current_range_meters":31200,"station_id":"ce4bh2h2rcd13ifvqdh0","pricing_plan_id":"cebpf4jnsgd1na2vs0mg"},{"bike_id":"b4e9c7ce-9790-4a58-a9f6-7151689a4fba","system_id":"levelo_inurba_marseille","lat":43.29417,"lon":5.38637,"is_reserved":false,"is_disabled":false,"rental_uris":{"android":"levelo://app?vid=b4e9c7ce-9790-4a58-a9f6-7151689a4fba","ios":"levelo://app?vid=b4e9c7ce-9790-4a58-a9f6-7151689a4fba"},"vehicle_type_id":"4","last_reported":1719421622,"current_range_meters":2800,"station_id":"ce4bh2h2rcd13ifvqdh0","pricing_plan_id":"cebpf4jnsgd1na2vs0mg"},{"bike_id":"5dfd30d3-9840-458e-9848-ed5cb5d76f2a","system_id":"levelo_inurba_marseille","lat":43.294153,"lon":5.386305,"is_reserved":false,"is_disabled":false,"rental_uris":{"android":"levelo://app?vid=5dfd30d3-9840-458e-9848-ed5cb5d76f2a","ios":"levelo://app?vid=5dfd30d3-9840-458e-9848-ed5cb5d76f2a"},"vehicle_type_id":"4","last_reported":1719421622,"current_range_meters":21600,"station_id":"ce4bh2h2rcd13ifvqdh0","pricing_plan_id":"cebpf4jnsgd1na2vs0mg"},{"bike_id":"9655d939-8f69-4d04-bdbe-65acc43e5464","system_id":"levelo_inurba_marseille","lat":43.292642,"lon":5.384254,"is_reserved":false,"is_disabled":false,"rental_uris":{"android":"levelo://app?vid=9655d939-8f69-4d04-bdbe-65acc43e5464","ios":"levelo://app?vid=9655d939-8f69-4d04-bdbe-65acc43e5464"},"vehicle_type_id":"4","last_reported":1719421622,"current_range_meters":7200,"station_id":"ce4bh692rcd13ifvqea0","pricing_plan_id":"cebpf4jnsgd1na2vs0mg"},{"bike_id":"21c41328-356d-4db6-8601-b360188f5115","system_id":"levelo_inurba_marseille","lat":43.304274,"lon":5.397513,"is_reserved":false,"is_disabled":false,"rental_uris":{"android":"levelo://app?vid=21c41328-356d-4db6-8601-b360188f5115","ios":"levelo://app?vid=21c41328-356d-4db6-8601-b360188f5115"},"vehicle_type_id":"4","last_reported":1719421622,"current_range_meters":4000,"station_id":"ce4bh092rcd13ifvqd20","pricing_plan_id":"cebpf4jnsgd1na2vs0mg"},{"bike_id":"f2162b92-35b8-437f-80e6-4d6a4f54b96f","system_id":"levelo_inurba_marseille","lat":43.292644,"lon":5.384257,"is_reserved":false,"is_disabled":false,"rental_uris":{"android":"levelo://app?vid=f2162b92-35b8-437f-80e6-4d6a4f54b96f","ios":"levelo://app?vid=f2162b92-35b8-437f-80e6-4d6a4f54b96f"},"vehicle_type_id":"4","last_reported":1719421622,"current_range_meters":13600,"station_id":"ce4bh692rcd13ifvqea0","pricing_plan_id":"cebpf4jnsgd1na2vs0mg"},{"bike_id":"fd845f45-2532-4efa-8fd1-87524a43e16d","system_id":"levelo_inurba_marseille","lat":43.292642,"lon":5.384254,"is_reserved":false,"is_disabled":false,"rental_uris":{"android":"levelo://app?vid=fd845f45-2532-4efa-8fd1-87524a43e16d","ios":"levelo://app?vid=fd845f45-2532-4efa-8fd1-87524a43e16d"},"vehicle_type_id":"4","last_reported":1719421622,"current_range_meters":4400,"station_id":"ce4bh692rcd13ifvqea0","pricing_plan_id":"cebpf4jnsgd1na2vs0mg"},{"bike_id":"c8d471a5-191b-4e6e-96fd-8dd723d17d61","system_id":"levelo_inurba_marseille","lat":43.292553,"lon":5.384523,"is_reserved":false,"is_disabled":false,"rental_uris":{"android":"levelo://app?vid=c8d471a5-191b-4e6e-96fd-8dd723d17d61","ios":"levelo://app?vid=c8d471a5-191b-4e6e-96fd-8dd723d17d61"},"vehicle_type_id":"4","last_reported":1719421622,"current_range_meters":0,"station_id":"ce4bh692rcd13ifvqea0","pricing_plan_id":"cebpf4jnsgd1na2vs0mg"},{"bike_id":"a8213b1f-b98c-4ac2-a731-50017a11e199","system_id":"levelo_inurba_marseille","lat":43.29249,"lon":5.384507,"is_reserved":false,"is_disabled":false,"rental_uris":{"android":"levelo://app?vid=a8213b1f-b98c-4ac2-a731-50017a11e199","ios":"levelo://app?vid=a8213b1f-b98c-4ac2-a731-50017a11e199"},"vehicle_type_id":"4","last_reported":1719421622,"current_range_meters":14000,"station_id":"ce4bh692rcd13ifvqea0","pricing_plan_id":"cebpf4jnsgd1na2vs0mg"},{"bike_id":"b4c3004b-320a-466f-b451-07fa61cb0a0a","system_id":"levelo_inurba_marseille","lat":43.290104,"lon":5.356111,"is_reserved":false,"is_disabled":false,"rental_uris":{"android":"levelo://app?vid=b4c3004b-320a-466f-b451-07fa61cb0a0a","ios":"levelo://app?vid=b4c3004b-320a-466f-b451-07fa61cb0a0a"},"vehicle_type_id":"4","last_reported":1719421622,"current_range_meters":23200,"station_id":"ce4bhb92rcd13ifvqen0","pricing_plan_id":"cebpf4jnsgd1na2vs0mg"},{"bike_id":"f602bcee-8d31-4d26-beee-708c893f7887","system_id":"levelo_inurba_marseille","lat":43.290995,"lon":5.381361,"is_reserved":false,"is_disabled":false,"rental_uris":{"android":"levelo://app?vid=f602bcee-8d31-4d26-beee-708c893f7887","ios":"levelo://app?vid=f602bcee-8d31-4d26-beee-708c893f7887"},"vehicle_type_id":"4","last_reported":1719421622,"current_range_meters":0,"station_id":"ce4bh512rcd13ifvqe2g","pricing_plan_id":"cebpf4jnsgd1na2vs0mg"},{"bike_id":"4832f3fc-abb1-4489-ac5b-037a508c94c9","system_id":"levelo_inurba_marseille","lat":43.290995,"lon":5.381361,"is_reserved":false,"is_disabled":false,"rental_uris":{"android":"levelo://app?vid=4832f3fc-abb1-4489-ac5b-037a508c94c9","ios":"levelo://app?vid=4832f3fc-abb1-4489-ac5b-037a508c94c9"},"vehicle_type_id":"4","last_reported":1719421622,"current_range_meters":0,"station_id":"ce4bh512rcd13ifvqe2g","pricing_plan_id":"cebpf4jnsgd1na2vs0mg"},{"bike_id":"8c2a2653-0511-4deb-a544-c2fe55f39ec7","system_id":"levelo_inurba_marseille","lat":43.29778,"lon":5.39328,"is_reserved":false,"is_disabled":false,"rental_uris":{"android":"levelo://app?vid=8c2a2653-0511-4deb-a544-c2fe55f39ec7","ios":"levelo://app?vid=8c2a2653-0511-4deb-a544-c2fe55f39ec7"},"vehicle_type_id":"4","last_reported":1719421622,"current_range_meters":30400,"station_id":"chh1huq6cuj3fo74tm60","pricing_plan_id":"cebpf4jnsgd1na2vs0mg"},{"bike_id":"15c9ad49-d953-45b5-8f19-6f192ef171d2","system_id":"levelo_inurba_marseille","lat":43.297814,"lon":5.393513,"is_reserved":false,"is_disabled":false,"rental_uris":{"android":"levelo://app?vid=15c9ad49-d953-45b5-8f19-6f192ef171d2","ios":"levelo://app?vid=15c9ad49-d953-45b5-8f19-6f192ef171d2"},"vehicle_type_id":"4","last_reported":1719421622,"current_range_meters":0,"station_id":"chh1huq6cuj3fo74tm60","pricing_plan_id":"cebpf4jnsgd1na2vs0mg"},{"bike_id":"41af1152-1077-4b4e-baaa-97cacc3135b1","system_id":"levelo_inurba_marseille","lat":43.291404,"lon":5.383096,"is_reserved":false,"is_disabled":false,"rental_uris":{"android":"levelo://app?vid=41af1152-1077-4b4e-baaa-97cacc3135b1","ios":"levelo://app?vid=41af1152-1077-4b4e-baaa-97cacc3135b1"},"vehicle_type_id":"4","last_reported":1719421622,"current_range_meters":0,"station_id":"","pricing_plan_id":"cebpf4jnsgd1na2vs0mg"},{"bike_id":"eb24b57a-2764-46dc-a5c4-12b230e7815c","system_id":"levelo_inurba_marseille","lat":43.29789,"lon":5.39355,"is_reserved":false,"is_disabled":false,"rental_uris":{"android":"levelo://app?vid=eb24b57a-2764-46dc-a5c4-12b230e7815c","ios":"levelo://app?vid=eb24b57a-2764-46dc-a5c4-12b230e7815c"},"vehicle_type_id":"4","last_reported":1719421622,"current_range_meters":0,"station_id":"chh1huq6cuj3fo74tm60","pricing_plan_id":"cebpf4jnsgd1na2vs0mg"},{"bike_id":"27b70492-1d9a-4b2d-8429-50aab4365a16","system_id":"levelo_inurba_marseille","lat":43.295169,"lon":5.390426,"is_reserved":false,"is_disabled":false,"rental_uris":{"android":"levelo://app?vid=27b70492-1d9a-4b2d-8429-50aab4365a16","ios":"levelo://app?vid=27b70492-1d9a-4b2d-8429-50aab4365a16"},"vehicle_type_id":"4","last_reported":1719421622,"current_range_meters":0,"station_id":"ce4bh3p2rcd13ifvqdp0","pricing_plan_id":"cebpf4jnsgd1na2vs0mg"},{"bike_id":"d86b1240-8073-452b-bbdb-54bc8106224a","system_id":"levelo_inurba_marseille","lat":43.330442,"lon":5.389148,"is_reserved":false,"is_disabled":false,"rental_uris":{"android":"levelo://app?vid=d86b1240-8073-452b-bbdb-54bc8106224a","ios":"levelo://app?vid=d86b1240-8073-452b-bbdb-54bc8106224a"},"vehicle_type_id":"4","last_reported":1719421622,"current_range_meters":12000,"station_id":"ce4bhr92rcd13ifvqhrg","pricing_plan_id":"cebpf4jnsgd1na2vs0mg"},{"bike_id":"fdef97b7-05b3-4423-9edc-a3400b802689","system_id":"levelo_inurba_marseille","lat":43.330442,"lon":5.389148,"is_reserved":false,"is_disabled":false,"rental_uris":{"android":"levelo://app?vid=fdef97b7-05b3-4423-9edc-a3400b802689","ios":"levelo://app?vid=fdef97b7-05b3-4423-9edc-a3400b802689"},"vehicle_type_id":"4","last_reported":1719421622,"current_range_meters":15200,"station_id":"ce4bhr92rcd13ifvqhrg","pricing_plan_id":"cebpf4jnsgd1na2vs0mg"},{"bike_id":"631f5c4c-2d7a-4cf9-b1a0-bb877e59148e","system_id":"levelo_inurba_marseille","lat":43.330442,"lon":5.389148,"is_reserved":false,"is_disabled":false,"rental_uris":{"android":"levelo://app?vid=631f5c4c-2d7a-4cf9-b1a0-bb877e59148e","ios":"levelo://app?vid=631f5c4c-2d7a-4cf9-b1a0-bb877e59148e"},"vehicle_type_id":"4","last_reported":1719421622,"current_range_meters":1600,"station_id":"ce4bhr92rcd13ifvqhrg","pricing_plan_id":"cebpf4jnsgd1na2vs0mg"},{"bike_id":"6cb841b1-e3d8-48e6-a5b9-c65a2f18b91e","system_id":"levelo_inurba_marseille","lat":43.31059,"lon":5.40098,"is_reserved":false,"is_disabled":false,"rental_uris":{"android":"levelo://app?vid=6cb841b1-e3d8-48e6-a5b9-c65a2f18b91e","ios":"levelo://app?vid=6cb841b1-e3d8-48e6-a5b9-c65a2f18b91e"},"vehicle_type_id":"4","last_reported":1719421622,"current_range_meters":9600,"station_id":"","pricing_plan_id":"cebpf4jnsgd1na2vs0mg"},{"bike_id":"c3ddbe4a-157d-4893-acf1-f1f626a65d21","system_id":"levelo_inurba_marseille","lat":43.33715,"lon":5.37426,"is_reserved":false,"is_disabled":false,"rental_uris":{"android":"levelo://app?vid=c3ddbe4a-157d-4893-acf1-f1f626a65d21","ios":"levelo://app?vid=c3ddbe4a-157d-4893-acf1-f1f626a65d21"},"vehicle_type_id":"0","last_reported":1719421622,"current_range_meters":19200,"station_id":"","pricing_plan_id":"cebpf4jnsgd1na2vs0mg"},{"bike_id":"bebdbea3-4766-4241-9897-2089b0780aae","system_id":"levelo_inurba_marseille","lat":43.29145,"lon":5.385235,"is_reserved":false,"is_disabled":false,"rental_uris":{"android":"levelo://app?vid=bebdbea3-4766-4241-9897-2089b0780aae","ios":"levelo://app?vid=bebdbea3-4766-4241-9897-2089b0780aae"},"vehicle_type_id":"4","last_reported":1719421622,"current_range_meters":21600,"station_id":"","pricing_plan_id":"cebpf4jnsgd1na2vs0mg"},{"bike_id":"e8e5ccc7-5461-4bb4-b07e-ca9a8b2f5f11","system_id":"levelo_inurba_marseille","lat":43.312609,"lon":5.401662,"is_reserved":false,"is_disabled":false,"rental_uris":{"android":"levelo://app?vid=e8e5ccc7-5461-4bb4-b07e-ca9a8b2f5f11","ios":"levelo://app?vid=e8e5ccc7-5461-4bb4-b07e-ca9a8b2f5f11"},"vehicle_type_id":"4","last_reported":1719421622,"current_range_meters":24000,"station_id":"ce4bh092rcd13ifvqd30","pricing_plan_id":"cebpf4jnsgd1na2vs0mg"},{"bike_id":"11da98ef-d0c3-43c2-a7e4-890f2c23ccbc","system_id":"levelo_inurba_marseille","lat":43.33738,"lon":5.37467,"is_reserved":false,"is_disabled":false,"rental_uris":{"android":"levelo://app?vid=11da98ef-d0c3-43c2-a7e4-890f2c23ccbc","ios":"levelo://app?vid=11da98ef-d0c3-43c2-a7e4-890f2c23ccbc"},"vehicle_type_id":"4","last_reported":1719421622,"current_range_meters":12400,"station_id":"","pricing_plan_id":"cebpf4jnsgd1na2vs0mg"},{"bike_id":"9b81675f-44cd-4cbe-9733-2d36a516d8f7","system_id":"levelo_inurba_marseille","lat":43.337393,"lon":5.374602,"is_reserved":false,"is_disabled":false,"rental_uris":{"android":"levelo://app?vid=9b81675f-44cd-4cbe-9733-2d36a516d8f7","ios":"levelo://app?vid=9b81675f-44cd-4cbe-9733-2d36a516d8f7"},"vehicle_type_id":"0","last_reported":1719421622,"current_range_meters":20400,"station_id":"","pricing_plan_id":"cebpf4jnsgd1na2vs0mg"},{"bike_id":"c25a3696-e1cc-43ba-8656-23d4a118ee2e","system_id":"levelo_inurba_marseille","lat":43.337388,"lon":5.374716,"is_reserved":false,"is_disabled":false,"rental_uris":{"android":"levelo://app?vid=c25a3696-e1cc-43ba-8656-23d4a118ee2e","ios":"levelo://app?vid=c25a3696-e1cc-43ba-8656-23d4a118ee2e"},"vehicle_type_id":"4","last_reported":1719421622,"current_range_meters":18400,"station_id":"","pricing_plan_id":"cebpf4jnsgd1na2vs0mg"},{"bike_id":"bb65fb70-df82-47d8-b27f-438620895501","system_id":"levelo_inurba_marseille","lat":43.337394,"lon":5.374706,"is_reserved":false,"is_disabled":false,"rental_uris":{"android":"levelo://app?vid=bb65fb70-df82-47d8-b27f-438620895501","ios":"levelo://app?vid=bb65fb70-df82-47d8-b27f-438620895501"},"vehicle_type_id":"4","last_reported":1719421622,"current_range_meters":12400,"station_id":"","pricing_plan_id":"cebpf4jnsgd1na2vs0mg"},{"bike_id":"2a0fb516-a307-4861-b129-104556c40f00","system_id":"levelo_inurba_marseille","lat":43.337403,"lon":5.37468,"is_reserved":false,"is_disabled":false,"rental_uris":{"android":"levelo://app?vid=2a0fb516-a307-4861-b129-104556c40f00","ios":"levelo://app?vid=2a0fb516-a307-4861-b129-104556c40f00"},"vehicle_type_id":"0","last_reported":1719421622,"current_range_meters":10400,"station_id":"","pricing_plan_id":"cebpf4jnsgd1na2vs0mg"},{"bike_id":"bd9a6c26-2db3-4e30-92c7-c85ae97147aa","system_id":"levelo_inurba_marseille","lat":43.3374,"lon":5.37472,"is_reserved":false,"is_disabled":false,"rental_uris":{"android":"levelo://app?vid=bd9a6c26-2db3-4e30-92c7-c85ae97147aa","ios":"levelo://app?vid=bd9a6c26-2db3-4e30-92c7-c85ae97147aa"},"vehicle_type_id":"0","last_reported":1719421622,"current_range_meters":21600,"station_id":"","pricing_plan_id":"cebpf4jnsgd1na2vs0mg"},{"bike_id":"0b53ac72-8cdb-4f3a-a6a0-e8576f4a9535","system_id":"levelo_inurba_marseille","lat":43.337444,"lon":5.374475,"is_reserved":false,"is_disabled":false,"rental_uris":{"android":"levelo://app?vid=0b53ac72-8cdb-4f3a-a6a0-e8576f4a9535","ios":"levelo://app?vid=0b53ac72-8cdb-4f3a-a6a0-e8576f4a9535"},"vehicle_type_id":"4","last_reported":1719421622,"current_range_meters":26400,"station_id":"","pricing_plan_id":"cebpf4jnsgd1na2vs0mg"},{"bike_id":"70df0eff-7892-4d64-8b33-f9b25d3cdb77","system_id":"levelo_inurba_marseille","lat":43.337417,"lon":5.374694,"is_reserved":false,"is_disabled":false,"rental_uris":{"android":"levelo://app?vid=70df0eff-7892-4d64-8b33-f9b25d3cdb77","ios":"levelo://app?vid=70df0eff-7892-4d64-8b33-f9b25d3cdb77"},"vehicle_type_id":"4","last_reported":1719421622,"current_range_meters":18400,"station_id":"","pricing_plan_id":"cebpf4jnsgd1na2vs0mg"},{"bike_id":"cbff8e2e-87ad-4d9e-a09d-9b1fba1c0aeb","system_id":"levelo_inurba_marseille","lat":43.337424,"lon":5.374709,"is_reserved":false,"is_disabled":false,"rental_uris":{"android":"levelo://app?vid=cbff8e2e-87ad-4d9e-a09d-9b1fba1c0aeb","ios":"levelo://app?vid=cbff8e2e-87ad-4d9e-a09d-9b1fba1c0aeb"},"vehicle_type_id":"0","last_reported":1719421622,"current_range_meters":18400,"station_id":"","pricing_plan_id":"cebpf4jnsgd1na2vs0mg"},{"bike_id":"bf709b1a-1e81-4c69-a36a-dfef45d67fee","system_id":"levelo_inurba_marseille","lat":43.337435,"lon":5.374675,"is_reserved":false,"is_disabled":false,"rental_uris":{"android":"levelo://app?vid=bf709b1a-1e81-4c69-a36a-dfef45d67fee","ios":"levelo://app?vid=bf709b1a-1e81-4c69-a36a-dfef45d67fee"},"vehicle_type_id":"4","last_reported":1719421622,"current_range_meters":18400,"station_id":"","pricing_plan_id":"cebpf4jnsgd1na2vs0mg"},{"bike_id":"aa527c2c-31a5-479b-bfbe-daae0d9bb514","system_id":"levelo_inurba_marseille","lat":43.337443,"lon":5.374635,"is_reserved":false,"is_disabled":false,"rental_uris":{"android":"levelo://app?vid=aa527c2c-31a5-479b-bfbe-daae0d9bb514","ios":"levelo://app?vid=aa527c2c-31a5-479b-bfbe-daae0d9bb514"},"vehicle_type_id":"0","last_reported":1719421622,"current_range_meters":8000,"station_id":"","pricing_plan_id":"cebpf4jnsgd1na2vs0mg"},{"bike_id":"8043cc8a-f702-4e45-9523-d56dfd7ee432","system_id":"levelo_inurba_marseille","lat":43.337442,"lon":5.3747,"is_reserved":false,"is_disabled":false,"rental_uris":{"android":"levelo://app?vid=8043cc8a-f702-4e45-9523-d56dfd7ee432","ios":"levelo://app?vid=8043cc8a-f702-4e45-9523-d56dfd7ee432"},"vehicle_type_id":"0","last_reported":1719421622,"current_range_meters":17600,"station_id":"","pricing_plan_id":"cebpf4jnsgd1na2vs0mg"},{"bike_id":"985eda3a-8205-4c72-8b0d-a44593dd15b5","system_id":"levelo_inurba_marseille","lat":43.337447,"lon":5.37469,"is_reserved":false,"is_disabled":false,"rental_uris":{"android":"levelo://app?vid=985eda3a-8205-4c72-8b0d-a44593dd15b5","ios":"levelo://app?vid=985eda3a-8205-4c72-8b0d-a44593dd15b5"},"vehicle_type_id":"0","last_reported":1719421622,"current_range_meters":11600,"station_id":"","pricing_plan_id":"cebpf4jnsgd1na2vs0mg"},{"bike_id":"4829114f-260f-49cc-a100-49643dfc9628","system_id":"levelo_inurba_marseille","lat":43.309371,"lon":5.401449,"is_reserved":false,"is_disabled":false,"rental_uris":{"android":"levelo://app?vid=4829114f-260f-49cc-a100-49643dfc9628","ios":"levelo://app?vid=4829114f-260f-49cc-a100-49643dfc9628"},"vehicle_type_id":"4","last_reported":1719421622,"current_range_meters":0,"station_id":"ce4bgvp2rcd13ifvqct0","pricing_plan_id":"cebpf4jnsgd1na2vs0mg"},{"bike_id":"5558f318-ebfd-4275-a55b-6b0f1f6b01a9","system_id":"levelo_inurba_marseille","lat":43.306507,"lon":5.400897,"is_reserved":false,"is_disabled":false,"rental_uris":{"android":"levelo://app?vid=5558f318-ebfd-4275-a55b-6b0f1f6b01a9","ios":"levelo://app?vid=5558f318-ebfd-4275-a55b-6b0f1f6b01a9"},"vehicle_type_id":"4","last_reported":1719421622,"current_range_meters":0,"station_id":"ce4bh112rcd13ifvqda0","pricing_plan_id":"cebpf4jnsgd1na2vs0mg"},{"bike_id":"9c212851-943a-4b41-a824-e19458f60cad","system_id":"levelo_inurba_marseille","lat":43.33765,"lon":5.37443,"is_reserved":false,"is_disabled":false,"rental_uris":{"android":"levelo://app?vid=9c212851-943a-4b41-a824-e19458f60cad","ios":"levelo://app?vid=9c212851-943a-4b41-a824-e19458f60cad"},"vehicle_type_id":"4","last_reported":1719421622,"current_range_meters":20000,"station_id":"","pricing_plan_id":"cebpf4jnsgd1na2vs0mg"},{"bike_id":"430c5099-8abe-4e0b-ba48-bb4fdb678b91","system_id":"levelo_inurba_marseille","lat":43.301117,"lon":5.398795,"is_reserved":false,"is_disabled":false,"rental_uris":{"android":"levelo://app?vid=430c5099-8abe-4e0b-ba48-bb4fdb678b91","ios":"levelo://app?vid=430c5099-8abe-4e0b-ba48-bb4fdb678b91"},"vehicle_type_id":"4","last_reported":1719421622,"current_range_meters":29600,"station_id":"ce4bh0h2rcd13ifvqd40","pricing_plan_id":"cebpf4jnsgd1na2vs0mg"},{"bike_id":"b59e08c5-c012-4884-b8a2-e3ccaf5d446d","system_id":"levelo_inurba_marseille","lat":43.28727,"lon":5.36078,"is_reserved":false,"is_disabled":false,"rental_uris":{"android":"levelo://app?vid=b59e08c5-c012-4884-b8a2-e3ccaf5d446d","ios":"levelo://app?vid=b59e08c5-c012-4884-b8a2-e3ccaf5d446d"},"vehicle_type_id":"4","last_reported":1719421622,"current_range_meters":28400,"station_id":"cki0cbj6b192h4jlfktg","pricing_plan_id":"cebpf4jnsgd1na2vs0mg"},{"bike_id":"7e7bffe3-c978-408b-8931-55da6acdd673","system_id":"levelo_inurba_marseille","lat":43.298681,"lon":5.397225,"is_reserved":false,"is_disabled":false,"rental_uris":{"android":"levelo://app?vid=7e7bffe3-c978-408b-8931-55da6acdd673","ios":"levelo://app?vid=7e7bffe3-c978-408b-8931-55da6acdd673"},"vehicle_type_id":"4","last_reported":1719421622,"current_range_meters":16400,"station_id":"ce4bh0h2rcd13ifvqd50","pricing_plan_id":"cebpf4jnsgd1na2vs0mg"},{"bike_id":"75b744ea-eb4e-4543-b3cb-02464a676f3a","system_id":"levelo_inurba_marseille","lat":43.298827,"lon":5.39736,"is_reserved":false,"is_disabled":false,"rental_uris":{"android":"levelo://app?vid=75b744ea-eb4e-4543-b3cb-02464a676f3a","ios":"levelo://app?vid=75b744ea-eb4e-4543-b3cb-02464a676f3a"},"vehicle_type_id":"4","last_reported":1719421622,"current_range_meters":0,"station_id":"ce4bh0h2rcd13ifvqd50","pricing_plan_id":"cebpf4jnsgd1na2vs0mg"},{"bike_id":"ac9e278f-0f45-465a-a790-60f55f604bbc","system_id":"levelo_inurba_marseille","lat":43.298681,"lon":5.397225,"is_reserved":false,"is_disabled":false,"rental_uris":{"android":"levelo://app?vid=ac9e278f-0f45-465a-a790-60f55f604bbc","ios":"levelo://app?vid=ac9e278f-0f45-465a-a790-60f55f604bbc"},"vehicle_type_id":"4","last_reported":1719421622,"current_range_meters":21200,"station_id":"ce4bh0h2rcd13ifvqd50","pricing_plan_id":"cebpf4jnsgd1na2vs0mg"},{"bike_id":"01b82509-a9d2-44cd-bbe7-ed5653421631","system_id":"levelo_inurba_marseille","lat":43.286961,"lon":5.373785,"is_reserved":false,"is_disabled":false,"rental_uris":{"android":"levelo://app?vid=01b82509-a9d2-44cd-bbe7-ed5653421631","ios":"levelo://app?vid=01b82509-a9d2-44cd-bbe7-ed5653421631"},"vehicle_type_id":"4","last_reported":1719421622,"current_range_meters":0,"station_id":"ce4bh3p2rcd13ifvqdq0","pricing_plan_id":"cebpf4jnsgd1na2vs0mg"},{"bike_id":"0aaaf582-9bf8-410d-9874-8038bdcef2b9","system_id":"levelo_inurba_marseille","lat":43.295196,"lon":5.39397,"is_reserved":false,"is_disabled":false,"rental_uris":{"android":"levelo://app?vid=0aaaf582-9bf8-410d-9874-8038bdcef2b9","ios":"levelo://app?vid=0aaaf582-9bf8-410d-9874-8038bdcef2b9"},"vehicle_type_id":"4","last_reported":1719421622,"current_range_meters":18400,"station_id":"ce4bh292rcd13ifvqdf0","pricing_plan_id":"cebpf4jnsgd1na2vs0mg"},{"bike_id":"72059e7d-d2a6-4783-ad9b-7e73e5bda8c3","system_id":"levelo_inurba_marseille","lat":43.28656,"lon":5.36348,"is_reserved":false,"is_disabled":false,"rental_uris":{"android":"levelo://app?vid=72059e7d-d2a6-4783-ad9b-7e73e5bda8c3","ios":"levelo://app?vid=72059e7d-d2a6-4783-ad9b-7e73e5bda8c3"},"vehicle_type_id":"4","last_reported":1719421622,"current_range_meters":16000,"station_id":"","pricing_plan_id":"cebpf4jnsgd1na2vs0mg"},{"bike_id":"8d59a2ae-1ab5-4a77-9f3a-137b9f8596a8","system_id":"levelo_inurba_marseille","lat":43.286039,"lon":5.370681,"is_reserved":false,"is_disabled":false,"rental_uris":{"android":"levelo://app?vid=8d59a2ae-1ab5-4a77-9f3a-137b9f8596a8","ios":"levelo://app?vid=8d59a2ae-1ab5-4a77-9f3a-137b9f8596a8"},"vehicle_type_id":"4","last_reported":1719421622,"current_range_meters":24000,"station_id":"ce4bht12rcd13ifvqi60","pricing_plan_id":"cebpf4jnsgd1na2vs0mg"},{"bike_id":"a30128ab-ef1d-4c9d-a593-26af5a99184b","system_id":"levelo_inurba_marseille","lat":43.29514,"lon":5.39402,"is_reserved":false,"is_disabled":false,"rental_uris":{"android":"levelo://app?vid=a30128ab-ef1d-4c9d-a593-26af5a99184b","ios":"levelo://app?vid=a30128ab-ef1d-4c9d-a593-26af5a99184b"},"vehicle_type_id":"4","last_reported":1719421622,"current_range_meters":0,"station_id":"ce4bh292rcd13ifvqdf0","pricing_plan_id":"cebpf4jnsgd1na2vs0mg"},{"bike_id":"aea3234a-96a3-4513-84d9-748b48c86e8e","system_id":"levelo_inurba_marseille","lat":43.29036,"lon":5.38633,"is_reserved":false,"is_disabled":false,"rental_uris":{"android":"levelo://app?vid=aea3234a-96a3-4513-84d9-748b48c86e8e","ios":"levelo://app?vid=aea3234a-96a3-4513-84d9-748b48c86e8e"},"vehicle_type_id":"4","last_reported":1719421622,"current_range_meters":10400,"station_id":"ce4bh4p2rcd13ifvqe0g","pricing_plan_id":"cebpf4jnsgd1na2vs0mg"},{"bike_id":"21d5621b-b3e8-45e7-9641-abf4501081dc","system_id":"levelo_inurba_marseille","lat":43.29029,"lon":5.38635,"is_reserved":false,"is_disabled":false,"rental_uris":{"android":"levelo://app?vid=21d5621b-b3e8-45e7-9641-abf4501081dc","ios":"levelo://app?vid=21d5621b-b3e8-45e7-9641-abf4501081dc"},"vehicle_type_id":"4","last_reported":1719421622,"current_range_meters":6800,"station_id":"ce4bh4p2rcd13ifvqe0g","pricing_plan_id":"cebpf4jnsgd1na2vs0mg"},{"bike_id":"e4fb41f9-de7a-4b9f-b946-21fbd124075d","system_id":"levelo_inurba_marseille","lat":43.302759,"lon":5.400793,"is_reserved":false,"is_disabled":false,"rental_uris":{"android":"levelo://app?vid=e4fb41f9-de7a-4b9f-b946-21fbd124075d","ios":"levelo://app?vid=e4fb41f9-de7a-4b9f-b946-21fbd124075d"},"vehicle_type_id":"4","last_reported":1719421622,"current_range_meters":5200,"station_id":"ce4bgvh2rcd13ifvqcs0","pricing_plan_id":"cebpf4jnsgd1na2vs0mg"},{"bike_id":"e0937b69-e7a4-4f78-b31b-8adde2d11895","system_id":"levelo_inurba_marseille","lat":43.289307,"lon":5.38406,"is_reserved":false,"is_disabled":false,"rental_uris":{"android":"levelo://app?vid=e0937b69-e7a4-4f78-b31b-8adde2d11895","ios":"levelo://app?vid=e0937b69-e7a4-4f78-b31b-8adde2d11895"},"vehicle_type_id":"4","last_reported":1719421622,"current_range_meters":0,"station_id":"ce4bh612rcd13ifvqe6g","pricing_plan_id":"cebpf4jnsgd1na2vs0mg"},{"bike_id":"3a6be876-6ee7-4660-afd0-60827fac4590","system_id":"levelo_inurba_marseille","lat":43.28928,"lon":5.38404,"is_reserved":false,"is_disabled":false,"rental_uris":{"android":"levelo://app?vid=3a6be876-6ee7-4660-afd0-60827fac4590","ios":"levelo://app?vid=3a6be876-6ee7-4660-afd0-60827fac4590"},"vehicle_type_id":"4","last_reported":1719421622,"current_range_meters":2400,"station_id":"ce4bh612rcd13ifvqe6g","pricing_plan_id":"cebpf4jnsgd1na2vs0mg"},{"bike_id":"04d36950-e344-4b09-bebd-2c11da77c574","system_id":"levelo_inurba_marseille","lat":43.30269,"lon":5.40082,"is_reserved":false,"is_disabled":false,"rental_uris":{"android":"levelo://app?vid=04d36950-e344-4b09-bebd-2c11da77c574","ios":"levelo://app?vid=04d36950-e344-4b09-bebd-2c11da77c574"},"vehicle_type_id":"4","last_reported":1719421622,"current_range_meters":22000,"station_id":"ce4bgvh2rcd13ifvqcs0","pricing_plan_id":"cebpf4jnsgd1na2vs0mg"},{"bike_id":"3754bfdf-2186-47da-b30d-8e1988f87b5d","system_id":"levelo_inurba_marseille","lat":43.302759,"lon":5.400793,"is_reserved":false,"is_disabled":false,"rental_uris":{"android":"levelo://app?vid=3754bfdf-2186-47da-b30d-8e1988f87b5d","ios":"levelo://app?vid=3754bfdf-2186-47da-b30d-8e1988f87b5d"},"vehicle_type_id":"4","last_reported":1719421622,"current_range_meters":0,"station_id":"ce4bgvh2rcd13ifvqcs0","pricing_plan_id":"cebpf4jnsgd1na2vs0mg"},{"bike_id":"4bf06707-325f-4469-93dc-dd645ee8db9f","system_id":"levelo_inurba_marseille","lat":43.302759,"lon":5.400793,"is_reserved":false,"is_disabled":false,"rental_uris":{"android":"levelo://app?vid=4bf06707-325f-4469-93dc-dd645ee8db9f","ios":"levelo://app?vid=4bf06707-325f-4469-93dc-dd645ee8db9f"},"vehicle_type_id":"4","last_reported":1719421622,"current_range_meters":8000,"station_id":"ce4bgvh2rcd13ifvqcs0","pricing_plan_id":"cebpf4jnsgd1na2vs0mg"},{"bike_id":"e7db5b88-8208-44cc-9856-2e2275d591ff","system_id":"levelo_inurba_marseille","lat":43.302759,"lon":5.400793,"is_reserved":false,"is_disabled":false,"rental_uris":{"android":"levelo://app?vid=e7db5b88-8208-44cc-9856-2e2275d591ff","ios":"levelo://app?vid=e7db5b88-8208-44cc-9856-2e2275d591ff"},"vehicle_type_id":"4","last_reported":1719421622,"current_range_meters":0,"station_id":"ce4bgvh2rcd13ifvqcs0","pricing_plan_id":"cebpf4jnsgd1na2vs0mg"},{"bike_id":"bb3582d9-cbef-4d5e-9d6e-d386ca1900de","system_id":"levelo_inurba_marseille","lat":43.286039,"lon":5.370679,"is_reserved":false,"is_disabled":false,"rental_uris":{"android":"levelo://app?vid=bb3582d9-cbef-4d5e-9d6e-d386ca1900de","ios":"levelo://app?vid=bb3582d9-cbef-4d5e-9d6e-d386ca1900de"},"vehicle_type_id":"4","last_reported":1719421622,"current_range_meters":9200,"station_id":"ce4bht12rcd13ifvqi60","pricing_plan_id":"cebpf4jnsgd1na2vs0mg"},{"bike_id":"b556bb59-bec4-4b35-bbdd-5cb202b674ca","system_id":"levelo_inurba_marseille","lat":43.286039,"lon":5.370679,"is_reserved":false,"is_disabled":false,"rental_uris":{"android":"levelo://app?vid=b556bb59-bec4-4b35-bbdd-5cb202b674ca","ios":"levelo://app?vid=b556bb59-bec4-4b35-bbdd-5cb202b674ca"},"vehicle_type_id":"4","last_reported":1719421622,"current_range_meters":3200,"station_id":"ce4bht12rcd13ifvqi60","pricing_plan_id":"cebpf4jnsgd1na2vs0mg"},{"bike_id":"6964ad50-aabe-4fb7-abbc-82ba4b60521d","system_id":"levelo_inurba_marseille","lat":43.286039,"lon":5.370679,"is_reserved":false,"is_disabled":false,"rental_uris":{"android":"levelo://app?vid=6964ad50-aabe-4fb7-abbc-82ba4b60521d","ios":"levelo://app?vid=6964ad50-aabe-4fb7-abbc-82ba4b60521d"},"vehicle_type_id":"4","last_reported":1719421622,"current_range_meters":4400,"station_id":"ce4bht12rcd13ifvqi60","pricing_plan_id":"cebpf4jnsgd1na2vs0mg"},{"bike_id":"1305f8e4-61bf-4797-9b77-b2dea16a6526","system_id":"levelo_inurba_marseille","lat":43.287184,"lon":5.37937,"is_reserved":false,"is_disabled":false,"rental_uris":{"android":"levelo://app?vid=1305f8e4-61bf-4797-9b77-b2dea16a6526","ios":"levelo://app?vid=1305f8e4-61bf-4797-9b77-b2dea16a6526"},"vehicle_type_id":"4","last_reported":1719421622,"current_range_meters":0,"station_id":"ce4bh9p2rcd13ifvqec0","pricing_plan_id":"cebpf4jnsgd1na2vs0mg"},{"bike_id":"d66b0be3-63b9-48d8-a420-833918277183","system_id":"levelo_inurba_marseille","lat":43.28718,"lon":5.3793,"is_reserved":false,"is_disabled":false,"rental_uris":{"android":"levelo://app?vid=d66b0be3-63b9-48d8-a420-833918277183","ios":"levelo://app?vid=d66b0be3-63b9-48d8-a420-833918277183"},"vehicle_type_id":"4","last_reported":1719421622,"current_range_meters":0,"station_id":"ce4bh9p2rcd13ifvqec0","pricing_plan_id":"cebpf4jnsgd1na2vs0mg"},{"bike_id":"afb40d7b-5fe6-4008-ba1d-e8ead8754c22","system_id":"levelo_inurba_marseille","lat":43.291994,"lon":5.392907,"is_reserved":false,"is_disabled":false,"rental_uris":{"android":"levelo://app?vid=afb40d7b-5fe6-4008-ba1d-e8ead8754c22","ios":"levelo://app?vid=afb40d7b-5fe6-4008-ba1d-e8ead8754c22"},"vehicle_type_id":"4","last_reported":1719421622,"current_range_meters":0,"station_id":"ce4bh192rcd13ifvqdd0","pricing_plan_id":"cebpf4jnsgd1na2vs0mg"},{"bike_id":"aa78e2e2-3232-4b63-a510-0252c9e5ec8f","system_id":"levelo_inurba_marseille","lat":43.31689,"lon":5.40477,"is_reserved":false,"is_disabled":false,"rental_uris":{"android":"levelo://app?vid=aa78e2e2-3232-4b63-a510-0252c9e5ec8f","ios":"levelo://app?vid=aa78e2e2-3232-4b63-a510-0252c9e5ec8f"},"vehicle_type_id":"4","last_reported":1719421622,"current_range_meters":0,"station_id":"ce4bh012rcd13ifvqd00","pricing_plan_id":"cebpf4jnsgd1na2vs0mg"},{"bike_id":"d03e37b4-48ba-4a33-b116-e6114606e030","system_id":"levelo_inurba_marseille","lat":43.31698,"lon":5.40479,"is_reserved":false,"is_disabled":false,"rental_uris":{"android":"levelo://app?vid=d03e37b4-48ba-4a33-b116-e6114606e030","ios":"levelo://app?vid=d03e37b4-48ba-4a33-b116-e6114606e030"},"vehicle_type_id":"4","last_reported":1719421622,"current_range_meters":24800,"station_id":"ce4bh012rcd13ifvqd00","pricing_plan_id":"cebpf4jnsgd1na2vs0mg"},{"bike_id":"eca9cec1-b6fe-45a6-b1c3-f0b9d157ae45","system_id":"levelo_inurba_marseille","lat":43.316821,"lon":5.404737,"is_reserved":false,"is_disabled":false,"rental_uris":{"android":"levelo://app?vid=eca9cec1-b6fe-45a6-b1c3-f0b9d157ae45","ios":"levelo://app?vid=eca9cec1-b6fe-45a6-b1c3-f0b9d157ae45"},"vehicle_type_id":"4","last_reported":1719421622,"current_range_meters":20000,"station_id":"ce4bh012rcd13ifvqd00","pricing_plan_id":"cebpf4jnsgd1na2vs0mg"},{"bike_id":"ce2804a6-1b52-4175-8077-3b47f0c1ec50","system_id":"levelo_inurba_marseille","lat":43.291994,"lon":5.392907,"is_reserved":false,"is_disabled":false,"rental_uris":{"android":"levelo://app?vid=ce2804a6-1b52-4175-8077-3b47f0c1ec50","ios":"levelo://app?vid=ce2804a6-1b52-4175-8077-3b47f0c1ec50"},"vehicle_type_id":"4","last_reported":1719421622,"current_range_meters":21200,"station_id":"ce4bh192rcd13ifvqdd0","pricing_plan_id":"cebpf4jnsgd1na2vs0mg"},{"bike_id":"f54527ee-4bcd-4307-8242-fb5d3e0805fd","system_id":"levelo_inurba_marseille","lat":43.29199,"lon":5.39316,"is_reserved":false,"is_disabled":false,"rental_uris":{"android":"levelo://app?vid=f54527ee-4bcd-4307-8242-fb5d3e0805fd","ios":"levelo://app?vid=f54527ee-4bcd-4307-8242-fb5d3e0805fd"},"vehicle_type_id":"4","last_reported":1719421622,"current_range_meters":23600,"station_id":"ce4bh192rcd13ifvqdd0","pricing_plan_id":"cebpf4jnsgd1na2vs0mg"},{"bike_id":"9571f2ad-334d-4411-96e2-e58e5b708a92","system_id":"levelo_inurba_marseille","lat":43.291994,"lon":5.392907,"is_reserved":false,"is_disabled":false,"rental_uris":{"android":"levelo://app?vid=9571f2ad-334d-4411-96e2-e58e5b708a92","ios":"levelo://app?vid=9571f2ad-334d-4411-96e2-e58e5b708a92"},"vehicle_type_id":"4","last_reported":1719421622,"current_range_meters":5200,"station_id":"ce4bh192rcd13ifvqdd0","pricing_plan_id":"cebpf4jnsgd1na2vs0mg"},{"bike_id":"dd7e344e-1860-4467-8635-77133bf35488","system_id":"levelo_inurba_marseille","lat":43.284412,"lon":5.371647,"is_reserved":false,"is_disabled":false,"rental_uris":{"android":"levelo://app?vid=dd7e344e-1860-4467-8635-77133bf35488","ios":"levelo://app?vid=dd7e344e-1860-4467-8635-77133bf35488"},"vehicle_type_id":"4","last_reported":1719421622,"current_range_meters":22400,"station_id":"","pricing_plan_id":"cebpf4jnsgd1na2vs0mg"},{"bike_id":"7ad0eb4a-ccf6-40cd-9c4d-cc6f6d60c4fd","system_id":"levelo_inurba_marseille","lat":43.284538,"lon":5.358657,"is_reserved":false,"is_disabled":false,"rental_uris":{"android":"levelo://app?vid=7ad0eb4a-ccf6-40cd-9c4d-cc6f6d60c4fd","ios":"levelo://app?vid=7ad0eb4a-ccf6-40cd-9c4d-cc6f6d60c4fd"},"vehicle_type_id":"4","last_reported":1719421622,"current_range_meters":13200,"station_id":"ce4bhah2rcd13ifvqei0","pricing_plan_id":"cebpf4jnsgd1na2vs0mg"},{"bike_id":"30328bb1-922e-43b5-a649-d1be69ae03b3","system_id":"levelo_inurba_marseille","lat":43.285856,"lon":5.350771,"is_reserved":false,"is_disabled":false,"rental_uris":{"android":"levelo://app?vid=30328bb1-922e-43b5-a649-d1be69ae03b3","ios":"levelo://app?vid=30328bb1-922e-43b5-a649-d1be69ae03b3"},"vehicle_type_id":"4","last_reported":1719421622,"current_range_meters":6400,"station_id":"ce4bhch2rcd13ifvqeug","pricing_plan_id":"cebpf4jnsgd1na2vs0mg"},{"bike_id":"2d4059a2-9e64-4c50-b00e-59c907a02337","system_id":"levelo_inurba_marseille","lat":43.294314,"lon":5.397498,"is_reserved":false,"is_disabled":false,"rental_uris":{"android":"levelo://app?vid=2d4059a2-9e64-4c50-b00e-59c907a02337","ios":"levelo://app?vid=2d4059a2-9e64-4c50-b00e-59c907a02337"},"vehicle_type_id":"4","last_reported":1719421622,"current_range_meters":11200,"station_id":"ce4bh3h2rcd13ifvqdo0","pricing_plan_id":"cebpf4jnsgd1na2vs0mg"},{"bike_id":"a7c76dda-eb68-4fd5-a311-67f02109d140","system_id":"levelo_inurba_marseille","lat":43.285856,"lon":5.350771,"is_reserved":false,"is_disabled":false,"rental_uris":{"android":"levelo://app?vid=a7c76dda-eb68-4fd5-a311-67f02109d140","ios":"levelo://app?vid=a7c76dda-eb68-4fd5-a311-67f02109d140"},"vehicle_type_id":"4","last_reported":1719421622,"current_range_meters":29600,"station_id":"ce4bhch2rcd13ifvqeug","pricing_plan_id":"cebpf4jnsgd1na2vs0mg"},{"bike_id":"3184c4cc-3b75-4480-bbb8-eea79cc43f90","system_id":"levelo_inurba_marseille","lat":43.284013,"lon":5.37513,"is_reserved":false,"is_disabled":false,"rental_uris":{"android":"levelo://app?vid=3184c4cc-3b75-4480-bbb8-eea79cc43f90","ios":"levelo://app?vid=3184c4cc-3b75-4480-bbb8-eea79cc43f90"},"vehicle_type_id":"4","last_reported":1719421622,"current_range_meters":0,"station_id":"ce4bh412rcd13ifvqds0","pricing_plan_id":"cebpf4jnsgd1na2vs0mg"},{"bike_id":"82b17f2c-e554-4c97-8381-8390a8764fdb","system_id":"levelo_inurba_marseille","lat":43.295713,"lon":5.399639,"is_reserved":false,"is_disabled":false,"rental_uris":{"android":"levelo://app?vid=82b17f2c-e554-4c97-8381-8390a8764fdb","ios":"levelo://app?vid=82b17f2c-e554-4c97-8381-8390a8764fdb"},"vehicle_type_id":"4","last_reported":1719421622,"current_range_meters":4000,"station_id":"ce4bh312rcd13ifvqdj0","pricing_plan_id":"cebpf4jnsgd1na2vs0mg"},{"bike_id":"208006ae-a6df-40a8-8f93-2e6fe8fa5867","system_id":"levelo_inurba_marseille","lat":43.286595,"lon":5.386795,"is_reserved":false,"is_disabled":false,"rental_uris":{"android":"levelo://app?vid=208006ae-a6df-40a8-8f93-2e6fe8fa5867","ios":"levelo://app?vid=208006ae-a6df-40a8-8f93-2e6fe8fa5867"},"vehicle_type_id":"4","last_reported":1719421622,"current_range_meters":11600,"station_id":"ce4bh492rcd13ifvqdug","pricing_plan_id":"cebpf4jnsgd1na2vs0mg"},{"bike_id":"deb3758c-5eea-4721-95cc-590e97844ad7","system_id":"levelo_inurba_marseille","lat":43.286595,"lon":5.386795,"is_reserved":false,"is_disabled":false,"rental_uris":{"android":"levelo://app?vid=deb3758c-5eea-4721-95cc-590e97844ad7","ios":"levelo://app?vid=deb3758c-5eea-4721-95cc-590e97844ad7"},"vehicle_type_id":"4","last_reported":1719421622,"current_range_meters":4400,"station_id":"ce4bh492rcd13ifvqdug","pricing_plan_id":"cebpf4jnsgd1na2vs0mg"},{"bike_id":"916074fb-482a-47be-bb8a-167b9e54fa26","system_id":"levelo_inurba_marseille","lat":43.284661,"lon":5.38062,"is_reserved":false,"is_disabled":false,"rental_uris":{"android":"levelo://app?vid=916074fb-482a-47be-bb8a-167b9e54fa26","ios":"levelo://app?vid=916074fb-482a-47be-bb8a-167b9e54fa26"},"vehicle_type_id":"4","last_reported":1719421622,"current_range_meters":0,"station_id":"","pricing_plan_id":"cebpf4jnsgd1na2vs0mg"},{"bike_id":"782b0a0a-e1e6-4a2a-b6d1-0c63ef93e9de","system_id":"levelo_inurba_marseille","lat":43.319179,"lon":5.407725,"is_reserved":false,"is_disabled":false,"rental_uris":{"android":"levelo://app?vid=782b0a0a-e1e6-4a2a-b6d1-0c63ef93e9de","ios":"levelo://app?vid=782b0a0a-e1e6-4a2a-b6d1-0c63ef93e9de"},"vehicle_type_id":"4","last_reported":1719421622,"current_range_meters":0,"station_id":"ce4bhq12rcd13ifvqhig","pricing_plan_id":"cebpf4jnsgd1na2vs0mg"},{"bike_id":"3caba544-c694-44f8-bb0e-cbb783b81508","system_id":"levelo_inurba_marseille","lat":43.319179,"lon":5.407725,"is_reserved":false,"is_disabled":false,"rental_uris":{"android":"levelo://app?vid=3caba544-c694-44f8-bb0e-cbb783b81508","ios":"levelo://app?vid=3caba544-c694-44f8-bb0e-cbb783b81508"},"vehicle_type_id":"4","last_reported":1719421622,"current_range_meters":17600,"station_id":"ce4bhq12rcd13ifvqhig","pricing_plan_id":"cebpf4jnsgd1na2vs0mg"},{"bike_id":"8e3024fc-3cbc-4e24-8227-66e8249d0fcb","system_id":"levelo_inurba_marseille","lat":43.319179,"lon":5.407725,"is_reserved":false,"is_disabled":false,"rental_uris":{"android":"levelo://app?vid=8e3024fc-3cbc-4e24-8227-66e8249d0fcb","ios":"levelo://app?vid=8e3024fc-3cbc-4e24-8227-66e8249d0fcb"},"vehicle_type_id":"4","last_reported":1719421622,"current_range_meters":30000,"station_id":"ce4bhq12rcd13ifvqhig","pricing_plan_id":"cebpf4jnsgd1na2vs0mg"},{"bike_id":"5f9dac07-e511-4dcf-ae1b-bf2eba252b4c","system_id":"levelo_inurba_marseille","lat":43.28423,"lon":5.38072,"is_reserved":false,"is_disabled":false,"rental_uris":{"android":"levelo://app?vid=5f9dac07-e511-4dcf-ae1b-bf2eba252b4c","ios":"levelo://app?vid=5f9dac07-e511-4dcf-ae1b-bf2eba252b4c"},"vehicle_type_id":"4","last_reported":1719421622,"current_range_meters":7600,"station_id":"ce4bh412rcd13ifvqdr0","pricing_plan_id":"cebpf4jnsgd1na2vs0mg"},{"bike_id":"ae520b9f-5cb7-4e38-bbf9-440d5b3c620d","system_id":"levelo_inurba_marseille","lat":43.323464,"lon":5.406297,"is_reserved":false,"is_disabled":false,"rental_uris":{"android":"levelo://app?vid=ae520b9f-5cb7-4e38-bbf9-440d5b3c620d","ios":"levelo://app?vid=ae520b9f-5cb7-4e38-bbf9-440d5b3c620d"},"vehicle_type_id":"4","last_reported":1719421622,"current_range_meters":25600,"station_id":"ce4bhq92rcd13ifvqhjg","pricing_plan_id":"cebpf4jnsgd1na2vs0mg"},{"bike_id":"311c3a7d-ed26-4e20-b696-f702ef51dba3","system_id":"levelo_inurba_marseille","lat":43.32348,"lon":5.40625,"is_reserved":false,"is_disabled":false,"rental_uris":{"android":"levelo://app?vid=311c3a7d-ed26-4e20-b696-f702ef51dba3","ios":"levelo://app?vid=311c3a7d-ed26-4e20-b696-f702ef51dba3"},"vehicle_type_id":"4","last_reported":1719421622,"current_range_meters":2000,"station_id":"ce4bhq92rcd13ifvqhjg","pricing_plan_id":"cebpf4jnsgd1na2vs0mg"},{"bike_id":"01234115-4ef9-4020-bbe4-eb39fbd93d56","system_id":"levelo_inurba_marseille","lat":43.323464,"lon":5.406297,"is_reserved":false,"is_disabled":false,"rental_uris":{"android":"levelo://app?vid=01234115-4ef9-4020-bbe4-eb39fbd93d56","ios":"levelo://app?vid=01234115-4ef9-4020-bbe4-eb39fbd93d56"},"vehicle_type_id":"4","last_reported":1719421622,"current_range_meters":12400,"station_id":"ce4bhq92rcd13ifvqhjg","pricing_plan_id":"cebpf4jnsgd1na2vs0mg"},{"bike_id":"b2e758d2-f368-4627-aa7c-cdb590fcca5a","system_id":"levelo_inurba_marseille","lat":43.2824,"lon":5.37256,"is_reserved":false,"is_disabled":false,"rental_uris":{"android":"levelo://app?vid=b2e758d2-f368-4627-aa7c-cdb590fcca5a","ios":"levelo://app?vid=b2e758d2-f368-4627-aa7c-cdb590fcca5a"},"vehicle_type_id":"4","last_reported":1719421622,"current_range_meters":18000,"station_id":"","pricing_plan_id":"cebpf4jnsgd1na2vs0mg"},{"bike_id":"cc5ffafa-3135-4c7f-8851-943afa029001","system_id":"levelo_inurba_marseille","lat":43.288501,"lon":5.393087,"is_reserved":false,"is_disabled":false,"rental_uris":{"android":"levelo://app?vid=cc5ffafa-3135-4c7f-8851-943afa029001","ios":"levelo://app?vid=cc5ffafa-3135-4c7f-8851-943afa029001"},"vehicle_type_id":"4","last_reported":1719421622,"current_range_meters":8800,"station_id":"ce4bh2p2rcd13ifvqdi0","pricing_plan_id":"cebpf4jnsgd1na2vs0mg"},{"bike_id":"3ba911d4-f10a-488d-b019-10d22e607292","system_id":"levelo_inurba_marseille","lat":43.28353,"lon":5.38103,"is_reserved":false,"is_disabled":false,"rental_uris":{"android":"levelo://app?vid=3ba911d4-f10a-488d-b019-10d22e607292","ios":"levelo://app?vid=3ba911d4-f10a-488d-b019-10d22e607292"},"vehicle_type_id":"4","last_reported":1719421622,"current_range_meters":4400,"station_id":"ce4bh412rcd13ifvqdr0","pricing_plan_id":"cebpf4jnsgd1na2vs0mg"},{"bike_id":"3ee8da6e-de85-474c-a659-01faa7a4948d","system_id":"levelo_inurba_marseille","lat":43.28379,"lon":5.34997,"is_reserved":false,"is_disabled":false,"rental_uris":{"android":"levelo://app?vid=3ee8da6e-de85-474c-a659-01faa7a4948d","ios":"levelo://app?vid=3ee8da6e-de85-474c-a659-01faa7a4948d"},"vehicle_type_id":"4","last_reported":1719421622,"current_range_meters":29600,"station_id":"","pricing_plan_id":"cebpf4jnsgd1na2vs0mg"},{"bike_id":"dea69ff8-1f97-433e-932b-194300e6fae5","system_id":"levelo_inurba_marseille","lat":43.292724,"lon":5.401131,"is_reserved":false,"is_disabled":false,"rental_uris":{"android":"levelo://app?vid=dea69ff8-1f97-433e-932b-194300e6fae5","ios":"levelo://app?vid=dea69ff8-1f97-433e-932b-194300e6fae5"},"vehicle_type_id":"4","last_reported":1719421622,"current_range_meters":0,"station_id":"ce4bh312rcd13ifvqdk0","pricing_plan_id":"cebpf4jnsgd1na2vs0mg"},{"bike_id":"d78440a5-9503-4ce5-b424-6681d6391391","system_id":"levelo_inurba_marseille","lat":43.2927,"lon":5.40121,"is_reserved":false,"is_disabled":false,"rental_uris":{"android":"levelo://app?vid=d78440a5-9503-4ce5-b424-6681d6391391","ios":"levelo://app?vid=d78440a5-9503-4ce5-b424-6681d6391391"},"vehicle_type_id":"4","last_reported":1719421622,"current_range_meters":0,"station_id":"ce4bh312rcd13ifvqdk0","pricing_plan_id":"cebpf4jnsgd1na2vs0mg"},{"bike_id":"fcb5f64d-526d-4167-9841-27c28adf14d5","system_id":"levelo_inurba_marseille","lat":43.28291,"lon":5.35096,"is_reserved":false,"is_disabled":false,"rental_uris":{"android":"levelo://app?vid=fcb5f64d-526d-4167-9841-27c28adf14d5","ios":"levelo://app?vid=fcb5f64d-526d-4167-9841-27c28adf14d5"},"vehicle_type_id":"4","last_reported":1719421622,"current_range_meters":0,"station_id":"ce4bhbp2rcd13ifvqerg","pricing_plan_id":"cebpf4jnsgd1na2vs0mg"},{"bike_id":"bee2941f-9edd-4116-9792-8032e4292b54","system_id":"levelo_inurba_marseille","lat":43.292724,"lon":5.401131,"is_reserved":false,"is_disabled":false,"rental_uris":{"android":"levelo://app?vid=bee2941f-9edd-4116-9792-8032e4292b54","ios":"levelo://app?vid=bee2941f-9edd-4116-9792-8032e4292b54"},"vehicle_type_id":"4","last_reported":1719421622,"current_range_meters":31200,"station_id":"ce4bh312rcd13ifvqdk0","pricing_plan_id":"cebpf4jnsgd1na2vs0mg"},{"bike_id":"168f8921-d653-4b72-8d1d-089642603096","system_id":"levelo_inurba_marseille","lat":43.296263,"lon":5.40601,"is_reserved":false,"is_disabled":false,"rental_uris":{"android":"levelo://app?vid=168f8921-d653-4b72-8d1d-089642603096","ios":"levelo://app?vid=168f8921-d653-4b72-8d1d-089642603096"},"vehicle_type_id":"4","last_reported":1719421622,"current_range_meters":0,"station_id":"ce4bh0h2rcd13ifvqd60","pricing_plan_id":"cebpf4jnsgd1na2vs0mg"},{"bike_id":"d63be9e9-5056-47e1-b726-c29b2ad4dde5","system_id":"levelo_inurba_marseille","lat":43.280382,"lon":5.369291,"is_reserved":false,"is_disabled":false,"rental_uris":{"android":"levelo://app?vid=d63be9e9-5056-47e1-b726-c29b2ad4dde5","ios":"levelo://app?vid=d63be9e9-5056-47e1-b726-c29b2ad4dde5"},"vehicle_type_id":"4","last_reported":1719421622,"current_range_meters":22400,"station_id":"ce4bha12rcd13ifvqef0","pricing_plan_id":"cebpf4jnsgd1na2vs0mg"},{"bike_id":"fcdf24da-37f2-4e51-8260-6c7387e983b9","system_id":"levelo_inurba_marseille","lat":43.28039,"lon":5.369297,"is_reserved":false,"is_disabled":false,"rental_uris":{"android":"levelo://app?vid=fcdf24da-37f2-4e51-8260-6c7387e983b9","ios":"levelo://app?vid=fcdf24da-37f2-4e51-8260-6c7387e983b9"},"vehicle_type_id":"4","last_reported":1719421622,"current_range_meters":2000,"station_id":"ce4bha12rcd13ifvqef0","pricing_plan_id":"cebpf4jnsgd1na2vs0mg"},{"bike_id":"715f0447-f4d8-4242-8e02-fdcba6b3bda6","system_id":"levelo_inurba_marseille","lat":43.280382,"lon":5.369291,"is_reserved":false,"is_disabled":false,"rental_uris":{"android":"levelo://app?vid=715f0447-f4d8-4242-8e02-fdcba6b3bda6","ios":"levelo://app?vid=715f0447-f4d8-4242-8e02-fdcba6b3bda6"},"vehicle_type_id":"4","last_reported":1719421622,"current_range_meters":15200,"station_id":"ce4bha12rcd13ifvqef0","pricing_plan_id":"cebpf4jnsgd1na2vs0mg"},{"bike_id":"52eca0b1-4d4c-41f4-b8b6-a6d814e729ff","system_id":"levelo_inurba_marseille","lat":43.280382,"lon":5.369291,"is_reserved":false,"is_disabled":false,"rental_uris":{"android":"levelo://app?vid=52eca0b1-4d4c-41f4-b8b6-a6d814e729ff","ios":"levelo://app?vid=52eca0b1-4d4c-41f4-b8b6-a6d814e729ff"},"vehicle_type_id":"4","last_reported":1719421622,"current_range_meters":26000,"station_id":"ce4bha12rcd13ifvqef0","pricing_plan_id":"cebpf4jnsgd1na2vs0mg"},{"bike_id":"863400d3-d370-4737-9053-167fc9892fe6","system_id":"levelo_inurba_marseille","lat":43.28033,"lon":5.36943,"is_reserved":false,"is_disabled":false,"rental_uris":{"android":"levelo://app?vid=863400d3-d370-4737-9053-167fc9892fe6","ios":"levelo://app?vid=863400d3-d370-4737-9053-167fc9892fe6"},"vehicle_type_id":"4","last_reported":1719421622,"current_range_meters":9200,"station_id":"ce4bha12rcd13ifvqef0","pricing_plan_id":"cebpf4jnsgd1na2vs0mg"},{"bike_id":"e142467e-d563-4312-b78e-f62b558da63d","system_id":"levelo_inurba_marseille","lat":43.29041,"lon":5.399634,"is_reserved":false,"is_disabled":false,"rental_uris":{"android":"levelo://app?vid=e142467e-d563-4312-b78e-f62b558da63d","ios":"levelo://app?vid=e142467e-d563-4312-b78e-f62b558da63d"},"vehicle_type_id":"4","last_reported":1719421622,"current_range_meters":3600,"station_id":"ce4bh392rcd13ifvqdm0","pricing_plan_id":"cebpf4jnsgd1na2vs0mg"},{"bike_id":"31c09a54-b36f-466a-a008-8381a42830e6","system_id":"levelo_inurba_marseille","lat":43.29041,"lon":5.399634,"is_reserved":false,"is_disabled":false,"rental_uris":{"android":"levelo://app?vid=31c09a54-b36f-466a-a008-8381a42830e6","ios":"levelo://app?vid=31c09a54-b36f-466a-a008-8381a42830e6"},"vehicle_type_id":"4","last_reported":1719421622,"current_range_meters":400,"station_id":"ce4bh392rcd13ifvqdm0","pricing_plan_id":"cebpf4jnsgd1na2vs0mg"},