{"last_updated":1742332121,"ttl":60,"version":"2.2","data":{"bikes":[{"bike_id":"492f35ea-b726-4863-ae3a-0909c0db54bd","system_id":"levelo_inurba_marseille","lat":43.2781,"lon":5.40736,"is_reserved":false,"is_disabled":true,"rental_uris":{"android":"levelo://app?vid=492f35ea-b726-4863-ae3a-0909c0db54bd","ios":"levelo://app?vid=492f35ea-b726-4863-ae3a-0909c0db54bd"},"vehicle_type_id":"4","last_reported":1742332121,"current_range_meters":2800,"station_id":"ce4bhnh2rcd13ifvqgtg","pricing_plan_id":"cebpf4jnsgd1na2vs0mg"},{"bike_id":"4986480c-a4fe-4455-a4d8-9c186bbe79de","system_id":"levelo_inurba_marseille","lat":43.2481,"lon":5.37462,"is_reserved":false,"is_disabled":false,"rental_uris":{"android":"levelo://app?vid=4986480c-a4fe-4455-a4d8-9c186bbe79de","ios":"levelo://app?vid=4986480c-a4fe-4455-a4d8-9c186bbe79de"},"vehicle_type_id":"4","last_reported":1742332121,"current_range_meters":2800,"station_id":"ce4bhgh2rcd13ifvqfb0","pricing_plan_id":"cebpf4jnsgd1na2vs0mg"},{"bike_id":"80a4abee-a67e-4ccf-bce1-80eb3223947a","system_id":"levelo_inurba_marseille","lat":43.27911,"lon":5.38011,"is_reserved":false,"is_disabled":false,"rental_uris":{"android":"levelo://app?vid=80a4abee-a67e-4ccf-bce1-80eb3223947a","ios":"levelo://app?vid=80a4abee-a67e-4ccf-bce1-80eb3223947a"},"vehicle_type_id":"4","last_reported":1742332121,"current_range_meters":2800,"station_id":"ce4bhf92rcd13ifvqf50","pricing_plan_id":"cebpf4jnsgd1na2vs0mg"},{"bike_id":"97f1a9ef-23d7-46a5-a024-751b81083237","system_id":"levelo_inurba_marseille","lat":43.33021,"lon":5.39038,"is_reserved":false,"is_disabled":false,"rental_uris":{"android":"levelo://app?vid=97f1a9ef-23d7-46a5-a024-751b81083237","ios":"levelo://app?vid=97f1a9ef-23d7-46a5-a024-751b81083237"},"vehicle_type_id":"4","last_reported":1742332121,"current_range_meters":2800,"station_id":"ce4bhr92rcd13ifvqhrg","pricing_plan_id":"cebpf4jnsgd1na2vs0mg"},{"bike_id":"36c1eac0-102d-49b2-8ae6-3942da83e3d9","system_id":"levelo_inurba_marseille","lat":43.24676,"lon":5.38142,"is_reserved":false,"is_disabled":false,"rental_uris":{"android":"levelo://app?vid=36c1eac0-102d-49b2-8ae6-3942da83e3d9","ios":"levelo://app?vid=36c1eac0-102d-49b2-8ae6-3942da83e3d9"},"vehicle_type_id":"4","last_reported":1742332121,"current_range_meters":3200,"station_id":"ce4bhih2rcd13ifvqfr0","pricing_plan_id":"cebpf4jnsgd1na2vs0mg"},{"bike_id":"f4c9d75f-7cfb-41f8-bd22-ac9fc8cec1ed","system_id":"levelo_inurba_marseille","lat":43.30213,"lon":5.39462,"is_reserved":false,"is_disabled":false,"rental_uris":{"android":"levelo://app?vid=f4c9d75f-7cfb-41f8-bd22-ac9fc8cec1ed","ios":"levelo://app?vid=f4c9d75f-7cfb-41f8-bd22-ac9fc8cec1ed"},"vehicle_type_id":"4","last_reported":1742332121,"current_range_meters":3200,"station_id":"ce4bh0p2rcd13ifvqd70","pricing_plan_id":"cebpf4jnsgd1na2vs0mg"},{"bike_id":"680fc267-1dd9-455e-a395-8736828141e4","system_id":"levelo_inurba_marseille","lat":43.30884,"lon":5.37195,"is_reserved":false,"is_disabled":false,"rental_uris":{"android":"levelo://app?vid=680fc267-1dd9-455e-a395-8736828141e4","ios":"levelo://app?vid=680fc267-1dd9-455e-a395-8736828141e4"},"vehicle_type_id":"4","last_reported":1742332121,"current_range_meters":3200,"station_id":"ce4bguh2rcd13ifvqckg","pricing_plan_id":"cebpf4jnsgd1na2vs0mg"},{"bike_id":"7a5e97d8-9722-4efd-86d6-954e980c8a88","system_id":"levelo_inurba_marseille","lat":43.31159,"lon":5.38734,"is_reserved":false,"is_disabled":false,"rental_uris":{"android":"levelo://app?vid=7a5e97d8-9722-4efd-86d6-954e980c8a88","ios":"levelo://app?vid=7a5e97d8-9722-4efd-86d6-954e980c8a88"},"vehicle_type_id":"4","last_reported":1742332121,"current_range_meters":3200,"station_id":"ce4bgv12rcd13ifvqcp0","pricing_plan_id":"cebpf4jnsgd1na2vs0mg"},{"bike_id":"ef0e6bd7-a9fe-4e50-8f54-21a353a3ea79","system_id":"levelo_inurba_marseille","lat":43.28036,"lon":5.36944,"is_reserved":false,"is_disabled":false,"rental_uris":{"android":"levelo://app?vid=ef0e6bd7-a9fe-4e50-8f54-21a353a3ea79","ios":"levelo://app?vid=ef0e6bd7-a9fe-4e50-8f54-21a353a3ea79"},"vehicle_type_id":"4","last_reported":1742332121,"current_range_meters":3600,"station_id":"ce4bha12rcd13ifvqef0","pricing_plan_id":"cebpf4jnsgd1na2vs0mg"},{"bike_id":"682adf4d-d159-4948-81fe-6b9491c2a37e","system_id":"levelo_inurba_marseille","lat":43.28976,"lon":5.37839,"is_reserved":false,"is_disabled":false,"rental_uris":{"android":"levelo://app?vid=682adf4d-d159-4948-81fe-6b9491c2a37e","ios":"levelo://app?vid=682adf4d-d159-4948-81fe-6b9491c2a37e"},"vehicle_type_id":"4","last_reported":1742332121,"current_range_meters":3600,"station_id":"ce4bh9p2rcd13ifvqed0","pricing_plan_id":"cebpf4jnsgd1na2vs0mg"},{"bike_id":"b4df3da1-5261-40c7-9575-fe8fce4db2d5","system_id":"levelo_inurba_marseille","lat":43.25578,"lon":5.38231,"is_reserved":false,"is_disabled":false,"rental_uris":{"android":"levelo://app?vid=b4df3da1-5261-40c7-9575-fe8fce4db2d5","ios":"levelo://app?vid=b4df3da1-5261-40c7-9575-fe8fce4db2d5"},"vehicle_type_id":"4","last_reported":1742332121,"current_range_meters":3600,"station_id":"ce4bhih2rcd13ifvqfs0","pricing_plan_id":"cebpf4jnsgd1na2vs0mg"},{"bike_id":"267356f9-ec81-4640-909b-ff969520695a","system_id":"levelo_inurba_marseille","lat":43.27973,"lon":5.38741,"is_reserved":false,"is_disabled":false,"rental_uris":{"android":"levelo://app?vid=267356f9-ec81-4640-909b-ff969520695a","ios":"levelo://app?vid=267356f9-ec81-4640-909b-ff969520695a"},"vehicle_type_id":"4","last_reported":1742332121,"current_range_meters":3600,"station_id":"ce4bhg12rcd13ifvqf80","pricing_plan_id":"cebpf4jnsgd1na2vs0mg"},{"bike_id":"acb4e5c5-7517-4f7e-ae75-24c69db0652f","system_id":"levelo_inurba_marseille","lat":43.30135,"lon":5.38784,"is_reserved":false,"is_disabled":false,"rental_uris":{"android":"levelo://app?vid=acb4e5c5-7517-4f7e-ae75-24c69db0652f","ios":"levelo://app?vid=acb4e5c5-7517-4f7e-ae75-24c69db0652f"},"vehicle_type_id":"4","last_reported":1742332121,"current_range_meters":4000,"station_id":"ce4bghh2rcd13ifvqb60","pricing_plan_id":"cebpf4jnsgd1na2vs0mg"},{"bike_id":"f41a21a2-7126-40fa-816c-03213359370d","system_id":"levelo_inurba_marseille","lat":43.29041,"lon":5.39974,"is_reserved":false,"is_disabled":false,"rental_uris":{"android":"levelo://app?vid=f41a21a2-7126-40fa-816c-03213359370d","ios":"levelo://app?vid=f41a21a2-7126-40fa-816c-03213359370d"},"vehicle_type_id":"4","last_reported":1742332121,"current_range_meters":4000,"station_id":"ce4bh392rcd13ifvqdm0","pricing_plan_id":"cebpf4jnsgd1na2vs0mg"},{"bike_id":"057c4299-c24d-4a02-8ede-b4bf9523726b","system_id":"levelo_inurba_marseille","lat":43.23151,"lon":5.43711,"is_reserved":false,"is_disabled":true,"rental_uris":{"android":"levelo://app?vid=057c4299-c24d-4a02-8ede-b4bf9523726b","ios":"levelo://app?vid=057c4299-c24d-4a02-8ede-b4bf9523726b"},"vehicle_type_id":"4","last_reported":1742332121,"current_range_meters":4000,"station_id":"ce4bhmp2rcd13ifvqgog","pricing_plan_id":"cebpf4jnsgd1na2vs0mg"},{"bike_id":"fa5f15ab-8994-45e1-84de-31aa4c8b3ced","system_id":"levelo_inurba_marseille","lat":43.23197,"lon":5.35556,"is_reserved":false,"is_disabled":false,"rental_uris":{"android":"levelo://app?vid=fa5f15ab-8994-45e1-84de-31aa4c8b3ced","ios":"levelo://app?vid=fa5f15ab-8994-45e1-84de-31aa4c8b3ced"},"vehicle_type_id":"4","last_reported":1742332121,"current_range_meters":4000,"station_id":"ce4bhu92rcd13ifvqi70","pricing_plan_id":"cebpf4jnsgd1na2vs0mg"},{"bike_id":"91a1a8c9-afb9-4a7f-ba19-ba136b335bf7","system_id":"levelo_inurba_marseille","lat":43.2788,"lon":5.38001,"is_reserved":false,"is_disabled":false,"rental_uris":{"android":"levelo://app?vid=91a1a8c9-afb9-4a7f-ba19-ba136b335bf7","ios":"levelo://app?vid=91a1a8c9-afb9-4a7f-ba19-ba136b335bf7"},"vehicle_type_id":"4","last_reported":1742332121,"current_range_meters":4000,"station_id":"ce4bhf92rcd13ifvqf50","pricing_plan_id":"cebpf4jnsgd1na2vs0mg"},{"bike_id":"2b69a24e-16fb-40e9-871f-7466c1293e32","system_id":"levelo_inurba_marseille","lat":43.32376,"lon":5.38882,"is_reserved":false,"is_disabled":false,"rental_uris":{"android":"levelo://app?vid=2b69a24e-16fb-40e9-871f-7466c1293e32","ios":"levelo://app?vid=2b69a24e-16fb-40e9-871f-7466c1293e32"},"vehicle_type_id":"4","last_reported":1742332121,"current_range_meters":4000,"station_id":"ce4bhqp2rcd13ifvqhog","pricing_plan_id":"cebpf4jnsgd1na2vs0mg"},{"bike_id":"fcdc88c7-1bbb-4ddc-9c49-cc27a11b9d83","system_id":"levelo_inurba_marseille","lat":43.26499,"lon":5.39538,"is_reserved":false,"is_disabled":false,"rental_uris":{"android":"levelo://app?vid=fcdc88c7-1bbb-4ddc-9c49-cc27a11b9d83","ios":"levelo://app?vid=fcdc88c7-1bbb-4ddc-9c49-cc27a11b9d83"},"vehicle_type_id":"4","last_reported":1742332121,"current_range_meters":4000,"station_id":"ce4bhi12rcd13ifvqfq0","pricing_plan_id":"cebpf4jnsgd1na2vs0mg"},{"bike_id":"9ddacab4-e40d-407a-8694-2eb861a5338e","system_id":"levelo_inurba_marseille","lat":43.29028,"lon":5.38633,"is_reserved":false,"is_disabled":false,"rental_uris":{"android":"levelo://app?vid=9ddacab4-e40d-407a-8694-2eb861a5338e","ios":"levelo://app?vid=9ddacab4-e40d-407a-8694-2eb861a5338e"},"vehicle_type_id":"4","last_reported":1742332121,"current_range_meters":4400,"station_id":"ce4bh4p2rcd13ifvqe0g","pricing_plan_id":"cebpf4jnsgd1na2vs0mg"},{"bike_id":"146eb845-4e4f-40a7-addf-8964f9b9cf0d","system_id":"levelo_inurba_marseille","lat":43.2465,"lon":5.38895,"is_reserved":false,"is_disabled":false,"rental_uris":{"android":"levelo://app?vid=146eb845-4e4f-40a7-addf-8964f9b9cf0d","ios":"levelo://app?vid=146eb845-4e4f-40a7-addf-8964f9b9cf0d"},"vehicle_type_id":"4","last_reported":1742332121,"current_range_meters":4400,"station_id":"ce4bhg12rcd13ifvqf60","pricing_plan_id":"cebpf4jnsgd1na2vs0mg"},{"bike_id":"45b82e0f-05c8-4de5-b641-e0a386935fad","system_id":"levelo_inurba_marseille","lat":43.31281,"lon":5.40173,"is_reserved":false,"is_disabled":false,"rental_uris":{"android":"levelo://app?vid=45b82e0f-05c8-4de5-b641-e0a386935fad","ios":"levelo://app?vid=45b82e0f-05c8-4de5-b641-e0a386935fad"},"vehicle_type_id":"4","last_reported":1742332121,"current_range_meters":4400,"station_id":"ce4bh092rcd13ifvqd30","pricing_plan_id":"cebpf4jnsgd1na2vs0mg"},{"bike_id":"41057c2b-8ed6-4261-a195-12023d09d4f3","system_id":"levelo_inurba_marseille","lat":43.26214,"lon":5.37443,"is_reserved":false,"is_disabled":false,"rental_uris":{"android":"levelo://app?vid=41057c2b-8ed6-4261-a195-12023d09d4f3","ios":"levelo://app?vid=41057c2b-8ed6-4261-a195-12023d09d4f3"},"vehicle_type_id":"4","last_reported":1742332121,"current_range_meters":4400,"station_id":"ce4bhgp2rcd13ifvqfc0","pricing_plan_id":"cebpf4jnsgd1na2vs0mg"},{"bike_id":"a29dee85-b456-4e00-a26c-ba9040b23b94","system_id":"levelo_inurba_marseille","lat":43.32666,"lon":5.41053,"is_reserved":false,"is_disabled":false,"rental_uris":{"android":"levelo://app?vid=a29dee85-b456-4e00-a26c-ba9040b23b94","ios":"levelo://app?vid=a29dee85-b456-4e00-a26c-ba9040b23b94"},"vehicle_type_id":"4","last_reported":1742332121,"current_range_meters":4800,"station_id":"","pricing_plan_id":"cebpf4jnsgd1na2vs0mg"},{"bike_id":"a34aa44b-da8b-461c-84a7-ad3f6c56b49a","system_id":"levelo_inurba_marseille","lat":43.2842,"lon":5.34998,"is_reserved":false,"is_disabled":false,"rental_uris":{"android":"levelo://app?vid=a34aa44b-da8b-461c-84a7-ad3f6c56b49a","ios":"levelo://app?vid=a34aa44b-da8b-461c-84a7-ad3f6c56b49a"},"vehicle_type_id":"4","last_reported":1742332121,"current_range_meters":4800,"station_id":"ce4bhbh2rcd13ifvqepg","pricing_plan_id":"cebpf4jnsgd1na2vs0mg"},{"bike_id":"92eb74ca-5db0-4730-bf51-f2146a91dc54","system_id":"levelo_inurba_marseille","lat":43.33054,"lon":5.39047,"is_reserved":false,"is_disabled":false,"rental_uris":{"android":"levelo://app?vid=92eb74ca-5db0-4730-bf51-f2146a91dc54","ios":"levelo://app?vid=92eb74ca-5db0-4730-bf51-f2146a91dc54"},"vehicle_type_id":"4","last_reported":1742332121,"current_range_meters":4800,"station_id":"ce4bhr92rcd13ifvqhrg","pricing_plan_id":"cebpf4jnsgd1na2vs0mg"},{"bike_id":"6ac69b07-0b11-4dd4-9266-99df53ba3525","system_id":"levelo_inurba_marseille","lat":43.295886,"lon":5.376961,"is_reserved":false,"is_disabled":false,"rental_uris":{"android":"levelo://app?vid=6ac69b07-0b11-4dd4-9266-99df53ba3525","ios":"levelo://app?vid=6ac69b07-0b11-4dd4-9266-99df53ba3525"},"vehicle_type_id":"4","last_reported":1742332121,"current_range_meters":4800,"station_id":"ce4bh012rcd13ifvqcv0","pricing_plan_id":"cebpf4jnsgd1na2vs0mg"},{"bike_id":"6c256382-daba-4bd4-b4fd-cc16f4776a54","system_id":"levelo_inurba_marseille","lat":43.29329,"lon":5.37997,"is_reserved":false,"is_disabled":false,"rental_uris":{"android":"levelo://app?vid=6c256382-daba-4bd4-b4fd-cc16f4776a54","ios":"levelo://app?vid=6c256382-daba-4bd4-b4fd-cc16f4776a54"},"vehicle_type_id":"4","last_reported":1742332121,"current_range_meters":5600,"station_id":"","pricing_plan_id":"cebpf4jnsgd1na2vs0mg"},{"bike_id":"362efc46-264a-499e-8212-aa27c654da78","system_id":"levelo_inurba_marseille","lat":43.2862,"lon":5.35105,"is_reserved":false,"is_disabled":false,"rental_uris":{"android":"levelo://app?vid=362efc46-264a-499e-8212-aa27c654da78","ios":"levelo://app?vid=362efc46-264a-499e-8212-aa27c654da78"},"vehicle_type_id":"4","last_reported":1742332121,"current_range_meters":5600,"station_id":"ce4bhch2rcd13ifvqeug","pricing_plan_id":"cebpf4jnsgd1na2vs0mg"},{"bike_id":"b9416fb6-9cc0-4164-b6a9-32098ba209cf","system_id":"levelo_inurba_marseille","lat":43.31137,"lon":5.3779,"is_reserved":false,"is_disabled":false,"rental_uris":{"android":"levelo://app?vid=b9416fb6-9cc0-4164-b6a9-32098ba209cf","ios":"levelo://app?vid=b9416fb6-9cc0-4164-b6a9-32098ba209cf"},"vehicle_type_id":"4","last_reported":1742332121,"current_range_meters":5600,"station_id":"ce4bgt92rcd13ifvqcg0","pricing_plan_id":"cebpf4jnsgd1na2vs0mg"},{"bike_id":"2665cc4b-07ed-4ae6-a66f-2b09983c709d","system_id":"levelo_inurba_marseille","lat":43.33761,"lon":5.37489,"is_reserved":false,"is_disabled":false,"rental_uris":{"android":"levelo://app?vid=2665cc4b-07ed-4ae6-a66f-2b09983c709d","ios":"levelo://app?vid=2665cc4b-07ed-4ae6-a66f-2b09983c709d"},"vehicle_type_id":"4","last_reported":1742332121,"current_range_meters":5600,"station_id":"","pricing_plan_id":"cebpf4jnsgd1na2vs0mg"},{"bike_id":"fbbc3a20-7674-427f-9d4a-86fa6be185e1","system_id":"levelo_inurba_marseille","lat":43.29921,"lon":5.38119,"is_reserved":false,"is_disabled":false,"rental_uris":{"android":"levelo://app?vid=fbbc3a20-7674-427f-9d4a-86fa6be185e1","ios":"levelo://app?vid=fbbc3a20-7674-427f-9d4a-86fa6be185e1"},"vehicle_type_id":"4","last_reported":1742332121,"current_range_meters":5600,"station_id":"ce4bgj12rcd13ifvqbc0","pricing_plan_id":"cebpf4jnsgd1na2vs0mg"},{"bike_id":"eb37f39b-3138-47e6-8860-39682583bd1f","system_id":"levelo_inurba_marseille","lat":43.32363,"lon":5.38878,"is_reserved":false,"is_disabled":false,"rental_uris":{"android":"levelo://app?vid=eb37f39b-3138-47e6-8860-39682583bd1f","ios":"levelo://app?vid=eb37f39b-3138-47e6-8860-39682583bd1f"},"vehicle_type_id":"4","last_reported":1742332121,"current_range_meters":5600,"station_id":"ce4bhqp2rcd13ifvqhog","pricing_plan_id":"cebpf4jnsgd1na2vs0mg"},{"bike_id":"eca5cde3-5cbf-4c2c-97d5-ef4d7982662d","system_id":"levelo_inurba_marseille","lat":43.29794,"lon":5.3812,"is_reserved":false,"is_disabled":false,"rental_uris":{"android":"levelo://app?vid=eca5cde3-5cbf-4c2c-97d5-ef4d7982662d","ios":"levelo://app?vid=eca5cde3-5cbf-4c2c-97d5-ef4d7982662d"},"vehicle_type_id":"4","last_reported":1742332121,"current_range_meters":5600,"station_id":"ce4bgip2rcd13ifvqbb0","pricing_plan_id":"cebpf4jnsgd1na2vs0mg"},{"bike_id":"55c83ebf-913d-48a1-abee-3e29e6909fd2","system_id":"levelo_inurba_marseille","lat":43.28008,"lon":5.41651,"is_reserved":false,"is_disabled":true,"rental_uris":{"android":"levelo://app?vid=55c83ebf-913d-48a1-abee-3e29e6909fd2","ios":"levelo://app?vid=55c83ebf-913d-48a1-abee-3e29e6909fd2"},"vehicle_type_id":"4","last_reported":1742332121,"current_range_meters":5600,"station_id":"ce4bho12rcd13ifvqh1g","pricing_plan_id":"cebpf4jnsgd1na2vs0mg"},{"bike_id":"7621c0fb-8de7-4f83-bf27-a237b9234f7b","system_id":"levelo_inurba_marseille","lat":43.27949,"lon":5.41052,"is_reserved":false,"is_disabled":false,"rental_uris":{"android":"levelo://app?vid=7621c0fb-8de7-4f83-bf27-a237b9234f7b","ios":"levelo://app?vid=7621c0fb-8de7-4f83-bf27-a237b9234f7b"},"vehicle_type_id":"4","last_reported":1742332121,"current_range_meters":5600,"station_id":"ce4bhnp2rcd13ifvqh0g","pricing_plan_id":"cebpf4jnsgd1na2vs0mg"},{"bike_id":"83aa4403-395a-450e-9e5a-15bcaffc26d1","system_id":"levelo_inurba_marseille","lat":43.27174,"lon":5.40996,"is_reserved":false,"is_disabled":false,"rental_uris":{"android":"levelo://app?vid=83aa4403-395a-450e-9e5a-15bcaffc26d1","ios":"levelo://app?vid=83aa4403-395a-450e-9e5a-15bcaffc26d1"},"vehicle_type_id":"4","last_reported":1742332121,"current_range_meters":5600,"station_id":"","pricing_plan_id":"cebpf4jnsgd1na2vs0mg"},{"bike_id":"df63f45b-71d6-49c5-b796-54b8002f58fc","system_id":"levelo_inurba_marseille","lat":43.31507,"lon":5.37292,"is_reserved":false,"is_disabled":false,"rental_uris":{"android":"levelo://app?vid=df63f45b-71d6-49c5-b796-54b8002f58fc","ios":"levelo://app?vid=df63f45b-71d6-49c5-b796-54b8002f58fc"},"vehicle_type_id":"4","last_reported":1742332121,"current_range_meters":5600,"station_id":"ce4bgt12rcd13ifvqcd0","pricing_plan_id":"cebpf4jnsgd1na2vs0mg"},{"bike_id":"6d8e8090-a4c7-4966-a3f4-a833922b9e5a","system_id":"levelo_inurba_marseille","lat":43.23198,"lon":5.3554,"is_reserved":false,"is_disabled":false,"rental_uris":{"android":"levelo://app?vid=6d8e8090-a4c7-4966-a3f4-a833922b9e5a","ios":"levelo://app?vid=6d8e8090-a4c7-4966-a3f4-a833922b9e5a"},"vehicle_type_id":"4","last_reported":1742332121,"current_range_meters":6000,"station_id":"ce4bhu92rcd13ifvqi70","pricing_plan_id":"cebpf4jnsgd1na2vs0mg"},{"bike_id":"3db91aa6-845b-4ce3-9a81-55687c0461bc","system_id":"levelo_inurba_marseille","lat":43.25007,"lon":5.38916,"is_reserved":false,"is_disabled":false,"rental_uris":{"android":"levelo://app?vid=3db91aa6-845b-4ce3-9a81-55687c0461bc","ios":"levelo://app?vid=3db91aa6-845b-4ce3-9a81-55687c0461bc"},"vehicle_type_id":"4","last_reported":1742332121,"current_range_meters":6000,"station_id":"ce4bhgp2rcd13ifvqfd0","pricing_plan_id":"cebpf4jnsgd1na2vs0mg"},{"bike_id":"94dbeb47-806a-483d-a5e7-3996afd3f94b","system_id":"levelo_inurba_marseille","lat":43.29968,"lon":5.38507,"is_reserved":false,"is_disabled":false,"rental_uris":{"android":"levelo://app?vid=94dbeb47-806a-483d-a5e7-3996afd3f94b","ios":"levelo://app?vid=94dbeb47-806a-483d-a5e7-3996afd3f94b"},"vehicle_type_id":"4","last_reported":1742332121,"current_range_meters":6000,"station_id":"ce4bgj92rcd13ifvqbd0","pricing_plan_id":"cebpf4jnsgd1na2vs0mg"},{"bike_id":"07524944-3a89-45ea-9024-ac359b4dd760","system_id":"levelo_inurba_marseille","lat":43.3373,"lon":5.39198,"is_reserved":false,"is_disabled":false,"rental_uris":{"android":"levelo://app?vid=07524944-3a89-45ea-9024-ac359b4dd760","ios":"levelo://app?vid=07524944-3a89-45ea-9024-ac359b4dd760"},"vehicle_type_id":"4","last_reported":1742332121,"current_range_meters":6000,"station_id":"ce4bhr92rcd13ifvqhsg","pricing_plan_id":"cebpf4jnsgd1na2vs0mg"},{"bike_id":"ff147f5c-77ea-4429-aee2-59e1821277a6","system_id":"levelo_inurba_marseille","lat":43.30135,"lon":5.39876,"is_reserved":false,"is_disabled":false,"rental_uris":{"android":"levelo://app?vid=ff147f5c-77ea-4429-aee2-59e1821277a6","ios":"levelo://app?vid=ff147f5c-77ea-4429-aee2-59e1821277a6"},"vehicle_type_id":"4","last_reported":1742332121,"current_range_meters":6000,"station_id":"ce4bh0h2rcd13ifvqd40","pricing_plan_id":"cebpf4jnsgd1na2vs0mg"},{"bike_id":"ea6bdb30-917a-4b4d-bd5f-f18c9f5e3f52","system_id":"levelo_inurba_marseille","lat":43.27841,"lon":5.39211,"is_reserved":false,"is_disabled":false,"rental_uris":{"android":"levelo://app?vid=ea6bdb30-917a-4b4d-bd5f-f18c9f5e3f52","ios":"levelo://app?vid=ea6bdb30-917a-4b4d-bd5f-f18c9f5e3f52"},"vehicle_type_id":"4","last_reported":1742332121,"current_range_meters":6000,"station_id":"ce4bhjp2rcd13ifvqga0","pricing_plan_id":"cebpf4jnsgd1na2vs0mg"},{"bike_id":"9c4685f3-07ec-44f1-876e-e4f7bb01eac7","system_id":"levelo_inurba_marseille","lat":43.32365,"lon":5.38881,"is_reserved":false,"is_disabled":false,"rental_uris":{"android":"levelo://app?vid=9c4685f3-07ec-44f1-876e-e4f7bb01eac7","ios":"levelo://app?vid=9c4685f3-07ec-44f1-876e-e4f7bb01eac7"},"vehicle_type_id":"4","last_reported":1742332121,"current_range_meters":6000,"station_id":"ce4bhqp2rcd13ifvqhog","pricing_plan_id":"cebpf4jnsgd1na2vs0mg"},{"bike_id":"80dc5fd0-289a-40fa-b0b5-c7379214243e","system_id":"levelo_inurba_marseille","lat":43.28455,"lon":5.35889,"is_reserved":false,"is_disabled":false,"rental_uris":{"android":"levelo://app?vid=80dc5fd0-289a-40fa-b0b5-c7379214243e","ios":"levelo://app?vid=80dc5fd0-289a-40fa-b0b5-c7379214243e"},"vehicle_type_id":"4","last_reported":1742332121,"current_range_meters":6000,"station_id":"ce4bhah2rcd13ifvqei0","pricing_plan_id":"cebpf4jnsgd1na2vs0mg"},{"bike_id":"b30be957-4091-4091-9689-3da66932f45e","system_id":"levelo_inurba_marseille","lat":43.28424,"lon":5.34997,"is_reserved":false,"is_disabled":false,"rental_uris":{"android":"levelo://app?vid=b30be957-4091-4091-9689-3da66932f45e","ios":"levelo://app?vid=b30be957-4091-4091-9689-3da66932f45e"},"vehicle_type_id":"4","last_reported":1742332121,"current_range_meters":6000,"station_id":"ce4bhbh2rcd13ifvqepg","pricing_plan_id":"cebpf4jnsgd1na2vs0mg"},{"bike_id":"402cd330-07f1-43f7-ad4d-be190f776291","system_id":"levelo_inurba_marseille","lat":43.28353,"lon":5.38643,"is_reserved":false,"is_disabled":false,"rental_uris":{"android":"levelo://app?vid=402cd330-07f1-43f7-ad4d-be190f776291","ios":"levelo://app?vid=402cd330-07f1-43f7-ad4d-be190f776291"},"vehicle_type_id":"4","last_reported":1742332121,"current_range_meters":6400,"station_id":"ce4bh492rcd13ifvqdvg","pricing_plan_id":"cebpf4jnsgd1na2vs0mg"},{"bike_id":"ef2805ef-e758-4132-a913-9db73857c782","system_id":"levelo_inurba_marseille","lat":43.29031,"lon":5.39966,"is_reserved":false,"is_disabled":false,"rental_uris":{"android":"levelo://app?vid=ef2805ef-e758-4132-a913-9db73857c782","ios":"levelo://app?vid=ef2805ef-e758-4132-a913-9db73857c782"},"vehicle_type_id":"4","last_reported":1742332121,"current_range_meters":6400,"station_id":"ce4bhh12rcd13ifvqfg0","pricing_plan_id":"cebpf4jnsgd1na2vs0mg"},{"bike_id":"35695dd4-791c-4486-b261-10bd7a9e52e9","system_id":"levelo_inurba_marseille","lat":43.26236,"lon":5.40429,"is_reserved":false,"is_disabled":true,"rental_uris":{"android":"levelo://app?vid=35695dd4-791c-4486-b261-10bd7a9e52e9","ios":"levelo://app?vid=35695dd4-791c-4486-b261-10bd7a9e52e9"},"vehicle_type_id":"4","last_reported":1742332121,"current_range_meters":6400,"station_id":"ce4bhmh2rcd13ifvqgmg","pricing_plan_id":"cebpf4jnsgd1na2vs0mg"},{"bike_id":"2d4befcd-2256-4d25-937c-666a97bd8fe6","system_id":"levelo_inurba_marseille","lat":43.231539,"lon":5.437132,"is_reserved":false,"is_disabled":false,"rental_uris":{"android":"levelo://app?vid=2d4befcd-2256-4d25-937c-666a97bd8fe6","ios":"levelo://app?vid=2d4befcd-2256-4d25-937c-666a97bd8fe6"},"vehicle_type_id":"4","last_reported":1742332121,"current_range_meters":12400,"station_id":"ce4bhhp2rcd13ifvqfm0","pricing_plan_id":"cebpf4jnsgd1na2vs0mg"},{"bike_id":"0d3accb9-853e-4df0-b9d8-4607b8048f46","system_id":"levelo_inurba_marseille","lat":43.24166,"lon":5.36393,"is_reserved":false,"is_disabled":false,"rental_uris":{"android":"levelo://app?vid=0d3accb9-853e-4df0-b9d8-4607b8048f46","ios":"levelo://app?vid=0d3accb9-853e-4df0-b9d8-4607b8048f46"},"vehicle_type_id":"4","last_reported":1742332121,"current_range_meters":6400,"station_id":"cpo36qri1sfpv3e86is0","pricing_plan_id":"cebpf4jnsgd1na2vs0mg"},{"bike_id":"5e9eff88-fef2-4db1-a81e-8bad6d3dcfb2","system_id":"levelo_inurba_marseille","lat":43.2953,"lon":5.39393,"is_reserved":false,"is_disabled":false,"rental_uris":{"android":"levelo://app?vid=5e9eff88-fef2-4db1-a81e-8bad6d3dcfb2","ios":"levelo://app?vid=5e9eff88-fef2-4db1-a81e-8bad6d3dcfb2"},"vehicle_type_id":"4","last_reported":1742332121,"current_range_meters":6400,"station_id":"ce4bh292rcd13ifvqdf0","pricing_plan_id":"cebpf4jnsgd1na2vs0mg"},{"bike_id":"8fe7e33b-57fc-439c-ba02-015988635c80","system_id":"levelo_inurba_marseille","lat":43.27059,"lon":5.42271,"is_reserved":false,"is_disabled":true,"rental_uris":{"android":"levelo://app?vid=8fe7e33b-57fc-439c-ba02-015988635c80","ios":"levelo://app?vid=8fe7e33b-57fc-439c-ba02-015988635c80"},"vehicle_type_id":"4","last_reported":1742332121,"current_range_meters":6400,"station_id":"ce4bhk92rcd13ifvqgb0","pricing_plan_id":"cebpf4jnsgd1na2vs0mg"},{"bike_id":"a37fbc86-e575-4ffd-a4db-f74394b2d7d6","system_id":"levelo_inurba_marseille","lat":43.2904,"lon":5.37155,"is_reserved":false,"is_disabled":false,"rental_uris":{"android":"levelo://app?vid=a37fbc86-e575-4ffd-a4db-f74394b2d7d6","ios":"levelo://app?vid=a37fbc86-e575-4ffd-a4db-f74394b2d7d6"},"vehicle_type_id":"4","last_reported":1742332121,"current_range_meters":6400,"station_id":"ce4bh5p2rcd13ifvqe4g","pricing_plan_id":"cebpf4jnsgd1na2vs0mg"},{"bike_id":"bf53558a-323c-40e3-9c37-ac64ba388e1c","system_id":"levelo_inurba_marseille","lat":43.2397,"lon":5.3663,"is_reserved":false,"is_disabled":false,"rental_uris":{"android":"levelo://app?vid=bf53558a-323c-40e3-9c37-ac64ba388e1c","ios":"levelo://app?vid=bf53558a-323c-40e3-9c37-ac64ba388e1c"},"vehicle_type_id":"4","last_reported":1742332121,"current_range_meters":6400,"station_id":"ce4bhi12rcd13ifvqfp0","pricing_plan_id":"cebpf4jnsgd1na2vs0mg"},{"bike_id":"8f4a1035-d582-466c-ad9f-703b302df8c4","system_id":"levelo_inurba_marseille","lat":43.32363,"lon":5.38889,"is_reserved":false,"is_disabled":false,"rental_uris":{"android":"levelo://app?vid=8f4a1035-d582-466c-ad9f-703b302df8c4","ios":"levelo://app?vid=8f4a1035-d582-466c-ad9f-703b302df8c4"},"vehicle_type_id":"4","last_reported":1742332121,"current_range_meters":6400,"station_id":"ce4bhqp2rcd13ifvqhog","pricing_plan_id":"cebpf4jnsgd1na2vs0mg"},{"bike_id":"6368f354-6da7-4884-a394-062f1a963ed6","system_id":"levelo_inurba_marseille","lat":43.2931,"lon":5.42797,"is_reserved":false,"is_disabled":false,"rental_uris":{"android":"levelo://app?vid=6368f354-6da7-4884-a394-062f1a963ed6","ios":"levelo://app?vid=6368f354-6da7-4884-a394-062f1a963ed6"},"vehicle_type_id":"4","last_reported":1742332121,"current_range_meters":6400,"station_id":"","pricing_plan_id":"cebpf4jnsgd1na2vs0mg"},{"bike_id":"f5c97f8a-2624-4b99-bdf9-59f10ff7cfce","system_id":"levelo_inurba_marseille","lat":43.27618,"lon":5.36119,"is_reserved":false,"is_disabled":false,"rental_uris":{"android":"levelo://app?vid=f5c97f8a-2624-4b99-bdf9-59f10ff7cfce","ios":"levelo://app?vid=f5c97f8a-2624-4b99-bdf9-59f10ff7cfce"},"vehicle_type_id":"4","last_reported":1742332121,"current_range_meters":6800,"station_id":"ce4bgj92rcd13ifvqbe0","pricing_plan_id":"cebpf4jnsgd1na2vs0mg"},{"bike_id":"a4b00b95-b89e-45e2-a04c-97a61ff67bcd","system_id":"levelo_inurba_marseille","lat":43.29787,"lon":5.37097,"is_reserved":false,"is_disabled":false,"rental_uris":{"android":"levelo://app?vid=a4b00b95-b89e-45e2-a04c-97a61ff67bcd","ios":"levelo://app?vid=a4b00b95-b89e-45e2-a04c-97a61ff67bcd"},"vehicle_type_id":"4","last_reported":1742332121,"current_range_meters":6800,"station_id":"ce4bgop2rcd13ifvqc1g","pricing_plan_id":"cebpf4jnsgd1na2vs0mg"},{"bike_id":"97a1e633-c2b3-487e-8569-9036bf18d175","system_id":"levelo_inurba_marseille","lat":43.24183,"lon":5.36389,"is_reserved":false,"is_disabled":false,"rental_uris":{"android":"levelo://app?vid=97a1e633-c2b3-487e-8569-9036bf18d175","ios":"levelo://app?vid=97a1e633-c2b3-487e-8569-9036bf18d175"},"vehicle_type_id":"4","last_reported":1742332121,"current_range_meters":6800,"station_id":"cpo36qri1sfpv3e86is0","pricing_plan_id":"cebpf4jnsgd1na2vs0mg"},{"bike_id":"db85a551-7379-4999-871e-b1611c31baae","system_id":"levelo_inurba_marseille","lat":43.27838,"lon":5.39218,"is_reserved":false,"is_disabled":false,"rental_uris":{"android":"levelo://app?vid=db85a551-7379-4999-871e-b1611c31baae","ios":"levelo://app?vid=db85a551-7379-4999-871e-b1611c31baae"},"vehicle_type_id":"4","last_reported":1742332121,"current_range_meters":6800,"station_id":"ce4bhjp2rcd13ifvqga0","pricing_plan_id":"cebpf4jnsgd1na2vs0mg"},{"bike_id":"be8ce97b-e21b-4341-ad16-8e531831f66a","system_id":"levelo_inurba_marseille","lat":43.26781,"lon":5.39411,"is_reserved":false,"is_disabled":false,"rental_uris":{"android":"levelo://app?vid=be8ce97b-e21b-4341-ad16-8e531831f66a","ios":"levelo://app?vid=be8ce97b-e21b-4341-ad16-8e531831f66a"},"vehicle_type_id":"4","last_reported":1742332121,"current_range_meters":6800,"station_id":"ce4bhh12rcd13ifvqfg0","pricing_plan_id":"cebpf4jnsgd1na2vs0mg"},{"bike_id":"c848e6bc-f2b3-48a5-9ba5-f3ecb77266a6","system_id":"levelo_inurba_marseille","lat":43.27283,"lon":5.39134,"is_reserved":false,"is_disabled":true,"rental_uris":{"android":"levelo://app?vid=c848e6bc-f2b3-48a5-9ba5-f3ecb77266a6","ios":"levelo://app?vid=c848e6bc-f2b3-48a5-9ba5-f3ecb77266a6"},"vehicle_type_id":"4","last_reported":1742332121,"current_range_meters":6800,"station_id":"ce4bhgp2rcd13ifvqfe0","pricing_plan_id":"cebpf4jnsgd1na2vs0mg"},{"bike_id":"8a4e1b2e-8fac-480b-a668-ef6a620a9814","system_id":"levelo_inurba_marseille","lat":43.27859,"lon":5.42427,"is_reserved":false,"is_disabled":false,"rental_uris":{"android":"levelo://app?vid=8a4e1b2e-8fac-480b-a668-ef6a620a9814","ios":"levelo://app?vid=8a4e1b2e-8fac-480b-a668-ef6a620a9814"},"vehicle_type_id":"4","last_reported":1742332121,"current_range_meters":6800,"station_id":"","pricing_plan_id":"cebpf4jnsgd1na2vs0mg"},{"bike_id":"e94b1f20-3e0e-4dcb-9056-1e4af333e85a","system_id":"levelo_inurba_marseille","lat":43.29201,"lon":5.39318,"is_reserved":false,"is_disabled":false,"rental_uris":{"android":"levelo://app?vid=e94b1f20-3e0e-4dcb-9056-1e4af333e85a","ios":"levelo://app?vid=e94b1f20-3e0e-4dcb-9056-1e4af333e85a"},"vehicle_type_id":"4","last_reported":1742332121,"current_range_meters":6800,"station_id":"ce4bh192rcd13ifvqdd0","pricing_plan_id":"cebpf4jnsgd1na2vs0mg"},{"bike_id":"f4b56c1a-33f1-4457-a9fe-e3b112a9ec75","system_id":"levelo_inurba_marseille","lat":43.31173,"lon":5.38711,"is_reserved":false,"is_disabled":false,"rental_uris":{"android":"levelo://app?vid=f4b56c1a-33f1-4457-a9fe-e3b112a9ec75","ios":"levelo://app?vid=f4b56c1a-33f1-4457-a9fe-e3b112a9ec75"},"vehicle_type_id":"4","last_reported":1742332121,"current_range_meters":6800,"station_id":"ce4bgv12rcd13ifvqcp0","pricing_plan_id":"cebpf4jnsgd1na2vs0mg"},{"bike_id":"5905a51d-8934-42a2-8bb6-7e2893bcf7e4","system_id":"levelo_inurba_marseille","lat":43.29793,"lon":5.39354,"is_reserved":false,"is_disabled":false,"rental_uris":{"android":"levelo://app?vid=5905a51d-8934-42a2-8bb6-7e2893bcf7e4","ios":"levelo://app?vid=5905a51d-8934-42a2-8bb6-7e2893bcf7e4"},"vehicle_type_id":"4","last_reported":1742332121,"current_range_meters":7200,"station_id":"chh1huq6cuj3fo74tm60","pricing_plan_id":"cebpf4jnsgd1na2vs0mg"},{"bike_id":"a31c77d8-4378-47d6-8c3a-a5063f16fc9d","system_id":"levelo_inurba_marseille","lat":43.27838,"lon":5.40699,"is_reserved":false,"is_disabled":false,"rental_uris":{"android":"levelo://app?vid=a31c77d8-4378-47d6-8c3a-a5063f16fc9d","ios":"levelo://app?vid=a31c77d8-4378-47d6-8c3a-a5063f16fc9d"},"vehicle_type_id":"4","last_reported":1742332121,"current_range_meters":7200,"station_id":"ce4bhnh2rcd13ifvqgtg","pricing_plan_id":"cebpf4jnsgd1na2vs0mg"},{"bike_id":"e56c127b-dc05-4e18-bc0b-ba8b592cba75","system_id":"levelo_inurba_marseille","lat":43.29443,"lon":5.39745,"is_reserved":false,"is_disabled":false,"rental_uris":{"android":"levelo://app?vid=e56c127b-dc05-4e18-bc0b-ba8b592cba75","ios":"levelo://app?vid=e56c127b-dc05-4e18-bc0b-ba8b592cba75"},"vehicle_type_id":"4","last_reported":1742332121,"current_range_meters":7200,"station_id":"ce4bh3h2rcd13ifvqdo0","pricing_plan_id":"cebpf4jnsgd1na2vs0mg"},{"bike_id":"608c6f4a-f0b8-46f8-932c-6193da1c8162","system_id":"levelo_inurba_marseille","lat":43.2953,"lon":5.42283,"is_reserved":false,"is_disabled":false,"rental_uris":{"android":"levelo://app?vid=608c6f4a-f0b8-46f8-932c-6193da1c8162","ios":"levelo://app?vid=608c6f4a-f0b8-46f8-932c-6193da1c8162"},"vehicle_type_id":"4","last_reported":1742332121,"current_range_meters":7200,"station_id":"ce4bhph2rcd13ifvqhdg","pricing_plan_id":"cebpf4jnsgd1na2vs0mg"},{"bike_id":"e9eef05b-c5f6-4f20-9fc3-55fb9768ade2","system_id":"levelo_inurba_marseille","lat":43.28465,"lon":5.35875,"is_reserved":false,"is_disabled":false,"rental_uris":{"android":"levelo://app?vid=e9eef05b-c5f6-4f20-9fc3-55fb9768ade2","ios":"levelo://app?vid=e9eef05b-c5f6-4f20-9fc3-55fb9768ade2"},"vehicle_type_id":"4","last_reported":1742332121,"current_range_meters":7200,"station_id":"ce4bhah2rcd13ifvqei0","pricing_plan_id":"cebpf4jnsgd1na2vs0mg"},{"bike_id":"49d039d6-167b-4376-a567-73a892310ccd","system_id":"levelo_inurba_marseille","lat":43.28431,"lon":5.3922,"is_reserved":false,"is_disabled":false,"rental_uris":{"android":"levelo://app?vid=49d039d6-167b-4376-a567-73a892310ccd","ios":"levelo://app?vid=49d039d6-167b-4376-a567-73a892310ccd"},"vehicle_type_id":"4","last_reported":1742332121,"current_range_meters":7200,"station_id":"ce4bhoh2rcd13ifvqh5g","pricing_plan_id":"cebpf4jnsgd1na2vs0mg"},{"bike_id":"5f18dccc-00e2-489c-bcff-01a6f3bb01ff","system_id":"levelo_inurba_marseille","lat":43.29039,"lon":5.39976,"is_reserved":false,"is_disabled":false,"rental_uris":{"android":"levelo://app?vid=5f18dccc-00e2-489c-bcff-01a6f3bb01ff","ios":"levelo://app?vid=5f18dccc-00e2-489c-bcff-01a6f3bb01ff"},"vehicle_type_id":"4","last_reported":1742332121,"current_range_meters":7200,"station_id":"ce4bh392rcd13ifvqdm0","pricing_plan_id":"cebpf4jnsgd1na2vs0mg"},{"bike_id":"4074eb63-3c40-43e7-86d2-af79b4dc3efb","system_id":"levelo_inurba_marseille","lat":43.2985,"lon":5.36368,"is_reserved":false,"is_disabled":false,"rental_uris":{"android":"levelo://app?vid=4074eb63-3c40-43e7-86d2-af79b4dc3efb","ios":"levelo://app?vid=4074eb63-3c40-43e7-86d2-af79b4dc3efb"},"vehicle_type_id":"4","last_reported":1742332121,"current_range_meters":8000,"station_id":"","pricing_plan_id":"cebpf4jnsgd1na2vs0mg"},{"bike_id":"97793583-9a74-480c-8eb2-a4367ece921c","system_id":"levelo_inurba_marseille","lat":43.30781,"lon":5.37656,"is_reserved":false,"is_disabled":false,"rental_uris":{"android":"levelo://app?vid=97793583-9a74-480c-8eb2-a4367ece921c","ios":"levelo://app?vid=97793583-9a74-480c-8eb2-a4367ece921c"},"vehicle_type_id":"4","last_reported":1742332121,"current_range_meters":8000,"station_id":"ce4bgv92rcd13ifvqcq0","pricing_plan_id":"cebpf4jnsgd1na2vs0mg"},{"bike_id":"6e874661-bb50-4aba-b5e1-20f06a0b350d","system_id":"levelo_inurba_marseille","lat":43.30794,"lon":5.38141,"is_reserved":false,"is_disabled":false,"rental_uris":{"android":"levelo://app?vid=6e874661-bb50-4aba-b5e1-20f06a0b350d","ios":"levelo://app?vid=6e874661-bb50-4aba-b5e1-20f06a0b350d"},"vehicle_type_id":"4","last_reported":1742332121,"current_range_meters":8000,"station_id":"ce4bgt12rcd13ifvqce0","pricing_plan_id":"cebpf4jnsgd1na2vs0mg"},{"bike_id":"b1d9f1af-d8f9-4b97-a270-4bf890a49af9","system_id":"levelo_inurba_marseille","lat":43.28399,"lon":5.37517,"is_reserved":false,"is_disabled":false,"rental_uris":{"android":"levelo://app?vid=b1d9f1af-d8f9-4b97-a270-4bf890a49af9","ios":"levelo://app?vid=b1d9f1af-d8f9-4b97-a270-4bf890a49af9"},"vehicle_type_id":"4","last_reported":1742332121,"current_range_meters":8000,"station_id":"ce4bh412rcd13ifvqds0","pricing_plan_id":"cebpf4jnsgd1na2vs0mg"},{"bike_id":"fe67d4d5-2efd-4a2d-8d85-86a1e84c1bb0","system_id":"levelo_inurba_marseille","lat":43.25082,"lon":5.39516,"is_reserved":false,"is_disabled":false,"rental_uris":{"android":"levelo://app?vid=fe67d4d5-2efd-4a2d-8d85-86a1e84c1bb0","ios":"levelo://app?vid=fe67d4d5-2efd-4a2d-8d85-86a1e84c1bb0"},"vehicle_type_id":"4","last_reported":1742332121,"current_range_meters":8000,"station_id":"ce4bhm12rcd13ifvqgkg","pricing_plan_id":"cebpf4jnsgd1na2vs0mg"},{"bike_id":"52bd4f14-775f-459f-9791-851d088e69cb","system_id":"levelo_inurba_marseille","lat":43.24998,"lon":5.38921,"is_reserved":false,"is_disabled":false,"rental_uris":{"android":"levelo://app?vid=52bd4f14-775f-459f-9791-851d088e69cb","ios":"levelo://app?vid=52bd4f14-775f-459f-9791-851d088e69cb"},"vehicle_type_id":"4","last_reported":1742332121,"current_range_meters":8000,"station_id":"ce4bhgp2rcd13ifvqfd0","pricing_plan_id":"cebpf4jnsgd1na2vs0mg"},{"bike_id":"05f500f2-ae0f-4f51-b308-035cc001963c","system_id":"levelo_inurba_marseille","lat":43.27807,"lon":5.40717,"is_reserved":false,"is_disabled":false,"rental_uris":{"android":"levelo://app?vid=05f500f2-ae0f-4f51-b308-035cc001963c","ios":"levelo://app?vid=05f500f2-ae0f-4f51-b308-035cc001963c"},"vehicle_type_id":"4","last_reported":1742332121,"current_range_meters":8000,"station_id":"ce4bhnh2rcd13ifvqgtg","pricing_plan_id":"cebpf4jnsgd1na2vs0mg"},{"bike_id":"bc1c6cb2-f570-411d-9fcd-cdf964b3ea03","system_id":"levelo_inurba_marseille","lat":43.31326,"lon":5.39718,"is_reserved":false,"is_disabled":false,"rental_uris":{"android":"levelo://app?vid=bc1c6cb2-f570-411d-9fcd-cdf964b3ea03","ios":"levelo://app?vid=bc1c6cb2-f570-411d-9fcd-cdf964b3ea03"},"vehicle_type_id":"4","last_reported":1742332121,"current_range_meters":8000,"station_id":"ce4bgvp2rcd13ifvqcu0","pricing_plan_id":"cebpf4jnsgd1na2vs0mg"},{"bike_id":"8528cfd6-758c-4197-aaac-800294acfea6","system_id":"levelo_inurba_marseille","lat":43.25863,"lon":5.39902,"is_reserved":false,"is_disabled":false,"rental_uris":{"android":"levelo://app?vid=8528cfd6-758c-4197-aaac-800294acfea6","ios":"levelo://app?vid=8528cfd6-758c-4197-aaac-800294acfea6"},"vehicle_type_id":"4","last_reported":1742332121,"current_range_meters":8000,"station_id":"ce4bhl92rcd13ifvqghg","pricing_plan_id":"cebpf4jnsgd1na2vs0mg"},{"bike_id":"96f677c6-75ad-4282-91fc-bf0cd07bacd7","system_id":"levelo_inurba_marseille","lat":43.3033,"lon":5.40423,"is_reserved":false,"is_disabled":false,"rental_uris":{"android":"levelo://app?vid=96f677c6-75ad-4282-91fc-bf0cd07bacd7","ios":"levelo://app?vid=96f677c6-75ad-4282-91fc-bf0cd07bacd7"},"vehicle_type_id":"4","last_reported":1742332121,"current_range_meters":8000,"station_id":"ce4bh012rcd13ifvqd10","pricing_plan_id":"cebpf4jnsgd1na2vs0mg"},{"bike_id":"8b58540f-1057-48ac-95ef-922b5f2bd2a2","system_id":"levelo_inurba_marseille","lat":43.28478,"lon":5.35885,"is_reserved":false,"is_disabled":false,"rental_uris":{"android":"levelo://app?vid=8b58540f-1057-48ac-95ef-922b5f2bd2a2","ios":"levelo://app?vid=8b58540f-1057-48ac-95ef-922b5f2bd2a2"},"vehicle_type_id":"4","last_reported":1742332121,"current_range_meters":8000,"station_id":"ce4bhah2rcd13ifvqei0","pricing_plan_id":"cebpf4jnsgd1na2vs0mg"},{"bike_id":"9c47177a-7452-479f-9af2-f5dddd6db58b","system_id":"levelo_inurba_marseille","lat":43.33024,"lon":5.39041,"is_reserved":false,"is_disabled":false,"rental_uris":{"android":"levelo://app?vid=9c47177a-7452-479f-9af2-f5dddd6db58b","ios":"levelo://app?vid=9c47177a-7452-479f-9af2-f5dddd6db58b"},"vehicle_type_id":"4","last_reported":1742332121,"current_range_meters":8000,"station_id":"ce4bhr92rcd13ifvqhrg","pricing_plan_id":"cebpf4jnsgd1na2vs0mg"},{"bike_id":"59f8cf95-900d-4a12-8e6f-81a600be174d","system_id":"levelo_inurba_marseille","lat":43.28852,"lon":5.35854,"is_reserved":false,"is_disabled":false,"rental_uris":{"android":"levelo://app?vid=59f8cf95-900d-4a12-8e6f-81a600be174d","ios":"levelo://app?vid=59f8cf95-900d-4a12-8e6f-81a600be174d"},"vehicle_type_id":"4","last_reported":1742332121,"current_range_meters":8000,"station_id":"ce4bhb12rcd13ifvqem0","pricing_plan_id":"cebpf4jnsgd1na2vs0mg"},{"bike_id":"5e188294-c515-4978-8bd5-ef373d671c58","system_id":"levelo_inurba_marseille","lat":43.30535,"lon":5.36705,"is_reserved":false,"is_disabled":false,"rental_uris":{"android":"levelo://app?vid=5e188294-c515-4978-8bd5-ef373d671c58","ios":"levelo://app?vid=5e188294-c515-4978-8bd5-ef373d671c58"},"vehicle_type_id":"4","last_reported":1742332121,"current_range_meters":8000,"station_id":"ce4bgrp2rcd13ifvqc9g","pricing_plan_id":"cebpf4jnsgd1na2vs0mg"},{"bike_id":"faccb755-09d8-4857-a76e-a52465dbf53e","system_id":"levelo_inurba_marseille","lat":43.28423,"lon":5.34998,"is_reserved":false,"is_disabled":false,"rental_uris":{"android":"levelo://app?vid=faccb755-09d8-4857-a76e-a52465dbf53e","ios":"levelo://app?vid=faccb755-09d8-4857-a76e-a52465dbf53e"},"vehicle_type_id":"4","last_reported":1742332121,"current_range_meters":8400,"station_id":"ce4bhbh2rcd13ifvqepg","pricing_plan_id":"cebpf4jnsgd1na2vs0mg"},{"bike_id":"03ac0280-58c9-4985-8cd8-a2281ba26614","system_id":"levelo_inurba_marseille","lat":43.29522,"lon":5.39402,"is_reserved":false,"is_disabled":false,"rental_uris":{"android":"levelo://app?vid=03ac0280-58c9-4985-8cd8-a2281ba26614","ios":"levelo://app?vid=03ac0280-58c9-4985-8cd8-a2281ba26614"},"vehicle_type_id":"4","last_reported":1742332121,"current_range_meters":8400,"station_id":"ce4bh292rcd13ifvqdf0","pricing_plan_id":"cebpf4jnsgd1na2vs0mg"},{"bike_id":"9255e77f-8863-44ce-9393-b8cf3cfc7cde","system_id":"levelo_inurba_marseille","lat":43.27843,"lon":5.39204,"is_reserved":false,"is_disabled":false,"rental_uris":{"android":"levelo://app?vid=9255e77f-8863-44ce-9393-b8cf3cfc7cde","ios":"levelo://app?vid=9255e77f-8863-44ce-9393-b8cf3cfc7cde"},"vehicle_type_id":"4","last_reported":1742332121,"current_range_meters":8400,"station_id":"ce4bhjp2rcd13ifvqga0","pricing_plan_id":"cebpf4jnsgd1na2vs0mg"},{"bike_id":"87abaf66-9fc5-4cf1-84c5-1f3afd52d3df","system_id":"levelo_inurba_marseille","lat":43.2482,"lon":5.37448,"is_reserved":false,"is_disabled":false,"rental_uris":{"android":"levelo://app?vid=87abaf66-9fc5-4cf1-84c5-1f3afd52d3df","ios":"levelo://app?vid=87abaf66-9fc5-4cf1-84c5-1f3afd52d3df"},"vehicle_type_id":"4","last_reported":1742332121,"current_range_meters":8400,"station_id":"ce4bhgh2rcd13ifvqfb0","pricing_plan_id":"cebpf4jnsgd1na2vs0mg"},{"bike_id":"d0ecd06f-b344-485c-8550-9fa5bf448f53","system_id":"levelo_inurba_marseille","lat":43.25825,"lon":5.39433,"is_reserved":false,"is_disabled":false,"rental_uris":{"android":"levelo://app?vid=d0ecd06f-b344-485c-8550-9fa5bf448f53","ios":"levelo://app?vid=d0ecd06f-b344-485c-8550-9fa5bf448f53"},"vehicle_type_id":"4","last_reported":1742332121,"current_range_meters":8400,"station_id":"ce4bhip2rcd13ifvqft0","pricing_plan_id":"cebpf4jnsgd1na2vs0mg"},{"bike_id":"5cc7107b-4638-44b7-9016-fb56a8137a82","system_id":"levelo_inurba_marseille","lat":43.32979,"lon":5.38978,"is_reserved":false,"is_disabled":false,"rental_uris":{"android":"levelo://app?vid=5cc7107b-4638-44b7-9016-fb56a8137a82","ios":"levelo://app?vid=5cc7107b-4638-44b7-9016-fb56a8137a82"},"vehicle_type_id":"4","last_reported":1742332121,"current_range_meters":8400,"station_id":"","pricing_plan_id":"cebpf4jnsgd1na2vs0mg"},{"bike_id":"d391f222-d8eb-4910-a98c-c192fe410230","system_id":"levelo_inurba_marseille","lat":43.28464,"lon":5.35872,"is_reserved":false,"is_disabled":false,"rental_uris":{"android":"levelo://app?vid=d391f222-d8eb-4910-a98c-c192fe410230","ios":"levelo://app?vid=d391f222-d8eb-4910-a98c-c192fe410230"},"vehicle_type_id":"4","last_reported":1742332121,"current_range_meters":8400,"station_id":"ce4bhah2rcd13ifvqei0","pricing_plan_id":"cebpf4jnsgd1na2vs0mg"},{"bike_id":"15645d94-7469-4019-9aed-16b0915fbe2f","system_id":"levelo_inurba_marseille","lat":43.32865,"lon":5.39145,"is_reserved":false,"is_disabled":false,"rental_uris":{"android":"levelo://app?vid=15645d94-7469-4019-9aed-16b0915fbe2f","ios":"levelo://app?vid=15645d94-7469-4019-9aed-16b0915fbe2f"},"vehicle_type_id":"4","last_reported":1742332121,"current_range_meters":8400,"station_id":"","pricing_plan_id":"cebpf4jnsgd1na2vs0mg"},{"bike_id":"b73118fa-b0b5-4061-8fd0-7185cc8f81b6","system_id":"levelo_inurba_marseille","lat":43.30305,"lon":5.39216,"is_reserved":false,"is_disabled":false,"rental_uris":{"android":"levelo://app?vid=b73118fa-b0b5-4061-8fd0-7185cc8f81b6","ios":"levelo://app?vid=b73118fa-b0b5-4061-8fd0-7185cc8f81b6"},"vehicle_type_id":"4","last_reported":1742332121,"current_range_meters":8400,"station_id":"ce4bgkh2rcd13ifvqbk0","pricing_plan_id":"cebpf4jnsgd1na2vs0mg"},{"bike_id":"13315df1-a3f2-474d-bbd6-237e8cca5bfd","system_id":"levelo_inurba_marseille","lat":43.29864,"lon":5.3974,"is_reserved":false,"is_disabled":false,"rental_uris":{"android":"levelo://app?vid=13315df1-a3f2-474d-bbd6-237e8cca5bfd","ios":"levelo://app?vid=13315df1-a3f2-474d-bbd6-237e8cca5bfd"},"vehicle_type_id":"4","last_reported":1742332121,"current_range_meters":8400,"station_id":"ce4bh0h2rcd13ifvqd50","pricing_plan_id":"cebpf4jnsgd1na2vs0mg"},{"bike_id":"8bfc242c-df93-4661-bdab-462c9f15b0d7","system_id":"levelo_inurba_marseille","lat":43.31169,"lon":5.38724,"is_reserved":false,"is_disabled":false,"rental_uris":{"android":"levelo://app?vid=8bfc242c-df93-4661-bdab-462c9f15b0d7","ios":"levelo://app?vid=8bfc242c-df93-4661-bdab-462c9f15b0d7"},"vehicle_type_id":"4","last_reported":1742332121,"current_range_meters":8400,"station_id":"ce4bgv12rcd13ifvqcp0","pricing_plan_id":"cebpf4jnsgd1na2vs0mg"},{"bike_id":"f0cfae8c-2352-456b-af91-ea80b4b77aed","system_id":"levelo_inurba_marseille","lat":43.29976,"lon":5.37172,"is_reserved":false,"is_disabled":false,"rental_uris":{"android":"levelo://app?vid=f0cfae8c-2352-456b-af91-ea80b4b77aed","ios":"levelo://app?vid=f0cfae8c-2352-456b-af91-ea80b4b77aed"},"vehicle_type_id":"4","last_reported":1742332121,"current_range_meters":8400,"station_id":"ce4bgr92rcd13ifvqc7g","pricing_plan_id":"cebpf4jnsgd1na2vs0mg"},{"bike_id":"986f8a86-f05a-4fc7-b6b7-86d4f4cad993","system_id":"levelo_inurba_marseille","lat":43.27659,"lon":5.38877,"is_reserved":false,"is_disabled":false,"rental_uris":{"android":"levelo://app?vid=986f8a86-f05a-4fc7-b6b7-86d4f4cad993","ios":"levelo://app?vid=986f8a86-f05a-4fc7-b6b7-86d4f4cad993"},"vehicle_type_id":"4","last_reported":1742332121,"current_range_meters":8400,"station_id":"ce4bhi12rcd13ifvqfo0","pricing_plan_id":"cebpf4jnsgd1na2vs0mg"},{"bike_id":"38233fcc-45aa-475d-b774-1f1525a8fb6d","system_id":"levelo_inurba_marseille","lat":43.26059,"lon":5.39396,"is_reserved":false,"is_disabled":false,"rental_uris":{"android":"levelo://app?vid=38233fcc-45aa-475d-b774-1f1525a8fb6d","ios":"levelo://app?vid=38233fcc-45aa-475d-b774-1f1525a8fb6d"},"vehicle_type_id":"4","last_reported":1742332121,"current_range_meters":8400,"station_id":"ce4bhh92rcd13ifvqfj0","pricing_plan_id":"cebpf4jnsgd1na2vs0mg"},{"bike_id":"bd871439-3fbb-40fa-a0e9-b366bd72e931","system_id":"levelo_inurba_marseille","lat":43.29794,"lon":5.39342,"is_reserved":false,"is_disabled":false,"rental_uris":{"android":"levelo://app?vid=bd871439-3fbb-40fa-a0e9-b366bd72e931","ios":"levelo://app?vid=bd871439-3fbb-40fa-a0e9-b366bd72e931"},"vehicle_type_id":"4","last_reported":1742332121,"current_range_meters":8400,"station_id":"chh1huq6cuj3fo74tm60","pricing_plan_id":"cebpf4jnsgd1na2vs0mg"},{"bike_id":"ab958f0d-4610-4713-b613-2b876456af05","system_id":"levelo_inurba_marseille","lat":43.30422,"lon":5.39758,"is_reserved":false,"is_disabled":false,"rental_uris":{"android":"levelo://app?vid=ab958f0d-4610-4713-b613-2b876456af05","ios":"levelo://app?vid=ab958f0d-4610-4713-b613-2b876456af05"},"vehicle_type_id":"4","last_reported":1742332121,"current_range_meters":8400,"station_id":"ce4bh092rcd13ifvqd20","pricing_plan_id":"cebpf4jnsgd1na2vs0mg"},{"bike_id":"c615b7dd-2094-4974-82b8-2a84922ae42d","system_id":"levelo_inurba_marseille","lat":43.25491,"lon":5.3766,"is_reserved":false,"is_disabled":false,"rental_uris":{"android":"levelo://app?vid=c615b7dd-2094-4974-82b8-2a84922ae42d","ios":"levelo://app?vid=c615b7dd-2094-4974-82b8-2a84922ae42d"},"vehicle_type_id":"4","last_reported":1742332121,"current_range_meters":8400,"station_id":"ce4bhh12rcd13ifvqff0","pricing_plan_id":"cebpf4jnsgd1na2vs0mg"},{"bike_id":"8f79f3b7-6513-4def-bb2d-05a7d82b97a5","system_id":"levelo_inurba_marseille","lat":43.24161,"lon":5.36391,"is_reserved":false,"is_disabled":false,"rental_uris":{"android":"levelo://app?vid=8f79f3b7-6513-4def-bb2d-05a7d82b97a5","ios":"levelo://app?vid=8f79f3b7-6513-4def-bb2d-05a7d82b97a5"},"vehicle_type_id":"4","last_reported":1742332121,"current_range_meters":8400,"station_id":"cpo36qri1sfpv3e86is0","pricing_plan_id":"cebpf4jnsgd1na2vs0mg"},{"bike_id":"0b60e72b-d8b1-4266-9b63-b94b87c1ad4b","system_id":"levelo_inurba_marseille","lat":43.23188,"lon":5.3999,"is_reserved":false,"is_disabled":false,"rental_uris":{"android":"levelo://app?vid=0b60e72b-d8b1-4266-9b63-b94b87c1ad4b","ios":"levelo://app?vid=0b60e72b-d8b1-4266-9b63-b94b87c1ad4b"},"vehicle_type_id":"4","last_reported":1742332121,"current_range_meters":8800,"station_id":"ce4bhn12rcd13ifvqgqg","pricing_plan_id":"cebpf4jnsgd1na2vs0mg"},{"bike_id":"bf851786-cfd2-4b4a-a4f0-07ea47005cae","system_id":"levelo_inurba_marseille","lat":43.24797,"lon":5.37462,"is_reserved":false,"is_disabled":false,"rental_uris":{"android":"levelo://app?vid=bf851786-cfd2-4b4a-a4f0-07ea47005cae","ios":"levelo://app?vid=bf851786-cfd2-4b4a-a4f0-07ea47005cae"},"vehicle_type_id":"4","last_reported":1742332121,"current_range_meters":8800,"station_id":"ce4bhgh2rcd13ifvqfb0","pricing_plan_id":"cebpf4jnsgd1na2vs0mg"},{"bike_id":"f8e329e0-c5dd-4c4c-baeb-f2151696dbb0","system_id":"levelo_inurba_marseille","lat":43.27061,"lon":5.42275,"is_reserved":false,"is_disabled":false,"rental_uris":{"android":"levelo://app?vid=f8e329e0-c5dd-4c4c-baeb-f2151696dbb0","ios":"levelo://app?vid=f8e329e0-c5dd-4c4c-baeb-f2151696dbb0"},"vehicle_type_id":"4","last_reported":1742332121,"current_range_meters":8800,"station_id":"ce4bhk92rcd13ifvqgb0","pricing_plan_id":"cebpf4jnsgd1na2vs0mg"},{"bike_id":"a95ed2dc-d497-42f5-8de6-cdd9bab42b57","system_id":"levelo_inurba_marseille","lat":43.26793,"lon":5.39413,"is_reserved":false,"is_disabled":false,"rental_uris":{"android":"levelo://app?vid=a95ed2dc-d497-42f5-8de6-cdd9bab42b57","ios":"levelo://app?vid=a95ed2dc-d497-42f5-8de6-cdd9bab42b57"},"vehicle_type_id":"4","last_reported":1742332121,"current_range_meters":8800,"station_id":"ce4bhh12rcd13ifvqfg0","pricing_plan_id":"cebpf4jnsgd1na2vs0mg"},{"bike_id":"97a1102f-72be-412e-9d70-9d701fe6fa12","system_id":"levelo_inurba_marseille","lat":43.27362,"lon":5.36258,"is_reserved":false,"is_disabled":false,"rental_uris":{"android":"levelo://app?vid=97a1102f-72be-412e-9d70-9d701fe6fa12","ios":"levelo://app?vid=97a1102f-72be-412e-9d70-9d701fe6fa12"},"vehicle_type_id":"4","last_reported":1742332121,"current_range_meters":8400,"station_id":"ce4bhbh2rcd13ifvqeo0","pricing_plan_id":"cebpf4jnsgd1na2vs0mg"},{"bike_id":"519efbbc-7577-4063-8eac-658ef30e98a3","system_id":"levelo_inurba_marseille","lat":43.25006,"lon":5.38931,"is_reserved":false,"is_disabled":false,"rental_uris":{"android":"levelo://app?vid=519efbbc-7577-4063-8eac-658ef30e98a3","ios":"levelo://app?vid=519efbbc-7577-4063-8eac-658ef30e98a3"},"vehicle_type_id":"4","last_reported":1742332121,"current_range_meters":8800,"station_id":"ce4bhgp2rcd13ifvqfd0","pricing_plan_id":"cebpf4jnsgd1na2vs0mg"},{"bike_id":"5e244767-2fd5-4cae-9f0c-0a11498d0074","system_id":"levelo_inurba_marseille","lat":43.27495,"lon":5.4245,"is_reserved":false,"is_disabled":false,"rental_uris":{"android":"levelo://app?vid=5e244767-2fd5-4cae-9f0c-0a11498d0074","ios":"levelo://app?vid=5e244767-2fd5-4cae-9f0c-0a11498d0074"},"vehicle_type_id":"4","last_reported":1742332121,"current_range_meters":8800,"station_id":"ce4bhn92rcd13ifvqgrg","pricing_plan_id":"cebpf4jnsgd1na2vs0mg"},{"bike_id":"caaa0b59-1719-4659-aede-959a7c1393a4","system_id":"levelo_inurba_marseille","lat":43.28655,"lon":5.36355,"is_reserved":false,"is_disabled":false,"rental_uris":{"android":"levelo://app?vid=caaa0b59-1719-4659-aede-959a7c1393a4","ios":"levelo://app?vid=caaa0b59-1719-4659-aede-959a7c1393a4"},"vehicle_type_id":"4","last_reported":1742332121,"current_range_meters":8400,"station_id":"ce4bhah2rcd13ifvqej0","pricing_plan_id":"cebpf4jnsgd1na2vs0mg"},{"bike_id":"01ec6899-9e70-425a-a91b-c49e5fc36660","system_id":"levelo_inurba_marseille","lat":43.24816,"lon":5.37465,"is_reserved":false,"is_disabled":false,"rental_uris":{"android":"levelo://app?vid=01ec6899-9e70-425a-a91b-c49e5fc36660","ios":"levelo://app?vid=01ec6899-9e70-425a-a91b-c49e5fc36660"},"vehicle_type_id":"4","last_reported":1742332121,"current_range_meters":8800,"station_id":"ce4bhgh2rcd13ifvqfb0","pricing_plan_id":"cebpf4jnsgd1na2vs0mg"},{"bike_id":"049b5602-ba3f-4a09-ad40-b8c54e6f1cb6","system_id":"levelo_inurba_marseille","lat":43.25002,"lon":5.38922,"is_reserved":false,"is_disabled":true,"rental_uris":{"android":"levelo://app?vid=049b5602-ba3f-4a09-ad40-b8c54e6f1cb6","ios":"levelo://app?vid=049b5602-ba3f-4a09-ad40-b8c54e6f1cb6"},"vehicle_type_id":"4","last_reported":1742332121,"current_range_meters":8800,"station_id":"ce4bhgp2rcd13ifvqfd0","pricing_plan_id":"cebpf4jnsgd1na2vs0mg"},{"bike_id":"46864808-04de-4ea7-9240-d4b9aa751b39","system_id":"levelo_inurba_marseille","lat":43.29561,"lon":5.37534,"is_reserved":false,"is_disabled":false,"rental_uris":{"android":"levelo://app?vid=46864808-04de-4ea7-9240-d4b9aa751b39","ios":"levelo://app?vid=46864808-04de-4ea7-9240-d4b9aa751b39"},"vehicle_type_id":"4","last_reported":1742332121,"current_range_meters":8800,"station_id":"ce4bgh92rcd13ifvqb50","pricing_plan_id":"cebpf4jnsgd1na2vs0mg"},{"bike_id":"9526a025-d2ac-49a6-aab6-777c07218be7","system_id":"levelo_inurba_marseille","lat":43.29972,"lon":5.38494,"is_reserved":false,"is_disabled":false,"rental_uris":{"android":"levelo://app?vid=9526a025-d2ac-49a6-aab6-777c07218be7","ios":"levelo://app?vid=9526a025-d2ac-49a6-aab6-777c07218be7"},"vehicle_type_id":"4","last_reported":1742332121,"current_range_meters":4800,"station_id":"ce4bgj92rcd13ifvqbd0","pricing_plan_id":"cebpf4jnsgd1na2vs0mg"},{"bike_id":"57b57b06-8972-486b-a8d2-ef64d076a56a","system_id":"levelo_inurba_marseille","lat":43.30139,"lon":5.38781,"is_reserved":false,"is_disabled":false,"rental_uris":{"android":"levelo://app?vid=57b57b06-8972-486b-a8d2-ef64d076a56a","ios":"levelo://app?vid=57b57b06-8972-486b-a8d2-ef64d076a56a"},"vehicle_type_id":"4","last_reported":1742332121,"current_range_meters":8800,"station_id":"ce4bghh2rcd13ifvqb60","pricing_plan_id":"cebpf4jnsgd1na2vs0mg"},{"bike_id":"2fc9495d-c829-4229-a4db-5c8674880d7a","system_id":"levelo_inurba_marseille","lat":43.23068,"lon":5.35495,"is_reserved":false,"is_disabled":false,"rental_uris":{"android":"levelo://app?vid=2fc9495d-c829-4229-a4db-5c8674880d7a","ios":"levelo://app?vid=2fc9495d-c829-4229-a4db-5c8674880d7a"},"vehicle_type_id":"4","last_reported":1742332121,"current_range_meters":8800,"station_id":"cpo3342slgdg3j2ifvpg","pricing_plan_id":"cebpf4jnsgd1na2vs0mg"},{"bike_id":"39bd3f1b-eaae-436b-92a0-e256bdb4dae8","system_id":"levelo_inurba_marseille","lat":43.29671,"lon":5.37283,"is_reserved":false,"is_disabled":false,"rental_uris":{"android":"levelo://app?vid=39bd3f1b-eaae-436b-92a0-e256bdb4dae8","ios":"levelo://app?vid=39bd3f1b-eaae-436b-92a0-e256bdb4dae8"},"vehicle_type_id":"4","last_reported":1742332121,"current_range_meters":8400,"station_id":"ce4bgk12rcd13ifvqbj0","pricing_plan_id":"cebpf4jnsgd1na2vs0mg"},{"bike_id":"244972ac-6b8e-496c-8ff7-a07dcecb25e0","system_id":"levelo_inurba_marseille","lat":43.28072,"lon":5.39639,"is_reserved":false,"is_disabled":false,"rental_uris":{"android":"levelo://app?vid=244972ac-6b8e-496c-8ff7-a07dcecb25e0","ios":"levelo://app?vid=244972ac-6b8e-496c-8ff7-a07dcecb25e0"},"vehicle_type_id":"4","last_reported":1742332121,"current_range_meters":8800,"station_id":"ce4bho12rcd13ifvqh2g","pricing_plan_id":"cebpf4jnsgd1na2vs0mg"},{"bike_id":"6ae6f76c-6a01-4d75-9d3f-dfa610803a78","system_id":"levelo_inurba_marseille","lat":43.23068,"lon":5.35502,"is_reserved":false,"is_disabled":false,"rental_uris":{"android":"levelo://app?vid=6ae6f76c-6a01-4d75-9d3f-dfa610803a78","ios":"levelo://app?vid=6ae6f76c-6a01-4d75-9d3f-dfa610803a78"},"vehicle_type_id":"4","last_reported":1742332121,"current_range_meters":9200,"station_id":"cpo3342slgdg3j2ifvpg","pricing_plan_id":"cebpf4jnsgd1na2vs0mg"},{"bike_id":"253fce13-8607-4f2f-839f-40104be19b05","system_id":"levelo_inurba_marseille","lat":43.23966,"lon":5.36643,"is_reserved":false,"is_disabled":false,"rental_uris":{"android":"levelo://app?vid=253fce13-8607-4f2f-839f-40104be19b05","ios":"levelo://app?vid=253fce13-8607-4f2f-839f-40104be19b05"},"vehicle_type_id":"4","last_reported":1742332121,"current_range_meters":9200,"station_id":"ce4bhi12rcd13ifvqfp0","pricing_plan_id":"cebpf4jnsgd1na2vs0mg"},{"bike_id":"f158cb0f-0380-45cd-a82f-e7d941bda018","system_id":"levelo_inurba_marseille","lat":43.31728,"lon":5.43706,"is_reserved":false,"is_disabled":false,"rental_uris":{"android":"levelo://app?vid=f158cb0f-0380-45cd-a82f-e7d941bda018","ios":"levelo://app?vid=f158cb0f-0380-45cd-a82f-e7d941bda018"},"vehicle_type_id":"4","last_reported":1742332121,"current_range_meters":9200,"station_id":"ce4bhp92rcd13ifvqhcg","pricing_plan_id":"cebpf4jnsgd1na2vs0mg"},{"bike_id":"df4642c9-c3fd-4f88-b1d5-c33a4aa2259c","system_id":"levelo_inurba_marseille","lat":43.23189,"lon":5.39975,"is_reserved":false,"is_disabled":false,"rental_uris":{"android":"levelo://app?vid=df4642c9-c3fd-4f88-b1d5-c33a4aa2259c","ios":"levelo://app?vid=df4642c9-c3fd-4f88-b1d5-c33a4aa2259c"},"vehicle_type_id":"4","last_reported":1742332121,"current_range_meters":9200,"station_id":"ce4bhn12rcd13ifvqgqg","pricing_plan_id":"cebpf4jnsgd1na2vs0mg"},{"bike_id":"3bff80ec-e94e-42a9-988b-9e0817493bec","system_id":"levelo_inurba_marseille","lat":43.23192,"lon":5.35546,"is_reserved":false,"is_disabled":false,"rental_uris":{"android":"levelo://app?vid=3bff80ec-e94e-42a9-988b-9e0817493bec","ios":"levelo://app?vid=3bff80ec-e94e-42a9-988b-9e0817493bec"},"vehicle_type_id":"4","last_reported":1742332121,"current_range_meters":9200,"station_id":"ce4bhu92rcd13ifvqi70","pricing_plan_id":"cebpf4jnsgd1na2vs0mg"},{"bike_id":"d1069439-00e9-4aad-ad31-ab5b44b63348","system_id":"levelo_inurba_marseille","lat":43.31747,"lon":5.40447,"is_reserved":false,"is_disabled":true,"rental_uris":{"android":"levelo://app?vid=d1069439-00e9-4aad-ad31-ab5b44b63348","ios":"levelo://app?vid=d1069439-00e9-4aad-ad31-ab5b44b63348"},"vehicle_type_id":"4","last_reported":1742332121,"current_range_meters":9200,"station_id":"","pricing_plan_id":"cebpf4jnsgd1na2vs0mg"},{"bike_id":"1f45054e-1732-49e5-8c37-e7e5f09d1b98","system_id":"levelo_inurba_marseille","lat":43.25118,"lon":5.40318,"is_reserved":false,"is_disabled":false,"rental_uris":{"android":"levelo://app?vid=1f45054e-1732-49e5-8c37-e7e5f09d1b98","ios":"levelo://app?vid=1f45054e-1732-49e5-8c37-e7e5f09d1b98"},"vehicle_type_id":"4","last_reported":1742332121,"current_range_meters":9600,"station_id":"ce4bhlh2rcd13ifvqgig","pricing_plan_id":"cebpf4jnsgd1na2vs0mg"},{"bike_id":"575eb9c6-c129-44f5-9605-5331ef0bf20f","system_id":"levelo_inurba_marseille","lat":43.24546,"lon":5.39523,"is_reserved":false,"is_disabled":false,"rental_uris":{"android":"levelo://app?vid=575eb9c6-c129-44f5-9605-5331ef0bf20f","ios":"levelo://app?vid=575eb9c6-c129-44f5-9605-5331ef0bf20f"},"vehicle_type_id":"4","last_reported":1742332121,"current_range_meters":9600,"station_id":"ce4bhlp2rcd13ifvqgjg","pricing_plan_id":"cebpf4jnsgd1na2vs0mg"},{"bike_id":"a8766000-078c-47ff-8301-09d21e7c8d48","system_id":"levelo_inurba_marseille","lat":43.30883,"lon":5.39652,"is_reserved":false,"is_disabled":false,"rental_uris":{"android":"levelo://app?vid=a8766000-078c-47ff-8301-09d21e7c8d48","ios":"levelo://app?vid=a8766000-078c-47ff-8301-09d21e7c8d48"},"vehicle_type_id":"4","last_reported":1742332121,"current_range_meters":9600,"station_id":"ce4bh012rcd13ifvqcv0","pricing_plan_id":"cebpf4jnsgd1na2vs0mg"},{"bike_id":"153ace0e-eb3c-4fe8-aaf8-a09bf75c9dcd","system_id":"levelo_inurba_marseille","lat":43.30094,"lon":5.39074,"is_reserved":false,"is_disabled":false,"rental_uris":{"android":"levelo://app?vid=153ace0e-eb3c-4fe8-aaf8-a09bf75c9dcd","ios":"levelo://app?vid=153ace0e-eb3c-4fe8-aaf8-a09bf75c9dcd"},"vehicle_type_id":"4","last_reported":1742332121,"current_range_meters":9600,"station_id":"ce4bh192rcd13ifvqdb0","pricing_plan_id":"cebpf4jnsgd1na2vs0mg"},{"bike_id":"a8c89f12-e7b0-458f-b7a3-09032d50c758","system_id":"levelo_inurba_marseille","lat":43.27824,"lon":5.40686,"is_reserved":false,"is_disabled":false,"rental_uris":{"android":"levelo://app?vid=a8c89f12-e7b0-458f-b7a3-09032d50c758","ios":"levelo://app?vid=a8c89f12-e7b0-458f-b7a3-09032d50c758"},"vehicle_type_id":"4","last_reported":1742332121,"current_range_meters":9600,"station_id":"ce4bhnh2rcd13ifvqgtg","pricing_plan_id":"cebpf4jnsgd1na2vs0mg"},{"bike_id":"61c41159-7a8b-45ee-a18c-926f56b3edec","system_id":"levelo_inurba_marseille","lat":43.25817,"lon":5.39446,"is_reserved":false,"is_disabled":false,"rental_uris":{"android":"levelo://app?vid=61c41159-7a8b-45ee-a18c-926f56b3edec","ios":"levelo://app?vid=61c41159-7a8b-45ee-a18c-926f56b3edec"},"vehicle_type_id":"4","last_reported":1742332121,"current_range_meters":9600,"station_id":"ce4bhip2rcd13ifvqft0","pricing_plan_id":"cebpf4jnsgd1na2vs0mg"},{"bike_id":"25000a23-18cc-4ee9-8a6f-5d9bc07969fc","system_id":"levelo_inurba_marseille","lat":43.30313,"lon":5.4043,"is_reserved":false,"is_disabled":false,"rental_uris":{"android":"levelo://app?vid=25000a23-18cc-4ee9-8a6f-5d9bc07969fc","ios":"levelo://app?vid=25000a23-18cc-4ee9-8a6f-5d9bc07969fc"},"vehicle_type_id":"4","last_reported":1742332121,"current_range_meters":9600,"station_id":"ce4bh012rcd13ifvqd10","pricing_plan_id":"cebpf4jnsgd1na2vs0mg"},{"bike_id":"2cf913f3-f9be-41c2-a2ea-01870c68e8ea","system_id":"levelo_inurba_marseille","lat":43.32289,"lon":5.383,"is_reserved":false,"is_disabled":false,"rental_uris":{"android":"levelo://app?vid=2cf913f3-f9be-41c2-a2ea-01870c68e8ea","ios":"levelo://app?vid=2cf913f3-f9be-41c2-a2ea-01870c68e8ea"},"vehicle_type_id":"4","last_reported":1742332121,"current_range_meters":10000,"station_id":"ce4bhr12rcd13ifvqhqg","pricing_plan_id":"cebpf4jnsgd1na2vs0mg"},{"bike_id":"d00028dc-9b0d-47df-ad9d-778d21fb21b2","system_id":"levelo_inurba_marseille","lat":43.23191,"lon":5.3556,"is_reserved":false,"is_disabled":false,"rental_uris":{"android":"levelo://app?vid=d00028dc-9b0d-47df-ad9d-778d21fb21b2","ios":"levelo://app?vid=d00028dc-9b0d-47df-ad9d-778d21fb21b2"},"vehicle_type_id":"4","last_reported":1742332121,"current_range_meters":10000,"station_id":"ce4bhu92rcd13ifvqi70","pricing_plan_id":"cebpf4jnsgd1na2vs0mg"},{"bike_id":"ca1c0a28-8faf-435f-9d8b-370c3a07ff34","system_id":"levelo_inurba_marseille","lat":43.24166,"lon":5.36398,"is_reserved":false,"is_disabled":false,"rental_uris":{"android":"levelo://app?vid=ca1c0a28-8faf-435f-9d8b-370c3a07ff34","ios":"levelo://app?vid=ca1c0a28-8faf-435f-9d8b-370c3a07ff34"},"vehicle_type_id":"4","last_reported":1742332121,"current_range_meters":10000,"station_id":"cpo36qri1sfpv3e86is0","pricing_plan_id":"cebpf4jnsgd1na2vs0mg"},{"bike_id":"11ae9a5e-0a71-4a20-9502-08d6db110e90","system_id":"levelo_inurba_marseille","lat":43.2293,"lon":5.3538,"is_reserved":false,"is_disabled":false,"rental_uris":{"android":"levelo://app?vid=11ae9a5e-0a71-4a20-9502-08d6db110e90","ios":"levelo://app?vid=11ae9a5e-0a71-4a20-9502-08d6db110e90"},"vehicle_type_id":"4","last_reported":1742332121,"current_range_meters":10000,"station_id":"cpo3532slgdg3j2ikp40","pricing_plan_id":"cebpf4jnsgd1na2vs0mg"},{"bike_id":"940a39d9-8344-4018-9ee7-304ab9388cd8","system_id":"levelo_inurba_marseille","lat":43.28344,"lon":5.38113,"is_reserved":false,"is_disabled":false,"rental_uris":{"android":"levelo://app?vid=940a39d9-8344-4018-9ee7-304ab9388cd8","ios":"levelo://app?vid=940a39d9-8344-4018-9ee7-304ab9388cd8"},"vehicle_type_id":"4","last_reported":1742332121,"current_range_meters":10000,"station_id":"ce4bh412rcd13ifvqdr0","pricing_plan_id":"cebpf4jnsgd1na2vs0mg"},{"bike_id":"539fc8c4-24e6-4af1-852f-0f9aae2257a1","system_id":"levelo_inurba_marseille","lat":43.23194,"lon":5.35557,"is_reserved":false,"is_disabled":false,"rental_uris":{"android":"levelo://app?vid=539fc8c4-24e6-4af1-852f-0f9aae2257a1","ios":"levelo://app?vid=539fc8c4-24e6-4af1-852f-0f9aae2257a1"},"vehicle_type_id":"4","last_reported":1742332121,"current_range_meters":10000,"station_id":"ce4bhu92rcd13ifvqi70","pricing_plan_id":"cebpf4jnsgd1na2vs0mg"},{"bike_id":"b060fd13-d66b-4ae9-9e63-4cbe02c4cd1e","system_id":"levelo_inurba_marseille","lat":43.32339,"lon":5.4062,"is_reserved":false,"is_disabled":false,"rental_uris":{"android":"levelo://app?vid=b060fd13-d66b-4ae9-9e63-4cbe02c4cd1e","ios":"levelo://app?vid=b060fd13-d66b-4ae9-9e63-4cbe02c4cd1e"},"vehicle_type_id":"4","last_reported":1742332121,"current_range_meters":10000,"station_id":"ce4bhq92rcd13ifvqhjg","pricing_plan_id":"cebpf4jnsgd1na2vs0mg"},{"bike_id":"5bead0f2-5ada-420f-bea0-acb8d2ad9da4","system_id":"levelo_inurba_marseille","lat":43.23187,"lon":5.39982,"is_reserved":false,"is_disabled":false,"rental_uris":{"android":"levelo://app?vid=5bead0f2-5ada-420f-bea0-acb8d2ad9da4","ios":"levelo://app?vid=5bead0f2-5ada-420f-bea0-acb8d2ad9da4"},"vehicle_type_id":"4","last_reported":1742332121,"current_range_meters":10000,"station_id":"ce4bhn12rcd13ifvqgqg","pricing_plan_id":"cebpf4jnsgd1na2vs0mg"},{"bike_id":"b5303b64-c21e-4392-b2f0-2ccca1cd7abd","system_id":"levelo_inurba_marseille","lat":43.30453,"lon":5.36679,"is_reserved":false,"is_disabled":false,"rental_uris":{"android":"levelo://app?vid=b5303b64-c21e-4392-b2f0-2ccca1cd7abd","ios":"levelo://app?vid=b5303b64-c21e-4392-b2f0-2ccca1cd7abd"},"vehicle_type_id":"4","last_reported":1742332121,"current_range_meters":10000,"station_id":"","pricing_plan_id":"cebpf4jnsgd1na2vs0mg"},{"bike_id":"501f7fd9-069d-4c8f-b512-803a0a667daa","system_id":"levelo_inurba_marseille","lat":43.31697,"lon":5.43706,"is_reserved":false,"is_disabled":false,"rental_uris":{"android":"levelo://app?vid=501f7fd9-069d-4c8f-b512-803a0a667daa","ios":"levelo://app?vid=501f7fd9-069d-4c8f-b512-803a0a667daa"},"vehicle_type_id":"4","last_reported":1742332121,"current_range_meters":10000,"station_id":"ce4bhp92rcd13ifvqhcg","pricing_plan_id":"cebpf4jnsgd1na2vs0mg"},{"bike_id":"56893d1b-8af7-4ef8-b91a-b2063d1b6eed","system_id":"levelo_inurba_marseille","lat":43.27997,"lon":5.4001,"is_reserved":false,"is_disabled":false,"rental_uris":{"android":"levelo://app?vid=56893d1b-8af7-4ef8-b91a-b2063d1b6eed","ios":"levelo://app?vid=56893d1b-8af7-4ef8-b91a-b2063d1b6eed"},"vehicle_type_id":"4","last_reported":1742332121,"current_range_meters":10000,"station_id":"ce4bho92rcd13ifvqh4g","pricing_plan_id":"cebpf4jnsgd1na2vs0mg"},{"bike_id":"6b162ed9-3599-4156-a34b-2df90433ae5c","system_id":"levelo_inurba_marseille","lat":43.24191,"lon":5.39736,"is_reserved":false,"is_disabled":false,"rental_uris":{"android":"levelo://app?vid=6b162ed9-3599-4156-a34b-2df90433ae5c","ios":"levelo://app?vid=6b162ed9-3599-4156-a34b-2df90433ae5c"},"vehicle_type_id":"4","last_reported":1742332121,"current_range_meters":10000,"station_id":"ce4bhn12rcd13ifvqgpg","pricing_plan_id":"cebpf4jnsgd1na2vs0mg"},{"bike_id":"cb83bb7b-da1e-4e39-8df9-8da005404b0c","system_id":"levelo_inurba_marseille","lat":43.23062,"lon":5.35493,"is_reserved":false,"is_disabled":false,"rental_uris":{"android":"levelo://app?vid=cb83bb7b-da1e-4e39-8df9-8da005404b0c","ios":"levelo://app?vid=cb83bb7b-da1e-4e39-8df9-8da005404b0c"},"vehicle_type_id":"4","last_reported":1742332121,"current_range_meters":10800,"station_id":"cpo3342slgdg3j2ifvpg","pricing_plan_id":"cebpf4jnsgd1na2vs0mg"},{"bike_id":"4b1455e3-a129-4c21-aa44-d1039bebb628","system_id":"levelo_inurba_marseille","lat":43.27816,"lon":5.40705,"is_reserved":false,"is_disabled":false,"rental_uris":{"android":"levelo://app?vid=4b1455e3-a129-4c21-aa44-d1039bebb628","ios":"levelo://app?vid=4b1455e3-a129-4c21-aa44-d1039bebb628"},"vehicle_type_id":"4","last_reported":1742332121,"current_range_meters":10800,"station_id":"ce4bhnh2rcd13ifvqgtg","pricing_plan_id":"cebpf4jnsgd1na2vs0mg"},{"bike_id":"33cee87d-54df-4382-b486-e00c9953097c","system_id":"levelo_inurba_marseille","lat":43.25503,"lon":5.37661,"is_reserved":false,"is_disabled":false,"rental_uris":{"android":"levelo://app?vid=33cee87d-54df-4382-b486-e00c9953097c","ios":"levelo://app?vid=33cee87d-54df-4382-b486-e00c9953097c"},"vehicle_type_id":"4","last_reported":1742332121,"current_range_meters":10800,"station_id":"ce4bhh12rcd13ifvqff0","pricing_plan_id":"cebpf4jnsgd1na2vs0mg"},{"bike_id":"8777ef92-eb8d-4856-bd98-ecafeb780344","system_id":"levelo_inurba_marseille","lat":43.27837,"lon":5.39219,"is_reserved":false,"is_disabled":false,"rental_uris":{"android":"levelo://app?vid=8777ef92-eb8d-4856-bd98-ecafeb780344","ios":"levelo://app?vid=8777ef92-eb8d-4856-bd98-ecafeb780344"},"vehicle_type_id":"4","last_reported":1742332121,"current_range_meters":10800,"station_id":"ce4bhjp2rcd13ifvqga0","pricing_plan_id":"cebpf4jnsgd1na2vs0mg"},{"bike_id":"ab11fa9b-759f-447f-a4f1-b143e2360775","system_id":"levelo_inurba_marseille","lat":43.31348,"lon":5.39176,"is_reserved":false,"is_disabled":false,"rental_uris":{"android":"levelo://app?vid=ab11fa9b-759f-447f-a4f1-b143e2360775","ios":"levelo://app?vid=ab11fa9b-759f-447f-a4f1-b143e2360775"},"vehicle_type_id":"4","last_reported":1742332121,"current_range_meters":10800,"station_id":"","pricing_plan_id":"cebpf4jnsgd1na2vs0mg"},{"bike_id":"6427f4f6-8c7a-4e37-a4d9-34cec003da81","system_id":"levelo_inurba_marseille","lat":43.29165,"lon":5.37139,"is_reserved":false,"is_disabled":false,"rental_uris":{"android":"levelo://app?vid=6427f4f6-8c7a-4e37-a4d9-34cec003da81","ios":"levelo://app?vid=6427f4f6-8c7a-4e37-a4d9-34cec003da81"},"vehicle_type_id":"4","last_reported":1742332121,"current_range_meters":10800,"station_id":"ce4bha92rcd13ifvqeh0","pricing_plan_id":"cebpf4jnsgd1na2vs0mg"},{"bike_id":"5ee4c35b-aafc-4802-884c-f9c9bd20f07c","system_id":"levelo_inurba_marseille","lat":43.29419,"lon":5.38619,"is_reserved":false,"is_disabled":false,"rental_uris":{"android":"levelo://app?vid=5ee4c35b-aafc-4802-884c-f9c9bd20f07c","ios":"levelo://app?vid=5ee4c35b-aafc-4802-884c-f9c9bd20f07c"},"vehicle_type_id":"4","last_reported":1742332121,"current_range_meters":10800,"station_id":"ce4bh2h2rcd13ifvqdh0","pricing_plan_id":"cebpf4jnsgd1na2vs0mg"},{"bike_id":"bba575fb-912f-48bf-8769-15928f4a4ecf","system_id":"levelo_inurba_marseille","lat":43.29265,"lon":5.38443,"is_reserved":false,"is_disabled":false,"rental_uris":{"android":"levelo://app?vid=bba575fb-912f-48bf-8769-15928f4a4ecf","ios":"levelo://app?vid=bba575fb-912f-48bf-8769-15928f4a4ecf"},"vehicle_type_id":"4","last_reported":1742332121,"current_range_meters":10800,"station_id":"ce4bh692rcd13ifvqea0","pricing_plan_id":"cebpf4jnsgd1na2vs0mg"},{"bike_id":"63ebaf0d-3064-4e9f-bad1-7dd0402e643c","system_id":"levelo_inurba_marseille","lat":43.2953,"lon":5.38541,"is_reserved":false,"is_disabled":false,"rental_uris":{"android":"levelo://app?vid=63ebaf0d-3064-4e9f-bad1-7dd0402e643c","ios":"levelo://app?vid=63ebaf0d-3064-4e9f-bad1-7dd0402e643c"},"vehicle_type_id":"4","last_reported":1742332121,"current_range_meters":11200,"station_id":"ce4bgih2rcd13ifvqba0","pricing_plan_id":"cebpf4jnsgd1na2vs0mg"},{"bike_id":"aea4ed7b-680a-4bb4-81d9-d2b0771cc8b2","system_id":"levelo_inurba_marseille","lat":43.27363,"lon":5.36251,"is_reserved":false,"is_disabled":false,"rental_uris":{"android":"levelo://app?vid=aea4ed7b-680a-4bb4-81d9-d2b0771cc8b2","ios":"levelo://app?vid=aea4ed7b-680a-4bb4-81d9-d2b0771cc8b2"},"vehicle_type_id":"4","last_reported":1742332121,"current_range_meters":11200,"station_id":"ce4bhbh2rcd13ifvqeo0","pricing_plan_id":"cebpf4jnsgd1na2vs0mg"},{"bike_id":"f31fd8fc-38af-431a-83a8-4d065c63a44e","system_id":"levelo_inurba_marseille","lat":43.28381,"lon":5.38652,"is_reserved":false,"is_disabled":false,"rental_uris":{"android":"levelo://app?vid=f31fd8fc-38af-431a-83a8-4d065c63a44e","ios":"levelo://app?vid=f31fd8fc-38af-431a-83a8-4d065c63a44e"},"vehicle_type_id":"4","last_reported":1742332121,"current_range_meters":11200,"station_id":"ce4bh492rcd13ifvqdvg","pricing_plan_id":"cebpf4jnsgd1na2vs0mg"},{"bike_id":"4ccc3f56-6ae5-4d6a-9eb1-b86c5e38aaee","system_id":"levelo_inurba_marseille","lat":43.27807,"lon":5.40732,"is_reserved":false,"is_disabled":false,"rental_uris":{"android":"levelo://app?vid=4ccc3f56-6ae5-4d6a-9eb1-b86c5e38aaee","ios":"levelo://app?vid=4ccc3f56-6ae5-4d6a-9eb1-b86c5e38aaee"},"vehicle_type_id":"4","last_reported":1742332121,"current_range_meters":11200,"station_id":"ce4bhnh2rcd13ifvqgtg","pricing_plan_id":"cebpf4jnsgd1na2vs0mg"},{"bike_id":"eb5cda5d-4aef-4d15-9f07-19ee412f38ba","system_id":"levelo_inurba_marseille","lat":43.29053,"lon":5.35915,"is_reserved":false,"is_disabled":false,"rental_uris":{"android":"levelo://app?vid=eb5cda5d-4aef-4d15-9f07-19ee412f38ba","ios":"levelo://app?vid=eb5cda5d-4aef-4d15-9f07-19ee412f38ba"},"vehicle_type_id":"4","last_reported":1742332121,"current_range_meters":11200,"station_id":"ce4bha92rcd13ifvqeg0","pricing_plan_id":"cebpf4jnsgd1na2vs0mg"},{"bike_id":"cabc56a7-dd90-4978-a4aa-b0149cec9ec6","system_id":"levelo_inurba_marseille","lat":43.25499,"lon":5.37642,"is_reserved":false,"is_disabled":false,"rental_uris":{"android":"levelo://app?vid=cabc56a7-dd90-4978-a4aa-b0149cec9ec6","ios":"levelo://app?vid=cabc56a7-dd90-4978-a4aa-b0149cec9ec6"},"vehicle_type_id":"4","last_reported":1742332121,"current_range_meters":11200,"station_id":"ce4bhh12rcd13ifvqff0","pricing_plan_id":"cebpf4jnsgd1na2vs0mg"},{"bike_id":"1179b381-200b-46f2-81ad-dc9a8285a090","system_id":"levelo_inurba_marseille","lat":43.2842,"lon":5.37526,"is_reserved":false,"is_disabled":false,"rental_uris":{"android":"levelo://app?vid=1179b381-200b-46f2-81ad-dc9a8285a090","ios":"levelo://app?vid=1179b381-200b-46f2-81ad-dc9a8285a090"},"vehicle_type_id":"4","last_reported":1742332121,"current_range_meters":11200,"station_id":"ce4bh412rcd13ifvqds0","pricing_plan_id":"cebpf4jnsgd1na2vs0mg"},{"bike_id":"1f4d04b1-8f45-4926-aad8-072dc7b7d942","system_id":"levelo_inurba_marseille","lat":43.28032,"lon":5.36946,"is_reserved":false,"is_disabled":false,"rental_uris":{"android":"levelo://app?vid=1f4d04b1-8f45-4926-aad8-072dc7b7d942","ios":"levelo://app?vid=1f4d04b1-8f45-4926-aad8-072dc7b7d942"},"vehicle_type_id":"4","last_reported":1742332121,"current_range_meters":11600,"station_id":"ce4bha12rcd13ifvqef0","pricing_plan_id":"cebpf4jnsgd1na2vs0mg"},{"bike_id":"11bffd4d-691e-479c-be44-e39bfa076b4b","system_id":"levelo_inurba_marseille","lat":43.28477,"lon":5.35889,"is_reserved":false,"is_disabled":false,"rental_uris":{"android":"levelo://app?vid=11bffd4d-691e-479c-be44-e39bfa076b4b","ios":"levelo://app?vid=11bffd4d-691e-479c-be44-e39bfa076b4b"},"vehicle_type_id":"4","last_reported":1742332121,"current_range_meters":11600,"station_id":"ce4bhah2rcd13ifvqei0","pricing_plan_id":"cebpf4jnsgd1na2vs0mg"},{"bike_id":"b132483d-1d99-4f2a-9ca2-8544144e934f","system_id":"levelo_inurba_marseille","lat":43.32367,"lon":5.38878,"is_reserved":false,"is_disabled":false,"rental_uris":{"android":"levelo://app?vid=b132483d-1d99-4f2a-9ca2-8544144e934f","ios":"levelo://app?vid=b132483d-1d99-4f2a-9ca2-8544144e934f"},"vehicle_type_id":"4","last_reported":1742332121,"current_range_meters":11600,"station_id":"ce4bhqp2rcd13ifvqhog","pricing_plan_id":"cebpf4jnsgd1na2vs0mg"},{"bike_id":"b98eff8b-8bbd-44cf-94d7-71a6341eecc2","system_id":"levelo_inurba_marseille","lat":43.23186,"lon":5.39989,"is_reserved":false,"is_disabled":false,"rental_uris":{"android":"levelo://app?vid=b98eff8b-8bbd-44cf-94d7-71a6341eecc2","ios":"levelo://app?vid=b98eff8b-8bbd-44cf-94d7-71a6341eecc2"},"vehicle_type_id":"4","last_reported":1742332121,"current_range_meters":11600,"station_id":"ce4bhn12rcd13ifvqgqg","pricing_plan_id":"cebpf4jnsgd1na2vs0mg"},{"bike_id":"89cb3140-d211-4c4d-97ca-7e01c3c4da90","system_id":"levelo_inurba_marseille","lat":43.23202,"lon":5.35566,"is_reserved":false,"is_disabled":false,"rental_uris":{"android":"levelo://app?vid=89cb3140-d211-4c4d-97ca-7e01c3c4da90","ios":"levelo://app?vid=89cb3140-d211-4c4d-97ca-7e01c3c4da90"},"vehicle_type_id":"4","last_reported":1742332121,"current_range_meters":11600,"station_id":"ce4bhu92rcd13ifvqi70","pricing_plan_id":"cebpf4jnsgd1na2vs0mg"},{"bike_id":"ff86712d-eba7-428c-a27a-b44da8f810ed","system_id":"levelo_inurba_marseille","lat":43.28489,"lon":5.38412,"is_reserved":false,"is_disabled":false,"rental_uris":{"android":"levelo://app?vid=ff86712d-eba7-428c-a27a-b44da8f810ed","ios":"levelo://app?vid=ff86712d-eba7-428c-a27a-b44da8f810ed"},"vehicle_type_id":"4","last_reported":1742332121,"current_range_meters":11600,"station_id":"ce4bh512rcd13ifvqe3g","pricing_plan_id":"cebpf4jnsgd1na2vs0mg"},{"bike_id":"f142dc05-f5d3-4cbc-afe5-c54cd3d760d6","system_id":"levelo_inurba_marseille","lat":43.28081,"lon":5.39657,"is_reserved":false,"is_disabled":false,"rental_uris":{"android":"levelo://app?vid=f142dc05-f5d3-4cbc-afe5-c54cd3d760d6","ios":"levelo://app?vid=f142dc05-f5d3-4cbc-afe5-c54cd3d760d6"},"vehicle_type_id":"4","last_reported":1742332121,"current_range_meters":11600,"station_id":"ce4bho12rcd13ifvqh2g","pricing_plan_id":"cebpf4jnsgd1na2vs0mg"},{"bike_id":"62f7539b-b047-479e-84e9-11e5c010431d","system_id":"levelo_inurba_marseille","lat":43.30024,"lon":5.40004,"is_reserved":false,"is_disabled":false,"rental_uris":{"android":"levelo://app?vid=62f7539b-b047-479e-84e9-11e5c010431d","ios":"levelo://app?vid=62f7539b-b047-479e-84e9-11e5c010431d"},"vehicle_type_id":"4","last_reported":1742332121,"current_range_meters":11600,"station_id":"","pricing_plan_id":"cebpf4jnsgd1na2vs0mg"},{"bike_id":"7f84bfa1-a40d-414f-b2fa-97f834db681b","system_id":"levelo_inurba_marseille","lat":43.27841,"lon":5.39207,"is_reserved":false,"is_disabled":false,"rental_uris":{"android":"levelo://app?vid=7f84bfa1-a40d-414f-b2fa-97f834db681b","ios":"levelo://app?vid=7f84bfa1-a40d-414f-b2fa-97f834db681b"},"vehicle_type_id":"4","last_reported":1742332121,"current_range_meters":12000,"station_id":"ce4bhjp2rcd13ifvqga0","pricing_plan_id":"cebpf4jnsgd1na2vs0mg"},{"bike_id":"708eced1-c5ef-4bbe-a71a-5e35e95f71c3","system_id":"levelo_inurba_marseille","lat":43.30799,"lon":5.38163,"is_reserved":false,"is_disabled":false,"rental_uris":{"android":"levelo://app?vid=708eced1-c5ef-4bbe-a71a-5e35e95f71c3","ios":"levelo://app?vid=708eced1-c5ef-4bbe-a71a-5e35e95f71c3"},"vehicle_type_id":"4","last_reported":1742332121,"current_range_meters":12000,"station_id":"ce4bgt12rcd13ifvqce0","pricing_plan_id":"cebpf4jnsgd1na2vs0mg"},{"bike_id":"4dfde5f1-5b7a-4544-af46-1b4f858c8262","system_id":"levelo_inurba_marseille","lat":43.2846,"lon":5.35879,"is_reserved":false,"is_disabled":false,"rental_uris":{"android":"levelo://app?vid=4dfde5f1-5b7a-4544-af46-1b4f858c8262","ios":"levelo://app?vid=4dfde5f1-5b7a-4544-af46-1b4f858c8262"},"vehicle_type_id":"4","last_reported":1742332121,"current_range_meters":12000,"station_id":"ce4bhah2rcd13ifvqei0","pricing_plan_id":"cebpf4jnsgd1na2vs0mg"},{"bike_id":"bfa40974-876e-403f-8ee9-98898195442a","system_id":"levelo_inurba_marseille","lat":43.28445,"lon":5.35896,"is_reserved":false,"is_disabled":false,"rental_uris":{"android":"levelo://app?vid=bfa40974-876e-403f-8ee9-98898195442a","ios":"levelo://app?vid=bfa40974-876e-403f-8ee9-98898195442a"},"vehicle_type_id":"4","last_reported":1742332121,"current_range_meters":12000,"station_id":"ce4bhah2rcd13ifvqei0","pricing_plan_id":"cebpf4jnsgd1na2vs0mg"},{"bike_id":"0c5ebaf9-ea8b-43c5-868e-c8485faa69db","system_id":"levelo_inurba_marseille","lat":43.28449,"lon":5.39208,"is_reserved":false,"is_disabled":false,"rental_uris":{"android":"levelo://app?vid=0c5ebaf9-ea8b-43c5-868e-c8485faa69db","ios":"levelo://app?vid=0c5ebaf9-ea8b-43c5-868e-c8485faa69db"},"vehicle_type_id":"4","last_reported":1742332121,"current_range_meters":12400,"station_id":"ce4bhoh2rcd13ifvqh5g","pricing_plan_id":"cebpf4jnsgd1na2vs0mg"},{"bike_id":"7c3baf44-953e-4bba-9100-4685bf1e6739","system_id":"levelo_inurba_marseille","lat":43.25586,"lon":5.38241,"is_reserved":false,"is_disabled":false,"rental_uris":{"android":"levelo://app?vid=7c3baf44-953e-4bba-9100-4685bf1e6739","ios":"levelo://app?vid=7c3baf44-953e-4bba-9100-4685bf1e6739"},"vehicle_type_id":"4","last_reported":1742332121,"current_range_meters":12400,"station_id":"ce4bhih2rcd13ifvqfs0","pricing_plan_id":"cebpf4jnsgd1na2vs0mg"},{"bike_id":"7f61d7be-d227-44df-9b33-b8f4965e514f","system_id":"levelo_inurba_marseille","lat":43.23189,"lon":5.35553,"is_reserved":false,"is_disabled":false,"rental_uris":{"android":"levelo://app?vid=7f61d7be-d227-44df-9b33-b8f4965e514f","ios":"levelo://app?vid=7f61d7be-d227-44df-9b33-b8f4965e514f"},"vehicle_type_id":"4","last_reported":1742332121,"current_range_meters":12400,"station_id":"ce4bhu92rcd13ifvqi70","pricing_plan_id":"cebpf4jnsgd1na2vs0mg"},{"bike_id":"f4165607-80d2-4e6e-8b9c-c523c42872fb","system_id":"levelo_inurba_marseille","lat":43.24802,"lon":5.37469,"is_reserved":false,"is_disabled":false,"rental_uris":{"android":"levelo://app?vid=f4165607-80d2-4e6e-8b9c-c523c42872fb","ios":"levelo://app?vid=f4165607-80d2-4e6e-8b9c-c523c42872fb"},"vehicle_type_id":"4","last_reported":1742332121,"current_range_meters":12400,"station_id":"ce4bhgh2rcd13ifvqfb0","pricing_plan_id":"cebpf4jnsgd1na2vs0mg"},{"bike_id":"ac6ba139-87f1-497d-bb1c-3e27b5df735b","system_id":"levelo_inurba_marseille","lat":43.29856,"lon":5.36285,"is_reserved":false,"is_disabled":false,"rental_uris":{"android":"levelo://app?vid=ac6ba139-87f1-497d-bb1c-3e27b5df735b","ios":"levelo://app?vid=ac6ba139-87f1-497d-bb1c-3e27b5df735b"},"vehicle_type_id":"4","last_reported":1742332121,"current_range_meters":12400,"station_id":"ce4bgpp2rcd13ifvqc3g","pricing_plan_id":"cebpf4jnsgd1na2vs0mg"},{"bike_id":"8abf66b0-4c7b-4a5b-9216-254c311cdf06","system_id":"levelo_inurba_marseille","lat":43.25556,"lon":5.3838,"is_reserved":false,"is_disabled":false,"rental_uris":{"android":"levelo://app?vid=8abf66b0-4c7b-4a5b-9216-254c311cdf06","ios":"levelo://app?vid=8abf66b0-4c7b-4a5b-9216-254c311cdf06"},"vehicle_type_id":"4","last_reported":1742332121,"current_range_meters":12400,"station_id":"","pricing_plan_id":"cebpf4jnsgd1na2vs0mg"},{"bike_id":"16ce82f4-7642-4d89-bb15-7d2b1d00ed70","system_id":"levelo_inurba_marseille","lat":43.23935,"lon":5.36716,"is_reserved":false,"is_disabled":false,"rental_uris":{"android":"levelo://app?vid=16ce82f4-7642-4d89-bb15-7d2b1d00ed70","ios":"levelo://app?vid=16ce82f4-7642-4d89-bb15-7d2b1d00ed70"},"vehicle_type_id":"4","last_reported":1742332121,"current_range_meters":12400,"station_id":"ce4bhi12rcd13ifvqfp0","pricing_plan_id":"cebpf4jnsgd1na2vs0mg"},{"bike_id":"2712547e-fc06-4b6e-9df4-153a95dcd9b5","system_id":"levelo_inurba_marseille","lat":43.26669,"lon":5.38251,"is_reserved":false,"is_disabled":false,"rental_uris":{"android":"levelo://app?vid=2712547e-fc06-4b6e-9df4-153a95dcd9b5","ios":"levelo://app?vid=2712547e-fc06-4b6e-9df4-153a95dcd9b5"},"vehicle_type_id":"4","last_reported":1742332121,"current_range_meters":12000,"station_id":"ce4bhg92rcd13ifvqf90","pricing_plan_id":"cebpf4jnsgd1na2vs0mg"},{"bike_id":"26836c87-2147-41b7-afed-e66458af42b2","system_id":"levelo_inurba_marseille","lat":43.2508,"lon":5.39521,"is_reserved":false,"is_disabled":false,"rental_uris":{"android":"levelo://app?vid=26836c87-2147-41b7-afed-e66458af42b2","ios":"levelo://app?vid=26836c87-2147-41b7-afed-e66458af42b2"},"vehicle_type_id":"4","last_reported":1742332121,"current_range_meters":12400,"station_id":"ce4bhm12rcd13ifvqgkg","pricing_plan_id":"cebpf4jnsgd1na2vs0mg"},{"bike_id":"c03bf0bc-bd13-4839-83fb-cde67bd118c3","system_id":"levelo_inurba_marseille","lat":43.27499,"lon":5.42449,"is_reserved":false,"is_disabled":false,"rental_uris":{"android":"levelo://app?vid=c03bf0bc-bd13-4839-83fb-cde67bd118c3","ios":"levelo://app?vid=c03bf0bc-bd13-4839-83fb-cde67bd118c3"},"vehicle_type_id":"4","last_reported":1742332121,"current_range_meters":12400,"station_id":"ce4bhn92rcd13ifvqgrg","pricing_plan_id":"cebpf4jnsgd1na2vs0mg"},{"bike_id":"c2f4da44-a44d-44d2-8be6-51648ee37d7f","system_id":"levelo_inurba_marseille","lat":43.25014,"lon":5.38914,"is_reserved":false,"is_disabled":false,"rental_uris":{"android":"levelo://app?vid=c2f4da44-a44d-44d2-8be6-51648ee37d7f","ios":"levelo://app?vid=c2f4da44-a44d-44d2-8be6-51648ee37d7f"},"vehicle_type_id":"4","last_reported":1742332121,"current_range_meters":12400,"station_id":"ce4bhgp2rcd13ifvqfd0","pricing_plan_id":"cebpf4jnsgd1na2vs0mg"},{"bike_id":"f1f53c30-eb7d-4de9-8c57-791d54fe0f0d","system_id":"levelo_inurba_marseille","lat":43.31751,"lon":5.39034,"is_reserved":false,"is_disabled":false,"rental_uris":{"android":"levelo://app?vid=f1f53c30-eb7d-4de9-8c57-791d54fe0f0d","ios":"levelo://app?vid=f1f53c30-eb7d-4de9-8c57-791d54fe0f0d"},"vehicle_type_id":"4","last_reported":1742332121,"current_range_meters":12400,"station_id":"ce4bhqp2rcd13ifvqhng","pricing_plan_id":"cebpf4jnsgd1na2vs0mg"},{"bike_id":"bb78a1d1-78ba-4f37-81f4-87b10a1775a5","system_id":"levelo_inurba_marseille","lat":43.32135,"lon":5.36768,"is_reserved":false,"is_disabled":false,"rental_uris":{"android":"levelo://app?vid=bb78a1d1-78ba-4f37-81f4-87b10a1775a5","ios":"levelo://app?vid=bb78a1d1-78ba-4f37-81f4-87b10a1775a5"},"vehicle_type_id":"4","last_reported":1742332121,"current_range_meters":12800,"station_id":"","pricing_plan_id":"cebpf4jnsgd1na2vs0mg"},{"bike_id":"44a4af3e-84f5-4f54-943d-83cf9fa4d793","system_id":"levelo_inurba_marseille","lat":43.27818,"lon":5.40705,"is_reserved":false,"is_disabled":false,"rental_uris":{"android":"levelo://app?vid=44a4af3e-84f5-4f54-943d-83cf9fa4d793","ios":"levelo://app?vid=44a4af3e-84f5-4f54-943d-83cf9fa4d793"},"vehicle_type_id":"4","last_reported":1742332121,"current_range_meters":12800,"station_id":"ce4bhnh2rcd13ifvqgtg","pricing_plan_id":"cebpf4jnsgd1na2vs0mg"},{"bike_id":"3455258b-4135-46b9-9a26-10bf95160e40","system_id":"levelo_inurba_marseille","lat":43.23195,"lon":5.3555,"is_reserved":false,"is_disabled":false,"rental_uris":{"android":"levelo://app?vid=3455258b-4135-46b9-9a26-10bf95160e40","ios":"levelo://app?vid=3455258b-4135-46b9-9a26-10bf95160e40"},"vehicle_type_id":"4","last_reported":1742332121,"current_range_meters":12800,"station_id":"ce4bhu92rcd13ifvqi70","pricing_plan_id":"cebpf4jnsgd1na2vs0mg"},{"bike_id":"9e3395a2-90d5-44bb-aa3c-c314309d566d","system_id":"levelo_inurba_marseille","lat":43.29195,"lon":5.39319,"is_reserved":false,"is_disabled":false,"rental_uris":{"android":"levelo://app?vid=9e3395a2-90d5-44bb-aa3c-c314309d566d","ios":"levelo://app?vid=9e3395a2-90d5-44bb-aa3c-c314309d566d"},"vehicle_type_id":"4","last_reported":1742332121,"current_range_meters":12800,"station_id":"ce4bh192rcd13ifvqdd0","pricing_plan_id":"cebpf4jnsgd1na2vs0mg"},{"bike_id":"6030d9ab-0922-4379-becd-b3eabfbbef90","system_id":"levelo_inurba_marseille","lat":43.24076,"lon":5.37759,"is_reserved":false,"is_disabled":false,"rental_uris":{"android":"levelo://app?vid=6030d9ab-0922-4379-becd-b3eabfbbef90","ios":"levelo://app?vid=6030d9ab-0922-4379-becd-b3eabfbbef90"},"vehicle_type_id":"4","last_reported":1742332121,"current_range_meters":12800,"station_id":"ce4bhnp2rcd13ifvqgvg","pricing_plan_id":"cebpf4jnsgd1na2vs0mg"},{"bike_id":"06a6152a-e477-491f-83ed-9b68fd573e32","system_id":"levelo_inurba_marseille","lat":43.25825,"lon":5.39433,"is_reserved":false,"is_disabled":false,"rental_uris":{"android":"levelo://app?vid=06a6152a-e477-491f-83ed-9b68fd573e32","ios":"levelo://app?vid=06a6152a-e477-491f-83ed-9b68fd573e32"},"vehicle_type_id":"4","last_reported":1742332121,"current_range_meters":12800,"station_id":"ce4bhip2rcd13ifvqft0","pricing_plan_id":"cebpf4jnsgd1na2vs0mg"},{"bike_id":"e06fb281-90f0-4826-8deb-313f31bcd4ee","system_id":"levelo_inurba_marseille","lat":43.29598,"lon":5.3811,"is_reserved":false,"is_disabled":false,"rental_uris":{"android":"levelo://app?vid=e06fb281-90f0-4826-8deb-313f31bcd4ee","ios":"levelo://app?vid=e06fb281-90f0-4826-8deb-313f31bcd4ee"},"vehicle_type_id":"4","last_reported":1742332121,"current_range_meters":12800,"station_id":"ce4bgl12rcd13ifvqbo0","pricing_plan_id":"cebpf4jnsgd1na2vs0mg"},{"bike_id":"5874166f-e24c-46bf-8064-e8cdea288152","system_id":"levelo_inurba_marseille","lat":43.24812,"lon":5.37453,"is_reserved":false,"is_disabled":false,"rental_uris":{"android":"levelo://app?vid=5874166f-e24c-46bf-8064-e8cdea288152","ios":"levelo://app?vid=5874166f-e24c-46bf-8064-e8cdea288152"},"vehicle_type_id":"4","last_reported":1742332121,"current_range_meters":12800,"station_id":"ce4bhgh2rcd13ifvqfb0","pricing_plan_id":"cebpf4jnsgd1na2vs0mg"},{"bike_id":"78c7f344-224f-4ee1-abbd-94f4d94ef023","system_id":"levelo_inurba_marseille","lat":43.23964,"lon":5.36628,"is_reserved":false,"is_disabled":true,"rental_uris":{"android":"levelo://app?vid=78c7f344-224f-4ee1-abbd-94f4d94ef023","ios":"levelo://app?vid=78c7f344-224f-4ee1-abbd-94f4d94ef023"},"vehicle_type_id":"4","last_reported":1742332121,"current_range_meters":13600,"station_id":"ce4bhi12rcd13ifvqfp0","pricing_plan_id":"cebpf4jnsgd1na2vs0mg"},{"bike_id":"e60c1153-ceb4-4f72-92cd-2dc1051b5e4c","system_id":"levelo_inurba_marseille","lat":43.26066,"lon":5.39392,"is_reserved":false,"is_disabled":true,"rental_uris":{"android":"levelo://app?vid=e60c1153-ceb4-4f72-92cd-2dc1051b5e4c","ios":"levelo://app?vid=e60c1153-ceb4-4f72-92cd-2dc1051b5e4c"},"vehicle_type_id":"4","last_reported":1742332121,"current_range_meters":13600,"station_id":"ce4bhh92rcd13ifvqfj0","pricing_plan_id":"cebpf4jnsgd1na2vs0mg"},{"bike_id":"9ca3bb79-a2d6-4b1d-bacb-81aee7604188","system_id":"levelo_inurba_marseille","lat":43.2856,"lon":5.39504,"is_reserved":false,"is_disabled":false,"rental_uris":{"android":"levelo://app?vid=9ca3bb79-a2d6-4b1d-bacb-81aee7604188","ios":"levelo://app?vid=9ca3bb79-a2d6-4b1d-bacb-81aee7604188"},"vehicle_type_id":"4","last_reported":1742332121,"current_range_meters":13600,"station_id":"ce4bh292rcd13ifvqdg0","pricing_plan_id":"cebpf4jnsgd1na2vs0mg"},{"bike_id":"202cf808-cc43-4e17-81cc-6677fd4bcb68","system_id":"levelo_inurba_marseille","lat":43.29806,"lon":5.39347,"is_reserved":false,"is_disabled":false,"rental_uris":{"android":"levelo://app?vid=202cf808-cc43-4e17-81cc-6677fd4bcb68","ios":"levelo://app?vid=202cf808-cc43-4e17-81cc-6677fd4bcb68"},"vehicle_type_id":"4","last_reported":1742332121,"current_range_meters":13600,"station_id":"chh1huq6cuj3fo74tm60","pricing_plan_id":"cebpf4jnsgd1na2vs0mg"},{"bike_id":"f7ec7579-ce4b-4e1f-8f96-ae037f27d71a","system_id":"levelo_inurba_marseille","lat":43.28613,"lon":5.35105,"is_reserved":false,"is_disabled":false,"rental_uris":{"android":"levelo://app?vid=f7ec7579-ce4b-4e1f-8f96-ae037f27d71a","ios":"levelo://app?vid=f7ec7579-ce4b-4e1f-8f96-ae037f27d71a"},"vehicle_type_id":"4","last_reported":1742332121,"current_range_meters":13600,"station_id":"ce4bhch2rcd13ifvqeug","pricing_plan_id":"cebpf4jnsgd1na2vs0mg"},{"bike_id":"116cee39-a217-4510-919a-c365ec655e68","system_id":"levelo_inurba_marseille","lat":43.27816,"lon":5.40696,"is_reserved":false,"is_disabled":false,"rental_uris":{"android":"levelo://app?vid=116cee39-a217-4510-919a-c365ec655e68","ios":"levelo://app?vid=116cee39-a217-4510-919a-c365ec655e68"},"vehicle_type_id":"4","last_reported":1742332121,"current_range_meters":13600,"station_id":"ce4bhnh2rcd13ifvqgtg","pricing_plan_id":"cebpf4jnsgd1na2vs0mg"},{"bike_id":"a1b6a2d3-5e84-4afd-bf8d-fb4e0c1a5cd1","system_id":"levelo_inurba_marseille","lat":43.28079,"lon":5.39659,"is_reserved":false,"is_disabled":false,"rental_uris":{"android":"levelo://app?vid=a1b6a2d3-5e84-4afd-bf8d-fb4e0c1a5cd1","ios":"levelo://app?vid=a1b6a2d3-5e84-4afd-bf8d-fb4e0c1a5cd1"},"vehicle_type_id":"4","last_reported":1742332121,"current_range_meters":13600,"station_id":"ce4bho12rcd13ifvqh2g","pricing_plan_id":"cebpf4jnsgd1na2vs0mg"},{"bike_id":"40519983-510e-4b9a-9562-e0995123f6e0","system_id":"levelo_inurba_marseille","lat":43.23189,"lon":5.35546,"is_reserved":false,"is_disabled":false,"rental_uris":{"android":"levelo://app?vid=40519983-510e-4b9a-9562-e0995123f6e0","ios":"levelo://app?vid=40519983-510e-4b9a-9562-e0995123f6e0"},"vehicle_type_id":"4","last_reported":1742332121,"current_range_meters":13600,"station_id":"ce4bhu92rcd13ifvqi70","pricing_plan_id":"cebpf4jnsgd1na2vs0mg"},{"bike_id":"94344c0c-c86f-4e16-b61d-11aacc1b7580","system_id":"levelo_inurba_marseille","lat":43.28713,"lon":5.4658,"is_reserved":false,"is_disabled":false,"rental_uris":{"android":"levelo://app?vid=94344c0c-c86f-4e16-b61d-11aacc1b7580","ios":"levelo://app?vid=94344c0c-c86f-4e16-b61d-11aacc1b7580"},"vehicle_type_id":"4","last_reported":1742332121,"current_range_meters":13600,"station_id":"","pricing_plan_id":"cebpf4jnsgd1na2vs0mg"},{"bike_id":"f5e56c0b-b016-42a5-a792-298d6ef21c20","system_id":"levelo_inurba_marseille","lat":43.24661,"lon":5.38165,"is_reserved":false,"is_disabled":false,"rental_uris":{"android":"levelo://app?vid=f5e56c0b-b016-42a5-a792-298d6ef21c20","ios":"levelo://app?vid=f5e56c0b-b016-42a5-a792-298d6ef21c20"},"vehicle_type_id":"4","last_reported":1742332121,"current_range_meters":13600,"station_id":"ce4bhih2rcd13ifvqfr0","pricing_plan_id":"cebpf4jnsgd1na2vs0mg"},{"bike_id":"89a66d15-b2b9-456f-bf55-c28ef57a6652","system_id":"levelo_inurba_marseille","lat":43.29041,"lon":5.35917,"is_reserved":false,"is_disabled":false,"rental_uris":{"android":"levelo://app?vid=89a66d15-b2b9-456f-bf55-c28ef57a6652","ios":"levelo://app?vid=89a66d15-b2b9-456f-bf55-c28ef57a6652"},"vehicle_type_id":"4","last_reported":1742332121,"current_range_meters":13600,"station_id":"ce4bha92rcd13ifvqeg0","pricing_plan_id":"cebpf4jnsgd1na2vs0mg"},{"bike_id":"2273a99d-9ec8-40fd-b2df-0ca03bee13dd","system_id":"levelo_inurba_marseille","lat":43.27956,"lon":5.41042,"is_reserved":false,"is_disabled":false,"rental_uris":{"android":"levelo://app?vid=2273a99d-9ec8-40fd-b2df-0ca03bee13dd","ios":"levelo://app?vid=2273a99d-9ec8-40fd-b2df-0ca03bee13dd"},"vehicle_type_id":"4","last_reported":1742332121,"current_range_meters":13600,"station_id":"ce4bhnp2rcd13ifvqh0g","pricing_plan_id":"cebpf4jnsgd1na2vs0mg"},{"bike_id":"e62c4628-e02c-4d18-93a4-2f038fe4001c","system_id":"levelo_inurba_marseille","lat":43.27492,"lon":5.4245,"is_reserved":false,"is_disabled":false,"rental_uris":{"android":"levelo://app?vid=e62c4628-e02c-4d18-93a4-2f038fe4001c","ios":"levelo://app?vid=e62c4628-e02c-4d18-93a4-2f038fe4001c"},"vehicle_type_id":"4","last_reported":1742332121,"current_range_meters":14000,"station_id":"ce4bhn92rcd13ifvqgrg","pricing_plan_id":"cebpf4jnsgd1na2vs0mg"},{"bike_id":"aad306d5-d65f-4309-a590-07abdb193c5a","system_id":"levelo_inurba_marseille","lat":43.30146,"lon":5.39865,"is_reserved":false,"is_disabled":false,"rental_uris":{"android":"levelo://app?vid=aad306d5-d65f-4309-a590-07abdb193c5a","ios":"levelo://app?vid=aad306d5-d65f-4309-a590-07abdb193c5a"},"vehicle_type_id":"4","last_reported":1742332121,"current_range_meters":13600,"station_id":"ce4bh0h2rcd13ifvqd40","pricing_plan_id":"cebpf4jnsgd1na2vs0mg"},{"bike_id":"662ea855-8b37-4c82-9ccb-5b116f38c3e2","system_id":"levelo_inurba_marseille","lat":43.29978,"lon":5.38485,"is_reserved":false,"is_disabled":false,"rental_uris":{"android":"levelo://app?vid=662ea855-8b37-4c82-9ccb-5b116f38c3e2","ios":"levelo://app?vid=662ea855-8b37-4c82-9ccb-5b116f38c3e2"},"vehicle_type_id":"4","last_reported":1742332121,"current_range_meters":14000,"station_id":"ce4bgj92rcd13ifvqbd0","pricing_plan_id":"cebpf4jnsgd1na2vs0mg"},{"bike_id":"26c3156d-8d38-4b11-92b6-f3f49ed4bf9b","system_id":"levelo_inurba_marseille","lat":43.27902,"lon":5.41217,"is_reserved":false,"is_disabled":false,"rental_uris":{"android":"levelo://app?vid=26c3156d-8d38-4b11-92b6-f3f49ed4bf9b","ios":"levelo://app?vid=26c3156d-8d38-4b11-92b6-f3f49ed4bf9b"},"vehicle_type_id":"4","last_reported":1742332121,"current_range_meters":14000,"station_id":"","pricing_plan_id":"cebpf4jnsgd1na2vs0mg"},{"bike_id":"3b43c329-d05f-4be1-981c-e8c5046b45fa","system_id":"levelo_inurba_marseille","lat":43.264872,"lon":5.393969,"is_reserved":false,"is_disabled":false,"rental_uris":{"android":"levelo://app?vid=3b43c329-d05f-4be1-981c-e8c5046b45fa","ios":"levelo://app?vid=3b43c329-d05f-4be1-981c-e8c5046b45fa"},"vehicle_type_id":"4","last_reported":1742332121,"current_range_meters":13600,"station_id":"ce4bhhh2rcd13ifvqfk0","pricing_plan_id":"cebpf4jnsgd1na2vs0mg"},{"bike_id":"aadb2f8c-155c-4734-84dd-a0e3df2d0be8","system_id":"levelo_inurba_marseille","lat":43.30798,"lon":5.43528,"is_reserved":false,"is_disabled":false,"rental_uris":{"android":"levelo://app?vid=aadb2f8c-155c-4734-84dd-a0e3df2d0be8","ios":"levelo://app?vid=aadb2f8c-155c-4734-84dd-a0e3df2d0be8"},"vehicle_type_id":"4","last_reported":1742332121,"current_range_meters":14000,"station_id":"ce4bhph2rcd13ifvqheg","pricing_plan_id":"cebpf4jnsgd1na2vs0mg"},{"bike_id":"da9e0a01-7d53-4bf3-936f-d2f19f7411b2","system_id":"levelo_inurba_marseille","lat":43.32036,"lon":5.4153,"is_reserved":false,"is_disabled":false,"rental_uris":{"android":"levelo://app?vid=da9e0a01-7d53-4bf3-936f-d2f19f7411b2","ios":"levelo://app?vid=da9e0a01-7d53-4bf3-936f-d2f19f7411b2"},"vehicle_type_id":"4","last_reported":1742332121,"current_range_meters":14400,"station_id":"ce4bhq92rcd13ifvqhkg","pricing_plan_id":"cebpf4jnsgd1na2vs0mg"},{"bike_id":"ec1afc7a-29f2-4653-b9fa-5a3c4cca4314","system_id":"levelo_inurba_marseille","lat":43.30265,"lon":5.40059,"is_reserved":false,"is_disabled":false,"rental_uris":{"android":"levelo://app?vid=ec1afc7a-29f2-4653-b9fa-5a3c4cca4314","ios":"levelo://app?vid=ec1afc7a-29f2-4653-b9fa-5a3c4cca4314"},"vehicle_type_id":"4","last_reported":1742332121,"current_range_meters":14400,"station_id":"ce4bgvh2rcd13ifvqcs0","pricing_plan_id":"cebpf4jnsgd1na2vs0mg"},{"bike_id":"00120ac6-86c1-4888-9a5a-a89f88aad79f","system_id":"levelo_inurba_marseille","lat":43.28856,"lon":5.35855,"is_reserved":false,"is_disabled":false,"rental_uris":{"android":"levelo://app?vid=00120ac6-86c1-4888-9a5a-a89f88aad79f","ios":"levelo://app?vid=00120ac6-86c1-4888-9a5a-a89f88aad79f"},"vehicle_type_id":"4","last_reported":1742332121,"current_range_meters":14400,"station_id":"ce4bhb12rcd13ifvqem0","pricing_plan_id":"cebpf4jnsgd1na2vs0mg"},{"bike_id":"3a93b571-ed30-4cd4-aca9-8a8fdc87a1c6","system_id":"levelo_inurba_marseille","lat":43.2396,"lon":5.36648,"is_reserved":false,"is_disabled":false,"rental_uris":{"android":"levelo://app?vid=3a93b571-ed30-4cd4-aca9-8a8fdc87a1c6","ios":"levelo://app?vid=3a93b571-ed30-4cd4-aca9-8a8fdc87a1c6"},"vehicle_type_id":"4","last_reported":1742332121,"current_range_meters":14400,"station_id":"ce4bhi12rcd13ifvqfp0","pricing_plan_id":"cebpf4jnsgd1na2vs0mg"},{"bike_id":"f8e86443-2f5a-41f6-84d8-23c69f9015fa","system_id":"levelo_inurba_marseille","lat":43.29921,"lon":5.37463,"is_reserved":false,"is_disabled":false,"rental_uris":{"android":"levelo://app?vid=f8e86443-2f5a-41f6-84d8-23c69f9015fa","ios":"levelo://app?vid=f8e86443-2f5a-41f6-84d8-23c69f9015fa"},"vehicle_type_id":"4","last_reported":1742332121,"current_range_meters":14400,"station_id":"ce4bgjh2rcd13ifvqbg0","pricing_plan_id":"cebpf4jnsgd1na2vs0mg"},{"bike_id":"2e55bbed-ab3e-4005-a238-a0380b8e8c6d","system_id":"levelo_inurba_marseille","lat":43.30317,"lon":5.40429,"is_reserved":false,"is_disabled":false,"rental_uris":{"android":"levelo://app?vid=2e55bbed-ab3e-4005-a238-a0380b8e8c6d","ios":"levelo://app?vid=2e55bbed-ab3e-4005-a238-a0380b8e8c6d"},"vehicle_type_id":"4","last_reported":1742332121,"current_range_meters":14400,"station_id":"ce4bh012rcd13ifvqd10","pricing_plan_id":"cebpf4jnsgd1na2vs0mg"},{"bike_id":"a87a25cc-2612-4dc9-ace2-de0237efc403","system_id":"levelo_inurba_marseille","lat":43.29529,"lon":5.38543,"is_reserved":false,"is_disabled":false,"rental_uris":{"android":"levelo://app?vid=a87a25cc-2612-4dc9-ace2-de0237efc403","ios":"levelo://app?vid=a87a25cc-2612-4dc9-ace2-de0237efc403"},"vehicle_type_id":"4","last_reported":1742332121,"current_range_meters":14000,"station_id":"ce4bgih2rcd13ifvqba0","pricing_plan_id":"cebpf4jnsgd1na2vs0mg"},{"bike_id":"4a529a04-a02c-489b-b187-392d4992e8e1","system_id":"levelo_inurba_marseille","lat":43.26803,"lon":5.40272,"is_reserved":false,"is_disabled":false,"rental_uris":{"android":"levelo://app?vid=4a529a04-a02c-489b-b187-392d4992e8e1","ios":"levelo://app?vid=4a529a04-a02c-489b-b187-392d4992e8e1"},