{"last_updated":1748697610,"ttl":60,"version":"2.2","data":{"bikes":[{"bike_id":"ae3a96aa-7fa6-448e-9c4d-ab1bd9dd3796","system_id":"levelo_inurba_marseille","lat":43.25115,"lon":5.40322,"is_reserved":false,"is_disabled":false,"rental_uris":{"android":"levelo://app?vid=ae3a96aa-7fa6-448e-9c4d-ab1bd9dd3796","ios":"levelo://app?vid=ae3a96aa-7fa6-448e-9c4d-ab1bd9dd3796"},"vehicle_type_id":"4","last_reported":1748697610,"current_range_meters":2800,"station_id":"ce4bhlh2rcd13ifvqgig","pricing_plan_id":"cebpf4jnsgd1na2vs0mg"},{"bike_id":"36240f0a-66a2-43ec-8330-1f3a9d08cc7e","system_id":"levelo_inurba_marseille","lat":43.23882,"lon":5.36287,"is_reserved":false,"is_disabled":false,"rental_uris":{"android":"levelo://app?vid=36240f0a-66a2-43ec-8330-1f3a9d08cc7e","ios":"levelo://app?vid=36240f0a-66a2-43ec-8330-1f3a9d08cc7e"},"vehicle_type_id":"4","last_reported":1748697610,"current_range_meters":2800,"station_id":"","pricing_plan_id":"cebpf4jnsgd1na2vs0mg"},{"bike_id":"187e91d2-c58b-43a7-9403-63cd35f943d0","system_id":"levelo_inurba_marseille","lat":43.30253,"lon":5.37775,"is_reserved":false,"is_disabled":false,"rental_uris":{"android":"levelo://app?vid=187e91d2-c58b-43a7-9403-63cd35f943d0","ios":"levelo://app?vid=187e91d2-c58b-43a7-9403-63cd35f943d0"},"vehicle_type_id":"4","last_reported":1748697610,"current_range_meters":2800,"station_id":"","pricing_plan_id":"cebpf4jnsgd1na2vs0mg"},{"bike_id":"1fb3d39c-915f-477e-bf02-f47bb33b3e28","system_id":"levelo_inurba_marseille","lat":43.27372,"lon":5.36261,"is_reserved":false,"is_disabled":false,"rental_uris":{"android":"levelo://app?vid=1fb3d39c-915f-477e-bf02-f47bb33b3e28","ios":"levelo://app?vid=1fb3d39c-915f-477e-bf02-f47bb33b3e28"},"vehicle_type_id":"4","last_reported":1748697610,"current_range_meters":2800,"station_id":"ce4bhbh2rcd13ifvqeo0","pricing_plan_id":"cebpf4jnsgd1na2vs0mg"},{"bike_id":"c40b5fb1-fb87-4a87-bbd6-c1f33aaedd7f","system_id":"levelo_inurba_marseille","lat":43.303691,"lon":5.424874,"is_reserved":false,"is_disabled":false,"rental_uris":{"android":"levelo://app?vid=c40b5fb1-fb87-4a87-bbd6-c1f33aaedd7f","ios":"levelo://app?vid=c40b5fb1-fb87-4a87-bbd6-c1f33aaedd7f"},"vehicle_type_id":"4","last_reported":1748697610,"current_range_meters":2800,"station_id":"ce4bhoh2rcd13ifvqh6g","pricing_plan_id":"cebpf4jnsgd1na2vs0mg"},{"bike_id":"55080048-1445-433c-8653-9f436d843131","system_id":"levelo_inurba_marseille","lat":43.28537,"lon":5.3695,"is_reserved":false,"is_disabled":false,"rental_uris":{"android":"levelo://app?vid=55080048-1445-433c-8653-9f436d843131","ios":"levelo://app?vid=55080048-1445-433c-8653-9f436d843131"},"vehicle_type_id":"4","last_reported":1748697610,"current_range_meters":3200,"station_id":"","pricing_plan_id":"cebpf4jnsgd1na2vs0mg"},{"bike_id":"0fbcf96c-7cdb-423c-93ad-185d4526270b","system_id":"levelo_inurba_marseille","lat":43.28615,"lon":5.3511,"is_reserved":false,"is_disabled":false,"rental_uris":{"android":"levelo://app?vid=0fbcf96c-7cdb-423c-93ad-185d4526270b","ios":"levelo://app?vid=0fbcf96c-7cdb-423c-93ad-185d4526270b"},"vehicle_type_id":"4","last_reported":1748697610,"current_range_meters":3200,"station_id":"ce4bhch2rcd13ifvqeug","pricing_plan_id":"cebpf4jnsgd1na2vs0mg"},{"bike_id":"87c0d1a7-a0ff-40c5-b12d-2e32e9eb469f","system_id":"levelo_inurba_marseille","lat":43.26036,"lon":5.37561,"is_reserved":false,"is_disabled":false,"rental_uris":{"android":"levelo://app?vid=87c0d1a7-a0ff-40c5-b12d-2e32e9eb469f","ios":"levelo://app?vid=87c0d1a7-a0ff-40c5-b12d-2e32e9eb469f"},"vehicle_type_id":"4","last_reported":1748697610,"current_range_meters":3200,"station_id":"ce4bhgh2rcd13ifvqfa0","pricing_plan_id":"cebpf4jnsgd1na2vs0mg"},{"bike_id":"5082850e-98e9-4943-84b9-003351360279","system_id":"levelo_inurba_marseille","lat":43.21744,"lon":5.34609,"is_reserved":false,"is_disabled":false,"rental_uris":{"android":"levelo://app?vid=5082850e-98e9-4943-84b9-003351360279","ios":"levelo://app?vid=5082850e-98e9-4943-84b9-003351360279"},"vehicle_type_id":"4","last_reported":1748697610,"current_range_meters":3600,"station_id":"st_cvj6r9ubvosntc0bgbag","pricing_plan_id":"cebpf4jnsgd1na2vs0mg"},{"bike_id":"4f6d9a6b-58cb-43ea-b115-f2d3a647997b","system_id":"levelo_inurba_marseille","lat":43.29201,"lon":5.39333,"is_reserved":false,"is_disabled":false,"rental_uris":{"android":"levelo://app?vid=4f6d9a6b-58cb-43ea-b115-f2d3a647997b","ios":"levelo://app?vid=4f6d9a6b-58cb-43ea-b115-f2d3a647997b"},"vehicle_type_id":"4","last_reported":1748697610,"current_range_meters":3600,"station_id":"ce4bh192rcd13ifvqdd0","pricing_plan_id":"cebpf4jnsgd1na2vs0mg"},{"bike_id":"89ffc610-8c1d-49ab-a16f-8e7b4f049e54","system_id":"levelo_inurba_marseille","lat":43.23186,"lon":5.39994,"is_reserved":false,"is_disabled":false,"rental_uris":{"android":"levelo://app?vid=89ffc610-8c1d-49ab-a16f-8e7b4f049e54","ios":"levelo://app?vid=89ffc610-8c1d-49ab-a16f-8e7b4f049e54"},"vehicle_type_id":"4","last_reported":1748697610,"current_range_meters":3600,"station_id":"ce4bhn12rcd13ifvqgqg","pricing_plan_id":"cebpf4jnsgd1na2vs0mg"},{"bike_id":"098ddbad-6831-4de5-9e36-e9087cd79f6f","system_id":"levelo_inurba_marseille","lat":43.288483,"lon":5.358411,"is_reserved":false,"is_disabled":false,"rental_uris":{"android":"levelo://app?vid=098ddbad-6831-4de5-9e36-e9087cd79f6f","ios":"levelo://app?vid=098ddbad-6831-4de5-9e36-e9087cd79f6f"},"vehicle_type_id":"4","last_reported":1748697610,"current_range_meters":4000,"station_id":"","pricing_plan_id":"cebpf4jnsgd1na2vs0mg"},{"bike_id":"b0ef799d-9ad8-4b33-97af-7fa7d8a21875","system_id":"levelo_inurba_marseille","lat":43.239668,"lon":5.366277,"is_reserved":false,"is_disabled":false,"rental_uris":{"android":"levelo://app?vid=b0ef799d-9ad8-4b33-97af-7fa7d8a21875","ios":"levelo://app?vid=b0ef799d-9ad8-4b33-97af-7fa7d8a21875"},"vehicle_type_id":"4","last_reported":1748697610,"current_range_meters":4000,"station_id":"ce4bhi12rcd13ifvqfp0","pricing_plan_id":"cebpf4jnsgd1na2vs0mg"},{"bike_id":"a150c8dc-8322-4dcb-a601-dac95bd42ffb","system_id":"levelo_inurba_marseille","lat":43.284162,"lon":5.349452,"is_reserved":false,"is_disabled":false,"rental_uris":{"android":"levelo://app?vid=a150c8dc-8322-4dcb-a601-dac95bd42ffb","ios":"levelo://app?vid=a150c8dc-8322-4dcb-a601-dac95bd42ffb"},"vehicle_type_id":"4","last_reported":1748697610,"current_range_meters":4000,"station_id":"ce4bhbh2rcd13ifvqepg","pricing_plan_id":"cebpf4jnsgd1na2vs0mg"},{"bike_id":"da5921cd-e75b-4ce7-b109-06c28f720590","system_id":"levelo_inurba_marseille","lat":43.28746,"lon":5.3615,"is_reserved":false,"is_disabled":false,"rental_uris":{"android":"levelo://app?vid=da5921cd-e75b-4ce7-b109-06c28f720590","ios":"levelo://app?vid=da5921cd-e75b-4ce7-b109-06c28f720590"},"vehicle_type_id":"4","last_reported":1748697610,"current_range_meters":4400,"station_id":"","pricing_plan_id":"cebpf4jnsgd1na2vs0mg"},{"bike_id":"ec54eac7-8378-43ad-addc-a6f86a9466c5","system_id":"levelo_inurba_marseille","lat":43.27948,"lon":5.41033,"is_reserved":false,"is_disabled":false,"rental_uris":{"android":"levelo://app?vid=ec54eac7-8378-43ad-addc-a6f86a9466c5","ios":"levelo://app?vid=ec54eac7-8378-43ad-addc-a6f86a9466c5"},"vehicle_type_id":"4","last_reported":1748697610,"current_range_meters":4400,"station_id":"ce4bhnp2rcd13ifvqh0g","pricing_plan_id":"cebpf4jnsgd1na2vs0mg"},{"bike_id":"bcbc7ed2-02dc-4453-9390-3dc2efc768e5","system_id":"levelo_inurba_marseille","lat":43.29283,"lon":5.40137,"is_reserved":false,"is_disabled":false,"rental_uris":{"android":"levelo://app?vid=bcbc7ed2-02dc-4453-9390-3dc2efc768e5","ios":"levelo://app?vid=bcbc7ed2-02dc-4453-9390-3dc2efc768e5"},"vehicle_type_id":"4","last_reported":1748697610,"current_range_meters":4400,"station_id":"ce4bh312rcd13ifvqdk0","pricing_plan_id":"cebpf4jnsgd1na2vs0mg"},{"bike_id":"bd8444ac-4d28-4af7-801b-c49e6e2acc88","system_id":"levelo_inurba_marseille","lat":43.27815,"lon":5.40715,"is_reserved":false,"is_disabled":false,"rental_uris":{"android":"levelo://app?vid=bd8444ac-4d28-4af7-801b-c49e6e2acc88","ios":"levelo://app?vid=bd8444ac-4d28-4af7-801b-c49e6e2acc88"},"vehicle_type_id":"4","last_reported":1748697610,"current_range_meters":4400,"station_id":"ce4bhnh2rcd13ifvqgtg","pricing_plan_id":"cebpf4jnsgd1na2vs0mg"},{"bike_id":"6a98cdba-2dcc-477a-ac63-d7e6af3668cd","system_id":"levelo_inurba_marseille","lat":43.28032,"lon":5.36944,"is_reserved":false,"is_disabled":false,"rental_uris":{"android":"levelo://app?vid=6a98cdba-2dcc-477a-ac63-d7e6af3668cd","ios":"levelo://app?vid=6a98cdba-2dcc-477a-ac63-d7e6af3668cd"},"vehicle_type_id":"4","last_reported":1748697610,"current_range_meters":4400,"station_id":"ce4bha12rcd13ifvqef0","pricing_plan_id":"cebpf4jnsgd1na2vs0mg"},{"bike_id":"0323f0cb-a3d7-425c-8d1c-86eff578bce9","system_id":"levelo_inurba_marseille","lat":43.25479,"lon":5.37697,"is_reserved":false,"is_disabled":false,"rental_uris":{"android":"levelo://app?vid=0323f0cb-a3d7-425c-8d1c-86eff578bce9","ios":"levelo://app?vid=0323f0cb-a3d7-425c-8d1c-86eff578bce9"},"vehicle_type_id":"4","last_reported":1748697610,"current_range_meters":4800,"station_id":"ce4bhh12rcd13ifvqff0","pricing_plan_id":"cebpf4jnsgd1na2vs0mg"},{"bike_id":"2c110106-8d97-48e2-9212-1e05a34025e7","system_id":"levelo_inurba_marseille","lat":43.265775,"lon":5.390295,"is_reserved":false,"is_disabled":false,"rental_uris":{"android":"levelo://app?vid=2c110106-8d97-48e2-9212-1e05a34025e7","ios":"levelo://app?vid=2c110106-8d97-48e2-9212-1e05a34025e7"},"vehicle_type_id":"4","last_reported":1748697610,"current_range_meters":4800,"station_id":"ce4bhe12rcd13ifvqf30","pricing_plan_id":"cebpf4jnsgd1na2vs0mg"},{"bike_id":"9aa74fe3-04d7-4b28-80ba-ede5d3bebaf7","system_id":"levelo_inurba_marseille","lat":43.28854,"lon":5.35862,"is_reserved":false,"is_disabled":false,"rental_uris":{"android":"levelo://app?vid=9aa74fe3-04d7-4b28-80ba-ede5d3bebaf7","ios":"levelo://app?vid=9aa74fe3-04d7-4b28-80ba-ede5d3bebaf7"},"vehicle_type_id":"4","last_reported":1748697610,"current_range_meters":4800,"station_id":"ce4bhb12rcd13ifvqem0","pricing_plan_id":"cebpf4jnsgd1na2vs0mg"},{"bike_id":"acdaa0f6-a750-419f-9f90-dcb7cee040b9","system_id":"levelo_inurba_marseille","lat":43.28266,"lon":5.35063,"is_reserved":false,"is_disabled":false,"rental_uris":{"android":"levelo://app?vid=acdaa0f6-a750-419f-9f90-dcb7cee040b9","ios":"levelo://app?vid=acdaa0f6-a750-419f-9f90-dcb7cee040b9"},"vehicle_type_id":"4","last_reported":1748697610,"current_range_meters":1200,"station_id":"ce4bhbp2rcd13ifvqerg","pricing_plan_id":"cebpf4jnsgd1na2vs0mg"},{"bike_id":"45d1f4f1-7783-4bd9-ba95-3414b4e6db8b","system_id":"levelo_inurba_marseille","lat":43.217473,"lon":5.34594,"is_reserved":false,"is_disabled":false,"rental_uris":{"android":"levelo://app?vid=45d1f4f1-7783-4bd9-ba95-3414b4e6db8b","ios":"levelo://app?vid=45d1f4f1-7783-4bd9-ba95-3414b4e6db8b"},"vehicle_type_id":"4","last_reported":1748697610,"current_range_meters":4800,"station_id":"st_cvj6r9ubvosntc0bgbag","pricing_plan_id":"cebpf4jnsgd1na2vs0mg"},{"bike_id":"ce005e1c-c98b-4da9-b31a-3cfec8edcc21","system_id":"levelo_inurba_marseille","lat":43.27945,"lon":5.41049,"is_reserved":false,"is_disabled":false,"rental_uris":{"android":"levelo://app?vid=ce005e1c-c98b-4da9-b31a-3cfec8edcc21","ios":"levelo://app?vid=ce005e1c-c98b-4da9-b31a-3cfec8edcc21"},"vehicle_type_id":"4","last_reported":1748697610,"current_range_meters":5600,"station_id":"ce4bhnp2rcd13ifvqh0g","pricing_plan_id":"cebpf4jnsgd1na2vs0mg"},{"bike_id":"5ac3febd-6c2a-411e-9a8f-db290e2abd46","system_id":"levelo_inurba_marseille","lat":43.24169,"lon":5.3639,"is_reserved":false,"is_disabled":false,"rental_uris":{"android":"levelo://app?vid=5ac3febd-6c2a-411e-9a8f-db290e2abd46","ios":"levelo://app?vid=5ac3febd-6c2a-411e-9a8f-db290e2abd46"},"vehicle_type_id":"4","last_reported":1748697610,"current_range_meters":5600,"station_id":"cpo36qri1sfpv3e86is0","pricing_plan_id":"cebpf4jnsgd1na2vs0mg"},{"bike_id":"0514caed-caa8-4442-8d6d-69f2f89d7ed9","system_id":"levelo_inurba_marseille","lat":43.26985,"lon":5.40358,"is_reserved":false,"is_disabled":false,"rental_uris":{"android":"levelo://app?vid=0514caed-caa8-4442-8d6d-69f2f89d7ed9","ios":"levelo://app?vid=0514caed-caa8-4442-8d6d-69f2f89d7ed9"},"vehicle_type_id":"4","last_reported":1748697610,"current_range_meters":5600,"station_id":"","pricing_plan_id":"cebpf4jnsgd1na2vs0mg"},{"bike_id":"854b0cf0-4938-481f-a5fa-56b46a144ce7","system_id":"levelo_inurba_marseille","lat":43.26557,"lon":5.40344,"is_reserved":false,"is_disabled":false,"rental_uris":{"android":"levelo://app?vid=854b0cf0-4938-481f-a5fa-56b46a144ce7","ios":"levelo://app?vid=854b0cf0-4938-481f-a5fa-56b46a144ce7"},"vehicle_type_id":"4","last_reported":1748697610,"current_range_meters":5600,"station_id":"","pricing_plan_id":"cebpf4jnsgd1na2vs0mg"},{"bike_id":"4823f666-5a5c-4e9f-b0f3-31b755993f54","system_id":"levelo_inurba_marseille","lat":43.21195,"lon":5.35071,"is_reserved":false,"is_disabled":false,"rental_uris":{"android":"levelo://app?vid=4823f666-5a5c-4e9f-b0f3-31b755993f54","ios":"levelo://app?vid=4823f666-5a5c-4e9f-b0f3-31b755993f54"},"vehicle_type_id":"4","last_reported":1748697610,"current_range_meters":5600,"station_id":"st_cvj6sg6p6f1abm77japg","pricing_plan_id":"cebpf4jnsgd1na2vs0mg"},{"bike_id":"d51ce887-b424-4beb-9f81-daebde16d27b","system_id":"levelo_inurba_marseille","lat":43.27376,"lon":5.3626,"is_reserved":false,"is_disabled":false,"rental_uris":{"android":"levelo://app?vid=d51ce887-b424-4beb-9f81-daebde16d27b","ios":"levelo://app?vid=d51ce887-b424-4beb-9f81-daebde16d27b"},"vehicle_type_id":"4","last_reported":1748697610,"current_range_meters":5600,"station_id":"ce4bhbh2rcd13ifvqeo0","pricing_plan_id":"cebpf4jnsgd1na2vs0mg"},{"bike_id":"401fa570-a835-47e5-82e0-6dab291328fc","system_id":"levelo_inurba_marseille","lat":43.28408,"lon":5.34986,"is_reserved":false,"is_disabled":false,"rental_uris":{"android":"levelo://app?vid=401fa570-a835-47e5-82e0-6dab291328fc","ios":"levelo://app?vid=401fa570-a835-47e5-82e0-6dab291328fc"},"vehicle_type_id":"4","last_reported":1748697610,"current_range_meters":6000,"station_id":"ce4bhbh2rcd13ifvqepg","pricing_plan_id":"cebpf4jnsgd1na2vs0mg"},{"bike_id":"c9e39e98-013b-4ec5-b67c-56f3c97783f3","system_id":"levelo_inurba_marseille","lat":43.27375,"lon":5.36256,"is_reserved":false,"is_disabled":false,"rental_uris":{"android":"levelo://app?vid=c9e39e98-013b-4ec5-b67c-56f3c97783f3","ios":"levelo://app?vid=c9e39e98-013b-4ec5-b67c-56f3c97783f3"},"vehicle_type_id":"4","last_reported":1748697610,"current_range_meters":6000,"station_id":"ce4bhbh2rcd13ifvqeo0","pricing_plan_id":"cebpf4jnsgd1na2vs0mg"},{"bike_id":"f80006c7-2f10-4ba5-bb7c-2b0507fde45f","system_id":"levelo_inurba_marseille","lat":43.23052,"lon":5.3549,"is_reserved":false,"is_disabled":false,"rental_uris":{"android":"levelo://app?vid=f80006c7-2f10-4ba5-bb7c-2b0507fde45f","ios":"levelo://app?vid=f80006c7-2f10-4ba5-bb7c-2b0507fde45f"},"vehicle_type_id":"4","last_reported":1748697610,"current_range_meters":6000,"station_id":"cpo3342slgdg3j2ifvpg","pricing_plan_id":"cebpf4jnsgd1na2vs0mg"},{"bike_id":"dc08b5ad-90dc-4ad4-8873-29eeea59c36d","system_id":"levelo_inurba_marseille","lat":43.27378,"lon":5.36254,"is_reserved":false,"is_disabled":false,"rental_uris":{"android":"levelo://app?vid=dc08b5ad-90dc-4ad4-8873-29eeea59c36d","ios":"levelo://app?vid=dc08b5ad-90dc-4ad4-8873-29eeea59c36d"},"vehicle_type_id":"4","last_reported":1748697610,"current_range_meters":6000,"station_id":"ce4bhbh2rcd13ifvqeo0","pricing_plan_id":"cebpf4jnsgd1na2vs0mg"},{"bike_id":"524711b4-be8c-4e38-abb0-59ce12681057","system_id":"levelo_inurba_marseille","lat":43.2307,"lon":5.35499,"is_reserved":false,"is_disabled":false,"rental_uris":{"android":"levelo://app?vid=524711b4-be8c-4e38-abb0-59ce12681057","ios":"levelo://app?vid=524711b4-be8c-4e38-abb0-59ce12681057"},"vehicle_type_id":"4","last_reported":1748697610,"current_range_meters":6400,"station_id":"cpo3342slgdg3j2ifvpg","pricing_plan_id":"cebpf4jnsgd1na2vs0mg"},{"bike_id":"eba016cb-b93f-4801-9ffc-1a62e530dfd1","system_id":"levelo_inurba_marseille","lat":43.28572,"lon":5.39497,"is_reserved":false,"is_disabled":false,"rental_uris":{"android":"levelo://app?vid=eba016cb-b93f-4801-9ffc-1a62e530dfd1","ios":"levelo://app?vid=eba016cb-b93f-4801-9ffc-1a62e530dfd1"},"vehicle_type_id":"4","last_reported":1748697610,"current_range_meters":6400,"station_id":"ce4bh292rcd13ifvqdg0","pricing_plan_id":"cebpf4jnsgd1na2vs0mg"},{"bike_id":"a5874b5d-5a83-423a-a7a8-7ad8503190a8","system_id":"levelo_inurba_marseille","lat":43.24166,"lon":5.364,"is_reserved":false,"is_disabled":false,"rental_uris":{"android":"levelo://app?vid=a5874b5d-5a83-423a-a7a8-7ad8503190a8","ios":"levelo://app?vid=a5874b5d-5a83-423a-a7a8-7ad8503190a8"},"vehicle_type_id":"4","last_reported":1748697610,"current_range_meters":6400,"station_id":"cpo36qri1sfpv3e86is0","pricing_plan_id":"cebpf4jnsgd1na2vs0mg"},{"bike_id":"2d8baa6c-4082-4305-8e85-1e19e913ba4d","system_id":"levelo_inurba_marseille","lat":43.27976,"lon":5.38732,"is_reserved":false,"is_disabled":false,"rental_uris":{"android":"levelo://app?vid=2d8baa6c-4082-4305-8e85-1e19e913ba4d","ios":"levelo://app?vid=2d8baa6c-4082-4305-8e85-1e19e913ba4d"},"vehicle_type_id":"4","last_reported":1748697610,"current_range_meters":6000,"station_id":"ce4bhg12rcd13ifvqf80","pricing_plan_id":"cebpf4jnsgd1na2vs0mg"},{"bike_id":"586d7e68-1782-4f9f-9be5-9a1640e83e42","system_id":"levelo_inurba_marseille","lat":43.23216,"lon":5.35596,"is_reserved":false,"is_disabled":false,"rental_uris":{"android":"levelo://app?vid=586d7e68-1782-4f9f-9be5-9a1640e83e42","ios":"levelo://app?vid=586d7e68-1782-4f9f-9be5-9a1640e83e42"},"vehicle_type_id":"4","last_reported":1748697610,"current_range_meters":6400,"station_id":"ce4bhu92rcd13ifvqi70","pricing_plan_id":"cebpf4jnsgd1na2vs0mg"},{"bike_id":"990df701-79a7-41ec-b963-3693dc590a87","system_id":"levelo_inurba_marseille","lat":43.30153,"lon":5.37945,"is_reserved":false,"is_disabled":false,"rental_uris":{"android":"levelo://app?vid=990df701-79a7-41ec-b963-3693dc590a87","ios":"levelo://app?vid=990df701-79a7-41ec-b963-3693dc590a87"},"vehicle_type_id":"4","last_reported":1748697610,"current_range_meters":6400,"station_id":"","pricing_plan_id":"cebpf4jnsgd1na2vs0mg"},{"bike_id":"dbd930c3-f591-4dea-af2a-ebea4556fd9f","system_id":"levelo_inurba_marseille","lat":43.3073,"lon":5.4244,"is_reserved":false,"is_disabled":false,"rental_uris":{"android":"levelo://app?vid=dbd930c3-f591-4dea-af2a-ebea4556fd9f","ios":"levelo://app?vid=dbd930c3-f591-4dea-af2a-ebea4556fd9f"},"vehicle_type_id":"4","last_reported":1748697610,"current_range_meters":6800,"station_id":"st_cvj6ca6bvosntc0bfgr0","pricing_plan_id":"cebpf4jnsgd1na2vs0mg"},{"bike_id":"d2277f78-bb28-4427-9974-c6795de51dff","system_id":"levelo_inurba_marseille","lat":43.282738,"lon":5.350712,"is_reserved":false,"is_disabled":false,"rental_uris":{"android":"levelo://app?vid=d2277f78-bb28-4427-9974-c6795de51dff","ios":"levelo://app?vid=d2277f78-bb28-4427-9974-c6795de51dff"},"vehicle_type_id":"4","last_reported":1748697610,"current_range_meters":6800,"station_id":"ce4bhbp2rcd13ifvqerg","pricing_plan_id":"cebpf4jnsgd1na2vs0mg"},{"bike_id":"41381839-a1c4-4fc7-be21-bc3ef930a758","system_id":"levelo_inurba_marseille","lat":43.29623,"lon":5.37728,"is_reserved":false,"is_disabled":false,"rental_uris":{"android":"levelo://app?vid=41381839-a1c4-4fc7-be21-bc3ef930a758","ios":"levelo://app?vid=41381839-a1c4-4fc7-be21-bc3ef930a758"},"vehicle_type_id":"4","last_reported":1748697610,"current_range_meters":6800,"station_id":"","pricing_plan_id":"cebpf4jnsgd1na2vs0mg"},{"bike_id":"8a1da20e-c1f3-49ae-aab0-f61684d5c637","system_id":"levelo_inurba_marseille","lat":43.25499,"lon":5.376533,"is_reserved":false,"is_disabled":false,"rental_uris":{"android":"levelo://app?vid=8a1da20e-c1f3-49ae-aab0-f61684d5c637","ios":"levelo://app?vid=8a1da20e-c1f3-49ae-aab0-f61684d5c637"},"vehicle_type_id":"4","last_reported":1748697610,"current_range_meters":6800,"station_id":"ce4bhh12rcd13ifvqff0","pricing_plan_id":"cebpf4jnsgd1na2vs0mg"},{"bike_id":"05bffbfa-1af8-4869-b9c6-88129fb53bb6","system_id":"levelo_inurba_marseille","lat":43.30888,"lon":5.39653,"is_reserved":false,"is_disabled":false,"rental_uris":{"android":"levelo://app?vid=05bffbfa-1af8-4869-b9c6-88129fb53bb6","ios":"levelo://app?vid=05bffbfa-1af8-4869-b9c6-88129fb53bb6"},"vehicle_type_id":"4","last_reported":1748697610,"current_range_meters":6800,"station_id":"ce4bh012rcd13ifvqcv0","pricing_plan_id":"cebpf4jnsgd1na2vs0mg"},{"bike_id":"d4e841b6-1853-456e-87db-bebc0b25a227","system_id":"levelo_inurba_marseille","lat":43.28264,"lon":5.35069,"is_reserved":false,"is_disabled":false,"rental_uris":{"android":"levelo://app?vid=d4e841b6-1853-456e-87db-bebc0b25a227","ios":"levelo://app?vid=d4e841b6-1853-456e-87db-bebc0b25a227"},"vehicle_type_id":"4","last_reported":1748697610,"current_range_meters":10000,"station_id":"ce4bhbp2rcd13ifvqerg","pricing_plan_id":"cebpf4jnsgd1na2vs0mg"},{"bike_id":"10fba1da-dea6-4a42-87e0-fd9c84ea9c5c","system_id":"levelo_inurba_marseille","lat":43.24169,"lon":5.36394,"is_reserved":false,"is_disabled":false,"rental_uris":{"android":"levelo://app?vid=10fba1da-dea6-4a42-87e0-fd9c84ea9c5c","ios":"levelo://app?vid=10fba1da-dea6-4a42-87e0-fd9c84ea9c5c"},"vehicle_type_id":"4","last_reported":1748697610,"current_range_meters":6800,"station_id":"cpo36qri1sfpv3e86is0","pricing_plan_id":"cebpf4jnsgd1na2vs0mg"},{"bike_id":"45b56108-97b3-4866-acaf-953e76596f06","system_id":"levelo_inurba_marseille","lat":43.2416,"lon":5.36401,"is_reserved":false,"is_disabled":false,"rental_uris":{"android":"levelo://app?vid=45b56108-97b3-4866-acaf-953e76596f06","ios":"levelo://app?vid=45b56108-97b3-4866-acaf-953e76596f06"},"vehicle_type_id":"4","last_reported":1748697610,"current_range_meters":7200,"station_id":"cpo36qri1sfpv3e86is0","pricing_plan_id":"cebpf4jnsgd1na2vs0mg"},{"bike_id":"a882f5db-172f-4f11-bf66-7e2c36364bb7","system_id":"levelo_inurba_marseille","lat":43.29553,"lon":5.42283,"is_reserved":false,"is_disabled":false,"rental_uris":{"android":"levelo://app?vid=a882f5db-172f-4f11-bf66-7e2c36364bb7","ios":"levelo://app?vid=a882f5db-172f-4f11-bf66-7e2c36364bb7"},"vehicle_type_id":"4","last_reported":1748697610,"current_range_meters":7200,"station_id":"ce4bhph2rcd13ifvqhdg","pricing_plan_id":"cebpf4jnsgd1na2vs0mg"},{"bike_id":"a9318f46-e737-4682-846d-9eef8ecfbd38","system_id":"levelo_inurba_marseille","lat":43.26773,"lon":5.39428,"is_reserved":false,"is_disabled":false,"rental_uris":{"android":"levelo://app?vid=a9318f46-e737-4682-846d-9eef8ecfbd38","ios":"levelo://app?vid=a9318f46-e737-4682-846d-9eef8ecfbd38"},"vehicle_type_id":"4","last_reported":1748697610,"current_range_meters":7200,"station_id":"ce4bhh12rcd13ifvqfg0","pricing_plan_id":"cebpf4jnsgd1na2vs0mg"},{"bike_id":"a326951f-0eaf-4b67-9913-457e6cd35573","system_id":"levelo_inurba_marseille","lat":43.23186,"lon":5.35545,"is_reserved":false,"is_disabled":false,"rental_uris":{"android":"levelo://app?vid=a326951f-0eaf-4b67-9913-457e6cd35573","ios":"levelo://app?vid=a326951f-0eaf-4b67-9913-457e6cd35573"},"vehicle_type_id":"4","last_reported":1748697610,"current_range_meters":7200,"station_id":"ce4bhu92rcd13ifvqi70","pricing_plan_id":"cebpf4jnsgd1na2vs0mg"},{"bike_id":"3feffd94-b1f8-4904-a4cf-e5629abe4092","system_id":"levelo_inurba_marseille","lat":43.2594,"lon":5.40924,"is_reserved":false,"is_disabled":false,"rental_uris":{"android":"levelo://app?vid=3feffd94-b1f8-4904-a4cf-e5629abe4092","ios":"levelo://app?vid=3feffd94-b1f8-4904-a4cf-e5629abe4092"},"vehicle_type_id":"4","last_reported":1748697610,"current_range_meters":7200,"station_id":"ce4bhm92rcd13ifvqglg","pricing_plan_id":"cebpf4jnsgd1na2vs0mg"},{"bike_id":"f5f64fe6-e75b-4412-8ae5-4c6ffa965e31","system_id":"levelo_inurba_marseille","lat":43.27892,"lon":5.38054,"is_reserved":false,"is_disabled":false,"rental_uris":{"android":"levelo://app?vid=f5f64fe6-e75b-4412-8ae5-4c6ffa965e31","ios":"levelo://app?vid=f5f64fe6-e75b-4412-8ae5-4c6ffa965e31"},"vehicle_type_id":"4","last_reported":1748697610,"current_range_meters":7200,"station_id":"ce4bhf92rcd13ifvqf50","pricing_plan_id":"cebpf4jnsgd1na2vs0mg"},{"bike_id":"3218ebdf-a14f-4fb8-90d2-538c781a4176","system_id":"levelo_inurba_marseille","lat":43.2768,"lon":5.38871,"is_reserved":false,"is_disabled":false,"rental_uris":{"android":"levelo://app?vid=3218ebdf-a14f-4fb8-90d2-538c781a4176","ios":"levelo://app?vid=3218ebdf-a14f-4fb8-90d2-538c781a4176"},"vehicle_type_id":"4","last_reported":1748697610,"current_range_meters":7200,"station_id":"ce4bhi12rcd13ifvqfo0","pricing_plan_id":"cebpf4jnsgd1na2vs0mg"},{"bike_id":"7243d7c8-02f5-4392-89cf-8c360e846d55","system_id":"levelo_inurba_marseille","lat":43.252789,"lon":5.378194,"is_reserved":false,"is_disabled":false,"rental_uris":{"android":"levelo://app?vid=7243d7c8-02f5-4392-89cf-8c360e846d55","ios":"levelo://app?vid=7243d7c8-02f5-4392-89cf-8c360e846d55"},"vehicle_type_id":"4","last_reported":1748697610,"current_range_meters":8000,"station_id":"","pricing_plan_id":"cebpf4jnsgd1na2vs0mg"},{"bike_id":"43d4e202-de2b-462c-8655-ce55b382fb4e","system_id":"levelo_inurba_marseille","lat":43.23154,"lon":5.43706,"is_reserved":false,"is_disabled":false,"rental_uris":{"android":"levelo://app?vid=43d4e202-de2b-462c-8655-ce55b382fb4e","ios":"levelo://app?vid=43d4e202-de2b-462c-8655-ce55b382fb4e"},"vehicle_type_id":"4","last_reported":1748697610,"current_range_meters":8000,"station_id":"ce4bhmp2rcd13ifvqgog","pricing_plan_id":"cebpf4jnsgd1na2vs0mg"},{"bike_id":"10922054-f21d-4e36-a99a-72234633d66d","system_id":"levelo_inurba_marseille","lat":43.27059,"lon":5.40257,"is_reserved":false,"is_disabled":false,"rental_uris":{"android":"levelo://app?vid=10922054-f21d-4e36-a99a-72234633d66d","ios":"levelo://app?vid=10922054-f21d-4e36-a99a-72234633d66d"},"vehicle_type_id":"4","last_reported":1748697610,"current_range_meters":8000,"station_id":"ce4bhk92rcd13ifvqgc0","pricing_plan_id":"cebpf4jnsgd1na2vs0mg"},{"bike_id":"f244d914-3d56-4c77-a8c5-1826b53f448b","system_id":"levelo_inurba_marseille","lat":43.2678,"lon":5.39418,"is_reserved":false,"is_disabled":false,"rental_uris":{"android":"levelo://app?vid=f244d914-3d56-4c77-a8c5-1826b53f448b","ios":"levelo://app?vid=f244d914-3d56-4c77-a8c5-1826b53f448b"},"vehicle_type_id":"4","last_reported":1748697610,"current_range_meters":8000,"station_id":"ce4bhh12rcd13ifvqfg0","pricing_plan_id":"cebpf4jnsgd1na2vs0mg"},{"bike_id":"471fccc4-e0a0-45c9-96ca-25361ad546a7","system_id":"levelo_inurba_marseille","lat":43.21774,"lon":5.34577,"is_reserved":false,"is_disabled":false,"rental_uris":{"android":"levelo://app?vid=471fccc4-e0a0-45c9-96ca-25361ad546a7","ios":"levelo://app?vid=471fccc4-e0a0-45c9-96ca-25361ad546a7"},"vehicle_type_id":"4","last_reported":1748697610,"current_range_meters":8400,"station_id":"st_cvj6r9ubvosntc0bgbag","pricing_plan_id":"cebpf4jnsgd1na2vs0mg"},{"bike_id":"d02ba7d2-914d-425a-8b2a-f1259e1c2fbf","system_id":"levelo_inurba_marseille","lat":43.2623,"lon":5.40446,"is_reserved":false,"is_disabled":false,"rental_uris":{"android":"levelo://app?vid=d02ba7d2-914d-425a-8b2a-f1259e1c2fbf","ios":"levelo://app?vid=d02ba7d2-914d-425a-8b2a-f1259e1c2fbf"},"vehicle_type_id":"4","last_reported":1748697610,"current_range_meters":8400,"station_id":"ce4bhmh2rcd13ifvqgmg","pricing_plan_id":"cebpf4jnsgd1na2vs0mg"},{"bike_id":"029444e3-a148-4469-b824-2d6ab43d58a5","system_id":"levelo_inurba_marseille","lat":43.28733,"lon":5.3609,"is_reserved":false,"is_disabled":false,"rental_uris":{"android":"levelo://app?vid=029444e3-a148-4469-b824-2d6ab43d58a5","ios":"levelo://app?vid=029444e3-a148-4469-b824-2d6ab43d58a5"},"vehicle_type_id":"4","last_reported":1748697610,"current_range_meters":8800,"station_id":"cki0cbj6b192h4jlfktg","pricing_plan_id":"cebpf4jnsgd1na2vs0mg"},{"bike_id":"a00af93e-c231-410c-87c6-8361ab8b0837","system_id":"levelo_inurba_marseille","lat":43.289457,"lon":5.364038,"is_reserved":false,"is_disabled":false,"rental_uris":{"android":"levelo://app?vid=a00af93e-c231-410c-87c6-8361ab8b0837","ios":"levelo://app?vid=a00af93e-c231-410c-87c6-8361ab8b0837"},"vehicle_type_id":"4","last_reported":1748697610,"current_range_meters":8800,"station_id":"","pricing_plan_id":"cebpf4jnsgd1na2vs0mg"},{"bike_id":"d16f5222-3d1e-4d65-a992-1bc93f719178","system_id":"levelo_inurba_marseille","lat":43.303299,"lon":5.365878,"is_reserved":false,"is_disabled":false,"rental_uris":{"android":"levelo://app?vid=d16f5222-3d1e-4d65-a992-1bc93f719178","ios":"levelo://app?vid=d16f5222-3d1e-4d65-a992-1bc93f719178"},"vehicle_type_id":"4","last_reported":1748697610,"current_range_meters":8800,"station_id":"","pricing_plan_id":"cebpf4jnsgd1na2vs0mg"},{"bike_id":"662af0d9-b4f1-4513-bbd2-fd65be6229e5","system_id":"levelo_inurba_marseille","lat":43.25913,"lon":5.40842,"is_reserved":false,"is_disabled":false,"rental_uris":{"android":"levelo://app?vid=662af0d9-b4f1-4513-bbd2-fd65be6229e5","ios":"levelo://app?vid=662af0d9-b4f1-4513-bbd2-fd65be6229e5"},"vehicle_type_id":"4","last_reported":1748697610,"current_range_meters":8800,"station_id":"ce4bhm92rcd13ifvqglg","pricing_plan_id":"cebpf4jnsgd1na2vs0mg"},{"bike_id":"ef4b8ede-1877-41db-b371-aa67fb983004","system_id":"levelo_inurba_marseille","lat":43.28106,"lon":5.37835,"is_reserved":false,"is_disabled":false,"rental_uris":{"android":"levelo://app?vid=ef4b8ede-1877-41db-b371-aa67fb983004","ios":"levelo://app?vid=ef4b8ede-1877-41db-b371-aa67fb983004"},"vehicle_type_id":"4","last_reported":1748697610,"current_range_meters":8800,"station_id":"ce4bha12rcd13ifvqee0","pricing_plan_id":"cebpf4jnsgd1na2vs0mg"},{"bike_id":"0eeb8d78-4e09-4917-a0f6-a855cf66389e","system_id":"levelo_inurba_marseille","lat":43.30734,"lon":5.42439,"is_reserved":false,"is_disabled":false,"rental_uris":{"android":"levelo://app?vid=0eeb8d78-4e09-4917-a0f6-a855cf66389e","ios":"levelo://app?vid=0eeb8d78-4e09-4917-a0f6-a855cf66389e"},"vehicle_type_id":"4","last_reported":1748697610,"current_range_meters":8800,"station_id":"st_cvj6ca6bvosntc0bfgr0","pricing_plan_id":"cebpf4jnsgd1na2vs0mg"},{"bike_id":"800e8cb1-63bb-43ac-88f7-89d4bf563d96","system_id":"levelo_inurba_marseille","lat":43.28465,"lon":5.3589,"is_reserved":false,"is_disabled":false,"rental_uris":{"android":"levelo://app?vid=800e8cb1-63bb-43ac-88f7-89d4bf563d96","ios":"levelo://app?vid=800e8cb1-63bb-43ac-88f7-89d4bf563d96"},"vehicle_type_id":"4","last_reported":1748697610,"current_range_meters":8800,"station_id":"ce4bhah2rcd13ifvqei0","pricing_plan_id":"cebpf4jnsgd1na2vs0mg"},{"bike_id":"d2fadd0f-282e-4df4-bae4-fbc413f8b665","system_id":"levelo_inurba_marseille","lat":43.29191,"lon":5.39315,"is_reserved":false,"is_disabled":false,"rental_uris":{"android":"levelo://app?vid=d2fadd0f-282e-4df4-bae4-fbc413f8b665","ios":"levelo://app?vid=d2fadd0f-282e-4df4-bae4-fbc413f8b665"},"vehicle_type_id":"4","last_reported":1748697610,"current_range_meters":9200,"station_id":"ce4bh192rcd13ifvqdd0","pricing_plan_id":"cebpf4jnsgd1na2vs0mg"},{"bike_id":"008a8b5c-da32-426f-bdcf-6db4c9f404d8","system_id":"levelo_inurba_marseille","lat":43.22935,"lon":5.35382,"is_reserved":false,"is_disabled":false,"rental_uris":{"android":"levelo://app?vid=008a8b5c-da32-426f-bdcf-6db4c9f404d8","ios":"levelo://app?vid=008a8b5c-da32-426f-bdcf-6db4c9f404d8"},"vehicle_type_id":"4","last_reported":1748697610,"current_range_meters":8800,"station_id":"cpo3532slgdg3j2ikp40","pricing_plan_id":"cebpf4jnsgd1na2vs0mg"},{"bike_id":"f0012670-04e8-44ad-ae17-5630e3d7eeb8","system_id":"levelo_inurba_marseille","lat":43.23199,"lon":5.39986,"is_reserved":false,"is_disabled":false,"rental_uris":{"android":"levelo://app?vid=f0012670-04e8-44ad-ae17-5630e3d7eeb8","ios":"levelo://app?vid=f0012670-04e8-44ad-ae17-5630e3d7eeb8"},"vehicle_type_id":"4","last_reported":1748697610,"current_range_meters":9200,"station_id":"ce4bhn12rcd13ifvqgqg","pricing_plan_id":"cebpf4jnsgd1na2vs0mg"},{"bike_id":"ddb39ea0-8810-42ec-a4f9-49ab13a2e394","system_id":"levelo_inurba_marseille","lat":43.28461,"lon":5.35876,"is_reserved":false,"is_disabled":false,"rental_uris":{"android":"levelo://app?vid=ddb39ea0-8810-42ec-a4f9-49ab13a2e394","ios":"levelo://app?vid=ddb39ea0-8810-42ec-a4f9-49ab13a2e394"},"vehicle_type_id":"4","last_reported":1748697610,"current_range_meters":9200,"station_id":"ce4bhah2rcd13ifvqei0","pricing_plan_id":"cebpf4jnsgd1na2vs0mg"},{"bike_id":"a672e2ce-ff65-491a-baf8-b5fcce4f4059","system_id":"levelo_inurba_marseille","lat":43.31697,"lon":5.39065,"is_reserved":false,"is_disabled":false,"rental_uris":{"android":"levelo://app?vid=a672e2ce-ff65-491a-baf8-b5fcce4f4059","ios":"levelo://app?vid=a672e2ce-ff65-491a-baf8-b5fcce4f4059"},"vehicle_type_id":"4","last_reported":1748697610,"current_range_meters":9600,"station_id":"","pricing_plan_id":"cebpf4jnsgd1na2vs0mg"},{"bike_id":"f61266f9-9ef3-44c7-b1fc-8a9106712a53","system_id":"levelo_inurba_marseille","lat":43.21752,"lon":5.34622,"is_reserved":false,"is_disabled":false,"rental_uris":{"android":"levelo://app?vid=f61266f9-9ef3-44c7-b1fc-8a9106712a53","ios":"levelo://app?vid=f61266f9-9ef3-44c7-b1fc-8a9106712a53"},"vehicle_type_id":"4","last_reported":1748697610,"current_range_meters":9600,"station_id":"st_cvj6r9ubvosntc0bgbag","pricing_plan_id":"cebpf4jnsgd1na2vs0mg"},{"bike_id":"50a05a08-679a-45e8-ba7e-b31da32ae3b2","system_id":"levelo_inurba_marseille","lat":43.29197,"lon":5.35809,"is_reserved":false,"is_disabled":false,"rental_uris":{"android":"levelo://app?vid=50a05a08-679a-45e8-ba7e-b31da32ae3b2","ios":"levelo://app?vid=50a05a08-679a-45e8-ba7e-b31da32ae3b2"},"vehicle_type_id":"4","last_reported":1748697610,"current_range_meters":9600,"station_id":"ce4bhb12rcd13ifvqel0","pricing_plan_id":"cebpf4jnsgd1na2vs0mg"},{"bike_id":"3d1c46f6-4edf-4333-9694-a8d754201811","system_id":"levelo_inurba_marseille","lat":43.28858,"lon":5.35842,"is_reserved":false,"is_disabled":false,"rental_uris":{"android":"levelo://app?vid=3d1c46f6-4edf-4333-9694-a8d754201811","ios":"levelo://app?vid=3d1c46f6-4edf-4333-9694-a8d754201811"},"vehicle_type_id":"4","last_reported":1748697610,"current_range_meters":9600,"station_id":"ce4bhb12rcd13ifvqem0","pricing_plan_id":"cebpf4jnsgd1na2vs0mg"},{"bike_id":"2386d5f3-e5e5-4bbc-9a9c-b268c1a186c0","system_id":"levelo_inurba_marseille","lat":43.2293,"lon":5.35378,"is_reserved":false,"is_disabled":false,"rental_uris":{"android":"levelo://app?vid=2386d5f3-e5e5-4bbc-9a9c-b268c1a186c0","ios":"levelo://app?vid=2386d5f3-e5e5-4bbc-9a9c-b268c1a186c0"},"vehicle_type_id":"4","last_reported":1748697610,"current_range_meters":9600,"station_id":"cpo3532slgdg3j2ikp40","pricing_plan_id":"cebpf4jnsgd1na2vs0mg"},{"bike_id":"95cd80fa-c2e5-401c-95da-632e1df7bbde","system_id":"levelo_inurba_marseille","lat":43.23143,"lon":5.43717,"is_reserved":false,"is_disabled":false,"rental_uris":{"android":"levelo://app?vid=95cd80fa-c2e5-401c-95da-632e1df7bbde","ios":"levelo://app?vid=95cd80fa-c2e5-401c-95da-632e1df7bbde"},"vehicle_type_id":"4","last_reported":1748697610,"current_range_meters":10000,"station_id":"ce4bhmp2rcd13ifvqgog","pricing_plan_id":"cebpf4jnsgd1na2vs0mg"},{"bike_id":"7d2b61ba-579f-4a8b-b824-9fddaf0f9c00","system_id":"levelo_inurba_marseille","lat":43.23154,"lon":5.43718,"is_reserved":false,"is_disabled":false,"rental_uris":{"android":"levelo://app?vid=7d2b61ba-579f-4a8b-b824-9fddaf0f9c00","ios":"levelo://app?vid=7d2b61ba-579f-4a8b-b824-9fddaf0f9c00"},"vehicle_type_id":"4","last_reported":1748697610,"current_range_meters":10000,"station_id":"ce4bhmp2rcd13ifvqgog","pricing_plan_id":"cebpf4jnsgd1na2vs0mg"},{"bike_id":"9c35a4e5-0c2c-4fd2-91a9-0fbeab4c095f","system_id":"levelo_inurba_marseille","lat":43.27382,"lon":5.36257,"is_reserved":false,"is_disabled":false,"rental_uris":{"android":"levelo://app?vid=9c35a4e5-0c2c-4fd2-91a9-0fbeab4c095f","ios":"levelo://app?vid=9c35a4e5-0c2c-4fd2-91a9-0fbeab4c095f"},"vehicle_type_id":"4","last_reported":1748697610,"current_range_meters":10000,"station_id":"ce4bhbh2rcd13ifvqeo0","pricing_plan_id":"cebpf4jnsgd1na2vs0mg"},{"bike_id":"90661731-e0ab-494e-b197-0ad194ea14f4","system_id":"levelo_inurba_marseille","lat":43.26924,"lon":5.403,"is_reserved":false,"is_disabled":false,"rental_uris":{"android":"levelo://app?vid=90661731-e0ab-494e-b197-0ad194ea14f4","ios":"levelo://app?vid=90661731-e0ab-494e-b197-0ad194ea14f4"},"vehicle_type_id":"4","last_reported":1748697610,"current_range_meters":10000,"station_id":"cjm6bp8fraef2m0cb0m0","pricing_plan_id":"cebpf4jnsgd1na2vs0mg"},{"bike_id":"8d48119e-760e-4c00-b401-59af0a322afa","system_id":"levelo_inurba_marseille","lat":43.256533,"lon":5.408539,"is_reserved":false,"is_disabled":false,"rental_uris":{"android":"levelo://app?vid=8d48119e-760e-4c00-b401-59af0a322afa","ios":"levelo://app?vid=8d48119e-760e-4c00-b401-59af0a322afa"},"vehicle_type_id":"4","last_reported":1748697610,"current_range_meters":10000,"station_id":"","pricing_plan_id":"cebpf4jnsgd1na2vs0mg"},{"bike_id":"b18036e4-cdbb-441f-a4f1-99c9cdbece34","system_id":"levelo_inurba_marseille","lat":43.29494,"lon":5.39075,"is_reserved":false,"is_disabled":false,"rental_uris":{"android":"levelo://app?vid=b18036e4-cdbb-441f-a4f1-99c9cdbece34","ios":"levelo://app?vid=b18036e4-cdbb-441f-a4f1-99c9cdbece34"},"vehicle_type_id":"4","last_reported":1748697610,"current_range_meters":10000,"station_id":"ce4bh3p2rcd13ifvqdp0","pricing_plan_id":"cebpf4jnsgd1na2vs0mg"},{"bike_id":"ea38004f-4b35-4f79-8ae0-27c6868e4bdf","system_id":"levelo_inurba_marseille","lat":43.29624,"lon":5.3717,"is_reserved":false,"is_disabled":false,"rental_uris":{"android":"levelo://app?vid=ea38004f-4b35-4f79-8ae0-27c6868e4bdf","ios":"levelo://app?vid=ea38004f-4b35-4f79-8ae0-27c6868e4bdf"},"vehicle_type_id":"4","last_reported":1748697610,"current_range_meters":12000,"station_id":"ce4bgnh2rcd13ifvqc0g","pricing_plan_id":"cebpf4jnsgd1na2vs0mg"},{"bike_id":"392a68ac-fff4-45ac-8bf1-87ec938f1cf5","system_id":"levelo_inurba_marseille","lat":43.231947,"lon":5.35554,"is_reserved":false,"is_disabled":false,"rental_uris":{"android":"levelo://app?vid=392a68ac-fff4-45ac-8bf1-87ec938f1cf5","ios":"levelo://app?vid=392a68ac-fff4-45ac-8bf1-87ec938f1cf5"},"vehicle_type_id":"4","last_reported":1748697610,"current_range_meters":10800,"station_id":"ce4bhu92rcd13ifvqi70","pricing_plan_id":"cebpf4jnsgd1na2vs0mg"},{"bike_id":"f4431ae7-57a2-44b7-b0f4-0bd0d29a42ab","system_id":"levelo_inurba_marseille","lat":43.26928,"lon":5.40258,"is_reserved":false,"is_disabled":false,"rental_uris":{"android":"levelo://app?vid=f4431ae7-57a2-44b7-b0f4-0bd0d29a42ab","ios":"levelo://app?vid=f4431ae7-57a2-44b7-b0f4-0bd0d29a42ab"},"vehicle_type_id":"4","last_reported":1748697610,"current_range_meters":10800,"station_id":"cjm6bp8fraef2m0cb0m0","pricing_plan_id":"cebpf4jnsgd1na2vs0mg"},{"bike_id":"5291cf4b-2021-40c9-9a7c-11e51c847979","system_id":"levelo_inurba_marseille","lat":43.23132,"lon":5.43754,"is_reserved":false,"is_disabled":false,"rental_uris":{"android":"levelo://app?vid=5291cf4b-2021-40c9-9a7c-11e51c847979","ios":"levelo://app?vid=5291cf4b-2021-40c9-9a7c-11e51c847979"},"vehicle_type_id":"4","last_reported":1748697610,"current_range_meters":10800,"station_id":"ce4bhmp2rcd13ifvqgog","pricing_plan_id":"cebpf4jnsgd1na2vs0mg"},{"bike_id":"4c149bc0-61a6-47e8-90e6-46529b8411ab","system_id":"levelo_inurba_marseille","lat":43.28848,"lon":5.35866,"is_reserved":false,"is_disabled":false,"rental_uris":{"android":"levelo://app?vid=4c149bc0-61a6-47e8-90e6-46529b8411ab","ios":"levelo://app?vid=4c149bc0-61a6-47e8-90e6-46529b8411ab"},"vehicle_type_id":"4","last_reported":1748697610,"current_range_meters":10800,"station_id":"ce4bhb12rcd13ifvqem0","pricing_plan_id":"cebpf4jnsgd1na2vs0mg"},{"bike_id":"26d757ab-5901-4d3b-b68e-1945cba49fe6","system_id":"levelo_inurba_marseille","lat":43.26943,"lon":5.4025,"is_reserved":false,"is_disabled":false,"rental_uris":{"android":"levelo://app?vid=26d757ab-5901-4d3b-b68e-1945cba49fe6","ios":"levelo://app?vid=26d757ab-5901-4d3b-b68e-1945cba49fe6"},"vehicle_type_id":"4","last_reported":1748697610,"current_range_meters":10800,"station_id":"cjm6bp8fraef2m0cb0m0","pricing_plan_id":"cebpf4jnsgd1na2vs0mg"},{"bike_id":"6dbec55b-fee0-4a3a-9ed2-723f9ae1c783","system_id":"levelo_inurba_marseille","lat":43.298916,"lon":5.436602,"is_reserved":false,"is_disabled":true,"rental_uris":{"android":"levelo://app?vid=6dbec55b-fee0-4a3a-9ed2-723f9ae1c783","ios":"levelo://app?vid=6dbec55b-fee0-4a3a-9ed2-723f9ae1c783"},"vehicle_type_id":"4","last_reported":1748697610,"current_range_meters":11200,"station_id":"ce4bhpp2rcd13ifvqhfg","pricing_plan_id":"cebpf4jnsgd1na2vs0mg"},{"bike_id":"c576df7b-decb-4040-9f20-7c78d9b8bf5c","system_id":"levelo_inurba_marseille","lat":43.2986,"lon":5.36291,"is_reserved":false,"is_disabled":false,"rental_uris":{"android":"levelo://app?vid=c576df7b-decb-4040-9f20-7c78d9b8bf5c","ios":"levelo://app?vid=c576df7b-decb-4040-9f20-7c78d9b8bf5c"},"vehicle_type_id":"4","last_reported":1748697610,"current_range_meters":11200,"station_id":"ce4bgpp2rcd13ifvqc3g","pricing_plan_id":"cebpf4jnsgd1na2vs0mg"},{"bike_id":"d895e51e-3321-4c19-bd44-193e005adb94","system_id":"levelo_inurba_marseille","lat":43.24082,"lon":5.3775,"is_reserved":false,"is_disabled":false,"rental_uris":{"android":"levelo://app?vid=d895e51e-3321-4c19-bd44-193e005adb94","ios":"levelo://app?vid=d895e51e-3321-4c19-bd44-193e005adb94"},"vehicle_type_id":"4","last_reported":1748697610,"current_range_meters":11200,"station_id":"ce4bhnp2rcd13ifvqgvg","pricing_plan_id":"cebpf4jnsgd1na2vs0mg"},{"bike_id":"25866adb-6a96-4a09-8ec1-e154dc548fb4","system_id":"levelo_inurba_marseille","lat":43.231915,"lon":5.35555,"is_reserved":false,"is_disabled":false,"rental_uris":{"android":"levelo://app?vid=25866adb-6a96-4a09-8ec1-e154dc548fb4","ios":"levelo://app?vid=25866adb-6a96-4a09-8ec1-e154dc548fb4"},"vehicle_type_id":"4","last_reported":1748697610,"current_range_meters":11200,"station_id":"ce4bhu92rcd13ifvqi70","pricing_plan_id":"cebpf4jnsgd1na2vs0mg"},{"bike_id":"dfc6964a-7e15-4f5d-9faf-f56504505ccd","system_id":"levelo_inurba_marseille","lat":43.24173,"lon":5.36399,"is_reserved":false,"is_disabled":false,"rental_uris":{"android":"levelo://app?vid=dfc6964a-7e15-4f5d-9faf-f56504505ccd","ios":"levelo://app?vid=dfc6964a-7e15-4f5d-9faf-f56504505ccd"},"vehicle_type_id":"4","last_reported":1748697610,"current_range_meters":11200,"station_id":"cpo36qri1sfpv3e86is0","pricing_plan_id":"cebpf4jnsgd1na2vs0mg"},{"bike_id":"b28abc00-7db7-4211-9853-5715e0eeb4ff","system_id":"levelo_inurba_marseille","lat":43.27069,"lon":5.40264,"is_reserved":false,"is_disabled":false,"rental_uris":{"android":"levelo://app?vid=b28abc00-7db7-4211-9853-5715e0eeb4ff","ios":"levelo://app?vid=b28abc00-7db7-4211-9853-5715e0eeb4ff"},"vehicle_type_id":"4","last_reported":1748697610,"current_range_meters":11200,"station_id":"ce4bhk92rcd13ifvqgc0","pricing_plan_id":"cebpf4jnsgd1na2vs0mg"},{"bike_id":"0d3bab2f-26cf-41f1-82dd-bb5db963b288","system_id":"levelo_inurba_marseille","lat":43.32542,"lon":5.36483,"is_reserved":false,"is_disabled":true,"rental_uris":{"android":"levelo://app?vid=0d3bab2f-26cf-41f1-82dd-bb5db963b288","ios":"levelo://app?vid=0d3bab2f-26cf-41f1-82dd-bb5db963b288"},"vehicle_type_id":"4","last_reported":1748697610,"current_range_meters":11200,"station_id":"","pricing_plan_id":"cebpf4jnsgd1na2vs0mg"},{"bike_id":"7d434e27-643b-44eb-8fbf-1f24c5425c8a","system_id":"levelo_inurba_marseille","lat":43.273688,"lon":5.362561,"is_reserved":false,"is_disabled":false,"rental_uris":{"android":"levelo://app?vid=7d434e27-643b-44eb-8fbf-1f24c5425c8a","ios":"levelo://app?vid=7d434e27-643b-44eb-8fbf-1f24c5425c8a"},"vehicle_type_id":"4","last_reported":1748697610,"current_range_meters":11600,"station_id":"ce4bhf92rcd13ifvqf50","pricing_plan_id":"cebpf4jnsgd1na2vs0mg"},{"bike_id":"70a6db2d-83b3-48ee-b09e-79f00c1ff217","system_id":"levelo_inurba_marseille","lat":43.21788,"lon":5.34609,"is_reserved":false,"is_disabled":false,"rental_uris":{"android":"levelo://app?vid=70a6db2d-83b3-48ee-b09e-79f00c1ff217","ios":"levelo://app?vid=70a6db2d-83b3-48ee-b09e-79f00c1ff217"},"vehicle_type_id":"4","last_reported":1748697610,"current_range_meters":11600,"station_id":"","pricing_plan_id":"cebpf4jnsgd1na2vs0mg"},{"bike_id":"f6f2d12e-a4a2-452c-89dc-2ace48746d96","system_id":"levelo_inurba_marseille","lat":43.30588,"lon":5.39347,"is_reserved":false,"is_disabled":false,"rental_uris":{"android":"levelo://app?vid=f6f2d12e-a4a2-452c-89dc-2ace48746d96","ios":"levelo://app?vid=f6f2d12e-a4a2-452c-89dc-2ace48746d96"},"vehicle_type_id":"4","last_reported":1748697610,"current_range_meters":11600,"station_id":"ce4bh0p2rcd13ifvqd80","pricing_plan_id":"cebpf4jnsgd1na2vs0mg"},{"bike_id":"934904aa-b6fe-443c-8d85-9d5ac099efe4","system_id":"levelo_inurba_marseille","lat":43.2174,"lon":5.34612,"is_reserved":false,"is_disabled":false,"rental_uris":{"android":"levelo://app?vid=934904aa-b6fe-443c-8d85-9d5ac099efe4","ios":"levelo://app?vid=934904aa-b6fe-443c-8d85-9d5ac099efe4"},"vehicle_type_id":"4","last_reported":1748697610,"current_range_meters":11600,"station_id":"st_cvj6r9ubvosntc0bgbag","pricing_plan_id":"cebpf4jnsgd1na2vs0mg"},{"bike_id":"965f07d7-e957-45ef-953c-8871a1c8c78d","system_id":"levelo_inurba_marseille","lat":43.231962,"lon":5.355542,"is_reserved":false,"is_disabled":false,"rental_uris":{"android":"levelo://app?vid=965f07d7-e957-45ef-953c-8871a1c8c78d","ios":"levelo://app?vid=965f07d7-e957-45ef-953c-8871a1c8c78d"},"vehicle_type_id":"4","last_reported":1748697610,"current_range_meters":11600,"station_id":"ce4bhu92rcd13ifvqi70","pricing_plan_id":"cebpf4jnsgd1na2vs0mg"},{"bike_id":"17833936-ec43-4ee5-bc0a-dd29aebd677f","system_id":"levelo_inurba_marseille","lat":43.30794,"lon":5.38167,"is_reserved":false,"is_disabled":false,"rental_uris":{"android":"levelo://app?vid=17833936-ec43-4ee5-bc0a-dd29aebd677f","ios":"levelo://app?vid=17833936-ec43-4ee5-bc0a-dd29aebd677f"},"vehicle_type_id":"4","last_reported":1748697610,"current_range_meters":11600,"station_id":"ce4bgt12rcd13ifvqce0","pricing_plan_id":"cebpf4jnsgd1na2vs0mg"},{"bike_id":"98c2806c-b507-46a6-b3e4-083401463953","system_id":"levelo_inurba_marseille","lat":43.28616,"lon":5.35116,"is_reserved":false,"is_disabled":false,"rental_uris":{"android":"levelo://app?vid=98c2806c-b507-46a6-b3e4-083401463953","ios":"levelo://app?vid=98c2806c-b507-46a6-b3e4-083401463953"},"vehicle_type_id":"4","last_reported":1748697610,"current_range_meters":12000,"station_id":"ce4bhch2rcd13ifvqeug","pricing_plan_id":"cebpf4jnsgd1na2vs0mg"},{"bike_id":"d27ffe16-fc74-4871-9152-d39faf1a6680","system_id":"levelo_inurba_marseille","lat":43.29236,"lon":5.39274,"is_reserved":false,"is_disabled":false,"rental_uris":{"android":"levelo://app?vid=d27ffe16-fc74-4871-9152-d39faf1a6680","ios":"levelo://app?vid=d27ffe16-fc74-4871-9152-d39faf1a6680"},"vehicle_type_id":"4","last_reported":1748697610,"current_range_meters":12000,"station_id":"ce4bh192rcd13ifvqdd0","pricing_plan_id":"cebpf4jnsgd1na2vs0mg"},{"bike_id":"1082d39e-a299-40ef-a4cc-ed279ee47e3c","system_id":"levelo_inurba_marseille","lat":43.26036,"lon":5.37543,"is_reserved":false,"is_disabled":false,"rental_uris":{"android":"levelo://app?vid=1082d39e-a299-40ef-a4cc-ed279ee47e3c","ios":"levelo://app?vid=1082d39e-a299-40ef-a4cc-ed279ee47e3c"},"vehicle_type_id":"4","last_reported":1748697610,"current_range_meters":12000,"station_id":"ce4bhgh2rcd13ifvqfa0","pricing_plan_id":"cebpf4jnsgd1na2vs0mg"},{"bike_id":"43fcadd4-ff94-430e-a1ec-23b77368e446","system_id":"levelo_inurba_marseille","lat":43.29861,"lon":5.3629,"is_reserved":false,"is_disabled":false,"rental_uris":{"android":"levelo://app?vid=43fcadd4-ff94-430e-a1ec-23b77368e446","ios":"levelo://app?vid=43fcadd4-ff94-430e-a1ec-23b77368e446"},"vehicle_type_id":"4","last_reported":1748697610,"current_range_meters":12000,"station_id":"ce4bgpp2rcd13ifvqc3g","pricing_plan_id":"cebpf4jnsgd1na2vs0mg"},{"bike_id":"a7bc0857-ba13-43fa-9be2-c26b232e5a26","system_id":"levelo_inurba_marseille","lat":43.25938,"lon":5.40916,"is_reserved":false,"is_disabled":false,"rental_uris":{"android":"levelo://app?vid=a7bc0857-ba13-43fa-9be2-c26b232e5a26","ios":"levelo://app?vid=a7bc0857-ba13-43fa-9be2-c26b232e5a26"},"vehicle_type_id":"4","last_reported":1748697610,"current_range_meters":12000,"station_id":"ce4bhm92rcd13ifvqglg","pricing_plan_id":"cebpf4jnsgd1na2vs0mg"},{"bike_id":"2a68e5b8-c62d-411e-9497-cbcc81b31a2f","system_id":"levelo_inurba_marseille","lat":43.337444,"lon":5.374475,"is_reserved":false,"is_disabled":false,"rental_uris":{"android":"levelo://app?vid=2a68e5b8-c62d-411e-9497-cbcc81b31a2f","ios":"levelo://app?vid=2a68e5b8-c62d-411e-9497-cbcc81b31a2f"},"vehicle_type_id":"4","last_reported":1748697610,"current_range_meters":12000,"station_id":"ce4bhdp2rcd13ifvqf20","pricing_plan_id":"cebpf4jnsgd1na2vs0mg"},{"bike_id":"b558dbd4-60fc-4bc3-8a12-3081d0913e00","system_id":"levelo_inurba_marseille","lat":43.290313,"lon":5.399465,"is_reserved":false,"is_disabled":false,"rental_uris":{"android":"levelo://app?vid=b558dbd4-60fc-4bc3-8a12-3081d0913e00","ios":"levelo://app?vid=b558dbd4-60fc-4bc3-8a12-3081d0913e00"},"vehicle_type_id":"4","last_reported":1748697610,"current_range_meters":12000,"station_id":"ce4bh392rcd13ifvqdm0","pricing_plan_id":"cebpf4jnsgd1na2vs0mg"},{"bike_id":"0a9ffdd7-c167-4d81-8c08-db4e255360a4","system_id":"levelo_inurba_marseille","lat":43.279987,"lon":5.40028,"is_reserved":false,"is_disabled":false,"rental_uris":{"android":"levelo://app?vid=0a9ffdd7-c167-4d81-8c08-db4e255360a4","ios":"levelo://app?vid=0a9ffdd7-c167-4d81-8c08-db4e255360a4"},"vehicle_type_id":"4","last_reported":1748697610,"current_range_meters":12000,"station_id":"ce4bho92rcd13ifvqh4g","pricing_plan_id":"cebpf4jnsgd1na2vs0mg"},{"bike_id":"ca45ae50-8fdf-43fd-8443-30c134198d86","system_id":"levelo_inurba_marseille","lat":43.265626,"lon":5.40323,"is_reserved":false,"is_disabled":false,"rental_uris":{"android":"levelo://app?vid=ca45ae50-8fdf-43fd-8443-30c134198d86","ios":"levelo://app?vid=ca45ae50-8fdf-43fd-8443-30c134198d86"},"vehicle_type_id":"4","last_reported":1748697610,"current_range_meters":12000,"station_id":"","pricing_plan_id":"cebpf4jnsgd1na2vs0mg"},{"bike_id":"1ad9dfec-dcd7-490e-92d0-8a5cd3dd77d8","system_id":"levelo_inurba_marseille","lat":43.21746,"lon":5.34602,"is_reserved":false,"is_disabled":false,"rental_uris":{"android":"levelo://app?vid=1ad9dfec-dcd7-490e-92d0-8a5cd3dd77d8","ios":"levelo://app?vid=1ad9dfec-dcd7-490e-92d0-8a5cd3dd77d8"},"vehicle_type_id":"4","last_reported":1748697610,"current_range_meters":12000,"station_id":"st_cvj6r9ubvosntc0bgbag","pricing_plan_id":"cebpf4jnsgd1na2vs0mg"},{"bike_id":"03c1751e-ef60-4175-a52f-4759bb9df88b","system_id":"levelo_inurba_marseille","lat":43.279551,"lon":5.387453,"is_reserved":false,"is_disabled":false,"rental_uris":{"android":"levelo://app?vid=03c1751e-ef60-4175-a52f-4759bb9df88b","ios":"levelo://app?vid=03c1751e-ef60-4175-a52f-4759bb9df88b"},"vehicle_type_id":"4","last_reported":1748697610,"current_range_meters":12000,"station_id":"ce4bhg12rcd13ifvqf80","pricing_plan_id":"cebpf4jnsgd1na2vs0mg"},{"bike_id":"2306f234-c7cb-4cfa-9e08-21d539ff6845","system_id":"levelo_inurba_marseille","lat":43.28041,"lon":5.36974,"is_reserved":false,"is_disabled":false,"rental_uris":{"android":"levelo://app?vid=2306f234-c7cb-4cfa-9e08-21d539ff6845","ios":"levelo://app?vid=2306f234-c7cb-4cfa-9e08-21d539ff6845"},"vehicle_type_id":"4","last_reported":1748697610,"current_range_meters":12400,"station_id":"ce4bha12rcd13ifvqef0","pricing_plan_id":"cebpf4jnsgd1na2vs0mg"},{"bike_id":"4de4869b-de06-4e44-a694-4c7e41c789a8","system_id":"levelo_inurba_marseille","lat":43.25938,"lon":5.40896,"is_reserved":false,"is_disabled":false,"rental_uris":{"android":"levelo://app?vid=4de4869b-de06-4e44-a694-4c7e41c789a8","ios":"levelo://app?vid=4de4869b-de06-4e44-a694-4c7e41c789a8"},"vehicle_type_id":"4","last_reported":1748697610,"current_range_meters":12400,"station_id":"ce4bhm92rcd13ifvqglg","pricing_plan_id":"cebpf4jnsgd1na2vs0mg"},{"bike_id":"65f08f79-58de-4b14-bb3e-4c737bd70e12","system_id":"levelo_inurba_marseille","lat":43.231809,"lon":5.400315,"is_reserved":false,"is_disabled":false,"rental_uris":{"android":"levelo://app?vid=65f08f79-58de-4b14-bb3e-4c737bd70e12","ios":"levelo://app?vid=65f08f79-58de-4b14-bb3e-4c737bd70e12"},"vehicle_type_id":"4","last_reported":1748697610,"current_range_meters":12400,"station_id":"","pricing_plan_id":"cebpf4jnsgd1na2vs0mg"},{"bike_id":"fc08cf5f-1d94-442a-a897-a37c56018fdb","system_id":"levelo_inurba_marseille","lat":43.26947,"lon":5.38642,"is_reserved":false,"is_disabled":false,"rental_uris":{"android":"levelo://app?vid=fc08cf5f-1d94-442a-a897-a37c56018fdb","ios":"levelo://app?vid=fc08cf5f-1d94-442a-a897-a37c56018fdb"},"vehicle_type_id":"4","last_reported":1748697610,"current_range_meters":12000,"station_id":"ce4bhh92rcd13ifvqfh0","pricing_plan_id":"cebpf4jnsgd1na2vs0mg"},{"bike_id":"c9a8ab5e-4f64-4e9c-8db2-4dbad5a71d1d","system_id":"levelo_inurba_marseille","lat":43.21779,"lon":5.34576,"is_reserved":false,"is_disabled":false,"rental_uris":{"android":"levelo://app?vid=c9a8ab5e-4f64-4e9c-8db2-4dbad5a71d1d","ios":"levelo://app?vid=c9a8ab5e-4f64-4e9c-8db2-4dbad5a71d1d"},"vehicle_type_id":"4","last_reported":1748697610,"current_range_meters":12400,"station_id":"","pricing_plan_id":"cebpf4jnsgd1na2vs0mg"},{"bike_id":"78abdce2-500e-46f5-9d50-c85a5bb1c0e8","system_id":"levelo_inurba_marseille","lat":43.23153,"lon":5.43716,"is_reserved":false,"is_disabled":false,"rental_uris":{"android":"levelo://app?vid=78abdce2-500e-46f5-9d50-c85a5bb1c0e8","ios":"levelo://app?vid=78abdce2-500e-46f5-9d50-c85a5bb1c0e8"},"vehicle_type_id":"4","last_reported":1748697610,"current_range_meters":12400,"station_id":"ce4bhmp2rcd13ifvqgog","pricing_plan_id":"cebpf4jnsgd1na2vs0mg"},{"bike_id":"7e1d8fff-912b-4ced-948b-9365d6edf3c4","system_id":"levelo_inurba_marseille","lat":43.24801,"lon":5.37457,"is_reserved":false,"is_disabled":false,"rental_uris":{"android":"levelo://app?vid=7e1d8fff-912b-4ced-948b-9365d6edf3c4","ios":"levelo://app?vid=7e1d8fff-912b-4ced-948b-9365d6edf3c4"},"vehicle_type_id":"4","last_reported":1748697610,"current_range_meters":12800,"station_id":"ce4bhgh2rcd13ifvqfb0","pricing_plan_id":"cebpf4jnsgd1na2vs0mg"},{"bike_id":"e6bf0c37-d2a0-4cf7-bda5-bdec7e2a1f23","system_id":"levelo_inurba_marseille","lat":43.32289,"lon":5.38266,"is_reserved":false,"is_disabled":false,"rental_uris":{"android":"levelo://app?vid=e6bf0c37-d2a0-4cf7-bda5-bdec7e2a1f23","ios":"levelo://app?vid=e6bf0c37-d2a0-4cf7-bda5-bdec7e2a1f23"},"vehicle_type_id":"4","last_reported":1748697610,"current_range_meters":12800,"station_id":"ce4bhr12rcd13ifvqhqg","pricing_plan_id":"cebpf4jnsgd1na2vs0mg"},{"bike_id":"03cf0df6-ebcf-49b4-962e-0bf9da3bd21e","system_id":"levelo_inurba_marseille","lat":43.23152,"lon":5.43716,"is_reserved":false,"is_disabled":false,"rental_uris":{"android":"levelo://app?vid=03cf0df6-ebcf-49b4-962e-0bf9da3bd21e","ios":"levelo://app?vid=03cf0df6-ebcf-49b4-962e-0bf9da3bd21e"},"vehicle_type_id":"4","last_reported":1748697610,"current_range_meters":12800,"station_id":"ce4bhmp2rcd13ifvqgog","pricing_plan_id":"cebpf4jnsgd1na2vs0mg"},{"bike_id":"125a785d-6ac5-4d33-8427-57e0b0f50cf8","system_id":"levelo_inurba_marseille","lat":43.30323,"lon":5.40433,"is_reserved":false,"is_disabled":false,"rental_uris":{"android":"levelo://app?vid=125a785d-6ac5-4d33-8427-57e0b0f50cf8","ios":"levelo://app?vid=125a785d-6ac5-4d33-8427-57e0b0f50cf8"},"vehicle_type_id":"4","last_reported":1748697610,"current_range_meters":12800,"station_id":"ce4bh012rcd13ifvqd10","pricing_plan_id":"cebpf4jnsgd1na2vs0mg"},{"bike_id":"b04d5455-5434-4814-9842-d48044ad8796","system_id":"levelo_inurba_marseille","lat":43.25116,"lon":5.40318,"is_reserved":false,"is_disabled":false,"rental_uris":{"android":"levelo://app?vid=b04d5455-5434-4814-9842-d48044ad8796","ios":"levelo://app?vid=b04d5455-5434-4814-9842-d48044ad8796"},"vehicle_type_id":"4","last_reported":1748697610,"current_range_meters":12800,"station_id":"ce4bhlh2rcd13ifvqgig","pricing_plan_id":"cebpf4jnsgd1na2vs0mg"},{"bike_id":"85b57ead-8a3b-4148-81a7-7994880056e9","system_id":"levelo_inurba_marseille","lat":43.2174,"lon":5.34621,"is_reserved":false,"is_disabled":false,"rental_uris":{"android":"levelo://app?vid=85b57ead-8a3b-4148-81a7-7994880056e9","ios":"levelo://app?vid=85b57ead-8a3b-4148-81a7-7994880056e9"},"vehicle_type_id":"4","last_reported":1748697610,"current_range_meters":12800,"station_id":"st_cvj6r9ubvosntc0bgbag","pricing_plan_id":"cebpf4jnsgd1na2vs0mg"},{"bike_id":"19a57760-976a-4e9e-9574-031ae5d054e7","system_id":"levelo_inurba_marseille","lat":43.299409,"lon":5.36562,"is_reserved":false,"is_disabled":false,"rental_uris":{"android":"levelo://app?vid=19a57760-976a-4e9e-9574-031ae5d054e7","ios":"levelo://app?vid=19a57760-976a-4e9e-9574-031ae5d054e7"},"vehicle_type_id":"4","last_reported":1748697610,"current_range_meters":12800,"station_id":"","pricing_plan_id":"cebpf4jnsgd1na2vs0mg"},{"bike_id":"e6901d81-8f28-4d7d-9700-121d525d1548","system_id":"levelo_inurba_marseille","lat":43.21755,"lon":5.34608,"is_reserved":false,"is_disabled":false,"rental_uris":{"android":"levelo://app?vid=e6901d81-8f28-4d7d-9700-121d525d1548","ios":"levelo://app?vid=e6901d81-8f28-4d7d-9700-121d525d1548"},"vehicle_type_id":"4","last_reported":1748697610,"current_range_meters":12800,"station_id":"st_cvj6r9ubvosntc0bgbag","pricing_plan_id":"cebpf4jnsgd1na2vs0mg"},{"bike_id":"eba3a276-3f7a-4e47-8bcd-541a1f5dfdf8","system_id":"levelo_inurba_marseille","lat":43.23149,"lon":5.43721,"is_reserved":false,"is_disabled":false,"rental_uris":{"android":"levelo://app?vid=eba3a276-3f7a-4e47-8bcd-541a1f5dfdf8","ios":"levelo://app?vid=eba3a276-3f7a-4e47-8bcd-541a1f5dfdf8"},"vehicle_type_id":"4","last_reported":1748697610,"current_range_meters":13600,"station_id":"ce4bhmp2rcd13ifvqgog","pricing_plan_id":"cebpf4jnsgd1na2vs0mg"},{"bike_id":"b4a389d7-474d-4a9d-8dec-223a88612b5c","system_id":"levelo_inurba_marseille","lat":43.24975,"lon":5.37963,"is_reserved":false,"is_disabled":false,"rental_uris":{"android":"levelo://app?vid=b4a389d7-474d-4a9d-8dec-223a88612b5c","ios":"levelo://app?vid=b4a389d7-474d-4a9d-8dec-223a88612b5c"},"vehicle_type_id":"4","last_reported":1748697610,"current_range_meters":13600,"station_id":"","pricing_plan_id":"cebpf4jnsgd1na2vs0mg"},{"bike_id":"bef96db7-48d8-4f30-8db3-5f0291ef01df","system_id":"levelo_inurba_marseille","lat":43.21743,"lon":5.34616,"is_reserved":false,"is_disabled":false,"rental_uris":{"android":"levelo://app?vid=bef96db7-48d8-4f30-8db3-5f0291ef01df","ios":"levelo://app?vid=bef96db7-48d8-4f30-8db3-5f0291ef01df"},"vehicle_type_id":"4","last_reported":1748697610,"current_range_meters":13600,"station_id":"st_cvj6r9ubvosntc0bgbag","pricing_plan_id":"cebpf4jnsgd1na2vs0mg"},{"bike_id":"fc261dea-90c3-43c9-9782-bad5cc5489f0","system_id":"levelo_inurba_marseille","lat":43.27561,"lon":5.38422,"is_reserved":false,"is_disabled":false,"rental_uris":{"android":"levelo://app?vid=fc261dea-90c3-43c9-9782-bad5cc5489f0","ios":"levelo://app?vid=fc261dea-90c3-43c9-9782-bad5cc5489f0"},"vehicle_type_id":"4","last_reported":1748697610,"current_range_meters":13600,"station_id":"ce4bhh92rcd13ifvqfi0","pricing_plan_id":"cebpf4jnsgd1na2vs0mg"},{"bike_id":"14036455-f919-44f7-8d5e-0b2e84f48674","system_id":"levelo_inurba_marseille","lat":43.309249,"lon":5.403915,"is_reserved":false,"is_disabled":false,"rental_uris":{"android":"levelo://app?vid=14036455-f919-44f7-8d5e-0b2e84f48674","ios":"levelo://app?vid=14036455-f919-44f7-8d5e-0b2e84f48674"},"vehicle_type_id":"4","last_reported":1748697610,"current_range_meters":13600,"station_id":"","pricing_plan_id":"cebpf4jnsgd1na2vs0mg"},{"bike_id":"b65820a6-71b6-463a-b108-89b82a591dd2","system_id":"levelo_inurba_marseille","lat":43.21192,"lon":5.35068,"is_reserved":false,"is_disabled":false,"rental_uris":{"android":"levelo://app?vid=b65820a6-71b6-463a-b108-89b82a591dd2","ios":"levelo://app?vid=b65820a6-71b6-463a-b108-89b82a591dd2"},"vehicle_type_id":"4","last_reported":1748697610,"current_range_meters":14000,"station_id":"st_cvj6sg6p6f1abm77japg","pricing_plan_id":"cebpf4jnsgd1na2vs0mg"},{"bike_id":"b291f25c-3028-4fdb-96cf-468e4c033f05","system_id":"levelo_inurba_marseille","lat":43.299405,"lon":5.365638,"is_reserved":false,"is_disabled":false,"rental_uris":{"android":"levelo://app?vid=b291f25c-3028-4fdb-96cf-468e4c033f05","ios":"levelo://app?vid=b291f25c-3028-4fdb-96cf-468e4c033f05"},"vehicle_type_id":"4","last_reported":1748697610,"current_range_meters":14000,"station_id":"ce4bgm92rcd13ifvqbr0","pricing_plan_id":"cebpf4jnsgd1na2vs0mg"},{"bike_id":"86c63410-ac27-45d8-9490-e471d9078397","system_id":"levelo_inurba_marseille","lat":43.299394,"lon":5.3656,"is_reserved":false,"is_disabled":false,"rental_uris":{"android":"levelo://app?vid=86c63410-ac27-45d8-9490-e471d9078397","ios":"levelo://app?vid=86c63410-ac27-45d8-9490-e471d9078397"},"vehicle_type_id":"4","last_reported":1748697610,"current_range_meters":14000,"station_id":"","pricing_plan_id":"cebpf4jnsgd1na2vs0mg"},{"bike_id":"b50609fe-871b-4904-824b-ee2be6c32b2d","system_id":"levelo_inurba_marseille","lat":43.21748,"lon":5.34601,"is_reserved":false,"is_disabled":false,"rental_uris":{"android":"levelo://app?vid=b50609fe-871b-4904-824b-ee2be6c32b2d","ios":"levelo://app?vid=b50609fe-871b-4904-824b-ee2be6c32b2d"},"vehicle_type_id":"4","last_reported":1748697610,"current_range_meters":14000,"station_id":"st_cvj6r9ubvosntc0bgbag","pricing_plan_id":"cebpf4jnsgd1na2vs0mg"},{"bike_id":"348ddc31-f232-46b0-bbef-5931b86212cf","system_id":"levelo_inurba_marseille","lat":43.24161,"lon":5.39749,"is_reserved":false,"is_disabled":false,"rental_uris":{"android":"levelo://app?vid=348ddc31-f232-46b0-bbef-5931b86212cf","ios":"levelo://app?vid=348ddc31-f232-46b0-bbef-5931b86212cf"},"vehicle_type_id":"4","last_reported":1748697610,"current_range_meters":14000,"station_id":"ce4bhn12rcd13ifvqgpg","pricing_plan_id":"cebpf4jnsgd1na2vs0mg"},{"bike_id":"d2dd3510-eb8b-47f5-ae18-f18358da230e","system_id":"levelo_inurba_marseille","lat":43.217461,"lon":5.346058,"is_reserved":false,"is_disabled":false,"rental_uris":{"android":"levelo://app?vid=d2dd3510-eb8b-47f5-ae18-f18358da230e","ios":"levelo://app?vid=d2dd3510-eb8b-47f5-ae18-f18358da230e"},"vehicle_type_id":"4","last_reported":1748697610,"current_range_meters":14000,"station_id":"st_cvj6r9ubvosntc0bgbag","pricing_plan_id":"cebpf4jnsgd1na2vs0mg"},{"bike_id":"9dd8b8cc-b2f3-445f-a172-5fd0cc0494af","system_id":"levelo_inurba_marseille","lat":43.28206,"lon":5.42633,"is_reserved":false,"is_disabled":false,"rental_uris":{"android":"levelo://app?vid=9dd8b8cc-b2f3-445f-a172-5fd0cc0494af","ios":"levelo://app?vid=9dd8b8cc-b2f3-445f-a172-5fd0cc0494af"},"vehicle_type_id":"4","last_reported":1748697610,"current_range_meters":14000,"station_id":"","pricing_plan_id":"cebpf4jnsgd1na2vs0mg"},{"bike_id":"9c809e9c-d3e3-47e9-add3-eaad811e7b47","system_id":"levelo_inurba_marseille","lat":43.29634,"lon":5.37151,"is_reserved":false,"is_disabled":false,"rental_uris":{"android":"levelo://app?vid=9c809e9c-d3e3-47e9-add3-eaad811e7b47","ios":"levelo://app?vid=9c809e9c-d3e3-47e9-add3-eaad811e7b47"},"vehicle_type_id":"4","last_reported":1748697610,"current_range_meters":14000,"station_id":"ce4bgnh2rcd13ifvqc0g","pricing_plan_id":"cebpf4jnsgd1na2vs0mg"},{"bike_id":"937f9e3f-8b13-4a88-a638-6f5372018cc9","system_id":"levelo_inurba_marseille","lat":43.29859,"lon":5.36288,"is_reserved":false,"is_disabled":false,"rental_uris":{"android":"levelo://app?vid=937f9e3f-8b13-4a88-a638-6f5372018cc9","ios":"levelo://app?vid=937f9e3f-8b13-4a88-a638-6f5372018cc9"},"vehicle_type_id":"4","last_reported":1748697610,"current_range_meters":14400,"station_id":"ce4bgpp2rcd13ifvqc3g","pricing_plan_id":"cebpf4jnsgd1na2vs0mg"},{"bike_id":"4e9c6896-f032-4347-b034-7c2b3b8b84a3","system_id":"levelo_inurba_marseille","lat":43.27379,"lon":5.36256,"is_reserved":false,"is_disabled":false,"rental_uris":{"android":"levelo://app?vid=4e9c6896-f032-4347-b034-7c2b3b8b84a3","ios":"levelo://app?vid=4e9c6896-f032-4347-b034-7c2b3b8b84a3"},"vehicle_type_id":"4","last_reported":1748697610,"current_range_meters":14400,"station_id":"ce4bhbh2rcd13ifvqeo0","pricing_plan_id":"cebpf4jnsgd1na2vs0mg"},{"bike_id":"8f0300e4-899f-4e13-b8a7-90f137ab1640","system_id":"levelo_inurba_marseille","lat":43.27073,"lon":5.39311,"is_reserved":false,"is_disabled":false,"rental_uris":{"android":"levelo://app?vid=8f0300e4-899f-4e13-b8a7-90f137ab1640","ios":"levelo://app?vid=8f0300e4-899f-4e13-b8a7-90f137ab1640"},"vehicle_type_id":"4","last_reported":1748697610,"current_range_meters":14400,"station_id":"","pricing_plan_id":"cebpf4jnsgd1na2vs0mg"},{"bike_id":"1ef86c02-eff5-4ab0-9135-7bdc6b4b5d3d","system_id":"levelo_inurba_marseille","lat":43.30593,"lon":5.39356,"is_reserved":false,"is_disabled":false,"rental_uris":{"android":"levelo://app?vid=1ef86c02-eff5-4ab0-9135-7bdc6b4b5d3d","ios":"levelo://app?vid=1ef86c02-eff5-4ab0-9135-7bdc6b4b5d3d"},"vehicle_type_id":"4","last_reported":1748697610,"current_range_meters":14400,"station_id":"","pricing_plan_id":"cebpf4jnsgd1na2vs0mg"},{"bike_id":"560c9e95-558a-48e7-ac5e-9c6cf9c79b06","system_id":"levelo_inurba_marseille","lat":43.24391,"lon":5.37063,"is_reserved":false,"is_disabled":false,"rental_uris":{"android":"levelo://app?vid=560c9e95-558a-48e7-ac5e-9c6cf9c79b06","ios":"levelo://app?vid=560c9e95-558a-48e7-ac5e-9c6cf9c79b06"},"vehicle_type_id":"4","last_reported":1748697610,"current_range_meters":16000,"station_id":"ce4bhhh2rcd13ifvqfk0","pricing_plan_id":"cebpf4jnsgd1na2vs0mg"},{"bike_id":"0d6dc1d0-7719-4177-ba8c-eb8bf6f1a7d1","system_id":"levelo_inurba_marseille","lat":43.24801,"lon":5.37454,"is_reserved":false,"is_disabled":false,"rental_uris":{"android":"levelo://app?vid=0d6dc1d0-7719-4177-ba8c-eb8bf6f1a7d1","ios":"levelo://app?vid=0d6dc1d0-7719-4177-ba8c-eb8bf6f1a7d1"},"vehicle_type_id":"4","last_reported":1748697610,"current_range_meters":14800,"station_id":"ce4bhgh2rcd13ifvqfb0","pricing_plan_id":"cebpf4jnsgd1na2vs0mg"},{"bike_id":"410ef4e6-e6c8-4b6e-b701-f1ce0f4f2e9e","system_id":"levelo_inurba_marseille","lat":43.28422,"lon":5.34977,"is_reserved":false,"is_disabled":false,"rental_uris":{"android":"levelo://app?vid=410ef4e6-e6c8-4b6e-b701-f1ce0f4f2e9e","ios":"levelo://app?vid=410ef4e6-e6c8-4b6e-b701-f1ce0f4f2e9e"},"vehicle_type_id":"4","last_reported":1748697610,"current_range_meters":14800,"station_id":"ce4bhbh2rcd13ifvqepg","pricing_plan_id":"cebpf4jnsgd1na2vs0mg"},{"bike_id":"740ed209-b5ad-426f-b900-542a97bce272","system_id":"levelo_inurba_marseille","lat":43.23138,"lon":5.43728,"is_reserved":false,"is_disabled":false,"rental_uris":{"android":"levelo://app?vid=740ed209-b5ad-426f-b900-542a97bce272","ios":"levelo://app?vid=740ed209-b5ad-426f-b900-542a97bce272"},"vehicle_type_id":"4","last_reported":1748697610,"current_range_meters":14800,"station_id":"ce4bhmp2rcd13ifvqgog","pricing_plan_id":"cebpf4jnsgd1na2vs0mg"},{"bike_id":"19f5b483-5b36-4c43-8206-d0f53f4ecf01","system_id":"levelo_inurba_marseille","lat":43.24171,"lon":5.363955,"is_reserved":false,"is_disabled":false,"rental_uris":{"android":"levelo://app?vid=19f5b483-5b36-4c43-8206-d0f53f4ecf01","ios":"levelo://app?vid=19f5b483-5b36-4c43-8206-d0f53f4ecf01"},"vehicle_type_id":"4","last_reported":1748697610,"current_range_meters":14800,"station_id":"cpo36qri1sfpv3e86is0","pricing_plan_id":"cebpf4jnsgd1na2vs0mg"},{"bike_id":"d94ad4e9-ef56-400a-81a8-14ac56c6093e","system_id":"levelo_inurba_marseille","lat":43.21714,"lon":5.34664,"is_reserved":false,"is_disabled":false,"rental_uris":{"android":"levelo://app?vid=d94ad4e9-ef56-400a-81a8-14ac56c6093e","ios":"levelo://app?vid=d94ad4e9-ef56-400a-81a8-14ac56c6093e"},"vehicle_type_id":"4","last_reported":1748697610,"current_range_meters":14800,"station_id":"","pricing_plan_id":"cebpf4jnsgd1na2vs0mg"},{"bike_id":"4ae2212e-bfa8-48e0-a2ec-8a7727e92eed","system_id":"levelo_inurba_marseille","lat":43.26554,"lon":5.37284,"is_reserved":false,"is_disabled":false,"rental_uris":{"android":"levelo://app?vid=4ae2212e-bfa8-48e0-a2ec-8a7727e92eed","ios":"levelo://app?vid=4ae2212e-bfa8-48e0-a2ec-8a7727e92eed"},"vehicle_type_id":"4","last_reported":1748697610,"current_range_meters":14800,"station_id":"ce4bhg12rcd13ifvqf70","pricing_plan_id":"cebpf4jnsgd1na2vs0mg"},{"bike_id":"e35f13ce-a6c7-4a08-9fa1-ffa4b3601a0b","system_id":"levelo_inurba_marseille","lat":43.21194,"lon":5.35077,"is_reserved":false,"is_disabled":false,"rental_uris":{"android":"levelo://app?vid=e35f13ce-a6c7-4a08-9fa1-ffa4b3601a0b","ios":"levelo://app?vid=e35f13ce-a6c7-4a08-9fa1-ffa4b3601a0b"},"vehicle_type_id":"4","last_reported":1748697610,"current_range_meters":14800,"station_id":"st_cvj6sg6p6f1abm77japg","pricing_plan_id":"cebpf4jnsgd1na2vs0mg"},{"bike_id":"769ef632-e97c-42ec-bf26-71e63598c862","system_id":"levelo_inurba_marseille","lat":43.30954,"lon":5.39031,"is_reserved":false,"is_disabled":false,"rental_uris":{"android":"levelo://app?vid=769ef632-e97c-42ec-bf26-71e63598c862","ios":"levelo://app?vid=769ef632-e97c-42ec-bf26-71e63598c862"},"vehicle_type_id":"4","last_reported":1748697610,"current_range_meters":14800,"station_id":"","pricing_plan_id":"cebpf4jnsgd1na2vs0mg"},{"bike_id":"ebdc92d5-603b-49c2-8676-c8e42efe8252","system_id":"levelo_inurba_marseille","lat":43.28848,"lon":5.35844,"is_reserved":false,"is_disabled":false,"rental_uris":{"android":"levelo://app?vid=ebdc92d5-603b-49c2-8676-c8e42efe8252","ios":"levelo://app?vid=ebdc92d5-603b-49c2-8676-c8e42efe8252"},"vehicle_type_id":"4","last_reported":1748697610,"current_range_meters":14800,"station_id":"ce4bhb12rcd13ifvqem0","pricing_plan_id":"cebpf4jnsgd1na2vs0mg"},{"bike_id":"9922d005-c706-4e77-b904-eee1888dd06b","system_id":"levelo_inurba_marseille","lat":43.24162,"lon":5.36423,"is_reserved":false,"is_disabled":false,"rental_uris":{"android":"levelo://app?vid=9922d005-c706-4e77-b904-eee1888dd06b","ios":"levelo://app?vid=9922d005-c706-4e77-b904-eee1888dd06b"},"vehicle_type_id":"4","last_reported":1748697610,"current_range_meters":14800,"station_id":"cpo36qri1sfpv3e86is0","pricing_plan_id":"cebpf4jnsgd1na2vs0mg"},{"bike_id":"988d3072-95a7-4f72-ba71-af789f66cf32","system_id":"levelo_inurba_marseille","lat":43.27328,"lon":5.39098,"is_reserved":false,"is_disabled":false,"rental_uris":{"android":"levelo://app?vid=988d3072-95a7-4f72-ba71-af789f66cf32","ios":"levelo://app?vid=988d3072-95a7-4f72-ba71-af789f66cf32"},"vehicle_type_id":"4","last_reported":1748697610,"current_range_meters":14800,"station_id":"ce4bhgp2rcd13ifvqfe0","pricing_plan_id":"cebpf4jnsgd1na2vs0mg"},{"bike_id":"d6705d53-8d5c-4980-9a08-0aa00130d2b0","system_id":"levelo_inurba_marseille","lat":43.28617,"lon":5.35114,"is_reserved":false,"is_disabled":false,"rental_uris":{"android":"levelo://app?vid=d6705d53-8d5c-4980-9a08-0aa00130d2b0","ios":"levelo://app?vid=d6705d53-8d5c-4980-9a08-0aa00130d2b0"},"vehicle_type_id":"4","last_reported":1748697610,"current_range_meters":15200,"station_id":"ce4bhch2rcd13ifvqeug","pricing_plan_id":"cebpf4jnsgd1na2vs0mg"},{"bike_id":"6ab3e183-6b4d-4aeb-b7a7-69d54715656c","system_id":"levelo_inurba_marseille","lat":43.26557,"lon":5.37274,"is_reserved":false,"is_disabled":false,"rental_uris":{"android":"levelo://app?vid=6ab3e183-6b4d-4aeb-b7a7-69d54715656c","ios":"levelo://app?vid=6ab3e183-6b4d-4aeb-b7a7-69d54715656c"},"vehicle_type_id":"4","last_reported":1748697610,"current_range_meters":15200,"station_id":"ce4bhg12rcd13ifvqf70","pricing_plan_id":"cebpf4jnsgd1na2vs0mg"},{"bike_id":"acf16947-b203-4b81-91fe-aabb86c76086","system_id":"levelo_inurba_marseille","lat":43.25712,"lon":5.41047,"is_reserved":false,"is_disabled":false,"rental_uris":{"android":"levelo://app?vid=acf16947-b203-4b81-91fe-aabb86c76086","ios":"levelo://app?vid=acf16947-b203-4b81-91fe-aabb86c76086"},"vehicle_type_id":"4","last_reported":1748697610,"current_range_meters":15200,"station_id":"ce4bhkp2rcd13ifvqgd0","pricing_plan_id":"cebpf4jnsgd1na2vs0mg"},{"bike_id":"5f224e55-2261-440e-bf2f-3cbcb28e1363","system_id":"levelo_inurba_marseille","lat":43.217518,"lon":5.34598,"is_reserved":false,"is_disabled":false,"rental_uris":{"android":"levelo://app?vid=5f224e55-2261-440e-bf2f-3cbcb28e1363","ios":"levelo://app?vid=5f224e55-2261-440e-bf2f-3cbcb28e1363"},"vehicle_type_id":"4","last_reported":1748697610,"current_range_meters":16000,"station_id":"st_cvj6r9ubvosntc0bgbag","pricing_plan_id":"cebpf4jnsgd1na2vs0mg"},{"bike_id":"eb1e668d-26c6-496e-b983-6b9753e54854","system_id":"levelo_inurba_marseille","lat":43.29181,"lon":5.358,"is_reserved":false,"is_disabled":false,"rental_uris":{"android":"levelo://app?vid=eb1e668d-26c6-496e-b983-6b9753e54854","ios":"levelo://app?vid=eb1e668d-26c6-496e-b983-6b9753e54854"},"vehicle_type_id":"4","last_reported":1748697610,"current_range_meters":16000,"station_id":"ce4bhb12rcd13ifvqel0","pricing_plan_id":"cebpf4jnsgd1na2vs0mg"},{"bike_id":"9a724ef8-d819-47e7-a9f7-9a3986491294","system_id":"levelo_inurba_marseille","lat":43.29349,"lon":5.3882,"is_reserved":false,"is_disabled":false,"rental_uris":{"android":"levelo://app?vid=9a724ef8-d819-47e7-a9f7-9a3986491294","ios":"levelo://app?vid=9a724ef8-d819-47e7-a9f7-9a3986491294"},"vehicle_type_id":"4","last_reported":1748697610,"current_range_meters":16000,"station_id":"","pricing_plan_id":"cebpf4jnsgd1na2vs0mg"},{"bike_id":"5dae0668-833e-4f25-993a-cb99cb88669d","system_id":"levelo_inurba_marseille","lat":43.21772,"lon":5.34637,"is_reserved":false,"is_disabled":false,"rental_uris":{"android":"levelo://app?vid=5dae0668-833e-4f25-993a-cb99cb88669d","ios":"levelo://app?vid=5dae0668-833e-4f25-993a-cb99cb88669d"},"vehicle_type_id":"4","last_reported":1748697610,"current_range_meters":16000,"station_id":"st_cvj6r9ubvosntc0bgbag","pricing_plan_id":"cebpf4jnsgd1na2vs0mg"},{"bike_id":"72b3ac97-5479-4f92-a3cc-63040205d956","system_id":"levelo_inurba_marseille","lat":43.27074,"lon":5.42277,"is_reserved":false,"is_disabled":false,"rental_uris":{"android":"levelo://app?vid=72b3ac97-5479-4f92-a3cc-63040205d956","ios":"levelo://app?vid=72b3ac97-5479-4f92-a3cc-63040205d956"},"vehicle_type_id":"4","last_reported":1748697610,"current_range_meters":16000,"station_id":"ce4bhk92rcd13ifvqgb0","pricing_plan_id":"cebpf4jnsgd1na2vs0mg"},{"bike_id":"51daa40f-1934-4d97-a5a2-ce9dd5bde0c6","system_id":"levelo_inurba_marseille","lat":43.26033,"lon":5.37548,"is_reserved":false,"is_disabled":false,"rental_uris":{"android":"levelo://app?vid=51daa40f-1934-4d97-a5a2-ce9dd5bde0c6","ios":"levelo://app?vid=51daa40f-1934-4d97-a5a2-ce9dd5bde0c6"},"vehicle_type_id":"4","last_reported":1748697610,"current_range_meters":16000,"station_id":"ce4bhgh2rcd13ifvqfa0","pricing_plan_id":"cebpf4jnsgd1na2vs0mg"},{"bike_id":"e210be7e-07b8-44d3-ae09-6702f28e2ae8","system_id":"levelo_inurba_marseille","lat":43.25119,"lon":5.39361,"is_reserved":false,"is_disabled":false,"rental_uris":{"android":"levelo://app?vid=e210be7e-07b8-44d3-ae09-6702f28e2ae8","ios":"levelo://app?vid=e210be7e-07b8-44d3-ae09-6702f28e2ae8"},"vehicle_type_id":"4","last_reported":1748697610,"current_range_meters":16000,"station_id":"","pricing_plan_id":"cebpf4jnsgd1na2vs0mg"},{"bike_id":"792b8862-e581-44be-8ddc-645d1733b829","system_id":"levelo_inurba_marseille","lat":43.28609,"lon":5.37062,"is_reserved":false,"is_disabled":false,"rental_uris":{"android":"levelo://app?vid=792b8862-e581-44be-8ddc-645d1733b829","ios":"levelo://app?vid=792b8862-e581-44be-8ddc-645d1733b829"},"vehicle_type_id":"4","last_reported":1748697610,"current_range_meters":16000,"station_id":"ce4bht12rcd13ifvqi60","pricing_plan_id":"cebpf4jnsgd1na2vs0mg"},{"bike_id":"a759dc71-6ad8-4f96-982d-a7e0f8983d8f","system_id":"levelo_inurba_marseille","lat":43.29199,"lon":5.35801,"is_reserved":false,"is_disabled":false,"rental_uris":{"android":"levelo://app?vid=a759dc71-6ad8-4f96-982d-a7e0f8983d8f","ios":"levelo://app?vid=a759dc71-6ad8-4f96-982d-a7e0f8983d8f"},"vehicle_type_id":"4","last_reported":1748697610,"current_range_meters":16000,"station_id":"ce4bhb12rcd13ifvqel0","pricing_plan_id":"cebpf4jnsgd1na2vs0mg"},{"bike_id":"1d4c308a-3bd9-45f9-b273-125b02cf5593","system_id":"levelo_inurba_marseille","lat":43.271694,"lon":5.409949,"is_reserved":false,"is_disabled":false,"rental_uris":{"android":"levelo://app?vid=1d4c308a-3bd9-45f9-b273-125b02cf5593","ios":"levelo://app?vid=1d4c308a-3bd9-45f9-b273-125b02cf5593"},"vehicle_type_id":"4","last_reported":1748697610,"current_range_meters":16000,"station_id":"ce4bhl12rcd13ifvqgf0","pricing_plan_id":"cebpf4jnsgd1na2vs0mg"},{"bike_id":"f3009d6e-02fd-42c9-b8d6-9d0894580340","system_id":"levelo_inurba_marseille","lat":43.28931,"lon":5.36636,"is_reserved":false,"is_disabled":false,"rental_uris":{"android":"levelo://app?vid=f3009d6e-02fd-42c9-b8d6-9d0894580340","ios":"levelo://app?vid=f3009d6e-02fd-42c9-b8d6-9d0894580340"},"vehicle_type_id":"4","last_reported":1748697610,"current_range_meters":16000,"station_id":"ce4bhap2rcd13ifvqek0","pricing_plan_id":"cebpf4jnsgd1na2vs0mg"},{"bike_id":"bc1d6c94-42df-476c-b198-2aca7eaad3bc","system_id":"levelo_inurba_marseille","lat":43.28466,"lon":5.35889,"is_reserved":false,"is_disabled":false,"rental_uris":{"android":"levelo://app?vid=bc1d6c94-42df-476c-b198-2aca7eaad3bc","ios":"levelo://app?vid=bc1d6c94-42df-476c-b198-2aca7eaad3bc"},"vehicle_type_id":"4","last_reported":1748697610,"current_range_meters":16000,"station_id":"ce4bhah2rcd13ifvqei0","pricing_plan_id":"cebpf4jnsgd1na2vs0mg"},{"bike_id":"10cccf0e-5e24-4b75-8e4f-e089b2d3e656","system_id":"levelo_inurba_marseille","lat":43.23185,"lon":5.39988,"is_reserved":false,"is_disabled":false,"rental_uris":{"android":"levelo://app?vid=10cccf0e-5e24-4b75-8e4f-e089b2d3e656","ios":"levelo://app?vid=10cccf0e-5e24-4b75-8e4f-e089b2d3e656"},"vehicle_type_id":"4","last_reported":1748697610,"current_range_meters":16000,"station_id":"ce4bhn12rcd13ifvqgqg","pricing_plan_id":"cebpf4jnsgd1na2vs0mg"},{"bike_id":"9a189ee8-27ed-444b-b171-f705371af28f","system_id":"levelo_inurba_marseille","lat":43.28259,"lon":5.34905,"is_reserved":false,"is_disabled":false,"rental_uris":{"android":"levelo://app?vid=9a189ee8-27ed-444b-b171-f705371af28f","ios":"levelo://app?vid=9a189ee8-27ed-444b-b171-f705371af28f"},"vehicle_type_id":"4","last_reported":1748697610,"current_range_meters":16400,"station_id":"","pricing_plan_id":"cebpf4jnsgd1na2vs0mg"},{"bike_id":"4634b1a0-27fb-4f28-89df-b2b50c9cbade","system_id":"levelo_inurba_marseille","lat":43.28611,"lon":5.37095,"is_reserved":false,"is_disabled":false,"rental_uris":{"android":"levelo://app?vid=4634b1a0-27fb-4f28-89df-b2b50c9cbade","ios":"levelo://app?vid=4634b1a0-27fb-4f28-89df-b2b50c9cbade"},"vehicle_type_id":"4","last_reported":1748697610,"current_range_meters":16400,"station_id":"ce4bht12rcd13ifvqi60","pricing_plan_id":"cebpf4jnsgd1na2vs0mg"},{"bike_id":"e8856ff7-e6a6-4558-8148-910e74801acf","system_id":"levelo_inurba_marseille","lat":43.27913,"lon":5.38013,"is_reserved":false,"is_disabled":false,"rental_uris":{"android":"levelo://app?vid=e8856ff7-e6a6-4558-8148-910e74801acf","ios":"levelo://app?vid=e8856ff7-e6a6-4558-8148-910e74801acf"},"vehicle_type_id":"4","last_reported":1748697610,"current_range_meters":16400,"station_id":"ce4bhf92rcd13ifvqf50","pricing_plan_id":"cebpf4jnsgd1na2vs0mg"},{"bike_id":"65d21794-10b3-49f4-afd8-2d607a21c94c","system_id":"levelo_inurba_marseille","lat":43.26193,"lon":5.37939,"is_reserved":false,"is_disabled":false,"rental_uris":{"android":"levelo://app?vid=65d21794-10b3-49f4-afd8-2d607a21c94c","ios":"levelo://app?vid=65d21794-10b3-49f4-afd8-2d607a21c94c"},"vehicle_type_id":"4","last_reported":1748697610,"current_range_meters":16400,"station_id":"ce4bhjp2rcd13ifvqg90","pricing_plan_id":"cebpf4jnsgd1na2vs0mg"},{"bike_id":"d9ec35c4-388c-4ab8-ae02-d1cc8b808a2b","system_id":"levelo_inurba_marseille","lat":43.2175,"lon":5.34606,"is_reserved":false,"is_disabled":false,"rental_uris":{"android":"levelo://app?vid=d9ec35c4-388c-4ab8-ae02-d1cc8b808a2b","ios":"levelo://app?vid=d9ec35c4-388c-4ab8-ae02-d1cc8b808a2b"},"vehicle_type_id":"4","last_reported":1748697610,"current_range_meters":16400,"station_id":"st_cvj6r9ubvosntc0bgbag","pricing_plan_id":"cebpf4jnsgd1na2vs0mg"},{"bike_id":"59cc9f64-369b-40a4-aef4-571b231df862","system_id":"levelo_inurba_marseille","lat":43.28099,"lon":5.35238,"is_reserved":false,"is_disabled":false,"rental_uris":{"android":"levelo://app?vid=59cc9f64-369b-40a4-aef4-571b231df862","ios":"levelo://app?vid=59cc9f64-369b-40a4-aef4-571b231df862"},"vehicle_type_id":"4","last_reported":1748697610,"current_range_meters":16400,"station_id":"","pricing_plan_id":"cebpf4jnsgd1na2vs0mg"},{"bike_id":"d35279df-65fa-4a1d-a5be-df30ee6e8cd3","system_id":"levelo_inurba_marseille","lat":43.28725,"lon":5.3611,"is_reserved":false,"is_disabled":false,"rental_uris":{"android":"levelo://app?vid=d35279df-65fa-4a1d-a5be-df30ee6e8cd3","ios":"levelo://app?vid=d35279df-65fa-4a1d-a5be-df30ee6e8cd3"},"vehicle_type_id":"4","last_reported":1748697610,"current_range_meters":16400,"station_id":"cki0cbj6b192h4jlfktg","pricing_plan_id":"cebpf4jnsgd1na2vs0mg"},{"bike_id":"f0f6dabb-fde3-4411-9c7d-f8d7a1edcd6f","system_id":"levelo_inurba_marseille","lat":43.29367,"lon":5.37841,"is_reserved":false,"is_disabled":false,"rental_uris":{"android":"levelo://app?vid=f0f6dabb-fde3-4411-9c7d-f8d7a1edcd6f","ios":"levelo://app?vid=f0f6dabb-fde3-4411-9c7d-f8d7a1edcd6f"},"vehicle_type_id":"4","last_reported":1748697610,"current_range_meters":16400,"station_id":"ce4bgjh2rcd13ifvqbf0","pricing_plan_id":"cebpf4jnsgd1na2vs0mg"},{"bike_id":"923c3682-96f3-4a57-95db-cff3ccf38944","system_id":"levelo_inurba_marseille","lat":43.28041,"lon":5.36947,"is_reserved":false,"is_disabled":false,"rental_uris":{"android":"levelo://app?vid=923c3682-96f3-4a57-95db-cff3ccf38944","ios":"levelo://app?vid=923c3682-96f3-4a57-95db-cff3ccf38944"},"vehicle_type_id":"4","last_reported":1748697610,"current_range_meters":16400,"station_id":"ce4bha12rcd13ifvqef0","pricing_plan_id":"cebpf4jnsgd1na2vs0mg"},{"bike_id":"7b10dec4-e5dc-4df6-8532-f95695b2d176","system_id":"levelo_inurba_marseille","lat":43.23963,"lon":5.36624,"is_reserved":false,"is_disabled":false,"rental_uris":{"android":"levelo://app?vid=7b10dec4-e5dc-4df6-8532-f95695b2d176","ios":"levelo://app?vid=7b10dec4-e5dc-4df6-8532-f95695b2d176"},"vehicle_type_id":"4","last_reported":1748697610,"current_range_meters":16800,"station_id":"ce4bhi12rcd13ifvqfp0","pricing_plan_id":"cebpf4jnsgd1na2vs0mg"},{"bike_id":"98877b59-bc84-4e67-b026-d23834d0cba7","system_id":"levelo_inurba_marseille","lat":43.29038,"lon":5.3756,"is_reserved":false,"is_disabled":false,"rental_uris":{"android":"levelo://app?vid=98877b59-bc84-4e67-b026-d23834d0cba7","ios":"levelo://app?vid=98877b59-bc84-4e67-b026-d23834d0cba7"},"vehicle_type_id":"4","last_reported":1748697610,"current_range_meters":16800,"station_id":"ce4bh692rcd13ifvqe90","pricing_plan_id":"cebpf4jnsgd1na2vs0mg"},{"bike_id":"42f6e3c1-cf15-4e7e-9391-b2c8267396f3","system_id":"levelo_inurba_marseille","lat":43.30435,"lon":5.39742,"is_reserved":false,"is_disabled":false,"rental_uris":{"android":"levelo://app?vid=42f6e3c1-cf15-4e7e-9391-b2c8267396f3","ios":"levelo://app?vid=42f6e3c1-cf15-4e7e-9391-b2c8267396f3"},"vehicle_type_id":"4","last_reported":1748697610,"current_range_meters":16800,"station_id":"ce4bh092rcd13ifvqd20","pricing_plan_id":"cebpf4jnsgd1na2vs0mg"},{"bike_id":"32503fa7-7208-4269-b40f-34ba3dae0f9e","system_id":"levelo_inurba_marseille","lat":43.308684,"lon":5.403701,"is_reserved":false,"is_disabled":false,"rental_uris":{"android":"levelo://app?vid=32503fa7-7208-4269-b40f-34ba3dae0f9e","ios":"levelo://app?vid=32503fa7-7208-4269-b40f-34ba3dae0f9e"},"vehicle_type_id":"4","last_reported":1748697610,"current_range_meters":16800,"station_id":"","pricing_plan_id":"cebpf4jnsgd1na2vs0mg"},{"bike_id":"e7177d95-1523-44fc-8625-8d734cdfb209","system_id":"levelo_inurba_marseille","lat":43.21735,"lon":5.34638,"is_reserved":false,"is_disabled":false,"rental_uris":{"android":"levelo://app?vid=e7177d95-1523-44fc-8625-8d734cdfb209","ios":"levelo://app?vid=e7177d95-1523-44fc-8625-8d734cdfb209"},"vehicle_type_id":"4","last_reported":1748697610,"current_range_meters":16800,"station_id":"st_cvj6r9ubvosntc0bgbag","pricing_plan_id":"cebpf4jnsgd1na2vs0mg"},{"bike_id":"0ed326a3-9064-4693-82c9-b95ec10ad3cf","system_id":"levelo_inurba_marseille","lat":43.29894,"lon":5.43658,"is_reserved":false,"is_disabled":false,"rental_uris":{"android":"levelo://app?vid=0ed326a3-9064-4693-82c9-b95ec10ad3cf","ios":"levelo://app?vid=0ed326a3-9064-4693-82c9-b95ec10ad3cf"},"vehicle_type_id":"4","last_reported":1748697610,"current_range_meters":16800,"station_id":"ce4bhpp2rcd13ifvqhfg","pricing_plan_id":"cebpf4jnsgd1na2vs0mg"},{"bike_id":"64cc43c9-6de8-4c14-8220-8f837eb73134","system_id":"levelo_inurba_marseille","lat":43.29899,"lon":5.43671,"is_reserved":false,"is_disabled":false,"rental_uris":{"android":"levelo://app?vid=64cc43c9-6de8-4c14-8220-8f837eb73134","ios":"levelo://app?vid=64cc43c9-6de8-4c14-8220-8f837eb73134"},"vehicle_type_id":"4","last_reported":1748697610,"current_range_meters":16800,"station_id":"ce4bhpp2rcd13ifvqhfg","pricing_plan_id":"cebpf4jnsgd1na2vs0mg"},{"bike_id":"4672ac60-bbf4-46ad-897b-db4337d019ab","system_id":"levelo_inurba_marseille","lat":43.27209,"lon":5.39199,"is_reserved":false,"is_disabled":false,"rental_uris":{"android":"levelo://app?vid=4672ac60-bbf4-46ad-897b-db4337d019ab","ios":"levelo://app?vid=4672ac60-bbf4-46ad-897b-db4337d019ab"},"vehicle_type_id":"4","last_reported":1748697610,"current_range_meters":16800,"station_id":"ce4bhhp2rcd13ifvqfm0","pricing_plan_id":"cebpf4jnsgd1na2vs0mg"},{"bike_id":"193f310a-e3f4-4906-9e2b-eedaae75eac3","system_id":"levelo_inurba_marseille","lat":43.305339,"lon":5.393488,"is_reserved":false,"is_disabled":false,"rental_uris":{"android":"levelo://app?vid=193f310a-e3f4-4906-9e2b-eedaae75eac3","ios":"levelo://app?vid=193f310a-e3f4-4906-9e2b-eedaae75eac3"},"vehicle_type_id":"4","last_reported":1748697610,"current_range_meters":16800,"station_id":"ce4bh012rcd13ifvqcv0","pricing_plan_id":"cebpf4jnsgd1na2vs0mg"},{"bike_id":"0b248cd5-f7f1-4616-ab60-adc75f0b322e","system_id":"levelo_inurba_marseille","lat":43.22501,"lon":5.34789,"is_reserved":false,"is_disabled":false,"rental_uris":{"android":"levelo://app?vid=0b248cd5-f7f1-4616-ab60-adc75f0b322e","ios":"levelo://app?vid=0b248cd5-f7f1-4616-ab60-adc75f0b322e"},"vehicle_type_id":"4","last_reported":1748697610,"current_range_meters":16800,"station_id":"st_cvj5dfep6f1abm77gieg","pricing_plan_id":"cebpf4jnsgd1na2vs0mg"},{"bike_id":"97b2bdc4-a610-4fbc-b2e0-ce13d06047e1","system_id":"levelo_inurba_marseille","lat":43.27366,"lon":5.36245,"is_reserved":false,"is_disabled":false,"rental_uris":{"android":"levelo://app?vid=97b2bdc4-a610-4fbc-b2e0-ce13d06047e1","ios":"levelo://app?vid=97b2bdc4-a610-4fbc-b2e0-ce13d06047e1"},"vehicle_type_id":"4","last_reported":1748697610,"current_range_meters":17200,"station_id":"ce4bhbh2rcd13ifvqeo0","pricing_plan_id":"cebpf4jnsgd1na2vs0mg"},{"bike_id":"f5a90625-b7e8-48a8-90c6-777efe255a32","system_id":"levelo_inurba_marseille","lat":43.25106,"lon":5.4096,"is_reserved":false,"is_disabled":false,"rental_uris":{"android":"levelo://app?vid=f5a90625-b7e8-48a8-90c6-777efe255a32","ios":"levelo://app?vid=f5a90625-b7e8-48a8-90c6-777efe255a32"},"vehicle_type_id":"4","last_reported":1748697610,"current_range_meters":17200,"station_id":"","pricing_plan_id":"cebpf4jnsgd1na2vs0mg"},{"bike_id":"035a740d-afff-4713-98ee-c64e4649b101","system_id":"levelo_inurba_marseille","lat":43.30951,"lon":5.39029,"is_reserved":false,"is_disabled":false,"rental_uris":{"android":"levelo://app?vid=035a740d-afff-4713-98ee-c64e4649b101","ios":"levelo://app?vid=035a740d-afff-4713-98ee-c64e4649b101"},"vehicle_type_id":"4","last_reported":1748697610,"current_range_meters":17200,"station_id":"ce4bgup2rcd13ifvqco0","pricing_plan_id":"cebpf4jnsgd1na2vs0mg"},{"bike_id":"04d9466d-772b-4411-a821-e01cfcd178ce","system_id":"levelo_inurba_marseille","lat":43.24167,"lon":5.36402,"is_reserved":false,"is_disabled":false,"rental_uris":{"android":"levelo://app?vid=04d9466d-772b-4411-a821-e01cfcd178ce","ios":"levelo://app?vid=04d9466d-772b-4411-a821-e01cfcd178ce"},"vehicle_type_id":"4","last_reported":1748697610,"current_range_meters":17200,"station_id":"cpo36qri1sfpv3e86is0","pricing_plan_id":"cebpf4jnsgd1na2vs0mg"},{"bike_id":"4d9035a1-4135-4911-9f5a-65e8a1a4939f","system_id":"levelo_inurba_marseille","lat":43.21749,"lon":5.34606,"is_reserved":false,"is_disabled":false,"rental_uris":{"android":"levelo://app?vid=4d9035a1-4135-4911-9f5a-65e8a1a4939f","ios":"levelo://app?vid=4d9035a1-4135-4911-9f5a-65e8a1a4939f"},"vehicle_type_id":"4","last_reported":1748697610,"current_range_meters":17200,"station_id":"st_cvj6r9ubvosntc0bgbag","pricing_plan_id":"cebpf4jnsgd1na2vs0mg"},{"bike_id":"93d5c392-0778-4cad-89ec-024023e88599","system_id":"levelo_inurba_marseille","lat":43.21747,"lon":5.34616,"is_reserved":false,"is_disabled":false,"rental_uris":{"android":"levelo://app?vid=93d5c392-0778-4cad-89ec-024023e88599","ios":"levelo://app?vid=93d5c392-0778-4cad-89ec-024023e88599"},"vehicle_type_id":"4","last_reported":1748697610,"current_range_meters":17200,"station_id":"st_cvj6r9ubvosntc0bgbag","pricing_plan_id":"cebpf4jnsgd1na2vs0mg"},{"bike_id":"88394dab-750a-4000-a664-329d1611cc61","system_id":"levelo_inurba_marseille","lat":43.21751,"lon":5.34606,"is_reserved":false,"is_disabled":false,"rental_uris":{"android":"levelo://app?vid=88394dab-750a-4000-a664-329d1611cc61","ios":"levelo://app?vid=88394dab-750a-4000-a664-329d1611cc61"},"vehicle_type_id":"4","last_reported":1748697610,"current_range_meters":17200,"station_id":"st_cvj6r9ubvosntc0bgbag","pricing_plan_id":"cebpf4jnsgd1na2vs0mg"},{"bike_id":"4c4359de-53be-49b8-b5f9-06e857c5718c","system_id":"levelo_inurba_marseille","lat":43.246904,"lon":5.399502,"is_reserved":false,"is_disabled":false,"rental_uris":{"android":"levelo://app?vid=4c4359de-53be-49b8-b5f9-06e857c5718c","ios":"levelo://app?vid=4c4359de-53be-49b8-b5f9-06e857c5718c"},"vehicle_type_id":"4","last_reported":1748697610,"current_range_meters":17200,"station_id":"","pricing_plan_id":"cebpf4jnsgd1na2vs0mg"},{"bike_id":"62b02994-5210-426a-980f-6cb47507004d","system_id":"levelo_inurba_marseille","lat":43.29189,"lon":5.36101,"is_reserved":false,"is_disabled":false,"rental_uris":{"android":"levelo://app?vid=62b02994-5210-426a-980f-6cb47507004d","ios":"levelo://app?vid=62b02994-5210-426a-980f-6cb47507004d"},"vehicle_type_id":"4","last_reported":1748697610,"current_range_meters":17200,"station_id":"","pricing_plan_id":"cebpf4jnsgd1na2vs0mg"},{"bike_id":"e5cf68a2-130f-4cf5-9c22-7c8a64bd2f62","system_id":"levelo_inurba_marseille","lat":43.29081,"lon":5.3715,"is_reserved":false,"is_disabled":false,"rental_uris":{"android":"levelo://app?vid=e5cf68a2-130f-4cf5-9c22-7c8a64bd2f62","ios":"levelo://app?vid=e5cf68a2-130f-4cf5-9c22-7c8a64bd2f62"},"vehicle_type_id":"4","last_reported":1748697610,"current_range_meters":17600,"station_id":"ce4bh5p2rcd13ifvqe4g","pricing_plan_id":"cebpf4jnsgd1na2vs0mg"},{"bike_id":"9a87b717-f8e2-4016-bc78-03583a62a953","system_id":"levelo_inurba_marseille","lat":43.26563,"lon":5.40325,"is_reserved":false,"is_disabled":false,"rental_uris":{"android":"levelo://app?vid=9a87b717-f8e2-4016-bc78-03583a62a953","ios":"levelo://app?vid=9a87b717-f8e2-4016-bc78-03583a62a953"},"vehicle_type_id":"4","last_reported":1748697610,"current_range_meters":17600,"station_id":"","pricing_plan_id":"cebpf4jnsgd1na2vs0mg"},{"bike_id":"3e831ff9-51ab-4658-80b5-7d3a17a7188c","system_id":"levelo_inurba_marseille","lat":43.2306,"lon":5.35492,"is_reserved":false,"is_disabled":false,"rental_uris":{"android":"levelo://app?vid=3e831ff9-51ab-4658-80b5-7d3a17a7188c","ios":"levelo://app?vid=3e831ff9-51ab-4658-80b5-7d3a17a7188c"},"vehicle_type_id":"4","last_reported":1748697610,"current_range_meters":17600,"station_id":"cpo3342slgdg3j2ifvpg","pricing_plan_id":"cebpf4jnsgd1na2vs0mg"},{"bike_id":"3d49a5c2-7134-46cf-bb35-a86663709de6","system_id":"levelo_inurba_marseille","lat":43.289465,"lon":5.36399,"is_reserved":false,"is_disabled":false,"rental_uris":{"android":"levelo://app?vid=3d49a5c2-7134-46cf-bb35-a86663709de6","ios":"levelo://app?vid=3d49a5c2-7134-46cf-bb35-a86663709de6"},"vehicle_type_id":"4","last_reported":1748697610,"current_range_meters":17600,"station_id":"ce4bhc92rcd13ifvqetg","pricing_plan_id":"cebpf4jnsgd1na2vs0mg"},{"bike_id":"0bf7541c-a7e9-4263-b68c-eb414a26fb8b","system_id":"levelo_inurba_marseille","lat":43.30464,"lon":5.37901,"is_reserved":false,"is_disabled":false,"rental_uris":{"android":"levelo://app?vid=0bf7541c-a7e9-4263-b68c-eb414a26fb8b","ios":"levelo://app?vid=0bf7541c-a7e9-4263-b68c-eb414a26fb8b"},"vehicle_type_id":"4","last_reported":1748697610,"current_range_meters":17200,"station_id":"ce4bgup2rcd13ifvqcn0","pricing_plan_id":"cebpf4jnsgd1na2vs0mg"},{"bike_id":"f365caa8-1088-42e4-9d08-18d155792df5","system_id":"levelo_inurba_marseille","lat":43.217545,"lon":5.346103,"is_reserved":false,"is_disabled":false,"rental_uris":{"android":"levelo://app?vid=f365caa8-1088-42e4-9d08-18d155792df5","ios":"levelo://app?vid=f365caa8-1088-42e4-9d08-18d155792df5"},"vehicle_type_id":"4","last_reported":1748697610,"current_range_meters":17600,"station_id":"st_cvj6r9ubvosntc0bgbag","pricing_plan_id":"cebpf4jnsgd1na2vs0mg"},{"bike_id":"6a041529-1100-490d-9033-5306de012574","system_id":"levelo_inurba_marseille","lat":43.26064,"lon":5.39396,"is_reserved":false,"is_disabled":false,"rental_uris":{"android":"levelo://app?vid=6a041529-1100-490d-9033-5306de012574","ios":"levelo://app?vid=6a041529-1100-490d-9033-5306de012574"},"vehicle_type_id":"4","last_reported":1748697610,"current_range_meters":17600,"station_id":"ce4bhh92rcd13ifvqfj0","pricing_plan_id":"cebpf4jnsgd1na2vs0mg"},{"bike_id":"77c8d843-097d-4a21-9eaf-ceba89e1d972","system_id":"levelo_inurba_marseille","lat":43.24162,"lon":5.36393,"is_reserved":false,"is_disabled":false,"rental_uris":{"android":"levelo://app?vid=77c8d843-097d-4a21-9eaf-ceba89e1d972","ios":"levelo://app?vid=77c8d843-097d-4a21-9eaf-ceba89e1d972"},"vehicle_type_id":"4","last_reported":1748697610,"current_range_meters":17600,"station_id":"cpo36qri1sfpv3e86is0","pricing_plan_id":"cebpf4jnsgd1na2vs0mg"},{"bike_id":"77520d45-03bf-4b26-9f9b-8ac6c162ce6b","system_id":"levelo_inurba_marseille","lat":43.243638,"lon":5.411445,"is_reserved":false,"is_disabled":false,"rental_uris":{"android":"levelo://app?vid=77520d45-03bf-4b26-9f9b-8ac6c162ce6b","ios":"levelo://app?vid=77520d45-03bf-4b26-9f9b-8ac6c162ce6b"},"vehicle_type_id":"4","last_reported":1748697610,"current_range_meters":17600,"station_id":"","pricing_plan_id":"cebpf4jnsgd1na2vs0mg"},{"bike_id":"1d263f10-9721-4d26-a29f-a3f07fb70da2","system_id":"levelo_inurba_marseille","lat":43.30593,"lon":5.3724,"is_reserved":false,"is_disabled":false,"rental_uris":{"android":"levelo://app?vid=1d263f10-9721-4d26-a29f-a3f07fb70da2","ios":"levelo://app?vid=1d263f10-9721-4d26-a29f-a3f07fb70da2"},"vehicle_type_id":"4","last_reported":1748697610,"current_range_meters":17600,"station_id":"ce4bgqh2rcd13ifvqc4g","pricing_plan_id":"cebpf4jnsgd1na2vs0mg"},{"bike_id":"52138315-f13b-4871-ab78-9e5155a1008c","system_id":"levelo_inurba_marseille","lat":43.32283,"lon":5.38276,"is_reserved":false,"is_disabled":false,"rental_uris":{"android":"levelo://app?vid=52138315-f13b-4871-ab78-9e5155a1008c","ios":"levelo://app?vid=52138315-f13b-4871-ab78-9e5155a1008c"},"vehicle_type_id":"4","last_reported":1748697610,"current_range_meters":17600,"station_id":"ce4bhr12rcd13ifvqhqg","pricing_plan_id":"cebpf4jnsgd1na2vs0mg"},{"bike_id":"56ed4761-a43c-4469-9ea6-f227f320ed7f","system_id":"levelo_inurba_marseille","lat":43.23146,"lon":5.43718,"is_reserved":false,"is_disabled":false,"rental_uris":{"android":"levelo://app?vid=56ed4761-a43c-4469-9ea6-f227f320ed7f","ios":"levelo://app?vid=56ed4761-a43c-4469-9ea6-f227f320ed7f"},"vehicle_type_id":"4","last_reported":1748697610,"current_range_meters":17600,"station_id":"ce4bhmp2rcd13ifvqgog","pricing_plan_id":"cebpf4jnsgd1na2vs0mg"},{"bike_id":"56a82e03-2118-4920-8b59-3795928c0c5d","system_id":"levelo_inurba_marseille","lat":43.27815,"lon":5.40718,"is_reserved":false,"is_disabled":false,"rental_uris":{"android":"levelo://app?vid=56a82e03-2118-4920-8b59-3795928c0c5d","ios":"levelo://app?vid=56a82e03-2118-4920-8b59-3795928c0c5d"},"vehicle_type_id":"4","last_reported":1748697610,"current_range_meters":17600,"station_id":"ce4bhnh2rcd13ifvqgtg","pricing_plan_id":"cebpf4jnsgd1na2vs0mg"},{"bike_id":"a36e6476-2b26-4d56-b059-44b52e083d9d","system_id":"levelo_inurba_marseille","lat":43.30947,"lon":5.39033,"is_reserved":false,"is_disabled":false,"rental_uris":{"android":"levelo://app?vid=a36e6476-2b26-4d56-b059-44b52e083d9d","ios":"levelo://app?vid=a36e6476-2b26-4d56-b059-44b52e083d9d"},"vehicle_type_id":"4","last_reported":1748697610,"current_range_meters":17600,"station_id":"ce4bgup2rcd13ifvqco0","pricing_plan_id":"cebpf4jnsgd1na2vs0mg"},{"bike_id":"d787cfdb-50c2-451d-8448-0eff07939f1e","system_id":"levelo_inurba_marseille","lat":43.23154,"lon":5.43701,"is_reserved":false,"is_disabled":true,"rental_uris":{"android":"levelo://app?vid=d787cfdb-50c2-451d-8448-0eff07939f1e","ios":"levelo://app?vid=d787cfdb-50c2-451d-8448-0eff07939f1e"},"vehicle_type_id":"4","last_reported":1748697610,"current_range_meters":18000,"station_id":"ce4bhmp2rcd13ifvqgog","pricing_plan_id":"cebpf4jnsgd1na2vs0mg"},{"bike_id":"cb0bfac2-c2d3-4d9e-8e37-bb9beda6d44a","system_id":"levelo_inurba_marseille","lat":43.21193,"lon":5.3508,"is_reserved":false,"is_disabled":false,"rental_uris":{"android":"levelo://app?vid=cb0bfac2-c2d3-4d9e-8e37-bb9beda6d44a","ios":"levelo://app?vid=cb0bfac2-c2d3-4d9e-8e37-bb9beda6d44a"},"vehicle_type_id":"4","last_reported":1748697610,"current_range_meters":18000,"station_id":"st_cvj6sg6p6f1abm77japg","pricing_plan_id":"cebpf4jnsgd1na2vs0mg"},{"bike_id":"5d6afee9-4d2e-43ba-b697-77394f1156a3","system_id":"levelo_inurba_marseille","lat":43.29044,"lon":5.35905,"is_reserved":false,"is_disabled":false,"rental_uris":{"android":"levelo://app?vid=5d6afee9-4d2e-43ba-b697-77394f1156a3","ios":"levelo://app?vid=5d6afee9-4d2e-43ba-b697-77394f1156a3"},"vehicle_type_id":"4","last_reported":1748697610,"current_range_meters":18000,"station_id":"ce4bha92rcd13ifvqeg0","pricing_plan_id":"cebpf4jnsgd1na2vs0mg"},{"bike_id":"cf99540e-56c9-47fd-bb37-414f9e70e2e8","system_id":"levelo_inurba_marseille","lat":43.29847,"lon":5.36267,"is_reserved":false,"is_disabled":false,"rental_uris":{"android":"levelo://app?vid=cf99540e-56c9-47fd-bb37-414f9e70e2e8","ios":"levelo://app?vid=cf99540e-56c9-47fd-bb37-414f9e70e2e8"},"vehicle_type_id":"4","last_reported":1748697610,"current_range_meters":18000,"station_id":"ce4bgpp2rcd13ifvqc3g","pricing_plan_id":"cebpf4jnsgd1na2vs0mg"},{"bike_id":"695371c3-9ed6-4ab0-af7c-c3787148a9f5","system_id":"levelo_inurba_marseille","lat":43.28433,"lon":5.37521,"is_reserved":false,"is_disabled":false,"rental_uris":{"android":"levelo://app?vid=695371c3-9ed6-4ab0-af7c-c3787148a9f5","ios":"levelo://app?vid=695371c3-9ed6-4ab0-af7c-c3787148a9f5"},"vehicle_type_id":"4","last_reported":1748697610,"current_range_meters":18000,"station_id":"ce4bh412rcd13ifvqds0","pricing_plan_id":"cebpf4jnsgd1na2vs0mg"},{"bike_id":"0cd0f35a-8fb8-4853-b498-8b85d9daafee","system_id":"levelo_inurba_marseille","lat":43.21184,"lon":5.35107,"is_reserved":false,"is_disabled":false,"rental_uris":{"android":"levelo://app?vid=0cd0f35a-8fb8-4853-b498-8b85d9daafee","ios":"levelo://app?vid=0cd0f35a-8fb8-4853-b498-8b85d9daafee"},"vehicle_type_id":"4","last_reported":1748697610,"current_range_meters":18000,"station_id":"st_cvj6sg6p6f1abm77japg","pricing_plan_id":"cebpf4jnsgd1na2vs0mg"},{"bike_id":"25129ad1-d70d-40b6-8c5a-aee8d69afcff","system_id":"levelo_inurba_marseille","lat":43.29231,"lon":5.36067,"is_reserved":false,"is_disabled":false,"rental_uris":{"android":"levelo://app?vid=25129ad1-d70d-40b6-8c5a-aee8d69afcff","ios":"levelo://app?vid=25129ad1-d70d-40b6-8c5a-aee8d69afcff"},"vehicle_type_id":"4","last_reported":1748697610,"current_range_meters":18000,"station_id":"ce4bhbh2rcd13ifvqeqg","pricing_plan_id":"cebpf4jnsgd1na2vs0mg"},