{"last_updated":1769156260,"ttl":60,"version":"2.2","data":{"bikes":[{"bike_id":"0c9d423a-f090-4023-8829-c3c48ed44d86","system_id":"levelo_inurba_marseille","lat":43.28719,"lon":5.37943,"is_reserved":false,"is_disabled":false,"rental_uris":{"android":"levelo://app?vid=0c9d423a-f090-4023-8829-c3c48ed44d86","ios":"levelo://app?vid=0c9d423a-f090-4023-8829-c3c48ed44d86"},"vehicle_type_id":"4","last_reported":1769156260,"current_range_meters":2800,"station_id":"ce4bh9p2rcd13ifvqec0","pricing_plan_id":"cebpf4jnsgd1na2vs0mg"},{"bike_id":"51171db1-1146-4f74-83bf-04f16e6bedc7","system_id":"levelo_inurba_marseille","lat":43.28537,"lon":5.4412,"is_reserved":false,"is_disabled":false,"rental_uris":{"android":"levelo://app?vid=51171db1-1146-4f74-83bf-04f16e6bedc7","ios":"levelo://app?vid=51171db1-1146-4f74-83bf-04f16e6bedc7"},"vehicle_type_id":"4","last_reported":1769156260,"current_range_meters":2800,"station_id":"st_d3j3df2ikq2c7380ej80","pricing_plan_id":"cebpf4jnsgd1na2vs0mg"},{"bike_id":"2ff3fdc1-d72f-46a0-9897-afa495a44533","system_id":"levelo_inurba_marseille","lat":43.24166,"lon":5.39673,"is_reserved":false,"is_disabled":false,"rental_uris":{"android":"levelo://app?vid=2ff3fdc1-d72f-46a0-9897-afa495a44533","ios":"levelo://app?vid=2ff3fdc1-d72f-46a0-9897-afa495a44533"},"vehicle_type_id":"4","last_reported":1769156260,"current_range_meters":2800,"station_id":"ce4bhn12rcd13ifvqgpg","pricing_plan_id":"cebpf4jnsgd1na2vs0mg"},{"bike_id":"68604b21-46ea-446a-a96f-629a8f6300f8","system_id":"levelo_inurba_marseille","lat":43.295732,"lon":5.39971,"is_reserved":false,"is_disabled":false,"rental_uris":{"android":"levelo://app?vid=68604b21-46ea-446a-a96f-629a8f6300f8","ios":"levelo://app?vid=68604b21-46ea-446a-a96f-629a8f6300f8"},"vehicle_type_id":"4","last_reported":1769156260,"current_range_meters":2800,"station_id":"ce4bh312rcd13ifvqdj0","pricing_plan_id":"cebpf4jnsgd1na2vs0mg"},{"bike_id":"231323ad-cfbc-4720-8e04-772f8b75d024","system_id":"levelo_inurba_marseille","lat":43.29367,"lon":5.37857,"is_reserved":false,"is_disabled":false,"rental_uris":{"android":"levelo://app?vid=231323ad-cfbc-4720-8e04-772f8b75d024","ios":"levelo://app?vid=231323ad-cfbc-4720-8e04-772f8b75d024"},"vehicle_type_id":"4","last_reported":1769156260,"current_range_meters":2800,"station_id":"ce4bgjh2rcd13ifvqbf0","pricing_plan_id":"cebpf4jnsgd1na2vs0mg"},{"bike_id":"d8344329-153b-4a08-9de8-fc84530e10b9","system_id":"levelo_inurba_marseille","lat":43.23803,"lon":5.3664,"is_reserved":false,"is_disabled":false,"rental_uris":{"android":"levelo://app?vid=d8344329-153b-4a08-9de8-fc84530e10b9","ios":"levelo://app?vid=d8344329-153b-4a08-9de8-fc84530e10b9"},"vehicle_type_id":"4","last_reported":1769156260,"current_range_meters":2800,"station_id":"st_d3nk18o9ro0c73en2l3g","pricing_plan_id":"cebpf4jnsgd1na2vs0mg"},{"bike_id":"1057ea7d-0495-4504-82b1-fb2945db5536","system_id":"levelo_inurba_marseille","lat":43.27802,"lon":5.40738,"is_reserved":false,"is_disabled":false,"rental_uris":{"android":"levelo://app?vid=1057ea7d-0495-4504-82b1-fb2945db5536","ios":"levelo://app?vid=1057ea7d-0495-4504-82b1-fb2945db5536"},"vehicle_type_id":"4","last_reported":1769156260,"current_range_meters":2800,"station_id":"ce4bhnh2rcd13ifvqgtg","pricing_plan_id":"cebpf4jnsgd1na2vs0mg"},{"bike_id":"6fedd87d-43f4-49d4-8c29-92430be6252f","system_id":"levelo_inurba_marseille","lat":43.28094,"lon":5.36637,"is_reserved":false,"is_disabled":false,"rental_uris":{"android":"levelo://app?vid=6fedd87d-43f4-49d4-8c29-92430be6252f","ios":"levelo://app?vid=6fedd87d-43f4-49d4-8c29-92430be6252f"},"vehicle_type_id":"4","last_reported":1769156260,"current_range_meters":2800,"station_id":"","pricing_plan_id":"cebpf4jnsgd1na2vs0mg"},{"bike_id":"3206456b-45fe-4b57-ad6e-10515c2f78b7","system_id":"levelo_inurba_marseille","lat":43.24478,"lon":5.4256,"is_reserved":false,"is_disabled":false,"rental_uris":{"android":"levelo://app?vid=3206456b-45fe-4b57-ad6e-10515c2f78b7","ios":"levelo://app?vid=3206456b-45fe-4b57-ad6e-10515c2f78b7"},"vehicle_type_id":"4","last_reported":1769156260,"current_range_meters":2800,"station_id":"st_d4a3vfp97mjs738cd8kg","pricing_plan_id":"cebpf4jnsgd1na2vs0mg"},{"bike_id":"865fbdbf-9a0e-4ff1-ae30-a4b8c336a915","system_id":"levelo_inurba_marseille","lat":43.23966,"lon":5.36648,"is_reserved":false,"is_disabled":false,"rental_uris":{"android":"levelo://app?vid=865fbdbf-9a0e-4ff1-ae30-a4b8c336a915","ios":"levelo://app?vid=865fbdbf-9a0e-4ff1-ae30-a4b8c336a915"},"vehicle_type_id":"4","last_reported":1769156260,"current_range_meters":2800,"station_id":"ce4bhi12rcd13ifvqfp0","pricing_plan_id":"cebpf4jnsgd1na2vs0mg"},{"bike_id":"5b94d29f-9636-4aaa-b03f-06ecb5d9af2a","system_id":"levelo_inurba_marseille","lat":43.26057,"lon":5.39421,"is_reserved":false,"is_disabled":false,"rental_uris":{"android":"levelo://app?vid=5b94d29f-9636-4aaa-b03f-06ecb5d9af2a","ios":"levelo://app?vid=5b94d29f-9636-4aaa-b03f-06ecb5d9af2a"},"vehicle_type_id":"4","last_reported":1769156260,"current_range_meters":3200,"station_id":"ce4bhh92rcd13ifvqfj0","pricing_plan_id":"cebpf4jnsgd1na2vs0mg"},{"bike_id":"a6110c34-a25c-43e2-b2cf-d90d5bd9d5eb","system_id":"levelo_inurba_marseille","lat":43.28017,"lon":5.41696,"is_reserved":false,"is_disabled":false,"rental_uris":{"android":"levelo://app?vid=a6110c34-a25c-43e2-b2cf-d90d5bd9d5eb","ios":"levelo://app?vid=a6110c34-a25c-43e2-b2cf-d90d5bd9d5eb"},"vehicle_type_id":"4","last_reported":1769156260,"current_range_meters":3200,"station_id":"ce4bho12rcd13ifvqh1g","pricing_plan_id":"cebpf4jnsgd1na2vs0mg"},{"bike_id":"5a0b5ced-2864-4e44-a912-b5c12eabb027","system_id":"levelo_inurba_marseille","lat":43.2573,"lon":5.41131,"is_reserved":false,"is_disabled":false,"rental_uris":{"android":"levelo://app?vid=5a0b5ced-2864-4e44-a912-b5c12eabb027","ios":"levelo://app?vid=5a0b5ced-2864-4e44-a912-b5c12eabb027"},"vehicle_type_id":"4","last_reported":1769156260,"current_range_meters":3200,"station_id":"ce4bhkp2rcd13ifvqgd0","pricing_plan_id":"cebpf4jnsgd1na2vs0mg"},{"bike_id":"541d00eb-465f-4c45-afe1-d8e432d0c295","system_id":"levelo_inurba_marseille","lat":43.26687,"lon":5.38268,"is_reserved":false,"is_disabled":false,"rental_uris":{"android":"levelo://app?vid=541d00eb-465f-4c45-afe1-d8e432d0c295","ios":"levelo://app?vid=541d00eb-465f-4c45-afe1-d8e432d0c295"},"vehicle_type_id":"4","last_reported":1769156260,"current_range_meters":3200,"station_id":"ce4bhg92rcd13ifvqf90","pricing_plan_id":"cebpf4jnsgd1na2vs0mg"},{"bike_id":"db52c014-7507-43f9-8010-c9eb4d059d84","system_id":"levelo_inurba_marseille","lat":43.25084,"lon":5.39527,"is_reserved":false,"is_disabled":false,"rental_uris":{"android":"levelo://app?vid=db52c014-7507-43f9-8010-c9eb4d059d84","ios":"levelo://app?vid=db52c014-7507-43f9-8010-c9eb4d059d84"},"vehicle_type_id":"4","last_reported":1769156260,"current_range_meters":3200,"station_id":"ce4bhm12rcd13ifvqgkg","pricing_plan_id":"cebpf4jnsgd1na2vs0mg"},{"bike_id":"f7c79268-94f8-4026-9a35-b805f0a4073e","system_id":"levelo_inurba_marseille","lat":43.29097,"lon":5.38128,"is_reserved":false,"is_disabled":false,"rental_uris":{"android":"levelo://app?vid=f7c79268-94f8-4026-9a35-b805f0a4073e","ios":"levelo://app?vid=f7c79268-94f8-4026-9a35-b805f0a4073e"},"vehicle_type_id":"4","last_reported":1769156260,"current_range_meters":3200,"station_id":"ce4bh512rcd13ifvqe2g","pricing_plan_id":"cebpf4jnsgd1na2vs0mg"},{"bike_id":"4c4ab50c-d6b5-4663-8cfd-881147133cad","system_id":"levelo_inurba_marseille","lat":43.24076,"lon":5.37765,"is_reserved":false,"is_disabled":false,"rental_uris":{"android":"levelo://app?vid=4c4ab50c-d6b5-4663-8cfd-881147133cad","ios":"levelo://app?vid=4c4ab50c-d6b5-4663-8cfd-881147133cad"},"vehicle_type_id":"4","last_reported":1769156260,"current_range_meters":3200,"station_id":"ce4bhnp2rcd13ifvqgvg","pricing_plan_id":"cebpf4jnsgd1na2vs0mg"},{"bike_id":"87e0c80f-7a52-4201-aaf3-69ff1fe033bd","system_id":"levelo_inurba_marseille","lat":43.29575,"lon":5.3674,"is_reserved":false,"is_disabled":false,"rental_uris":{"android":"levelo://app?vid=87e0c80f-7a52-4201-aaf3-69ff1fe033bd","ios":"levelo://app?vid=87e0c80f-7a52-4201-aaf3-69ff1fe033bd"},"vehicle_type_id":"4","last_reported":1769156260,"current_range_meters":3200,"station_id":"ce4bgph2rcd13ifvqc2g","pricing_plan_id":"cebpf4jnsgd1na2vs0mg"},{"bike_id":"58cb58eb-302e-4a70-bfa8-65a6093a5444","system_id":"levelo_inurba_marseille","lat":43.28946,"lon":5.39637,"is_reserved":false,"is_disabled":false,"rental_uris":{"android":"levelo://app?vid=58cb58eb-302e-4a70-bfa8-65a6093a5444","ios":"levelo://app?vid=58cb58eb-302e-4a70-bfa8-65a6093a5444"},"vehicle_type_id":"4","last_reported":1769156260,"current_range_meters":3200,"station_id":"ce4bh3h2rcd13ifvqdn0","pricing_plan_id":"cebpf4jnsgd1na2vs0mg"},{"bike_id":"992bbdc1-e51f-4a26-9c9d-5e8155ad3433","system_id":"levelo_inurba_marseille","lat":43.27205,"lon":5.39209,"is_reserved":false,"is_disabled":false,"rental_uris":{"android":"levelo://app?vid=992bbdc1-e51f-4a26-9c9d-5e8155ad3433","ios":"levelo://app?vid=992bbdc1-e51f-4a26-9c9d-5e8155ad3433"},"vehicle_type_id":"4","last_reported":1769156260,"current_range_meters":3200,"station_id":"ce4bhhp2rcd13ifvqfm0","pricing_plan_id":"cebpf4jnsgd1na2vs0mg"},{"bike_id":"c6df5a11-88ac-4c2d-966f-46bd5174cf60","system_id":"levelo_inurba_marseille","lat":43.28161,"lon":5.42678,"is_reserved":false,"is_disabled":false,"rental_uris":{"android":"levelo://app?vid=c6df5a11-88ac-4c2d-966f-46bd5174cf60","ios":"levelo://app?vid=c6df5a11-88ac-4c2d-966f-46bd5174cf60"},"vehicle_type_id":"4","last_reported":1769156260,"current_range_meters":3600,"station_id":"ce4bhnh2rcd13ifvqgug","pricing_plan_id":"cebpf4jnsgd1na2vs0mg"},{"bike_id":"020cfd6a-f32a-46f1-8621-8c0d452c270c","system_id":"levelo_inurba_marseille","lat":43.29014,"lon":5.37585,"is_reserved":false,"is_disabled":false,"rental_uris":{"android":"levelo://app?vid=020cfd6a-f32a-46f1-8621-8c0d452c270c","ios":"levelo://app?vid=020cfd6a-f32a-46f1-8621-8c0d452c270c"},"vehicle_type_id":"4","last_reported":1769156260,"current_range_meters":3600,"station_id":"ce4bh692rcd13ifvqe90","pricing_plan_id":"cebpf4jnsgd1na2vs0mg"},{"bike_id":"3b12d6b4-840f-44cf-b4a9-56ca22a7154f","system_id":"levelo_inurba_marseille","lat":43.27329,"lon":5.39097,"is_reserved":false,"is_disabled":false,"rental_uris":{"android":"levelo://app?vid=3b12d6b4-840f-44cf-b4a9-56ca22a7154f","ios":"levelo://app?vid=3b12d6b4-840f-44cf-b4a9-56ca22a7154f"},"vehicle_type_id":"4","last_reported":1769156260,"current_range_meters":3600,"station_id":"ce4bhgp2rcd13ifvqfe0","pricing_plan_id":"cebpf4jnsgd1na2vs0mg"},{"bike_id":"5f4c7ac4-6b5a-4640-bf71-a81a7db3c254","system_id":"levelo_inurba_marseille","lat":43.29259,"lon":5.40202,"is_reserved":false,"is_disabled":false,"rental_uris":{"android":"levelo://app?vid=5f4c7ac4-6b5a-4640-bf71-a81a7db3c254","ios":"levelo://app?vid=5f4c7ac4-6b5a-4640-bf71-a81a7db3c254"},"vehicle_type_id":"4","last_reported":1769156260,"current_range_meters":3600,"station_id":"","pricing_plan_id":"cebpf4jnsgd1na2vs0mg"},{"bike_id":"f39628e7-f451-4af8-80af-ee31b074b0b2","system_id":"levelo_inurba_marseille","lat":43.28531,"lon":5.44093,"is_reserved":false,"is_disabled":false,"rental_uris":{"android":"levelo://app?vid=f39628e7-f451-4af8-80af-ee31b074b0b2","ios":"levelo://app?vid=f39628e7-f451-4af8-80af-ee31b074b0b2"},"vehicle_type_id":"4","last_reported":1769156260,"current_range_meters":3600,"station_id":"st_d3j3df2ikq2c7380ej80","pricing_plan_id":"cebpf4jnsgd1na2vs0mg"},{"bike_id":"f9143ecb-aade-4bb9-990c-9859476787e9","system_id":"levelo_inurba_marseille","lat":43.23781,"lon":5.366284,"is_reserved":false,"is_disabled":false,"rental_uris":{"android":"levelo://app?vid=f9143ecb-aade-4bb9-990c-9859476787e9","ios":"levelo://app?vid=f9143ecb-aade-4bb9-990c-9859476787e9"},"vehicle_type_id":"4","last_reported":1769156260,"current_range_meters":3600,"station_id":"st_d3nk18o9ro0c73en2l3g","pricing_plan_id":"cebpf4jnsgd1na2vs0mg"},{"bike_id":"cf9d1ef5-1b27-4844-8227-de6f097a8958","system_id":"levelo_inurba_marseille","lat":43.26932,"lon":5.38658,"is_reserved":false,"is_disabled":false,"rental_uris":{"android":"levelo://app?vid=cf9d1ef5-1b27-4844-8227-de6f097a8958","ios":"levelo://app?vid=cf9d1ef5-1b27-4844-8227-de6f097a8958"},"vehicle_type_id":"4","last_reported":1769156260,"current_range_meters":3600,"station_id":"ce4bhh92rcd13ifvqfh0","pricing_plan_id":"cebpf4jnsgd1na2vs0mg"},{"bike_id":"722919f1-e164-467f-a946-cfaa35a85b10","system_id":"levelo_inurba_marseille","lat":43.27316,"lon":5.39075,"is_reserved":false,"is_disabled":false,"rental_uris":{"android":"levelo://app?vid=722919f1-e164-467f-a946-cfaa35a85b10","ios":"levelo://app?vid=722919f1-e164-467f-a946-cfaa35a85b10"},"vehicle_type_id":"4","last_reported":1769156260,"current_range_meters":3600,"station_id":"ce4bhgp2rcd13ifvqfe0","pricing_plan_id":"cebpf4jnsgd1na2vs0mg"},{"bike_id":"555924d1-aa08-40bd-afad-0cbc79001f59","system_id":"levelo_inurba_marseille","lat":43.29028,"lon":5.39968,"is_reserved":false,"is_disabled":false,"rental_uris":{"android":"levelo://app?vid=555924d1-aa08-40bd-afad-0cbc79001f59","ios":"levelo://app?vid=555924d1-aa08-40bd-afad-0cbc79001f59"},"vehicle_type_id":"4","last_reported":1769156260,"current_range_meters":3600,"station_id":"ce4bh392rcd13ifvqdm0","pricing_plan_id":"cebpf4jnsgd1na2vs0mg"},{"bike_id":"596c41c7-2beb-4c3c-8922-aa97d708cd66","system_id":"levelo_inurba_marseille","lat":43.3235,"lon":5.36759,"is_reserved":false,"is_disabled":false,"rental_uris":{"android":"levelo://app?vid=596c41c7-2beb-4c3c-8922-aa97d708cd66","ios":"levelo://app?vid=596c41c7-2beb-4c3c-8922-aa97d708cd66"},"vehicle_type_id":"4","last_reported":1769156260,"current_range_meters":3600,"station_id":"ce4bhsh2rcd13ifvqi2g","pricing_plan_id":"cebpf4jnsgd1na2vs0mg"},{"bike_id":"388b114a-8850-48cb-a6c0-9e3ca0916a10","system_id":"levelo_inurba_marseille","lat":43.265632,"lon":5.390071,"is_reserved":false,"is_disabled":false,"rental_uris":{"android":"levelo://app?vid=388b114a-8850-48cb-a6c0-9e3ca0916a10","ios":"levelo://app?vid=388b114a-8850-48cb-a6c0-9e3ca0916a10"},"vehicle_type_id":"4","last_reported":1769156260,"current_range_meters":3600,"station_id":"ce4bhe12rcd13ifvqf30","pricing_plan_id":"cebpf4jnsgd1na2vs0mg"},{"bike_id":"c04a5f67-8f5d-4135-86b4-b72fa6fb5eb3","system_id":"levelo_inurba_marseille","lat":43.27207,"lon":5.39187,"is_reserved":false,"is_disabled":false,"rental_uris":{"android":"levelo://app?vid=c04a5f67-8f5d-4135-86b4-b72fa6fb5eb3","ios":"levelo://app?vid=c04a5f67-8f5d-4135-86b4-b72fa6fb5eb3"},"vehicle_type_id":"4","last_reported":1769156260,"current_range_meters":4000,"station_id":"ce4bhhp2rcd13ifvqfm0","pricing_plan_id":"cebpf4jnsgd1na2vs0mg"},{"bike_id":"12d65139-8fbd-418b-8523-1b0952363e37","system_id":"levelo_inurba_marseille","lat":43.2465,"lon":5.38901,"is_reserved":false,"is_disabled":false,"rental_uris":{"android":"levelo://app?vid=12d65139-8fbd-418b-8523-1b0952363e37","ios":"levelo://app?vid=12d65139-8fbd-418b-8523-1b0952363e37"},"vehicle_type_id":"4","last_reported":1769156260,"current_range_meters":4000,"station_id":"ce4bhg12rcd13ifvqf60","pricing_plan_id":"cebpf4jnsgd1na2vs0mg"},{"bike_id":"e45e439a-8bbb-4c8b-be27-d95955fac1ae","system_id":"levelo_inurba_marseille","lat":43.30465,"lon":5.37905,"is_reserved":false,"is_disabled":false,"rental_uris":{"android":"levelo://app?vid=e45e439a-8bbb-4c8b-be27-d95955fac1ae","ios":"levelo://app?vid=e45e439a-8bbb-4c8b-be27-d95955fac1ae"},"vehicle_type_id":"4","last_reported":1769156260,"current_range_meters":4000,"station_id":"ce4bgup2rcd13ifvqcn0","pricing_plan_id":"cebpf4jnsgd1na2vs0mg"},{"bike_id":"a559dedb-6b8e-421f-806e-32998e708d7c","system_id":"levelo_inurba_marseille","lat":43.29272,"lon":5.40142,"is_reserved":false,"is_disabled":false,"rental_uris":{"android":"levelo://app?vid=a559dedb-6b8e-421f-806e-32998e708d7c","ios":"levelo://app?vid=a559dedb-6b8e-421f-806e-32998e708d7c"},"vehicle_type_id":"4","last_reported":1769156260,"current_range_meters":4000,"station_id":"ce4bh312rcd13ifvqdk0","pricing_plan_id":"cebpf4jnsgd1na2vs0mg"},{"bike_id":"5e2563bc-9509-4bbf-9101-ecb35806ad69","system_id":"levelo_inurba_marseille","lat":43.30604,"lon":5.3723,"is_reserved":false,"is_disabled":false,"rental_uris":{"android":"levelo://app?vid=5e2563bc-9509-4bbf-9101-ecb35806ad69","ios":"levelo://app?vid=5e2563bc-9509-4bbf-9101-ecb35806ad69"},"vehicle_type_id":"4","last_reported":1769156260,"current_range_meters":4000,"station_id":"ce4bgqh2rcd13ifvqc4g","pricing_plan_id":"cebpf4jnsgd1na2vs0mg"},{"bike_id":"3b364841-63d1-4d4f-bb34-83c89b251a49","system_id":"levelo_inurba_marseille","lat":43.308905,"lon":5.372013,"is_reserved":false,"is_disabled":false,"rental_uris":{"android":"levelo://app?vid=3b364841-63d1-4d4f-bb34-83c89b251a49","ios":"levelo://app?vid=3b364841-63d1-4d4f-bb34-83c89b251a49"},"vehicle_type_id":"4","last_reported":1769156260,"current_range_meters":4000,"station_id":"ce4bguh2rcd13ifvqckg","pricing_plan_id":"cebpf4jnsgd1na2vs0mg"},{"bike_id":"93ffc1a0-4b14-4817-963b-29f4f6f3d8b8","system_id":"levelo_inurba_marseille","lat":43.30457,"lon":5.379,"is_reserved":false,"is_disabled":false,"rental_uris":{"android":"levelo://app?vid=93ffc1a0-4b14-4817-963b-29f4f6f3d8b8","ios":"levelo://app?vid=93ffc1a0-4b14-4817-963b-29f4f6f3d8b8"},"vehicle_type_id":"4","last_reported":1769156260,"current_range_meters":4000,"station_id":"ce4bgup2rcd13ifvqcn0","pricing_plan_id":"cebpf4jnsgd1na2vs0mg"},{"bike_id":"d7a66618-8b2e-466d-b773-83bae00d870c","system_id":"levelo_inurba_marseille","lat":43.237825,"lon":5.366326,"is_reserved":false,"is_disabled":false,"rental_uris":{"android":"levelo://app?vid=d7a66618-8b2e-466d-b773-83bae00d870c","ios":"levelo://app?vid=d7a66618-8b2e-466d-b773-83bae00d870c"},"vehicle_type_id":"4","last_reported":1769156260,"current_range_meters":4000,"station_id":"st_d3nk18o9ro0c73en2l3g","pricing_plan_id":"cebpf4jnsgd1na2vs0mg"},{"bike_id":"479b1462-5749-4681-b011-9e4960f4699a","system_id":"levelo_inurba_marseille","lat":43.27559,"lon":5.3843,"is_reserved":false,"is_disabled":false,"rental_uris":{"android":"levelo://app?vid=479b1462-5749-4681-b011-9e4960f4699a","ios":"levelo://app?vid=479b1462-5749-4681-b011-9e4960f4699a"},"vehicle_type_id":"4","last_reported":1769156260,"current_range_meters":4000,"station_id":"ce4bhh92rcd13ifvqfi0","pricing_plan_id":"cebpf4jnsgd1na2vs0mg"},{"bike_id":"b875e0b1-c522-4815-80b2-cc2f18cc7799","system_id":"levelo_inurba_marseille","lat":43.2668,"lon":5.38275,"is_reserved":false,"is_disabled":false,"rental_uris":{"android":"levelo://app?vid=b875e0b1-c522-4815-80b2-cc2f18cc7799","ios":"levelo://app?vid=b875e0b1-c522-4815-80b2-cc2f18cc7799"},"vehicle_type_id":"4","last_reported":1769156260,"current_range_meters":4000,"station_id":"ce4bhg92rcd13ifvqf90","pricing_plan_id":"cebpf4jnsgd1na2vs0mg"},{"bike_id":"e726a595-d783-4aca-abf1-2027c976f3e0","system_id":"levelo_inurba_marseille","lat":43.3055,"lon":5.3657,"is_reserved":false,"is_disabled":false,"rental_uris":{"android":"levelo://app?vid=e726a595-d783-4aca-abf1-2027c976f3e0","ios":"levelo://app?vid=e726a595-d783-4aca-abf1-2027c976f3e0"},"vehicle_type_id":"4","last_reported":1769156260,"current_range_meters":4000,"station_id":"ce4bgs12rcd13ifvqcag","pricing_plan_id":"cebpf4jnsgd1na2vs0mg"},{"bike_id":"550c8532-fc28-4cbc-819b-c2fe363468a7","system_id":"levelo_inurba_marseille","lat":43.31065,"lon":5.37171,"is_reserved":false,"is_disabled":false,"rental_uris":{"android":"levelo://app?vid=550c8532-fc28-4cbc-819b-c2fe363468a7","ios":"levelo://app?vid=550c8532-fc28-4cbc-819b-c2fe363468a7"},"vehicle_type_id":"4","last_reported":1769156260,"current_range_meters":4400,"station_id":"st_d4kl2rp97mjs73e7tdfg","pricing_plan_id":"cebpf4jnsgd1na2vs0mg"},{"bike_id":"1334fc94-1b07-4854-8e71-929fb3680a22","system_id":"levelo_inurba_marseille","lat":43.30904,"lon":5.37181,"is_reserved":false,"is_disabled":false,"rental_uris":{"android":"levelo://app?vid=1334fc94-1b07-4854-8e71-929fb3680a22","ios":"levelo://app?vid=1334fc94-1b07-4854-8e71-929fb3680a22"},"vehicle_type_id":"4","last_reported":1769156260,"current_range_meters":4400,"station_id":"ce4bguh2rcd13ifvqckg","pricing_plan_id":"cebpf4jnsgd1na2vs0mg"},{"bike_id":"24665963-1787-437c-b3e7-8d74aaa11d42","system_id":"levelo_inurba_marseille","lat":43.30973,"lon":5.39073,"is_reserved":false,"is_disabled":false,"rental_uris":{"android":"levelo://app?vid=24665963-1787-437c-b3e7-8d74aaa11d42","ios":"levelo://app?vid=24665963-1787-437c-b3e7-8d74aaa11d42"},"vehicle_type_id":"4","last_reported":1769156260,"current_range_meters":4400,"station_id":"ce4bgup2rcd13ifvqco0","pricing_plan_id":"cebpf4jnsgd1na2vs0mg"},{"bike_id":"0778e492-acc3-42fb-a1ee-b55e9a064825","system_id":"levelo_inurba_marseille","lat":43.28851,"lon":5.35851,"is_reserved":false,"is_disabled":false,"rental_uris":{"android":"levelo://app?vid=0778e492-acc3-42fb-a1ee-b55e9a064825","ios":"levelo://app?vid=0778e492-acc3-42fb-a1ee-b55e9a064825"},"vehicle_type_id":"4","last_reported":1769156260,"current_range_meters":4400,"station_id":"ce4bhb12rcd13ifvqem0","pricing_plan_id":"cebpf4jnsgd1na2vs0mg"},{"bike_id":"6cde08db-2d60-4fc0-a7d5-505f4f93c6d4","system_id":"levelo_inurba_marseille","lat":43.33546,"lon":5.37467,"is_reserved":false,"is_disabled":false,"rental_uris":{"android":"levelo://app?vid=6cde08db-2d60-4fc0-a7d5-505f4f93c6d4","ios":"levelo://app?vid=6cde08db-2d60-4fc0-a7d5-505f4f93c6d4"},"vehicle_type_id":"4","last_reported":1769156260,"current_range_meters":4400,"station_id":"st_d46tts09ee8s73dlu43g","pricing_plan_id":"cebpf4jnsgd1na2vs0mg"},{"bike_id":"72fafb96-f297-4dfe-9661-167cd14b85bc","system_id":"levelo_inurba_marseille","lat":43.30532,"lon":5.3656,"is_reserved":false,"is_disabled":false,"rental_uris":{"android":"levelo://app?vid=72fafb96-f297-4dfe-9661-167cd14b85bc","ios":"levelo://app?vid=72fafb96-f297-4dfe-9661-167cd14b85bc"},"vehicle_type_id":"4","last_reported":1769156260,"current_range_meters":4400,"station_id":"ce4bgs12rcd13ifvqcag","pricing_plan_id":"cebpf4jnsgd1na2vs0mg"},{"bike_id":"2bd7b052-198e-4662-8aa6-61b0cac79738","system_id":"levelo_inurba_marseille","lat":43.27275,"lon":5.39082,"is_reserved":false,"is_disabled":false,"rental_uris":{"android":"levelo://app?vid=2bd7b052-198e-4662-8aa6-61b0cac79738","ios":"levelo://app?vid=2bd7b052-198e-4662-8aa6-61b0cac79738"},"vehicle_type_id":"4","last_reported":1769156260,"current_range_meters":4400,"station_id":"ce4bhgp2rcd13ifvqfe0","pricing_plan_id":"cebpf4jnsgd1na2vs0mg"},{"bike_id":"dfb6b791-badd-4621-9306-ea3c833e2455","system_id":"levelo_inurba_marseille","lat":43.32694,"lon":5.40914,"is_reserved":false,"is_disabled":false,"rental_uris":{"android":"levelo://app?vid=dfb6b791-badd-4621-9306-ea3c833e2455","ios":"levelo://app?vid=dfb6b791-badd-4621-9306-ea3c833e2455"},"vehicle_type_id":"4","last_reported":1769156260,"current_range_meters":4400,"station_id":"","pricing_plan_id":"cebpf4jnsgd1na2vs0mg"},{"bike_id":"6055bb6e-3d5f-4359-bcc3-e96115ee8c1f","system_id":"levelo_inurba_marseille","lat":43.255775,"lon":5.38237,"is_reserved":false,"is_disabled":false,"rental_uris":{"android":"levelo://app?vid=6055bb6e-3d5f-4359-bcc3-e96115ee8c1f","ios":"levelo://app?vid=6055bb6e-3d5f-4359-bcc3-e96115ee8c1f"},"vehicle_type_id":"4","last_reported":1769156260,"current_range_meters":4800,"station_id":"ce4bhih2rcd13ifvqfs0","pricing_plan_id":"cebpf4jnsgd1na2vs0mg"},{"bike_id":"ddcb7194-82dc-49b9-9531-85c1db3d6fc4","system_id":"levelo_inurba_marseille","lat":43.2465,"lon":5.38934,"is_reserved":false,"is_disabled":false,"rental_uris":{"android":"levelo://app?vid=ddcb7194-82dc-49b9-9531-85c1db3d6fc4","ios":"levelo://app?vid=ddcb7194-82dc-49b9-9531-85c1db3d6fc4"},"vehicle_type_id":"4","last_reported":1769156260,"current_range_meters":4800,"station_id":"ce4bhg12rcd13ifvqf60","pricing_plan_id":"cebpf4jnsgd1na2vs0mg"},{"bike_id":"a1cf0267-a9c6-4cb7-b49a-598a4cc67209","system_id":"levelo_inurba_marseille","lat":43.23205,"lon":5.3558,"is_reserved":false,"is_disabled":false,"rental_uris":{"android":"levelo://app?vid=a1cf0267-a9c6-4cb7-b49a-598a4cc67209","ios":"levelo://app?vid=a1cf0267-a9c6-4cb7-b49a-598a4cc67209"},"vehicle_type_id":"4","last_reported":1769156260,"current_range_meters":4800,"station_id":"ce4bhu92rcd13ifvqi70","pricing_plan_id":"cebpf4jnsgd1na2vs0mg"},{"bike_id":"090da4bf-e1ff-427c-b741-8d3293006606","system_id":"levelo_inurba_marseille","lat":43.23201,"lon":5.35556,"is_reserved":false,"is_disabled":false,"rental_uris":{"android":"levelo://app?vid=090da4bf-e1ff-427c-b741-8d3293006606","ios":"levelo://app?vid=090da4bf-e1ff-427c-b741-8d3293006606"},"vehicle_type_id":"4","last_reported":1769156260,"current_range_meters":4800,"station_id":"ce4bhu92rcd13ifvqi70","pricing_plan_id":"cebpf4jnsgd1na2vs0mg"},{"bike_id":"983dfa04-9e71-401d-b498-feaefa1c2d24","system_id":"levelo_inurba_marseille","lat":43.26993,"lon":5.39217,"is_reserved":false,"is_disabled":false,"rental_uris":{"android":"levelo://app?vid=983dfa04-9e71-401d-b498-feaefa1c2d24","ios":"levelo://app?vid=983dfa04-9e71-401d-b498-feaefa1c2d24"},"vehicle_type_id":"4","last_reported":1769156260,"current_range_meters":4800,"station_id":"","pricing_plan_id":"cebpf4jnsgd1na2vs0mg"},{"bike_id":"1850841b-646c-41b2-acb1-5ed7f28164ea","system_id":"levelo_inurba_marseille","lat":43.25942,"lon":5.40889,"is_reserved":false,"is_disabled":false,"rental_uris":{"android":"levelo://app?vid=1850841b-646c-41b2-acb1-5ed7f28164ea","ios":"levelo://app?vid=1850841b-646c-41b2-acb1-5ed7f28164ea"},"vehicle_type_id":"4","last_reported":1769156260,"current_range_meters":4800,"station_id":"ce4bhm92rcd13ifvqglg","pricing_plan_id":"cebpf4jnsgd1na2vs0mg"},{"bike_id":"908b89c1-1d60-4b7c-9059-acc4f425905e","system_id":"levelo_inurba_marseille","lat":43.3093,"lon":5.40146,"is_reserved":false,"is_disabled":false,"rental_uris":{"android":"levelo://app?vid=908b89c1-1d60-4b7c-9059-acc4f425905e","ios":"levelo://app?vid=908b89c1-1d60-4b7c-9059-acc4f425905e"},"vehicle_type_id":"4","last_reported":1769156260,"current_range_meters":4800,"station_id":"ce4bgvp2rcd13ifvqct0","pricing_plan_id":"cebpf4jnsgd1na2vs0mg"},{"bike_id":"f86bd105-9e03-4ff7-bfb9-09e5f8507dc8","system_id":"levelo_inurba_marseille","lat":43.289958,"lon":5.398756,"is_reserved":false,"is_disabled":false,"rental_uris":{"android":"levelo://app?vid=f86bd105-9e03-4ff7-bfb9-09e5f8507dc8","ios":"levelo://app?vid=f86bd105-9e03-4ff7-bfb9-09e5f8507dc8"},"vehicle_type_id":"4","last_reported":1769156260,"current_range_meters":4800,"station_id":"ce4bh392rcd13ifvqdm0","pricing_plan_id":"cebpf4jnsgd1na2vs0mg"},{"bike_id":"7120c5f2-3d35-4bf9-aa0b-3aed5e8aaa82","system_id":"levelo_inurba_marseille","lat":43.28853,"lon":5.35868,"is_reserved":false,"is_disabled":false,"rental_uris":{"android":"levelo://app?vid=7120c5f2-3d35-4bf9-aa0b-3aed5e8aaa82","ios":"levelo://app?vid=7120c5f2-3d35-4bf9-aa0b-3aed5e8aaa82"},"vehicle_type_id":"4","last_reported":1769156260,"current_range_meters":4800,"station_id":"ce4bhb12rcd13ifvqem0","pricing_plan_id":"cebpf4jnsgd1na2vs0mg"},{"bike_id":"68e91371-ec19-4980-808d-6b1e83d2095c","system_id":"levelo_inurba_marseille","lat":43.2791,"lon":5.3959,"is_reserved":false,"is_disabled":false,"rental_uris":{"android":"levelo://app?vid=68e91371-ec19-4980-808d-6b1e83d2095c","ios":"levelo://app?vid=68e91371-ec19-4980-808d-6b1e83d2095c"},"vehicle_type_id":"4","last_reported":1769156260,"current_range_meters":5600,"station_id":"ce4bhf92rcd13ifvqf40","pricing_plan_id":"cebpf4jnsgd1na2vs0mg"},{"bike_id":"3e2deb9e-e71a-4d11-940d-76cd444019bd","system_id":"levelo_inurba_marseille","lat":43.30119,"lon":5.43117,"is_reserved":false,"is_disabled":false,"rental_uris":{"android":"levelo://app?vid=3e2deb9e-e71a-4d11-940d-76cd444019bd","ios":"levelo://app?vid=3e2deb9e-e71a-4d11-940d-76cd444019bd"},"vehicle_type_id":"4","last_reported":1769156260,"current_range_meters":5600,"station_id":"st_d3js3co5814s73ftftug","pricing_plan_id":"cebpf4jnsgd1na2vs0mg"},{"bike_id":"90986cae-dfb6-4673-bf77-446d46274004","system_id":"levelo_inurba_marseille","lat":43.28546,"lon":5.44129,"is_reserved":false,"is_disabled":false,"rental_uris":{"android":"levelo://app?vid=90986cae-dfb6-4673-bf77-446d46274004","ios":"levelo://app?vid=90986cae-dfb6-4673-bf77-446d46274004"},"vehicle_type_id":"4","last_reported":1769156260,"current_range_meters":5600,"station_id":"st_d3j3df2ikq2c7380ej80","pricing_plan_id":"cebpf4jnsgd1na2vs0mg"},{"bike_id":"95fcb32a-d899-4c43-aca7-c0b0b736ec9f","system_id":"levelo_inurba_marseille","lat":43.29274,"lon":5.40144,"is_reserved":false,"is_disabled":false,"rental_uris":{"android":"levelo://app?vid=95fcb32a-d899-4c43-aca7-c0b0b736ec9f","ios":"levelo://app?vid=95fcb32a-d899-4c43-aca7-c0b0b736ec9f"},"vehicle_type_id":"4","last_reported":1769156260,"current_range_meters":5600,"station_id":"ce4bh312rcd13ifvqdk0","pricing_plan_id":"cebpf4jnsgd1na2vs0mg"},{"bike_id":"f3575230-e372-44e1-a1c3-3fb9c98f3fe2","system_id":"levelo_inurba_marseille","lat":43.26371,"lon":5.41074,"is_reserved":false,"is_disabled":false,"rental_uris":{"android":"levelo://app?vid=f3575230-e372-44e1-a1c3-3fb9c98f3fe2","ios":"levelo://app?vid=f3575230-e372-44e1-a1c3-3fb9c98f3fe2"},"vehicle_type_id":"4","last_reported":1769156260,"current_range_meters":5600,"station_id":"st_d4e5ca6na9uc73bfl5fg","pricing_plan_id":"cebpf4jnsgd1na2vs0mg"},{"bike_id":"9bcc74ff-bb21-459b-8c89-b1049e46743c","system_id":"levelo_inurba_marseille","lat":43.24645,"lon":5.43126,"is_reserved":false,"is_disabled":false,"rental_uris":{"android":"levelo://app?vid=9bcc74ff-bb21-459b-8c89-b1049e46743c","ios":"levelo://app?vid=9bcc74ff-bb21-459b-8c89-b1049e46743c"},"vehicle_type_id":"4","last_reported":1769156260,"current_range_meters":5600,"station_id":"st_d2m6c4gdas8pm72e190g","pricing_plan_id":"cebpf4jnsgd1na2vs0mg"},{"bike_id":"c9c91417-1c93-40bd-ac7d-c76d147f675b","system_id":"levelo_inurba_marseille","lat":43.24992,"lon":5.3893,"is_reserved":false,"is_disabled":false,"rental_uris":{"android":"levelo://app?vid=c9c91417-1c93-40bd-ac7d-c76d147f675b","ios":"levelo://app?vid=c9c91417-1c93-40bd-ac7d-c76d147f675b"},"vehicle_type_id":"4","last_reported":1769156260,"current_range_meters":5600,"station_id":"ce4bhgp2rcd13ifvqfd0","pricing_plan_id":"cebpf4jnsgd1na2vs0mg"},{"bike_id":"07eceb74-6a95-40d2-bb91-34d09033e737","system_id":"levelo_inurba_marseille","lat":43.27353,"lon":5.36253,"is_reserved":false,"is_disabled":false,"rental_uris":{"android":"levelo://app?vid=07eceb74-6a95-40d2-bb91-34d09033e737","ios":"levelo://app?vid=07eceb74-6a95-40d2-bb91-34d09033e737"},"vehicle_type_id":"4","last_reported":1769156260,"current_range_meters":5600,"station_id":"ce4bhbh2rcd13ifvqeo0","pricing_plan_id":"cebpf4jnsgd1na2vs0mg"},{"bike_id":"17bffe28-2add-4c9a-b559-5e16c2ae2be7","system_id":"levelo_inurba_marseille","lat":43.29917,"lon":5.37482,"is_reserved":false,"is_disabled":false,"rental_uris":{"android":"levelo://app?vid=17bffe28-2add-4c9a-b559-5e16c2ae2be7","ios":"levelo://app?vid=17bffe28-2add-4c9a-b559-5e16c2ae2be7"},"vehicle_type_id":"4","last_reported":1769156260,"current_range_meters":5600,"station_id":"ce4bgjh2rcd13ifvqbg0","pricing_plan_id":"cebpf4jnsgd1na2vs0mg"},{"bike_id":"24c68bfd-afbb-4bab-be78-e28fb940607b","system_id":"levelo_inurba_marseille","lat":43.29022,"lon":5.38176,"is_reserved":false,"is_disabled":false,"rental_uris":{"android":"levelo://app?vid=24c68bfd-afbb-4bab-be78-e28fb940607b","ios":"levelo://app?vid=24c68bfd-afbb-4bab-be78-e28fb940607b"},"vehicle_type_id":"4","last_reported":1769156260,"current_range_meters":5600,"station_id":"ce4bh4p2rcd13ifvqe1g","pricing_plan_id":"cebpf4jnsgd1na2vs0mg"},{"bike_id":"2fa28398-73c6-40b0-abd2-13b571db7bc0","system_id":"levelo_inurba_marseille","lat":43.262101,"lon":5.379218,"is_reserved":false,"is_disabled":false,"rental_uris":{"android":"levelo://app?vid=2fa28398-73c6-40b0-abd2-13b571db7bc0","ios":"levelo://app?vid=2fa28398-73c6-40b0-abd2-13b571db7bc0"},"vehicle_type_id":"4","last_reported":1769156260,"current_range_meters":5600,"station_id":"ce4bhjp2rcd13ifvqg90","pricing_plan_id":"cebpf4jnsgd1na2vs0mg"},{"bike_id":"66f438f9-5e4b-44ea-a9f3-fc8027a236da","system_id":"levelo_inurba_marseille","lat":43.29782,"lon":5.37107,"is_reserved":false,"is_disabled":false,"rental_uris":{"android":"levelo://app?vid=66f438f9-5e4b-44ea-a9f3-fc8027a236da","ios":"levelo://app?vid=66f438f9-5e4b-44ea-a9f3-fc8027a236da"},"vehicle_type_id":"4","last_reported":1769156260,"current_range_meters":6000,"station_id":"ce4bgop2rcd13ifvqc1g","pricing_plan_id":"cebpf4jnsgd1na2vs0mg"},{"bike_id":"fd925f8e-899e-40ec-9287-4e65251eafb1","system_id":"levelo_inurba_marseille","lat":43.26822,"lon":5.38489,"is_reserved":false,"is_disabled":false,"rental_uris":{"android":"levelo://app?vid=fd925f8e-899e-40ec-9287-4e65251eafb1","ios":"levelo://app?vid=fd925f8e-899e-40ec-9287-4e65251eafb1"},"vehicle_type_id":"4","last_reported":1769156260,"current_range_meters":6000,"station_id":"","pricing_plan_id":"cebpf4jnsgd1na2vs0mg"},{"bike_id":"9864eb71-e1a9-41e3-a300-f80070833647","system_id":"levelo_inurba_marseille","lat":43.2657,"lon":5.40317,"is_reserved":false,"is_disabled":false,"rental_uris":{"android":"levelo://app?vid=9864eb71-e1a9-41e3-a300-f80070833647","ios":"levelo://app?vid=9864eb71-e1a9-41e3-a300-f80070833647"},"vehicle_type_id":"4","last_reported":1769156260,"current_range_meters":6000,"station_id":"ce4bhmp2rcd13ifvqgng","pricing_plan_id":"cebpf4jnsgd1na2vs0mg"},{"bike_id":"1cd16e19-c2c6-42be-a9ab-0a35f15f0209","system_id":"levelo_inurba_marseille","lat":43.30141,"lon":5.37423,"is_reserved":false,"is_disabled":false,"rental_uris":{"android":"levelo://app?vid=1cd16e19-c2c6-42be-a9ab-0a35f15f0209","ios":"levelo://app?vid=1cd16e19-c2c6-42be-a9ab-0a35f15f0209"},"vehicle_type_id":"4","last_reported":1769156260,"current_range_meters":6000,"station_id":"ce4bgs92rcd13ifvqcc0","pricing_plan_id":"cebpf4jnsgd1na2vs0mg"},{"bike_id":"acd9753d-26e3-4f04-bd58-d34a3f6a0ad6","system_id":"levelo_inurba_marseille","lat":43.324825,"lon":5.365589,"is_reserved":false,"is_disabled":false,"rental_uris":{"android":"levelo://app?vid=acd9753d-26e3-4f04-bd58-d34a3f6a0ad6","ios":"levelo://app?vid=acd9753d-26e3-4f04-bd58-d34a3f6a0ad6"},"vehicle_type_id":"4","last_reported":1769156260,"current_range_meters":6000,"station_id":"ce4bhs12rcd13ifvqhvg","pricing_plan_id":"cebpf4jnsgd1na2vs0mg"},{"bike_id":"ae72a7f7-0a78-43a1-a80c-a2893de3e9bb","system_id":"levelo_inurba_marseille","lat":43.2481,"lon":5.37445,"is_reserved":false,"is_disabled":false,"rental_uris":{"android":"levelo://app?vid=ae72a7f7-0a78-43a1-a80c-a2893de3e9bb","ios":"levelo://app?vid=ae72a7f7-0a78-43a1-a80c-a2893de3e9bb"},"vehicle_type_id":"4","last_reported":1769156260,"current_range_meters":6000,"station_id":"ce4bhgh2rcd13ifvqfb0","pricing_plan_id":"cebpf4jnsgd1na2vs0mg"},{"bike_id":"c462c4a3-3f5e-4fd1-8a2f-56615210c468","system_id":"levelo_inurba_marseille","lat":43.25808,"lon":5.385787,"is_reserved":false,"is_disabled":false,"rental_uris":{"android":"levelo://app?vid=c462c4a3-3f5e-4fd1-8a2f-56615210c468","ios":"levelo://app?vid=c462c4a3-3f5e-4fd1-8a2f-56615210c468"},"vehicle_type_id":"4","last_reported":1769156260,"current_range_meters":6000,"station_id":"","pricing_plan_id":"cebpf4jnsgd1na2vs0mg"},{"bike_id":"65a6842e-5fed-466b-9131-4e1d873c7f6a","system_id":"levelo_inurba_marseille","lat":43.30101,"lon":5.39087,"is_reserved":false,"is_disabled":false,"rental_uris":{"android":"levelo://app?vid=65a6842e-5fed-466b-9131-4e1d873c7f6a","ios":"levelo://app?vid=65a6842e-5fed-466b-9131-4e1d873c7f6a"},"vehicle_type_id":"4","last_reported":1769156260,"current_range_meters":6000,"station_id":"ce4bh192rcd13ifvqdb0","pricing_plan_id":"cebpf4jnsgd1na2vs0mg"},{"bike_id":"51ea9dfc-3210-4587-a521-d81292b6496b","system_id":"levelo_inurba_marseille","lat":43.29211,"lon":5.36082,"is_reserved":false,"is_disabled":false,"rental_uris":{"android":"levelo://app?vid=51ea9dfc-3210-4587-a521-d81292b6496b","ios":"levelo://app?vid=51ea9dfc-3210-4587-a521-d81292b6496b"},"vehicle_type_id":"4","last_reported":1769156260,"current_range_meters":6000,"station_id":"ce4bhbh2rcd13ifvqeqg","pricing_plan_id":"cebpf4jnsgd1na2vs0mg"},{"bike_id":"40e5e2c7-0e64-4220-a47b-eba55999faf7","system_id":"levelo_inurba_marseille","lat":43.22561,"lon":5.41631,"is_reserved":false,"is_disabled":false,"rental_uris":{"android":"levelo://app?vid=40e5e2c7-0e64-4220-a47b-eba55999faf7","ios":"levelo://app?vid=40e5e2c7-0e64-4220-a47b-eba55999faf7"},"vehicle_type_id":"4","last_reported":1769156260,"current_range_meters":6000,"station_id":"st_d2o4gvlbi1j2169b742g","pricing_plan_id":"cebpf4jnsgd1na2vs0mg"},{"bike_id":"5f624338-fb91-416f-8cf8-2d4a018c2a09","system_id":"levelo_inurba_marseille","lat":43.23774,"lon":5.36638,"is_reserved":false,"is_disabled":false,"rental_uris":{"android":"levelo://app?vid=5f624338-fb91-416f-8cf8-2d4a018c2a09","ios":"levelo://app?vid=5f624338-fb91-416f-8cf8-2d4a018c2a09"},"vehicle_type_id":"4","last_reported":1769156260,"current_range_meters":6000,"station_id":"st_d3nk18o9ro0c73en2l3g","pricing_plan_id":"cebpf4jnsgd1na2vs0mg"},{"bike_id":"0f3ab52f-5900-407d-adf2-c47497925b64","system_id":"levelo_inurba_marseille","lat":43.26581,"lon":5.37329,"is_reserved":false,"is_disabled":false,"rental_uris":{"android":"levelo://app?vid=0f3ab52f-5900-407d-adf2-c47497925b64","ios":"levelo://app?vid=0f3ab52f-5900-407d-adf2-c47497925b64"},"vehicle_type_id":"4","last_reported":1769156260,"current_range_meters":6000,"station_id":"ce4bhg12rcd13ifvqf70","pricing_plan_id":"cebpf4jnsgd1na2vs0mg"},{"bike_id":"93ccd092-a7f1-4592-950d-bdb838c6f004","system_id":"levelo_inurba_marseille","lat":43.250103,"lon":5.389207,"is_reserved":false,"is_disabled":false,"rental_uris":{"android":"levelo://app?vid=93ccd092-a7f1-4592-950d-bdb838c6f004","ios":"levelo://app?vid=93ccd092-a7f1-4592-950d-bdb838c6f004"},"vehicle_type_id":"4","last_reported":1769156260,"current_range_meters":6000,"station_id":"ce4bhgp2rcd13ifvqfd0","pricing_plan_id":"cebpf4jnsgd1na2vs0mg"},{"bike_id":"7a44288c-76ef-42bd-aa63-09fedbfa4f09","system_id":"levelo_inurba_marseille","lat":43.244675,"lon":5.425328,"is_reserved":false,"is_disabled":false,"rental_uris":{"android":"levelo://app?vid=7a44288c-76ef-42bd-aa63-09fedbfa4f09","ios":"levelo://app?vid=7a44288c-76ef-42bd-aa63-09fedbfa4f09"},"vehicle_type_id":"4","last_reported":1769156260,"current_range_meters":6000,"station_id":"st_d4a3vfp97mjs738cd8kg","pricing_plan_id":"cebpf4jnsgd1na2vs0mg"},{"bike_id":"65808b18-3604-4fd3-9b1d-c1fd09908835","system_id":"levelo_inurba_marseille","lat":43.25329,"lon":5.42156,"is_reserved":false,"is_disabled":false,"rental_uris":{"android":"levelo://app?vid=65808b18-3604-4fd3-9b1d-c1fd09908835","ios":"levelo://app?vid=65808b18-3604-4fd3-9b1d-c1fd09908835"},"vehicle_type_id":"4","last_reported":1769156260,"current_range_meters":6400,"station_id":"st_d2m65c5bi1j21697t3ng","pricing_plan_id":"cebpf4jnsgd1na2vs0mg"},{"bike_id":"cc9f4717-497d-46b4-8770-89f5df0571cd","system_id":"levelo_inurba_marseille","lat":43.2441,"lon":5.37056,"is_reserved":false,"is_disabled":false,"rental_uris":{"android":"levelo://app?vid=cc9f4717-497d-46b4-8770-89f5df0571cd","ios":"levelo://app?vid=cc9f4717-497d-46b4-8770-89f5df0571cd"},"vehicle_type_id":"4","last_reported":1769156260,"current_range_meters":6400,"station_id":"ce4bhhh2rcd13ifvqfk0","pricing_plan_id":"cebpf4jnsgd1na2vs0mg"},{"bike_id":"dd478ed1-f1ff-4d52-903a-5c6c3f9e482a","system_id":"levelo_inurba_marseille","lat":43.30928,"lon":5.39032,"is_reserved":false,"is_disabled":false,"rental_uris":{"android":"levelo://app?vid=dd478ed1-f1ff-4d52-903a-5c6c3f9e482a","ios":"levelo://app?vid=dd478ed1-f1ff-4d52-903a-5c6c3f9e482a"},"vehicle_type_id":"4","last_reported":1769156260,"current_range_meters":6400,"station_id":"ce4bgup2rcd13ifvqco0","pricing_plan_id":"cebpf4jnsgd1na2vs0mg"},{"bike_id":"c0285b55-73df-4265-a2e1-4a0bb225f766","system_id":"levelo_inurba_marseille","lat":43.24643,"lon":5.38889,"is_reserved":false,"is_disabled":false,"rental_uris":{"android":"levelo://app?vid=c0285b55-73df-4265-a2e1-4a0bb225f766","ios":"levelo://app?vid=c0285b55-73df-4265-a2e1-4a0bb225f766"},"vehicle_type_id":"4","last_reported":1769156260,"current_range_meters":6400,"station_id":"ce4bhg12rcd13ifvqf60","pricing_plan_id":"cebpf4jnsgd1na2vs0mg"},{"bike_id":"5774fa69-f23c-40c5-8874-ca18d1bfef51","system_id":"levelo_inurba_marseille","lat":43.26382,"lon":5.41056,"is_reserved":false,"is_disabled":false,"rental_uris":{"android":"levelo://app?vid=5774fa69-f23c-40c5-8874-ca18d1bfef51","ios":"levelo://app?vid=5774fa69-f23c-40c5-8874-ca18d1bfef51"},"vehicle_type_id":"4","last_reported":1769156260,"current_range_meters":6400,"station_id":"st_d4e5ca6na9uc73bfl5fg","pricing_plan_id":"cebpf4jnsgd1na2vs0mg"},{"bike_id":"05d6e816-c599-4137-a30a-5127b06dbfc0","system_id":"levelo_inurba_marseille","lat":43.28145,"lon":5.42666,"is_reserved":false,"is_disabled":true,"rental_uris":{"android":"levelo://app?vid=05d6e816-c599-4137-a30a-5127b06dbfc0","ios":"levelo://app?vid=05d6e816-c599-4137-a30a-5127b06dbfc0"},"vehicle_type_id":"4","last_reported":1769156260,"current_range_meters":6400,"station_id":"ce4bhnh2rcd13ifvqgug","pricing_plan_id":"cebpf4jnsgd1na2vs0mg"},{"bike_id":"7ba23323-6ddc-445c-8627-b0bc6c465bc3","system_id":"levelo_inurba_marseille","lat":43.32482,"lon":5.36585,"is_reserved":false,"is_disabled":false,"rental_uris":{"android":"levelo://app?vid=7ba23323-6ddc-445c-8627-b0bc6c465bc3","ios":"levelo://app?vid=7ba23323-6ddc-445c-8627-b0bc6c465bc3"},"vehicle_type_id":"4","last_reported":1769156260,"current_range_meters":6400,"station_id":"ce4bhs12rcd13ifvqhvg","pricing_plan_id":"cebpf4jnsgd1na2vs0mg"},{"bike_id":"b147dd6d-64e5-4e1d-a67d-e4c30841ca44","system_id":"levelo_inurba_marseille","lat":43.26566,"lon":5.39022,"is_reserved":false,"is_disabled":false,"rental_uris":{"android":"levelo://app?vid=b147dd6d-64e5-4e1d-a67d-e4c30841ca44","ios":"levelo://app?vid=b147dd6d-64e5-4e1d-a67d-e4c30841ca44"},"vehicle_type_id":"4","last_reported":1769156260,"current_range_meters":6400,"station_id":"ce4bhe12rcd13ifvqf30","pricing_plan_id":"cebpf4jnsgd1na2vs0mg"},{"bike_id":"a6647b88-80b4-4619-873e-fc05f3342456","system_id":"levelo_inurba_marseille","lat":43.246388,"lon":5.431451,"is_reserved":false,"is_disabled":false,"rental_uris":{"android":"levelo://app?vid=a6647b88-80b4-4619-873e-fc05f3342456","ios":"levelo://app?vid=a6647b88-80b4-4619-873e-fc05f3342456"},"vehicle_type_id":"4","last_reported":1769156260,"current_range_meters":6400,"station_id":"st_d2m6c4gdas8pm72e190g","pricing_plan_id":"cebpf4jnsgd1na2vs0mg"},{"bike_id":"dbaf99ff-7cdf-410d-a89b-d60be462efcf","system_id":"levelo_inurba_marseille","lat":43.29874,"lon":5.38878,"is_reserved":false,"is_disabled":false,"rental_uris":{"android":"levelo://app?vid=dbaf99ff-7cdf-410d-a89b-d60be462efcf","ios":"levelo://app?vid=dbaf99ff-7cdf-410d-a89b-d60be462efcf"},"vehicle_type_id":"4","last_reported":1769156260,"current_range_meters":6400,"station_id":"","pricing_plan_id":"cebpf4jnsgd1na2vs0mg"},{"bike_id":"20c1cc69-3a0d-4679-b45c-9954ef47fca5","system_id":"levelo_inurba_marseille","lat":43.23073,"lon":5.35501,"is_reserved":false,"is_disabled":false,"rental_uris":{"android":"levelo://app?vid=20c1cc69-3a0d-4679-b45c-9954ef47fca5","ios":"levelo://app?vid=20c1cc69-3a0d-4679-b45c-9954ef47fca5"},"vehicle_type_id":"4","last_reported":1769156260,"current_range_meters":6400,"station_id":"cpo3342slgdg3j2ifvpg","pricing_plan_id":"cebpf4jnsgd1na2vs0mg"},{"bike_id":"70aa8391-3c8c-41ab-8c43-1b3661572c84","system_id":"levelo_inurba_marseille","lat":43.24636,"lon":5.38166,"is_reserved":false,"is_disabled":false,"rental_uris":{"android":"levelo://app?vid=70aa8391-3c8c-41ab-8c43-1b3661572c84","ios":"levelo://app?vid=70aa8391-3c8c-41ab-8c43-1b3661572c84"},"vehicle_type_id":"4","last_reported":1769156260,"current_range_meters":6400,"station_id":"ce4bhih2rcd13ifvqfr0","pricing_plan_id":"cebpf4jnsgd1na2vs0mg"},{"bike_id":"be8eef72-4fa4-4a9f-b533-28fafae914d7","system_id":"levelo_inurba_marseille","lat":43.28484,"lon":5.38431,"is_reserved":false,"is_disabled":false,"rental_uris":{"android":"levelo://app?vid=be8eef72-4fa4-4a9f-b533-28fafae914d7","ios":"levelo://app?vid=be8eef72-4fa4-4a9f-b533-28fafae914d7"},"vehicle_type_id":"4","last_reported":1769156260,"current_range_meters":6400,"station_id":"ce4bh512rcd13ifvqe3g","pricing_plan_id":"cebpf4jnsgd1na2vs0mg"},{"bike_id":"324cd82f-1083-4204-b317-811809b2300e","system_id":"levelo_inurba_marseille","lat":43.29195,"lon":5.37309,"is_reserved":false,"is_disabled":false,"rental_uris":{"android":"levelo://app?vid=324cd82f-1083-4204-b317-811809b2300e","ios":"levelo://app?vid=324cd82f-1083-4204-b317-811809b2300e"},"vehicle_type_id":"4","last_reported":1769156260,"current_range_meters":6400,"station_id":"","pricing_plan_id":"cebpf4jnsgd1na2vs0mg"},{"bike_id":"884b714b-de31-400c-acad-491c87710532","system_id":"levelo_inurba_marseille","lat":43.299066,"lon":5.436737,"is_reserved":false,"is_disabled":false,"rental_uris":{"android":"levelo://app?vid=884b714b-de31-400c-acad-491c87710532","ios":"levelo://app?vid=884b714b-de31-400c-acad-491c87710532"},"vehicle_type_id":"4","last_reported":1769156260,"current_range_meters":6400,"station_id":"ce4bhpp2rcd13ifvqhfg","pricing_plan_id":"cebpf4jnsgd1na2vs0mg"},{"bike_id":"8753a683-2051-4886-9ce0-c24853c6454d","system_id":"levelo_inurba_marseille","lat":43.245476,"lon":5.395318,"is_reserved":false,"is_disabled":false,"rental_uris":{"android":"levelo://app?vid=8753a683-2051-4886-9ce0-c24853c6454d","ios":"levelo://app?vid=8753a683-2051-4886-9ce0-c24853c6454d"},"vehicle_type_id":"4","last_reported":1769156260,"current_range_meters":6400,"station_id":"ce4bhlp2rcd13ifvqgjg","pricing_plan_id":"cebpf4jnsgd1na2vs0mg"},{"bike_id":"cbd6d55e-5809-4853-9878-dbbf6af6a148","system_id":"levelo_inurba_marseille","lat":43.28851,"lon":5.42516,"is_reserved":false,"is_disabled":false,"rental_uris":{"android":"levelo://app?vid=cbd6d55e-5809-4853-9878-dbbf6af6a148","ios":"levelo://app?vid=cbd6d55e-5809-4853-9878-dbbf6af6a148"},"vehicle_type_id":"4","last_reported":1769156260,"current_range_meters":6800,"station_id":"st_d3b462108ojc7389ooeg","pricing_plan_id":"cebpf4jnsgd1na2vs0mg"},{"bike_id":"25ec2541-70e1-43d5-a221-3ed11c0aeb3a","system_id":"levelo_inurba_marseille","lat":43.30378,"lon":5.42496,"is_reserved":false,"is_disabled":false,"rental_uris":{"android":"levelo://app?vid=25ec2541-70e1-43d5-a221-3ed11c0aeb3a","ios":"levelo://app?vid=25ec2541-70e1-43d5-a221-3ed11c0aeb3a"},"vehicle_type_id":"4","last_reported":1769156260,"current_range_meters":6800,"station_id":"ce4bhoh2rcd13ifvqh6g","pricing_plan_id":"cebpf4jnsgd1na2vs0mg"},{"bike_id":"cf557c85-8b34-4929-8f7e-4bc211ee95de","system_id":"levelo_inurba_marseille","lat":43.21746,"lon":5.34625,"is_reserved":false,"is_disabled":false,"rental_uris":{"android":"levelo://app?vid=cf557c85-8b34-4929-8f7e-4bc211ee95de","ios":"levelo://app?vid=cf557c85-8b34-4929-8f7e-4bc211ee95de"},"vehicle_type_id":"4","last_reported":1769156260,"current_range_meters":6800,"station_id":"","pricing_plan_id":"cebpf4jnsgd1na2vs0mg"},{"bike_id":"2403f0bf-de39-4f6c-b1d8-f725bb90dee3","system_id":"levelo_inurba_marseille","lat":43.24166,"lon":5.364,"is_reserved":false,"is_disabled":false,"rental_uris":{"android":"levelo://app?vid=2403f0bf-de39-4f6c-b1d8-f725bb90dee3","ios":"levelo://app?vid=2403f0bf-de39-4f6c-b1d8-f725bb90dee3"},"vehicle_type_id":"4","last_reported":1769156260,"current_range_meters":6800,"station_id":"cpo36qri1sfpv3e86is0","pricing_plan_id":"cebpf4jnsgd1na2vs0mg"},{"bike_id":"ba4dbbff-8d2b-4731-b2d8-2ba2461db1db","system_id":"levelo_inurba_marseille","lat":43.28859,"lon":5.42522,"is_reserved":false,"is_disabled":false,"rental_uris":{"android":"levelo://app?vid=ba4dbbff-8d2b-4731-b2d8-2ba2461db1db","ios":"levelo://app?vid=ba4dbbff-8d2b-4731-b2d8-2ba2461db1db"},"vehicle_type_id":"4","last_reported":1769156260,"current_range_meters":6800,"station_id":"st_d3b462108ojc7389ooeg","pricing_plan_id":"cebpf4jnsgd1na2vs0mg"},{"bike_id":"249a4cf7-06f6-4fea-96cc-c9c6b750c37f","system_id":"levelo_inurba_marseille","lat":43.24168,"lon":5.36405,"is_reserved":false,"is_disabled":false,"rental_uris":{"android":"levelo://app?vid=249a4cf7-06f6-4fea-96cc-c9c6b750c37f","ios":"levelo://app?vid=249a4cf7-06f6-4fea-96cc-c9c6b750c37f"},"vehicle_type_id":"4","last_reported":1769156260,"current_range_meters":6800,"station_id":"cpo36qri1sfpv3e86is0","pricing_plan_id":"cebpf4jnsgd1na2vs0mg"},{"bike_id":"630358af-5dc2-4402-a954-7eec38a4ae20","system_id":"levelo_inurba_marseille","lat":43.30544,"lon":5.36709,"is_reserved":false,"is_disabled":false,"rental_uris":{"android":"levelo://app?vid=630358af-5dc2-4402-a954-7eec38a4ae20","ios":"levelo://app?vid=630358af-5dc2-4402-a954-7eec38a4ae20"},"vehicle_type_id":"4","last_reported":1769156260,"current_range_meters":6800,"station_id":"ce4bgrp2rcd13ifvqc9g","pricing_plan_id":"cebpf4jnsgd1na2vs0mg"},{"bike_id":"29752d41-8a36-401f-9aea-e1c6722d3daa","system_id":"levelo_inurba_marseille","lat":43.2958,"lon":5.3674,"is_reserved":false,"is_disabled":false,"rental_uris":{"android":"levelo://app?vid=29752d41-8a36-401f-9aea-e1c6722d3daa","ios":"levelo://app?vid=29752d41-8a36-401f-9aea-e1c6722d3daa"},"vehicle_type_id":"4","last_reported":1769156260,"current_range_meters":6800,"station_id":"ce4bgph2rcd13ifvqc2g","pricing_plan_id":"cebpf4jnsgd1na2vs0mg"},{"bike_id":"45babb45-93f7-4f3b-b6b9-60f993fef36c","system_id":"levelo_inurba_marseille","lat":43.323546,"lon":5.36742,"is_reserved":false,"is_disabled":false,"rental_uris":{"android":"levelo://app?vid=45babb45-93f7-4f3b-b6b9-60f993fef36c","ios":"levelo://app?vid=45babb45-93f7-4f3b-b6b9-60f993fef36c"},"vehicle_type_id":"4","last_reported":1769156260,"current_range_meters":6800,"station_id":"ce4bhsh2rcd13ifvqi2g","pricing_plan_id":"cebpf4jnsgd1na2vs0mg"},{"bike_id":"8d79e999-534d-46eb-b226-e914c7d703b0","system_id":"levelo_inurba_marseille","lat":43.30477,"lon":5.36686,"is_reserved":false,"is_disabled":false,"rental_uris":{"android":"levelo://app?vid=8d79e999-534d-46eb-b226-e914c7d703b0","ios":"levelo://app?vid=8d79e999-534d-46eb-b226-e914c7d703b0"},"vehicle_type_id":"4","last_reported":1769156260,"current_range_meters":6800,"station_id":"","pricing_plan_id":"cebpf4jnsgd1na2vs0mg"},{"bike_id":"26b75af5-7ae4-4c9e-852d-f4607cbb3b5b","system_id":"levelo_inurba_marseille","lat":43.24543,"lon":5.39524,"is_reserved":false,"is_disabled":false,"rental_uris":{"android":"levelo://app?vid=26b75af5-7ae4-4c9e-852d-f4607cbb3b5b","ios":"levelo://app?vid=26b75af5-7ae4-4c9e-852d-f4607cbb3b5b"},"vehicle_type_id":"4","last_reported":1769156260,"current_range_meters":6800,"station_id":"ce4bhlp2rcd13ifvqgjg","pricing_plan_id":"cebpf4jnsgd1na2vs0mg"},{"bike_id":"a11cffd0-9b57-4915-917d-0c6c7495713d","system_id":"levelo_inurba_marseille","lat":43.2668,"lon":5.38272,"is_reserved":false,"is_disabled":false,"rental_uris":{"android":"levelo://app?vid=a11cffd0-9b57-4915-917d-0c6c7495713d","ios":"levelo://app?vid=a11cffd0-9b57-4915-917d-0c6c7495713d"},"vehicle_type_id":"4","last_reported":1769156260,"current_range_meters":6800,"station_id":"ce4bhg92rcd13ifvqf90","pricing_plan_id":"cebpf4jnsgd1na2vs0mg"},{"bike_id":"cb3181ce-147e-45f1-8c01-4c9dcd47c377","system_id":"levelo_inurba_marseille","lat":43.26544,"lon":5.37307,"is_reserved":false,"is_disabled":false,"rental_uris":{"android":"levelo://app?vid=cb3181ce-147e-45f1-8c01-4c9dcd47c377","ios":"levelo://app?vid=cb3181ce-147e-45f1-8c01-4c9dcd47c377"},"vehicle_type_id":"4","last_reported":1769156260,"current_range_meters":6800,"station_id":"ce4bhg12rcd13ifvqf70","pricing_plan_id":"cebpf4jnsgd1na2vs0mg"},{"bike_id":"8cadc070-63ab-45ed-bbb6-c0e7ed1a678c","system_id":"levelo_inurba_marseille","lat":43.33619,"lon":5.41017,"is_reserved":false,"is_disabled":false,"rental_uris":{"android":"levelo://app?vid=8cadc070-63ab-45ed-bbb6-c0e7ed1a678c","ios":"levelo://app?vid=8cadc070-63ab-45ed-bbb6-c0e7ed1a678c"},"vehicle_type_id":"4","last_reported":1769156260,"current_range_meters":6800,"station_id":"ce4bhqh2rcd13ifvqhmg","pricing_plan_id":"cebpf4jnsgd1na2vs0mg"},{"bike_id":"f78947df-deca-4141-ad9c-b28b8e18cc28","system_id":"levelo_inurba_marseille","lat":43.29507,"lon":5.37413,"is_reserved":false,"is_disabled":false,"rental_uris":{"android":"levelo://app?vid=f78947df-deca-4141-ad9c-b28b8e18cc28","ios":"levelo://app?vid=f78947df-deca-4141-ad9c-b28b8e18cc28"},"vehicle_type_id":"4","last_reported":1769156260,"current_range_meters":7200,"station_id":"","pricing_plan_id":"cebpf4jnsgd1na2vs0mg"},{"bike_id":"dcaca286-10d8-44fb-a8e8-d4128ccf9b29","system_id":"levelo_inurba_marseille","lat":43.23197,"lon":5.39996,"is_reserved":false,"is_disabled":false,"rental_uris":{"android":"levelo://app?vid=dcaca286-10d8-44fb-a8e8-d4128ccf9b29","ios":"levelo://app?vid=dcaca286-10d8-44fb-a8e8-d4128ccf9b29"},"vehicle_type_id":"4","last_reported":1769156260,"current_range_meters":7200,"station_id":"ce4bhn12rcd13ifvqgqg","pricing_plan_id":"cebpf4jnsgd1na2vs0mg"},{"bike_id":"137c1aa3-375d-434c-b8ea-265f86139225","system_id":"levelo_inurba_marseille","lat":43.31342,"lon":5.36729,"is_reserved":false,"is_disabled":false,"rental_uris":{"android":"levelo://app?vid=137c1aa3-375d-434c-b8ea-265f86139225","ios":"levelo://app?vid=137c1aa3-375d-434c-b8ea-265f86139225"},"vehicle_type_id":"4","last_reported":1769156260,"current_range_meters":7200,"station_id":"ce4bgr92rcd13ifvqc6g","pricing_plan_id":"cebpf4jnsgd1na2vs0mg"},{"bike_id":"9ebcb6f2-2b34-450a-b0e9-a722077e035b","system_id":"levelo_inurba_marseille","lat":43.24652,"lon":5.43169,"is_reserved":false,"is_disabled":false,"rental_uris":{"android":"levelo://app?vid=9ebcb6f2-2b34-450a-b0e9-a722077e035b","ios":"levelo://app?vid=9ebcb6f2-2b34-450a-b0e9-a722077e035b"},"vehicle_type_id":"4","last_reported":1769156260,"current_range_meters":7200,"station_id":"st_d2m6c4gdas8pm72e190g","pricing_plan_id":"cebpf4jnsgd1na2vs0mg"},{"bike_id":"f2413f15-e0b6-4f03-bb3a-1e94b23daeef","system_id":"levelo_inurba_marseille","lat":43.24688,"lon":5.38083,"is_reserved":false,"is_disabled":false,"rental_uris":{"android":"levelo://app?vid=f2413f15-e0b6-4f03-bb3a-1e94b23daeef","ios":"levelo://app?vid=f2413f15-e0b6-4f03-bb3a-1e94b23daeef"},"vehicle_type_id":"4","last_reported":1769156260,"current_range_meters":7200,"station_id":"","pricing_plan_id":"cebpf4jnsgd1na2vs0mg"},{"bike_id":"8201b82f-83b0-49f2-99bb-f454c070ebda","system_id":"levelo_inurba_marseille","lat":43.22551,"lon":5.4164,"is_reserved":false,"is_disabled":false,"rental_uris":{"android":"levelo://app?vid=8201b82f-83b0-49f2-99bb-f454c070ebda","ios":"levelo://app?vid=8201b82f-83b0-49f2-99bb-f454c070ebda"},"vehicle_type_id":"4","last_reported":1769156260,"current_range_meters":7200,"station_id":"st_d2o4gvlbi1j2169b742g","pricing_plan_id":"cebpf4jnsgd1na2vs0mg"},{"bike_id":"485f9176-e3d7-4a06-a887-1d75232b68b0","system_id":"levelo_inurba_marseille","lat":43.2669,"lon":5.38277,"is_reserved":false,"is_disabled":false,"rental_uris":{"android":"levelo://app?vid=485f9176-e3d7-4a06-a887-1d75232b68b0","ios":"levelo://app?vid=485f9176-e3d7-4a06-a887-1d75232b68b0"},"vehicle_type_id":"4","last_reported":1769156260,"current_range_meters":7200,"station_id":"ce4bhg92rcd13ifvqf90","pricing_plan_id":"cebpf4jnsgd1na2vs0mg"},{"bike_id":"922e2fad-db38-48a4-a10f-750535b6f427","system_id":"levelo_inurba_marseille","lat":43.30886,"lon":5.36885,"is_reserved":false,"is_disabled":false,"rental_uris":{"android":"levelo://app?vid=922e2fad-db38-48a4-a10f-750535b6f427","ios":"levelo://app?vid=922e2fad-db38-48a4-a10f-750535b6f427"},"vehicle_type_id":"4","last_reported":1769156260,"current_range_meters":7200,"station_id":"ce4bgn92rcd13ifvqbvg","pricing_plan_id":"cebpf4jnsgd1na2vs0mg"},{"bike_id":"945b75a6-cb60-4db3-b411-8a275b15016e","system_id":"levelo_inurba_marseille","lat":43.24999,"lon":5.38933,"is_reserved":false,"is_disabled":false,"rental_uris":{"android":"levelo://app?vid=945b75a6-cb60-4db3-b411-8a275b15016e","ios":"levelo://app?vid=945b75a6-cb60-4db3-b411-8a275b15016e"},"vehicle_type_id":"4","last_reported":1769156260,"current_range_meters":7200,"station_id":"ce4bhgp2rcd13ifvqfd0","pricing_plan_id":"cebpf4jnsgd1na2vs0mg"},{"bike_id":"e06e3f65-305e-48b5-958e-74768ec937a6","system_id":"levelo_inurba_marseille","lat":43.30021,"lon":5.40952,"is_reserved":false,"is_disabled":false,"rental_uris":{"android":"levelo://app?vid=e06e3f65-305e-48b5-958e-74768ec937a6","ios":"levelo://app?vid=e06e3f65-305e-48b5-958e-74768ec937a6"},"vehicle_type_id":"4","last_reported":1769156260,"current_range_meters":7200,"station_id":"","pricing_plan_id":"cebpf4jnsgd1na2vs0mg"},{"bike_id":"4fbb3b4e-0110-4a4d-b671-1377ab5046f0","system_id":"levelo_inurba_marseille","lat":43.30589,"lon":5.37215,"is_reserved":false,"is_disabled":false,"rental_uris":{"android":"levelo://app?vid=4fbb3b4e-0110-4a4d-b671-1377ab5046f0","ios":"levelo://app?vid=4fbb3b4e-0110-4a4d-b671-1377ab5046f0"},"vehicle_type_id":"4","last_reported":1769156260,"current_range_meters":7200,"station_id":"ce4bgqh2rcd13ifvqc4g","pricing_plan_id":"cebpf4jnsgd1na2vs0mg"},{"bike_id":"ab1ce965-255f-45f9-ad31-e191b42eae3a","system_id":"levelo_inurba_marseille","lat":43.23146,"lon":5.43725,"is_reserved":false,"is_disabled":false,"rental_uris":{"android":"levelo://app?vid=ab1ce965-255f-45f9-ad31-e191b42eae3a","ios":"levelo://app?vid=ab1ce965-255f-45f9-ad31-e191b42eae3a"},"vehicle_type_id":"4","last_reported":1769156260,"current_range_meters":7200,"station_id":"ce4bhmp2rcd13ifvqgog","pricing_plan_id":"cebpf4jnsgd1na2vs0mg"},{"bike_id":"92295e8e-aa68-4e38-8fb7-fb93e0d44651","system_id":"levelo_inurba_marseille","lat":43.23198,"lon":5.35556,"is_reserved":false,"is_disabled":false,"rental_uris":{"android":"levelo://app?vid=92295e8e-aa68-4e38-8fb7-fb93e0d44651","ios":"levelo://app?vid=92295e8e-aa68-4e38-8fb7-fb93e0d44651"},"vehicle_type_id":"4","last_reported":1769156260,"current_range_meters":7200,"station_id":"ce4bhu92rcd13ifvqi70","pricing_plan_id":"cebpf4jnsgd1na2vs0mg"},{"bike_id":"3c14818c-a24d-48f3-b7db-1652ad81b188","system_id":"levelo_inurba_marseille","lat":43.25927,"lon":5.40904,"is_reserved":false,"is_disabled":false,"rental_uris":{"android":"levelo://app?vid=3c14818c-a24d-48f3-b7db-1652ad81b188","ios":"levelo://app?vid=3c14818c-a24d-48f3-b7db-1652ad81b188"},"vehicle_type_id":"4","last_reported":1769156260,"current_range_meters":7200,"station_id":"ce4bhm92rcd13ifvqglg","pricing_plan_id":"cebpf4jnsgd1na2vs0mg"},{"bike_id":"9f9c4f85-7d9e-4e8a-9123-cbd1f8de03db","system_id":"levelo_inurba_marseille","lat":43.31848,"lon":5.38984,"is_reserved":false,"is_disabled":false,"rental_uris":{"android":"levelo://app?vid=9f9c4f85-7d9e-4e8a-9123-cbd1f8de03db","ios":"levelo://app?vid=9f9c4f85-7d9e-4e8a-9123-cbd1f8de03db"},"vehicle_type_id":"4","last_reported":1769156260,"current_range_meters":7200,"station_id":"","pricing_plan_id":"cebpf4jnsgd1na2vs0mg"},{"bike_id":"e11c4209-519a-4fff-963f-7173909dd32a","system_id":"levelo_inurba_marseille","lat":43.31114,"lon":5.37771,"is_reserved":false,"is_disabled":false,"rental_uris":{"android":"levelo://app?vid=e11c4209-519a-4fff-963f-7173909dd32a","ios":"levelo://app?vid=e11c4209-519a-4fff-963f-7173909dd32a"},"vehicle_type_id":"4","last_reported":1769156260,"current_range_meters":7200,"station_id":"ce4bgt92rcd13ifvqcg0","pricing_plan_id":"cebpf4jnsgd1na2vs0mg"},{"bike_id":"59ba4534-2aee-44e4-9228-bcbe63725245","system_id":"levelo_inurba_marseille","lat":43.27337,"lon":5.39078,"is_reserved":false,"is_disabled":false,"rental_uris":{"android":"levelo://app?vid=59ba4534-2aee-44e4-9228-bcbe63725245","ios":"levelo://app?vid=59ba4534-2aee-44e4-9228-bcbe63725245"},"vehicle_type_id":"4","last_reported":1769156260,"current_range_meters":8000,"station_id":"ce4bhgp2rcd13ifvqfe0","pricing_plan_id":"cebpf4jnsgd1na2vs0mg"},{"bike_id":"846ea626-4510-4c43-83f3-7922009bf408","system_id":"levelo_inurba_marseille","lat":43.30537,"lon":5.36552,"is_reserved":false,"is_disabled":false,"rental_uris":{"android":"levelo://app?vid=846ea626-4510-4c43-83f3-7922009bf408","ios":"levelo://app?vid=846ea626-4510-4c43-83f3-7922009bf408"},"vehicle_type_id":"4","last_reported":1769156260,"current_range_meters":8000,"station_id":"ce4bgs12rcd13ifvqcag","pricing_plan_id":"cebpf4jnsgd1na2vs0mg"},{"bike_id":"26bd6ab6-4b40-4c45-b7dc-920d50072930","system_id":"levelo_inurba_marseille","lat":43.2845,"lon":5.39168,"is_reserved":false,"is_disabled":false,"rental_uris":{"android":"levelo://app?vid=26bd6ab6-4b40-4c45-b7dc-920d50072930","ios":"levelo://app?vid=26bd6ab6-4b40-4c45-b7dc-920d50072930"},"vehicle_type_id":"4","last_reported":1769156260,"current_range_meters":8000,"station_id":"ce4bhoh2rcd13ifvqh5g","pricing_plan_id":"cebpf4jnsgd1na2vs0mg"},{"bike_id":"5ed4e9d2-631e-4b69-8907-913cd14f0cf9","system_id":"levelo_inurba_marseille","lat":43.25835,"lon":5.39401,"is_reserved":false,"is_disabled":false,"rental_uris":{"android":"levelo://app?vid=5ed4e9d2-631e-4b69-8907-913cd14f0cf9","ios":"levelo://app?vid=5ed4e9d2-631e-4b69-8907-913cd14f0cf9"},"vehicle_type_id":"4","last_reported":1769156260,"current_range_meters":8000,"station_id":"ce4bhip2rcd13ifvqft0","pricing_plan_id":"cebpf4jnsgd1na2vs0mg"},{"bike_id":"16bac1b9-8c78-40e2-a2a0-840ef0df37e4","system_id":"levelo_inurba_marseille","lat":43.29273,"lon":5.36851,"is_reserved":false,"is_disabled":false,"rental_uris":{"android":"levelo://app?vid=16bac1b9-8c78-40e2-a2a0-840ef0df37e4","ios":"levelo://app?vid=16bac1b9-8c78-40e2-a2a0-840ef0df37e4"},"vehicle_type_id":"4","last_reported":1769156260,"current_range_meters":8000,"station_id":"ce4bhbp2rcd13ifvqesg","pricing_plan_id":"cebpf4jnsgd1na2vs0mg"},{"bike_id":"b4e1dc39-1df8-4b45-a41c-e4a58db442b2","system_id":"levelo_inurba_marseille","lat":43.25332,"lon":5.42173,"is_reserved":false,"is_disabled":false,"rental_uris":{"android":"levelo://app?vid=b4e1dc39-1df8-4b45-a41c-e4a58db442b2","ios":"levelo://app?vid=b4e1dc39-1df8-4b45-a41c-e4a58db442b2"},"vehicle_type_id":"4","last_reported":1769156260,"current_range_meters":8000,"station_id":"st_d2m65c5bi1j21697t3ng","pricing_plan_id":"cebpf4jnsgd1na2vs0mg"},{"bike_id":"afef68b9-a1aa-432f-85df-72477bc0d7a4","system_id":"levelo_inurba_marseille","lat":43.29605,"lon":5.38099,"is_reserved":false,"is_disabled":false,"rental_uris":{"android":"levelo://app?vid=afef68b9-a1aa-432f-85df-72477bc0d7a4","ios":"levelo://app?vid=afef68b9-a1aa-432f-85df-72477bc0d7a4"},"vehicle_type_id":"4","last_reported":1769156260,"current_range_meters":8000,"station_id":"ce4bgl12rcd13ifvqbo0","pricing_plan_id":"cebpf4jnsgd1na2vs0mg"},{"bike_id":"d2dd2bd5-35c6-4cf8-86dc-87c4bf274249","system_id":"levelo_inurba_marseille","lat":43.24641,"lon":5.38876,"is_reserved":false,"is_disabled":false,"rental_uris":{"android":"levelo://app?vid=d2dd2bd5-35c6-4cf8-86dc-87c4bf274249","ios":"levelo://app?vid=d2dd2bd5-35c6-4cf8-86dc-87c4bf274249"},"vehicle_type_id":"4","last_reported":1769156260,"current_range_meters":8000,"station_id":"ce4bhg12rcd13ifvqf60","pricing_plan_id":"cebpf4jnsgd1na2vs0mg"},{"bike_id":"57555a2a-e3c5-41fc-ac08-fe5bed59335c","system_id":"levelo_inurba_marseille","lat":43.32547,"lon":5.41457,"is_reserved":false,"is_disabled":false,"rental_uris":{"android":"levelo://app?vid=57555a2a-e3c5-41fc-ac08-fe5bed59335c","ios":"levelo://app?vid=57555a2a-e3c5-41fc-ac08-fe5bed59335c"},"vehicle_type_id":"4","last_reported":1769156260,"current_range_meters":8000,"station_id":"ce4bhq12rcd13ifvqhhg","pricing_plan_id":"cebpf4jnsgd1na2vs0mg"},{"bike_id":"da005ffc-f532-4b5a-a329-d2fbdebb6e7d","system_id":"levelo_inurba_marseille","lat":43.31698,"lon":5.40466,"is_reserved":false,"is_disabled":false,"rental_uris":{"android":"levelo://app?vid=da005ffc-f532-4b5a-a329-d2fbdebb6e7d","ios":"levelo://app?vid=da005ffc-f532-4b5a-a329-d2fbdebb6e7d"},"vehicle_type_id":"4","last_reported":1769156260,"current_range_meters":8000,"station_id":"ce4bh012rcd13ifvqd00","pricing_plan_id":"cebpf4jnsgd1na2vs0mg"},{"bike_id":"1ff74440-841e-45a3-baf5-283c5a4a84e4","system_id":"levelo_inurba_marseille","lat":43.304694,"lon":5.379043,"is_reserved":false,"is_disabled":false,"rental_uris":{"android":"levelo://app?vid=1ff74440-841e-45a3-baf5-283c5a4a84e4","ios":"levelo://app?vid=1ff74440-841e-45a3-baf5-283c5a4a84e4"},"vehicle_type_id":"4","last_reported":1769156260,"current_range_meters":8000,"station_id":"ce4bgup2rcd13ifvqcn0","pricing_plan_id":"cebpf4jnsgd1na2vs0mg"},{"bike_id":"b773bbbb-d72b-4b38-92a3-28fca628ed6c","system_id":"levelo_inurba_marseille","lat":43.2293,"lon":5.3538,"is_reserved":false,"is_disabled":false,"rental_uris":{"android":"levelo://app?vid=b773bbbb-d72b-4b38-92a3-28fca628ed6c","ios":"levelo://app?vid=b773bbbb-d72b-4b38-92a3-28fca628ed6c"},"vehicle_type_id":"4","last_reported":1769156260,"current_range_meters":8000,"station_id":"cpo3532slgdg3j2ikp40","pricing_plan_id":"cebpf4jnsgd1na2vs0mg"},{"bike_id":"b57df7ad-97cd-44b3-a204-ea83c250292c","system_id":"levelo_inurba_marseille","lat":43.23218,"lon":5.35554,"is_reserved":false,"is_disabled":false,"rental_uris":{"android":"levelo://app?vid=b57df7ad-97cd-44b3-a204-ea83c250292c","ios":"levelo://app?vid=b57df7ad-97cd-44b3-a204-ea83c250292c"},"vehicle_type_id":"4","last_reported":1769156260,"current_range_meters":8000,"station_id":"ce4bhu92rcd13ifvqi70","pricing_plan_id":"cebpf4jnsgd1na2vs0mg"},{"bike_id":"a60e4eb8-f618-453d-8d76-5cbc2f48ee1b","system_id":"levelo_inurba_marseille","lat":43.321114,"lon":5.36765,"is_reserved":false,"is_disabled":false,"rental_uris":{"android":"levelo://app?vid=a60e4eb8-f618-453d-8d76-5cbc2f48ee1b","ios":"levelo://app?vid=a60e4eb8-f618-453d-8d76-5cbc2f48ee1b"},"vehicle_type_id":"4","last_reported":1769156260,"current_range_meters":8000,"station_id":"ce4bhrh2rcd13ifvqhug","pricing_plan_id":"cebpf4jnsgd1na2vs0mg"},{"bike_id":"5560fc7f-1e40-4887-b56f-d8792953a489","system_id":"levelo_inurba_marseille","lat":43.24154,"lon":5.364,"is_reserved":false,"is_disabled":false,"rental_uris":{"android":"levelo://app?vid=5560fc7f-1e40-4887-b56f-d8792953a489","ios":"levelo://app?vid=5560fc7f-1e40-4887-b56f-d8792953a489"},"vehicle_type_id":"4","last_reported":1769156260,"current_range_meters":8000,"station_id":"cpo36qri1sfpv3e86is0","pricing_plan_id":"cebpf4jnsgd1na2vs0mg"},{"bike_id":"9433510a-d90c-4027-bba6-5c34057d0db2","system_id":"levelo_inurba_marseille","lat":43.29277,"lon":5.40115,"is_reserved":false,"is_disabled":false,"rental_uris":{"android":"levelo://app?vid=9433510a-d90c-4027-bba6-5c34057d0db2","ios":"levelo://app?vid=9433510a-d90c-4027-bba6-5c34057d0db2"},"vehicle_type_id":"4","last_reported":1769156260,"current_range_meters":8000,"station_id":"ce4bh312rcd13ifvqdk0","pricing_plan_id":"cebpf4jnsgd1na2vs0mg"},{"bike_id":"d3746757-64c0-4deb-8ffa-a59c72b048ff","system_id":"levelo_inurba_marseille","lat":43.29708,"lon":5.37312,"is_reserved":false,"is_disabled":false,"rental_uris":{"android":"levelo://app?vid=d3746757-64c0-4deb-8ffa-a59c72b048ff","ios":"levelo://app?vid=d3746757-64c0-4deb-8ffa-a59c72b048ff"},"vehicle_type_id":"4","last_reported":1769156260,"current_range_meters":8000,"station_id":"ce4bgk12rcd13ifvqbj0","pricing_plan_id":"cebpf4jnsgd1na2vs0mg"},{"bike_id":"16590669-22b9-475f-acf3-c7e2ee0e80fd","system_id":"levelo_inurba_marseille","lat":43.25003,"lon":5.3892,"is_reserved":false,"is_disabled":false,"rental_uris":{"android":"levelo://app?vid=16590669-22b9-475f-acf3-c7e2ee0e80fd","ios":"levelo://app?vid=16590669-22b9-475f-acf3-c7e2ee0e80fd"},"vehicle_type_id":"4","last_reported":1769156260,"current_range_meters":8000,"station_id":"ce4bhgp2rcd13ifvqfd0","pricing_plan_id":"cebpf4jnsgd1na2vs0mg"},{"bike_id":"884f0875-38ce-48cc-9261-deeb0db0e66a","system_id":"levelo_inurba_marseille","lat":43.30883,"lon":5.37285,"is_reserved":false,"is_disabled":false,"rental_uris":{"android":"levelo://app?vid=884f0875-38ce-48cc-9261-deeb0db0e66a","ios":"levelo://app?vid=884f0875-38ce-48cc-9261-deeb0db0e66a"},"vehicle_type_id":"4","last_reported":1769156260,"current_range_meters":8000,"station_id":"","pricing_plan_id":"cebpf4jnsgd1na2vs0mg"},{"bike_id":"6df37e57-f5e3-4731-b034-1bf4768e79e5","system_id":"levelo_inurba_marseille","lat":43.27806,"lon":5.40724,"is_reserved":false,"is_disabled":false,"rental_uris":{"android":"levelo://app?vid=6df37e57-f5e3-4731-b034-1bf4768e79e5","ios":"levelo://app?vid=6df37e57-f5e3-4731-b034-1bf4768e79e5"},"vehicle_type_id":"4","last_reported":1769156260,"current_range_meters":8000,"station_id":"ce4bhnh2rcd13ifvqgtg","pricing_plan_id":"cebpf4jnsgd1na2vs0mg"},{"bike_id":"0c7156b0-cfa0-41c2-b19a-7f593565a278","system_id":"levelo_inurba_marseille","lat":43.30542,"lon":5.36552,"is_reserved":false,"is_disabled":false,"rental_uris":{"android":"levelo://app?vid=0c7156b0-cfa0-41c2-b19a-7f593565a278","ios":"levelo://app?vid=0c7156b0-cfa0-41c2-b19a-7f593565a278"},"vehicle_type_id":"4","last_reported":1769156260,"current_range_meters":8400,"station_id":"ce4bgs12rcd13ifvqcag","pricing_plan_id":"cebpf4jnsgd1na2vs0mg"},{"bike_id":"dc82bfc6-2b44-4bff-8892-9b8eb7e91578","system_id":"levelo_inurba_marseille","lat":43.23964,"lon":5.36629,"is_reserved":false,"is_disabled":false,"rental_uris":{"android":"levelo://app?vid=dc82bfc6-2b44-4bff-8892-9b8eb7e91578","ios":"levelo://app?vid=dc82bfc6-2b44-4bff-8892-9b8eb7e91578"},"vehicle_type_id":"4","last_reported":1769156260,"current_range_meters":8400,"station_id":"ce4bhi12rcd13ifvqfp0","pricing_plan_id":"cebpf4jnsgd1na2vs0mg"},{"bike_id":"7a979796-e9e0-46a0-8894-e0515e90f174","system_id":"levelo_inurba_marseille","lat":43.27994,"lon":5.40012,"is_reserved":false,"is_disabled":true,"rental_uris":{"android":"levelo://app?vid=7a979796-e9e0-46a0-8894-e0515e90f174","ios":"levelo://app?vid=7a979796-e9e0-46a0-8894-e0515e90f174"},"vehicle_type_id":"4","last_reported":1769156260,"current_range_meters":8400,"station_id":"ce4bho92rcd13ifvqh4g","pricing_plan_id":"cebpf4jnsgd1na2vs0mg"},{"bike_id":"7e40f92b-af7d-4c04-a6b2-c7fb67c9c6fb","system_id":"levelo_inurba_marseille","lat":43.2749,"lon":5.42457,"is_reserved":false,"is_disabled":false,"rental_uris":{"android":"levelo://app?vid=7e40f92b-af7d-4c04-a6b2-c7fb67c9c6fb","ios":"levelo://app?vid=7e40f92b-af7d-4c04-a6b2-c7fb67c9c6fb"},"vehicle_type_id":"4","last_reported":1769156260,"current_range_meters":8400,"station_id":"ce4bhn92rcd13ifvqgrg","pricing_plan_id":"cebpf4jnsgd1na2vs0mg"},{"bike_id":"93fb5b00-9b1f-41b9-bb08-f34f4e0bcc5d","system_id":"levelo_inurba_marseille","lat":43.29589,"lon":5.38067,"is_reserved":false,"is_disabled":false,"rental_uris":{"android":"levelo://app?vid=93fb5b00-9b1f-41b9-bb08-f34f4e0bcc5d","ios":"levelo://app?vid=93fb5b00-9b1f-41b9-bb08-f34f4e0bcc5d"},"vehicle_type_id":"4","last_reported":1769156260,"current_range_meters":8400,"station_id":"ce4bgl12rcd13ifvqbo0","pricing_plan_id":"cebpf4jnsgd1na2vs0mg"},{"bike_id":"9b45898e-68f4-47fa-9e2a-d93357bd073d","system_id":"levelo_inurba_marseille","lat":43.24812,"lon":5.37465,"is_reserved":false,"is_disabled":false,"rental_uris":{"android":"levelo://app?vid=9b45898e-68f4-47fa-9e2a-d93357bd073d","ios":"levelo://app?vid=9b45898e-68f4-47fa-9e2a-d93357bd073d"},"vehicle_type_id":"4","last_reported":1769156260,"current_range_meters":8400,"station_id":"ce4bhgh2rcd13ifvqfb0","pricing_plan_id":"cebpf4jnsgd1na2vs0mg"},{"bike_id":"5686f102-6cf5-4a18-9b33-fbef2e2cef12","system_id":"levelo_inurba_marseille","lat":43.23212,"lon":5.35555,"is_reserved":false,"is_disabled":false,"rental_uris":{"android":"levelo://app?vid=5686f102-6cf5-4a18-9b33-fbef2e2cef12","ios":"levelo://app?vid=5686f102-6cf5-4a18-9b33-fbef2e2cef12"},"vehicle_type_id":"4","last_reported":1769156260,"current_range_meters":8400,"station_id":"ce4bhu92rcd13ifvqi70","pricing_plan_id":"cebpf4jnsgd1na2vs0mg"},{"bike_id":"560aa01e-d195-4e4b-bc5d-0a4f2afd1f35","system_id":"levelo_inurba_marseille","lat":43.29769,"lon":5.3711,"is_reserved":false,"is_disabled":false,"rental_uris":{"android":"levelo://app?vid=560aa01e-d195-4e4b-bc5d-0a4f2afd1f35","ios":"levelo://app?vid=560aa01e-d195-4e4b-bc5d-0a4f2afd1f35"},"vehicle_type_id":"4","last_reported":1769156260,"current_range_meters":8400,"station_id":"ce4bgop2rcd13ifvqc1g","pricing_plan_id":"cebpf4jnsgd1na2vs0mg"},{"bike_id":"1e7abe68-0b2d-4caa-981c-28f05900369d","system_id":"levelo_inurba_marseille","lat":43.23152,"lon":5.43729,"is_reserved":false,"is_disabled":false,"rental_uris":{"android":"levelo://app?vid=1e7abe68-0b2d-4caa-981c-28f05900369d","ios":"levelo://app?vid=1e7abe68-0b2d-4caa-981c-28f05900369d"},"vehicle_type_id":"4","last_reported":1769156260,"current_range_meters":8400,"station_id":"ce4bhmp2rcd13ifvqgog","pricing_plan_id":"cebpf4jnsgd1na2vs0mg"},{"bike_id":"bc61b31d-a59b-43b4-9147-44220082005b","system_id":"levelo_inurba_marseille","lat":43.30537,"lon":5.36698,"is_reserved":false,"is_disabled":false,"rental_uris":{"android":"levelo://app?vid=bc61b31d-a59b-43b4-9147-44220082005b","ios":"levelo://app?vid=bc61b31d-a59b-43b4-9147-44220082005b"},"vehicle_type_id":"4","last_reported":1769156260,"current_range_meters":8400,"station_id":"ce4bgrp2rcd13ifvqc9g","pricing_plan_id":"cebpf4jnsgd1na2vs0mg"},{"bike_id":"18577246-7af0-447d-b8c3-89dfaeee0dbc","system_id":"levelo_inurba_marseille","lat":43.2721,"lon":5.39195,"is_reserved":false,"is_disabled":false,"rental_uris":{"android":"levelo://app?vid=18577246-7af0-447d-b8c3-89dfaeee0dbc","ios":"levelo://app?vid=18577246-7af0-447d-b8c3-89dfaeee0dbc"},"vehicle_type_id":"4","last_reported":1769156260,"current_range_meters":8400,"station_id":"ce4bhhp2rcd13ifvqfm0","pricing_plan_id":"cebpf4jnsgd1na2vs0mg"},{"bike_id":"efa0fdb3-90e7-4636-a023-d6cc0469f54b","system_id":"levelo_inurba_marseille","lat":43.2409,"lon":5.37802,"is_reserved":false,"is_disabled":true,"rental_uris":{"android":"levelo://app?vid=efa0fdb3-90e7-4636-a023-d6cc0469f54b","ios":"levelo://app?vid=efa0fdb3-90e7-4636-a023-d6cc0469f54b"},"vehicle_type_id":"4","last_reported":1769156260,"current_range_meters":8400,"station_id":"ce4bhnp2rcd13ifvqgvg","pricing_plan_id":"cebpf4jnsgd1na2vs0mg"},{"bike_id":"83cfc6fc-818a-4d29-b877-3fdba22e0a51","system_id":"levelo_inurba_marseille","lat":43.305288,"lon":5.367214,"is_reserved":false,"is_disabled":false,"rental_uris":{"android":"levelo://app?vid=83cfc6fc-818a-4d29-b877-3fdba22e0a51","ios":"levelo://app?vid=83cfc6fc-818a-4d29-b877-3fdba22e0a51"},"vehicle_type_id":"4","last_reported":1769156260,"current_range_meters":8400,"station_id":"","pricing_plan_id":"cebpf4jnsgd1na2vs0mg"},{"bike_id":"d8368424-7a2e-4ab4-b75d-24eb5c1743cf","system_id":"levelo_inurba_marseille","lat":43.305287,"lon":5.36711,"is_reserved":false,"is_disabled":false,"rental_uris":{"android":"levelo://app?vid=d8368424-7a2e-4ab4-b75d-24eb5c1743cf","ios":"levelo://app?vid=d8368424-7a2e-4ab4-b75d-24eb5c1743cf"},"vehicle_type_id":"4","last_reported":1769156260,"current_range_meters":8400,"station_id":"ce4bgrp2rcd13ifvqc9g","pricing_plan_id":"cebpf4jnsgd1na2vs0mg"},{"bike_id":"cc3c0fa4-318c-42a8-b516-2cb6a62d73ef","system_id":"levelo_inurba_marseille","lat":43.24995,"lon":5.38938,"is_reserved":false,"is_disabled":false,"rental_uris":{"android":"levelo://app?vid=cc3c0fa4-318c-42a8-b516-2cb6a62d73ef","ios":"levelo://app?vid=cc3c0fa4-318c-42a8-b516-2cb6a62d73ef"},"vehicle_type_id":"4","last_reported":1769156260,"current_range_meters":8400,"station_id":"ce4bhgp2rcd13ifvqfd0","pricing_plan_id":"cebpf4jnsgd1na2vs0mg"},{"bike_id":"da85d8cc-4ec4-4e63-94c2-beb7bedb5c3f","system_id":"levelo_inurba_marseille","lat":43.2903,"lon":5.39963,"is_reserved":false,"is_disabled":false,"rental_uris":{"android":"levelo://app?vid=da85d8cc-4ec4-4e63-94c2-beb7bedb5c3f","ios":"levelo://app?vid=da85d8cc-4ec4-4e63-94c2-beb7bedb5c3f"},"vehicle_type_id":"4","last_reported":1769156260,"current_range_meters":8400,"station_id":"ce4bh392rcd13ifvqdm0","pricing_plan_id":"cebpf4jnsgd1na2vs0mg"},{"bike_id":"d5979a98-94ba-4609-af07-e02fe23bf3bc","system_id":"levelo_inurba_marseille","lat":43.22562,"lon":5.41637,"is_reserved":false,"is_disabled":true,"rental_uris":{"android":"levelo://app?vid=d5979a98-94ba-4609-af07-e02fe23bf3bc","ios":"levelo://app?vid=d5979a98-94ba-4609-af07-e02fe23bf3bc"},"vehicle_type_id":"4","last_reported":1769156260,"current_range_meters":8400,"station_id":"st_d2o4gvlbi1j2169b742g","pricing_plan_id":"cebpf4jnsgd1na2vs0mg"},{"bike_id":"bad75388-e421-4a71-a9aa-cd2865663d67","system_id":"levelo_inurba_marseille","lat":43.32113,"lon":5.36798,"is_reserved":false,"is_disabled":false,"rental_uris":{"android":"levelo://app?vid=bad75388-e421-4a71-a9aa-cd2865663d67","ios":"levelo://app?vid=bad75388-e421-4a71-a9aa-cd2865663d67"},"vehicle_type_id":"4","last_reported":1769156260,"current_range_meters":8400,"station_id":"ce4bhrh2rcd13ifvqhug","pricing_plan_id":"cebpf4jnsgd1na2vs0mg"},{"bike_id":"637875b4-6618-4d37-a2a2-46c81fd176ca","system_id":"levelo_inurba_marseille","lat":43.25727,"lon":5.41127,"is_reserved":false,"is_disabled":false,"rental_uris":{"android":"levelo://app?vid=637875b4-6618-4d37-a2a2-46c81fd176ca","ios":"levelo://app?vid=637875b4-6618-4d37-a2a2-46c81fd176ca"},"vehicle_type_id":"4","last_reported":1769156260,"current_range_meters":8400,"station_id":"ce4bhkp2rcd13ifvqgd0","pricing_plan_id":"cebpf4jnsgd1na2vs0mg"},{"bike_id":"10d81607-b2c6-4f43-9034-1dd057977b39","system_id":"levelo_inurba_marseille","lat":43.242216,"lon":5.396641,"is_reserved":false,"is_disabled":false,"rental_uris":{"android":"levelo://app?vid=10d81607-b2c6-4f43-9034-1dd057977b39","ios":"levelo://app?vid=10d81607-b2c6-4f43-9034-1dd057977b39"},"vehicle_type_id":"4","last_reported":1769156260,"current_range_meters":8400,"station_id":"","pricing_plan_id":"cebpf4jnsgd1na2vs0mg"},{"bike_id":"1bc560b7-d613-42f1-a4be-c650caba11cc","system_id":"levelo_inurba_marseille","lat":43.30928,"lon":5.4014,"is_reserved":false,"is_disabled":false,"rental_uris":{"android":"levelo://app?vid=1bc560b7-d613-42f1-a4be-c650caba11cc","ios":"levelo://app?vid=1bc560b7-d613-42f1-a4be-c650caba11cc"},"vehicle_type_id":"4","last_reported":1769156260,"current_range_meters":8400,"station_id":"ce4bgvp2rcd13ifvqct0","pricing_plan_id":"cebpf4jnsgd1na2vs0mg"},{"bike_id":"731e3c39-4cfc-47aa-926e-d6f514d68010","system_id":"levelo_inurba_marseille","lat":43.22561,"lon":5.41626,"is_reserved":false,"is_disabled":false,"rental_uris":{"android":"levelo://app?vid=731e3c39-4cfc-47aa-926e-d6f514d68010","ios":"levelo://app?vid=731e3c39-4cfc-47aa-926e-d6f514d68010"},"vehicle_type_id":"4","last_reported":1769156260,"current_range_meters":8800,"station_id":"st_d2o4gvlbi1j2169b742g","pricing_plan_id":"cebpf4jnsgd1na2vs0mg"},{"bike_id":"0dc89294-395c-49ec-be6e-ac3f9ced3024","system_id":"levelo_inurba_marseille","lat":43.24823,"lon":5.37489,"is_reserved":false,"is_disabled":false,"rental_uris":{"android":"levelo://app?vid=0dc89294-395c-49ec-be6e-ac3f9ced3024","ios":"levelo://app?vid=0dc89294-395c-49ec-be6e-ac3f9ced3024"},"vehicle_type_id":"4","last_reported":1769156260,"current_range_meters":8800,"station_id":"","pricing_plan_id":"cebpf4jnsgd1na2vs0mg"},{"bike_id":"bcbc77f3-fa29-45ed-907c-082f61672a43","system_id":"levelo_inurba_marseille","lat":43.29746,"lon":5.42792,"is_reserved":false,"is_disabled":false,"rental_uris":{"android":"levelo://app?vid=bcbc77f3-fa29-45ed-907c-082f61672a43","ios":"levelo://app?vid=bcbc77f3-fa29-45ed-907c-082f61672a43"},"vehicle_type_id":"4","last_reported":1769156260,"current_range_meters":8800,"station_id":"st_d3md5207bmas73dh9klg","pricing_plan_id":"cebpf4jnsgd1na2vs0mg"},{"bike_id":"5c6da10b-38e9-4dc2-819a-b9596fb94c5b","system_id":"levelo_inurba_marseille","lat":43.26189,"lon":5.37471,"is_reserved":false,"is_disabled":false,"rental_uris":{"android":"levelo://app?vid=5c6da10b-38e9-4dc2-819a-b9596fb94c5b","ios":"levelo://app?vid=5c6da10b-38e9-4dc2-819a-b9596fb94c5b"},"vehicle_type_id":"4","last_reported":1769156260,"current_range_meters":8800,"station_id":"ce4bhgp2rcd13ifvqfc0","pricing_plan_id":"cebpf4jnsgd1na2vs0mg"},{"bike_id":"7423d516-da5c-4b79-9263-bcad22b3ff84","system_id":"levelo_inurba_marseille","lat":43.30148,"lon":5.38084,"is_reserved":false,"is_disabled":false,"rental_uris":{"android":"levelo://app?vid=7423d516-da5c-4b79-9263-bcad22b3ff84","ios":"levelo://app?vid=7423d516-da5c-4b79-9263-bcad22b3ff84"},"vehicle_type_id":"4","last_reported":1769156260,"current_range_meters":8800,"station_id":"ce4bgjp2rcd13ifvqbh0","pricing_plan_id":"cebpf4jnsgd1na2vs0mg"},{"bike_id":"e48b0243-245b-4bd6-9fa4-3379ed23e52f","system_id":"levelo_inurba_marseille","lat":43.27211,"lon":5.3919,"is_reserved":false,"is_disabled":false,"rental_uris":{"android":"levelo://app?vid=e48b0243-245b-4bd6-9fa4-3379ed23e52f","ios":"levelo://app?vid=e48b0243-245b-4bd6-9fa4-3379ed23e52f"},"vehicle_type_id":"4","last_reported":1769156260,"current_range_meters":8800,"station_id":"ce4bhhp2rcd13ifvqfm0","pricing_plan_id":"cebpf4jnsgd1na2vs0mg"},{"bike_id":"fba07cea-ea5a-406a-abdb-e31f6cfe2f3d","system_id":"levelo_inurba_marseille","lat":43.30532,"lon":5.38434,"is_reserved":false,"is_disabled":false,"rental_uris":{"android":"levelo://app?vid=fba07cea-ea5a-406a-abdb-e31f6cfe2f3d","ios":"levelo://app?vid=fba07cea-ea5a-406a-abdb-e31f6cfe2f3d"},"vehicle_type_id":"4","last_reported":1769156260,"current_range_meters":8800,"station_id":"ce4bgg92rcd13ifvqb30","pricing_plan_id":"cebpf4jnsgd1na2vs0mg"},{"bike_id":"ee1097c7-66cb-4cde-affa-a4b0a3128b81","system_id":"levelo_inurba_marseille","lat":43.284455,"lon":5.37153,"is_reserved":false,"is_disabled":false,"rental_uris":{"android":"levelo://app?vid=ee1097c7-66cb-4cde-affa-a4b0a3128b81","ios":"levelo://app?vid=ee1097c7-66cb-4cde-affa-a4b0a3128b81"},"vehicle_type_id":"4","last_reported":1769156260,"current_range_meters":8800,"station_id":"","pricing_plan_id":"cebpf4jnsgd1na2vs0mg"},{"bike_id":"8bd6a944-b716-43b4-a690-208067dadb2c","system_id":"levelo_inurba_marseille","lat":43.32492,"lon":5.36575,"is_reserved":false,"is_disabled":false,"rental_uris":{"android":"levelo://app?vid=8bd6a944-b716-43b4-a690-208067dadb2c","ios":"levelo://app?vid=8bd6a944-b716-43b4-a690-208067dadb2c"},"vehicle_type_id":"4","last_reported":1769156260,"current_range_meters":8800,"station_id":"ce4bhs12rcd13ifvqhvg","pricing_plan_id":"cebpf4jnsgd1na2vs0mg"},{"bike_id":"d1248e4b-c241-4185-9668-62cef44fb4ea","system_id":"levelo_inurba_marseille","lat":43.323562,"lon":5.36737,"is_reserved":false,"is_disabled":false,"rental_uris":{"android":"levelo://app?vid=d1248e4b-c241-4185-9668-62cef44fb4ea","ios":"levelo://app?vid=d1248e4b-c241-4185-9668-62cef44fb4ea"},"vehicle_type_id":"4","last_reported":1769156260,"current_range_meters":8800,"station_id":"ce4bhsh2rcd13ifvqi2g","pricing_plan_id":"cebpf4jnsgd1na2vs0mg"},{"bike_id":"b6872c1f-ca5a-4968-ac67-dffd74e9290a","system_id":"levelo_inurba_marseille","lat":43.30284,"lon":5.37682,"is_reserved":false,"is_disabled":false,"rental_uris":{"android":"levelo://app?vid=b6872c1f-ca5a-4968-ac67-dffd74e9290a","ios":"levelo://app?vid=b6872c1f-ca5a-4968-ac67-dffd74e9290a"},"vehicle_type_id":"4","last_reported":1769156260,"current_range_meters":8800,"station_id":"ce4bguh2rcd13ifvqcj0","pricing_plan_id":"cebpf4jnsgd1na2vs0mg"},{"bike_id":"f72efe51-12d3-4c91-8eb1-b0d276f7cb47","system_id":"levelo_inurba_marseille","lat":43.24804,"lon":5.37462,"is_reserved":false,"is_disabled":false,"rental_uris":{"android":"levelo://app?vid=f72efe51-12d3-4c91-8eb1-b0d276f7cb47","ios":"levelo://app?vid=f72efe51-12d3-4c91-8eb1-b0d276f7cb47"},"vehicle_type_id":"4","last_reported":1769156260,"current_range_meters":8800,"station_id":"ce4bhgh2rcd13ifvqfb0","pricing_plan_id":"cebpf4jnsgd1na2vs0mg"},{"bike_id":"32cded0f-3b2e-43a0-a210-87a3a67f4350","system_id":"levelo_inurba_marseille","lat":43.279145,"lon":5.395868,"is_reserved":false,"is_disabled":false,"rental_uris":{"android":"levelo://app?vid=32cded0f-3b2e-43a0-a210-87a3a67f4350","ios":"levelo://app?vid=32cded0f-3b2e-43a0-a210-87a3a67f4350"},"vehicle_type_id":"4","last_reported":1769156260,"current_range_meters":8800,"station_id":"ce4bhf92rcd13ifvqf40","pricing_plan_id":"cebpf4jnsgd1na2vs0mg"},{"bike_id":"c9389fd4-af01-4458-ab7b-0fb1fe06acd7","system_id":"levelo_inurba_marseille","lat":43.23147,"lon":5.43751,"is_reserved":false,"is_disabled":false,"rental_uris":{"android":"levelo://app?vid=c9389fd4-af01-4458-ab7b-0fb1fe06acd7","ios":"levelo://app?vid=c9389fd4-af01-4458-ab7b-0fb1fe06acd7"},"vehicle_type_id":"4","last_reported":1769156260,"current_range_meters":8800,"station_id":"ce4bhmp2rcd13ifvqgog","pricing_plan_id":"cebpf4jnsgd1na2vs0mg"},{"bike_id":"e5dec18f-4ca4-4711-81b5-38def2fc2a2c","system_id":"levelo_inurba_marseille","lat":43.28155,"lon":5.42656,"is_reserved":false,"is_disabled":false,"rental_uris":{"android":"levelo://app?vid=e5dec18f-4ca4-4711-81b5-38def2fc2a2c","ios":"levelo://app?vid=e5dec18f-4ca4-4711-81b5-38def2fc2a2c"},"vehicle_type_id":"4","last_reported":1769156260,"current_range_meters":8800,"station_id":"ce4bhnh2rcd13ifvqgug","pricing_plan_id":"cebpf4jnsgd1na2vs0mg"},{"bike_id":"de2d4b41-3779-4f7f-8a16-0def354b23f6","system_id":"levelo_inurba_marseille","lat":43.30148,"lon":5.38085,"is_reserved":false,"is_disabled":false,"rental_uris":{"android":"levelo://app?vid=de2d4b41-3779-4f7f-8a16-0def354b23f6","ios":"levelo://app?vid=de2d4b41-3779-4f7f-8a16-0def354b23f6"},"vehicle_type_id":"4","last_reported":1769156260,"current_range_meters":8800,"station_id":"ce4bgjp2rcd13ifvqbh0","pricing_plan_id":"cebpf4jnsgd1na2vs0mg"},{"bike_id":"16170cf6-3e69-493d-959b-67b930cf71b2","system_id":"levelo_inurba_marseille","lat":43.290731,"lon":5.37167,"is_reserved":false,"is_disabled":false,"rental_uris":{"android":"levelo://app?vid=16170cf6-3e69-493d-959b-67b930cf71b2","ios":"levelo://app?vid=16170cf6-3e69-493d-959b-67b930cf71b2"},"vehicle_type_id":"4","last_reported":1769156260,"current_range_meters":8800,"station_id":"","pricing_plan_id":"cebpf4jnsgd1na2vs0mg"},{"bike_id":"001d4fd7-b33f-4d7c-a702-695c4d739674","system_id":"levelo_inurba_marseille","lat":43.27956,"lon":5.38758,"is_reserved":false,"is_disabled":false,"rental_uris":{"android":"levelo://app?vid=001d4fd7-b33f-4d7c-a702-695c4d739674","ios":"levelo://app?vid=001d4fd7-b33f-4d7c-a702-695c4d739674"},"vehicle_type_id":"4","last_reported":1769156260,"current_range_meters":8800,"station_id":"ce4bhg12rcd13ifvqf80","pricing_plan_id":"cebpf4jnsgd1na2vs0mg"},{"bike_id":"02e7a81c-add2-44fa-966b-2d696b46b0f6","system_id":"levelo_inurba_marseille","lat":43.29485,"lon":5.3738,"is_reserved":false,"is_disabled":false,"rental_uris":{"android":"levelo://app?vid=02e7a81c-add2-44fa-966b-2d696b46b0f6","ios":"levelo://app?vid=02e7a81c-add2-44fa-966b-2d696b46b0f6"},"vehicle_type_id":"4","last_reported":1769156260,"current_range_meters":8800,"station_id":"","pricing_plan_id":"cebpf4jnsgd1na2vs0mg"},{"bike_id":"17669b47-9100-4319-b70b-7d4875adf193","system_id":"levelo_inurba_marseille","lat":43.29751,"lon":5.42786,"is_reserved":false,"is_disabled":true,"rental_uris":{"android":"levelo://app?vid=17669b47-9100-4319-b70b-7d4875adf193","ios":"levelo://app?vid=17669b47-9100-4319-b70b-7d4875adf193"},"vehicle_type_id":"4","last_reported":1769156260,"current_range_meters":8800,"station_id":"st_d3md5207bmas73dh9klg","pricing_plan_id":"cebpf4jnsgd1na2vs0mg"},{"bike_id":"8750ab90-342c-4b21-9046-287ee13df746","system_id":"levelo_inurba_marseille","lat":43.32357,"lon":5.36755,"is_reserved":false,"is_disabled":false,"rental_uris":{"android":"levelo://app?vid=8750ab90-342c-4b21-9046-287ee13df746","ios":"levelo://app?vid=8750ab90-342c-4b21-9046-287ee13df746"},"vehicle_type_id":"4","last_reported":1769156260,"current_range_meters":8800,"station_id":"ce4bhsh2rcd13ifvqi2g","pricing_plan_id":"cebpf4jnsgd1na2vs0mg"},{"bike_id":"68b37f36-cf3a-478d-b797-11563aaa1e5e","system_id":"levelo_inurba_marseille","lat":43.29969,"lon":5.37193,"is_reserved":false,"is_disabled":true,"rental_uris":{"android":"levelo://app?vid=68b37f36-cf3a-478d-b797-11563aaa1e5e","ios":"levelo://app?vid=68b37f36-cf3a-478d-b797-11563aaa1e5e"},"vehicle_type_id":"4","last_reported":1769156260,"current_range_meters":9200,"station_id":"ce4bgr92rcd13ifvqc7g","pricing_plan_id":"cebpf4jnsgd1na2vs0mg"},{"bike_id":"078c9eab-27b6-460e-a26e-8ce7fa01f3b7","system_id":"levelo_inurba_marseille","lat":43.28719,"lon":5.3794,"is_reserved":false,"is_disabled":false,"rental_uris":{"android":"levelo://app?vid=078c9eab-27b6-460e-a26e-8ce7fa01f3b7","ios":"levelo://app?vid=078c9eab-27b6-460e-a26e-8ce7fa01f3b7"},"vehicle_type_id":"4","last_reported":1769156260,"current_range_meters":9200,"station_id":"ce4bh9p2rcd13ifvqec0","pricing_plan_id":"cebpf4jnsgd1na2vs0mg"},{"bike_id":"dc06e64a-6939-4b81-b189-c6caf55486d4","system_id":"levelo_inurba_marseille","lat":43.26064,"lon":5.3942,"is_reserved":false,"is_disabled":false,"rental_uris":{"android":"levelo://app?vid=dc06e64a-6939-4b81-b189-c6caf55486d4","ios":"levelo://app?vid=dc06e64a-6939-4b81-b189-c6caf55486d4"},"vehicle_type_id":"4","last_reported":1769156260,"current_range_meters":9200,"station_id":"ce4bhh92rcd13ifvqfj0","pricing_plan_id":"cebpf4jnsgd1na2vs0mg"},{"bike_id":"46f75794-75d1-4ef5-98be-9fe9801b2e3c","system_id":"levelo_inurba_marseille","lat":43.31348,"lon":5.36716,"is_reserved":false,"is_disabled":false,"rental_uris":{"android":"levelo://app?vid=46f75794-75d1-4ef5-98be-9fe9801b2e3c","ios":"levelo://app?vid=46f75794-75d1-4ef5-98be-9fe9801b2e3c"},"vehicle_type_id":"4","last_reported":1769156260,"current_range_meters":9200,"station_id":"ce4bgr92rcd13ifvqc6g","pricing_plan_id":"cebpf4jnsgd1na2vs0mg"},{"bike_id":"03fc5b91-c981-4009-953f-53f65d3b3940","system_id":"levelo_inurba_marseille","lat":43.29595,"lon":5.38096,"is_reserved":false,"is_disabled":false,"rental_uris":{"android":"levelo://app?vid=03fc5b91-c981-4009-953f-53f65d3b3940","ios":"levelo://app?vid=03fc5b91-c981-4009-953f-53f65d3b3940"},"vehicle_type_id":"4","last_reported":1769156260,"current_range_meters":9200,"station_id":"ce4bgl12rcd13ifvqbo0","pricing_plan_id":"cebpf4jnsgd1na2vs0mg"},{"bike_id":"98dea6ea-b7af-4e6b-9660-eb2e4071f25d","system_id":"levelo_inurba_marseille","lat":43.28714,"lon":5.40006,"is_reserved":false,"is_disabled":true,"rental_uris":{"android":"levelo://app?vid=98dea6ea-b7af-4e6b-9660-eb2e4071f25d","ios":"levelo://app?vid=98dea6ea-b7af-4e6b-9660-eb2e4071f25d"},"vehicle_type_id":"4","last_reported":1769156260,"current_range_meters":9200,"station_id":"ce4bho92rcd13ifvqh3g","pricing_plan_id":"cebpf4jnsgd1na2vs0mg"},{"bike_id":"15ce2f7b-e27b-4b73-b1d7-521910c86f00","system_id":"levelo_inurba_marseille","lat":43.28472,"lon":5.48392,"is_reserved":false,"is_disabled":false,"rental_uris":{"android":"levelo://app?vid=15ce2f7b-e27b-4b73-b1d7-521910c86f00","ios":"levelo://app?vid=15ce2f7b-e27b-4b73-b1d7-521910c86f00"},"vehicle_type_id":"4","last_reported":1769156260,"current_range_meters":9200,"station_id":"st_d3svhcjqgbts73a3dn0g","pricing_plan_id":"cebpf4jnsgd1na2vs0mg"},{"bike_id":"42258f14-4722-4aac-b949-245a1ef55bb3","system_id":"levelo_inurba_marseille","lat":43.22918,"lon":5.35406,"is_reserved":false,"is_disabled":false,"rental_uris":{"android":"levelo://app?vid=42258f14-4722-4aac-b949-245a1ef55bb3","ios":"levelo://app?vid=42258f14-4722-4aac-b949-245a1ef55bb3"},"vehicle_type_id":"4","last_reported":1769156260,"current_range_meters":9200,"station_id":"cpo3532slgdg3j2ikp40","pricing_plan_id":"cebpf4jnsgd1na2vs0mg"},{"bike_id":"8b3cd425-bcfd-4e98-97ed-9364c3ab1a83","system_id":"levelo_inurba_marseille","lat":43.32489,"lon":5.39392,"is_reserved":false,"is_disabled":false,"rental_uris":{"android":"levelo://app?vid=8b3cd425-bcfd-4e98-97ed-9364c3ab1a83","ios":"levelo://app?vid=8b3cd425-bcfd-4e98-97ed-9364c3ab1a83"},"vehicle_type_id":"4","last_reported":1769156260,"current_range_meters":9200,"station_id":"","pricing_plan_id":"cebpf4jnsgd1na2vs0mg"},{"bike_id":"6a7e8b47-1abf-4350-a831-a2c7f0807730","system_id":"levelo_inurba_marseille","lat":43.2861,"lon":5.35114,"is_reserved":false,"is_disabled":false,"rental_uris":{"android":"levelo://app?vid=6a7e8b47-1abf-4350-a831-a2c7f0807730","ios":"levelo://app?vid=6a7e8b47-1abf-4350-a831-a2c7f0807730"},"vehicle_type_id":"4","last_reported":1769156260,"current_range_meters":9200,"station_id":"ce4bhch2rcd13ifvqeug","pricing_plan_id":"cebpf4jnsgd1na2vs0mg"},{"bike_id":"3035ff96-ae0b-4a80-baca-058d9953c351","system_id":"levelo_inurba_marseille","lat":43.24082,"lon":5.37761,"is_reserved":false,"is_disabled":false,"rental_uris":{"android":"levelo://app?vid=3035ff96-ae0b-4a80-baca-058d9953c351","ios":"levelo://app?vid=3035ff96-ae0b-4a80-baca-058d9953c351"},"vehicle_type_id":"4","last_reported":1769156260,"current_range_meters":9200,"station_id":"ce4bhnp2rcd13ifvqgvg","pricing_plan_id":"cebpf4jnsgd1na2vs0mg"},{"bike_id":"3fd603c4-6e35-4017-a90c-25d398c36f9b","system_id":"levelo_inurba_marseille","lat":43.31101,"lon":5.36917,"is_reserved":false,"is_disabled":false,"rental_uris":{"android":"levelo://app?vid=3fd603c4-6e35-4017-a90c-25d398c36f9b","ios":"levelo://app?vid=3fd603c4-6e35-4017-a90c-25d398c36f9b"},"vehicle_type_id":"4","last_reported":1769156260,"current_range_meters":9200,"station_id":"ce4bgl92rcd13ifvqbq0","pricing_plan_id":"cebpf4jnsgd1na2vs0mg"},{"bike_id":"df48ff42-f262-45fd-870e-875d13fd81e4","system_id":"levelo_inurba_marseille","lat":43.26571,"lon":5.38994,"is_reserved":false,"is_disabled":false,"rental_uris":{"android":"levelo://app?vid=df48ff42-f262-45fd-870e-875d13fd81e4","ios":"levelo://app?vid=df48ff42-f262-45fd-870e-875d13fd81e4"},"vehicle_type_id":"4","last_reported":1769156260,"current_range_meters":9200,"station_id":"ce4bhe12rcd13ifvqf30","pricing_plan_id":"cebpf4jnsgd1na2vs0mg"},{"bike_id":"ddb744dc-0e68-480f-91b2-075fe1c80917","system_id":"levelo_inurba_marseille","lat":43.30303,"lon":5.36926,"is_reserved":false,"is_disabled":false,"rental_uris":{"android":"levelo://app?vid=ddb744dc-0e68-480f-91b2-075fe1c80917","ios":"levelo://app?vid=ddb744dc-0e68-480f-91b2-075fe1c80917"},"vehicle_type_id":"4","last_reported":1769156260,"current_range_meters":9200,"station_id":"ce4bgqh2rcd13ifvqc5g","pricing_plan_id":"cebpf4jnsgd1na2vs0mg"},{"bike_id":"2e2ce66a-3f89-4c21-a9df-34056a5a5860","system_id":"levelo_inurba_marseille","lat":43.22555,"lon":5.41628,"is_reserved":false,"is_disabled":false,"rental_uris":{"android":"levelo://app?vid=2e2ce66a-3f89-4c21-a9df-34056a5a5860","ios":"levelo://app?vid=2e2ce66a-3f89-4c21-a9df-34056a5a5860"},"vehicle_type_id":"4","last_reported":1769156260,"current_range_meters":9200,"station_id":"st_d2o4gvlbi1j2169b742g","pricing_plan_id":"cebpf4jnsgd1na2vs0mg"},{"bike_id":"e4c4f5dd-c80d-4d75-801c-35c973416425","system_id":"levelo_inurba_marseille","lat":43.26563,"lon":5.37279,"is_reserved":false,"is_disabled":false,"rental_uris":{"android":"levelo://app?vid=e4c4f5dd-c80d-4d75-801c-35c973416425","ios":"levelo://app?vid=e4c4f5dd-c80d-4d75-801c-35c973416425"},"vehicle_type_id":"4","last_reported":1769156260,"current_range_meters":9600,"station_id":"ce4bhg12rcd13ifvqf70","pricing_plan_id":"cebpf4jnsgd1na2vs0mg"},{"bike_id":"239fb226-1d68-42f4-96a9-ae7eaf670d5a","system_id":"levelo_inurba_marseille","lat":43.26543,"lon":5.37293,"is_reserved":false,"is_disabled":false,"rental_uris":{"android":"levelo://app?vid=239fb226-1d68-42f4-96a9-ae7eaf670d5a","ios":"levelo://app?vid=239fb226-1d68-42f4-96a9-ae7eaf670d5a"},"vehicle_type_id":"4","last_reported":1769156260,"current_range_meters":9600,"station_id":"ce4bhg12rcd13ifvqf70","pricing_plan_id":"cebpf4jnsgd1na2vs0mg"},{"bike_id":"10c585ec-0d69-49bc-a403-a71e7446105a","system_id":"levelo_inurba_marseille","lat":43.24906,"lon":5.39727,"is_reserved":false,"is_disabled":false,"rental_uris":{"android":"levelo://app?vid=10c585ec-0d69-49bc-a403-a71e7446105a","ios":"levelo://app?vid=10c585ec-0d69-49bc-a403-a71e7446105a"},"vehicle_type_id":"4","last_reported":1769156260,"current_range_meters":9600,"station_id":"","pricing_plan_id":"cebpf4jnsgd1na2vs0mg"},{"bike_id":"7c7cc252-7f4f-4ac1-8175-44f20e46ac77","system_id":"levelo_inurba_marseille","lat":43.26722,"lon":5.40192,"is_reserved":false,"is_disabled":false,"rental_uris":{"android":"levelo://app?vid=7c7cc252-7f4f-4ac1-8175-44f20e46ac77","ios":"levelo://app?vid=7c7cc252-7f4f-4ac1-8175-44f20e46ac77"},"vehicle_type_id":"4","last_reported":1769156260,"current_range_meters":9600,"station_id":"","pricing_plan_id":"cebpf4jnsgd1na2vs0mg"},{"bike_id":"8ac90997-fa6e-4e47-9844-f802382369ea","system_id":"levelo_inurba_marseille","lat":43.30455,"lon":5.3792,"is_reserved":false,"is_disabled":false,"rental_uris":{"android":"levelo://app?vid=8ac90997-fa6e-4e47-9844-f802382369ea","ios":"levelo://app?vid=8ac90997-fa6e-4e47-9844-f802382369ea"},"vehicle_type_id":"4","last_reported":1769156260,"current_range_meters":9600,"station_id":"ce4bgup2rcd13ifvqcn0","pricing_plan_id":"cebpf4jnsgd1na2vs0mg"},{"bike_id":"77ad947e-b39d-43c5-91e9-cf23337d6f72","system_id":"levelo_inurba_marseille","lat":43.23181,"lon":5.39988,"is_reserved":false,"is_disabled":false,"rental_uris":{"android":"levelo://app?vid=77ad947e-b39d-43c5-91e9-cf23337d6f72","ios":"levelo://app?vid=77ad947e-b39d-43c5-91e9-cf23337d6f72"},"vehicle_type_id":"4","last_reported":1769156260,"current_range_meters":9600,"station_id":"ce4bhn12rcd13ifvqgqg","pricing_plan_id":"cebpf4jnsgd1na2vs0mg"},{"bike_id":"05d1c121-28b2-4089-b97e-95b3b06f8585","system_id":"levelo_inurba_marseille","lat":43.313723,"lon":5.371354,"is_reserved":false,"is_disabled":false,"rental_uris":{"android":"levelo://app?vid=05d1c121-28b2-4089-b97e-95b3b06f8585","ios":"levelo://app?vid=05d1c121-28b2-4089-b97e-95b3b06f8585"},"vehicle_type_id":"4","last_reported":1769156260,"current_range_meters":9600,"station_id":"","pricing_plan_id":"cebpf4jnsgd1na2vs0mg"},{"bike_id":"640121a6-98f3-4df3-8ec4-d218eca026e4","system_id":"levelo_inurba_marseille","lat":43.24165,"lon":5.36402,"is_reserved":false,"is_disabled":false,"rental_uris":{"android":"levelo://app?vid=640121a6-98f3-4df3-8ec4-d218eca026e4","ios":"levelo://app?vid=640121a6-98f3-4df3-8ec4-d218eca026e4"},"vehicle_type_id":"4","last_reported":1769156260,"current_range_meters":9600,"station_id":"cpo36qri1sfpv3e86is0","pricing_plan_id":"cebpf4jnsgd1na2vs0mg"},{"bike_id":"093a2b0a-ee3f-4251-b44f-abdba67d1b09","system_id":"levelo_inurba_marseille","lat":43.24649,"lon":5.38902,"is_reserved":false,"is_disabled":false,"rental_uris":{"android":"levelo://app?vid=093a2b0a-ee3f-4251-b44f-abdba67d1b09","ios":"levelo://app?vid=093a2b0a-ee3f-4251-b44f-abdba67d1b09"},"vehicle_type_id":"4","last_reported":1769156260,"current_range_meters":9600,"station_id":"ce4bhg12rcd13ifvqf60","pricing_plan_id":"cebpf4jnsgd1na2vs0mg"},{"bike_id":"ca616cdb-4b11-45fe-ae44-b700aa3b252d","system_id":"levelo_inurba_marseille","lat":43.26224,"lon":5.38814,"is_reserved":false,"is_disabled":false,"rental_uris":{"android":"levelo://app?vid=ca616cdb-4b11-45fe-ae44-b700aa3b252d","ios":"levelo://app?vid=ca616cdb-4b11-45fe-ae44-b700aa3b252d"},"vehicle_type_id":"4","last_reported":1769156260,"current_range_meters":9600,"station_id":"","pricing_plan_id":"cebpf4jnsgd1na2vs0mg"},{"bike_id":"dd178b0d-57a2-42e1-8a69-79f640f4f2cc","system_id":"levelo_inurba_marseille","lat":43.33379,"lon":5.39426,"is_reserved":false,"is_disabled":false,"rental_uris":{"android":"levelo://app?vid=dd178b0d-57a2-42e1-8a69-79f640f4f2cc","ios":"levelo://app?vid=dd178b0d-57a2-42e1-8a69-79f640f4f2cc"},"vehicle_type_id":"4","last_reported":1769156260,"current_range_meters":9600,"station_id":"","pricing_plan_id":"cebpf4jnsgd1na2vs0mg"},{"bike_id":"8d532647-877b-4cf6-873a-f3daa85d4361","system_id":"levelo_inurba_marseille","lat":43.28938,"lon":5.36633,"is_reserved":false,"is_disabled":false,"rental_uris":{"android":"levelo://app?vid=8d532647-877b-4cf6-873a-f3daa85d4361","ios":"levelo://app?vid=8d532647-877b-4cf6-873a-f3daa85d4361"},"vehicle_type_id":"4","last_reported":1769156260,"current_range_meters":9600,"station_id":"ce4bhap2rcd13ifvqek0","pricing_plan_id":"cebpf4jnsgd1na2vs0mg"},{"bike_id":"3ceaca4f-8709-496e-b3f5-e3ecea92e24c","system_id":"levelo_inurba_marseille","lat":43.22563,"lon":5.41625,"is_reserved":false,"is_disabled":false,"rental_uris":{"android":"levelo://app?vid=3ceaca4f-8709-496e-b3f5-e3ecea92e24c","ios":"levelo://app?vid=3ceaca4f-8709-496e-b3f5-e3ecea92e24c"},"vehicle_type_id":"4","last_reported":1769156260,"current_range_meters":9600,"station_id":"st_d2o4gvlbi1j2169b742g","pricing_plan_id":"cebpf4jnsgd1na2vs0mg"},