{"last_updated":1700770048,"ttl":30,"version":"2.2","data":{"bikes":[{"bike_id":"cd51247a-5d7d-4cc4-9936-79d449bcf3f9","system_id":"levelo_inurba_marseille","lat":43.309076,"lon":5.368465,"is_reserved":false,"is_disabled":false,"rental_uris":{"android":"levelo://app?vid=cd51247a-5d7d-4cc4-9936-79d449bcf3f9","ios":"levelo://app?vid=cd51247a-5d7d-4cc4-9936-79d449bcf3f9"},"vehicle_type_id":"4","last_reported":1700770048,"current_range_meters":14800,"station_id":"ce4bgn92rcd13ifvqbvg","pricing_plan_id":"free"},{"bike_id":"89d203f6-c707-4b4b-89af-f6e1eca2c94c","system_id":"levelo_inurba_marseille","lat":43.309039,"lon":5.371797,"is_reserved":false,"is_disabled":false,"rental_uris":{"android":"levelo://app?vid=89d203f6-c707-4b4b-89af-f6e1eca2c94c","ios":"levelo://app?vid=89d203f6-c707-4b4b-89af-f6e1eca2c94c"},"vehicle_type_id":"4","last_reported":1700770048,"current_range_meters":27200,"station_id":"ce4bguh2rcd13ifvqckg","pricing_plan_id":"free"},{"bike_id":"7e94320b-18c6-449b-92c3-947bdf56a8e9","system_id":"levelo_inurba_marseille","lat":43.305714,"lon":5.365633,"is_reserved":false,"is_disabled":false,"rental_uris":{"android":"levelo://app?vid=7e94320b-18c6-449b-92c3-947bdf56a8e9","ios":"levelo://app?vid=7e94320b-18c6-449b-92c3-947bdf56a8e9"},"vehicle_type_id":"4","last_reported":1700770048,"current_range_meters":25600,"station_id":"ce4bgs12rcd13ifvqcag","pricing_plan_id":"free"},{"bike_id":"6e7d3c46-ca1b-4a27-bc2b-c7355a70c9f9","system_id":"levelo_inurba_marseille","lat":43.305706,"lon":5.365654,"is_reserved":false,"is_disabled":false,"rental_uris":{"android":"levelo://app?vid=6e7d3c46-ca1b-4a27-bc2b-c7355a70c9f9","ios":"levelo://app?vid=6e7d3c46-ca1b-4a27-bc2b-c7355a70c9f9"},"vehicle_type_id":"4","last_reported":1700770048,"current_range_meters":17600,"station_id":"ce4bgs12rcd13ifvqcag","pricing_plan_id":"free"},{"bike_id":"acf2e61c-da7a-4535-afce-6dae5cd5d176","system_id":"levelo_inurba_marseille","lat":43.3082,"lon":5.37647,"is_reserved":false,"is_disabled":false,"rental_uris":{"android":"levelo://app?vid=acf2e61c-da7a-4535-afce-6dae5cd5d176","ios":"levelo://app?vid=acf2e61c-da7a-4535-afce-6dae5cd5d176"},"vehicle_type_id":"4","last_reported":1700770048,"current_range_meters":6400,"station_id":"ce4bgv92rcd13ifvqcq0","pricing_plan_id":"free"},{"bike_id":"cb831096-b78a-4b81-9642-df22882295e9","system_id":"levelo_inurba_marseille","lat":43.308182,"lon":5.376513,"is_reserved":false,"is_disabled":false,"rental_uris":{"android":"levelo://app?vid=cb831096-b78a-4b81-9642-df22882295e9","ios":"levelo://app?vid=cb831096-b78a-4b81-9642-df22882295e9"},"vehicle_type_id":"4","last_reported":1700770048,"current_range_meters":19600,"station_id":"ce4bgv92rcd13ifvqcq0","pricing_plan_id":"free"},{"bike_id":"d8b67b59-983c-4f7e-b00e-95d254b0ce7a","system_id":"levelo_inurba_marseille","lat":43.307945,"lon":5.376487,"is_reserved":false,"is_disabled":false,"rental_uris":{"android":"levelo://app?vid=d8b67b59-983c-4f7e-b00e-95d254b0ce7a","ios":"levelo://app?vid=d8b67b59-983c-4f7e-b00e-95d254b0ce7a"},"vehicle_type_id":"4","last_reported":1700770048,"current_range_meters":26000,"station_id":"ce4bgv92rcd13ifvqcq0","pricing_plan_id":"free"},{"bike_id":"67f416e3-b4cf-474b-b706-32237387239e","system_id":"levelo_inurba_marseille","lat":43.307945,"lon":5.376487,"is_reserved":false,"is_disabled":false,"rental_uris":{"android":"levelo://app?vid=67f416e3-b4cf-474b-b706-32237387239e","ios":"levelo://app?vid=67f416e3-b4cf-474b-b706-32237387239e"},"vehicle_type_id":"4","last_reported":1700770048,"current_range_meters":20800,"station_id":"ce4bgv92rcd13ifvqcq0","pricing_plan_id":"free"},{"bike_id":"6688d18a-76b3-4d1f-a5d7-ff5674d61b67","system_id":"levelo_inurba_marseille","lat":43.303195,"lon":5.366405,"is_reserved":false,"is_disabled":false,"rental_uris":{"android":"levelo://app?vid=6688d18a-76b3-4d1f-a5d7-ff5674d61b67","ios":"levelo://app?vid=6688d18a-76b3-4d1f-a5d7-ff5674d61b67"},"vehicle_type_id":"4","last_reported":1700770048,"current_range_meters":0,"station_id":"","pricing_plan_id":"free"},{"bike_id":"e8f0168e-982a-4785-97c5-f62995241d3f","system_id":"levelo_inurba_marseille","lat":43.301939,"lon":5.366286,"is_reserved":false,"is_disabled":false,"rental_uris":{"android":"levelo://app?vid=e8f0168e-982a-4785-97c5-f62995241d3f","ios":"levelo://app?vid=e8f0168e-982a-4785-97c5-f62995241d3f"},"vehicle_type_id":"4","last_reported":1700770048,"current_range_meters":24000,"station_id":"ce4bgrh2rcd13ifvqc8g","pricing_plan_id":"free"},{"bike_id":"4a19c8ee-0bc2-4fde-8918-7a92fe9893af","system_id":"levelo_inurba_marseille","lat":43.301939,"lon":5.366286,"is_reserved":false,"is_disabled":false,"rental_uris":{"android":"levelo://app?vid=4a19c8ee-0bc2-4fde-8918-7a92fe9893af","ios":"levelo://app?vid=4a19c8ee-0bc2-4fde-8918-7a92fe9893af"},"vehicle_type_id":"4","last_reported":1700770048,"current_range_meters":26000,"station_id":"ce4bgrh2rcd13ifvqc8g","pricing_plan_id":"free"},{"bike_id":"dfb03d08-efc7-4001-9446-de22e8cc0831","system_id":"levelo_inurba_marseille","lat":43.301939,"lon":5.366286,"is_reserved":false,"is_disabled":false,"rental_uris":{"android":"levelo://app?vid=dfb03d08-efc7-4001-9446-de22e8cc0831","ios":"levelo://app?vid=dfb03d08-efc7-4001-9446-de22e8cc0831"},"vehicle_type_id":"4","last_reported":1700770048,"current_range_meters":14000,"station_id":"ce4bgrh2rcd13ifvqc8g","pricing_plan_id":"free"},{"bike_id":"0327687b-f51e-4077-bf49-2ec73a6de092","system_id":"levelo_inurba_marseille","lat":43.322329,"lon":5.375621,"is_reserved":false,"is_disabled":false,"rental_uris":{"android":"levelo://app?vid=0327687b-f51e-4077-bf49-2ec73a6de092","ios":"levelo://app?vid=0327687b-f51e-4077-bf49-2ec73a6de092"},"vehicle_type_id":"4","last_reported":1700770048,"current_range_meters":10400,"station_id":"","pricing_plan_id":"free"},{"bike_id":"8004d2d7-fa54-4304-997e-11c27fc2ecde","system_id":"levelo_inurba_marseille","lat":43.308012,"lon":5.381511,"is_reserved":false,"is_disabled":false,"rental_uris":{"android":"levelo://app?vid=8004d2d7-fa54-4304-997e-11c27fc2ecde","ios":"levelo://app?vid=8004d2d7-fa54-4304-997e-11c27fc2ecde"},"vehicle_type_id":"4","last_reported":1700770048,"current_range_meters":2800,"station_id":"ce4bgt12rcd13ifvqce0","pricing_plan_id":"free"},{"bike_id":"47aa0813-9f64-459b-8d3e-bac113c5706c","system_id":"levelo_inurba_marseille","lat":43.308012,"lon":5.381511,"is_reserved":false,"is_disabled":false,"rental_uris":{"android":"levelo://app?vid=47aa0813-9f64-459b-8d3e-bac113c5706c","ios":"levelo://app?vid=47aa0813-9f64-459b-8d3e-bac113c5706c"},"vehicle_type_id":"4","last_reported":1700770048,"current_range_meters":25600,"station_id":"ce4bgt12rcd13ifvqce0","pricing_plan_id":"free"},{"bike_id":"f431ed22-35c3-41b8-add0-9c73c8e97cde","system_id":"levelo_inurba_marseille","lat":43.308012,"lon":5.381511,"is_reserved":false,"is_disabled":false,"rental_uris":{"android":"levelo://app?vid=f431ed22-35c3-41b8-add0-9c73c8e97cde","ios":"levelo://app?vid=f431ed22-35c3-41b8-add0-9c73c8e97cde"},"vehicle_type_id":"4","last_reported":1700770048,"current_range_meters":400,"station_id":"ce4bgt12rcd13ifvqce0","pricing_plan_id":"free"},{"bike_id":"1887ce01-2309-4aa9-b41e-6d5ce26e5513","system_id":"levelo_inurba_marseille","lat":43.304606,"lon":5.379026,"is_reserved":false,"is_disabled":false,"rental_uris":{"android":"levelo://app?vid=1887ce01-2309-4aa9-b41e-6d5ce26e5513","ios":"levelo://app?vid=1887ce01-2309-4aa9-b41e-6d5ce26e5513"},"vehicle_type_id":"4","last_reported":1700770048,"current_range_meters":2400,"station_id":"ce4bgup2rcd13ifvqcn0","pricing_plan_id":"free"},{"bike_id":"45dbdaae-bdab-466d-8452-ae565e6e4c89","system_id":"levelo_inurba_marseille","lat":43.313571,"lon":5.384829,"is_reserved":false,"is_disabled":false,"rental_uris":{"android":"levelo://app?vid=45dbdaae-bdab-466d-8452-ae565e6e4c89","ios":"levelo://app?vid=45dbdaae-bdab-466d-8452-ae565e6e4c89"},"vehicle_type_id":"4","last_reported":1700770048,"current_range_meters":24000,"station_id":"ce4bgt92rcd13ifvqcf0","pricing_plan_id":"free"},{"bike_id":"e646bcb1-79a7-4ebe-a422-497b426895f3","system_id":"levelo_inurba_marseille","lat":43.3136,"lon":5.38489,"is_reserved":false,"is_disabled":false,"rental_uris":{"android":"levelo://app?vid=e646bcb1-79a7-4ebe-a422-497b426895f3","ios":"levelo://app?vid=e646bcb1-79a7-4ebe-a422-497b426895f3"},"vehicle_type_id":"4","last_reported":1700770048,"current_range_meters":16000,"station_id":"ce4bgt92rcd13ifvqcf0","pricing_plan_id":"free"},{"bike_id":"9502b46d-8104-47ab-b5c5-4d941190b82f","system_id":"levelo_inurba_marseille","lat":43.305364,"lon":5.384119,"is_reserved":false,"is_disabled":false,"rental_uris":{"android":"levelo://app?vid=9502b46d-8104-47ab-b5c5-4d941190b82f","ios":"levelo://app?vid=9502b46d-8104-47ab-b5c5-4d941190b82f"},"vehicle_type_id":"4","last_reported":1700770048,"current_range_meters":5600,"station_id":"ce4bgg92rcd13ifvqb30","pricing_plan_id":"free"},{"bike_id":"8afdbe68-0381-4341-a323-9f226e79fe7e","system_id":"levelo_inurba_marseille","lat":43.298433,"lon":5.362774,"is_reserved":false,"is_disabled":false,"rental_uris":{"android":"levelo://app?vid=8afdbe68-0381-4341-a323-9f226e79fe7e","ios":"levelo://app?vid=8afdbe68-0381-4341-a323-9f226e79fe7e"},"vehicle_type_id":"4","last_reported":1700770048,"current_range_meters":27600,"station_id":"ce4bgpp2rcd13ifvqc3g","pricing_plan_id":"free"},{"bike_id":"74ba9c80-13b3-4215-8194-fd121b879143","system_id":"levelo_inurba_marseille","lat":43.299243,"lon":5.374807,"is_reserved":false,"is_disabled":false,"rental_uris":{"android":"levelo://app?vid=74ba9c80-13b3-4215-8194-fd121b879143","ios":"levelo://app?vid=74ba9c80-13b3-4215-8194-fd121b879143"},"vehicle_type_id":"4","last_reported":1700770048,"current_range_meters":5600,"station_id":"ce4bgjh2rcd13ifvqbg0","pricing_plan_id":"free"},{"bike_id":"6c8815d2-e69d-4ea2-93f2-13e13754bf40","system_id":"levelo_inurba_marseille","lat":43.311722,"lon":5.387247,"is_reserved":false,"is_disabled":false,"rental_uris":{"android":"levelo://app?vid=6c8815d2-e69d-4ea2-93f2-13e13754bf40","ios":"levelo://app?vid=6c8815d2-e69d-4ea2-93f2-13e13754bf40"},"vehicle_type_id":"4","last_reported":1700770048,"current_range_meters":4400,"station_id":"ce4bgv12rcd13ifvqcp0","pricing_plan_id":"free"},{"bike_id":"10bd28d7-c5b8-499a-ab3a-ce3d65746c82","system_id":"levelo_inurba_marseille","lat":43.297794,"lon":5.370888,"is_reserved":false,"is_disabled":false,"rental_uris":{"android":"levelo://app?vid=10bd28d7-c5b8-499a-ab3a-ce3d65746c82","ios":"levelo://app?vid=10bd28d7-c5b8-499a-ab3a-ce3d65746c82"},"vehicle_type_id":"4","last_reported":1700770048,"current_range_meters":13600,"station_id":"ce4bgop2rcd13ifvqc1g","pricing_plan_id":"free"},{"bike_id":"5a877054-2cf2-41cb-b572-968f14afeb92","system_id":"levelo_inurba_marseille","lat":43.322872,"lon":5.382756,"is_reserved":false,"is_disabled":false,"rental_uris":{"android":"levelo://app?vid=5a877054-2cf2-41cb-b572-968f14afeb92","ios":"levelo://app?vid=5a877054-2cf2-41cb-b572-968f14afeb92"},"vehicle_type_id":"4","last_reported":1700770048,"current_range_meters":26400,"station_id":"ce4bhr12rcd13ifvqhqg","pricing_plan_id":"free"},{"bike_id":"e20278c6-b58d-4286-b77b-9f26462eade6","system_id":"levelo_inurba_marseille","lat":43.322872,"lon":5.382756,"is_reserved":false,"is_disabled":false,"rental_uris":{"android":"levelo://app?vid=e20278c6-b58d-4286-b77b-9f26462eade6","ios":"levelo://app?vid=e20278c6-b58d-4286-b77b-9f26462eade6"},"vehicle_type_id":"4","last_reported":1700770048,"current_range_meters":20800,"station_id":"ce4bhr12rcd13ifvqhqg","pricing_plan_id":"free"},{"bike_id":"3f546eb6-91fa-4b9c-afab-d808c7a8f54c","system_id":"levelo_inurba_marseille","lat":43.32823,"lon":5.36688,"is_reserved":false,"is_disabled":false,"rental_uris":{"android":"levelo://app?vid=3f546eb6-91fa-4b9c-afab-d808c7a8f54c","ios":"levelo://app?vid=3f546eb6-91fa-4b9c-afab-d808c7a8f54c"},"vehicle_type_id":"4","last_reported":1700770048,"current_range_meters":6800,"station_id":"ce4bhs92rcd13ifvqi0g","pricing_plan_id":"free"},{"bike_id":"ddd3fff7-fc57-48f9-825f-f47d18d1dbee","system_id":"levelo_inurba_marseille","lat":43.328371,"lon":5.366909,"is_reserved":false,"is_disabled":false,"rental_uris":{"android":"levelo://app?vid=ddd3fff7-fc57-48f9-825f-f47d18d1dbee","ios":"levelo://app?vid=ddd3fff7-fc57-48f9-825f-f47d18d1dbee"},"vehicle_type_id":"4","last_reported":1700770048,"current_range_meters":3600,"station_id":"ce4bhs92rcd13ifvqi0g","pricing_plan_id":"free"},{"bike_id":"9a21bcb6-e2ab-4e2b-acca-2364e7fb74ce","system_id":"levelo_inurba_marseille","lat":43.297163,"lon":5.365866,"is_reserved":false,"is_disabled":false,"rental_uris":{"android":"levelo://app?vid=9a21bcb6-e2ab-4e2b-acca-2364e7fb74ce","ios":"levelo://app?vid=9a21bcb6-e2ab-4e2b-acca-2364e7fb74ce"},"vehicle_type_id":"4","last_reported":1700770048,"current_range_meters":20000,"station_id":"ce4bgn12rcd13ifvqbt0","pricing_plan_id":"free"},{"bike_id":"4d7509f5-9559-42ca-a60d-bef9e80f0981","system_id":"levelo_inurba_marseille","lat":43.299584,"lon":5.379154,"is_reserved":false,"is_disabled":false,"rental_uris":{"android":"levelo://app?vid=4d7509f5-9559-42ca-a60d-bef9e80f0981","ios":"levelo://app?vid=4d7509f5-9559-42ca-a60d-bef9e80f0981"},"vehicle_type_id":"4","last_reported":1700770048,"current_range_meters":0,"station_id":"","pricing_plan_id":"free"},{"bike_id":"9b08bd7e-5fb3-4e1b-9ddf-51fe2542d627","system_id":"levelo_inurba_marseille","lat":43.295956,"lon":5.36797,"is_reserved":false,"is_disabled":false,"rental_uris":{"android":"levelo://app?vid=9b08bd7e-5fb3-4e1b-9ddf-51fe2542d627","ios":"levelo://app?vid=9b08bd7e-5fb3-4e1b-9ddf-51fe2542d627"},"vehicle_type_id":"4","last_reported":1700770048,"current_range_meters":23200,"station_id":"ce4bgph2rcd13ifvqc2g","pricing_plan_id":"free"},{"bike_id":"e72675e7-4251-4e95-8bd4-b115c9657547","system_id":"levelo_inurba_marseille","lat":43.302008,"lon":5.394694,"is_reserved":false,"is_disabled":false,"rental_uris":{"android":"levelo://app?vid=e72675e7-4251-4e95-8bd4-b115c9657547","ios":"levelo://app?vid=e72675e7-4251-4e95-8bd4-b115c9657547"},"vehicle_type_id":"4","last_reported":1700770048,"current_range_meters":3600,"station_id":"ce4bh0p2rcd13ifvqd70","pricing_plan_id":"free"},{"bike_id":"ce134bc8-1078-4a15-b28e-d94d66dd997f","system_id":"levelo_inurba_marseille","lat":43.309589,"lon":5.390258,"is_reserved":false,"is_disabled":false,"rental_uris":{"android":"levelo://app?vid=ce134bc8-1078-4a15-b28e-d94d66dd997f","ios":"levelo://app?vid=ce134bc8-1078-4a15-b28e-d94d66dd997f"},"vehicle_type_id":"4","last_reported":1700770048,"current_range_meters":8000,"station_id":"ce4bgup2rcd13ifvqco0","pricing_plan_id":"free"},{"bike_id":"e870a805-2fbd-40ae-aeb8-108dc772ed5d","system_id":"levelo_inurba_marseille","lat":43.31751,"lon":5.39011,"is_reserved":false,"is_disabled":false,"rental_uris":{"android":"levelo://app?vid=e870a805-2fbd-40ae-aeb8-108dc772ed5d","ios":"levelo://app?vid=e870a805-2fbd-40ae-aeb8-108dc772ed5d"},"vehicle_type_id":"4","last_reported":1700770048,"current_range_meters":2800,"station_id":"ce4bhqp2rcd13ifvqhng","pricing_plan_id":"free"},{"bike_id":"a1bdb89d-3c72-4b37-88bf-c040491b8d68","system_id":"levelo_inurba_marseille","lat":43.317557,"lon":5.390173,"is_reserved":false,"is_disabled":false,"rental_uris":{"android":"levelo://app?vid=a1bdb89d-3c72-4b37-88bf-c040491b8d68","ios":"levelo://app?vid=a1bdb89d-3c72-4b37-88bf-c040491b8d68"},"vehicle_type_id":"4","last_reported":1700770048,"current_range_meters":21200,"station_id":"ce4bhqp2rcd13ifvqhng","pricing_plan_id":"free"},{"bike_id":"1f6376eb-e4ee-49ba-bf5d-83d5ef5dbeda","system_id":"levelo_inurba_marseille","lat":43.317557,"lon":5.390173,"is_reserved":false,"is_disabled":false,"rental_uris":{"android":"levelo://app?vid=1f6376eb-e4ee-49ba-bf5d-83d5ef5dbeda","ios":"levelo://app?vid=1f6376eb-e4ee-49ba-bf5d-83d5ef5dbeda"},"vehicle_type_id":"4","last_reported":1700770048,"current_range_meters":26000,"station_id":"ce4bhqp2rcd13ifvqhng","pricing_plan_id":"free"},{"bike_id":"b585059a-2ecf-4443-ba6b-655feb05ef32","system_id":"levelo_inurba_marseille","lat":43.298037,"lon":5.381066,"is_reserved":false,"is_disabled":false,"rental_uris":{"android":"levelo://app?vid=b585059a-2ecf-4443-ba6b-655feb05ef32","ios":"levelo://app?vid=b585059a-2ecf-4443-ba6b-655feb05ef32"},"vehicle_type_id":"4","last_reported":1700770048,"current_range_meters":14000,"station_id":"ce4bgip2rcd13ifvqbb0","pricing_plan_id":"free"},{"bike_id":"6b621983-5e9e-42f7-990d-ad5a093820d2","system_id":"levelo_inurba_marseille","lat":43.293801,"lon":5.363066,"is_reserved":false,"is_disabled":false,"rental_uris":{"android":"levelo://app?vid=6b621983-5e9e-42f7-990d-ad5a093820d2","ios":"levelo://app?vid=6b621983-5e9e-42f7-990d-ad5a093820d2"},"vehicle_type_id":"4","last_reported":1700770048,"current_range_meters":7200,"station_id":"","pricing_plan_id":"free"},{"bike_id":"59398d6a-1eaf-4e92-b0ad-03db71680ea9","system_id":"levelo_inurba_marseille","lat":43.32367,"lon":5.388836,"is_reserved":false,"is_disabled":false,"rental_uris":{"android":"levelo://app?vid=59398d6a-1eaf-4e92-b0ad-03db71680ea9","ios":"levelo://app?vid=59398d6a-1eaf-4e92-b0ad-03db71680ea9"},"vehicle_type_id":"4","last_reported":1700770048,"current_range_meters":4400,"station_id":"ce4bhqp2rcd13ifvqhog","pricing_plan_id":"free"},{"bike_id":"7afd8934-5f81-45c9-a76f-b64925ad77c9","system_id":"levelo_inurba_marseille","lat":43.293259,"lon":5.371586,"is_reserved":false,"is_disabled":false,"rental_uris":{"android":"levelo://app?vid=7afd8934-5f81-45c9-a76f-b64925ad77c9","ios":"levelo://app?vid=7afd8934-5f81-45c9-a76f-b64925ad77c9"},"vehicle_type_id":"4","last_reported":1700770048,"current_range_meters":8000,"station_id":"ce4bgh92rcd13ifvqb40","pricing_plan_id":"free"},{"bike_id":"745a97d4-f18c-4385-b3be-f6fea6689fd6","system_id":"levelo_inurba_marseille","lat":43.293259,"lon":5.371586,"is_reserved":false,"is_disabled":false,"rental_uris":{"android":"levelo://app?vid=745a97d4-f18c-4385-b3be-f6fea6689fd6","ios":"levelo://app?vid=745a97d4-f18c-4385-b3be-f6fea6689fd6"},"vehicle_type_id":"4","last_reported":1700770048,"current_range_meters":16800,"station_id":"ce4bgh92rcd13ifvqb40","pricing_plan_id":"free"},{"bike_id":"adb16020-48ec-4408-b636-33c4e023a286","system_id":"levelo_inurba_marseille","lat":43.292735,"lon":5.368401,"is_reserved":false,"is_disabled":false,"rental_uris":{"android":"levelo://app?vid=adb16020-48ec-4408-b636-33c4e023a286","ios":"levelo://app?vid=adb16020-48ec-4408-b636-33c4e023a286"},"vehicle_type_id":"4","last_reported":1700770048,"current_range_meters":13200,"station_id":"ce4bhbp2rcd13ifvqesg","pricing_plan_id":"free"},{"bike_id":"8aff805f-ce47-4008-8d99-44ffbf731b9b","system_id":"levelo_inurba_marseille","lat":43.305994,"lon":5.393687,"is_reserved":false,"is_disabled":false,"rental_uris":{"android":"levelo://app?vid=8aff805f-ce47-4008-8d99-44ffbf731b9b","ios":"levelo://app?vid=8aff805f-ce47-4008-8d99-44ffbf731b9b"},"vehicle_type_id":"4","last_reported":1700770048,"current_range_meters":21200,"station_id":"ce4bh0p2rcd13ifvqd80","pricing_plan_id":"free"},{"bike_id":"e8cf39db-9d53-4539-95ba-b0d69123ee91","system_id":"levelo_inurba_marseille","lat":43.305994,"lon":5.393687,"is_reserved":false,"is_disabled":false,"rental_uris":{"android":"levelo://app?vid=e8cf39db-9d53-4539-95ba-b0d69123ee91","ios":"levelo://app?vid=e8cf39db-9d53-4539-95ba-b0d69123ee91"},"vehicle_type_id":"4","last_reported":1700770048,"current_range_meters":20800,"station_id":"ce4bh0p2rcd13ifvqd80","pricing_plan_id":"free"},{"bike_id":"b664086b-eac2-4b9a-8068-eaed9265637d","system_id":"levelo_inurba_marseille","lat":43.29388,"lon":5.3787,"is_reserved":false,"is_disabled":false,"rental_uris":{"android":"levelo://app?vid=b664086b-eac2-4b9a-8068-eaed9265637d","ios":"levelo://app?vid=b664086b-eac2-4b9a-8068-eaed9265637d"},"vehicle_type_id":"4","last_reported":1700770048,"current_range_meters":4000,"station_id":"","pricing_plan_id":"free"},{"bike_id":"0ef144e2-55f7-441a-a8ec-6cedc25ee205","system_id":"levelo_inurba_marseille","lat":43.2936,"lon":5.37835,"is_reserved":false,"is_disabled":false,"rental_uris":{"android":"levelo://app?vid=0ef144e2-55f7-441a-a8ec-6cedc25ee205","ios":"levelo://app?vid=0ef144e2-55f7-441a-a8ec-6cedc25ee205"},"vehicle_type_id":"4","last_reported":1700770048,"current_range_meters":25600,"station_id":"ce4bgjh2rcd13ifvqbf0","pricing_plan_id":"free"},{"bike_id":"1fda354f-673f-4cef-a206-5a08dc819889","system_id":"levelo_inurba_marseille","lat":43.300852,"lon":5.390859,"is_reserved":false,"is_disabled":false,"rental_uris":{"android":"levelo://app?vid=1fda354f-673f-4cef-a206-5a08dc819889","ios":"levelo://app?vid=1fda354f-673f-4cef-a206-5a08dc819889"},"vehicle_type_id":"4","last_reported":1700770048,"current_range_meters":24400,"station_id":"ce4bh192rcd13ifvqdb0","pricing_plan_id":"free"},{"bike_id":"d5d2d132-b612-42ea-bf45-021f0a909089","system_id":"levelo_inurba_marseille","lat":43.303477,"lon":5.393027,"is_reserved":false,"is_disabled":false,"rental_uris":{"android":"levelo://app?vid=d5d2d132-b612-42ea-bf45-021f0a909089","ios":"levelo://app?vid=d5d2d132-b612-42ea-bf45-021f0a909089"},"vehicle_type_id":"4","last_reported":1700770048,"current_range_meters":0,"station_id":"","pricing_plan_id":"free"},{"bike_id":"a14998ea-b772-477e-a0db-bdc706a3eb57","system_id":"levelo_inurba_marseille","lat":43.292663,"lon":5.376389,"is_reserved":false,"is_disabled":false,"rental_uris":{"android":"levelo://app?vid=a14998ea-b772-477e-a0db-bdc706a3eb57","ios":"levelo://app?vid=a14998ea-b772-477e-a0db-bdc706a3eb57"},"vehicle_type_id":"4","last_reported":1700770048,"current_range_meters":2000,"station_id":"ce4bgi12rcd13ifvqb80","pricing_plan_id":"free"},{"bike_id":"ae7a1241-665c-4e19-9355-b79c90f99661","system_id":"levelo_inurba_marseille","lat":43.298764,"lon":5.388973,"is_reserved":false,"is_disabled":false,"rental_uris":{"android":"levelo://app?vid=ae7a1241-665c-4e19-9355-b79c90f99661","ios":"levelo://app?vid=ae7a1241-665c-4e19-9355-b79c90f99661"},"vehicle_type_id":"4","last_reported":1700770048,"current_range_meters":21600,"station_id":"ce4bh392rcd13ifvqdl0","pricing_plan_id":"free"},{"bike_id":"a584bb82-1fe0-44e8-bc3c-35d1bb75f86a","system_id":"levelo_inurba_marseille","lat":43.298764,"lon":5.388973,"is_reserved":false,"is_disabled":false,"rental_uris":{"android":"levelo://app?vid=a584bb82-1fe0-44e8-bc3c-35d1bb75f86a","ios":"levelo://app?vid=a584bb82-1fe0-44e8-bc3c-35d1bb75f86a"},"vehicle_type_id":"4","last_reported":1700770048,"current_range_meters":1200,"station_id":"ce4bh392rcd13ifvqdl0","pricing_plan_id":"free"},{"bike_id":"8c0d74f5-985e-4d99-9664-ef49de0074eb","system_id":"levelo_inurba_marseille","lat":43.291675,"lon":5.371583,"is_reserved":false,"is_disabled":false,"rental_uris":{"android":"levelo://app?vid=8c0d74f5-985e-4d99-9664-ef49de0074eb","ios":"levelo://app?vid=8c0d74f5-985e-4d99-9664-ef49de0074eb"},"vehicle_type_id":"4","last_reported":1700770048,"current_range_meters":3600,"station_id":"ce4bha92rcd13ifvqeh0","pricing_plan_id":"free"},{"bike_id":"0dbd9b1d-cb7e-485f-9c79-109aad4858fd","system_id":"levelo_inurba_marseille","lat":43.291671,"lon":5.371575,"is_reserved":false,"is_disabled":false,"rental_uris":{"android":"levelo://app?vid=0dbd9b1d-cb7e-485f-9c79-109aad4858fd","ios":"levelo://app?vid=0dbd9b1d-cb7e-485f-9c79-109aad4858fd"},"vehicle_type_id":"4","last_reported":1700770048,"current_range_meters":14000,"station_id":"ce4bha92rcd13ifvqeh0","pricing_plan_id":"free"},{"bike_id":"6ed509a3-2be7-4825-a920-a1a8cc1986cd","system_id":"levelo_inurba_marseille","lat":43.29163,"lon":5.3715,"is_reserved":false,"is_disabled":false,"rental_uris":{"android":"levelo://app?vid=6ed509a3-2be7-4825-a920-a1a8cc1986cd","ios":"levelo://app?vid=6ed509a3-2be7-4825-a920-a1a8cc1986cd"},"vehicle_type_id":"4","last_reported":1700770048,"current_range_meters":0,"station_id":"","pricing_plan_id":"free"},{"bike_id":"1d4213e4-e6eb-4c81-8721-fe22f361d186","system_id":"levelo_inurba_marseille","lat":43.313291,"lon":5.396838,"is_reserved":false,"is_disabled":false,"rental_uris":{"android":"levelo://app?vid=1d4213e4-e6eb-4c81-8721-fe22f361d186","ios":"levelo://app?vid=1d4213e4-e6eb-4c81-8721-fe22f361d186"},"vehicle_type_id":"4","last_reported":1700770048,"current_range_meters":13200,"station_id":"ce4bgvp2rcd13ifvqcu0","pricing_plan_id":"free"},{"bike_id":"2f1bfd2d-9692-47f4-b7ed-6a818948afc3","system_id":"levelo_inurba_marseille","lat":43.29193,"lon":5.35802,"is_reserved":false,"is_disabled":false,"rental_uris":{"android":"levelo://app?vid=2f1bfd2d-9692-47f4-b7ed-6a818948afc3","ios":"levelo://app?vid=2f1bfd2d-9692-47f4-b7ed-6a818948afc3"},"vehicle_type_id":"4","last_reported":1700770048,"current_range_meters":0,"station_id":"ce4bhb12rcd13ifvqel0","pricing_plan_id":"free"},{"bike_id":"d449de61-9601-45a0-b3f8-eda74045c90b","system_id":"levelo_inurba_marseille","lat":43.31329,"lon":5.396923,"is_reserved":false,"is_disabled":false,"rental_uris":{"android":"levelo://app?vid=d449de61-9601-45a0-b3f8-eda74045c90b","ios":"levelo://app?vid=d449de61-9601-45a0-b3f8-eda74045c90b"},"vehicle_type_id":"4","last_reported":1700770048,"current_range_meters":31200,"station_id":"ce4bgvp2rcd13ifvqcu0","pricing_plan_id":"free"},{"bike_id":"bfeda098-ec27-4ff7-ba82-cc314a7b5c10","system_id":"levelo_inurba_marseille","lat":43.31331,"lon":5.39694,"is_reserved":false,"is_disabled":false,"rental_uris":{"android":"levelo://app?vid=bfeda098-ec27-4ff7-ba82-cc314a7b5c10","ios":"levelo://app?vid=bfeda098-ec27-4ff7-ba82-cc314a7b5c10"},"vehicle_type_id":"4","last_reported":1700770048,"current_range_meters":18000,"station_id":"ce4bgvp2rcd13ifvqcu0","pricing_plan_id":"free"},{"bike_id":"26e807fd-59c1-46e5-ab9a-d4bbb6af95d0","system_id":"levelo_inurba_marseille","lat":43.31343,"lon":5.396977,"is_reserved":false,"is_disabled":false,"rental_uris":{"android":"levelo://app?vid=26e807fd-59c1-46e5-ab9a-d4bbb6af95d0","ios":"levelo://app?vid=26e807fd-59c1-46e5-ab9a-d4bbb6af95d0"},"vehicle_type_id":"4","last_reported":1700770048,"current_range_meters":30400,"station_id":"ce4bgvp2rcd13ifvqcu0","pricing_plan_id":"free"},{"bike_id":"1d10a1b1-d55f-4279-928a-9c6858f32ca9","system_id":"levelo_inurba_marseille","lat":43.33211,"lon":5.38112,"is_reserved":false,"is_disabled":false,"rental_uris":{"android":"levelo://app?vid=1d10a1b1-d55f-4279-928a-9c6858f32ca9","ios":"levelo://app?vid=1d10a1b1-d55f-4279-928a-9c6858f32ca9"},"vehicle_type_id":"4","last_reported":1700770048,"current_range_meters":0,"station_id":"","pricing_plan_id":"free"},{"bike_id":"40a682cf-d322-4cab-97e5-ca3f4393b246","system_id":"levelo_inurba_marseille","lat":43.29529,"lon":5.385581,"is_reserved":false,"is_disabled":false,"rental_uris":{"android":"levelo://app?vid=40a682cf-d322-4cab-97e5-ca3f4393b246","ios":"levelo://app?vid=40a682cf-d322-4cab-97e5-ca3f4393b246"},"vehicle_type_id":"4","last_reported":1700770048,"current_range_meters":6400,"station_id":"ce4bgih2rcd13ifvqba0","pricing_plan_id":"free"},{"bike_id":"8777e077-7f7c-4bd2-a0eb-f0be5875e830","system_id":"levelo_inurba_marseille","lat":43.290779,"lon":5.371482,"is_reserved":false,"is_disabled":false,"rental_uris":{"android":"levelo://app?vid=8777e077-7f7c-4bd2-a0eb-f0be5875e830","ios":"levelo://app?vid=8777e077-7f7c-4bd2-a0eb-f0be5875e830"},"vehicle_type_id":"4","last_reported":1700770048,"current_range_meters":17600,"station_id":"ce4bh5p2rcd13ifvqe4g","pricing_plan_id":"free"},{"bike_id":"f77a5cdd-72ba-4c95-87d1-bbde7c747aef","system_id":"levelo_inurba_marseille","lat":43.290624,"lon":5.359245,"is_reserved":false,"is_disabled":false,"rental_uris":{"android":"levelo://app?vid=f77a5cdd-72ba-4c95-87d1-bbde7c747aef","ios":"levelo://app?vid=f77a5cdd-72ba-4c95-87d1-bbde7c747aef"},"vehicle_type_id":"4","last_reported":1700770048,"current_range_meters":0,"station_id":"ce4bha92rcd13ifvqeg0","pricing_plan_id":"free"},{"bike_id":"353cfd9e-5057-4b08-bdfb-e420a95bfb56","system_id":"levelo_inurba_marseille","lat":43.290631,"lon":5.359244,"is_reserved":false,"is_disabled":false,"rental_uris":{"android":"levelo://app?vid=353cfd9e-5057-4b08-bdfb-e420a95bfb56","ios":"levelo://app?vid=353cfd9e-5057-4b08-bdfb-e420a95bfb56"},"vehicle_type_id":"4","last_reported":1700770048,"current_range_meters":30400,"station_id":"ce4bha92rcd13ifvqeg0","pricing_plan_id":"free"},{"bike_id":"31c1e1c2-82b6-4c90-8694-42a6a6b7d7b6","system_id":"levelo_inurba_marseille","lat":43.290631,"lon":5.359244,"is_reserved":false,"is_disabled":false,"rental_uris":{"android":"levelo://app?vid=31c1e1c2-82b6-4c90-8694-42a6a6b7d7b6","ios":"levelo://app?vid=31c1e1c2-82b6-4c90-8694-42a6a6b7d7b6"},"vehicle_type_id":"4","last_reported":1700770048,"current_range_meters":14000,"station_id":"ce4bha92rcd13ifvqeg0","pricing_plan_id":"free"},{"bike_id":"9af9e65c-78d2-4f65-92f0-e298b27e6c53","system_id":"levelo_inurba_marseille","lat":43.290327,"lon":5.375711,"is_reserved":false,"is_disabled":false,"rental_uris":{"android":"levelo://app?vid=9af9e65c-78d2-4f65-92f0-e298b27e6c53","ios":"levelo://app?vid=9af9e65c-78d2-4f65-92f0-e298b27e6c53"},"vehicle_type_id":"4","last_reported":1700770048,"current_range_meters":8000,"station_id":"ce4bh692rcd13ifvqe90","pricing_plan_id":"free"},{"bike_id":"3904790a-2f80-43ff-89be-c79bd1041db5","system_id":"levelo_inurba_marseille","lat":43.294153,"lon":5.386305,"is_reserved":false,"is_disabled":false,"rental_uris":{"android":"levelo://app?vid=3904790a-2f80-43ff-89be-c79bd1041db5","ios":"levelo://app?vid=3904790a-2f80-43ff-89be-c79bd1041db5"},"vehicle_type_id":"4","last_reported":1700770048,"current_range_meters":400,"station_id":"ce4bh2h2rcd13ifvqdh0","pricing_plan_id":"free"},{"bike_id":"18bfc9ea-e2dc-43dd-b624-4ef7f1445bab","system_id":"levelo_inurba_marseille","lat":43.29419,"lon":5.3863,"is_reserved":false,"is_disabled":false,"rental_uris":{"android":"levelo://app?vid=18bfc9ea-e2dc-43dd-b624-4ef7f1445bab","ios":"levelo://app?vid=18bfc9ea-e2dc-43dd-b624-4ef7f1445bab"},"vehicle_type_id":"4","last_reported":1700770048,"current_range_meters":0,"station_id":"ce4bh2h2rcd13ifvqdh0","pricing_plan_id":"free"},{"bike_id":"cdd3c0ee-1335-4c9a-a730-eb6a867fc7bd","system_id":"levelo_inurba_marseille","lat":43.290327,"lon":5.375711,"is_reserved":false,"is_disabled":false,"rental_uris":{"android":"levelo://app?vid=cdd3c0ee-1335-4c9a-a730-eb6a867fc7bd","ios":"levelo://app?vid=cdd3c0ee-1335-4c9a-a730-eb6a867fc7bd"},"vehicle_type_id":"4","last_reported":1700770048,"current_range_meters":10000,"station_id":"ce4bh692rcd13ifvqe90","pricing_plan_id":"free"},{"bike_id":"f21a1fbf-fa7d-4a50-b90d-104ef9cb43a3","system_id":"levelo_inurba_marseille","lat":43.289184,"lon":5.366408,"is_reserved":false,"is_disabled":false,"rental_uris":{"android":"levelo://app?vid=f21a1fbf-fa7d-4a50-b90d-104ef9cb43a3","ios":"levelo://app?vid=f21a1fbf-fa7d-4a50-b90d-104ef9cb43a3"},"vehicle_type_id":"4","last_reported":1700770048,"current_range_meters":0,"station_id":"ce4bhap2rcd13ifvqek0","pricing_plan_id":"free"},{"bike_id":"1d23d503-0610-40ea-9e9d-5f1b5aa2e0e1","system_id":"levelo_inurba_marseille","lat":43.289317,"lon":5.363873,"is_reserved":false,"is_disabled":false,"rental_uris":{"android":"levelo://app?vid=1d23d503-0610-40ea-9e9d-5f1b5aa2e0e1","ios":"levelo://app?vid=1d23d503-0610-40ea-9e9d-5f1b5aa2e0e1"},"vehicle_type_id":"4","last_reported":1700770048,"current_range_meters":11600,"station_id":"ce4bhc92rcd13ifvqetg","pricing_plan_id":"free"},{"bike_id":"c52fec84-ac80-4310-9828-e5df8ec6c70b","system_id":"levelo_inurba_marseille","lat":43.289468,"lon":5.363719,"is_reserved":false,"is_disabled":false,"rental_uris":{"android":"levelo://app?vid=c52fec84-ac80-4310-9828-e5df8ec6c70b","ios":"levelo://app?vid=c52fec84-ac80-4310-9828-e5df8ec6c70b"},"vehicle_type_id":"4","last_reported":1700770048,"current_range_meters":24000,"station_id":"ce4bhc92rcd13ifvqetg","pricing_plan_id":"free"},{"bike_id":"3657cdeb-04cd-4bc9-a76e-28478c225d35","system_id":"levelo_inurba_marseille","lat":43.304274,"lon":5.397513,"is_reserved":false,"is_disabled":false,"rental_uris":{"android":"levelo://app?vid=3657cdeb-04cd-4bc9-a76e-28478c225d35","ios":"levelo://app?vid=3657cdeb-04cd-4bc9-a76e-28478c225d35"},"vehicle_type_id":"4","last_reported":1700770048,"current_range_meters":0,"station_id":"ce4bh092rcd13ifvqd20","pricing_plan_id":"free"},{"bike_id":"27f1eb3d-4260-4e98-969e-a69235aaf8f1","system_id":"levelo_inurba_marseille","lat":43.290104,"lon":5.356111,"is_reserved":false,"is_disabled":false,"rental_uris":{"android":"levelo://app?vid=27f1eb3d-4260-4e98-969e-a69235aaf8f1","ios":"levelo://app?vid=27f1eb3d-4260-4e98-969e-a69235aaf8f1"},"vehicle_type_id":"4","last_reported":1700770048,"current_range_meters":12800,"station_id":"ce4bhb92rcd13ifvqen0","pricing_plan_id":"free"},{"bike_id":"9affd314-0c44-4942-9735-312093611a47","system_id":"levelo_inurba_marseille","lat":43.290104,"lon":5.356111,"is_reserved":false,"is_disabled":false,"rental_uris":{"android":"levelo://app?vid=9affd314-0c44-4942-9735-312093611a47","ios":"levelo://app?vid=9affd314-0c44-4942-9735-312093611a47"},"vehicle_type_id":"4","last_reported":1700770048,"current_range_meters":21600,"station_id":"ce4bhb92rcd13ifvqen0","pricing_plan_id":"free"},{"bike_id":"e585230a-53f5-4f7d-bf93-fe2d5c446e87","system_id":"levelo_inurba_marseille","lat":43.330442,"lon":5.389148,"is_reserved":false,"is_disabled":false,"rental_uris":{"android":"levelo://app?vid=e585230a-53f5-4f7d-bf93-fe2d5c446e87","ios":"levelo://app?vid=e585230a-53f5-4f7d-bf93-fe2d5c446e87"},"vehicle_type_id":"4","last_reported":1700770048,"current_range_meters":0,"station_id":"ce4bhr92rcd13ifvqhrg","pricing_plan_id":"free"},{"bike_id":"666012a3-a14a-4490-a888-c48f9a919f96","system_id":"levelo_inurba_marseille","lat":43.330442,"lon":5.389148,"is_reserved":false,"is_disabled":false,"rental_uris":{"android":"levelo://app?vid=666012a3-a14a-4490-a888-c48f9a919f96","ios":"levelo://app?vid=666012a3-a14a-4490-a888-c48f9a919f96"},"vehicle_type_id":"4","last_reported":1700770048,"current_range_meters":4800,"station_id":"ce4bhr92rcd13ifvqhrg","pricing_plan_id":"free"},{"bike_id":"d2468c84-97ba-4285-b0c1-4507b8b0e482","system_id":"levelo_inurba_marseille","lat":43.330442,"lon":5.389148,"is_reserved":false,"is_disabled":false,"rental_uris":{"android":"levelo://app?vid=d2468c84-97ba-4285-b0c1-4507b8b0e482","ios":"levelo://app?vid=d2468c84-97ba-4285-b0c1-4507b8b0e482"},"vehicle_type_id":"4","last_reported":1700770048,"current_range_meters":9600,"station_id":"ce4bhr92rcd13ifvqhrg","pricing_plan_id":"free"},{"bike_id":"9f5267b0-841d-4aab-bf38-fa590af7c829","system_id":"levelo_inurba_marseille","lat":43.290995,"lon":5.381361,"is_reserved":false,"is_disabled":false,"rental_uris":{"android":"levelo://app?vid=9f5267b0-841d-4aab-bf38-fa590af7c829","ios":"levelo://app?vid=9f5267b0-841d-4aab-bf38-fa590af7c829"},"vehicle_type_id":"4","last_reported":1700770048,"current_range_meters":12000,"station_id":"ce4bh512rcd13ifvqe2g","pricing_plan_id":"free"},{"bike_id":"4cf94302-1f5f-4c80-86b4-94673dae7d86","system_id":"levelo_inurba_marseille","lat":43.290104,"lon":5.356111,"is_reserved":false,"is_disabled":false,"rental_uris":{"android":"levelo://app?vid=4cf94302-1f5f-4c80-86b4-94673dae7d86","ios":"levelo://app?vid=4cf94302-1f5f-4c80-86b4-94673dae7d86"},"vehicle_type_id":"4","last_reported":1700770048,"current_range_meters":16000,"station_id":"ce4bhb92rcd13ifvqen0","pricing_plan_id":"free"},{"bike_id":"d1ff63c4-9260-44da-a729-87eeef62e6b1","system_id":"levelo_inurba_marseille","lat":43.29791,"lon":5.39341,"is_reserved":false,"is_disabled":false,"rental_uris":{"android":"levelo://app?vid=d1ff63c4-9260-44da-a729-87eeef62e6b1","ios":"levelo://app?vid=d1ff63c4-9260-44da-a729-87eeef62e6b1"},"vehicle_type_id":"4","last_reported":1700770048,"current_range_meters":9600,"station_id":"chh1huq6cuj3fo74tm60","pricing_plan_id":"free"},{"bike_id":"4c0b649c-a929-433c-a762-4dd71d575c5e","system_id":"levelo_inurba_marseille","lat":43.29778,"lon":5.39328,"is_reserved":false,"is_disabled":false,"rental_uris":{"android":"levelo://app?vid=4c0b649c-a929-433c-a762-4dd71d575c5e","ios":"levelo://app?vid=4c0b649c-a929-433c-a762-4dd71d575c5e"},"vehicle_type_id":"4","last_reported":1700770048,"current_range_meters":11600,"station_id":"chh1huq6cuj3fo74tm60","pricing_plan_id":"free"},{"bike_id":"9ddbee51-5593-43a9-8fd5-a503867c49ea","system_id":"levelo_inurba_marseille","lat":43.29788,"lon":5.3934,"is_reserved":false,"is_disabled":false,"rental_uris":{"android":"levelo://app?vid=9ddbee51-5593-43a9-8fd5-a503867c49ea","ios":"levelo://app?vid=9ddbee51-5593-43a9-8fd5-a503867c49ea"},"vehicle_type_id":"4","last_reported":1700770048,"current_range_meters":4000,"station_id":"chh1huq6cuj3fo74tm60","pricing_plan_id":"free"},{"bike_id":"abbb8182-1a78-4d70-b671-161ac834f0fc","system_id":"levelo_inurba_marseille","lat":43.33102,"lon":5.38912,"is_reserved":false,"is_disabled":false,"rental_uris":{"android":"levelo://app?vid=abbb8182-1a78-4d70-b671-161ac834f0fc","ios":"levelo://app?vid=abbb8182-1a78-4d70-b671-161ac834f0fc"},"vehicle_type_id":"4","last_reported":1700770048,"current_range_meters":0,"station_id":"","pricing_plan_id":"free"},{"bike_id":"05a66525-a622-4ae0-bcfd-3bdc44028202","system_id":"levelo_inurba_marseille","lat":43.28856,"lon":5.358371,"is_reserved":false,"is_disabled":false,"rental_uris":{"android":"levelo://app?vid=05a66525-a622-4ae0-bcfd-3bdc44028202","ios":"levelo://app?vid=05a66525-a622-4ae0-bcfd-3bdc44028202"},"vehicle_type_id":"4","last_reported":1700770048,"current_range_meters":5200,"station_id":"ce4bhb12rcd13ifvqem0","pricing_plan_id":"free"},{"bike_id":"f5593e47-2a04-4df6-8f74-6e7fd26c90fb","system_id":"levelo_inurba_marseille","lat":43.28856,"lon":5.358371,"is_reserved":false,"is_disabled":false,"rental_uris":{"android":"levelo://app?vid=f5593e47-2a04-4df6-8f74-6e7fd26c90fb","ios":"levelo://app?vid=f5593e47-2a04-4df6-8f74-6e7fd26c90fb"},"vehicle_type_id":"4","last_reported":1700770048,"current_range_meters":14000,"station_id":"ce4bhb12rcd13ifvqem0","pricing_plan_id":"free"},{"bike_id":"f76cc349-77e9-4547-8818-3350d932e1ad","system_id":"levelo_inurba_marseille","lat":43.312609,"lon":5.401662,"is_reserved":false,"is_disabled":false,"rental_uris":{"android":"levelo://app?vid=f76cc349-77e9-4547-8818-3350d932e1ad","ios":"levelo://app?vid=f76cc349-77e9-4547-8818-3350d932e1ad"},"vehicle_type_id":"4","last_reported":1700770048,"current_range_meters":25600,"station_id":"ce4bh092rcd13ifvqd30","pricing_plan_id":"free"},{"bike_id":"085f0238-7f54-4688-b629-c71b779f31f4","system_id":"levelo_inurba_marseille","lat":43.30927,"lon":5.4014,"is_reserved":false,"is_disabled":false,"rental_uris":{"android":"levelo://app?vid=085f0238-7f54-4688-b629-c71b779f31f4","ios":"levelo://app?vid=085f0238-7f54-4688-b629-c71b779f31f4"},"vehicle_type_id":"4","last_reported":1700770048,"current_range_meters":30400,"station_id":"ce4bgvp2rcd13ifvqct0","pricing_plan_id":"free"},{"bike_id":"82ae97fc-979a-4993-bc01-825a21f28d14","system_id":"levelo_inurba_marseille","lat":43.312609,"lon":5.401662,"is_reserved":false,"is_disabled":false,"rental_uris":{"android":"levelo://app?vid=82ae97fc-979a-4993-bc01-825a21f28d14","ios":"levelo://app?vid=82ae97fc-979a-4993-bc01-825a21f28d14"},"vehicle_type_id":"4","last_reported":1700770048,"current_range_meters":2800,"station_id":"ce4bh092rcd13ifvqd30","pricing_plan_id":"free"},{"bike_id":"cc55ea24-fcb7-4a74-a282-895782851328","system_id":"levelo_inurba_marseille","lat":43.312609,"lon":5.401662,"is_reserved":false,"is_disabled":false,"rental_uris":{"android":"levelo://app?vid=cc55ea24-fcb7-4a74-a282-895782851328","ios":"levelo://app?vid=cc55ea24-fcb7-4a74-a282-895782851328"},"vehicle_type_id":"4","last_reported":1700770048,"current_range_meters":18000,"station_id":"ce4bh092rcd13ifvqd30","pricing_plan_id":"free"},{"bike_id":"74d7130b-ffd1-43cf-9cdc-8c41faac6054","system_id":"levelo_inurba_marseille","lat":43.30924,"lon":5.40142,"is_reserved":false,"is_disabled":false,"rental_uris":{"android":"levelo://app?vid=74d7130b-ffd1-43cf-9cdc-8c41faac6054","ios":"levelo://app?vid=74d7130b-ffd1-43cf-9cdc-8c41faac6054"},"vehicle_type_id":"4","last_reported":1700770048,"current_range_meters":0,"station_id":"ce4bgvp2rcd13ifvqct0","pricing_plan_id":"free"},{"bike_id":"0f6ccdb4-345a-40fb-bff0-73e32355a564","system_id":"levelo_inurba_marseille","lat":43.30933,"lon":5.40152,"is_reserved":false,"is_disabled":false,"rental_uris":{"android":"levelo://app?vid=0f6ccdb4-345a-40fb-bff0-73e32355a564","ios":"levelo://app?vid=0f6ccdb4-345a-40fb-bff0-73e32355a564"},"vehicle_type_id":"4","last_reported":1700770048,"current_range_meters":24800,"station_id":"ce4bgvp2rcd13ifvqct0","pricing_plan_id":"free"},{"bike_id":"524d50fc-a595-49ba-ada8-d050d49d717b","system_id":"levelo_inurba_marseille","lat":43.306412,"lon":5.401035,"is_reserved":false,"is_disabled":false,"rental_uris":{"android":"levelo://app?vid=524d50fc-a595-49ba-ada8-d050d49d717b","ios":"levelo://app?vid=524d50fc-a595-49ba-ada8-d050d49d717b"},"vehicle_type_id":"4","last_reported":1700770048,"current_range_meters":5600,"station_id":"ce4bh112rcd13ifvqda0","pricing_plan_id":"free"},{"bike_id":"a893e8a4-4ad4-4559-9b44-43a3796f5654","system_id":"levelo_inurba_marseille","lat":43.3376,"lon":5.37492,"is_reserved":false,"is_disabled":false,"rental_uris":{"android":"levelo://app?vid=a893e8a4-4ad4-4559-9b44-43a3796f5654","ios":"levelo://app?vid=a893e8a4-4ad4-4559-9b44-43a3796f5654"},"vehicle_type_id":"4","last_reported":1700770048,"current_range_meters":25200,"station_id":"","pricing_plan_id":"free"},{"bike_id":"06f6eab3-5311-4b17-997a-27d55d425723","system_id":"levelo_inurba_marseille","lat":43.306412,"lon":5.401035,"is_reserved":false,"is_disabled":false,"rental_uris":{"android":"levelo://app?vid=06f6eab3-5311-4b17-997a-27d55d425723","ios":"levelo://app?vid=06f6eab3-5311-4b17-997a-27d55d425723"},"vehicle_type_id":"4","last_reported":1700770048,"current_range_meters":28800,"station_id":"ce4bh112rcd13ifvqda0","pricing_plan_id":"free"},{"bike_id":"e493809e-949d-4125-b9a6-ed9ded73b776","system_id":"levelo_inurba_marseille","lat":43.306412,"lon":5.401035,"is_reserved":false,"is_disabled":false,"rental_uris":{"android":"levelo://app?vid=e493809e-949d-4125-b9a6-ed9ded73b776","ios":"levelo://app?vid=e493809e-949d-4125-b9a6-ed9ded73b776"},"vehicle_type_id":"4","last_reported":1700770048,"current_range_meters":14000,"station_id":"ce4bh112rcd13ifvqda0","pricing_plan_id":"free"},{"bike_id":"bad9a012-cf16-41fc-bd66-af08a39e52f2","system_id":"levelo_inurba_marseille","lat":43.30642,"lon":5.401031,"is_reserved":false,"is_disabled":false,"rental_uris":{"android":"levelo://app?vid=bad9a012-cf16-41fc-bd66-af08a39e52f2","ios":"levelo://app?vid=bad9a012-cf16-41fc-bd66-af08a39e52f2"},"vehicle_type_id":"4","last_reported":1700770048,"current_range_meters":0,"station_id":"ce4bh112rcd13ifvqda0","pricing_plan_id":"free"},{"bike_id":"f2bc1aff-0b30-40ca-8773-002eb566e579","system_id":"levelo_inurba_marseille","lat":43.28727,"lon":5.36078,"is_reserved":false,"is_disabled":false,"rental_uris":{"android":"levelo://app?vid=f2bc1aff-0b30-40ca-8773-002eb566e579","ios":"levelo://app?vid=f2bc1aff-0b30-40ca-8773-002eb566e579"},"vehicle_type_id":"4","last_reported":1700770048,"current_range_meters":8400,"station_id":"cki0cbj6b192h4jlfktg","pricing_plan_id":"free"},{"bike_id":"534b8676-616c-4f89-be24-e3f16ca89c06","system_id":"levelo_inurba_marseille","lat":43.28727,"lon":5.36078,"is_reserved":false,"is_disabled":false,"rental_uris":{"android":"levelo://app?vid=534b8676-616c-4f89-be24-e3f16ca89c06","ios":"levelo://app?vid=534b8676-616c-4f89-be24-e3f16ca89c06"},"vehicle_type_id":"4","last_reported":1700770048,"current_range_meters":10400,"station_id":"cki0cbj6b192h4jlfktg","pricing_plan_id":"free"},{"bike_id":"e1df2356-aaaf-4991-87ee-7d31fd9393fb","system_id":"levelo_inurba_marseille","lat":43.298681,"lon":5.397225,"is_reserved":false,"is_disabled":false,"rental_uris":{"android":"levelo://app?vid=e1df2356-aaaf-4991-87ee-7d31fd9393fb","ios":"levelo://app?vid=e1df2356-aaaf-4991-87ee-7d31fd9393fb"},"vehicle_type_id":"4","last_reported":1700770048,"current_range_meters":13600,"station_id":"ce4bh0h2rcd13ifvqd50","pricing_plan_id":"free"},{"bike_id":"0fdb01a2-ad1b-4de1-8b93-3b031de1e754","system_id":"levelo_inurba_marseille","lat":43.286961,"lon":5.373785,"is_reserved":false,"is_disabled":false,"rental_uris":{"android":"levelo://app?vid=0fdb01a2-ad1b-4de1-8b93-3b031de1e754","ios":"levelo://app?vid=0fdb01a2-ad1b-4de1-8b93-3b031de1e754"},"vehicle_type_id":"4","last_reported":1700770048,"current_range_meters":22000,"station_id":"ce4bh3p2rcd13ifvqdq0","pricing_plan_id":"free"},{"bike_id":"06ece8ea-fa9f-4d70-aeb3-787d9042a7f3","system_id":"levelo_inurba_marseille","lat":43.286593,"lon":5.363346,"is_reserved":false,"is_disabled":false,"rental_uris":{"android":"levelo://app?vid=06ece8ea-fa9f-4d70-aeb3-787d9042a7f3","ios":"levelo://app?vid=06ece8ea-fa9f-4d70-aeb3-787d9042a7f3"},"vehicle_type_id":"4","last_reported":1700770048,"current_range_meters":3600,"station_id":"ce4bhah2rcd13ifvqej0","pricing_plan_id":"free"},{"bike_id":"8c68fe79-df8c-464a-b88a-9f9e7304a23e","system_id":"levelo_inurba_marseille","lat":43.286961,"lon":5.373785,"is_reserved":false,"is_disabled":false,"rental_uris":{"android":"levelo://app?vid=8c68fe79-df8c-464a-b88a-9f9e7304a23e","ios":"levelo://app?vid=8c68fe79-df8c-464a-b88a-9f9e7304a23e"},"vehicle_type_id":"4","last_reported":1700770048,"current_range_meters":14400,"station_id":"ce4bh3p2rcd13ifvqdq0","pricing_plan_id":"free"},{"bike_id":"6f30825c-5792-4c32-9d61-244b62576dc0","system_id":"levelo_inurba_marseille","lat":43.286961,"lon":5.373785,"is_reserved":false,"is_disabled":false,"rental_uris":{"android":"levelo://app?vid=6f30825c-5792-4c32-9d61-244b62576dc0","ios":"levelo://app?vid=6f30825c-5792-4c32-9d61-244b62576dc0"},"vehicle_type_id":"4","last_reported":1700770048,"current_range_meters":0,"station_id":"ce4bh3p2rcd13ifvqdq0","pricing_plan_id":"free"},{"bike_id":"971a503b-ffed-4f41-98d0-0119212786d5","system_id":"levelo_inurba_marseille","lat":43.295194,"lon":5.39397,"is_reserved":false,"is_disabled":false,"rental_uris":{"android":"levelo://app?vid=971a503b-ffed-4f41-98d0-0119212786d5","ios":"levelo://app?vid=971a503b-ffed-4f41-98d0-0119212786d5"},"vehicle_type_id":"4","last_reported":1700770048,"current_range_meters":17600,"station_id":"ce4bh292rcd13ifvqdf0","pricing_plan_id":"free"},{"bike_id":"464da38e-eb77-4148-abef-f00979cc66b9","system_id":"levelo_inurba_marseille","lat":43.28934,"lon":5.38393,"is_reserved":false,"is_disabled":false,"rental_uris":{"android":"levelo://app?vid=464da38e-eb77-4148-abef-f00979cc66b9","ios":"levelo://app?vid=464da38e-eb77-4148-abef-f00979cc66b9"},"vehicle_type_id":"4","last_reported":1700770048,"current_range_meters":9200,"station_id":"ce4bh612rcd13ifvqe6g","pricing_plan_id":"free"},{"bike_id":"5d94ae9f-2e7a-4a8f-946d-b8f54508854b","system_id":"levelo_inurba_marseille","lat":43.289307,"lon":5.38406,"is_reserved":false,"is_disabled":false,"rental_uris":{"android":"levelo://app?vid=5d94ae9f-2e7a-4a8f-946d-b8f54508854b","ios":"levelo://app?vid=5d94ae9f-2e7a-4a8f-946d-b8f54508854b"},"vehicle_type_id":"4","last_reported":1700770048,"current_range_meters":6800,"station_id":"ce4bh612rcd13ifvqe6g","pricing_plan_id":"free"},{"bike_id":"be5b6b9b-7304-4ac0-ae3b-1c1b601e2986","system_id":"levelo_inurba_marseille","lat":43.28925,"lon":5.38393,"is_reserved":false,"is_disabled":false,"rental_uris":{"android":"levelo://app?vid=be5b6b9b-7304-4ac0-ae3b-1c1b601e2986","ios":"levelo://app?vid=be5b6b9b-7304-4ac0-ae3b-1c1b601e2986"},"vehicle_type_id":"4","last_reported":1700770048,"current_range_meters":16800,"station_id":"ce4bh612rcd13ifvqe6g","pricing_plan_id":"free"},{"bike_id":"28436080-35aa-45e5-9650-188872e75bec","system_id":"levelo_inurba_marseille","lat":43.289307,"lon":5.38406,"is_reserved":false,"is_disabled":false,"rental_uris":{"android":"levelo://app?vid=28436080-35aa-45e5-9650-188872e75bec","ios":"levelo://app?vid=28436080-35aa-45e5-9650-188872e75bec"},"vehicle_type_id":"4","last_reported":1700770048,"current_range_meters":15200,"station_id":"ce4bh612rcd13ifvqe6g","pricing_plan_id":"free"},{"bike_id":"af00a1ef-e70b-4296-9c25-84c5f063d0be","system_id":"levelo_inurba_marseille","lat":43.30236,"lon":5.40067,"is_reserved":false,"is_disabled":false,"rental_uris":{"android":"levelo://app?vid=af00a1ef-e70b-4296-9c25-84c5f063d0be","ios":"levelo://app?vid=af00a1ef-e70b-4296-9c25-84c5f063d0be"},"vehicle_type_id":"4","last_reported":1700770048,"current_range_meters":0,"station_id":"ce4bgvh2rcd13ifvqcs0","pricing_plan_id":"free"},{"bike_id":"fe77c5a5-d089-4e74-b016-4ede21608de4","system_id":"levelo_inurba_marseille","lat":43.285856,"lon":5.350771,"is_reserved":false,"is_disabled":false,"rental_uris":{"android":"levelo://app?vid=fe77c5a5-d089-4e74-b016-4ede21608de4","ios":"levelo://app?vid=fe77c5a5-d089-4e74-b016-4ede21608de4"},"vehicle_type_id":"4","last_reported":1700770048,"current_range_meters":14400,"station_id":"ce4bhch2rcd13ifvqeug","pricing_plan_id":"free"},{"bike_id":"16abecde-ec62-4a3d-aff9-1c008ffdc734","system_id":"levelo_inurba_marseille","lat":43.284538,"lon":5.358657,"is_reserved":false,"is_disabled":false,"rental_uris":{"android":"levelo://app?vid=16abecde-ec62-4a3d-aff9-1c008ffdc734","ios":"levelo://app?vid=16abecde-ec62-4a3d-aff9-1c008ffdc734"},"vehicle_type_id":"4","last_reported":1700770048,"current_range_meters":0,"station_id":"ce4bhah2rcd13ifvqei0","pricing_plan_id":"free"},{"bike_id":"3cd4239f-6e78-4d2b-b8ba-cb112706bc44","system_id":"levelo_inurba_marseille","lat":43.28457,"lon":5.35895,"is_reserved":false,"is_disabled":false,"rental_uris":{"android":"levelo://app?vid=3cd4239f-6e78-4d2b-b8ba-cb112706bc44","ios":"levelo://app?vid=3cd4239f-6e78-4d2b-b8ba-cb112706bc44"},"vehicle_type_id":"4","last_reported":1700770048,"current_range_meters":0,"station_id":"ce4bhah2rcd13ifvqei0","pricing_plan_id":"free"},{"bike_id":"92f11fe4-e8f2-4969-82f7-775d24eca8e2","system_id":"levelo_inurba_marseille","lat":43.285856,"lon":5.350771,"is_reserved":false,"is_disabled":false,"rental_uris":{"android":"levelo://app?vid=92f11fe4-e8f2-4969-82f7-775d24eca8e2","ios":"levelo://app?vid=92f11fe4-e8f2-4969-82f7-775d24eca8e2"},"vehicle_type_id":"4","last_reported":1700770048,"current_range_meters":0,"station_id":"ce4bhch2rcd13ifvqeug","pricing_plan_id":"free"},{"bike_id":"594c91a6-c01c-43c6-8984-434e5fac7294","system_id":"levelo_inurba_marseille","lat":43.28616,"lon":5.351036,"is_reserved":false,"is_disabled":false,"rental_uris":{"android":"levelo://app?vid=594c91a6-c01c-43c6-8984-434e5fac7294","ios":"levelo://app?vid=594c91a6-c01c-43c6-8984-434e5fac7294"},"vehicle_type_id":"4","last_reported":1700770048,"current_range_meters":2000,"station_id":"ce4bhch2rcd13ifvqeug","pricing_plan_id":"free"},{"bike_id":"a549040f-0e8b-4901-8ea0-6e66b2cb377f","system_id":"levelo_inurba_marseille","lat":43.285856,"lon":5.350771,"is_reserved":false,"is_disabled":false,"rental_uris":{"android":"levelo://app?vid=a549040f-0e8b-4901-8ea0-6e66b2cb377f","ios":"levelo://app?vid=a549040f-0e8b-4901-8ea0-6e66b2cb377f"},"vehicle_type_id":"4","last_reported":1700770048,"current_range_meters":21600,"station_id":"ce4bhch2rcd13ifvqeug","pricing_plan_id":"free"},{"bike_id":"adbd441f-44c4-4168-877a-9278b4bd7ceb","system_id":"levelo_inurba_marseille","lat":43.33151,"lon":5.39772,"is_reserved":false,"is_disabled":false,"rental_uris":{"android":"levelo://app?vid=adbd441f-44c4-4168-877a-9278b4bd7ceb","ios":"levelo://app?vid=adbd441f-44c4-4168-877a-9278b4bd7ceb"},"vehicle_type_id":"4","last_reported":1700770048,"current_range_meters":16400,"station_id":"","pricing_plan_id":"free"},{"bike_id":"05831655-efec-459b-96ed-d106e64ad9a7","system_id":"levelo_inurba_marseille","lat":43.286595,"lon":5.386795,"is_reserved":false,"is_disabled":false,"rental_uris":{"android":"levelo://app?vid=05831655-efec-459b-96ed-d106e64ad9a7","ios":"levelo://app?vid=05831655-efec-459b-96ed-d106e64ad9a7"},"vehicle_type_id":"4","last_reported":1700770048,"current_range_meters":29600,"station_id":"ce4bh492rcd13ifvqdug","pricing_plan_id":"free"},{"bike_id":"46364cf3-6683-4b56-941c-8a1e60285cc4","system_id":"levelo_inurba_marseille","lat":43.319179,"lon":5.407725,"is_reserved":false,"is_disabled":false,"rental_uris":{"android":"levelo://app?vid=46364cf3-6683-4b56-941c-8a1e60285cc4","ios":"levelo://app?vid=46364cf3-6683-4b56-941c-8a1e60285cc4"},"vehicle_type_id":"4","last_reported":1700770048,"current_range_meters":13600,"station_id":"ce4bhq12rcd13ifvqhig","pricing_plan_id":"free"},{"bike_id":"5e4a9847-b43e-4573-ba96-8a7585faa130","system_id":"levelo_inurba_marseille","lat":43.323464,"lon":5.406297,"is_reserved":false,"is_disabled":false,"rental_uris":{"android":"levelo://app?vid=5e4a9847-b43e-4573-ba96-8a7585faa130","ios":"levelo://app?vid=5e4a9847-b43e-4573-ba96-8a7585faa130"},"vehicle_type_id":"4","last_reported":1700770048,"current_range_meters":20800,"station_id":"ce4bhq92rcd13ifvqhjg","pricing_plan_id":"free"},{"bike_id":"d9785b0c-0523-4b8b-9f28-f29210b1a5eb","system_id":"levelo_inurba_marseille","lat":43.323464,"lon":5.406297,"is_reserved":false,"is_disabled":false,"rental_uris":{"android":"levelo://app?vid=d9785b0c-0523-4b8b-9f28-f29210b1a5eb","ios":"levelo://app?vid=d9785b0c-0523-4b8b-9f28-f29210b1a5eb"},"vehicle_type_id":"4","last_reported":1700770048,"current_range_meters":27600,"station_id":"ce4bhq92rcd13ifvqhjg","pricing_plan_id":"free"},{"bike_id":"f6c551ce-5236-4267-998c-05d271ae4c4b","system_id":"levelo_inurba_marseille","lat":43.28488,"lon":5.38416,"is_reserved":false,"is_disabled":false,"rental_uris":{"android":"levelo://app?vid=f6c551ce-5236-4267-998c-05d271ae4c4b","ios":"levelo://app?vid=f6c551ce-5236-4267-998c-05d271ae4c4b"},"vehicle_type_id":"4","last_reported":1700770048,"current_range_meters":3600,"station_id":"ce4bh512rcd13ifvqe3g","pricing_plan_id":"free"},{"bike_id":"399c9473-15db-4bb9-b065-797fd8bdd942","system_id":"levelo_inurba_marseille","lat":43.28481,"lon":5.38408,"is_reserved":false,"is_disabled":false,"rental_uris":{"android":"levelo://app?vid=399c9473-15db-4bb9-b065-797fd8bdd942","ios":"levelo://app?vid=399c9473-15db-4bb9-b065-797fd8bdd942"},"vehicle_type_id":"4","last_reported":1700770048,"current_range_meters":14000,"station_id":"ce4bh512rcd13ifvqe3g","pricing_plan_id":"free"},{"bike_id":"4d0b1580-8837-439d-ab8f-ad2c1eca4e38","system_id":"levelo_inurba_marseille","lat":43.28471,"lon":5.38403,"is_reserved":false,"is_disabled":false,"rental_uris":{"android":"levelo://app?vid=4d0b1580-8837-439d-ab8f-ad2c1eca4e38","ios":"levelo://app?vid=4d0b1580-8837-439d-ab8f-ad2c1eca4e38"},"vehicle_type_id":"4","last_reported":1700770048,"current_range_meters":1200,"station_id":"ce4bh512rcd13ifvqe3g","pricing_plan_id":"free"},{"bike_id":"e5b0bfb0-2b79-481f-bea6-c48f741f69c9","system_id":"levelo_inurba_marseille","lat":43.29795,"lon":5.404086,"is_reserved":false,"is_disabled":false,"rental_uris":{"android":"levelo://app?vid=e5b0bfb0-2b79-481f-bea6-c48f741f69c9","ios":"levelo://app?vid=e5b0bfb0-2b79-481f-bea6-c48f741f69c9"},"vehicle_type_id":"4","last_reported":1700770048,"current_range_meters":0,"station_id":"ce4bh112rcd13ifvqd90","pricing_plan_id":"free"},{"bike_id":"bd1920b9-04c7-4af7-8a30-836df57569b7","system_id":"levelo_inurba_marseille","lat":43.288501,"lon":5.393087,"is_reserved":false,"is_disabled":false,"rental_uris":{"android":"levelo://app?vid=bd1920b9-04c7-4af7-8a30-836df57569b7","ios":"levelo://app?vid=bd1920b9-04c7-4af7-8a30-836df57569b7"},"vehicle_type_id":"4","last_reported":1700770048,"current_range_meters":800,"station_id":"ce4bh2p2rcd13ifvqdi0","pricing_plan_id":"free"},{"bike_id":"b4bc6c19-20e6-4b1e-b989-40d4ba171e93","system_id":"levelo_inurba_marseille","lat":43.334307,"lon":5.39758,"is_reserved":false,"is_disabled":false,"rental_uris":{"android":"levelo://app?vid=b4bc6c19-20e6-4b1e-b989-40d4ba171e93","ios":"levelo://app?vid=b4bc6c19-20e6-4b1e-b989-40d4ba171e93"},"vehicle_type_id":"4","last_reported":1700770048,"current_range_meters":7200,"station_id":"","pricing_plan_id":"free"},{"bike_id":"e2284003-4e46-4e0a-93e7-73d05c3666d9","system_id":"levelo_inurba_marseille","lat":43.33479,"lon":5.39788,"is_reserved":false,"is_disabled":false,"rental_uris":{"android":"levelo://app?vid=e2284003-4e46-4e0a-93e7-73d05c3666d9","ios":"levelo://app?vid=e2284003-4e46-4e0a-93e7-73d05c3666d9"},"vehicle_type_id":"4","last_reported":1700770048,"current_range_meters":25600,"station_id":"","pricing_plan_id":"free"},{"bike_id":"e72ec90d-540b-4e83-88b5-e5e7f03c5685","system_id":"levelo_inurba_marseille","lat":43.292724,"lon":5.401131,"is_reserved":false,"is_disabled":false,"rental_uris":{"android":"levelo://app?vid=e72ec90d-540b-4e83-88b5-e5e7f03c5685","ios":"levelo://app?vid=e72ec90d-540b-4e83-88b5-e5e7f03c5685"},"vehicle_type_id":"4","last_reported":1700770048,"current_range_meters":8400,"station_id":"ce4bh312rcd13ifvqdk0","pricing_plan_id":"free"},{"bike_id":"1e189e9b-0c4e-4ae4-9b22-a27e0cdb447f","system_id":"levelo_inurba_marseille","lat":43.283578,"lon":5.386118,"is_reserved":false,"is_disabled":false,"rental_uris":{"android":"levelo://app?vid=1e189e9b-0c4e-4ae4-9b22-a27e0cdb447f","ios":"levelo://app?vid=1e189e9b-0c4e-4ae4-9b22-a27e0cdb447f"},"vehicle_type_id":"4","last_reported":1700770048,"current_range_meters":4800,"station_id":"ce4bh492rcd13ifvqdvg","pricing_plan_id":"free"},{"bike_id":"d3563ad8-da2c-464a-83a9-df1757509cf7","system_id":"levelo_inurba_marseille","lat":43.280382,"lon":5.369291,"is_reserved":false,"is_disabled":false,"rental_uris":{"android":"levelo://app?vid=d3563ad8-da2c-464a-83a9-df1757509cf7","ios":"levelo://app?vid=d3563ad8-da2c-464a-83a9-df1757509cf7"},"vehicle_type_id":"4","last_reported":1700770048,"current_range_meters":15600,"station_id":"ce4bha12rcd13ifvqef0","pricing_plan_id":"free"},{"bike_id":"967f8413-b41c-4408-a916-4be19bbef8c6","system_id":"levelo_inurba_marseille","lat":43.280382,"lon":5.369291,"is_reserved":false,"is_disabled":false,"rental_uris":{"android":"levelo://app?vid=967f8413-b41c-4408-a916-4be19bbef8c6","ios":"levelo://app?vid=967f8413-b41c-4408-a916-4be19bbef8c6"},"vehicle_type_id":"4","last_reported":1700770048,"current_range_meters":23600,"station_id":"ce4bha12rcd13ifvqef0","pricing_plan_id":"free"},{"bike_id":"857c10bc-5c00-4848-aed1-ce3268427462","system_id":"levelo_inurba_marseille","lat":43.28039,"lon":5.369297,"is_reserved":false,"is_disabled":false,"rental_uris":{"android":"levelo://app?vid=857c10bc-5c00-4848-aed1-ce3268427462","ios":"levelo://app?vid=857c10bc-5c00-4848-aed1-ce3268427462"},"vehicle_type_id":"4","last_reported":1700770048,"current_range_meters":27200,"station_id":"ce4bha12rcd13ifvqef0","pricing_plan_id":"free"},{"bike_id":"9ff350e0-938d-4ef8-81e3-2e41785c57d3","system_id":"levelo_inurba_marseille","lat":43.281044,"lon":5.378308,"is_reserved":false,"is_disabled":false,"rental_uris":{"android":"levelo://app?vid=9ff350e0-938d-4ef8-81e3-2e41785c57d3","ios":"levelo://app?vid=9ff350e0-938d-4ef8-81e3-2e41785c57d3"},"vehicle_type_id":"4","last_reported":1700770048,"current_range_meters":26800,"station_id":"ce4bha12rcd13ifvqee0","pricing_plan_id":"free"},{"bike_id":"54c767a6-b15d-42ef-a9d2-184a15ec96d5","system_id":"levelo_inurba_marseille","lat":43.284462,"lon":5.392121,"is_reserved":false,"is_disabled":false,"rental_uris":{"android":"levelo://app?vid=54c767a6-b15d-42ef-a9d2-184a15ec96d5","ios":"levelo://app?vid=54c767a6-b15d-42ef-a9d2-184a15ec96d5"},"vehicle_type_id":"4","last_reported":1700770048,"current_range_meters":6000,"station_id":"ce4bhoh2rcd13ifvqh5g","pricing_plan_id":"free"},{"bike_id":"dff0eb39-914c-4f4b-a2d6-f31aa7b74eb3","system_id":"levelo_inurba_marseille","lat":43.285742,"lon":5.395004,"is_reserved":false,"is_disabled":false,"rental_uris":{"android":"levelo://app?vid=dff0eb39-914c-4f4b-a2d6-f31aa7b74eb3","ios":"levelo://app?vid=dff0eb39-914c-4f4b-a2d6-f31aa7b74eb3"},"vehicle_type_id":"4","last_reported":1700770048,"current_range_meters":22800,"station_id":"ce4bh292rcd13ifvqdg0","pricing_plan_id":"free"},{"bike_id":"8e360a99-579d-498b-8373-2b154126c995","system_id":"levelo_inurba_marseille","lat":43.304188,"lon":5.412904,"is_reserved":false,"is_disabled":false,"rental_uris":{"android":"levelo://app?vid=8e360a99-579d-498b-8373-2b154126c995","ios":"levelo://app?vid=8e360a99-579d-498b-8373-2b154126c995"},"vehicle_type_id":"4","last_reported":1700770048,"current_range_meters":30000,"station_id":"ce4bhop2rcd13ifvqh8g","pricing_plan_id":"free"},{"bike_id":"9a63d390-a04f-48e6-b490-3264a1ed5378","system_id":"levelo_inurba_marseille","lat":43.30416,"lon":5.41289,"is_reserved":false,"is_disabled":false,"rental_uris":{"android":"levelo://app?vid=9a63d390-a04f-48e6-b490-3264a1ed5378","ios":"levelo://app?vid=9a63d390-a04f-48e6-b490-3264a1ed5378"},"vehicle_type_id":"4","last_reported":1700770048,"current_range_meters":12000,"station_id":"ce4bhop2rcd13ifvqh8g","pricing_plan_id":"free"},{"bike_id":"01c93ddb-da14-4fef-a292-7a08f650026c","system_id":"levelo_inurba_marseille","lat":43.28706,"lon":5.39989,"is_reserved":false,"is_disabled":false,"rental_uris":{"android":"levelo://app?vid=01c93ddb-da14-4fef-a292-7a08f650026c","ios":"levelo://app?vid=01c93ddb-da14-4fef-a292-7a08f650026c"},"vehicle_type_id":"4","last_reported":1700770048,"current_range_meters":0,"station_id":"ce4bho92rcd13ifvqh3g","pricing_plan_id":"free"},{"bike_id":"2b7ae2f7-664e-4183-a741-e4ab49aa1154","system_id":"levelo_inurba_marseille","lat":43.279087,"lon":5.380114,"is_reserved":false,"is_disabled":false,"rental_uris":{"android":"levelo://app?vid=2b7ae2f7-664e-4183-a741-e4ab49aa1154","ios":"levelo://app?vid=2b7ae2f7-664e-4183-a741-e4ab49aa1154"},"vehicle_type_id":"4","last_reported":1700770048,"current_range_meters":4800,"station_id":"ce4bhf92rcd13ifvqf50","pricing_plan_id":"free"},{"bike_id":"6e2c2465-4e40-4aae-912b-ca1fbcdf1978","system_id":"levelo_inurba_marseille","lat":43.327036,"lon":5.412426,"is_reserved":false,"is_disabled":false,"rental_uris":{"android":"levelo://app?vid=6e2c2465-4e40-4aae-912b-ca1fbcdf1978","ios":"levelo://app?vid=6e2c2465-4e40-4aae-912b-ca1fbcdf1978"},"vehicle_type_id":"4","last_reported":1700770048,"current_range_meters":0,"station_id":"","pricing_plan_id":"free"},{"bike_id":"a8e2b52b-9ba9-4b70-bcb4-1e1ad46ab6fe","system_id":"levelo_inurba_marseille","lat":43.29939,"lon":5.41321,"is_reserved":false,"is_disabled":false,"rental_uris":{"android":"levelo://app?vid=a8e2b52b-9ba9-4b70-bcb4-1e1ad46ab6fe","ios":"levelo://app?vid=a8e2b52b-9ba9-4b70-bcb4-1e1ad46ab6fe"},"vehicle_type_id":"4","last_reported":1700770048,"current_range_meters":30000,"station_id":"ce4bhp12rcd13ifvqh9g","pricing_plan_id":"free"},{"bike_id":"7011775b-c0e4-46dc-8231-7485425aba5f","system_id":"levelo_inurba_marseille","lat":43.29938,"lon":5.41321,"is_reserved":false,"is_disabled":false,"rental_uris":{"android":"levelo://app?vid=7011775b-c0e4-46dc-8231-7485425aba5f","ios":"levelo://app?vid=7011775b-c0e4-46dc-8231-7485425aba5f"},"vehicle_type_id":"4","last_reported":1700770048,"current_range_meters":26400,"station_id":"ce4bhp12rcd13ifvqh9g","pricing_plan_id":"free"},{"bike_id":"cf7c6503-d761-4e4a-b826-f55f74848caf","system_id":"levelo_inurba_marseille","lat":43.34882,"lon":5.37507,"is_reserved":false,"is_disabled":false,"rental_uris":{"android":"levelo://app?vid=cf7c6503-d761-4e4a-b826-f55f74848caf","ios":"levelo://app?vid=cf7c6503-d761-4e4a-b826-f55f74848caf"},"vehicle_type_id":"4","last_reported":1700770048,"current_range_meters":0,"station_id":"","pricing_plan_id":"free"},{"bike_id":"f9dcd82d-9654-4207-99fc-cadb91d84619","system_id":"levelo_inurba_marseille","lat":43.280784,"lon":5.396622,"is_reserved":false,"is_disabled":false,"rental_uris":{"android":"levelo://app?vid=f9dcd82d-9654-4207-99fc-cadb91d84619","ios":"levelo://app?vid=f9dcd82d-9654-4207-99fc-cadb91d84619"},"vehicle_type_id":"4","last_reported":1700770048,"current_range_meters":22400,"station_id":"ce4bho12rcd13ifvqh2g","pricing_plan_id":"free"},{"bike_id":"292df432-9394-4e14-ac2d-bdfb1b986edc","system_id":"levelo_inurba_marseille","lat":43.303837,"lon":5.418724,"is_reserved":false,"is_disabled":false,"rental_uris":{"android":"levelo://app?vid=292df432-9394-4e14-ac2d-bdfb1b986edc","ios":"levelo://app?vid=292df432-9394-4e14-ac2d-bdfb1b986edc"},"vehicle_type_id":"4","last_reported":1700770048,"current_range_meters":26400,"station_id":"ce4bhop2rcd13ifvqh7g","pricing_plan_id":"free"},{"bike_id":"34b32b71-f299-4930-ae5e-80515bb31635","system_id":"levelo_inurba_marseille","lat":43.33612,"lon":5.410321,"is_reserved":false,"is_disabled":false,"rental_uris":{"android":"levelo://app?vid=34b32b71-f299-4930-ae5e-80515bb31635","ios":"levelo://app?vid=34b32b71-f299-4930-ae5e-80515bb31635"},"vehicle_type_id":"4","last_reported":1700770048,"current_range_meters":6000,"station_id":"ce4bhqh2rcd13ifvqhmg","pricing_plan_id":"free"},{"bike_id":"8507b407-157b-4f9e-b5e5-ea19077a6c58","system_id":"levelo_inurba_marseille","lat":43.33612,"lon":5.410321,"is_reserved":false,"is_disabled":false,"rental_uris":{"android":"levelo://app?vid=8507b407-157b-4f9e-b5e5-ea19077a6c58","ios":"levelo://app?vid=8507b407-157b-4f9e-b5e5-ea19077a6c58"},"vehicle_type_id":"4","last_reported":1700770048,"current_range_meters":18800,"station_id":"ce4bhqh2rcd13ifvqhmg","pricing_plan_id":"free"},{"bike_id":"a07c2d75-3c21-42ab-b08a-c12647aeebf7","system_id":"levelo_inurba_marseille","lat":43.317121,"lon":5.423936,"is_reserved":false,"is_disabled":false,"rental_uris":{"android":"levelo://app?vid=a07c2d75-3c21-42ab-b08a-c12647aeebf7","ios":"levelo://app?vid=a07c2d75-3c21-42ab-b08a-c12647aeebf7"},"vehicle_type_id":"4","last_reported":1700770048,"current_range_meters":28800,"station_id":"ce4bhp92rcd13ifvqhbg","pricing_plan_id":"free"},{"bike_id":"0f0dde2f-b34e-4cb3-8428-609aae5bacdd","system_id":"levelo_inurba_marseille","lat":43.317121,"lon":5.423936,"is_reserved":false,"is_disabled":false,"rental_uris":{"android":"levelo://app?vid=0f0dde2f-b34e-4cb3-8428-609aae5bacdd","ios":"levelo://app?vid=0f0dde2f-b34e-4cb3-8428-609aae5bacdd"},"vehicle_type_id":"4","last_reported":1700770048,"current_range_meters":30000,"station_id":"ce4bhp92rcd13ifvqhbg","pricing_plan_id":"free"},{"bike_id":"2c30d101-0787-42d6-a558-e6ebb182e3a9","system_id":"levelo_inurba_marseille","lat":43.27425,"lon":5.39411,"is_reserved":false,"is_disabled":false,"rental_uris":{"android":"levelo://app?vid=2c30d101-0787-42d6-a558-e6ebb182e3a9","ios":"levelo://app?vid=2c30d101-0787-42d6-a558-e6ebb182e3a9"},"vehicle_type_id":"4","last_reported":1700770048,"current_range_meters":0,"station_id":"ce4bhdp2rcd13ifvqf20","pricing_plan_id":"free"},{"bike_id":"aac6da5d-e32f-4895-b760-2c82e416f441","system_id":"levelo_inurba_marseille","lat":43.2955,"lon":5.42285,"is_reserved":false,"is_disabled":false,"rental_uris":{"android":"levelo://app?vid=aac6da5d-e32f-4895-b760-2c82e416f441","ios":"levelo://app?vid=aac6da5d-e32f-4895-b760-2c82e416f441"},"vehicle_type_id":"4","last_reported":1700770048,"current_range_meters":9200,"station_id":"ce4bhph2rcd13ifvqhdg","pricing_plan_id":"free"},{"bike_id":"f7f71ea4-92db-4dca-a78a-c5aebf456616","system_id":"levelo_inurba_marseille","lat":43.295523,"lon":5.422926,"is_reserved":false,"is_disabled":false,"rental_uris":{"android":"levelo://app?vid=f7f71ea4-92db-4dca-a78a-c5aebf456616","ios":"levelo://app?vid=f7f71ea4-92db-4dca-a78a-c5aebf456616"},"vehicle_type_id":"4","last_reported":1700770048,"current_range_meters":10400,"station_id":"ce4bhph2rcd13ifvqhdg","pricing_plan_id":"free"},{"bike_id":"5a81cc7d-1885-498c-b3e8-8ac7e8a29dc8","system_id":"levelo_inurba_marseille","lat":43.295539,"lon":5.422934,"is_reserved":false,"is_disabled":false,"rental_uris":{"android":"levelo://app?vid=5a81cc7d-1885-498c-b3e8-8ac7e8a29dc8","ios":"levelo://app?vid=5a81cc7d-1885-498c-b3e8-8ac7e8a29dc8"},"vehicle_type_id":"4","last_reported":1700770048,"current_range_meters":31200,"station_id":"ce4bhph2rcd13ifvqhdg","pricing_plan_id":"free"},{"bike_id":"48c1fbfb-e6c4-4c56-a75c-55416f8bb4c3","system_id":"levelo_inurba_marseille","lat":43.271914,"lon":5.392969,"is_reserved":false,"is_disabled":false,"rental_uris":{"android":"levelo://app?vid=48c1fbfb-e6c4-4c56-a75c-55416f8bb4c3","ios":"levelo://app?vid=48c1fbfb-e6c4-4c56-a75c-55416f8bb4c3"},"vehicle_type_id":"4","last_reported":1700770048,"current_range_meters":24800,"station_id":"","pricing_plan_id":"free"},{"bike_id":"841baa0c-daa0-45ee-8075-416130ccc402","system_id":"levelo_inurba_marseille","lat":43.278128,"lon":5.407195,"is_reserved":false,"is_disabled":false,"rental_uris":{"android":"levelo://app?vid=841baa0c-daa0-45ee-8075-416130ccc402","ios":"levelo://app?vid=841baa0c-daa0-45ee-8075-416130ccc402"},"vehicle_type_id":"4","last_reported":1700770048,"current_range_meters":10400,"station_id":"ce4bhnh2rcd13ifvqgtg","pricing_plan_id":"free"},{"bike_id":"cab299ee-8056-4764-bb16-5dda3c13750d","system_id":"levelo_inurba_marseille","lat":43.278128,"lon":5.407195,"is_reserved":false,"is_disabled":false,"rental_uris":{"android":"levelo://app?vid=cab299ee-8056-4764-bb16-5dda3c13750d","ios":"levelo://app?vid=cab299ee-8056-4764-bb16-5dda3c13750d"},"vehicle_type_id":"4","last_reported":1700770048,"current_range_meters":28800,"station_id":"ce4bhnh2rcd13ifvqgtg","pricing_plan_id":"free"},{"bike_id":"9e8d294d-24b3-41bc-8cab-61fd58675f94","system_id":"levelo_inurba_marseille","lat":43.2794,"lon":5.41047,"is_reserved":false,"is_disabled":false,"rental_uris":{"android":"levelo://app?vid=9e8d294d-24b3-41bc-8cab-61fd58675f94","ios":"levelo://app?vid=9e8d294d-24b3-41bc-8cab-61fd58675f94"},"vehicle_type_id":"4","last_reported":1700770048,"current_range_meters":0,"station_id":"ce4bhnp2rcd13ifvqh0g","pricing_plan_id":"free"},{"bike_id":"c529b527-42fd-46ba-9ba6-a6ed4671a6f8","system_id":"levelo_inurba_marseille","lat":43.26681,"lon":5.382694,"is_reserved":false,"is_disabled":false,"rental_uris":{"android":"levelo://app?vid=c529b527-42fd-46ba-9ba6-a6ed4671a6f8","ios":"levelo://app?vid=c529b527-42fd-46ba-9ba6-a6ed4671a6f8"},"vehicle_type_id":"4","last_reported":1700770048,"current_range_meters":22400,"station_id":"ce4bhg92rcd13ifvqf90","pricing_plan_id":"free"},{"bike_id":"9a31796c-56e5-4649-82c7-f77894f07c18","system_id":"levelo_inurba_marseille","lat":43.26684,"lon":5.38271,"is_reserved":false,"is_disabled":false,"rental_uris":{"android":"levelo://app?vid=9a31796c-56e5-4649-82c7-f77894f07c18","ios":"levelo://app?vid=9a31796c-56e5-4649-82c7-f77894f07c18"},"vehicle_type_id":"4","last_reported":1700770048,"current_range_meters":0,"station_id":"ce4bhg92rcd13ifvqf90","pricing_plan_id":"free"},{"bike_id":"8ca016f5-7b62-4164-88cd-5cabbd20bca0","system_id":"levelo_inurba_marseille","lat":43.26681,"lon":5.382694,"is_reserved":false,"is_disabled":false,"rental_uris":{"android":"levelo://app?vid=8ca016f5-7b62-4164-88cd-5cabbd20bca0","ios":"levelo://app?vid=8ca016f5-7b62-4164-88cd-5cabbd20bca0"},"vehicle_type_id":"4","last_reported":1700770048,"current_range_meters":24400,"station_id":"ce4bhg92rcd13ifvqf90","pricing_plan_id":"free"},{"bike_id":"28e8ce00-6b21-4e06-9930-c7c4408cc650","system_id":"levelo_inurba_marseille","lat":43.326174,"lon":5.430584,"is_reserved":false,"is_disabled":false,"rental_uris":{"android":"levelo://app?vid=28e8ce00-6b21-4e06-9930-c7c4408cc650","ios":"levelo://app?vid=28e8ce00-6b21-4e06-9930-c7c4408cc650"},"vehicle_type_id":"4","last_reported":1700770048,"current_range_meters":1600,"station_id":"","pricing_plan_id":"free"},{"bike_id":"266f7b68-b38d-4010-a86c-8688bbadcdcd","system_id":"levelo_inurba_marseille","lat":43.27996,"lon":5.416624,"is_reserved":false,"is_disabled":false,"rental_uris":{"android":"levelo://app?vid=266f7b68-b38d-4010-a86c-8688bbadcdcd","ios":"levelo://app?vid=266f7b68-b38d-4010-a86c-8688bbadcdcd"},"vehicle_type_id":"4","last_reported":1700770048,"current_range_meters":27600,"station_id":"ce4bho12rcd13ifvqh1g","pricing_plan_id":"free"},{"bike_id":"2b5f0b27-ae58-4e9e-bd76-c585f78e8a73","system_id":"levelo_inurba_marseille","lat":43.26386,"lon":5.37454,"is_reserved":false,"is_disabled":false,"rental_uris":{"android":"levelo://app?vid=2b5f0b27-ae58-4e9e-bd76-c585f78e8a73","ios":"levelo://app?vid=2b5f0b27-ae58-4e9e-bd76-c585f78e8a73"},"vehicle_type_id":"4","last_reported":1700770048,"current_range_meters":17200,"station_id":"","pricing_plan_id":"free"},{"bike_id":"cf3e1305-9449-44d3-8e13-82eaaf262997","system_id":"levelo_inurba_marseille","lat":43.26563,"lon":5.39011,"is_reserved":false,"is_disabled":false,"rental_uris":{"android":"levelo://app?vid=cf3e1305-9449-44d3-8e13-82eaaf262997","ios":"levelo://app?vid=cf3e1305-9449-44d3-8e13-82eaaf262997"},"vehicle_type_id":"4","last_reported":1700770048,"current_range_meters":6800,"station_id":"ce4bhe12rcd13ifvqf30","pricing_plan_id":"free"},{"bike_id":"bff709aa-9908-467c-9b91-161de7b65ca1","system_id":"levelo_inurba_marseille","lat":43.31712,"lon":5.437,"is_reserved":false,"is_disabled":false,"rental_uris":{"android":"levelo://app?vid=bff709aa-9908-467c-9b91-161de7b65ca1","ios":"levelo://app?vid=bff709aa-9908-467c-9b91-161de7b65ca1"},"vehicle_type_id":"4","last_reported":1700770048,"current_range_meters":0,"station_id":"ce4bhp92rcd13ifvqhcg","pricing_plan_id":"free"},{"bike_id":"589f525b-b94e-4074-a55f-170f20400e33","system_id":"levelo_inurba_marseille","lat":43.317104,"lon":5.436818,"is_reserved":false,"is_disabled":false,"rental_uris":{"android":"levelo://app?vid=589f525b-b94e-4074-a55f-170f20400e33","ios":"levelo://app?vid=589f525b-b94e-4074-a55f-170f20400e33"},"vehicle_type_id":"4","last_reported":1700770048,"current_range_meters":18800,"station_id":"ce4bhp92rcd13ifvqhcg","pricing_plan_id":"free"},{"bike_id":"d4d6c84e-20d0-4ab5-a529-49bad562a127","system_id":"levelo_inurba_marseille","lat":43.317104,"lon":5.436818,"is_reserved":false,"is_disabled":false,"rental_uris":{"android":"levelo://app?vid=d4d6c84e-20d0-4ab5-a529-49bad562a127","ios":"levelo://app?vid=d4d6c84e-20d0-4ab5-a529-49bad562a127"},"vehicle_type_id":"4","last_reported":1700770048,"current_range_meters":20000,"station_id":"ce4bhp92rcd13ifvqhcg","pricing_plan_id":"free"},{"bike_id":"20650c99-8e22-4500-9d54-d01ffda1269c","system_id":"levelo_inurba_marseille","lat":43.27173,"lon":5.40991,"is_reserved":false,"is_disabled":false,"rental_uris":{"android":"levelo://app?vid=20650c99-8e22-4500-9d54-d01ffda1269c","ios":"levelo://app?vid=20650c99-8e22-4500-9d54-d01ffda1269c"},"vehicle_type_id":"4","last_reported":1700770048,"current_range_meters":0,"station_id":"ce4bhl12rcd13ifvqgf0","pricing_plan_id":"free"},{"bike_id":"d0bb53f7-f1b8-4609-a668-27efdac67f66","system_id":"levelo_inurba_marseille","lat":43.26301,"lon":5.38842,"is_reserved":false,"is_disabled":false,"rental_uris":{"android":"levelo://app?vid=d0bb53f7-f1b8-4609-a668-27efdac67f66","ios":"levelo://app?vid=d0bb53f7-f1b8-4609-a668-27efdac67f66"},"vehicle_type_id":"4","last_reported":1700770048,"current_range_meters":0,"station_id":"","pricing_plan_id":"free"},{"bike_id":"c8e0aad3-4462-4f8b-93ce-b770998879ce","system_id":"levelo_inurba_marseille","lat":43.29895,"lon":5.436621,"is_reserved":false,"is_disabled":false,"rental_uris":{"android":"levelo://app?vid=c8e0aad3-4462-4f8b-93ce-b770998879ce","ios":"levelo://app?vid=c8e0aad3-4462-4f8b-93ce-b770998879ce"},"vehicle_type_id":"4","last_reported":1700770048,"current_range_meters":31200,"station_id":"ce4bhpp2rcd13ifvqhfg","pricing_plan_id":"free"},{"bike_id":"32dbc8da-1a48-433d-b69f-a6767c9278fd","system_id":"levelo_inurba_marseille","lat":43.298768,"lon":5.43643,"is_reserved":false,"is_disabled":false,"rental_uris":{"android":"levelo://app?vid=32dbc8da-1a48-433d-b69f-a6767c9278fd","ios":"levelo://app?vid=32dbc8da-1a48-433d-b69f-a6767c9278fd"},"vehicle_type_id":"4","last_reported":1700770048,"current_range_meters":25600,"station_id":"ce4bhpp2rcd13ifvqhfg","pricing_plan_id":"free"},{"bike_id":"4f42384b-07a1-448f-a459-6c4498e43d8a","system_id":"levelo_inurba_marseille","lat":43.28157,"lon":5.42646,"is_reserved":false,"is_disabled":false,"rental_uris":{"android":"levelo://app?vid=4f42384b-07a1-448f-a459-6c4498e43d8a","ios":"levelo://app?vid=4f42384b-07a1-448f-a459-6c4498e43d8a"},"vehicle_type_id":"4","last_reported":1700770048,"current_range_meters":0,"station_id":"ce4bhnh2rcd13ifvqgug","pricing_plan_id":"free"},{"bike_id":"fc1e72d3-7bd0-486f-bd90-ec0f6540c45a","system_id":"levelo_inurba_marseille","lat":43.281548,"lon":5.42643,"is_reserved":false,"is_disabled":false,"rental_uris":{"android":"levelo://app?vid=fc1e72d3-7bd0-486f-bd90-ec0f6540c45a","ios":"levelo://app?vid=fc1e72d3-7bd0-486f-bd90-ec0f6540c45a"},"vehicle_type_id":"4","last_reported":1700770048,"current_range_meters":18800,"station_id":"ce4bhnh2rcd13ifvqgug","pricing_plan_id":"free"},{"bike_id":"1d747635-86f1-4ce8-90c1-580922a9c6bb","system_id":"levelo_inurba_marseille","lat":43.2607,"lon":5.393983,"is_reserved":false,"is_disabled":false,"rental_uris":{"android":"levelo://app?vid=1d747635-86f1-4ce8-90c1-580922a9c6bb","ios":"levelo://app?vid=1d747635-86f1-4ce8-90c1-580922a9c6bb"},"vehicle_type_id":"4","last_reported":1700770048,"current_range_meters":3200,"station_id":"ce4bhh92rcd13ifvqfj0","pricing_plan_id":"free"},{"bike_id":"a884cf6b-a909-4491-a1de-f2fb9ee8fd1b","system_id":"levelo_inurba_marseille","lat":43.2607,"lon":5.393983,"is_reserved":false,"is_disabled":false,"rental_uris":{"android":"levelo://app?vid=a884cf6b-a909-4491-a1de-f2fb9ee8fd1b","ios":"levelo://app?vid=a884cf6b-a909-4491-a1de-f2fb9ee8fd1b"},"vehicle_type_id":"4","last_reported":1700770048,"current_range_meters":4800,"station_id":"ce4bhh92rcd13ifvqfj0","pricing_plan_id":"free"},{"bike_id":"bef18bc3-fb70-4114-aad1-f3a8927aa27a","system_id":"levelo_inurba_marseille","lat":43.2607,"lon":5.393983,"is_reserved":false,"is_disabled":false,"rental_uris":{"android":"levelo://app?vid=bef18bc3-fb70-4114-aad1-f3a8927aa27a","ios":"levelo://app?vid=bef18bc3-fb70-4114-aad1-f3a8927aa27a"},"vehicle_type_id":"4","last_reported":1700770048,"current_range_meters":4000,"station_id":"ce4bhh92rcd13ifvqfj0","pricing_plan_id":"free"},{"bike_id":"f66b51e9-c4a3-4f45-9226-938d4bff2e55","system_id":"levelo_inurba_marseille","lat":43.26089,"lon":5.397624,"is_reserved":false,"is_disabled":false,"rental_uris":{"android":"levelo://app?vid=f66b51e9-c4a3-4f45-9226-938d4bff2e55","ios":"levelo://app?vid=f66b51e9-c4a3-4f45-9226-938d4bff2e55"},"vehicle_type_id":"4","last_reported":1700770048,"current_range_meters":29200,"station_id":"ce4bhi12rcd13ifvqfq0","pricing_plan_id":"free"},{"bike_id":"4e026cf8-9d7f-480c-86b2-b8a0b393d65c","system_id":"levelo_inurba_marseille","lat":43.26087,"lon":5.39766,"is_reserved":false,"is_disabled":false,"rental_uris":{"android":"levelo://app?vid=4e026cf8-9d7f-480c-86b2-b8a0b393d65c","ios":"levelo://app?vid=4e026cf8-9d7f-480c-86b2-b8a0b393d65c"},"vehicle_type_id":"4","last_reported":1700770048,"current_range_meters":11600,"station_id":"ce4bhi12rcd13ifvqfq0","pricing_plan_id":"free"},{"bike_id":"89c9f6d4-6684-42ac-a1c6-3d843bdc7526","system_id":"levelo_inurba_marseille","lat":43.25829,"lon":5.39434,"is_reserved":false,"is_disabled":false,"rental_uris":{"android":"levelo://app?vid=89c9f6d4-6684-42ac-a1c6-3d843bdc7526","ios":"levelo://app?vid=89c9f6d4-6684-42ac-a1c6-3d843bdc7526"},"vehicle_type_id":"4","last_reported":1700770048,"current_range_meters":0,"station_id":"ce4bhip2rcd13ifvqft0","pricing_plan_id":"free"},{"bike_id":"bdfd682b-c794-4ee3-a51f-876b2fbf122b","system_id":"levelo_inurba_marseille","lat":43.25825,"lon":5.394255,"is_reserved":false,"is_disabled":false,"rental_uris":{"android":"levelo://app?vid=bdfd682b-c794-4ee3-a51f-876b2fbf122b","ios":"levelo://app?vid=bdfd682b-c794-4ee3-a51f-876b2fbf122b"},"vehicle_type_id":"4","last_reported":1700770048,"current_range_meters":29600,"station_id":"ce4bhip2rcd13ifvqft0","pricing_plan_id":"free"},{"bike_id":"0b938667-6ce3-4005-a540-9bccfd7ca7d8","system_id":"levelo_inurba_marseille","lat":43.25824,"lon":5.39422,"is_reserved":false,"is_disabled":false,"rental_uris":{"android":"levelo://app?vid=0b938667-6ce3-4005-a540-9bccfd7ca7d8","ios":"levelo://app?vid=0b938667-6ce3-4005-a540-9bccfd7ca7d8"},"vehicle_type_id":"4","last_reported":1700770048,"current_range_meters":0,"station_id":"ce4bhip2rcd13ifvqft0","pricing_plan_id":"free"},{"bike_id":"b0c34655-9f04-4532-b299-ed61f0d30ded","system_id":"levelo_inurba_marseille","lat":43.25582,"lon":5.38241,"is_reserved":false,"is_disabled":false,"rental_uris":{"android":"levelo://app?vid=b0c34655-9f04-4532-b299-ed61f0d30ded","ios":"levelo://app?vid=b0c34655-9f04-4532-b299-ed61f0d30ded"},"vehicle_type_id":"4","last_reported":1700770048,"current_range_meters":23600,"station_id":"ce4bhih2rcd13ifvqfs0","pricing_plan_id":"free"},{"bike_id":"3a1f9022-bd46-49cc-bf47-98ffb6823c2e","system_id":"levelo_inurba_marseille","lat":43.25579,"lon":5.3824,"is_reserved":false,"is_disabled":false,"rental_uris":{"android":"levelo://app?vid=3a1f9022-bd46-49cc-bf47-98ffb6823c2e","ios":"levelo://app?vid=3a1f9022-bd46-49cc-bf47-98ffb6823c2e"},"vehicle_type_id":"4","last_reported":1700770048,"current_range_meters":15600,"station_id":"ce4bhih2rcd13ifvqfs0","pricing_plan_id":"free"},{"bike_id":"b58271b7-1ca2-4c49-8f3e-52f83be1885d","system_id":"levelo_inurba_marseille","lat":43.258224,"lon":5.394369,"is_reserved":false,"is_disabled":false,"rental_uris":{"android":"levelo://app?vid=b58271b7-1ca2-4c49-8f3e-52f83be1885d","ios":"levelo://app?vid=b58271b7-1ca2-4c49-8f3e-52f83be1885d"},"vehicle_type_id":"4","last_reported":1700770048,"current_range_meters":29600,"station_id":"ce4bhip2rcd13ifvqft0","pricing_plan_id":"free"},{"bike_id":"5e6eacd8-f933-4342-a754-07d8d915f970","system_id":"levelo_inurba_marseille","lat":43.270721,"lon":5.422764,"is_reserved":false,"is_disabled":false,"rental_uris":{"android":"levelo://app?vid=5e6eacd8-f933-4342-a754-07d8d915f970","ios":"levelo://app?vid=5e6eacd8-f933-4342-a754-07d8d915f970"},"vehicle_type_id":"4","last_reported":1700770048,"current_range_meters":5200,"station_id":"ce4bhk92rcd13ifvqgb0","pricing_plan_id":"free"},{"bike_id":"11494382-ce2e-44c2-806d-9f1bc6755b0a","system_id":"levelo_inurba_marseille","lat":43.250009,"lon":5.389195,"is_reserved":false,"is_disabled":false,"rental_uris":{"android":"levelo://app?vid=11494382-ce2e-44c2-806d-9f1bc6755b0a","ios":"levelo://app?vid=11494382-ce2e-44c2-806d-9f1bc6755b0a"},"vehicle_type_id":"4","last_reported":1700770048,"current_range_meters":28800,"station_id":"ce4bhgp2rcd13ifvqfd0","pricing_plan_id":"free"},{"bike_id":"2463e26a-c743-4daa-98ba-a3cd311bb8cd","system_id":"levelo_inurba_marseille","lat":43.2479,"lon":5.374457,"is_reserved":false,"is_disabled":false,"rental_uris":{"android":"levelo://app?vid=2463e26a-c743-4daa-98ba-a3cd311bb8cd","ios":"levelo://app?vid=2463e26a-c743-4daa-98ba-a3cd311bb8cd"},"vehicle_type_id":"4","last_reported":1700770048,"current_range_meters":11200,"station_id":"ce4bhgh2rcd13ifvqfb0","pricing_plan_id":"free"},{"bike_id":"49437744-b877-4092-80f7-23c5799ff88c","system_id":"levelo_inurba_marseille","lat":43.2479,"lon":5.374457,"is_reserved":false,"is_disabled":false,"rental_uris":{"android":"levelo://app?vid=49437744-b877-4092-80f7-23c5799ff88c","ios":"levelo://app?vid=49437744-b877-4092-80f7-23c5799ff88c"},"vehicle_type_id":"4","last_reported":1700770048,"current_range_meters":11600,"station_id":"ce4bhgh2rcd13ifvqfb0","pricing_plan_id":"free"},{"bike_id":"03a6b57e-196d-4361-a53d-18c000089aa6","system_id":"levelo_inurba_marseille","lat":43.25089,"lon":5.39525,"is_reserved":false,"is_disabled":false,"rental_uris":{"android":"levelo://app?vid=03a6b57e-196d-4361-a53d-18c000089aa6","ios":"levelo://app?vid=03a6b57e-196d-4361-a53d-18c000089aa6"},"vehicle_type_id":"4","last_reported":1700770048,"current_range_meters":11200,"station_id":"ce4bhm12rcd13ifvqgkg","pricing_plan_id":"free"},{"bike_id":"88d7f9e9-bb37-46c1-b9b3-75abffa63e99","system_id":"levelo_inurba_marseille","lat":43.250966,"lon":5.395186,"is_reserved":false,"is_disabled":false,"rental_uris":{"android":"levelo://app?vid=88d7f9e9-bb37-46c1-b9b3-75abffa63e99","ios":"levelo://app?vid=88d7f9e9-bb37-46c1-b9b3-75abffa63e99"},"vehicle_type_id":"4","last_reported":1700770048,"current_range_meters":5200,"station_id":"ce4bhm12rcd13ifvqgkg","pricing_plan_id":"free"},{"bike_id":"efa187b0-d8d1-49c9-acc3-4b60600e5901","system_id":"levelo_inurba_marseille","lat":43.25084,"lon":5.39518,"is_reserved":false,"is_disabled":false,"rental_uris":{"android":"levelo://app?vid=efa187b0-d8d1-49c9-acc3-4b60600e5901","ios":"levelo://app?vid=efa187b0-d8d1-49c9-acc3-4b60600e5901"},"vehicle_type_id":"4","last_reported":1700770048,"current_range_meters":4800,"station_id":"ce4bhm12rcd13ifvqgkg","pricing_plan_id":"free"},{"bike_id":"b80925c1-effd-4120-a0b5-9ff7eadaaa2d","system_id":"levelo_inurba_marseille","lat":43.2508,"lon":5.39515,"is_reserved":false,"is_disabled":false,"rental_uris":{"android":"levelo://app?vid=b80925c1-effd-4120-a0b5-9ff7eadaaa2d","ios":"levelo://app?vid=b80925c1-effd-4120-a0b5-9ff7eadaaa2d"},"vehicle_type_id":"4","last_reported":1700770048,"current_range_meters":30800,"station_id":"ce4bhm12rcd13ifvqgkg","pricing_plan_id":"free"},{"bike_id":"4115e15c-f1c6-466f-9816-673e6aa1abdb","system_id":"levelo_inurba_marseille","lat":43.24693,"lon":5.382096,"is_reserved":false,"is_disabled":false,"rental_uris":{"android":"levelo://app?vid=4115e15c-f1c6-466f-9816-673e6aa1abdb","ios":"levelo://app?vid=4115e15c-f1c6-466f-9816-673e6aa1abdb"},"vehicle_type_id":"4","last_reported":1700770048,"current_range_meters":26800,"station_id":"ce4bhih2rcd13ifvqfr0","pricing_plan_id":"free"},{"bike_id":"64767d19-726c-4e82-b52b-eeb289ae8540","system_id":"levelo_inurba_marseille","lat":43.25102,"lon":5.403214,"is_reserved":false,"is_disabled":false,"rental_uris":{"android":"levelo://app?vid=64767d19-726c-4e82-b52b-eeb289ae8540","ios":"levelo://app?vid=64767d19-726c-4e82-b52b-eeb289ae8540"},"vehicle_type_id":"4","last_reported":1700770048,"current_range_meters":18000,"station_id":"ce4bhlh2rcd13ifvqgig","pricing_plan_id":"free"},{"bike_id":"e68545fb-4ac4-40af-8bbe-e46447688418","system_id":"levelo_inurba_marseille","lat":43.25102,"lon":5.403214,"is_reserved":false,"is_disabled":false,"rental_uris":{"android":"levelo://app?vid=e68545fb-4ac4-40af-8bbe-e46447688418","ios":"levelo://app?vid=e68545fb-4ac4-40af-8bbe-e46447688418"},"vehicle_type_id":"4","last_reported":1700770048,"current_range_meters":8000,"station_id":"ce4bhlh2rcd13ifvqgig","pricing_plan_id":"free"},{"bike_id":"e139760d-207d-4be1-a62a-60bffef81eda","system_id":"levelo_inurba_marseille","lat":43.25102,"lon":5.403214,"is_reserved":false,"is_disabled":false,"rental_uris":{"android":"levelo://app?vid=e139760d-207d-4be1-a62a-60bffef81eda","ios":"levelo://app?vid=e139760d-207d-4be1-a62a-60bffef81eda"},"vehicle_type_id":"4","last_reported":1700770048,"current_range_meters":22400,"station_id":"ce4bhlh2rcd13ifvqgig","pricing_plan_id":"free"},{"bike_id":"5c16a961-acaf-4fa7-8d92-919351feefaf","system_id":"levelo_inurba_marseille","lat":43.25102,"lon":5.403214,"is_reserved":false,"is_disabled":false,"rental_uris":{"android":"levelo://app?vid=5c16a961-acaf-4fa7-8d92-919351feefaf","ios":"levelo://app?vid=5c16a961-acaf-4fa7-8d92-919351feefaf"},"vehicle_type_id":"4","last_reported":1700770048,"current_range_meters":0,"station_id":"ce4bhlh2rcd13ifvqgig","pricing_plan_id":"free"},{"bike_id":"a93fd1c1-1f75-4a48-ace7-76042b827036","system_id":"levelo_inurba_marseille","lat":43.25102,"lon":5.403214,"is_reserved":false,"is_disabled":false,"rental_uris":{"android":"levelo://app?vid=a93fd1c1-1f75-4a48-ace7-76042b827036","ios":"levelo://app?vid=a93fd1c1-1f75-4a48-ace7-76042b827036"},"vehicle_type_id":"4","last_reported":1700770048,"current_range_meters":16000,"station_id":"ce4bhlh2rcd13ifvqgig","pricing_plan_id":"free"},{"bike_id":"c4db6c00-0b4b-499c-a987-e15238075f65","system_id":"levelo_inurba_marseille","lat":43.246461,"lon":5.389014,"is_reserved":false,"is_disabled":false,"rental_uris":{"android":"levelo://app?vid=c4db6c00-0b4b-499c-a987-e15238075f65","ios":"levelo://app?vid=c4db6c00-0b4b-499c-a987-e15238075f65"},"vehicle_type_id":"4","last_reported":1700770048,"current_range_meters":21200,"station_id":"ce4bhg12rcd13ifvqf60","pricing_plan_id":"free"},{"bike_id":"686b3327-de0c-4eee-9419-25f93e0f2665","system_id":"levelo_inurba_marseille","lat":43.246467,"lon":5.388984,"is_reserved":false,"is_disabled":false,"rental_uris":{"android":"levelo://app?vid=686b3327-de0c-4eee-9419-25f93e0f2665","ios":"levelo://app?vid=686b3327-de0c-4eee-9419-25f93e0f2665"},"vehicle_type_id":"4","last_reported":1700770048,"current_range_meters":22800,"station_id":"ce4bhg12rcd13ifvqf60","pricing_plan_id":"free"},{"bike_id":"fb002053-0192-48fc-a8e8-72417b50f02a","system_id":"levelo_inurba_marseille","lat":43.245581,"lon":5.395069,"is_reserved":false,"is_disabled":false,"rental_uris":{"android":"levelo://app?vid=fb002053-0192-48fc-a8e8-72417b50f02a","ios":"levelo://app?vid=fb002053-0192-48fc-a8e8-72417b50f02a"},"vehicle_type_id":"4","last_reported":1700770048,"current_range_meters":31200,"station_id":"ce4bhlp2rcd13ifvqgjg","pricing_plan_id":"free"},{"bike_id":"d7927755-62c6-43c8-8602-9751792ee59d","system_id":"levelo_inurba_marseille","lat":43.245581,"lon":5.395069,"is_reserved":false,"is_disabled":false,"rental_uris":{"android":"levelo://app?vid=d7927755-62c6-43c8-8602-9751792ee59d","ios":"levelo://app?vid=d7927755-62c6-43c8-8602-9751792ee59d"},"vehicle_type_id":"4","last_reported":1700770048,"current_range_meters":15200,"station_id":"ce4bhlp2rcd13ifvqgjg","pricing_plan_id":"free"},{"bike_id":"e1295696-9512-457a-9e47-a650eae5f681","system_id":"levelo_inurba_marseille","lat":43.240623,"lon":5.377642,"is_reserved":false,"is_disabled":false,"rental_uris":{"android":"levelo://app?vid=e1295696-9512-457a-9e47-a650eae5f681","ios":"levelo://app?vid=e1295696-9512-457a-9e47-a650eae5f681"},"vehicle_type_id":"4","last_reported":1700770048,"current_range_meters":18000,"station_id":"ce4bhnp2rcd13ifvqgvg","pricing_plan_id":"free"},{"bike_id":"a521f606-5701-4030-b4c5-dab33339e8f5","system_id":"levelo_inurba_marseille","lat":43.240623,"lon":5.377642,"is_reserved":false,"is_disabled":false,"rental_uris":{"android":"levelo://app?vid=a521f606-5701-4030-b4c5-dab33339e8f5","ios":"levelo://app?vid=a521f606-5701-4030-b4c5-dab33339e8f5"},"vehicle_type_id":"4","last_reported":1700770048,"current_range_meters":31200,"station_id":"ce4bhnp2rcd13ifvqgvg","pricing_plan_id":"free"},{"bike_id":"7f36ee99-fc39-4607-9af5-7ed0f569f63d","system_id":"levelo_inurba_marseille","lat":43.240623,"lon":5.377642,"is_reserved":false,"is_disabled":false,"rental_uris":{"android":"levelo://app?vid=7f36ee99-fc39-4607-9af5-7ed0f569f63d","ios":"levelo://app?vid=7f36ee99-fc39-4607-9af5-7ed0f569f63d"},"vehicle_type_id":"4","last_reported":1700770048,"current_range_meters":16800,"station_id":"ce4bhnp2rcd13ifvqgvg","pricing_plan_id":"free"},{"bike_id":"48696721-7d72-4e6d-a69f-9339b8fc83e7","system_id":"levelo_inurba_marseille","lat":43.23973,"lon":5.36627,"is_reserved":false,"is_disabled":false,"rental_uris":{"android":"levelo://app?vid=48696721-7d72-4e6d-a69f-9339b8fc83e7","ios":"levelo://app?vid=48696721-7d72-4e6d-a69f-9339b8fc83e7"},"vehicle_type_id":"4","last_reported":1700770048,"current_range_meters":6400,"station_id":"ce4bhi12rcd13ifvqfp0","pricing_plan_id":"free"},{"bike_id":"4ca74aac-a103-4b68-b4a6-27881d713399","system_id":"levelo_inurba_marseille","lat":43.23967,"lon":5.36632,"is_reserved":false,"is_disabled":false,"rental_uris":{"android":"levelo://app?vid=4ca74aac-a103-4b68-b4a6-27881d713399","ios":"levelo://app?vid=4ca74aac-a103-4b68-b4a6-27881d713399"},"vehicle_type_id":"4","last_reported":1700770048,"current_range_meters":12000,"station_id":"ce4bhi12rcd13ifvqfp0","pricing_plan_id":"free"},{"bike_id":"74946933-b2b7-48eb-9ae2-890f844b8c5f","system_id":"levelo_inurba_marseille","lat":43.239588,"lon":5.366238,"is_reserved":false,"is_disabled":false,"rental_uris":{"android":"levelo://app?vid=74946933-b2b7-48eb-9ae2-890f844b8c5f","ios":"levelo://app?vid=74946933-b2b7-48eb-9ae2-890f844b8c5f"},"vehicle_type_id":"4","last_reported":1700770048,"current_range_meters":29200,"station_id":"ce4bhi12rcd13ifvqfp0","pricing_plan_id":"free"},{"bike_id":"96abc39f-ad07-4d7e-b3ae-73676f3f3c58","system_id":"levelo_inurba_marseille","lat":43.23966,"lon":5.36633,"is_reserved":false,"is_disabled":false,"rental_uris":{"android":"levelo://app?vid=96abc39f-ad07-4d7e-b3ae-73676f3f3c58","ios":"levelo://app?vid=96abc39f-ad07-4d7e-b3ae-73676f3f3c58"},"vehicle_type_id":"4","last_reported":1700770048,"current_range_meters":20000,"station_id":"ce4bhi12rcd13ifvqfp0","pricing_plan_id":"free"},{"bike_id":"ec0ae06a-418c-40e7-bfed-2ce435e44142","system_id":"levelo_inurba_marseille","lat":43.23965,"lon":5.36634,"is_reserved":false,"is_disabled":false,"rental_uris":{"android":"levelo://app?vid=ec0ae06a-418c-40e7-bfed-2ce435e44142","ios":"levelo://app?vid=ec0ae06a-418c-40e7-bfed-2ce435e44142"},"vehicle_type_id":"4","last_reported":1700770048,"current_range_meters":10800,"station_id":"ce4bhi12rcd13ifvqfp0","pricing_plan_id":"free"},{"bike_id":"2c54862c-aff6-45d6-97d9-752ba2ae7638","system_id":"levelo_inurba_marseille","lat":43.239588,"lon":5.366238,"is_reserved":false,"is_disabled":false,"rental_uris":{"android":"levelo://app?vid=2c54862c-aff6-45d6-97d9-752ba2ae7638","ios":"levelo://app?vid=2c54862c-aff6-45d6-97d9-752ba2ae7638"},"vehicle_type_id":"4","last_reported":1700770048,"current_range_meters":2000,"station_id":"ce4bhi12rcd13ifvqfp0","pricing_plan_id":"free"},{"bike_id":"92467384-89bb-4cba-b408-b94f63527936","system_id":"levelo_inurba_marseille","lat":43.239588,"lon":5.366238,"is_reserved":false,"is_disabled":false,"rental_uris":{"android":"levelo://app?vid=92467384-89bb-4cba-b408-b94f63527936","ios":"levelo://app?vid=92467384-89bb-4cba-b408-b94f63527936"},"vehicle_type_id":"4","last_reported":1700770048,"current_range_meters":6000,"station_id":"ce4bhi12rcd13ifvqfp0","pricing_plan_id":"free"},{"bike_id":"4c434a78-92e8-423b-942f-5c940f305e63","system_id":"levelo_inurba_marseille","lat":43.23962,"lon":5.36629,"is_reserved":false,"is_disabled":false,"rental_uris":{"android":"levelo://app?vid=4c434a78-92e8-423b-942f-5c940f305e63","ios":"levelo://app?vid=4c434a78-92e8-423b-942f-5c940f305e63"},"vehicle_type_id":"4","last_reported":1700770048,"current_range_meters":6000,"station_id":"ce4bhi12rcd13ifvqfp0","pricing_plan_id":"free"},{"bike_id":"5af44420-f288-487d-abf9-5f4de05fc437","system_id":"levelo_inurba_marseille","lat":43.239588,"lon":5.366238,"is_reserved":false,"is_disabled":false,"rental_uris":{"android":"levelo://app?vid=5af44420-f288-487d-abf9-5f4de05fc437","ios":"levelo://app?vid=5af44420-f288-487d-abf9-5f4de05fc437"},"vehicle_type_id":"4","last_reported":1700770048,"current_range_meters":28400,"station_id":"ce4bhi12rcd13ifvqfp0","pricing_plan_id":"free"},{"bike_id":"c3facbb7-06a8-412a-9a80-52aeb0503e18","system_id":"levelo_inurba_marseille","lat":43.231923,"lon":5.355545,"is_reserved":false,"is_disabled":false,"rental_uris":{"android":"levelo://app?vid=c3facbb7-06a8-412a-9a80-52aeb0503e18","ios":"levelo://app?vid=c3facbb7-06a8-412a-9a80-52aeb0503e18"},"vehicle_type_id":"4","last_reported":1700770048,"current_range_meters":30400,"station_id":"ce4bhu92rcd13ifvqi70","pricing_plan_id":"free"},{"bike_id":"425d3457-d7b1-4bd6-af05-1b26bfd08345","system_id":"levelo_inurba_marseille","lat":43.231923,"lon":5.355545,"is_reserved":false,"is_disabled":false,"rental_uris":{"android":"levelo://app?vid=425d3457-d7b1-4bd6-af05-1b26bfd08345","ios":"levelo://app?vid=425d3457-d7b1-4bd6-af05-1b26bfd08345"},"vehicle_type_id":"4","last_reported":1700770048,"current_range_meters":30000,"station_id":"ce4bhu92rcd13ifvqi70","pricing_plan_id":"free"},{"bike_id":"15098f4a-57e6-48e8-846b-97856909e7a5","system_id":"levelo_inurba_marseille","lat":43.231919,"lon":5.355532,"is_reserved":false,"is_disabled":false,"rental_uris":{"android":"levelo://app?vid=15098f4a-57e6-48e8-846b-97856909e7a5","ios":"levelo://app?vid=15098f4a-57e6-48e8-846b-97856909e7a5"},"vehicle_type_id":"4","last_reported":1700770048,"current_range_meters":20000,"station_id":"ce4bhu92rcd13ifvqi70","pricing_plan_id":"free"},{"bike_id":"aeb874ed-5a67-45f7-94cd-1c1e110219bc","system_id":"levelo_inurba_marseille","lat":43.231919,"lon":5.355532,"is_reserved":false,"is_disabled":false,"rental_uris":{"android":"levelo://app?vid=aeb874ed-5a67-45f7-94cd-1c1e110219bc","ios":"levelo://app?vid=aeb874ed-5a67-45f7-94cd-1c1e110219bc"},"vehicle_type_id":"4","last_reported":1700770048,"current_range_meters":31200,"station_id":"ce4bhu92rcd13ifvqi70","pricing_plan_id":"free"},{"bike_id":"0d65e76d-9880-4e2c-a36d-b8425499c90e","system_id":"levelo_inurba_marseille","lat":43.231793,"lon":5.400044,"is_reserved":false,"is_disabled":false,"rental_uris":{"android":"levelo://app?vid=0d65e76d-9880-4e2c-a36d-b8425499c90e","ios":"levelo://app?vid=0d65e76d-9880-4e2c-a36d-b8425499c90e"},"vehicle_type_id":"4","last_reported":1700770048,"current_range_meters":21200,"station_id":"ce4bhn12rcd13ifvqgqg","pricing_plan_id":"free"},{"bike_id":"df7e6c4d-a3bc-48a2-a471-a72390a84d34","system_id":"levelo_inurba_marseille","lat":43.231793,"lon":5.400044,"is_reserved":false,"is_disabled":false,"rental_uris":{"android":"levelo://app?vid=df7e6c4d-a3bc-48a2-a471-a72390a84d34","ios":"levelo://app?vid=df7e6c4d-a3bc-48a2-a471-a72390a84d34"},"vehicle_type_id":"4","last_reported":1700770048,"current_range_meters":25600,"station_id":"ce4bhn12rcd13ifvqgqg","pricing_plan_id":"free"},{"bike_id":"f31cda49-20f2-4ebe-96b2-ae91a8011c1d","system_id":"levelo_inurba_marseille","lat":43.231794,"lon":5.400052,"is_reserved":false,"is_disabled":false,"rental_uris":{"android":"levelo://app?vid=f31cda49-20f2-4ebe-96b2-ae91a8011c1d","ios":"levelo://app?vid=f31cda49-20f2-4ebe-96b2-ae91a8011c1d"},"vehicle_type_id":"4","last_reported":1700770048,"current_range_meters":11600,"station_id":"ce4bhn12rcd13ifvqgqg","pricing_plan_id":"free"},{"bike_id":"d1fe046a-7159-4857-8428-6c74abf6f70d","system_id":"levelo_inurba_marseille","lat":43.231793,"lon":5.400044,"is_reserved":false,"is_disabled":false,"rental_uris":{"android":"levelo://app?vid=d1fe046a-7159-4857-8428-6c74abf6f70d","ios":"levelo://app?vid=d1fe046a-7159-4857-8428-6c74abf6f70d"},"vehicle_type_id":"4","last_reported":1700770048,"current_range_meters":4800,"station_id":"ce4bhn12rcd13ifvqgqg","pricing_plan_id":"free"},{"bike_id":"42b71bb2-3e67-452d-bdb5-18d18eec3243","system_id":"levelo_inurba_marseille","lat":43.231794,"lon":5.400052,"is_reserved":false,"is_disabled":false,"rental_uris":{"android":"levelo://app?vid=42b71bb2-3e67-452d-bdb5-18d18eec3243","ios":"levelo://app?vid=42b71bb2-3e67-452d-bdb5-18d18eec3243"},"vehicle_type_id":"4","last_reported":1700770048,"current_range_meters":29200,"station_id":"ce4bhn12rcd13ifvqgqg","pricing_plan_id":"free"},{"bike_id":"d3b8a9d5-8f94-4141-9ce6-0e001b35d74c","system_id":"levelo_inurba_marseille","lat":43.231793,"lon":5.400044,"is_reserved":false,"is_disabled":false,"rental_uris":{"android":"levelo://app?vid=d3b8a9d5-8f94-4141-9ce6-0e001b35d74c","ios":"levelo://app?vid=d3b8a9d5-8f94-4141-9ce6-0e001b35d74c"},"vehicle_type_id":"4","last_reported":1700770048,"current_range_meters":0,"station_id":"ce4bhn12rcd13ifvqgqg","pricing_plan_id":"free"},{"bike_id":"ba6d79c0-6a21-43e4-a3e7-c61b28164239","system_id":"levelo_inurba_marseille","lat":43.231793,"lon":5.400044,"is_reserved":false,"is_disabled":false,"rental_uris":{"android":"levelo://app?vid=ba6d79c0-6a21-43e4-a3e7-c61b28164239","ios":"levelo://app?vid=ba6d79c0-6a21-43e4-a3e7-c61b28164239"},"vehicle_type_id":"4","last_reported":1700770048,"current_range_meters":0,"station_id":"ce4bhn12rcd13ifvqgqg","pricing_plan_id":"free"},{"bike_id":"62d0079e-a6d1-4abb-8137-335ef37b5185","system_id":"levelo_inurba_marseille","lat":43.2318,"lon":5.399812,"is_reserved":false,"is_disabled":false,"rental_uris":{"android":"levelo://app?vid=62d0079e-a6d1-4abb-8137-335ef37b5185","ios":"levelo://app?vid=62d0079e-a6d1-4abb-8137-335ef37b5185"},"vehicle_type_id":"4","last_reported":1700770048,"current_range_meters":24400,"station_id":"ce4bhn12rcd13ifvqgqg","pricing_plan_id":"free"},