{"last_updated":1729530487,"ttl":60,"version":"2.2","data":{"bikes":[{"bike_id":"61017442-9724-45d1-94c2-6da76473ae70","system_id":"levelo_inurba_marseille","lat":43.29529,"lon":5.39055,"is_reserved":false,"is_disabled":false,"rental_uris":{"android":"levelo://app?vid=61017442-9724-45d1-94c2-6da76473ae70","ios":"levelo://app?vid=61017442-9724-45d1-94c2-6da76473ae70"},"vehicle_type_id":"4","last_reported":1729530487,"current_range_meters":6400,"station_id":"ce4bh3p2rcd13ifvqdp0","pricing_plan_id":"cebpf4jnsgd1na2vs0mg"},{"bike_id":"25303329-63f3-4340-9446-f589ae1d2c77","system_id":"levelo_inurba_marseille","lat":43.28038,"lon":5.36947,"is_reserved":false,"is_disabled":false,"rental_uris":{"android":"levelo://app?vid=25303329-63f3-4340-9446-f589ae1d2c77","ios":"levelo://app?vid=25303329-63f3-4340-9446-f589ae1d2c77"},"vehicle_type_id":"4","last_reported":1729530487,"current_range_meters":12400,"station_id":"ce4bha12rcd13ifvqef0","pricing_plan_id":"cebpf4jnsgd1na2vs0mg"},{"bike_id":"51b68765-da36-4804-8b27-d95823e0de04","system_id":"levelo_inurba_marseille","lat":43.28152,"lon":5.42647,"is_reserved":false,"is_disabled":false,"rental_uris":{"android":"levelo://app?vid=51b68765-da36-4804-8b27-d95823e0de04","ios":"levelo://app?vid=51b68765-da36-4804-8b27-d95823e0de04"},"vehicle_type_id":"4","last_reported":1729530487,"current_range_meters":3200,"station_id":"ce4bhnh2rcd13ifvqgug","pricing_plan_id":"cebpf4jnsgd1na2vs0mg"},{"bike_id":"31769791-56b9-482b-baf5-1970980c6147","system_id":"levelo_inurba_marseille","lat":43.3047,"lon":5.37906,"is_reserved":false,"is_disabled":false,"rental_uris":{"android":"levelo://app?vid=31769791-56b9-482b-baf5-1970980c6147","ios":"levelo://app?vid=31769791-56b9-482b-baf5-1970980c6147"},"vehicle_type_id":"4","last_reported":1729530487,"current_range_meters":36000,"station_id":"ce4bgup2rcd13ifvqcn0","pricing_plan_id":"cebpf4jnsgd1na2vs0mg"},{"bike_id":"13b5d4a3-a9cc-4cda-a1cd-149aeb6f924a","system_id":"levelo_inurba_marseille","lat":43.25865,"lon":5.39904,"is_reserved":false,"is_disabled":false,"rental_uris":{"android":"levelo://app?vid=13b5d4a3-a9cc-4cda-a1cd-149aeb6f924a","ios":"levelo://app?vid=13b5d4a3-a9cc-4cda-a1cd-149aeb6f924a"},"vehicle_type_id":"4","last_reported":1729530487,"current_range_meters":6000,"station_id":"ce4bhl92rcd13ifvqghg","pricing_plan_id":"cebpf4jnsgd1na2vs0mg"},{"bike_id":"b144b6c5-d61c-4184-a8df-bd1bc4538cf6","system_id":"levelo_inurba_marseille","lat":43.30214,"lon":5.39474,"is_reserved":false,"is_disabled":false,"rental_uris":{"android":"levelo://app?vid=b144b6c5-d61c-4184-a8df-bd1bc4538cf6","ios":"levelo://app?vid=b144b6c5-d61c-4184-a8df-bd1bc4538cf6"},"vehicle_type_id":"4","last_reported":1729530487,"current_range_meters":8400,"station_id":"ce4bh0p2rcd13ifvqd70","pricing_plan_id":"cebpf4jnsgd1na2vs0mg"},{"bike_id":"eb69d266-7f9f-4bad-bf4b-cb0a701a9511","system_id":"levelo_inurba_marseille","lat":43.2793,"lon":5.41767,"is_reserved":false,"is_disabled":false,"rental_uris":{"android":"levelo://app?vid=eb69d266-7f9f-4bad-bf4b-cb0a701a9511","ios":"levelo://app?vid=eb69d266-7f9f-4bad-bf4b-cb0a701a9511"},"vehicle_type_id":"4","last_reported":1729530487,"current_range_meters":8800,"station_id":"","pricing_plan_id":"cebpf4jnsgd1na2vs0mg"},{"bike_id":"27deaf80-80f5-4a2b-87ea-8b529781f2c2","system_id":"levelo_inurba_marseille","lat":43.2293,"lon":5.3538,"is_reserved":false,"is_disabled":false,"rental_uris":{"android":"levelo://app?vid=27deaf80-80f5-4a2b-87ea-8b529781f2c2","ios":"levelo://app?vid=27deaf80-80f5-4a2b-87ea-8b529781f2c2"},"vehicle_type_id":"4","last_reported":1729530487,"current_range_meters":37600,"station_id":"cpo3532slgdg3j2ikp40","pricing_plan_id":"cebpf4jnsgd1na2vs0mg"},{"bike_id":"b0687237-974c-47c4-aef9-0a49fb9b3035","system_id":"levelo_inurba_marseille","lat":43.2961,"lon":5.37718,"is_reserved":false,"is_disabled":false,"rental_uris":{"android":"levelo://app?vid=b0687237-974c-47c4-aef9-0a49fb9b3035","ios":"levelo://app?vid=b0687237-974c-47c4-aef9-0a49fb9b3035"},"vehicle_type_id":"4","last_reported":1729530487,"current_range_meters":28000,"station_id":"ce4bgi92rcd13ifvqb90","pricing_plan_id":"cebpf4jnsgd1na2vs0mg"},{"bike_id":"3a3ee0e5-c8bf-4b93-8ef3-d2bb13644e27","system_id":"levelo_inurba_marseille","lat":43.2465,"lon":5.38896,"is_reserved":false,"is_disabled":false,"rental_uris":{"android":"levelo://app?vid=3a3ee0e5-c8bf-4b93-8ef3-d2bb13644e27","ios":"levelo://app?vid=3a3ee0e5-c8bf-4b93-8ef3-d2bb13644e27"},"vehicle_type_id":"4","last_reported":1729530487,"current_range_meters":30800,"station_id":"ce4bhg12rcd13ifvqf60","pricing_plan_id":"cebpf4jnsgd1na2vs0mg"},{"bike_id":"cbc36e17-1b75-4ac9-80e5-7f078369be2b","system_id":"levelo_inurba_marseille","lat":43.28489,"lon":5.38578,"is_reserved":false,"is_disabled":false,"rental_uris":{"android":"levelo://app?vid=cbc36e17-1b75-4ac9-80e5-7f078369be2b","ios":"levelo://app?vid=cbc36e17-1b75-4ac9-80e5-7f078369be2b"},"vehicle_type_id":"4","last_reported":1729530487,"current_range_meters":8400,"station_id":"ce4bh8p2rcd13ifvqeb0","pricing_plan_id":"cebpf4jnsgd1na2vs0mg"},{"bike_id":"a506f46d-0b8d-49e4-ab1b-090c334994cc","system_id":"levelo_inurba_marseille","lat":43.33024,"lon":5.39044,"is_reserved":false,"is_disabled":false,"rental_uris":{"android":"levelo://app?vid=a506f46d-0b8d-49e4-ab1b-090c334994cc","ios":"levelo://app?vid=a506f46d-0b8d-49e4-ab1b-090c334994cc"},"vehicle_type_id":"4","last_reported":1729530487,"current_range_meters":3200,"station_id":"ce4bhr92rcd13ifvqhrg","pricing_plan_id":"cebpf4jnsgd1na2vs0mg"},{"bike_id":"4375e82b-6335-4749-91aa-367204bbab9d","system_id":"levelo_inurba_marseille","lat":43.29522,"lon":5.39409,"is_reserved":false,"is_disabled":false,"rental_uris":{"android":"levelo://app?vid=4375e82b-6335-4749-91aa-367204bbab9d","ios":"levelo://app?vid=4375e82b-6335-4749-91aa-367204bbab9d"},"vehicle_type_id":"4","last_reported":1729530487,"current_range_meters":38400,"station_id":"ce4bh292rcd13ifvqdf0","pricing_plan_id":"cebpf4jnsgd1na2vs0mg"},{"bike_id":"d3c7e31c-9108-4a41-a2db-6d085e593fca","system_id":"levelo_inurba_marseille","lat":43.25879,"lon":5.3855,"is_reserved":false,"is_disabled":false,"rental_uris":{"android":"levelo://app?vid=d3c7e31c-9108-4a41-a2db-6d085e593fca","ios":"levelo://app?vid=d3c7e31c-9108-4a41-a2db-6d085e593fca"},"vehicle_type_id":"4","last_reported":1729530487,"current_range_meters":11200,"station_id":"","pricing_plan_id":"cebpf4jnsgd1na2vs0mg"},{"bike_id":"33a840db-2a3d-41af-8384-2fdfefcffb90","system_id":"levelo_inurba_marseille","lat":43.255737,"lon":5.382251,"is_reserved":false,"is_disabled":false,"rental_uris":{"android":"levelo://app?vid=33a840db-2a3d-41af-8384-2fdfefcffb90","ios":"levelo://app?vid=33a840db-2a3d-41af-8384-2fdfefcffb90"},"vehicle_type_id":"4","last_reported":1729530487,"current_range_meters":4000,"station_id":"ce4bhih2rcd13ifvqfs0","pricing_plan_id":"cebpf4jnsgd1na2vs0mg"},{"bike_id":"28e2fe0e-d337-4d03-8c3f-20f9f044561f","system_id":"levelo_inurba_marseille","lat":43.27494,"lon":5.42452,"is_reserved":false,"is_disabled":false,"rental_uris":{"android":"levelo://app?vid=28e2fe0e-d337-4d03-8c3f-20f9f044561f","ios":"levelo://app?vid=28e2fe0e-d337-4d03-8c3f-20f9f044561f"},"vehicle_type_id":"4","last_reported":1729530487,"current_range_meters":30000,"station_id":"ce4bhn92rcd13ifvqgrg","pricing_plan_id":"cebpf4jnsgd1na2vs0mg"},{"bike_id":"74342afb-6056-45ed-ab9d-0098ae7deeea","system_id":"levelo_inurba_marseille","lat":43.29974,"lon":5.3849,"is_reserved":false,"is_disabled":false,"rental_uris":{"android":"levelo://app?vid=74342afb-6056-45ed-ab9d-0098ae7deeea","ios":"levelo://app?vid=74342afb-6056-45ed-ab9d-0098ae7deeea"},"vehicle_type_id":"4","last_reported":1729530487,"current_range_meters":24400,"station_id":"ce4bgj92rcd13ifvqbd0","pricing_plan_id":"cebpf4jnsgd1na2vs0mg"},{"bike_id":"730f5f04-9cef-4a3d-8954-779ca2382258","system_id":"levelo_inurba_marseille","lat":43.32104,"lon":5.36784,"is_reserved":false,"is_disabled":false,"rental_uris":{"android":"levelo://app?vid=730f5f04-9cef-4a3d-8954-779ca2382258","ios":"levelo://app?vid=730f5f04-9cef-4a3d-8954-779ca2382258"},"vehicle_type_id":"4","last_reported":1729530487,"current_range_meters":38800,"station_id":"ce4bhrh2rcd13ifvqhug","pricing_plan_id":"cebpf4jnsgd1na2vs0mg"},{"bike_id":"0d9fea0d-5188-4ebc-a956-c466b2766e8c","system_id":"levelo_inurba_marseille","lat":43.27491,"lon":5.42457,"is_reserved":false,"is_disabled":false,"rental_uris":{"android":"levelo://app?vid=0d9fea0d-5188-4ebc-a956-c466b2766e8c","ios":"levelo://app?vid=0d9fea0d-5188-4ebc-a956-c466b2766e8c"},"vehicle_type_id":"4","last_reported":1729530487,"current_range_meters":8400,"station_id":"ce4bhn92rcd13ifvqgrg","pricing_plan_id":"cebpf4jnsgd1na2vs0mg"},{"bike_id":"156d53c4-63d7-4505-9760-d61f57a1c73e","system_id":"levelo_inurba_marseille","lat":43.31324,"lon":5.39698,"is_reserved":false,"is_disabled":false,"rental_uris":{"android":"levelo://app?vid=156d53c4-63d7-4505-9760-d61f57a1c73e","ios":"levelo://app?vid=156d53c4-63d7-4505-9760-d61f57a1c73e"},"vehicle_type_id":"4","last_reported":1729530487,"current_range_meters":10000,"station_id":"ce4bgvp2rcd13ifvqcu0","pricing_plan_id":"cebpf4jnsgd1na2vs0mg"},{"bike_id":"3c2e9290-6792-4e2d-b00d-712b965be0bd","system_id":"levelo_inurba_marseille","lat":43.26418,"lon":5.38692,"is_reserved":false,"is_disabled":false,"rental_uris":{"android":"levelo://app?vid=3c2e9290-6792-4e2d-b00d-712b965be0bd","ios":"levelo://app?vid=3c2e9290-6792-4e2d-b00d-712b965be0bd"},"vehicle_type_id":"4","last_reported":1729530487,"current_range_meters":12400,"station_id":"","pricing_plan_id":"cebpf4jnsgd1na2vs0mg"},{"bike_id":"b219bb02-ab00-4eb3-9a25-80d6e1e11a80","system_id":"levelo_inurba_marseille","lat":43.29843,"lon":5.36267,"is_reserved":false,"is_disabled":false,"rental_uris":{"android":"levelo://app?vid=b219bb02-ab00-4eb3-9a25-80d6e1e11a80","ios":"levelo://app?vid=b219bb02-ab00-4eb3-9a25-80d6e1e11a80"},"vehicle_type_id":"4","last_reported":1729530487,"current_range_meters":36000,"station_id":"ce4bgpp2rcd13ifvqc3g","pricing_plan_id":"cebpf4jnsgd1na2vs0mg"},{"bike_id":"70a2479b-5c1e-4cb7-9403-94a5046aff4b","system_id":"levelo_inurba_marseille","lat":43.30422,"lon":5.41284,"is_reserved":false,"is_disabled":false,"rental_uris":{"android":"levelo://app?vid=70a2479b-5c1e-4cb7-9403-94a5046aff4b","ios":"levelo://app?vid=70a2479b-5c1e-4cb7-9403-94a5046aff4b"},"vehicle_type_id":"4","last_reported":1729530487,"current_range_meters":14000,"station_id":"ce4bhop2rcd13ifvqh8g","pricing_plan_id":"cebpf4jnsgd1na2vs0mg"},{"bike_id":"2ef737c3-547b-47db-bf7c-a3ceac074802","system_id":"levelo_inurba_marseille","lat":43.2935,"lon":5.37575,"is_reserved":false,"is_disabled":false,"rental_uris":{"android":"levelo://app?vid=2ef737c3-547b-47db-bf7c-a3ceac074802","ios":"levelo://app?vid=2ef737c3-547b-47db-bf7c-a3ceac074802"},"vehicle_type_id":"4","last_reported":1729530487,"current_range_meters":4800,"station_id":"ce4bgi12rcd13ifvqb70","pricing_plan_id":"cebpf4jnsgd1na2vs0mg"},{"bike_id":"ab1295d8-40ea-43fa-92fa-abdc33824b2f","system_id":"levelo_inurba_marseille","lat":43.26058,"lon":5.38548,"is_reserved":false,"is_disabled":false,"rental_uris":{"android":"levelo://app?vid=ab1295d8-40ea-43fa-92fa-abdc33824b2f","ios":"levelo://app?vid=ab1295d8-40ea-43fa-92fa-abdc33824b2f"},"vehicle_type_id":"4","last_reported":1729530487,"current_range_meters":12400,"station_id":"","pricing_plan_id":"cebpf4jnsgd1na2vs0mg"},{"bike_id":"bd412037-428d-4822-9379-9e469e5c5273","system_id":"levelo_inurba_marseille","lat":43.23962,"lon":5.36628,"is_reserved":false,"is_disabled":false,"rental_uris":{"android":"levelo://app?vid=bd412037-428d-4822-9379-9e469e5c5273","ios":"levelo://app?vid=bd412037-428d-4822-9379-9e469e5c5273"},"vehicle_type_id":"4","last_reported":1729530487,"current_range_meters":20800,"station_id":"ce4bhi12rcd13ifvqfp0","pricing_plan_id":"cebpf4jnsgd1na2vs0mg"},{"bike_id":"beb738b2-a88d-4db9-841a-9b0398e618c4","system_id":"levelo_inurba_marseille","lat":43.29279,"lon":5.40119,"is_reserved":false,"is_disabled":false,"rental_uris":{"android":"levelo://app?vid=beb738b2-a88d-4db9-841a-9b0398e618c4","ios":"levelo://app?vid=beb738b2-a88d-4db9-841a-9b0398e618c4"},"vehicle_type_id":"4","last_reported":1729530487,"current_range_meters":30000,"station_id":"ce4bh312rcd13ifvqdk0","pricing_plan_id":"cebpf4jnsgd1na2vs0mg"},{"bike_id":"d587daae-0a71-435c-957b-ace6ff74f13a","system_id":"levelo_inurba_marseille","lat":43.23963,"lon":5.36633,"is_reserved":false,"is_disabled":false,"rental_uris":{"android":"levelo://app?vid=d587daae-0a71-435c-957b-ace6ff74f13a","ios":"levelo://app?vid=d587daae-0a71-435c-957b-ace6ff74f13a"},"vehicle_type_id":"4","last_reported":1729530487,"current_range_meters":6800,"station_id":"ce4bhi12rcd13ifvqfp0","pricing_plan_id":"cebpf4jnsgd1na2vs0mg"},{"bike_id":"c70e3cac-c5e8-4342-b4a8-387904598233","system_id":"levelo_inurba_marseille","lat":43.29964,"lon":5.37175,"is_reserved":false,"is_disabled":false,"rental_uris":{"android":"levelo://app?vid=c70e3cac-c5e8-4342-b4a8-387904598233","ios":"levelo://app?vid=c70e3cac-c5e8-4342-b4a8-387904598233"},"vehicle_type_id":"4","last_reported":1729530487,"current_range_meters":3200,"station_id":"ce4bgr92rcd13ifvqc7g","pricing_plan_id":"cebpf4jnsgd1na2vs0mg"},{"bike_id":"be83757d-ef26-4bc9-aa2a-919faeee55b3","system_id":"levelo_inurba_marseille","lat":43.29109,"lon":5.38136,"is_reserved":false,"is_disabled":false,"rental_uris":{"android":"levelo://app?vid=be83757d-ef26-4bc9-aa2a-919faeee55b3","ios":"levelo://app?vid=be83757d-ef26-4bc9-aa2a-919faeee55b3"},"vehicle_type_id":"4","last_reported":1729530487,"current_range_meters":3200,"station_id":"ce4bh512rcd13ifvqe2g","pricing_plan_id":"cebpf4jnsgd1na2vs0mg"},{"bike_id":"c37f7b49-8c87-4a1a-9296-36ba8ad10d6a","system_id":"levelo_inurba_marseille","lat":43.25769,"lon":5.38722,"is_reserved":false,"is_disabled":false,"rental_uris":{"android":"levelo://app?vid=c37f7b49-8c87-4a1a-9296-36ba8ad10d6a","ios":"levelo://app?vid=c37f7b49-8c87-4a1a-9296-36ba8ad10d6a"},"vehicle_type_id":"4","last_reported":1729530487,"current_range_meters":16000,"station_id":"","pricing_plan_id":"cebpf4jnsgd1na2vs0mg"},{"bike_id":"8807d192-8683-4ecb-be4e-df93364f8054","system_id":"levelo_inurba_marseille","lat":43.28041,"lon":5.36948,"is_reserved":false,"is_disabled":false,"rental_uris":{"android":"levelo://app?vid=8807d192-8683-4ecb-be4e-df93364f8054","ios":"levelo://app?vid=8807d192-8683-4ecb-be4e-df93364f8054"},"vehicle_type_id":"4","last_reported":1729530487,"current_range_meters":24800,"station_id":"ce4bha12rcd13ifvqef0","pricing_plan_id":"cebpf4jnsgd1na2vs0mg"},{"bike_id":"8a48f666-8656-48c8-8378-0c6db44847ed","system_id":"levelo_inurba_marseille","lat":43.279045,"lon":5.380269,"is_reserved":false,"is_disabled":false,"rental_uris":{"android":"levelo://app?vid=8a48f666-8656-48c8-8378-0c6db44847ed","ios":"levelo://app?vid=8a48f666-8656-48c8-8378-0c6db44847ed"},"vehicle_type_id":"4","last_reported":1729530487,"current_range_meters":30000,"station_id":"ce4bhf92rcd13ifvqf50","pricing_plan_id":"cebpf4jnsgd1na2vs0mg"},{"bike_id":"39ee9764-c305-469f-9d9c-27c097ea855c","system_id":"levelo_inurba_marseille","lat":43.23965,"lon":5.36641,"is_reserved":false,"is_disabled":false,"rental_uris":{"android":"levelo://app?vid=39ee9764-c305-469f-9d9c-27c097ea855c","ios":"levelo://app?vid=39ee9764-c305-469f-9d9c-27c097ea855c"},"vehicle_type_id":"4","last_reported":1729530487,"current_range_meters":4000,"station_id":"ce4bhi12rcd13ifvqfp0","pricing_plan_id":"cebpf4jnsgd1na2vs0mg"},{"bike_id":"2e9b13ff-ebec-4d94-ad15-0c12c0c1af04","system_id":"levelo_inurba_marseille","lat":43.29919,"lon":5.38139,"is_reserved":false,"is_disabled":false,"rental_uris":{"android":"levelo://app?vid=2e9b13ff-ebec-4d94-ad15-0c12c0c1af04","ios":"levelo://app?vid=2e9b13ff-ebec-4d94-ad15-0c12c0c1af04"},"vehicle_type_id":"4","last_reported":1729530487,"current_range_meters":30800,"station_id":"ce4bgj12rcd13ifvqbc0","pricing_plan_id":"cebpf4jnsgd1na2vs0mg"},{"bike_id":"b7caf2ba-da56-4cb6-a472-7c28d4fefd7b","system_id":"levelo_inurba_marseille","lat":43.28149,"lon":5.4265,"is_reserved":false,"is_disabled":false,"rental_uris":{"android":"levelo://app?vid=b7caf2ba-da56-4cb6-a472-7c28d4fefd7b","ios":"levelo://app?vid=b7caf2ba-da56-4cb6-a472-7c28d4fefd7b"},"vehicle_type_id":"4","last_reported":1729530487,"current_range_meters":17600,"station_id":"ce4bhnh2rcd13ifvqgug","pricing_plan_id":"cebpf4jnsgd1na2vs0mg"},{"bike_id":"331e76db-64ff-49ec-a461-e912064be1c7","system_id":"levelo_inurba_marseille","lat":43.25083,"lon":5.39515,"is_reserved":false,"is_disabled":false,"rental_uris":{"android":"levelo://app?vid=331e76db-64ff-49ec-a461-e912064be1c7","ios":"levelo://app?vid=331e76db-64ff-49ec-a461-e912064be1c7"},"vehicle_type_id":"4","last_reported":1729530487,"current_range_meters":13600,"station_id":"ce4bhm12rcd13ifvqgkg","pricing_plan_id":"cebpf4jnsgd1na2vs0mg"},{"bike_id":"c237e343-0a63-4b8f-bb1d-b6f275ad67d9","system_id":"levelo_inurba_marseille","lat":43.2846,"lon":5.35887,"is_reserved":false,"is_disabled":false,"rental_uris":{"android":"levelo://app?vid=c237e343-0a63-4b8f-bb1d-b6f275ad67d9","ios":"levelo://app?vid=c237e343-0a63-4b8f-bb1d-b6f275ad67d9"},"vehicle_type_id":"4","last_reported":1729530487,"current_range_meters":20800,"station_id":"ce4bhah2rcd13ifvqei0","pricing_plan_id":"cebpf4jnsgd1na2vs0mg"},{"bike_id":"ac121f52-7223-4793-ac6b-33e93e666ea2","system_id":"levelo_inurba_marseille","lat":43.3046,"lon":5.3791,"is_reserved":false,"is_disabled":false,"rental_uris":{"android":"levelo://app?vid=ac121f52-7223-4793-ac6b-33e93e666ea2","ios":"levelo://app?vid=ac121f52-7223-4793-ac6b-33e93e666ea2"},"vehicle_type_id":"4","last_reported":1729530487,"current_range_meters":8000,"station_id":"ce4bgup2rcd13ifvqcn0","pricing_plan_id":"cebpf4jnsgd1na2vs0mg"},{"bike_id":"864575c1-85b8-4008-92ba-391073d4ed51","system_id":"levelo_inurba_marseille","lat":43.23195,"lon":5.35559,"is_reserved":false,"is_disabled":false,"rental_uris":{"android":"levelo://app?vid=864575c1-85b8-4008-92ba-391073d4ed51","ios":"levelo://app?vid=864575c1-85b8-4008-92ba-391073d4ed51"},"vehicle_type_id":"4","last_reported":1729530487,"current_range_meters":28400,"station_id":"ce4bhu92rcd13ifvqi70","pricing_plan_id":"cebpf4jnsgd1na2vs0mg"},{"bike_id":"58e8180e-aabc-4fc0-bdaf-12be907424c3","system_id":"levelo_inurba_marseille","lat":43.24802,"lon":5.37458,"is_reserved":false,"is_disabled":false,"rental_uris":{"android":"levelo://app?vid=58e8180e-aabc-4fc0-bdaf-12be907424c3","ios":"levelo://app?vid=58e8180e-aabc-4fc0-bdaf-12be907424c3"},"vehicle_type_id":"4","last_reported":1729530487,"current_range_meters":3600,"station_id":"ce4bhgh2rcd13ifvqfb0","pricing_plan_id":"cebpf4jnsgd1na2vs0mg"},{"bike_id":"e6c03e7e-c894-41e0-8eed-4d016929f84d","system_id":"levelo_inurba_marseille","lat":43.24998,"lon":5.38932,"is_reserved":false,"is_disabled":false,"rental_uris":{"android":"levelo://app?vid=e6c03e7e-c894-41e0-8eed-4d016929f84d","ios":"levelo://app?vid=e6c03e7e-c894-41e0-8eed-4d016929f84d"},"vehicle_type_id":"4","last_reported":1729530487,"current_range_meters":38400,"station_id":"ce4bhgp2rcd13ifvqfd0","pricing_plan_id":"cebpf4jnsgd1na2vs0mg"},{"bike_id":"113e0657-99c0-475d-b42d-2c30206b397c","system_id":"levelo_inurba_marseille","lat":43.28043,"lon":5.36943,"is_reserved":false,"is_disabled":false,"rental_uris":{"android":"levelo://app?vid=113e0657-99c0-475d-b42d-2c30206b397c","ios":"levelo://app?vid=113e0657-99c0-475d-b42d-2c30206b397c"},"vehicle_type_id":"4","last_reported":1729530487,"current_range_meters":28400,"station_id":"ce4bha12rcd13ifvqef0","pricing_plan_id":"cebpf4jnsgd1na2vs0mg"},{"bike_id":"a6f3d9dd-8f00-4832-81d1-5b2137c2ae8e","system_id":"levelo_inurba_marseille","lat":43.29515,"lon":5.39049,"is_reserved":false,"is_disabled":false,"rental_uris":{"android":"levelo://app?vid=a6f3d9dd-8f00-4832-81d1-5b2137c2ae8e","ios":"levelo://app?vid=a6f3d9dd-8f00-4832-81d1-5b2137c2ae8e"},"vehicle_type_id":"4","last_reported":1729530487,"current_range_meters":2000,"station_id":"ce4bh3p2rcd13ifvqdp0","pricing_plan_id":"cebpf4jnsgd1na2vs0mg"},{"bike_id":"0728974d-1ad5-4181-91f2-6035aab7157d","system_id":"levelo_inurba_marseille","lat":43.23189,"lon":5.3555,"is_reserved":false,"is_disabled":false,"rental_uris":{"android":"levelo://app?vid=0728974d-1ad5-4181-91f2-6035aab7157d","ios":"levelo://app?vid=0728974d-1ad5-4181-91f2-6035aab7157d"},"vehicle_type_id":"4","last_reported":1729530487,"current_range_meters":39200,"station_id":"ce4bhu92rcd13ifvqi70","pricing_plan_id":"cebpf4jnsgd1na2vs0mg"},{"bike_id":"5929b29d-a2a7-4563-a2df-8addb59f3535","system_id":"levelo_inurba_marseille","lat":43.28971,"lon":5.37832,"is_reserved":false,"is_disabled":false,"rental_uris":{"android":"levelo://app?vid=5929b29d-a2a7-4563-a2df-8addb59f3535","ios":"levelo://app?vid=5929b29d-a2a7-4563-a2df-8addb59f3535"},"vehicle_type_id":"4","last_reported":1729530487,"current_range_meters":11200,"station_id":"ce4bh9p2rcd13ifvqed0","pricing_plan_id":"cebpf4jnsgd1na2vs0mg"},{"bike_id":"e3227fe8-85ba-4eb5-98d7-418c667c1cf1","system_id":"levelo_inurba_marseille","lat":43.3167,"lon":5.37544,"is_reserved":false,"is_disabled":false,"rental_uris":{"android":"levelo://app?vid=e3227fe8-85ba-4eb5-98d7-418c667c1cf1","ios":"levelo://app?vid=e3227fe8-85ba-4eb5-98d7-418c667c1cf1"},"vehicle_type_id":"4","last_reported":1729530487,"current_range_meters":15200,"station_id":"","pricing_plan_id":"cebpf4jnsgd1na2vs0mg"},{"bike_id":"fe6eaf28-94ff-43b0-bae1-b08ca247dabd","system_id":"levelo_inurba_marseille","lat":43.29602,"lon":5.38102,"is_reserved":false,"is_disabled":false,"rental_uris":{"android":"levelo://app?vid=fe6eaf28-94ff-43b0-bae1-b08ca247dabd","ios":"levelo://app?vid=fe6eaf28-94ff-43b0-bae1-b08ca247dabd"},"vehicle_type_id":"4","last_reported":1729530487,"current_range_meters":38000,"station_id":"ce4bgl12rcd13ifvqbo0","pricing_plan_id":"cebpf4jnsgd1na2vs0mg"},{"bike_id":"766ecdfc-e838-469d-a0dd-5153742f7cd7","system_id":"levelo_inurba_marseille","lat":43.28934,"lon":5.38389,"is_reserved":false,"is_disabled":false,"rental_uris":{"android":"levelo://app?vid=766ecdfc-e838-469d-a0dd-5153742f7cd7","ios":"levelo://app?vid=766ecdfc-e838-469d-a0dd-5153742f7cd7"},"vehicle_type_id":"4","last_reported":1729530487,"current_range_meters":7200,"station_id":"ce4bh612rcd13ifvqe6g","pricing_plan_id":"cebpf4jnsgd1na2vs0mg"},{"bike_id":"79a1e020-318b-42a1-a8c0-a424b1daf69e","system_id":"levelo_inurba_marseille","lat":43.296,"lon":5.36142,"is_reserved":false,"is_disabled":false,"rental_uris":{"android":"levelo://app?vid=79a1e020-318b-42a1-a8c0-a424b1daf69e","ios":"levelo://app?vid=79a1e020-318b-42a1-a8c0-a424b1daf69e"},"vehicle_type_id":"4","last_reported":1729530487,"current_range_meters":9600,"station_id":"","pricing_plan_id":"cebpf4jnsgd1na2vs0mg"},{"bike_id":"a7e77549-64c2-4772-a399-70278ec765d8","system_id":"levelo_inurba_marseille","lat":43.29922,"lon":5.37475,"is_reserved":false,"is_disabled":false,"rental_uris":{"android":"levelo://app?vid=a7e77549-64c2-4772-a399-70278ec765d8","ios":"levelo://app?vid=a7e77549-64c2-4772-a399-70278ec765d8"},"vehicle_type_id":"4","last_reported":1729530487,"current_range_meters":8800,"station_id":"ce4bgjh2rcd13ifvqbg0","pricing_plan_id":"cebpf4jnsgd1na2vs0mg"},{"bike_id":"5e522f09-89c4-49d0-9cd5-19fd1400ff51","system_id":"levelo_inurba_marseille","lat":43.290283,"lon":5.386526,"is_reserved":false,"is_disabled":false,"rental_uris":{"android":"levelo://app?vid=5e522f09-89c4-49d0-9cd5-19fd1400ff51","ios":"levelo://app?vid=5e522f09-89c4-49d0-9cd5-19fd1400ff51"},"vehicle_type_id":"4","last_reported":1729530487,"current_range_meters":3200,"station_id":"ce4bh4p2rcd13ifvqe0g","pricing_plan_id":"cebpf4jnsgd1na2vs0mg"},{"bike_id":"7adf842b-4b8c-4356-a23f-1be0cbaf4d21","system_id":"levelo_inurba_marseille","lat":43.2319,"lon":5.35549,"is_reserved":false,"is_disabled":false,"rental_uris":{"android":"levelo://app?vid=7adf842b-4b8c-4356-a23f-1be0cbaf4d21","ios":"levelo://app?vid=7adf842b-4b8c-4356-a23f-1be0cbaf4d21"},"vehicle_type_id":"4","last_reported":1729530487,"current_range_meters":15200,"station_id":"ce4bhu92rcd13ifvqi70","pricing_plan_id":"cebpf4jnsgd1na2vs0mg"},{"bike_id":"5878ac2d-e259-4e32-a9e6-e16ca4ac7334","system_id":"levelo_inurba_marseille","lat":43.28156,"lon":5.42648,"is_reserved":false,"is_disabled":false,"rental_uris":{"android":"levelo://app?vid=5878ac2d-e259-4e32-a9e6-e16ca4ac7334","ios":"levelo://app?vid=5878ac2d-e259-4e32-a9e6-e16ca4ac7334"},"vehicle_type_id":"4","last_reported":1729530487,"current_range_meters":20000,"station_id":"ce4bhnh2rcd13ifvqgug","pricing_plan_id":"cebpf4jnsgd1na2vs0mg"},{"bike_id":"4ac0ff5c-ee66-41d4-befb-6ecbfb08dddb","system_id":"levelo_inurba_marseille","lat":43.28457,"lon":5.35889,"is_reserved":false,"is_disabled":false,"rental_uris":{"android":"levelo://app?vid=4ac0ff5c-ee66-41d4-befb-6ecbfb08dddb","ios":"levelo://app?vid=4ac0ff5c-ee66-41d4-befb-6ecbfb08dddb"},"vehicle_type_id":"4","last_reported":1729530487,"current_range_meters":22000,"station_id":"ce4bhah2rcd13ifvqei0","pricing_plan_id":"cebpf4jnsgd1na2vs0mg"},{"bike_id":"bb5ad337-a22d-4183-8a77-656d47fdb66c","system_id":"levelo_inurba_marseille","lat":43.30243,"lon":5.40068,"is_reserved":false,"is_disabled":false,"rental_uris":{"android":"levelo://app?vid=bb5ad337-a22d-4183-8a77-656d47fdb66c","ios":"levelo://app?vid=bb5ad337-a22d-4183-8a77-656d47fdb66c"},"vehicle_type_id":"4","last_reported":1729530487,"current_range_meters":9200,"station_id":"ce4bgvh2rcd13ifvqcs0","pricing_plan_id":"cebpf4jnsgd1na2vs0mg"},{"bike_id":"b8f8c179-2e7c-4de5-93b7-c7f263dc38ab","system_id":"levelo_inurba_marseille","lat":43.26538,"lon":5.3904,"is_reserved":false,"is_disabled":false,"rental_uris":{"android":"levelo://app?vid=b8f8c179-2e7c-4de5-93b7-c7f263dc38ab","ios":"levelo://app?vid=b8f8c179-2e7c-4de5-93b7-c7f263dc38ab"},"vehicle_type_id":"4","last_reported":1729530487,"current_range_meters":6800,"station_id":"ce4bhe12rcd13ifvqf30","pricing_plan_id":"cebpf4jnsgd1na2vs0mg"},{"bike_id":"82a5643c-0d05-4424-820f-6ffec0d3e7e2","system_id":"levelo_inurba_marseille","lat":43.30147,"lon":5.38079,"is_reserved":false,"is_disabled":false,"rental_uris":{"android":"levelo://app?vid=82a5643c-0d05-4424-820f-6ffec0d3e7e2","ios":"levelo://app?vid=82a5643c-0d05-4424-820f-6ffec0d3e7e2"},"vehicle_type_id":"4","last_reported":1729530487,"current_range_meters":2800,"station_id":"ce4bgjp2rcd13ifvqbh0","pricing_plan_id":"cebpf4jnsgd1na2vs0mg"},{"bike_id":"3deb7234-53ed-4f96-bb5d-816792a9d0ce","system_id":"levelo_inurba_marseille","lat":43.28438,"lon":5.39184,"is_reserved":false,"is_disabled":false,"rental_uris":{"android":"levelo://app?vid=3deb7234-53ed-4f96-bb5d-816792a9d0ce","ios":"levelo://app?vid=3deb7234-53ed-4f96-bb5d-816792a9d0ce"},"vehicle_type_id":"4","last_reported":1729530487,"current_range_meters":7200,"station_id":"ce4bhoh2rcd13ifvqh5g","pricing_plan_id":"cebpf4jnsgd1na2vs0mg"},{"bike_id":"8ccac13e-2d17-4ec0-b2b5-9452d943ce86","system_id":"levelo_inurba_marseille","lat":43.28152,"lon":5.42648,"is_reserved":false,"is_disabled":false,"rental_uris":{"android":"levelo://app?vid=8ccac13e-2d17-4ec0-b2b5-9452d943ce86","ios":"levelo://app?vid=8ccac13e-2d17-4ec0-b2b5-9452d943ce86"},"vehicle_type_id":"4","last_reported":1729530487,"current_range_meters":5600,"station_id":"ce4bhnh2rcd13ifvqgug","pricing_plan_id":"cebpf4jnsgd1na2vs0mg"},{"bike_id":"5b74a4fc-1794-4fba-ba78-4df8c59a084c","system_id":"levelo_inurba_marseille","lat":43.31324,"lon":5.39698,"is_reserved":false,"is_disabled":false,"rental_uris":{"android":"levelo://app?vid=5b74a4fc-1794-4fba-ba78-4df8c59a084c","ios":"levelo://app?vid=5b74a4fc-1794-4fba-ba78-4df8c59a084c"},"vehicle_type_id":"4","last_reported":1729530487,"current_range_meters":27200,"station_id":"ce4bgvp2rcd13ifvqcu0","pricing_plan_id":"cebpf4jnsgd1na2vs0mg"},{"bike_id":"c3945b60-e38d-4106-8f18-92c7f436cc4f","system_id":"levelo_inurba_marseille","lat":43.33757,"lon":5.37448,"is_reserved":false,"is_disabled":false,"rental_uris":{"android":"levelo://app?vid=c3945b60-e38d-4106-8f18-92c7f436cc4f","ios":"levelo://app?vid=c3945b60-e38d-4106-8f18-92c7f436cc4f"},"vehicle_type_id":"4","last_reported":1729530487,"current_range_meters":35600,"station_id":"","pricing_plan_id":"cebpf4jnsgd1na2vs0mg"},{"bike_id":"de1ff86d-3061-40a1-be1e-8be446e6115e","system_id":"levelo_inurba_marseille","lat":43.29585,"lon":5.38173,"is_reserved":false,"is_disabled":false,"rental_uris":{"android":"levelo://app?vid=de1ff86d-3061-40a1-be1e-8be446e6115e","ios":"levelo://app?vid=de1ff86d-3061-40a1-be1e-8be446e6115e"},"vehicle_type_id":"4","last_reported":1729530487,"current_range_meters":18800,"station_id":"","pricing_plan_id":"cebpf4jnsgd1na2vs0mg"},{"bike_id":"3cb6d853-d34a-4728-aa02-160b45e8b87a","system_id":"levelo_inurba_marseille","lat":43.27945,"lon":5.41058,"is_reserved":false,"is_disabled":false,"rental_uris":{"android":"levelo://app?vid=3cb6d853-d34a-4728-aa02-160b45e8b87a","ios":"levelo://app?vid=3cb6d853-d34a-4728-aa02-160b45e8b87a"},"vehicle_type_id":"4","last_reported":1729530487,"current_range_meters":14800,"station_id":"ce4bhnp2rcd13ifvqh0g","pricing_plan_id":"cebpf4jnsgd1na2vs0mg"},{"bike_id":"882e7ff9-5154-4f73-a52c-e37c88e046c2","system_id":"levelo_inurba_marseille","lat":43.28967,"lon":5.3784,"is_reserved":false,"is_disabled":false,"rental_uris":{"android":"levelo://app?vid=882e7ff9-5154-4f73-a52c-e37c88e046c2","ios":"levelo://app?vid=882e7ff9-5154-4f73-a52c-e37c88e046c2"},"vehicle_type_id":"4","last_reported":1729530487,"current_range_meters":32400,"station_id":"ce4bh9p2rcd13ifvqed0","pricing_plan_id":"cebpf4jnsgd1na2vs0mg"},{"bike_id":"ff99ace1-5aeb-4daf-8d5e-ada4880e973b","system_id":"levelo_inurba_marseille","lat":43.30883,"lon":5.37192,"is_reserved":false,"is_disabled":false,"rental_uris":{"android":"levelo://app?vid=ff99ace1-5aeb-4daf-8d5e-ada4880e973b","ios":"levelo://app?vid=ff99ace1-5aeb-4daf-8d5e-ada4880e973b"},"vehicle_type_id":"4","last_reported":1729530487,"current_range_meters":30000,"station_id":"ce4bguh2rcd13ifvqckg","pricing_plan_id":"cebpf4jnsgd1na2vs0mg"},{"bike_id":"7233387b-1c3e-4ff5-aafd-8776c68871f6","system_id":"levelo_inurba_marseille","lat":43.28354,"lon":5.38106,"is_reserved":false,"is_disabled":false,"rental_uris":{"android":"levelo://app?vid=7233387b-1c3e-4ff5-aafd-8776c68871f6","ios":"levelo://app?vid=7233387b-1c3e-4ff5-aafd-8776c68871f6"},"vehicle_type_id":"4","last_reported":1729530487,"current_range_meters":19200,"station_id":"ce4bh412rcd13ifvqdr0","pricing_plan_id":"cebpf4jnsgd1na2vs0mg"},{"bike_id":"3101cc38-281c-49ac-b471-d3801914a0f7","system_id":"levelo_inurba_marseille","lat":43.2872,"lon":5.36087,"is_reserved":false,"is_disabled":false,"rental_uris":{"android":"levelo://app?vid=3101cc38-281c-49ac-b471-d3801914a0f7","ios":"levelo://app?vid=3101cc38-281c-49ac-b471-d3801914a0f7"},"vehicle_type_id":"4","last_reported":1729530487,"current_range_meters":27600,"station_id":"cki0cbj6b192h4jlfktg","pricing_plan_id":"cebpf4jnsgd1na2vs0mg"},{"bike_id":"e8fbe444-d72d-43f0-b347-936fcb0e8901","system_id":"levelo_inurba_marseille","lat":43.29571,"lon":5.39984,"is_reserved":false,"is_disabled":false,"rental_uris":{"android":"levelo://app?vid=e8fbe444-d72d-43f0-b347-936fcb0e8901","ios":"levelo://app?vid=e8fbe444-d72d-43f0-b347-936fcb0e8901"},"vehicle_type_id":"4","last_reported":1729530487,"current_range_meters":10800,"station_id":"ce4bh312rcd13ifvqdj0","pricing_plan_id":"cebpf4jnsgd1na2vs0mg"},{"bike_id":"37f89261-f146-421f-a8bc-38c0231b0a3e","system_id":"levelo_inurba_marseille","lat":43.29705,"lon":5.36614,"is_reserved":false,"is_disabled":false,"rental_uris":{"android":"levelo://app?vid=37f89261-f146-421f-a8bc-38c0231b0a3e","ios":"levelo://app?vid=37f89261-f146-421f-a8bc-38c0231b0a3e"},"vehicle_type_id":"4","last_reported":1729530487,"current_range_meters":38400,"station_id":"ce4bgn12rcd13ifvqbt0","pricing_plan_id":"cebpf4jnsgd1na2vs0mg"},{"bike_id":"ba6cf953-b332-4003-91a8-44f94ea85183","system_id":"levelo_inurba_marseille","lat":43.32036,"lon":5.41556,"is_reserved":false,"is_disabled":false,"rental_uris":{"android":"levelo://app?vid=ba6cf953-b332-4003-91a8-44f94ea85183","ios":"levelo://app?vid=ba6cf953-b332-4003-91a8-44f94ea85183"},"vehicle_type_id":"4","last_reported":1729530487,"current_range_meters":8800,"station_id":"ce4bhq92rcd13ifvqhkg","pricing_plan_id":"cebpf4jnsgd1na2vs0mg"},{"bike_id":"4bd37352-97d8-4778-85df-57a55b54677c","system_id":"levelo_inurba_marseille","lat":43.24651,"lon":5.38901,"is_reserved":false,"is_disabled":false,"rental_uris":{"android":"levelo://app?vid=4bd37352-97d8-4778-85df-57a55b54677c","ios":"levelo://app?vid=4bd37352-97d8-4778-85df-57a55b54677c"},"vehicle_type_id":"4","last_reported":1729530487,"current_range_meters":18800,"station_id":"ce4bhg12rcd13ifvqf60","pricing_plan_id":"cebpf4jnsgd1na2vs0mg"},{"bike_id":"6faa0f23-78c0-47a2-8364-5e2fa4af5bb1","system_id":"levelo_inurba_marseille","lat":43.30786,"lon":5.3765,"is_reserved":false,"is_disabled":false,"rental_uris":{"android":"levelo://app?vid=6faa0f23-78c0-47a2-8364-5e2fa4af5bb1","ios":"levelo://app?vid=6faa0f23-78c0-47a2-8364-5e2fa4af5bb1"},"vehicle_type_id":"4","last_reported":1729530487,"current_range_meters":30000,"station_id":"ce4bgv92rcd13ifvqcq0","pricing_plan_id":"cebpf4jnsgd1na2vs0mg"},{"bike_id":"8e6e2140-9018-4bfb-9d04-7fbfa5dde3a5","system_id":"levelo_inurba_marseille","lat":43.32105,"lon":5.36775,"is_reserved":false,"is_disabled":false,"rental_uris":{"android":"levelo://app?vid=8e6e2140-9018-4bfb-9d04-7fbfa5dde3a5","ios":"levelo://app?vid=8e6e2140-9018-4bfb-9d04-7fbfa5dde3a5"},"vehicle_type_id":"4","last_reported":1729530487,"current_range_meters":36400,"station_id":"ce4bhrh2rcd13ifvqhug","pricing_plan_id":"cebpf4jnsgd1na2vs0mg"},{"bike_id":"e82871a2-7fdd-4331-a4ea-b63d27f3cd74","system_id":"levelo_inurba_marseille","lat":43.24177,"lon":5.39739,"is_reserved":false,"is_disabled":false,"rental_uris":{"android":"levelo://app?vid=e82871a2-7fdd-4331-a4ea-b63d27f3cd74","ios":"levelo://app?vid=e82871a2-7fdd-4331-a4ea-b63d27f3cd74"},"vehicle_type_id":"4","last_reported":1729530487,"current_range_meters":39200,"station_id":"ce4bhn12rcd13ifvqgpg","pricing_plan_id":"cebpf4jnsgd1na2vs0mg"},{"bike_id":"17d5d69d-968f-4c6c-96fb-aa4c87909a38","system_id":"levelo_inurba_marseille","lat":43.30467,"lon":5.37916,"is_reserved":false,"is_disabled":false,"rental_uris":{"android":"levelo://app?vid=17d5d69d-968f-4c6c-96fb-aa4c87909a38","ios":"levelo://app?vid=17d5d69d-968f-4c6c-96fb-aa4c87909a38"},"vehicle_type_id":"4","last_reported":1729530487,"current_range_meters":20400,"station_id":"ce4bgup2rcd13ifvqcn0","pricing_plan_id":"cebpf4jnsgd1na2vs0mg"},{"bike_id":"ea52757c-9ac3-4ead-bd65-afdb981187b5","system_id":"levelo_inurba_marseille","lat":43.29882,"lon":5.38903,"is_reserved":false,"is_disabled":false,"rental_uris":{"android":"levelo://app?vid=ea52757c-9ac3-4ead-bd65-afdb981187b5","ios":"levelo://app?vid=ea52757c-9ac3-4ead-bd65-afdb981187b5"},"vehicle_type_id":"4","last_reported":1729530487,"current_range_meters":32400,"station_id":"ce4bh392rcd13ifvqdl0","pricing_plan_id":"cebpf4jnsgd1na2vs0mg"},{"bike_id":"e8523b74-a65b-460f-9338-418cfa6025b3","system_id":"levelo_inurba_marseille","lat":43.29793,"lon":5.38211,"is_reserved":false,"is_disabled":false,"rental_uris":{"android":"levelo://app?vid=e8523b74-a65b-460f-9338-418cfa6025b3","ios":"levelo://app?vid=e8523b74-a65b-460f-9338-418cfa6025b3"},"vehicle_type_id":"4","last_reported":1729530487,"current_range_meters":6400,"station_id":"ce4bgip2rcd13ifvqbb0","pricing_plan_id":"cebpf4jnsgd1na2vs0mg"},{"bike_id":"5c348def-1ea7-4718-a436-de63d5d085b5","system_id":"levelo_inurba_marseille","lat":43.23193,"lon":5.35558,"is_reserved":false,"is_disabled":false,"rental_uris":{"android":"levelo://app?vid=5c348def-1ea7-4718-a436-de63d5d085b5","ios":"levelo://app?vid=5c348def-1ea7-4718-a436-de63d5d085b5"},"vehicle_type_id":"4","last_reported":1729530487,"current_range_meters":38000,"station_id":"ce4bhu92rcd13ifvqi70","pricing_plan_id":"cebpf4jnsgd1na2vs0mg"},{"bike_id":"1195172e-a044-4ada-a3fa-6afdbc595960","system_id":"levelo_inurba_marseille","lat":43.24667,"lon":5.38158,"is_reserved":false,"is_disabled":false,"rental_uris":{"android":"levelo://app?vid=1195172e-a044-4ada-a3fa-6afdbc595960","ios":"levelo://app?vid=1195172e-a044-4ada-a3fa-6afdbc595960"},"vehicle_type_id":"4","last_reported":1729530487,"current_range_meters":28800,"station_id":"ce4bhih2rcd13ifvqfr0","pricing_plan_id":"cebpf4jnsgd1na2vs0mg"},{"bike_id":"6012ddb5-d07b-481c-827d-239ef5b346df","system_id":"levelo_inurba_marseille","lat":43.24395,"lon":5.37062,"is_reserved":false,"is_disabled":false,"rental_uris":{"android":"levelo://app?vid=6012ddb5-d07b-481c-827d-239ef5b346df","ios":"levelo://app?vid=6012ddb5-d07b-481c-827d-239ef5b346df"},"vehicle_type_id":"4","last_reported":1729530487,"current_range_meters":6800,"station_id":"ce4bhhh2rcd13ifvqfk0","pricing_plan_id":"cebpf4jnsgd1na2vs0mg"},{"bike_id":"90cfdbfe-bf29-46fa-b1cb-739ffe8735fe","system_id":"levelo_inurba_marseille","lat":43.299244,"lon":5.37468,"is_reserved":false,"is_disabled":false,"rental_uris":{"android":"levelo://app?vid=90cfdbfe-bf29-46fa-b1cb-739ffe8735fe","ios":"levelo://app?vid=90cfdbfe-bf29-46fa-b1cb-739ffe8735fe"},"vehicle_type_id":"4","last_reported":1729530487,"current_range_meters":4800,"station_id":"ce4bh612rcd13ifvqe6g","pricing_plan_id":"cebpf4jnsgd1na2vs0mg"},{"bike_id":"0580b011-a578-4284-85b5-4dcd704443ef","system_id":"levelo_inurba_marseille","lat":43.311744,"lon":5.387164,"is_reserved":false,"is_disabled":false,"rental_uris":{"android":"levelo://app?vid=0580b011-a578-4284-85b5-4dcd704443ef","ios":"levelo://app?vid=0580b011-a578-4284-85b5-4dcd704443ef"},"vehicle_type_id":"4","last_reported":1729530487,"current_range_meters":32800,"station_id":"ce4bgv12rcd13ifvqcp0","pricing_plan_id":"cebpf4jnsgd1na2vs0mg"},{"bike_id":"815dd284-1bd2-4bb9-992a-b2116e2485bc","system_id":"levelo_inurba_marseille","lat":43.33005,"lon":5.36365,"is_reserved":false,"is_disabled":false,"rental_uris":{"android":"levelo://app?vid=815dd284-1bd2-4bb9-992a-b2116e2485bc","ios":"levelo://app?vid=815dd284-1bd2-4bb9-992a-b2116e2485bc"},"vehicle_type_id":"4","last_reported":1729530487,"current_range_meters":36800,"station_id":"","pricing_plan_id":"cebpf4jnsgd1na2vs0mg"},{"bike_id":"33fc5830-e254-4166-b32d-7723c7d83d03","system_id":"levelo_inurba_marseille","lat":43.294541,"lon":5.386209,"is_reserved":false,"is_disabled":false,"rental_uris":{"android":"levelo://app?vid=33fc5830-e254-4166-b32d-7723c7d83d03","ios":"levelo://app?vid=33fc5830-e254-4166-b32d-7723c7d83d03"},"vehicle_type_id":"4","last_reported":1729530487,"current_range_meters":7200,"station_id":"chh1huq6cuj3fo74tm60","pricing_plan_id":"cebpf4jnsgd1na2vs0mg"},{"bike_id":"d8ec9578-3eea-4b16-8d5d-148f7299cc42","system_id":"levelo_inurba_marseille","lat":43.27494,"lon":5.42451,"is_reserved":false,"is_disabled":false,"rental_uris":{"android":"levelo://app?vid=d8ec9578-3eea-4b16-8d5d-148f7299cc42","ios":"levelo://app?vid=d8ec9578-3eea-4b16-8d5d-148f7299cc42"},"vehicle_type_id":"4","last_reported":1729530487,"current_range_meters":36000,"station_id":"ce4bhn92rcd13ifvqgrg","pricing_plan_id":"cebpf4jnsgd1na2vs0mg"},{"bike_id":"2c1fae55-921d-4a72-86b0-19b559b438c8","system_id":"levelo_inurba_marseille","lat":43.31726,"lon":5.42399,"is_reserved":false,"is_disabled":false,"rental_uris":{"android":"levelo://app?vid=2c1fae55-921d-4a72-86b0-19b559b438c8","ios":"levelo://app?vid=2c1fae55-921d-4a72-86b0-19b559b438c8"},"vehicle_type_id":"4","last_reported":1729530487,"current_range_meters":32800,"station_id":"ce4bhp92rcd13ifvqhbg","pricing_plan_id":"cebpf4jnsgd1na2vs0mg"},{"bike_id":"99a2decb-b387-4ac9-9e19-1a7a266e05e5","system_id":"levelo_inurba_marseille","lat":43.30135,"lon":5.38794,"is_reserved":false,"is_disabled":false,"rental_uris":{"android":"levelo://app?vid=99a2decb-b387-4ac9-9e19-1a7a266e05e5","ios":"levelo://app?vid=99a2decb-b387-4ac9-9e19-1a7a266e05e5"},"vehicle_type_id":"4","last_reported":1729530487,"current_range_meters":32000,"station_id":"ce4bghh2rcd13ifvqb60","pricing_plan_id":"cebpf4jnsgd1na2vs0mg"},{"bike_id":"09cb8207-c804-47c7-9699-59cc1a14b677","system_id":"levelo_inurba_marseille","lat":43.23061,"lon":5.3549,"is_reserved":false,"is_disabled":false,"rental_uris":{"android":"levelo://app?vid=09cb8207-c804-47c7-9699-59cc1a14b677","ios":"levelo://app?vid=09cb8207-c804-47c7-9699-59cc1a14b677"},"vehicle_type_id":"4","last_reported":1729530487,"current_range_meters":36800,"station_id":"cpo3342slgdg3j2ifvpg","pricing_plan_id":"cebpf4jnsgd1na2vs0mg"},{"bike_id":"94e8a5ee-bb0a-430c-8a60-3c9aa96a91a9","system_id":"levelo_inurba_marseille","lat":43.29253,"lon":5.38436,"is_reserved":false,"is_disabled":false,"rental_uris":{"android":"levelo://app?vid=94e8a5ee-bb0a-430c-8a60-3c9aa96a91a9","ios":"levelo://app?vid=94e8a5ee-bb0a-430c-8a60-3c9aa96a91a9"},"vehicle_type_id":"4","last_reported":1729530487,"current_range_meters":21600,"station_id":"ce4bh692rcd13ifvqea0","pricing_plan_id":"cebpf4jnsgd1na2vs0mg"},{"bike_id":"0922a03f-04f7-46e3-8136-372c1bdc8e40","system_id":"levelo_inurba_marseille","lat":43.32036,"lon":5.4155,"is_reserved":false,"is_disabled":false,"rental_uris":{"android":"levelo://app?vid=0922a03f-04f7-46e3-8136-372c1bdc8e40","ios":"levelo://app?vid=0922a03f-04f7-46e3-8136-372c1bdc8e40"},"vehicle_type_id":"4","last_reported":1729530487,"current_range_meters":21600,"station_id":"ce4bhq92rcd13ifvqhkg","pricing_plan_id":"cebpf4jnsgd1na2vs0mg"},{"bike_id":"05ad6b78-48fe-4bc0-abfe-f22e368abe4a","system_id":"levelo_inurba_marseille","lat":43.23961,"lon":5.3663,"is_reserved":false,"is_disabled":false,"rental_uris":{"android":"levelo://app?vid=05ad6b78-48fe-4bc0-abfe-f22e368abe4a","ios":"levelo://app?vid=05ad6b78-48fe-4bc0-abfe-f22e368abe4a"},"vehicle_type_id":"4","last_reported":1729530487,"current_range_meters":3200,"station_id":"ce4bhi12rcd13ifvqfp0","pricing_plan_id":"cebpf4jnsgd1na2vs0mg"},{"bike_id":"d6056c03-fd9a-4318-ab01-54fcb42b30ff","system_id":"levelo_inurba_marseille","lat":43.27616,"lon":5.36114,"is_reserved":false,"is_disabled":false,"rental_uris":{"android":"levelo://app?vid=d6056c03-fd9a-4318-ab01-54fcb42b30ff","ios":"levelo://app?vid=d6056c03-fd9a-4318-ab01-54fcb42b30ff"},"vehicle_type_id":"4","last_reported":1729530487,"current_range_meters":24000,"station_id":"ce4bgj92rcd13ifvqbe0","pricing_plan_id":"cebpf4jnsgd1na2vs0mg"},{"bike_id":"ae3fcb04-be9a-4eda-86cc-c69683243e47","system_id":"levelo_inurba_marseille","lat":43.23959,"lon":5.36633,"is_reserved":false,"is_disabled":false,"rental_uris":{"android":"levelo://app?vid=ae3fcb04-be9a-4eda-86cc-c69683243e47","ios":"levelo://app?vid=ae3fcb04-be9a-4eda-86cc-c69683243e47"},"vehicle_type_id":"4","last_reported":1729530487,"current_range_meters":39200,"station_id":"ce4bhi12rcd13ifvqfp0","pricing_plan_id":"cebpf4jnsgd1na2vs0mg"},{"bike_id":"e01af3fb-a46a-472a-a9ce-4d0d6e75d0db","system_id":"levelo_inurba_marseille","lat":43.2846,"lon":5.35883,"is_reserved":false,"is_disabled":false,"rental_uris":{"android":"levelo://app?vid=e01af3fb-a46a-472a-a9ce-4d0d6e75d0db","ios":"levelo://app?vid=e01af3fb-a46a-472a-a9ce-4d0d6e75d0db"},"vehicle_type_id":"4","last_reported":1729530487,"current_range_meters":39200,"station_id":"ce4bhah2rcd13ifvqei0","pricing_plan_id":"cebpf4jnsgd1na2vs0mg"},{"bike_id":"32e8a846-247f-43b1-86c3-c05fe83b628d","system_id":"levelo_inurba_marseille","lat":43.28442,"lon":5.392,"is_reserved":false,"is_disabled":false,"rental_uris":{"android":"levelo://app?vid=32e8a846-247f-43b1-86c3-c05fe83b628d","ios":"levelo://app?vid=32e8a846-247f-43b1-86c3-c05fe83b628d"},"vehicle_type_id":"4","last_reported":1729530487,"current_range_meters":9200,"station_id":"ce4bhoh2rcd13ifvqh5g","pricing_plan_id":"cebpf4jnsgd1na2vs0mg"},{"bike_id":"e163b74c-51b0-40b6-93a4-734070539e5c","system_id":"levelo_inurba_marseille","lat":43.28081,"lon":5.3967,"is_reserved":false,"is_disabled":false,"rental_uris":{"android":"levelo://app?vid=e163b74c-51b0-40b6-93a4-734070539e5c","ios":"levelo://app?vid=e163b74c-51b0-40b6-93a4-734070539e5c"},"vehicle_type_id":"4","last_reported":1729530487,"current_range_meters":26000,"station_id":"ce4bho12rcd13ifvqh2g","pricing_plan_id":"cebpf4jnsgd1na2vs0mg"},{"bike_id":"b2fd20ff-fdef-4b80-a34a-45e12b46c732","system_id":"levelo_inurba_marseille","lat":43.29552,"lon":5.42287,"is_reserved":false,"is_disabled":false,"rental_uris":{"android":"levelo://app?vid=b2fd20ff-fdef-4b80-a34a-45e12b46c732","ios":"levelo://app?vid=b2fd20ff-fdef-4b80-a34a-45e12b46c732"},"vehicle_type_id":"4","last_reported":1729530487,"current_range_meters":12800,"station_id":"ce4bhph2rcd13ifvqhdg","pricing_plan_id":"cebpf4jnsgd1na2vs0mg"},{"bike_id":"605c3c04-dfb3-4694-b698-42295be26d16","system_id":"levelo_inurba_marseille","lat":43.3133,"lon":5.39692,"is_reserved":false,"is_disabled":false,"rental_uris":{"android":"levelo://app?vid=605c3c04-dfb3-4694-b698-42295be26d16","ios":"levelo://app?vid=605c3c04-dfb3-4694-b698-42295be26d16"},"vehicle_type_id":"4","last_reported":1729530487,"current_range_meters":19200,"station_id":"ce4bgvp2rcd13ifvqcu0","pricing_plan_id":"cebpf4jnsgd1na2vs0mg"},{"bike_id":"f492cfe2-3b10-4e35-b549-6e0eeb663229","system_id":"levelo_inurba_marseille","lat":43.28717,"lon":5.37938,"is_reserved":false,"is_disabled":false,"rental_uris":{"android":"levelo://app?vid=f492cfe2-3b10-4e35-b549-6e0eeb663229","ios":"levelo://app?vid=f492cfe2-3b10-4e35-b549-6e0eeb663229"},"vehicle_type_id":"4","last_reported":1729530487,"current_range_meters":32800,"station_id":"ce4bh9p2rcd13ifvqec0","pricing_plan_id":"cebpf4jnsgd1na2vs0mg"},{"bike_id":"4b8b12f6-c31d-423b-9af6-72bae1a98a98","system_id":"levelo_inurba_marseille","lat":43.27375,"lon":5.36266,"is_reserved":false,"is_disabled":false,"rental_uris":{"android":"levelo://app?vid=4b8b12f6-c31d-423b-9af6-72bae1a98a98","ios":"levelo://app?vid=4b8b12f6-c31d-423b-9af6-72bae1a98a98"},"vehicle_type_id":"4","last_reported":1729530487,"current_range_meters":38800,"station_id":"ce4bhbh2rcd13ifvqeo0","pricing_plan_id":"cebpf4jnsgd1na2vs0mg"},{"bike_id":"ed467ade-d11e-4db9-afe3-3c13dd50d430","system_id":"levelo_inurba_marseille","lat":43.26563,"lon":5.39028,"is_reserved":false,"is_disabled":false,"rental_uris":{"android":"levelo://app?vid=ed467ade-d11e-4db9-afe3-3c13dd50d430","ios":"levelo://app?vid=ed467ade-d11e-4db9-afe3-3c13dd50d430"},"vehicle_type_id":"4","last_reported":1729530487,"current_range_meters":20800,"station_id":"ce4bhe12rcd13ifvqf30","pricing_plan_id":"cebpf4jnsgd1na2vs0mg"},{"bike_id":"29790acf-3eb2-4162-88e7-613e5b614d50","system_id":"levelo_inurba_marseille","lat":43.28853,"lon":5.35867,"is_reserved":false,"is_disabled":false,"rental_uris":{"android":"levelo://app?vid=29790acf-3eb2-4162-88e7-613e5b614d50","ios":"levelo://app?vid=29790acf-3eb2-4162-88e7-613e5b614d50"},"vehicle_type_id":"4","last_reported":1729530487,"current_range_meters":33600,"station_id":"ce4bhb12rcd13ifvqem0","pricing_plan_id":"cebpf4jnsgd1na2vs0mg"},{"bike_id":"54b22530-90c5-41af-8a09-c0f181abe19a","system_id":"levelo_inurba_marseille","lat":43.27808,"lon":5.40713,"is_reserved":false,"is_disabled":false,"rental_uris":{"android":"levelo://app?vid=54b22530-90c5-41af-8a09-c0f181abe19a","ios":"levelo://app?vid=54b22530-90c5-41af-8a09-c0f181abe19a"},"vehicle_type_id":"4","last_reported":1729530487,"current_range_meters":8400,"station_id":"ce4bhnh2rcd13ifvqgtg","pricing_plan_id":"cebpf4jnsgd1na2vs0mg"},{"bike_id":"68715265-6161-4020-9a34-18e563cb6e80","system_id":"levelo_inurba_marseille","lat":43.28152,"lon":5.42649,"is_reserved":false,"is_disabled":false,"rental_uris":{"android":"levelo://app?vid=68715265-6161-4020-9a34-18e563cb6e80","ios":"levelo://app?vid=68715265-6161-4020-9a34-18e563cb6e80"},"vehicle_type_id":"4","last_reported":1729530487,"current_range_meters":25600,"station_id":"ce4bhnh2rcd13ifvqgug","pricing_plan_id":"cebpf4jnsgd1na2vs0mg"},{"bike_id":"890c7c65-b71f-45eb-a663-2faea78039e0","system_id":"levelo_inurba_marseille","lat":43.26677,"lon":5.38271,"is_reserved":false,"is_disabled":false,"rental_uris":{"android":"levelo://app?vid=890c7c65-b71f-45eb-a663-2faea78039e0","ios":"levelo://app?vid=890c7c65-b71f-45eb-a663-2faea78039e0"},"vehicle_type_id":"4","last_reported":1729530487,"current_range_meters":8400,"station_id":"ce4bhg92rcd13ifvqf90","pricing_plan_id":"cebpf4jnsgd1na2vs0mg"},{"bike_id":"cdde0a8a-4c0e-41cd-8d5f-4c67e72bf949","system_id":"levelo_inurba_marseille","lat":43.28936,"lon":5.36635,"is_reserved":false,"is_disabled":false,"rental_uris":{"android":"levelo://app?vid=cdde0a8a-4c0e-41cd-8d5f-4c67e72bf949","ios":"levelo://app?vid=cdde0a8a-4c0e-41cd-8d5f-4c67e72bf949"},"vehicle_type_id":"4","last_reported":1729530487,"current_range_meters":16800,"station_id":"ce4bhap2rcd13ifvqek0","pricing_plan_id":"cebpf4jnsgd1na2vs0mg"},{"bike_id":"4b321f9c-d240-4200-bb60-7b70406f810a","system_id":"levelo_inurba_marseille","lat":43.25084,"lon":5.39524,"is_reserved":false,"is_disabled":false,"rental_uris":{"android":"levelo://app?vid=4b321f9c-d240-4200-bb60-7b70406f810a","ios":"levelo://app?vid=4b321f9c-d240-4200-bb60-7b70406f810a"},"vehicle_type_id":"4","last_reported":1729530487,"current_range_meters":17600,"station_id":"ce4bhm12rcd13ifvqgkg","pricing_plan_id":"cebpf4jnsgd1na2vs0mg"},{"bike_id":"a9002a5d-a535-42b5-88b4-26d81fd5238e","system_id":"levelo_inurba_marseille","lat":43.32341,"lon":5.40609,"is_reserved":false,"is_disabled":false,"rental_uris":{"android":"levelo://app?vid=a9002a5d-a535-42b5-88b4-26d81fd5238e","ios":"levelo://app?vid=a9002a5d-a535-42b5-88b4-26d81fd5238e"},"vehicle_type_id":"4","last_reported":1729530487,"current_range_meters":8800,"station_id":"ce4bhq92rcd13ifvqhjg","pricing_plan_id":"cebpf4jnsgd1na2vs0mg"},{"bike_id":"de5ed677-d1fd-419f-9494-98752efc5f38","system_id":"levelo_inurba_marseille","lat":43.30317,"lon":5.36914,"is_reserved":false,"is_disabled":false,"rental_uris":{"android":"levelo://app?vid=de5ed677-d1fd-419f-9494-98752efc5f38","ios":"levelo://app?vid=de5ed677-d1fd-419f-9494-98752efc5f38"},"vehicle_type_id":"4","last_reported":1729530487,"current_range_meters":8400,"station_id":"ce4bgqh2rcd13ifvqc5g","pricing_plan_id":"cebpf4jnsgd1na2vs0mg"},{"bike_id":"d0f17f2f-2179-479e-8595-41aab548061b","system_id":"levelo_inurba_marseille","lat":43.28441,"lon":5.392,"is_reserved":false,"is_disabled":false,"rental_uris":{"android":"levelo://app?vid=d0f17f2f-2179-479e-8595-41aab548061b","ios":"levelo://app?vid=d0f17f2f-2179-479e-8595-41aab548061b"},"vehicle_type_id":"4","last_reported":1729530487,"current_range_meters":11600,"station_id":"ce4bhoh2rcd13ifvqh5g","pricing_plan_id":"cebpf4jnsgd1na2vs0mg"},{"bike_id":"87025920-ea95-4e19-872f-5f8e3fa302bf","system_id":"levelo_inurba_marseille","lat":43.265674,"lon":5.394902,"is_reserved":false,"is_disabled":false,"rental_uris":{"android":"levelo://app?vid=87025920-ea95-4e19-872f-5f8e3fa302bf","ios":"levelo://app?vid=87025920-ea95-4e19-872f-5f8e3fa302bf"},"vehicle_type_id":"4","last_reported":1729530487,"current_range_meters":9600,"station_id":"ce4bhi12rcd13ifvqfq0","pricing_plan_id":"cebpf4jnsgd1na2vs0mg"},{"bike_id":"e8f7a630-db97-42a9-a254-3e87eb651651","system_id":"levelo_inurba_marseille","lat":43.2594,"lon":5.40911,"is_reserved":false,"is_disabled":false,"rental_uris":{"android":"levelo://app?vid=e8f7a630-db97-42a9-a254-3e87eb651651","ios":"levelo://app?vid=e8f7a630-db97-42a9-a254-3e87eb651651"},"vehicle_type_id":"4","last_reported":1729530487,"current_range_meters":14800,"station_id":"ce4bhm92rcd13ifvqglg","pricing_plan_id":"cebpf4jnsgd1na2vs0mg"},{"bike_id":"16bd4a15-e176-43b3-9092-6c047a6e77bb","system_id":"levelo_inurba_marseille","lat":43.2509,"lon":5.39523,"is_reserved":false,"is_disabled":false,"rental_uris":{"android":"levelo://app?vid=16bd4a15-e176-43b3-9092-6c047a6e77bb","ios":"levelo://app?vid=16bd4a15-e176-43b3-9092-6c047a6e77bb"},"vehicle_type_id":"4","last_reported":1729530487,"current_range_meters":31200,"station_id":"ce4bhm12rcd13ifvqgkg","pricing_plan_id":"cebpf4jnsgd1na2vs0mg"},{"bike_id":"ecc86385-6e01-4507-b18f-6b1c0cb00f62","system_id":"levelo_inurba_marseille","lat":43.27809,"lon":5.40715,"is_reserved":false,"is_disabled":false,"rental_uris":{"android":"levelo://app?vid=ecc86385-6e01-4507-b18f-6b1c0cb00f62","ios":"levelo://app?vid=ecc86385-6e01-4507-b18f-6b1c0cb00f62"},"vehicle_type_id":"4","last_reported":1729530487,"current_range_meters":12800,"station_id":"ce4bhnh2rcd13ifvqgtg","pricing_plan_id":"cebpf4jnsgd1na2vs0mg"},{"bike_id":"771fb3ee-82f8-4b6f-a384-a2464033b490","system_id":"levelo_inurba_marseille","lat":43.265594,"lon":5.372839,"is_reserved":false,"is_disabled":false,"rental_uris":{"android":"levelo://app?vid=771fb3ee-82f8-4b6f-a384-a2464033b490","ios":"levelo://app?vid=771fb3ee-82f8-4b6f-a384-a2464033b490"},"vehicle_type_id":"4","last_reported":1729530487,"current_range_meters":5600,"station_id":"ce4bhg12rcd13ifvqf70","pricing_plan_id":"cebpf4jnsgd1na2vs0mg"},{"bike_id":"cddab63a-8361-4fc6-88b4-959ac01fa45a","system_id":"levelo_inurba_marseille","lat":43.30466,"lon":5.37917,"is_reserved":false,"is_disabled":false,"rental_uris":{"android":"levelo://app?vid=cddab63a-8361-4fc6-88b4-959ac01fa45a","ios":"levelo://app?vid=cddab63a-8361-4fc6-88b4-959ac01fa45a"},"vehicle_type_id":"4","last_reported":1729530487,"current_range_meters":24000,"station_id":"ce4bgup2rcd13ifvqcn0","pricing_plan_id":"cebpf4jnsgd1na2vs0mg"},{"bike_id":"d6e0e0a5-3b1d-4a2f-9b8f-6a0342186b48","system_id":"levelo_inurba_marseille","lat":43.30254,"lon":5.40071,"is_reserved":false,"is_disabled":false,"rental_uris":{"android":"levelo://app?vid=d6e0e0a5-3b1d-4a2f-9b8f-6a0342186b48","ios":"levelo://app?vid=d6e0e0a5-3b1d-4a2f-9b8f-6a0342186b48"},"vehicle_type_id":"4","last_reported":1729530487,"current_range_meters":38400,"station_id":"ce4bgvh2rcd13ifvqcs0","pricing_plan_id":"cebpf4jnsgd1na2vs0mg"},{"bike_id":"b0571613-351f-48c1-a22f-7a95d42629d2","system_id":"levelo_inurba_marseille","lat":43.288391,"lon":5.393158,"is_reserved":false,"is_disabled":false,"rental_uris":{"android":"levelo://app?vid=b0571613-351f-48c1-a22f-7a95d42629d2","ios":"levelo://app?vid=b0571613-351f-48c1-a22f-7a95d42629d2"},"vehicle_type_id":"4","last_reported":1729530487,"current_range_meters":14800,"station_id":"ce4bh2p2rcd13ifvqdi0","pricing_plan_id":"cebpf4jnsgd1na2vs0mg"},{"bike_id":"dc7a03a4-e1b1-449b-b204-b92541d0027e","system_id":"levelo_inurba_marseille","lat":43.29554,"lon":5.42293,"is_reserved":false,"is_disabled":false,"rental_uris":{"android":"levelo://app?vid=dc7a03a4-e1b1-449b-b204-b92541d0027e","ios":"levelo://app?vid=dc7a03a4-e1b1-449b-b204-b92541d0027e"},"vehicle_type_id":"4","last_reported":1729530487,"current_range_meters":25200,"station_id":"ce4bhph2rcd13ifvqhdg","pricing_plan_id":"cebpf4jnsgd1na2vs0mg"},{"bike_id":"e3f5856d-a3a7-4e4a-a977-daa483627320","system_id":"levelo_inurba_marseille","lat":43.265541,"lon":5.37286,"is_reserved":false,"is_disabled":false,"rental_uris":{"android":"levelo://app?vid=e3f5856d-a3a7-4e4a-a977-daa483627320","ios":"levelo://app?vid=e3f5856d-a3a7-4e4a-a977-daa483627320"},"vehicle_type_id":"4","last_reported":1729530487,"current_range_meters":3200,"station_id":"ce4bhg12rcd13ifvqf70","pricing_plan_id":"cebpf4jnsgd1na2vs0mg"},{"bike_id":"159d41ea-efc8-46a6-8bef-62498452685d","system_id":"levelo_inurba_marseille","lat":43.30187,"lon":5.36628,"is_reserved":false,"is_disabled":false,"rental_uris":{"android":"levelo://app?vid=159d41ea-efc8-46a6-8bef-62498452685d","ios":"levelo://app?vid=159d41ea-efc8-46a6-8bef-62498452685d"},"vehicle_type_id":"4","last_reported":1729530487,"current_range_meters":11200,"station_id":"ce4bgrh2rcd13ifvqc8g","pricing_plan_id":"cebpf4jnsgd1na2vs0mg"},{"bike_id":"926c78b5-c75d-49f7-b847-bce505991a66","system_id":"levelo_inurba_marseille","lat":43.323408,"lon":5.406256,"is_reserved":false,"is_disabled":false,"rental_uris":{"android":"levelo://app?vid=926c78b5-c75d-49f7-b847-bce505991a66","ios":"levelo://app?vid=926c78b5-c75d-49f7-b847-bce505991a66"},"vehicle_type_id":"4","last_reported":1729530487,"current_range_meters":24400,"station_id":"ce4bhq92rcd13ifvqhjg","pricing_plan_id":"cebpf4jnsgd1na2vs0mg"},{"bike_id":"3317dc6f-54a7-42b4-88e8-7ef99a5f1867","system_id":"levelo_inurba_marseille","lat":43.29537,"lon":5.39038,"is_reserved":false,"is_disabled":false,"rental_uris":{"android":"levelo://app?vid=3317dc6f-54a7-42b4-88e8-7ef99a5f1867","ios":"levelo://app?vid=3317dc6f-54a7-42b4-88e8-7ef99a5f1867"},"vehicle_type_id":"4","last_reported":1729530487,"current_range_meters":10000,"station_id":"ce4bh3p2rcd13ifvqdp0","pricing_plan_id":"cebpf4jnsgd1na2vs0mg"},{"bike_id":"23b52fff-841a-4c88-b0bd-d26339e6e653","system_id":"levelo_inurba_marseille","lat":43.26508,"lon":5.39537,"is_reserved":false,"is_disabled":false,"rental_uris":{"android":"levelo://app?vid=23b52fff-841a-4c88-b0bd-d26339e6e653","ios":"levelo://app?vid=23b52fff-841a-4c88-b0bd-d26339e6e653"},"vehicle_type_id":"4","last_reported":1729530487,"current_range_meters":27200,"station_id":"ce4bhi12rcd13ifvqfq0","pricing_plan_id":"cebpf4jnsgd1na2vs0mg"},{"bike_id":"f6f55f72-1de4-43fe-9616-166aa83f3c58","system_id":"levelo_inurba_marseille","lat":43.28153,"lon":5.42642,"is_reserved":false,"is_disabled":false,"rental_uris":{"android":"levelo://app?vid=f6f55f72-1de4-43fe-9616-166aa83f3c58","ios":"levelo://app?vid=f6f55f72-1de4-43fe-9616-166aa83f3c58"},"vehicle_type_id":"4","last_reported":1729530487,"current_range_meters":6000,"station_id":"ce4bhnh2rcd13ifvqgug","pricing_plan_id":"cebpf4jnsgd1na2vs0mg"},{"bike_id":"df58f3e5-ac32-45d6-ab70-7f664a850c28","system_id":"levelo_inurba_marseille","lat":43.26566,"lon":5.39017,"is_reserved":false,"is_disabled":false,"rental_uris":{"android":"levelo://app?vid=df58f3e5-ac32-45d6-ab70-7f664a850c28","ios":"levelo://app?vid=df58f3e5-ac32-45d6-ab70-7f664a850c28"},"vehicle_type_id":"4","last_reported":1729530487,"current_range_meters":3200,"station_id":"ce4bhe12rcd13ifvqf30","pricing_plan_id":"cebpf4jnsgd1na2vs0mg"},{"bike_id":"55a8551b-7c6e-4e12-b369-2164771a7f2f","system_id":"levelo_inurba_marseille","lat":43.27495,"lon":5.42449,"is_reserved":false,"is_disabled":false,"rental_uris":{"android":"levelo://app?vid=55a8551b-7c6e-4e12-b369-2164771a7f2f","ios":"levelo://app?vid=55a8551b-7c6e-4e12-b369-2164771a7f2f"},"vehicle_type_id":"4","last_reported":1729530487,"current_range_meters":23200,"station_id":"ce4bhn92rcd13ifvqgrg","pricing_plan_id":"cebpf4jnsgd1na2vs0mg"},{"bike_id":"e2dbb0e9-65b2-4149-ac67-93dcb64be2f6","system_id":"levelo_inurba_marseille","lat":43.30915,"lon":5.36842,"is_reserved":false,"is_disabled":false,"rental_uris":{"android":"levelo://app?vid=e2dbb0e9-65b2-4149-ac67-93dcb64be2f6","ios":"levelo://app?vid=e2dbb0e9-65b2-4149-ac67-93dcb64be2f6"},"vehicle_type_id":"4","last_reported":1729530487,"current_range_meters":34800,"station_id":"ce4bgn92rcd13ifvqbvg","pricing_plan_id":"cebpf4jnsgd1na2vs0mg"},{"bike_id":"e868d24d-a495-4582-a68d-fd804fa4e77b","system_id":"levelo_inurba_marseille","lat":43.22927,"lon":5.35376,"is_reserved":false,"is_disabled":false,"rental_uris":{"android":"levelo://app?vid=e868d24d-a495-4582-a68d-fd804fa4e77b","ios":"levelo://app?vid=e868d24d-a495-4582-a68d-fd804fa4e77b"},"vehicle_type_id":"4","last_reported":1729530487,"current_range_meters":36000,"station_id":"cpo3532slgdg3j2ikp40","pricing_plan_id":"cebpf4jnsgd1na2vs0mg"},{"bike_id":"b34b5626-3c01-40a6-a22c-0bd6c7b9f1ac","system_id":"levelo_inurba_marseille","lat":43.28157,"lon":5.379,"is_reserved":false,"is_disabled":false,"rental_uris":{"android":"levelo://app?vid=b34b5626-3c01-40a6-a22c-0bd6c7b9f1ac","ios":"levelo://app?vid=b34b5626-3c01-40a6-a22c-0bd6c7b9f1ac"},"vehicle_type_id":"4","last_reported":1729530487,"current_range_meters":22400,"station_id":"ce4bha12rcd13ifvqee0","pricing_plan_id":"cebpf4jnsgd1na2vs0mg"},{"bike_id":"a65bd1da-3721-4f1e-ba04-b2194587e72c","system_id":"levelo_inurba_marseille","lat":43.28152,"lon":5.42647,"is_reserved":false,"is_disabled":false,"rental_uris":{"android":"levelo://app?vid=a65bd1da-3721-4f1e-ba04-b2194587e72c","ios":"levelo://app?vid=a65bd1da-3721-4f1e-ba04-b2194587e72c"},"vehicle_type_id":"4","last_reported":1729530487,"current_range_meters":8400,"station_id":"ce4bhnh2rcd13ifvqgug","pricing_plan_id":"cebpf4jnsgd1na2vs0mg"},{"bike_id":"144bbc35-d8f7-45db-9b19-efda67d49b72","system_id":"levelo_inurba_marseille","lat":43.31749,"lon":5.39024,"is_reserved":false,"is_disabled":false,"rental_uris":{"android":"levelo://app?vid=144bbc35-d8f7-45db-9b19-efda67d49b72","ios":"levelo://app?vid=144bbc35-d8f7-45db-9b19-efda67d49b72"},"vehicle_type_id":"4","last_reported":1729530487,"current_range_meters":38000,"station_id":"ce4bhqp2rcd13ifvqhng","pricing_plan_id":"cebpf4jnsgd1na2vs0mg"},{"bike_id":"5d3dcd51-8b80-40f4-8f09-6e50e6106ef8","system_id":"levelo_inurba_marseille","lat":43.28696,"lon":5.39984,"is_reserved":false,"is_disabled":false,"rental_uris":{"android":"levelo://app?vid=5d3dcd51-8b80-40f4-8f09-6e50e6106ef8","ios":"levelo://app?vid=5d3dcd51-8b80-40f4-8f09-6e50e6106ef8"},"vehicle_type_id":"4","last_reported":1729530487,"current_range_meters":30800,"station_id":"ce4bho92rcd13ifvqh3g","pricing_plan_id":"cebpf4jnsgd1na2vs0mg"},{"bike_id":"a3daa34b-c904-4d70-8daa-21070990943e","system_id":"levelo_inurba_marseille","lat":43.27892,"lon":5.38008,"is_reserved":false,"is_disabled":false,"rental_uris":{"android":"levelo://app?vid=a3daa34b-c904-4d70-8daa-21070990943e","ios":"levelo://app?vid=a3daa34b-c904-4d70-8daa-21070990943e"},"vehicle_type_id":"4","last_reported":1729530487,"current_range_meters":35600,"station_id":"ce4bhf92rcd13ifvqf50","pricing_plan_id":"cebpf4jnsgd1na2vs0mg"},{"bike_id":"7e1cce9b-b567-497d-9fde-40a5489e0759","system_id":"levelo_inurba_marseille","lat":43.28042,"lon":5.35342,"is_reserved":false,"is_disabled":false,"rental_uris":{"android":"levelo://app?vid=7e1cce9b-b567-497d-9fde-40a5489e0759","ios":"levelo://app?vid=7e1cce9b-b567-497d-9fde-40a5489e0759"},"vehicle_type_id":"4","last_reported":1729530487,"current_range_meters":4000,"station_id":"","pricing_plan_id":"cebpf4jnsgd1na2vs0mg"},{"bike_id":"670dc21c-170f-4654-a499-7714bf8a7425","system_id":"levelo_inurba_marseille","lat":43.28578,"lon":5.39494,"is_reserved":false,"is_disabled":false,"rental_uris":{"android":"levelo://app?vid=670dc21c-170f-4654-a499-7714bf8a7425","ios":"levelo://app?vid=670dc21c-170f-4654-a499-7714bf8a7425"},"vehicle_type_id":"4","last_reported":1729530487,"current_range_meters":24000,"station_id":"ce4bh292rcd13ifvqdg0","pricing_plan_id":"cebpf4jnsgd1na2vs0mg"},{"bike_id":"1bdea182-14ce-4fe3-8a0c-a8a9fa1d6c55","system_id":"levelo_inurba_marseille","lat":43.29709,"lon":5.36598,"is_reserved":false,"is_disabled":false,"rental_uris":{"android":"levelo://app?vid=1bdea182-14ce-4fe3-8a0c-a8a9fa1d6c55","ios":"levelo://app?vid=1bdea182-14ce-4fe3-8a0c-a8a9fa1d6c55"},"vehicle_type_id":"4","last_reported":1729530487,"current_range_meters":39200,"station_id":"ce4bgn12rcd13ifvqbt0","pricing_plan_id":"cebpf4jnsgd1na2vs0mg"},{"bike_id":"546562a3-88ca-4792-ab68-a609c8bb255b","system_id":"levelo_inurba_marseille","lat":43.28939,"lon":5.39638,"is_reserved":false,"is_disabled":false,"rental_uris":{"android":"levelo://app?vid=546562a3-88ca-4792-ab68-a609c8bb255b","ios":"levelo://app?vid=546562a3-88ca-4792-ab68-a609c8bb255b"},"vehicle_type_id":"4","last_reported":1729530487,"current_range_meters":10800,"station_id":"ce4bh3h2rcd13ifvqdn0","pricing_plan_id":"cebpf4jnsgd1na2vs0mg"},{"bike_id":"4f7ec823-3a9d-45fe-87fe-f0b2406ac72f","system_id":"levelo_inurba_marseille","lat":43.28462,"lon":5.35891,"is_reserved":false,"is_disabled":false,"rental_uris":{"android":"levelo://app?vid=4f7ec823-3a9d-45fe-87fe-f0b2406ac72f","ios":"levelo://app?vid=4f7ec823-3a9d-45fe-87fe-f0b2406ac72f"},"vehicle_type_id":"4","last_reported":1729530487,"current_range_meters":28000,"station_id":"ce4bhah2rcd13ifvqei0","pricing_plan_id":"cebpf4jnsgd1na2vs0mg"},{"bike_id":"3923580c-7109-48e1-99e0-8e42cfc86945","system_id":"levelo_inurba_marseille","lat":43.3108,"lon":5.42429,"is_reserved":false,"is_disabled":false,"rental_uris":{"android":"levelo://app?vid=3923580c-7109-48e1-99e0-8e42cfc86945","ios":"levelo://app?vid=3923580c-7109-48e1-99e0-8e42cfc86945"},"vehicle_type_id":"4","last_reported":1729530487,"current_range_meters":17200,"station_id":"ce4bhp92rcd13ifvqhag","pricing_plan_id":"cebpf4jnsgd1na2vs0mg"},{"bike_id":"d1b4a6d1-6e2e-4227-8d16-8c9cb91ef767","system_id":"levelo_inurba_marseille","lat":43.33019,"lon":5.39052,"is_reserved":false,"is_disabled":false,"rental_uris":{"android":"levelo://app?vid=d1b4a6d1-6e2e-4227-8d16-8c9cb91ef767","ios":"levelo://app?vid=d1b4a6d1-6e2e-4227-8d16-8c9cb91ef767"},"vehicle_type_id":"4","last_reported":1729530487,"current_range_meters":6000,"station_id":"ce4bhr92rcd13ifvqhrg","pricing_plan_id":"cebpf4jnsgd1na2vs0mg"},{"bike_id":"c5d7ec4d-ce82-4875-8710-4b1ddcbf4cc8","system_id":"levelo_inurba_marseille","lat":43.26942,"lon":5.40252,"is_reserved":false,"is_disabled":false,"rental_uris":{"android":"levelo://app?vid=c5d7ec4d-ce82-4875-8710-4b1ddcbf4cc8","ios":"levelo://app?vid=c5d7ec4d-ce82-4875-8710-4b1ddcbf4cc8"},"vehicle_type_id":"4","last_reported":1729530487,"current_range_meters":30400,"station_id":"cjm6bp8fraef2m0cb0m0","pricing_plan_id":"cebpf4jnsgd1na2vs0mg"},{"bike_id":"d14f287c-fa2a-4489-b329-b5ec739c1b20","system_id":"levelo_inurba_marseille","lat":43.32366,"lon":5.38891,"is_reserved":false,"is_disabled":false,"rental_uris":{"android":"levelo://app?vid=d14f287c-fa2a-4489-b329-b5ec739c1b20","ios":"levelo://app?vid=d14f287c-fa2a-4489-b329-b5ec739c1b20"},"vehicle_type_id":"4","last_reported":1729530487,"current_range_meters":8000,"station_id":"ce4bhqp2rcd13ifvqhog","pricing_plan_id":"cebpf4jnsgd1na2vs0mg"},{"bike_id":"d6d3a748-b401-418c-b9f4-cbf8544b5ecc","system_id":"levelo_inurba_marseille","lat":43.27491,"lon":5.42453,"is_reserved":false,"is_disabled":false,"rental_uris":{"android":"levelo://app?vid=d6d3a748-b401-418c-b9f4-cbf8544b5ecc","ios":"levelo://app?vid=d6d3a748-b401-418c-b9f4-cbf8544b5ecc"},"vehicle_type_id":"4","last_reported":1729530487,"current_range_meters":27600,"station_id":"ce4bhn92rcd13ifvqgrg","pricing_plan_id":"cebpf4jnsgd1na2vs0mg"},{"bike_id":"097c0d1d-741e-4751-bc5a-04f0eeef4cdb","system_id":"levelo_inurba_marseille","lat":43.32108,"lon":5.36779,"is_reserved":false,"is_disabled":false,"rental_uris":{"android":"levelo://app?vid=097c0d1d-741e-4751-bc5a-04f0eeef4cdb","ios":"levelo://app?vid=097c0d1d-741e-4751-bc5a-04f0eeef4cdb"},"vehicle_type_id":"4","last_reported":1729530487,"current_range_meters":25200,"station_id":"ce4bhrh2rcd13ifvqhug","pricing_plan_id":"cebpf4jnsgd1na2vs0mg"},{"bike_id":"2a0013b7-45ad-47b1-8ab8-6d25c3e4c2f7","system_id":"levelo_inurba_marseille","lat":43.26564,"lon":5.3901,"is_reserved":false,"is_disabled":false,"rental_uris":{"android":"levelo://app?vid=2a0013b7-45ad-47b1-8ab8-6d25c3e4c2f7","ios":"levelo://app?vid=2a0013b7-45ad-47b1-8ab8-6d25c3e4c2f7"},"vehicle_type_id":"4","last_reported":1729530487,"current_range_meters":4000,"station_id":"ce4bhe12rcd13ifvqf30","pricing_plan_id":"cebpf4jnsgd1na2vs0mg"},{"bike_id":"42577afd-c309-4fc7-8eeb-e9c83097ff13","system_id":"levelo_inurba_marseille","lat":43.287262,"lon":5.364839,"is_reserved":false,"is_disabled":false,"rental_uris":{"android":"levelo://app?vid=42577afd-c309-4fc7-8eeb-e9c83097ff13","ios":"levelo://app?vid=42577afd-c309-4fc7-8eeb-e9c83097ff13"},"vehicle_type_id":"4","last_reported":1729530487,"current_range_meters":28800,"station_id":"ce4bhah2rcd13ifvqej0","pricing_plan_id":"cebpf4jnsgd1na2vs0mg"},{"bike_id":"f664508d-c703-410b-8571-546ad2f855e9","system_id":"levelo_inurba_marseille","lat":43.22931,"lon":5.35389,"is_reserved":false,"is_disabled":false,"rental_uris":{"android":"levelo://app?vid=f664508d-c703-410b-8571-546ad2f855e9","ios":"levelo://app?vid=f664508d-c703-410b-8571-546ad2f855e9"},"vehicle_type_id":"4","last_reported":1729530487,"current_range_meters":38000,"station_id":"cpo3532slgdg3j2ikp40","pricing_plan_id":"cebpf4jnsgd1na2vs0mg"},{"bike_id":"8dc36a9a-634d-4c62-ac49-9a4ab952e295","system_id":"levelo_inurba_marseille","lat":43.28053,"lon":5.40991,"is_reserved":false,"is_disabled":false,"rental_uris":{"android":"levelo://app?vid=8dc36a9a-634d-4c62-ac49-9a4ab952e295","ios":"levelo://app?vid=8dc36a9a-634d-4c62-ac49-9a4ab952e295"},"vehicle_type_id":"4","last_reported":1729530487,"current_range_meters":30800,"station_id":"","pricing_plan_id":"cebpf4jnsgd1na2vs0mg"},{"bike_id":"51533d54-fcbb-4316-97b0-26cfc3f80d54","system_id":"levelo_inurba_marseille","lat":43.27494,"lon":5.42454,"is_reserved":false,"is_disabled":false,"rental_uris":{"android":"levelo://app?vid=51533d54-fcbb-4316-97b0-26cfc3f80d54","ios":"levelo://app?vid=51533d54-fcbb-4316-97b0-26cfc3f80d54"},"vehicle_type_id":"4","last_reported":1729530487,"current_range_meters":21600,"station_id":"ce4bhn92rcd13ifvqgrg","pricing_plan_id":"cebpf4jnsgd1na2vs0mg"},{"bike_id":"120afd48-d755-4157-b7db-fc90d980fccb","system_id":"levelo_inurba_marseille","lat":43.31117,"lon":5.37773,"is_reserved":false,"is_disabled":false,"rental_uris":{"android":"levelo://app?vid=120afd48-d755-4157-b7db-fc90d980fccb","ios":"levelo://app?vid=120afd48-d755-4157-b7db-fc90d980fccb"},"vehicle_type_id":"4","last_reported":1729530487,"current_range_meters":4800,"station_id":"ce4bgt92rcd13ifvqcg0","pricing_plan_id":"cebpf4jnsgd1na2vs0mg"},{"bike_id":"d3f395b2-5240-445d-ab89-615b45d6a07c","system_id":"levelo_inurba_marseille","lat":43.29038,"lon":5.39996,"is_reserved":false,"is_disabled":false,"rental_uris":{"android":"levelo://app?vid=d3f395b2-5240-445d-ab89-615b45d6a07c","ios":"levelo://app?vid=d3f395b2-5240-445d-ab89-615b45d6a07c"},"vehicle_type_id":"4","last_reported":1729530487,"current_range_meters":21600,"station_id":"ce4bh392rcd13ifvqdm0","pricing_plan_id":"cebpf4jnsgd1na2vs0mg"},{"bike_id":"723c448c-f4f6-4e10-9599-a891eb37bc4d","system_id":"levelo_inurba_marseille","lat":43.28479,"lon":5.39239,"is_reserved":false,"is_disabled":false,"rental_uris":{"android":"levelo://app?vid=723c448c-f4f6-4e10-9599-a891eb37bc4d","ios":"levelo://app?vid=723c448c-f4f6-4e10-9599-a891eb37bc4d"},"vehicle_type_id":"4","last_reported":1729530487,"current_range_meters":29600,"station_id":"ce4bhoh2rcd13ifvqh5g","pricing_plan_id":"cebpf4jnsgd1na2vs0mg"},{"bike_id":"2f195b0e-1d6a-4176-bf83-00efb02af85c","system_id":"levelo_inurba_marseille","lat":43.296,"lon":5.38101,"is_reserved":false,"is_disabled":false,"rental_uris":{"android":"levelo://app?vid=2f195b0e-1d6a-4176-bf83-00efb02af85c","ios":"levelo://app?vid=2f195b0e-1d6a-4176-bf83-00efb02af85c"},"vehicle_type_id":"4","last_reported":1729530487,"current_range_meters":25600,"station_id":"ce4bgl12rcd13ifvqbo0","pricing_plan_id":"cebpf4jnsgd1na2vs0mg"},{"bike_id":"33168370-9486-4be4-9094-07fb1012802e","system_id":"levelo_inurba_marseille","lat":43.28928,"lon":5.38394,"is_reserved":false,"is_disabled":false,"rental_uris":{"android":"levelo://app?vid=33168370-9486-4be4-9094-07fb1012802e","ios":"levelo://app?vid=33168370-9486-4be4-9094-07fb1012802e"},"vehicle_type_id":"4","last_reported":1729530487,"current_range_meters":26800,"station_id":"ce4bh612rcd13ifvqe6g","pricing_plan_id":"cebpf4jnsgd1na2vs0mg"},{"bike_id":"10aa8f6d-3adf-4422-8cd4-9c945439a501","system_id":"levelo_inurba_marseille","lat":43.29546,"lon":5.42294,"is_reserved":false,"is_disabled":false,"rental_uris":{"android":"levelo://app?vid=10aa8f6d-3adf-4422-8cd4-9c945439a501","ios":"levelo://app?vid=10aa8f6d-3adf-4422-8cd4-9c945439a501"},"vehicle_type_id":"4","last_reported":1729530487,"current_range_meters":36400,"station_id":"ce4bhph2rcd13ifvqhdg","pricing_plan_id":"cebpf4jnsgd1na2vs0mg"},{"bike_id":"b5bb4d9c-2234-45e1-b0e1-a7c6fb90fc0a","system_id":"levelo_inurba_marseille","lat":43.22937,"lon":5.35381,"is_reserved":false,"is_disabled":false,"rental_uris":{"android":"levelo://app?vid=b5bb4d9c-2234-45e1-b0e1-a7c6fb90fc0a","ios":"levelo://app?vid=b5bb4d9c-2234-45e1-b0e1-a7c6fb90fc0a"},"vehicle_type_id":"4","last_reported":1729530487,"current_range_meters":36400,"station_id":"cpo3532slgdg3j2ikp40","pricing_plan_id":"cebpf4jnsgd1na2vs0mg"},{"bike_id":"c36f683a-cce6-4aa8-adfc-737aa87edf97","system_id":"levelo_inurba_marseille","lat":43.30421,"lon":5.41285,"is_reserved":false,"is_disabled":false,"rental_uris":{"android":"levelo://app?vid=c36f683a-cce6-4aa8-adfc-737aa87edf97","ios":"levelo://app?vid=c36f683a-cce6-4aa8-adfc-737aa87edf97"},"vehicle_type_id":"4","last_reported":1729530487,"current_range_meters":10800,"station_id":"ce4bhop2rcd13ifvqh8g","pricing_plan_id":"cebpf4jnsgd1na2vs0mg"},{"bike_id":"5685d96c-ef95-4265-a3f4-eff9110645ee","system_id":"levelo_inurba_marseille","lat":43.299899,"lon":5.413088,"is_reserved":false,"is_disabled":false,"rental_uris":{"android":"levelo://app?vid=5685d96c-ef95-4265-a3f4-eff9110645ee","ios":"levelo://app?vid=5685d96c-ef95-4265-a3f4-eff9110645ee"},"vehicle_type_id":"4","last_reported":1729530487,"current_range_meters":4000,"station_id":"ce4bhp12rcd13ifvqh9g","pricing_plan_id":"cebpf4jnsgd1na2vs0mg"},{"bike_id":"ecc050c8-ed6d-4828-be0c-186b6852159b","system_id":"levelo_inurba_marseille","lat":43.29844,"lon":5.36279,"is_reserved":false,"is_disabled":false,"rental_uris":{"android":"levelo://app?vid=ecc050c8-ed6d-4828-be0c-186b6852159b","ios":"levelo://app?vid=ecc050c8-ed6d-4828-be0c-186b6852159b"},"vehicle_type_id":"4","last_reported":1729530487,"current_range_meters":16400,"station_id":"ce4bgpp2rcd13ifvqc3g","pricing_plan_id":"cebpf4jnsgd1na2vs0mg"},{"bike_id":"6ceb7dc2-af01-43e0-aad2-a8463c34d324","system_id":"levelo_inurba_marseille","lat":43.23963,"lon":5.36628,"is_reserved":false,"is_disabled":false,"rental_uris":{"android":"levelo://app?vid=6ceb7dc2-af01-43e0-aad2-a8463c34d324","ios":"levelo://app?vid=6ceb7dc2-af01-43e0-aad2-a8463c34d324"},"vehicle_type_id":"4","last_reported":1729530487,"current_range_meters":20000,"station_id":"ce4bhi12rcd13ifvqfp0","pricing_plan_id":"cebpf4jnsgd1na2vs0mg"},{"bike_id":"28a127fb-496a-4930-9a35-3d8ec0f7f189","system_id":"levelo_inurba_marseille","lat":43.29777,"lon":5.37106,"is_reserved":false,"is_disabled":false,"rental_uris":{"android":"levelo://app?vid=28a127fb-496a-4930-9a35-3d8ec0f7f189","ios":"levelo://app?vid=28a127fb-496a-4930-9a35-3d8ec0f7f189"},"vehicle_type_id":"4","last_reported":1729530487,"current_range_meters":11200,"station_id":"ce4bgop2rcd13ifvqc1g","pricing_plan_id":"cebpf4jnsgd1na2vs0mg"},{"bike_id":"fdecbd56-0986-45fb-bf23-481c0de1ee5a","system_id":"levelo_inurba_marseille","lat":43.25939,"lon":5.40912,"is_reserved":false,"is_disabled":false,"rental_uris":{"android":"levelo://app?vid=fdecbd56-0986-45fb-bf23-481c0de1ee5a","ios":"levelo://app?vid=fdecbd56-0986-45fb-bf23-481c0de1ee5a"},"vehicle_type_id":"4","last_reported":1729530487,"current_range_meters":27200,"station_id":"ce4bhm92rcd13ifvqglg","pricing_plan_id":"cebpf4jnsgd1na2vs0mg"},{"bike_id":"2b0a24c1-1ca1-4402-a7aa-502e54e3ba3f","system_id":"levelo_inurba_marseille","lat":43.30301,"lon":5.39203,"is_reserved":false,"is_disabled":false,"rental_uris":{"android":"levelo://app?vid=2b0a24c1-1ca1-4402-a7aa-502e54e3ba3f","ios":"levelo://app?vid=2b0a24c1-1ca1-4402-a7aa-502e54e3ba3f"},"vehicle_type_id":"4","last_reported":1729530487,"current_range_meters":2800,"station_id":"ce4bgkh2rcd13ifvqbk0","pricing_plan_id":"cebpf4jnsgd1na2vs0mg"},{"bike_id":"0b5f589c-75f0-452b-8157-736ed5ed4429","system_id":"levelo_inurba_marseille","lat":43.28156,"lon":5.42649,"is_reserved":false,"is_disabled":false,"rental_uris":{"android":"levelo://app?vid=0b5f589c-75f0-452b-8157-736ed5ed4429","ios":"levelo://app?vid=0b5f589c-75f0-452b-8157-736ed5ed4429"},"vehicle_type_id":"4","last_reported":1729530487,"current_range_meters":12400,"station_id":"ce4bhnh2rcd13ifvqgug","pricing_plan_id":"cebpf4jnsgd1na2vs0mg"},{"bike_id":"9871ad8b-6fe7-4d97-960a-7e89e674c218","system_id":"levelo_inurba_marseille","lat":43.3107,"lon":5.40092,"is_reserved":false,"is_disabled":false,"rental_uris":{"android":"levelo://app?vid=9871ad8b-6fe7-4d97-960a-7e89e674c218","ios":"levelo://app?vid=9871ad8b-6fe7-4d97-960a-7e89e674c218"},"vehicle_type_id":"4","last_reported":1729530487,"current_range_meters":25600,"station_id":"","pricing_plan_id":"cebpf4jnsgd1na2vs0mg"},{"bike_id":"511a4848-ff37-4b68-97a3-0c7badea1e6c","system_id":"levelo_inurba_marseille","lat":43.24179,"lon":5.39735,"is_reserved":false,"is_disabled":false,"rental_uris":{"android":"levelo://app?vid=511a4848-ff37-4b68-97a3-0c7badea1e6c","ios":"levelo://app?vid=511a4848-ff37-4b68-97a3-0c7badea1e6c"},"vehicle_type_id":"4","last_reported":1729530487,"current_range_meters":9200,"station_id":"ce4bhn12rcd13ifvqgpg","pricing_plan_id":"cebpf4jnsgd1na2vs0mg"},{"bike_id":"f1228999-1d9b-4b6f-834c-677ef6b80fa4","system_id":"levelo_inurba_marseille","lat":43.27611,"lon":5.36108,"is_reserved":false,"is_disabled":false,"rental_uris":{"android":"levelo://app?vid=f1228999-1d9b-4b6f-834c-677ef6b80fa4","ios":"levelo://app?vid=f1228999-1d9b-4b6f-834c-677ef6b80fa4"},"vehicle_type_id":"4","last_reported":1729530487,"current_range_meters":34800,"station_id":"ce4bgj92rcd13ifvqbe0","pricing_plan_id":"cebpf4jnsgd1na2vs0mg"},{"bike_id":"2ccc5cef-45f5-474b-9d71-f78f40ce43a2","system_id":"levelo_inurba_marseille","lat":43.31708,"lon":5.39011,"is_reserved":false,"is_disabled":false,"rental_uris":{"android":"levelo://app?vid=2ccc5cef-45f5-474b-9d71-f78f40ce43a2","ios":"levelo://app?vid=2ccc5cef-45f5-474b-9d71-f78f40ce43a2"},"vehicle_type_id":"4","last_reported":1729530487,"current_range_meters":39200,"station_id":"ce4bhqp2rcd13ifvqhng","pricing_plan_id":"cebpf4jnsgd1na2vs0mg"},{"bike_id":"909f0d65-10d8-4114-82ff-e8518ced97f5","system_id":"levelo_inurba_marseille","lat":43.289375,"lon":5.366381,"is_reserved":false,"is_disabled":false,"rental_uris":{"android":"levelo://app?vid=909f0d65-10d8-4114-82ff-e8518ced97f5","ios":"levelo://app?vid=909f0d65-10d8-4114-82ff-e8518ced97f5"},"vehicle_type_id":"4","last_reported":1729530487,"current_range_meters":11600,"station_id":"ce4bhap2rcd13ifvqek0","pricing_plan_id":"cebpf4jnsgd1na2vs0mg"},{"bike_id":"9fbda05f-cab0-400a-a4a3-37d15d2db7e5","system_id":"levelo_inurba_marseille","lat":43.27557,"lon":5.38434,"is_reserved":false,"is_disabled":false,"rental_uris":{"android":"levelo://app?vid=9fbda05f-cab0-400a-a4a3-37d15d2db7e5","ios":"levelo://app?vid=9fbda05f-cab0-400a-a4a3-37d15d2db7e5"},"vehicle_type_id":"4","last_reported":1729530487,"current_range_meters":2800,"station_id":"ce4bhh92rcd13ifvqfi0","pricing_plan_id":"cebpf4jnsgd1na2vs0mg"},{"bike_id":"3fca76ed-4020-407c-936f-4afa0b76c7db","system_id":"levelo_inurba_marseille","lat":43.26941,"lon":5.40255,"is_reserved":false,"is_disabled":false,"rental_uris":{"android":"levelo://app?vid=3fca76ed-4020-407c-936f-4afa0b76c7db","ios":"levelo://app?vid=3fca76ed-4020-407c-936f-4afa0b76c7db"},"vehicle_type_id":"4","last_reported":1729530487,"current_range_meters":32400,"station_id":"cjm6bp8fraef2m0cb0m0","pricing_plan_id":"cebpf4jnsgd1na2vs0mg"},{"bike_id":"14ac6e46-6576-4e0a-918f-904a9b94015e","system_id":"levelo_inurba_marseille","lat":43.29039,"lon":5.38638,"is_reserved":false,"is_disabled":false,"rental_uris":{"android":"levelo://app?vid=14ac6e46-6576-4e0a-918f-904a9b94015e","ios":"levelo://app?vid=14ac6e46-6576-4e0a-918f-904a9b94015e"},"vehicle_type_id":"4","last_reported":1729530487,"current_range_meters":24000,"station_id":"ce4bh4p2rcd13ifvqe0g","pricing_plan_id":"cebpf4jnsgd1na2vs0mg"},{"bike_id":"56aea588-6de4-4742-8215-1e813fb197c2","system_id":"levelo_inurba_marseille","lat":43.28459,"lon":5.35893,"is_reserved":false,"is_disabled":false,"rental_uris":{"android":"levelo://app?vid=56aea588-6de4-4742-8215-1e813fb197c2","ios":"levelo://app?vid=56aea588-6de4-4742-8215-1e813fb197c2"},"vehicle_type_id":"4","last_reported":1729530487,"current_range_meters":39200,"station_id":"ce4bhah2rcd13ifvqei0","pricing_plan_id":"cebpf4jnsgd1na2vs0mg"},{"bike_id":"73245fa1-0a7e-48e5-adec-5d48d7d77c1f","system_id":"levelo_inurba_marseille","lat":43.24165,"lon":5.36389,"is_reserved":false,"is_disabled":false,"rental_uris":{"android":"levelo://app?vid=73245fa1-0a7e-48e5-adec-5d48d7d77c1f","ios":"levelo://app?vid=73245fa1-0a7e-48e5-adec-5d48d7d77c1f"},"vehicle_type_id":"4","last_reported":1729530487,"current_range_meters":12000,"station_id":"cpo36qri1sfpv3e86is0","pricing_plan_id":"cebpf4jnsgd1na2vs0mg"},{"bike_id":"b606b134-c466-47e3-b081-158b210b556e","system_id":"levelo_inurba_marseille","lat":43.26044,"lon":5.37541,"is_reserved":false,"is_disabled":false,"rental_uris":{"android":"levelo://app?vid=b606b134-c466-47e3-b081-158b210b556e","ios":"levelo://app?vid=b606b134-c466-47e3-b081-158b210b556e"},"vehicle_type_id":"4","last_reported":1729530487,"current_range_meters":27200,"station_id":"ce4bhgh2rcd13ifvqfa0","pricing_plan_id":"cebpf4jnsgd1na2vs0mg"},{"bike_id":"d98c3824-0181-41f3-881e-142290f5009f","system_id":"levelo_inurba_marseille","lat":43.30429,"lon":5.38894,"is_reserved":false,"is_disabled":false,"rental_uris":{"android":"levelo://app?vid=d98c3824-0181-41f3-881e-142290f5009f","ios":"levelo://app?vid=d98c3824-0181-41f3-881e-142290f5009f"},"vehicle_type_id":"4","last_reported":1729530487,"current_range_meters":4000,"station_id":"ce4bgk12rcd13ifvqbi0","pricing_plan_id":"cebpf4jnsgd1na2vs0mg"},{"bike_id":"46ccfc0c-b9d5-47df-9202-bf20a3d9f0d1","system_id":"levelo_inurba_marseille","lat":43.306135,"lon":5.393421,"is_reserved":false,"is_disabled":false,"rental_uris":{"android":"levelo://app?vid=46ccfc0c-b9d5-47df-9202-bf20a3d9f0d1","ios":"levelo://app?vid=46ccfc0c-b9d5-47df-9202-bf20a3d9f0d1"},"vehicle_type_id":"4","last_reported":1729530487,"current_range_meters":32400,"station_id":"ce4bh0p2rcd13ifvqd80","pricing_plan_id":"cebpf4jnsgd1na2vs0mg"},{"bike_id":"337a5e65-e4f0-459c-a759-b626b9e04d37","system_id":"levelo_inurba_marseille","lat":43.29897,"lon":5.38149,"is_reserved":false,"is_disabled":false,"rental_uris":{"android":"levelo://app?vid=337a5e65-e4f0-459c-a759-b626b9e04d37","ios":"levelo://app?vid=337a5e65-e4f0-459c-a759-b626b9e04d37"},"vehicle_type_id":"4","last_reported":1729530487,"current_range_meters":35600,"station_id":"ce4bgj12rcd13ifvqbc0","pricing_plan_id":"cebpf4jnsgd1na2vs0mg"},{"bike_id":"e2fc3a3f-6fd2-4887-83ab-9381c8148d5c","system_id":"levelo_inurba_marseille","lat":43.28157,"lon":5.42645,"is_reserved":false,"is_disabled":false,"rental_uris":{"android":"levelo://app?vid=e2fc3a3f-6fd2-4887-83ab-9381c8148d5c","ios":"levelo://app?vid=e2fc3a3f-6fd2-4887-83ab-9381c8148d5c"},"vehicle_type_id":"4","last_reported":1729530487,"current_range_meters":22000,"station_id":"ce4bhnh2rcd13ifvqgug","pricing_plan_id":"cebpf4jnsgd1na2vs0mg"},{"bike_id":"220eb870-d349-45cc-96d8-32f77856a273","system_id":"levelo_inurba_marseille","lat":43.31178,"lon":5.38711,"is_reserved":false,"is_disabled":false,"rental_uris":{"android":"levelo://app?vid=220eb870-d349-45cc-96d8-32f77856a273","ios":"levelo://app?vid=220eb870-d349-45cc-96d8-32f77856a273"},"vehicle_type_id":"4","last_reported":1729530487,"current_range_meters":8000,"station_id":"ce4bgv12rcd13ifvqcp0","pricing_plan_id":"cebpf4jnsgd1na2vs0mg"},{"bike_id":"2b28b997-88fa-482d-af9f-4d2c3e29c93c","system_id":"levelo_inurba_marseille","lat":43.33034,"lon":5.39041,"is_reserved":false,"is_disabled":false,"rental_uris":{"android":"levelo://app?vid=2b28b997-88fa-482d-af9f-4d2c3e29c93c","ios":"levelo://app?vid=2b28b997-88fa-482d-af9f-4d2c3e29c93c"},"vehicle_type_id":"4","last_reported":1729530487,"current_range_meters":20400,"station_id":"ce4bhr92rcd13ifvqhrg","pricing_plan_id":"cebpf4jnsgd1na2vs0mg"},{"bike_id":"ef7c480d-0975-4f42-9d0b-2aceb02aa240","system_id":"levelo_inurba_marseille","lat":43.301166,"lon":5.401386,"is_reserved":false,"is_disabled":false,"rental_uris":{"android":"levelo://app?vid=ef7c480d-0975-4f42-9d0b-2aceb02aa240","ios":"levelo://app?vid=ef7c480d-0975-4f42-9d0b-2aceb02aa240"},"vehicle_type_id":"4","last_reported":1729530487,"current_range_meters":20400,"station_id":"ce4bgvh2rcd13ifvqcs0","pricing_plan_id":"cebpf4jnsgd1na2vs0mg"},{"bike_id":"2031e366-12fb-473f-8e62-709b14b3a193","system_id":"levelo_inurba_marseille","lat":43.29796,"lon":5.39317,"is_reserved":false,"is_disabled":false,"rental_uris":{"android":"levelo://app?vid=2031e366-12fb-473f-8e62-709b14b3a193","ios":"levelo://app?vid=2031e366-12fb-473f-8e62-709b14b3a193"},"vehicle_type_id":"4","last_reported":1729530487,"current_range_meters":8400,"station_id":"chh1huq6cuj3fo74tm60","pricing_plan_id":"cebpf4jnsgd1na2vs0mg"},{"bike_id":"0dd9d62c-1667-4216-a980-272185c2294b","system_id":"levelo_inurba_marseille","lat":43.25503,"lon":5.37654,"is_reserved":false,"is_disabled":false,"rental_uris":{"android":"levelo://app?vid=0dd9d62c-1667-4216-a980-272185c2294b","ios":"levelo://app?vid=0dd9d62c-1667-4216-a980-272185c2294b"},"vehicle_type_id":"4","last_reported":1729530487,"current_range_meters":4000,"station_id":"ce4bhh12rcd13ifvqff0","pricing_plan_id":"cebpf4jnsgd1na2vs0mg"},{"bike_id":"cb438502-67fc-43c4-bea3-3f479c5a0eb0","system_id":"levelo_inurba_marseille","lat":43.23194,"lon":5.35551,"is_reserved":false,"is_disabled":false,"rental_uris":{"android":"levelo://app?vid=cb438502-67fc-43c4-bea3-3f479c5a0eb0","ios":"levelo://app?vid=cb438502-67fc-43c4-bea3-3f479c5a0eb0"},"vehicle_type_id":"4","last_reported":1729530487,"current_range_meters":27600,"station_id":"ce4bhu92rcd13ifvqi70","pricing_plan_id":"cebpf4jnsgd1na2vs0mg"},{"bike_id":"6b639c17-2c74-442f-b44f-1f80aeba3dc7","system_id":"levelo_inurba_marseille","lat":43.26551,"lon":5.37283,"is_reserved":false,"is_disabled":false,"rental_uris":{"android":"levelo://app?vid=6b639c17-2c74-442f-b44f-1f80aeba3dc7","ios":"levelo://app?vid=6b639c17-2c74-442f-b44f-1f80aeba3dc7"},"vehicle_type_id":"4","last_reported":1729530487,"current_range_meters":8800,"station_id":"ce4bhg12rcd13ifvqf70","pricing_plan_id":"cebpf4jnsgd1na2vs0mg"},{"bike_id":"bb58e784-59ed-4185-8038-2018f5da95a8","system_id":"levelo_inurba_marseille","lat":43.307814,"lon":5.376454,"is_reserved":false,"is_disabled":false,"rental_uris":{"android":"levelo://app?vid=bb58e784-59ed-4185-8038-2018f5da95a8","ios":"levelo://app?vid=bb58e784-59ed-4185-8038-2018f5da95a8"},"vehicle_type_id":"4","last_reported":1729530487,"current_range_meters":24000,"station_id":"ce4bgv92rcd13ifvqcq0","pricing_plan_id":"cebpf4jnsgd1na2vs0mg"},{"bike_id":"eeedcef8-6500-4b29-b4df-51a555a19cf6","system_id":"levelo_inurba_marseille","lat":43.28859,"lon":5.3931,"is_reserved":false,"is_disabled":false,"rental_uris":{"android":"levelo://app?vid=eeedcef8-6500-4b29-b4df-51a555a19cf6","ios":"levelo://app?vid=eeedcef8-6500-4b29-b4df-51a555a19cf6"},"vehicle_type_id":"4","last_reported":1729530487,"current_range_meters":8000,"station_id":"ce4bh2p2rcd13ifvqdi0","pricing_plan_id":"cebpf4jnsgd1na2vs0mg"},{"bike_id":"e9c89c89-23c3-4e6b-af46-b8c063acc8b1","system_id":"levelo_inurba_marseille","lat":43.32028,"lon":5.41581,"is_reserved":false,"is_disabled":false,"rental_uris":{"android":"levelo://app?vid=e9c89c89-23c3-4e6b-af46-b8c063acc8b1","ios":"levelo://app?vid=e9c89c89-23c3-4e6b-af46-b8c063acc8b1"},"vehicle_type_id":"4","last_reported":1729530487,"current_range_meters":36400,"station_id":"ce4bhq92rcd13ifvqhkg","pricing_plan_id":"cebpf4jnsgd1na2vs0mg"},{"bike_id":"08639a65-6dbd-4aea-9971-01ccbcab583e","system_id":"levelo_inurba_marseille","lat":43.28609,"lon":5.3705,"is_reserved":false,"is_disabled":false,"rental_uris":{"android":"levelo://app?vid=08639a65-6dbd-4aea-9971-01ccbcab583e","ios":"levelo://app?vid=08639a65-6dbd-4aea-9971-01ccbcab583e"},"vehicle_type_id":"4","last_reported":1729530487,"current_range_meters":12400,"station_id":"ce4bht12rcd13ifvqi60","pricing_plan_id":"cebpf4jnsgd1na2vs0mg"},{"bike_id":"81e8a6c4-f4d4-4db0-842c-06a3881ed054","system_id":"levelo_inurba_marseille","lat":43.29774,"lon":5.39339,"is_reserved":false,"is_disabled":false,"rental_uris":{"android":"levelo://app?vid=81e8a6c4-f4d4-4db0-842c-06a3881ed054","ios":"levelo://app?vid=81e8a6c4-f4d4-4db0-842c-06a3881ed054"},"vehicle_type_id":"4","last_reported":1729530487,"current_range_meters":20800,"station_id":"chh1huq6cuj3fo74tm60","pricing_plan_id":"cebpf4jnsgd1na2vs0mg"},{"bike_id":"2bc2ff99-4bb0-421f-8604-4cb7ce3fbc9b","system_id":"levelo_inurba_marseille","lat":43.31326,"lon":5.39696,"is_reserved":false,"is_disabled":false,"rental_uris":{"android":"levelo://app?vid=2bc2ff99-4bb0-421f-8604-4cb7ce3fbc9b","ios":"levelo://app?vid=2bc2ff99-4bb0-421f-8604-4cb7ce3fbc9b"},"vehicle_type_id":"4","last_reported":1729530487,"current_range_meters":2000,"station_id":"ce4bgvp2rcd13ifvqcu0","pricing_plan_id":"cebpf4jnsgd1na2vs0mg"},{"bike_id":"32502a6d-0524-4c1e-9a92-0c474fce436d","system_id":"levelo_inurba_marseille","lat":43.292036,"lon":5.393117,"is_reserved":false,"is_disabled":false,"rental_uris":{"android":"levelo://app?vid=32502a6d-0524-4c1e-9a92-0c474fce436d","ios":"levelo://app?vid=32502a6d-0524-4c1e-9a92-0c474fce436d"},"vehicle_type_id":"4","last_reported":1729530487,"current_range_meters":32800,"station_id":"ce4bh192rcd13ifvqdd0","pricing_plan_id":"cebpf4jnsgd1na2vs0mg"},{"bike_id":"3d6c9318-7aba-4f92-8362-c03ae4b7797e","system_id":"levelo_inurba_marseille","lat":43.29572,"lon":5.39989,"is_reserved":false,"is_disabled":false,"rental_uris":{"android":"levelo://app?vid=3d6c9318-7aba-4f92-8362-c03ae4b7797e","ios":"levelo://app?vid=3d6c9318-7aba-4f92-8362-c03ae4b7797e"},"vehicle_type_id":"4","last_reported":1729530487,"current_range_meters":12400,"station_id":"ce4bh312rcd13ifvqdj0","pricing_plan_id":"cebpf4jnsgd1na2vs0mg"},{"bike_id":"b386c57f-46dd-4d6b-8cd4-948faa7efa0b","system_id":"levelo_inurba_marseille","lat":43.31719,"lon":5.424,"is_reserved":false,"is_disabled":false,"rental_uris":{"android":"levelo://app?vid=b386c57f-46dd-4d6b-8cd4-948faa7efa0b","ios":"levelo://app?vid=b386c57f-46dd-4d6b-8cd4-948faa7efa0b"},"vehicle_type_id":"4","last_reported":1729530487,"current_range_meters":11200,"station_id":"ce4bhp92rcd13ifvqhbg","pricing_plan_id":"cebpf4jnsgd1na2vs0mg"},{"bike_id":"68d4b565-fb0c-4a79-8e44-7b42ba05b5c9","system_id":"levelo_inurba_marseille","lat":43.26479,"lon":5.39561,"is_reserved":false,"is_disabled":false,"rental_uris":{"android":"levelo://app?vid=68d4b565-fb0c-4a79-8e44-7b42ba05b5c9","ios":"levelo://app?vid=68d4b565-fb0c-4a79-8e44-7b42ba05b5c9"},"vehicle_type_id":"4","last_reported":1729530487,"current_range_meters":16000,"station_id":"ce4bhi12rcd13ifvqfq0","pricing_plan_id":"cebpf4jnsgd1na2vs0mg"},{"bike_id":"82100251-b37b-44f0-bb7b-f51901cd9c59","system_id":"levelo_inurba_marseille","lat":43.30599,"lon":5.3936,"is_reserved":false,"is_disabled":false,"rental_uris":{"android":"levelo://app?vid=82100251-b37b-44f0-bb7b-f51901cd9c59","ios":"levelo://app?vid=82100251-b37b-44f0-bb7b-f51901cd9c59"},"vehicle_type_id":"4","last_reported":1729530487,"current_range_meters":24400,"station_id":"ce4bh0p2rcd13ifvqd80","pricing_plan_id":"cebpf4jnsgd1na2vs0mg"},{"bike_id":"d748524a-bf22-47b5-8426-2db055e9039d","system_id":"levelo_inurba_marseille","lat":43.28373,"lon":5.3863,"is_reserved":false,"is_disabled":false,"rental_uris":{"android":"levelo://app?vid=d748524a-bf22-47b5-8426-2db055e9039d","ios":"levelo://app?vid=d748524a-bf22-47b5-8426-2db055e9039d"},"vehicle_type_id":"4","last_reported":1729530487,"current_range_meters":12400,"station_id":"ce4bh492rcd13ifvqdvg","pricing_plan_id":"cebpf4jnsgd1na2vs0mg"},{"bike_id":"9b7a9b94-bb87-4e77-bb4c-8db606695338","system_id":"levelo_inurba_marseille","lat":43.24672,"lon":5.38164,"is_reserved":false,"is_disabled":false,"rental_uris":{"android":"levelo://app?vid=9b7a9b94-bb87-4e77-bb4c-8db606695338","ios":"levelo://app?vid=9b7a9b94-bb87-4e77-bb4c-8db606695338"},"vehicle_type_id":"4","last_reported":1729530487,"current_range_meters":27200,"station_id":"ce4bhih2rcd13ifvqfr0","pricing_plan_id":"cebpf4jnsgd1na2vs0mg"},{"bike_id":"bb9ead34-6057-4a0f-991b-84aa726102a6","system_id":"levelo_inurba_marseille","lat":43.29573,"lon":5.39978,"is_reserved":false,"is_disabled":false,"rental_uris":{"android":"levelo://app?vid=bb9ead34-6057-4a0f-991b-84aa726102a6","ios":"levelo://app?vid=bb9ead34-6057-4a0f-991b-84aa726102a6"},"vehicle_type_id":"4","last_reported":1729530487,"current_range_meters":20400,"station_id":"ce4bh312rcd13ifvqdj0","pricing_plan_id":"cebpf4jnsgd1na2vs0mg"},{"bike_id":"afd5ffd8-430e-4d62-bef8-5e8e2ee25289","system_id":"levelo_inurba_marseille","lat":43.33179,"lon":5.41969,"is_reserved":false,"is_disabled":false,"rental_uris":{"android":"levelo://app?vid=afd5ffd8-430e-4d62-bef8-5e8e2ee25289","ios":"levelo://app?vid=afd5ffd8-430e-4d62-bef8-5e8e2ee25289"},"vehicle_type_id":"4","last_reported":1729530487,"current_range_meters":20400,"station_id":"ce4bhq12rcd13ifvqhhg","pricing_plan_id":"cebpf4jnsgd1na2vs0mg"},{"bike_id":"f42f1099-9942-495a-9c1f-5fcb6164f3c8","system_id":"levelo_inurba_marseille","lat":43.25083,"lon":5.39515,"is_reserved":false,"is_disabled":false,"rental_uris":{"android":"levelo://app?vid=f42f1099-9942-495a-9c1f-5fcb6164f3c8","ios":"levelo://app?vid=f42f1099-9942-495a-9c1f-5fcb6164f3c8"},"vehicle_type_id":"4","last_reported":1729530487,"current_range_meters":28400,"station_id":"ce4bhm12rcd13ifvqgkg","pricing_plan_id":"cebpf4jnsgd1na2vs0mg"},{"bike_id":"4f87878a-4628-4805-9f54-29c7ef8d5dc5","system_id":"levelo_inurba_marseille","lat":43.32451,"lon":5.38405,"is_reserved":false,"is_disabled":false,"rental_uris":{"android":"levelo://app?vid=4f87878a-4628-4805-9f54-29c7ef8d5dc5","ios":"levelo://app?vid=4f87878a-4628-4805-9f54-29c7ef8d5dc5"},"vehicle_type_id":"4","last_reported":1729530487,"current_range_meters":10800,"station_id":"ce4bhr12rcd13ifvqhqg","pricing_plan_id":"cebpf4jnsgd1na2vs0mg"},{"bike_id":"79f906df-df1a-4fc8-bf68-d69d8fc48e27","system_id":"levelo_inurba_marseille","lat":43.26908,"lon":5.39416,"is_reserved":false,"is_disabled":false,"rental_uris":{"android":"levelo://app?vid=79f906df-df1a-4fc8-bf68-d69d8fc48e27","ios":"levelo://app?vid=79f906df-df1a-4fc8-bf68-d69d8fc48e27"},"vehicle_type_id":"4","last_reported":1729530487,"current_range_meters":3600,"station_id":"","pricing_plan_id":"cebpf4jnsgd1na2vs0mg"},{"bike_id":"64558400-04d2-4974-82e1-99568c6c8a9a","system_id":"levelo_inurba_marseille","lat":43.294281,"lon":5.386176,"is_reserved":false,"is_disabled":false,"rental_uris":{"android":"levelo://app?vid=64558400-04d2-4974-82e1-99568c6c8a9a","ios":"levelo://app?vid=64558400-04d2-4974-82e1-99568c6c8a9a"},"vehicle_type_id":"4","last_reported":1729530487,"current_range_meters":38800,"station_id":"ce4bgkh2rcd13ifvqbk0","pricing_plan_id":"cebpf4jnsgd1na2vs0mg"},{"bike_id":"353e4e5a-23d1-4492-a107-e6d86c5ddb97","system_id":"levelo_inurba_marseille","lat":43.23192,"lon":5.43658,"is_reserved":false,"is_disabled":false,"rental_uris":{"android":"levelo://app?vid=353e4e5a-23d1-4492-a107-e6d86c5ddb97","ios":"levelo://app?vid=353e4e5a-23d1-4492-a107-e6d86c5ddb97"},"vehicle_type_id":"4","last_reported":1729530487,"current_range_meters":16800,"station_id":"ce4bhmp2rcd13ifvqgog","pricing_plan_id":"cebpf4jnsgd1na2vs0mg"},{"bike_id":"faa48608-260d-423f-8933-b41973f22881","system_id":"levelo_inurba_marseille","lat":43.287808,"lon":5.379888,"is_reserved":false,"is_disabled":false,"rental_uris":{"android":"levelo://app?vid=faa48608-260d-423f-8933-b41973f22881","ios":"levelo://app?vid=faa48608-260d-423f-8933-b41973f22881"},"vehicle_type_id":"4","last_reported":1729530487,"current_range_meters":28000,"station_id":"ce4bh9p2rcd13ifvqec0","pricing_plan_id":"cebpf4jnsgd1na2vs0mg"},{"bike_id":"e45f65f7-3ff3-490e-9604-4877873b72ab","system_id":"levelo_inurba_marseille","lat":43.27834,"lon":5.39216,"is_reserved":false,"is_disabled":false,"rental_uris":{"android":"levelo://app?vid=e45f65f7-3ff3-490e-9604-4877873b72ab","ios":"levelo://app?vid=e45f65f7-3ff3-490e-9604-4877873b72ab"},"vehicle_type_id":"4","last_reported":1729530487,"current_range_meters":8000,"station_id":"ce4bhjp2rcd13ifvqga0","pricing_plan_id":"cebpf4jnsgd1na2vs0mg"},{"bike_id":"d1cfe056-16cc-4458-b9b0-32093d8a76a0","system_id":"levelo_inurba_marseille","lat":43.28481,"lon":5.38545,"is_reserved":false,"is_disabled":false,"rental_uris":{"android":"levelo://app?vid=d1cfe056-16cc-4458-b9b0-32093d8a76a0","ios":"levelo://app?vid=d1cfe056-16cc-4458-b9b0-32093d8a76a0"},"vehicle_type_id":"4","last_reported":1729530487,"current_range_meters":16800,"station_id":"ce4bh8p2rcd13ifvqeb0","pricing_plan_id":"cebpf4jnsgd1na2vs0mg"},{"bike_id":"550a0540-8ebe-440e-a767-55764d6ce147","system_id":"levelo_inurba_marseille","lat":43.32658,"lon":5.40993,"is_reserved":false,"is_disabled":false,"rental_uris":{"android":"levelo://app?vid=550a0540-8ebe-440e-a767-55764d6ce147","ios":"levelo://app?vid=550a0540-8ebe-440e-a767-55764d6ce147"},"vehicle_type_id":"4","last_reported":1729530487,"current_range_meters":39200,"station_id":"ce4bhpp2rcd13ifvqhgg","pricing_plan_id":"cebpf4jnsgd1na2vs0mg"},{"bike_id":"1557c621-9737-4087-b3aa-fa7c3fd474ca","system_id":"levelo_inurba_marseille","lat":43.32334,"lon":5.40625,"is_reserved":false,"is_disabled":false,"rental_uris":{"android":"levelo://app?vid=1557c621-9737-4087-b3aa-fa7c3fd474ca","ios":"levelo://app?vid=1557c621-9737-4087-b3aa-fa7c3fd474ca"},"vehicle_type_id":"4","last_reported":1729530487,"current_range_meters":7200,"station_id":"ce4bhq92rcd13ifvqhjg","pricing_plan_id":"cebpf4jnsgd1na2vs0mg"},{"bike_id":"f0be9ef1-5954-4e94-a62d-682e16095961","system_id":"levelo_inurba_marseille","lat":43.2878,"lon":5.36518,"is_reserved":false,"is_disabled":false,"rental_uris":{"android":"levelo://app?vid=f0be9ef1-5954-4e94-a62d-682e16095961","ios":"levelo://app?vid=f0be9ef1-5954-4e94-a62d-682e16095961"},"vehicle_type_id":"4","last_reported":1729530487,"current_range_meters":27200,"station_id":"","pricing_plan_id":"cebpf4jnsgd1na2vs0mg"},{"bike_id":"3b363386-6ec7-48be-9b8a-47d4b0760eba","system_id":"levelo_inurba_marseille","lat":43.26941,"lon":5.40263,"is_reserved":false,"is_disabled":false,"rental_uris":{"android":"levelo://app?vid=3b363386-6ec7-48be-9b8a-47d4b0760eba","ios":"levelo://app?vid=3b363386-6ec7-48be-9b8a-47d4b0760eba"},"vehicle_type_id":"4","last_reported":1729530487,"current_range_meters":10800,"station_id":"cjm6bp8fraef2m0cb0m0","pricing_plan_id":"cebpf4jnsgd1na2vs0mg"},{"bike_id":"bac90f60-0a67-43b8-b6cc-e5284a64f320","system_id":"levelo_inurba_marseille","lat":43.22932,"lon":5.35375,"is_reserved":false,"is_disabled":false,"rental_uris":{"android":"levelo://app?vid=bac90f60-0a67-43b8-b6cc-e5284a64f320","ios":"levelo://app?vid=bac90f60-0a67-43b8-b6cc-e5284a64f320"},"vehicle_type_id":"4","last_reported":1729530487,"current_range_meters":23200,"station_id":"cpo3532slgdg3j2ikp40","pricing_plan_id":"cebpf4jnsgd1na2vs0mg"},{"bike_id":"98e2d871-0c70-46f6-bbc2-1acd07b0c0e3","system_id":"levelo_inurba_marseille","lat":43.27487,"lon":5.4246,"is_reserved":false,"is_disabled":false,"rental_uris":{"android":"levelo://app?vid=98e2d871-0c70-46f6-bbc2-1acd07b0c0e3","ios":"levelo://app?vid=98e2d871-0c70-46f6-bbc2-1acd07b0c0e3"},"vehicle_type_id":"4","last_reported":1729530487,"current_range_meters":36800,"station_id":"ce4bhn92rcd13ifvqgrg","pricing_plan_id":"cebpf4jnsgd1na2vs0mg"},{"bike_id":"f111c97c-cd62-48f6-b116-4ba8455b2aef","system_id":"levelo_inurba_marseille","lat":43.28477,"lon":5.38579,"is_reserved":false,"is_disabled":false,"rental_uris":{"android":"levelo://app?vid=f111c97c-cd62-48f6-b116-4ba8455b2aef","ios":"levelo://app?vid=f111c97c-cd62-48f6-b116-4ba8455b2aef"},"vehicle_type_id":"4","last_reported":1729530487,"current_range_meters":3600,"station_id":"ce4bh8p2rcd13ifvqeb0","pricing_plan_id":"cebpf4jnsgd1na2vs0mg"},{"bike_id":"ed4f5b9d-0817-4b52-b206-1fd0b0d14bdf","system_id":"levelo_inurba_marseille","lat":43.27815,"lon":5.40712,"is_reserved":false,"is_disabled":false,"rental_uris":{"android":"levelo://app?vid=ed4f5b9d-0817-4b52-b206-1fd0b0d14bdf","ios":"levelo://app?vid=ed4f5b9d-0817-4b52-b206-1fd0b0d14bdf"},"vehicle_type_id":"4","last_reported":1729530487,"current_range_meters":5600,"station_id":"ce4bhnh2rcd13ifvqgtg","pricing_plan_id":"cebpf4jnsgd1na2vs0mg"},