{"last_updated":1746249011,"ttl":60,"version":"2.2","data":{"bikes":[{"bike_id":"67fb5bfd-4649-459a-98a3-c9dd0d74a936","system_id":"levelo_inurba_marseille","lat":43.2793,"lon":5.39605,"is_reserved":false,"is_disabled":false,"rental_uris":{"android":"levelo://app?vid=67fb5bfd-4649-459a-98a3-c9dd0d74a936","ios":"levelo://app?vid=67fb5bfd-4649-459a-98a3-c9dd0d74a936"},"vehicle_type_id":"4","last_reported":1746249012,"current_range_meters":2800,"station_id":"ce4bhf92rcd13ifvqf40","pricing_plan_id":"cebpf4jnsgd1na2vs0mg"},{"bike_id":"04b9db21-58b9-4279-b2a8-9517feea6159","system_id":"levelo_inurba_marseille","lat":43.2749,"lon":5.42448,"is_reserved":false,"is_disabled":false,"rental_uris":{"android":"levelo://app?vid=04b9db21-58b9-4279-b2a8-9517feea6159","ios":"levelo://app?vid=04b9db21-58b9-4279-b2a8-9517feea6159"},"vehicle_type_id":"4","last_reported":1746249012,"current_range_meters":2800,"station_id":"ce4bhn92rcd13ifvqgrg","pricing_plan_id":"cebpf4jnsgd1na2vs0mg"},{"bike_id":"51ef9827-05d4-4f72-abc3-c6fec8c5a095","system_id":"levelo_inurba_marseille","lat":43.23161,"lon":5.43735,"is_reserved":false,"is_disabled":true,"rental_uris":{"android":"levelo://app?vid=51ef9827-05d4-4f72-abc3-c6fec8c5a095","ios":"levelo://app?vid=51ef9827-05d4-4f72-abc3-c6fec8c5a095"},"vehicle_type_id":"4","last_reported":1746249012,"current_range_meters":3200,"station_id":"ce4bhmp2rcd13ifvqgog","pricing_plan_id":"cebpf4jnsgd1na2vs0mg"},{"bike_id":"f0773e55-3c03-408c-b52d-9fefc787e6d2","system_id":"levelo_inurba_marseille","lat":43.29167,"lon":5.38615,"is_reserved":false,"is_disabled":false,"rental_uris":{"android":"levelo://app?vid=f0773e55-3c03-408c-b52d-9fefc787e6d2","ios":"levelo://app?vid=f0773e55-3c03-408c-b52d-9fefc787e6d2"},"vehicle_type_id":"4","last_reported":1746249012,"current_range_meters":3200,"station_id":"","pricing_plan_id":"cebpf4jnsgd1na2vs0mg"},{"bike_id":"39fb05fe-e3be-4147-a9f3-c02a474160a2","system_id":"levelo_inurba_marseille","lat":43.24169,"lon":5.36403,"is_reserved":false,"is_disabled":true,"rental_uris":{"android":"levelo://app?vid=39fb05fe-e3be-4147-a9f3-c02a474160a2","ios":"levelo://app?vid=39fb05fe-e3be-4147-a9f3-c02a474160a2"},"vehicle_type_id":"4","last_reported":1746249012,"current_range_meters":3200,"station_id":"cpo36qri1sfpv3e86is0","pricing_plan_id":"cebpf4jnsgd1na2vs0mg"},{"bike_id":"277b09f7-c239-408c-a98f-da7583ea5f2b","system_id":"levelo_inurba_marseille","lat":43.28528,"lon":5.39199,"is_reserved":false,"is_disabled":false,"rental_uris":{"android":"levelo://app?vid=277b09f7-c239-408c-a98f-da7583ea5f2b","ios":"levelo://app?vid=277b09f7-c239-408c-a98f-da7583ea5f2b"},"vehicle_type_id":"4","last_reported":1746249012,"current_range_meters":3200,"station_id":"","pricing_plan_id":"cebpf4jnsgd1na2vs0mg"},{"bike_id":"34294dd3-b27d-4ffb-860f-a93d9867f32f","system_id":"levelo_inurba_marseille","lat":43.25074,"lon":5.39536,"is_reserved":false,"is_disabled":false,"rental_uris":{"android":"levelo://app?vid=34294dd3-b27d-4ffb-860f-a93d9867f32f","ios":"levelo://app?vid=34294dd3-b27d-4ffb-860f-a93d9867f32f"},"vehicle_type_id":"4","last_reported":1746249012,"current_range_meters":3200,"station_id":"ce4bhm12rcd13ifvqgkg","pricing_plan_id":"cebpf4jnsgd1na2vs0mg"},{"bike_id":"fb1a961d-a942-4d57-b471-468013633b9d","system_id":"levelo_inurba_marseille","lat":43.298982,"lon":5.436633,"is_reserved":false,"is_disabled":false,"rental_uris":{"android":"levelo://app?vid=fb1a961d-a942-4d57-b471-468013633b9d","ios":"levelo://app?vid=fb1a961d-a942-4d57-b471-468013633b9d"},"vehicle_type_id":"4","last_reported":1746249012,"current_range_meters":3200,"station_id":"ce4bhpp2rcd13ifvqhfg","pricing_plan_id":"cebpf4jnsgd1na2vs0mg"},{"bike_id":"0c031223-071b-45e2-9887-32e2c15af234","system_id":"levelo_inurba_marseille","lat":43.274971,"lon":5.424563,"is_reserved":false,"is_disabled":false,"rental_uris":{"android":"levelo://app?vid=0c031223-071b-45e2-9887-32e2c15af234","ios":"levelo://app?vid=0c031223-071b-45e2-9887-32e2c15af234"},"vehicle_type_id":"4","last_reported":1746249012,"current_range_meters":3600,"station_id":"ce4bhn92rcd13ifvqgrg","pricing_plan_id":"cebpf4jnsgd1na2vs0mg"},{"bike_id":"f4f63859-7e83-44c9-8822-c6e00bd4414c","system_id":"levelo_inurba_marseille","lat":43.29256,"lon":5.40927,"is_reserved":false,"is_disabled":false,"rental_uris":{"android":"levelo://app?vid=f4f63859-7e83-44c9-8822-c6e00bd4414c","ios":"levelo://app?vid=f4f63859-7e83-44c9-8822-c6e00bd4414c"},"vehicle_type_id":"4","last_reported":1746249012,"current_range_meters":3600,"station_id":"ce4bh192rcd13ifvqdc0","pricing_plan_id":"cebpf4jnsgd1na2vs0mg"},{"bike_id":"11a051a9-a31d-4b7d-bd16-1a208908134a","system_id":"levelo_inurba_marseille","lat":43.30151,"lon":5.380874,"is_reserved":false,"is_disabled":false,"rental_uris":{"android":"levelo://app?vid=11a051a9-a31d-4b7d-bd16-1a208908134a","ios":"levelo://app?vid=11a051a9-a31d-4b7d-bd16-1a208908134a"},"vehicle_type_id":"4","last_reported":1746249012,"current_range_meters":3600,"station_id":"ce4bgjp2rcd13ifvqbh0","pricing_plan_id":"cebpf4jnsgd1na2vs0mg"},{"bike_id":"885d5381-9902-418c-bec9-d084ccc99c30","system_id":"levelo_inurba_marseille","lat":43.24168,"lon":5.39742,"is_reserved":false,"is_disabled":false,"rental_uris":{"android":"levelo://app?vid=885d5381-9902-418c-bec9-d084ccc99c30","ios":"levelo://app?vid=885d5381-9902-418c-bec9-d084ccc99c30"},"vehicle_type_id":"4","last_reported":1746249012,"current_range_meters":3600,"station_id":"ce4bhn12rcd13ifvqgpg","pricing_plan_id":"cebpf4jnsgd1na2vs0mg"},{"bike_id":"fc109967-526e-464b-ab42-6068e7d67950","system_id":"levelo_inurba_marseille","lat":43.29266,"lon":5.40147,"is_reserved":false,"is_disabled":false,"rental_uris":{"android":"levelo://app?vid=fc109967-526e-464b-ab42-6068e7d67950","ios":"levelo://app?vid=fc109967-526e-464b-ab42-6068e7d67950"},"vehicle_type_id":"4","last_reported":1746249012,"current_range_meters":3600,"station_id":"ce4bh312rcd13ifvqdk0","pricing_plan_id":"cebpf4jnsgd1na2vs0mg"},{"bike_id":"1e0a121b-2ab4-47e0-9e7d-e7a1038843e4","system_id":"levelo_inurba_marseille","lat":43.31479,"lon":5.37239,"is_reserved":false,"is_disabled":false,"rental_uris":{"android":"levelo://app?vid=1e0a121b-2ab4-47e0-9e7d-e7a1038843e4","ios":"levelo://app?vid=1e0a121b-2ab4-47e0-9e7d-e7a1038843e4"},"vehicle_type_id":"4","last_reported":1746249012,"current_range_meters":3600,"station_id":"ce4bgt12rcd13ifvqcd0","pricing_plan_id":"cebpf4jnsgd1na2vs0mg"},{"bike_id":"03d98ede-9bab-4b3f-b25a-61c1ab3ac18b","system_id":"levelo_inurba_marseille","lat":43.28707,"lon":5.39972,"is_reserved":false,"is_disabled":false,"rental_uris":{"android":"levelo://app?vid=03d98ede-9bab-4b3f-b25a-61c1ab3ac18b","ios":"levelo://app?vid=03d98ede-9bab-4b3f-b25a-61c1ab3ac18b"},"vehicle_type_id":"4","last_reported":1746249012,"current_range_meters":4000,"station_id":"ce4bho92rcd13ifvqh3g","pricing_plan_id":"cebpf4jnsgd1na2vs0mg"},{"bike_id":"56c2a0ae-09a7-4f7b-b71e-617f925a787c","system_id":"levelo_inurba_marseille","lat":43.25134,"lon":5.40339,"is_reserved":false,"is_disabled":false,"rental_uris":{"android":"levelo://app?vid=56c2a0ae-09a7-4f7b-b71e-617f925a787c","ios":"levelo://app?vid=56c2a0ae-09a7-4f7b-b71e-617f925a787c"},"vehicle_type_id":"4","last_reported":1746249012,"current_range_meters":4400,"station_id":"ce4bhlh2rcd13ifvqgig","pricing_plan_id":"cebpf4jnsgd1na2vs0mg"},{"bike_id":"7d5b0478-8afb-4bbe-9549-55d6044e7a97","system_id":"levelo_inurba_marseille","lat":43.281069,"lon":5.378443,"is_reserved":false,"is_disabled":false,"rental_uris":{"android":"levelo://app?vid=7d5b0478-8afb-4bbe-9549-55d6044e7a97","ios":"levelo://app?vid=7d5b0478-8afb-4bbe-9549-55d6044e7a97"},"vehicle_type_id":"4","last_reported":1746249012,"current_range_meters":4400,"station_id":"ce4bha12rcd13ifvqee0","pricing_plan_id":"cebpf4jnsgd1na2vs0mg"},{"bike_id":"03ced9d9-9b3b-41bc-aef9-99849ba401c5","system_id":"levelo_inurba_marseille","lat":43.28494,"lon":5.38567,"is_reserved":false,"is_disabled":false,"rental_uris":{"android":"levelo://app?vid=03ced9d9-9b3b-41bc-aef9-99849ba401c5","ios":"levelo://app?vid=03ced9d9-9b3b-41bc-aef9-99849ba401c5"},"vehicle_type_id":"4","last_reported":1746249012,"current_range_meters":5600,"station_id":"ce4bh8p2rcd13ifvqeb0","pricing_plan_id":"cebpf4jnsgd1na2vs0mg"},{"bike_id":"4fcb94dd-7e2e-4c2b-a657-b8760b2238dc","system_id":"levelo_inurba_marseille","lat":43.2594,"lon":5.40906,"is_reserved":false,"is_disabled":false,"rental_uris":{"android":"levelo://app?vid=4fcb94dd-7e2e-4c2b-a657-b8760b2238dc","ios":"levelo://app?vid=4fcb94dd-7e2e-4c2b-a657-b8760b2238dc"},"vehicle_type_id":"4","last_reported":1746249012,"current_range_meters":5600,"station_id":"ce4bhm92rcd13ifvqglg","pricing_plan_id":"cebpf4jnsgd1na2vs0mg"},{"bike_id":"b83fde30-817f-4ac4-9298-d090a6421e2d","system_id":"levelo_inurba_marseille","lat":43.28163,"lon":5.42691,"is_reserved":false,"is_disabled":false,"rental_uris":{"android":"levelo://app?vid=b83fde30-817f-4ac4-9298-d090a6421e2d","ios":"levelo://app?vid=b83fde30-817f-4ac4-9298-d090a6421e2d"},"vehicle_type_id":"4","last_reported":1746249012,"current_range_meters":5600,"station_id":"ce4bhnh2rcd13ifvqgug","pricing_plan_id":"cebpf4jnsgd1na2vs0mg"},{"bike_id":"f73daf93-45c7-48c0-a61a-2d28ac89db8d","system_id":"levelo_inurba_marseille","lat":43.33959,"lon":5.42046,"is_reserved":false,"is_disabled":false,"rental_uris":{"android":"levelo://app?vid=f73daf93-45c7-48c0-a61a-2d28ac89db8d","ios":"levelo://app?vid=f73daf93-45c7-48c0-a61a-2d28ac89db8d"},"vehicle_type_id":"4","last_reported":1746249012,"current_range_meters":5600,"station_id":"","pricing_plan_id":"cebpf4jnsgd1na2vs0mg"},{"bike_id":"2be6c5ac-db75-4c9d-95c6-9c66882f14b8","system_id":"levelo_inurba_marseille","lat":43.27894,"lon":5.36303,"is_reserved":false,"is_disabled":false,"rental_uris":{"android":"levelo://app?vid=2be6c5ac-db75-4c9d-95c6-9c66882f14b8","ios":"levelo://app?vid=2be6c5ac-db75-4c9d-95c6-9c66882f14b8"},"vehicle_type_id":"4","last_reported":1746249012,"current_range_meters":6000,"station_id":"","pricing_plan_id":"cebpf4jnsgd1na2vs0mg"},{"bike_id":"ba1291bf-568d-477b-8e17-c284858000b8","system_id":"levelo_inurba_marseille","lat":43.33788,"lon":5.37461,"is_reserved":false,"is_disabled":false,"rental_uris":{"android":"levelo://app?vid=ba1291bf-568d-477b-8e17-c284858000b8","ios":"levelo://app?vid=ba1291bf-568d-477b-8e17-c284858000b8"},"vehicle_type_id":"4","last_reported":1746249012,"current_range_meters":6000,"station_id":"","pricing_plan_id":"cebpf4jnsgd1na2vs0mg"},{"bike_id":"664e73ec-0cae-4621-ba5e-4bbd28010343","system_id":"levelo_inurba_marseille","lat":43.251042,"lon":5.40324,"is_reserved":false,"is_disabled":false,"rental_uris":{"android":"levelo://app?vid=664e73ec-0cae-4621-ba5e-4bbd28010343","ios":"levelo://app?vid=664e73ec-0cae-4621-ba5e-4bbd28010343"},"vehicle_type_id":"4","last_reported":1746249012,"current_range_meters":6000,"station_id":"ce4bhlh2rcd13ifvqgig","pricing_plan_id":"cebpf4jnsgd1na2vs0mg"},{"bike_id":"221d1909-7de9-44ec-9fde-224fe0a7b083","system_id":"levelo_inurba_marseille","lat":43.28034,"lon":5.36959,"is_reserved":false,"is_disabled":false,"rental_uris":{"android":"levelo://app?vid=221d1909-7de9-44ec-9fde-224fe0a7b083","ios":"levelo://app?vid=221d1909-7de9-44ec-9fde-224fe0a7b083"},"vehicle_type_id":"4","last_reported":1746249012,"current_range_meters":6000,"station_id":"ce4bha12rcd13ifvqef0","pricing_plan_id":"cebpf4jnsgd1na2vs0mg"},{"bike_id":"49089dd8-175f-4d2a-8c6a-503408468c11","system_id":"levelo_inurba_marseille","lat":43.30161,"lon":5.38092,"is_reserved":false,"is_disabled":false,"rental_uris":{"android":"levelo://app?vid=49089dd8-175f-4d2a-8c6a-503408468c11","ios":"levelo://app?vid=49089dd8-175f-4d2a-8c6a-503408468c11"},"vehicle_type_id":"4","last_reported":1746249012,"current_range_meters":6000,"station_id":"ce4bgjp2rcd13ifvqbh0","pricing_plan_id":"cebpf4jnsgd1na2vs0mg"},{"bike_id":"c2f1ceaa-52ea-4914-a3b3-5d5a44fac5fe","system_id":"levelo_inurba_marseille","lat":43.30256,"lon":5.40077,"is_reserved":false,"is_disabled":false,"rental_uris":{"android":"levelo://app?vid=c2f1ceaa-52ea-4914-a3b3-5d5a44fac5fe","ios":"levelo://app?vid=c2f1ceaa-52ea-4914-a3b3-5d5a44fac5fe"},"vehicle_type_id":"4","last_reported":1746249012,"current_range_meters":6000,"station_id":"ce4bgvh2rcd13ifvqcs0","pricing_plan_id":"cebpf4jnsgd1na2vs0mg"},{"bike_id":"0d6c5100-7db5-44d0-b9d6-cf2b96014798","system_id":"levelo_inurba_marseille","lat":43.31017,"lon":5.37493,"is_reserved":false,"is_disabled":false,"rental_uris":{"android":"levelo://app?vid=0d6c5100-7db5-44d0-b9d6-cf2b96014798","ios":"levelo://app?vid=0d6c5100-7db5-44d0-b9d6-cf2b96014798"},"vehicle_type_id":"4","last_reported":1746249012,"current_range_meters":6400,"station_id":"","pricing_plan_id":"cebpf4jnsgd1na2vs0mg"},{"bike_id":"ee49d34d-334f-42a3-9509-f7be509b03ba","system_id":"levelo_inurba_marseille","lat":43.240676,"lon":5.377614,"is_reserved":false,"is_disabled":false,"rental_uris":{"android":"levelo://app?vid=ee49d34d-334f-42a3-9509-f7be509b03ba","ios":"levelo://app?vid=ee49d34d-334f-42a3-9509-f7be509b03ba"},"vehicle_type_id":"4","last_reported":1746249012,"current_range_meters":6400,"station_id":"ce4bhnp2rcd13ifvqgvg","pricing_plan_id":"cebpf4jnsgd1na2vs0mg"},{"bike_id":"3b612d21-63e0-4409-9056-b0c84821871b","system_id":"levelo_inurba_marseille","lat":43.30155,"lon":5.38097,"is_reserved":false,"is_disabled":false,"rental_uris":{"android":"levelo://app?vid=3b612d21-63e0-4409-9056-b0c84821871b","ios":"levelo://app?vid=3b612d21-63e0-4409-9056-b0c84821871b"},"vehicle_type_id":"4","last_reported":1746249012,"current_range_meters":6400,"station_id":"ce4bgjp2rcd13ifvqbh0","pricing_plan_id":"cebpf4jnsgd1na2vs0mg"},{"bike_id":"34d82e56-d819-45e9-ae4f-e18306b1ae62","system_id":"levelo_inurba_marseille","lat":43.33599,"lon":5.41034,"is_reserved":false,"is_disabled":false,"rental_uris":{"android":"levelo://app?vid=34d82e56-d819-45e9-ae4f-e18306b1ae62","ios":"levelo://app?vid=34d82e56-d819-45e9-ae4f-e18306b1ae62"},"vehicle_type_id":"4","last_reported":1746249012,"current_range_meters":6400,"station_id":"ce4bhqh2rcd13ifvqhmg","pricing_plan_id":"cebpf4jnsgd1na2vs0mg"},{"bike_id":"9a6e0384-4e87-40c9-88ea-ddade03372a5","system_id":"levelo_inurba_marseille","lat":43.31109,"lon":5.37793,"is_reserved":false,"is_disabled":false,"rental_uris":{"android":"levelo://app?vid=9a6e0384-4e87-40c9-88ea-ddade03372a5","ios":"levelo://app?vid=9a6e0384-4e87-40c9-88ea-ddade03372a5"},"vehicle_type_id":"4","last_reported":1746249012,"current_range_meters":6400,"station_id":"ce4bgt92rcd13ifvqcg0","pricing_plan_id":"cebpf4jnsgd1na2vs0mg"},{"bike_id":"7971fe93-5f1d-4a59-8508-b415e64fcb18","system_id":"levelo_inurba_marseille","lat":43.309575,"lon":5.373754,"is_reserved":false,"is_disabled":false,"rental_uris":{"android":"levelo://app?vid=7971fe93-5f1d-4a59-8508-b415e64fcb18","ios":"levelo://app?vid=7971fe93-5f1d-4a59-8508-b415e64fcb18"},"vehicle_type_id":"4","last_reported":1746249012,"current_range_meters":6400,"station_id":"","pricing_plan_id":"cebpf4jnsgd1na2vs0mg"},{"bike_id":"f58ab010-fda0-4638-9a03-36c041df6640","system_id":"levelo_inurba_marseille","lat":43.31278,"lon":5.40177,"is_reserved":false,"is_disabled":false,"rental_uris":{"android":"levelo://app?vid=f58ab010-fda0-4638-9a03-36c041df6640","ios":"levelo://app?vid=f58ab010-fda0-4638-9a03-36c041df6640"},"vehicle_type_id":"4","last_reported":1746249012,"current_range_meters":6800,"station_id":"ce4bh092rcd13ifvqd30","pricing_plan_id":"cebpf4jnsgd1na2vs0mg"},{"bike_id":"3f4c587d-47af-49a5-b812-629cea65764c","system_id":"levelo_inurba_marseille","lat":43.30433,"lon":5.41313,"is_reserved":false,"is_disabled":false,"rental_uris":{"android":"levelo://app?vid=3f4c587d-47af-49a5-b812-629cea65764c","ios":"levelo://app?vid=3f4c587d-47af-49a5-b812-629cea65764c"},"vehicle_type_id":"4","last_reported":1746249012,"current_range_meters":7200,"station_id":"ce4bhop2rcd13ifvqh8g","pricing_plan_id":"cebpf4jnsgd1na2vs0mg"},{"bike_id":"2d87f24b-bb92-4f5a-9c64-611905425c8d","system_id":"levelo_inurba_marseille","lat":43.23667,"lon":5.39143,"is_reserved":false,"is_disabled":false,"rental_uris":{"android":"levelo://app?vid=2d87f24b-bb92-4f5a-9c64-611905425c8d","ios":"levelo://app?vid=2d87f24b-bb92-4f5a-9c64-611905425c8d"},"vehicle_type_id":"4","last_reported":1746249012,"current_range_meters":7200,"station_id":"","pricing_plan_id":"cebpf4jnsgd1na2vs0mg"},{"bike_id":"42122379-2bff-4cd0-87de-5966d22614ed","system_id":"levelo_inurba_marseille","lat":43.30787,"lon":5.37647,"is_reserved":false,"is_disabled":false,"rental_uris":{"android":"levelo://app?vid=42122379-2bff-4cd0-87de-5966d22614ed","ios":"levelo://app?vid=42122379-2bff-4cd0-87de-5966d22614ed"},"vehicle_type_id":"4","last_reported":1746249012,"current_range_meters":7200,"station_id":"","pricing_plan_id":"cebpf4jnsgd1na2vs0mg"},{"bike_id":"078de466-9cf8-4f1f-bb9b-8307330abfd1","system_id":"levelo_inurba_marseille","lat":43.29249,"lon":5.40188,"is_reserved":false,"is_disabled":false,"rental_uris":{"android":"levelo://app?vid=078de466-9cf8-4f1f-bb9b-8307330abfd1","ios":"levelo://app?vid=078de466-9cf8-4f1f-bb9b-8307330abfd1"},"vehicle_type_id":"4","last_reported":1746249012,"current_range_meters":7200,"station_id":"ce4bh312rcd13ifvqdk0","pricing_plan_id":"cebpf4jnsgd1na2vs0mg"},{"bike_id":"81e80a60-feb5-4268-9314-c65f9c70c462","system_id":"levelo_inurba_marseille","lat":43.290211,"lon":5.386324,"is_reserved":false,"is_disabled":true,"rental_uris":{"android":"levelo://app?vid=81e80a60-feb5-4268-9314-c65f9c70c462","ios":"levelo://app?vid=81e80a60-feb5-4268-9314-c65f9c70c462"},"vehicle_type_id":"4","last_reported":1746249012,"current_range_meters":7200,"station_id":"ce4bh4p2rcd13ifvqe0g","pricing_plan_id":"cebpf4jnsgd1na2vs0mg"},{"bike_id":"a17bc77c-9891-4abb-b13f-68d37aebf103","system_id":"levelo_inurba_marseille","lat":43.29008,"lon":5.38124,"is_reserved":false,"is_disabled":true,"rental_uris":{"android":"levelo://app?vid=a17bc77c-9891-4abb-b13f-68d37aebf103","ios":"levelo://app?vid=a17bc77c-9891-4abb-b13f-68d37aebf103"},"vehicle_type_id":"4","last_reported":1746249012,"current_range_meters":8000,"station_id":"ce4bh4p2rcd13ifvqe1g","pricing_plan_id":"cebpf4jnsgd1na2vs0mg"},{"bike_id":"8ab96c8b-eb43-4dbc-803d-75eeb7ace558","system_id":"levelo_inurba_marseille","lat":43.30244,"lon":5.40072,"is_reserved":false,"is_disabled":false,"rental_uris":{"android":"levelo://app?vid=8ab96c8b-eb43-4dbc-803d-75eeb7ace558","ios":"levelo://app?vid=8ab96c8b-eb43-4dbc-803d-75eeb7ace558"},"vehicle_type_id":"4","last_reported":1746249012,"current_range_meters":8000,"station_id":"ce4bgvh2rcd13ifvqcs0","pricing_plan_id":"cebpf4jnsgd1na2vs0mg"},{"bike_id":"ad7b9ae4-9983-42fc-8cdc-30d005232021","system_id":"levelo_inurba_marseille","lat":43.24694,"lon":5.38163,"is_reserved":false,"is_disabled":false,"rental_uris":{"android":"levelo://app?vid=ad7b9ae4-9983-42fc-8cdc-30d005232021","ios":"levelo://app?vid=ad7b9ae4-9983-42fc-8cdc-30d005232021"},"vehicle_type_id":"4","last_reported":1746249012,"current_range_meters":8000,"station_id":"ce4bhih2rcd13ifvqfr0","pricing_plan_id":"cebpf4jnsgd1na2vs0mg"},{"bike_id":"29a83445-0753-40f4-8ed7-c02207f310e3","system_id":"levelo_inurba_marseille","lat":43.28326,"lon":5.38523,"is_reserved":false,"is_disabled":false,"rental_uris":{"android":"levelo://app?vid=29a83445-0753-40f4-8ed7-c02207f310e3","ios":"levelo://app?vid=29a83445-0753-40f4-8ed7-c02207f310e3"},"vehicle_type_id":"4","last_reported":1746249012,"current_range_meters":8000,"station_id":"","pricing_plan_id":"cebpf4jnsgd1na2vs0mg"},{"bike_id":"7f2b25f6-014d-4712-b80f-ffce5f418b5b","system_id":"levelo_inurba_marseille","lat":43.275,"lon":5.42466,"is_reserved":false,"is_disabled":false,"rental_uris":{"android":"levelo://app?vid=7f2b25f6-014d-4712-b80f-ffce5f418b5b","ios":"levelo://app?vid=7f2b25f6-014d-4712-b80f-ffce5f418b5b"},"vehicle_type_id":"4","last_reported":1746249012,"current_range_meters":8000,"station_id":"ce4bhn92rcd13ifvqgrg","pricing_plan_id":"cebpf4jnsgd1na2vs0mg"},{"bike_id":"2f2483eb-cb36-42b6-aa28-30acafaa13b1","system_id":"levelo_inurba_marseille","lat":43.29268,"lon":5.40922,"is_reserved":false,"is_disabled":false,"rental_uris":{"android":"levelo://app?vid=2f2483eb-cb36-42b6-aa28-30acafaa13b1","ios":"levelo://app?vid=2f2483eb-cb36-42b6-aa28-30acafaa13b1"},"vehicle_type_id":"4","last_reported":1746249012,"current_range_meters":8000,"station_id":"ce4bh192rcd13ifvqdc0","pricing_plan_id":"cebpf4jnsgd1na2vs0mg"},{"bike_id":"6c8f2ed0-8cbc-4ec6-a7e3-532618592f45","system_id":"levelo_inurba_marseille","lat":43.239651,"lon":5.36629,"is_reserved":false,"is_disabled":false,"rental_uris":{"android":"levelo://app?vid=6c8f2ed0-8cbc-4ec6-a7e3-532618592f45","ios":"levelo://app?vid=6c8f2ed0-8cbc-4ec6-a7e3-532618592f45"},"vehicle_type_id":"4","last_reported":1746249012,"current_range_meters":8400,"station_id":"ce4bhi12rcd13ifvqfp0","pricing_plan_id":"cebpf4jnsgd1na2vs0mg"},{"bike_id":"271d1032-0e9c-4509-ac1f-b2a948175d86","system_id":"levelo_inurba_marseille","lat":43.2816,"lon":5.42669,"is_reserved":false,"is_disabled":false,"rental_uris":{"android":"levelo://app?vid=271d1032-0e9c-4509-ac1f-b2a948175d86","ios":"levelo://app?vid=271d1032-0e9c-4509-ac1f-b2a948175d86"},"vehicle_type_id":"4","last_reported":1746249012,"current_range_meters":8400,"station_id":"ce4bhnh2rcd13ifvqgug","pricing_plan_id":"cebpf4jnsgd1na2vs0mg"},{"bike_id":"0c9a8767-a71f-4ef0-b390-c3b7e9c632a8","system_id":"levelo_inurba_marseille","lat":43.21197,"lon":5.35098,"is_reserved":false,"is_disabled":true,"rental_uris":{"android":"levelo://app?vid=0c9a8767-a71f-4ef0-b390-c3b7e9c632a8","ios":"levelo://app?vid=0c9a8767-a71f-4ef0-b390-c3b7e9c632a8"},"vehicle_type_id":"4","last_reported":1746249012,"current_range_meters":8400,"station_id":"","pricing_plan_id":"cebpf4jnsgd1na2vs0mg"},{"bike_id":"3694d090-d909-4d38-9eb1-31338c8af39e","system_id":"levelo_inurba_marseille","lat":43.26695,"lon":5.3826,"is_reserved":false,"is_disabled":true,"rental_uris":{"android":"levelo://app?vid=3694d090-d909-4d38-9eb1-31338c8af39e","ios":"levelo://app?vid=3694d090-d909-4d38-9eb1-31338c8af39e"},"vehicle_type_id":"4","last_reported":1746249012,"current_range_meters":8400,"station_id":"ce4bhg92rcd13ifvqf90","pricing_plan_id":"cebpf4jnsgd1na2vs0mg"},{"bike_id":"8627f32f-9cd2-46f8-92f0-58cd595c917d","system_id":"levelo_inurba_marseille","lat":43.323581,"lon":5.367608,"is_reserved":false,"is_disabled":false,"rental_uris":{"android":"levelo://app?vid=8627f32f-9cd2-46f8-92f0-58cd595c917d","ios":"levelo://app?vid=8627f32f-9cd2-46f8-92f0-58cd595c917d"},"vehicle_type_id":"4","last_reported":1746249012,"current_range_meters":8400,"station_id":"ce4bhsh2rcd13ifvqi2g","pricing_plan_id":"cebpf4jnsgd1na2vs0mg"},{"bike_id":"bcdb9d2e-41b6-4501-810c-6146d2dfe2c6","system_id":"levelo_inurba_marseille","lat":43.293023,"lon":5.37176,"is_reserved":false,"is_disabled":true,"rental_uris":{"android":"levelo://app?vid=bcdb9d2e-41b6-4501-810c-6146d2dfe2c6","ios":"levelo://app?vid=bcdb9d2e-41b6-4501-810c-6146d2dfe2c6"},"vehicle_type_id":"4","last_reported":1746249012,"current_range_meters":8400,"station_id":"ce4bgh92rcd13ifvqb40","pricing_plan_id":"cebpf4jnsgd1na2vs0mg"},{"bike_id":"354f7438-aa30-4e53-8181-12e37a07905f","system_id":"levelo_inurba_marseille","lat":43.29705,"lon":5.37316,"is_reserved":false,"is_disabled":true,"rental_uris":{"android":"levelo://app?vid=354f7438-aa30-4e53-8181-12e37a07905f","ios":"levelo://app?vid=354f7438-aa30-4e53-8181-12e37a07905f"},"vehicle_type_id":"4","last_reported":1746249012,"current_range_meters":8400,"station_id":"ce4bgk12rcd13ifvqbj0","pricing_plan_id":"cebpf4jnsgd1na2vs0mg"},{"bike_id":"52653438-d935-4f61-a0a5-dc59b768eafc","system_id":"levelo_inurba_marseille","lat":43.32378,"lon":5.36759,"is_reserved":false,"is_disabled":false,"rental_uris":{"android":"levelo://app?vid=52653438-d935-4f61-a0a5-dc59b768eafc","ios":"levelo://app?vid=52653438-d935-4f61-a0a5-dc59b768eafc"},"vehicle_type_id":"4","last_reported":1746249012,"current_range_meters":8400,"station_id":"ce4bhsh2rcd13ifvqi2g","pricing_plan_id":"cebpf4jnsgd1na2vs0mg"},{"bike_id":"130826aa-df2c-4d82-b555-0d3df33b0aae","system_id":"levelo_inurba_marseille","lat":43.33719,"lon":5.3918,"is_reserved":false,"is_disabled":false,"rental_uris":{"android":"levelo://app?vid=130826aa-df2c-4d82-b555-0d3df33b0aae","ios":"levelo://app?vid=130826aa-df2c-4d82-b555-0d3df33b0aae"},"vehicle_type_id":"4","last_reported":1746249012,"current_range_meters":8400,"station_id":"ce4bhr92rcd13ifvqhsg","pricing_plan_id":"cebpf4jnsgd1na2vs0mg"},{"bike_id":"35c5b7c3-b26a-4306-9706-425b17973549","system_id":"levelo_inurba_marseille","lat":43.31411,"lon":5.36621,"is_reserved":false,"is_disabled":true,"rental_uris":{"android":"levelo://app?vid=35c5b7c3-b26a-4306-9706-425b17973549","ios":"levelo://app?vid=35c5b7c3-b26a-4306-9706-425b17973549"},"vehicle_type_id":"4","last_reported":1746249012,"current_range_meters":8800,"station_id":"ce4bgr92rcd13ifvqc6g","pricing_plan_id":"cebpf4jnsgd1na2vs0mg"},{"bike_id":"97f239eb-08df-4e36-9678-ea949d9f16e1","system_id":"levelo_inurba_marseille","lat":43.28988,"lon":5.39067,"is_reserved":false,"is_disabled":false,"rental_uris":{"android":"levelo://app?vid=97f239eb-08df-4e36-9678-ea949d9f16e1","ios":"levelo://app?vid=97f239eb-08df-4e36-9678-ea949d9f16e1"},"vehicle_type_id":"4","last_reported":1746249012,"current_range_meters":8800,"station_id":"","pricing_plan_id":"cebpf4jnsgd1na2vs0mg"},{"bike_id":"03f8f1a1-348f-43c1-810e-3f5bf3b4a5c6","system_id":"levelo_inurba_marseille","lat":43.24884,"lon":5.39411,"is_reserved":false,"is_disabled":false,"rental_uris":{"android":"levelo://app?vid=03f8f1a1-348f-43c1-810e-3f5bf3b4a5c6","ios":"levelo://app?vid=03f8f1a1-348f-43c1-810e-3f5bf3b4a5c6"},"vehicle_type_id":"4","last_reported":1746249012,"current_range_meters":8800,"station_id":"","pricing_plan_id":"cebpf4jnsgd1na2vs0mg"},{"bike_id":"81a8870f-38f2-41e3-8af3-5c745aec70c7","system_id":"levelo_inurba_marseille","lat":43.23966,"lon":5.36631,"is_reserved":false,"is_disabled":false,"rental_uris":{"android":"levelo://app?vid=81a8870f-38f2-41e3-8af3-5c745aec70c7","ios":"levelo://app?vid=81a8870f-38f2-41e3-8af3-5c745aec70c7"},"vehicle_type_id":"4","last_reported":1746249012,"current_range_meters":8800,"station_id":"ce4bhi12rcd13ifvqfp0","pricing_plan_id":"cebpf4jnsgd1na2vs0mg"},{"bike_id":"8a0058ae-d47a-4696-afcc-53a66a14ba3f","system_id":"levelo_inurba_marseille","lat":43.299101,"lon":5.436658,"is_reserved":false,"is_disabled":false,"rental_uris":{"android":"levelo://app?vid=8a0058ae-d47a-4696-afcc-53a66a14ba3f","ios":"levelo://app?vid=8a0058ae-d47a-4696-afcc-53a66a14ba3f"},"vehicle_type_id":"4","last_reported":1746249012,"current_range_meters":9200,"station_id":"ce4bhpp2rcd13ifvqhfg","pricing_plan_id":"cebpf4jnsgd1na2vs0mg"},{"bike_id":"1bac20cf-d8ec-42b0-b306-748bd95fc366","system_id":"levelo_inurba_marseille","lat":43.274959,"lon":5.424517,"is_reserved":false,"is_disabled":false,"rental_uris":{"android":"levelo://app?vid=1bac20cf-d8ec-42b0-b306-748bd95fc366","ios":"levelo://app?vid=1bac20cf-d8ec-42b0-b306-748bd95fc366"},"vehicle_type_id":"4","last_reported":1746249012,"current_range_meters":9200,"station_id":"ce4bhn92rcd13ifvqgrg","pricing_plan_id":"cebpf4jnsgd1na2vs0mg"},{"bike_id":"dad52aef-1493-44ab-8be8-c1a19ea185db","system_id":"levelo_inurba_marseille","lat":43.26234,"lon":5.40475,"is_reserved":false,"is_disabled":false,"rental_uris":{"android":"levelo://app?vid=dad52aef-1493-44ab-8be8-c1a19ea185db","ios":"levelo://app?vid=dad52aef-1493-44ab-8be8-c1a19ea185db"},"vehicle_type_id":"4","last_reported":1746249012,"current_range_meters":9200,"station_id":"ce4bhmh2rcd13ifvqgmg","pricing_plan_id":"cebpf4jnsgd1na2vs0mg"},{"bike_id":"3370706f-3c60-4448-9fa7-c3c667e2e849","system_id":"levelo_inurba_marseille","lat":43.23529,"lon":5.403318,"is_reserved":false,"is_disabled":false,"rental_uris":{"android":"levelo://app?vid=3370706f-3c60-4448-9fa7-c3c667e2e849","ios":"levelo://app?vid=3370706f-3c60-4448-9fa7-c3c667e2e849"},"vehicle_type_id":"4","last_reported":1746249012,"current_range_meters":9200,"station_id":"","pricing_plan_id":"cebpf4jnsgd1na2vs0mg"},{"bike_id":"f93d853b-ca78-4f88-b96f-c9c1053489aa","system_id":"levelo_inurba_marseille","lat":43.240697,"lon":5.377609,"is_reserved":false,"is_disabled":false,"rental_uris":{"android":"levelo://app?vid=f93d853b-ca78-4f88-b96f-c9c1053489aa","ios":"levelo://app?vid=f93d853b-ca78-4f88-b96f-c9c1053489aa"},"vehicle_type_id":"4","last_reported":1746249012,"current_range_meters":9200,"station_id":"ce4bhnp2rcd13ifvqgvg","pricing_plan_id":"cebpf4jnsgd1na2vs0mg"},{"bike_id":"1b1e0ca0-8468-47c2-ae3b-7afdc5f53a7a","system_id":"levelo_inurba_marseille","lat":43.27935,"lon":5.41077,"is_reserved":false,"is_disabled":false,"rental_uris":{"android":"levelo://app?vid=1b1e0ca0-8468-47c2-ae3b-7afdc5f53a7a","ios":"levelo://app?vid=1b1e0ca0-8468-47c2-ae3b-7afdc5f53a7a"},"vehicle_type_id":"4","last_reported":1746249012,"current_range_meters":9200,"station_id":"ce4bhnp2rcd13ifvqh0g","pricing_plan_id":"cebpf4jnsgd1na2vs0mg"},{"bike_id":"2b65c2db-69cf-4437-b15f-c57ef32ed9c9","system_id":"levelo_inurba_marseille","lat":43.23191,"lon":5.39994,"is_reserved":false,"is_disabled":false,"rental_uris":{"android":"levelo://app?vid=2b65c2db-69cf-4437-b15f-c57ef32ed9c9","ios":"levelo://app?vid=2b65c2db-69cf-4437-b15f-c57ef32ed9c9"},"vehicle_type_id":"4","last_reported":1746249012,"current_range_meters":9200,"station_id":"ce4bhn12rcd13ifvqgqg","pricing_plan_id":"cebpf4jnsgd1na2vs0mg"},{"bike_id":"626ae153-e3c3-4b78-befc-195eae82c81b","system_id":"levelo_inurba_marseille","lat":43.28036,"lon":5.36912,"is_reserved":false,"is_disabled":false,"rental_uris":{"android":"levelo://app?vid=626ae153-e3c3-4b78-befc-195eae82c81b","ios":"levelo://app?vid=626ae153-e3c3-4b78-befc-195eae82c81b"},"vehicle_type_id":"4","last_reported":1746249012,"current_range_meters":9600,"station_id":"ce4bha12rcd13ifvqef0","pricing_plan_id":"cebpf4jnsgd1na2vs0mg"},{"bike_id":"8a98d962-578d-444b-a5bb-91a62b69d98d","system_id":"levelo_inurba_marseille","lat":43.211894,"lon":5.350795,"is_reserved":false,"is_disabled":true,"rental_uris":{"android":"levelo://app?vid=8a98d962-578d-444b-a5bb-91a62b69d98d","ios":"levelo://app?vid=8a98d962-578d-444b-a5bb-91a62b69d98d"},"vehicle_type_id":"4","last_reported":1746249012,"current_range_meters":9600,"station_id":"st_cvj6sg6p6f1abm77japg","pricing_plan_id":"cebpf4jnsgd1na2vs0mg"},{"bike_id":"7719b24a-05b9-48c9-8002-0734452df164","system_id":"levelo_inurba_marseille","lat":43.240671,"lon":5.377603,"is_reserved":false,"is_disabled":false,"rental_uris":{"android":"levelo://app?vid=7719b24a-05b9-48c9-8002-0734452df164","ios":"levelo://app?vid=7719b24a-05b9-48c9-8002-0734452df164"},"vehicle_type_id":"4","last_reported":1746249012,"current_range_meters":9600,"station_id":"ce4bhnp2rcd13ifvqgvg","pricing_plan_id":"cebpf4jnsgd1na2vs0mg"},{"bike_id":"2ec6dd80-93b4-435e-89c9-9ef2c5604b75","system_id":"levelo_inurba_marseille","lat":43.24177,"lon":5.39726,"is_reserved":false,"is_disabled":false,"rental_uris":{"android":"levelo://app?vid=2ec6dd80-93b4-435e-89c9-9ef2c5604b75","ios":"levelo://app?vid=2ec6dd80-93b4-435e-89c9-9ef2c5604b75"},"vehicle_type_id":"4","last_reported":1746249012,"current_range_meters":9600,"station_id":"ce4bhn12rcd13ifvqgpg","pricing_plan_id":"cebpf4jnsgd1na2vs0mg"},{"bike_id":"0a83a242-0e43-4e35-a8a7-5bcc1df8c995","system_id":"levelo_inurba_marseille","lat":43.307586,"lon":5.367181,"is_reserved":false,"is_disabled":true,"rental_uris":{"android":"levelo://app?vid=0a83a242-0e43-4e35-a8a7-5bcc1df8c995","ios":"levelo://app?vid=0a83a242-0e43-4e35-a8a7-5bcc1df8c995"},"vehicle_type_id":"4","last_reported":1746249012,"current_range_meters":9600,"station_id":"","pricing_plan_id":"cebpf4jnsgd1na2vs0mg"},{"bike_id":"6d74a9f5-3f03-4e8e-aa3b-29a84082925f","system_id":"levelo_inurba_marseille","lat":43.229282,"lon":5.353775,"is_reserved":false,"is_disabled":false,"rental_uris":{"android":"levelo://app?vid=6d74a9f5-3f03-4e8e-aa3b-29a84082925f","ios":"levelo://app?vid=6d74a9f5-3f03-4e8e-aa3b-29a84082925f"},"vehicle_type_id":"4","last_reported":1746249012,"current_range_meters":9600,"station_id":"cpo3532slgdg3j2ikp40","pricing_plan_id":"cebpf4jnsgd1na2vs0mg"},{"bike_id":"08541dba-578a-4fc3-a297-bbc14d35b6c7","system_id":"levelo_inurba_marseille","lat":43.26203,"lon":5.37931,"is_reserved":false,"is_disabled":false,"rental_uris":{"android":"levelo://app?vid=08541dba-578a-4fc3-a297-bbc14d35b6c7","ios":"levelo://app?vid=08541dba-578a-4fc3-a297-bbc14d35b6c7"},"vehicle_type_id":"4","last_reported":1746249012,"current_range_meters":9200,"station_id":"ce4bhjp2rcd13ifvqg90","pricing_plan_id":"cebpf4jnsgd1na2vs0mg"},{"bike_id":"4feecaba-9754-404f-bc12-97e81ba0e761","system_id":"levelo_inurba_marseille","lat":43.32122,"lon":5.36804,"is_reserved":false,"is_disabled":false,"rental_uris":{"android":"levelo://app?vid=4feecaba-9754-404f-bc12-97e81ba0e761","ios":"levelo://app?vid=4feecaba-9754-404f-bc12-97e81ba0e761"},"vehicle_type_id":"4","last_reported":1746249012,"current_range_meters":9600,"station_id":"ce4bhrh2rcd13ifvqhug","pricing_plan_id":"cebpf4jnsgd1na2vs0mg"},{"bike_id":"a2b5f75b-8b31-4025-975c-0028449e52cd","system_id":"levelo_inurba_marseille","lat":43.24174,"lon":5.39738,"is_reserved":false,"is_disabled":false,"rental_uris":{"android":"levelo://app?vid=a2b5f75b-8b31-4025-975c-0028449e52cd","ios":"levelo://app?vid=a2b5f75b-8b31-4025-975c-0028449e52cd"},"vehicle_type_id":"4","last_reported":1746249012,"current_range_meters":9600,"station_id":"ce4bhn12rcd13ifvqgpg","pricing_plan_id":"cebpf4jnsgd1na2vs0mg"},{"bike_id":"ad7ca592-f236-4a6d-9431-e31ab8d26c7e","system_id":"levelo_inurba_marseille","lat":43.323596,"lon":5.367601,"is_reserved":false,"is_disabled":false,"rental_uris":{"android":"levelo://app?vid=ad7ca592-f236-4a6d-9431-e31ab8d26c7e","ios":"levelo://app?vid=ad7ca592-f236-4a6d-9431-e31ab8d26c7e"},"vehicle_type_id":"4","last_reported":1746249012,"current_range_meters":9600,"station_id":"ce4bhsh2rcd13ifvqi2g","pricing_plan_id":"cebpf4jnsgd1na2vs0mg"},{"bike_id":"f48f6a8a-46ce-4c79-8fb0-19652a738d42","system_id":"levelo_inurba_marseille","lat":43.36142,"lon":5.44225,"is_reserved":false,"is_disabled":false,"rental_uris":{"android":"levelo://app?vid=f48f6a8a-46ce-4c79-8fb0-19652a738d42","ios":"levelo://app?vid=f48f6a8a-46ce-4c79-8fb0-19652a738d42"},"vehicle_type_id":"4","last_reported":1746249012,"current_range_meters":10000,"station_id":"","pricing_plan_id":"cebpf4jnsgd1na2vs0mg"},{"bike_id":"5636aa3d-90e5-46b8-889b-ca722454f93e","system_id":"levelo_inurba_marseille","lat":43.24106,"lon":5.37815,"is_reserved":false,"is_disabled":false,"rental_uris":{"android":"levelo://app?vid=5636aa3d-90e5-46b8-889b-ca722454f93e","ios":"levelo://app?vid=5636aa3d-90e5-46b8-889b-ca722454f93e"},"vehicle_type_id":"4","last_reported":1746249012,"current_range_meters":10000,"station_id":"ce4bhnp2rcd13ifvqgvg","pricing_plan_id":"cebpf4jnsgd1na2vs0mg"},{"bike_id":"b84901a5-3ddc-4c9b-bfd3-3416195d688f","system_id":"levelo_inurba_marseille","lat":43.30289,"lon":5.40046,"is_reserved":false,"is_disabled":false,"rental_uris":{"android":"levelo://app?vid=b84901a5-3ddc-4c9b-bfd3-3416195d688f","ios":"levelo://app?vid=b84901a5-3ddc-4c9b-bfd3-3416195d688f"},"vehicle_type_id":"4","last_reported":1746249012,"current_range_meters":10000,"station_id":"ce4bgvh2rcd13ifvqcs0","pricing_plan_id":"cebpf4jnsgd1na2vs0mg"},{"bike_id":"b012dda0-636e-4d9d-bb11-2107f4b207ea","system_id":"levelo_inurba_marseille","lat":43.262274,"lon":5.404541,"is_reserved":false,"is_disabled":false,"rental_uris":{"android":"levelo://app?vid=b012dda0-636e-4d9d-bb11-2107f4b207ea","ios":"levelo://app?vid=b012dda0-636e-4d9d-bb11-2107f4b207ea"},"vehicle_type_id":"4","last_reported":1746249012,"current_range_meters":10000,"station_id":"ce4bhmh2rcd13ifvqgmg","pricing_plan_id":"cebpf4jnsgd1na2vs0mg"},{"bike_id":"313f19ff-8c45-4a02-b367-c6a7c2d5e214","system_id":"levelo_inurba_marseille","lat":43.27517,"lon":5.42477,"is_reserved":false,"is_disabled":false,"rental_uris":{"android":"levelo://app?vid=313f19ff-8c45-4a02-b367-c6a7c2d5e214","ios":"levelo://app?vid=313f19ff-8c45-4a02-b367-c6a7c2d5e214"},"vehicle_type_id":"4","last_reported":1746249012,"current_range_meters":10000,"station_id":"ce4bhn92rcd13ifvqgrg","pricing_plan_id":"cebpf4jnsgd1na2vs0mg"},{"bike_id":"fec5c01f-d290-485a-addf-97d1d160f298","system_id":"levelo_inurba_marseille","lat":43.2846,"lon":5.35902,"is_reserved":false,"is_disabled":false,"rental_uris":{"android":"levelo://app?vid=fec5c01f-d290-485a-addf-97d1d160f298","ios":"levelo://app?vid=fec5c01f-d290-485a-addf-97d1d160f298"},"vehicle_type_id":"4","last_reported":1746249012,"current_range_meters":10000,"station_id":"ce4bhah2rcd13ifvqei0","pricing_plan_id":"cebpf4jnsgd1na2vs0mg"},{"bike_id":"e27ce41e-d31e-4411-a762-387f29d91877","system_id":"levelo_inurba_marseille","lat":43.295562,"lon":5.422895,"is_reserved":false,"is_disabled":false,"rental_uris":{"android":"levelo://app?vid=e27ce41e-d31e-4411-a762-387f29d91877","ios":"levelo://app?vid=e27ce41e-d31e-4411-a762-387f29d91877"},"vehicle_type_id":"4","last_reported":1746249012,"current_range_meters":10000,"station_id":"ce4bhph2rcd13ifvqhdg","pricing_plan_id":"cebpf4jnsgd1na2vs0mg"},{"bike_id":"e0e163c0-b70c-478b-a240-966060226969","system_id":"levelo_inurba_marseille","lat":43.29232,"lon":5.3621,"is_reserved":false,"is_disabled":false,"rental_uris":{"android":"levelo://app?vid=e0e163c0-b70c-478b-a240-966060226969","ios":"levelo://app?vid=e0e163c0-b70c-478b-a240-966060226969"},"vehicle_type_id":"4","last_reported":1746249012,"current_range_meters":10000,"station_id":"","pricing_plan_id":"cebpf4jnsgd1na2vs0mg"},{"bike_id":"bc6aa588-55ae-4b58-9657-e59d1d5531f4","system_id":"levelo_inurba_marseille","lat":43.29572,"lon":5.39964,"is_reserved":false,"is_disabled":false,"rental_uris":{"android":"levelo://app?vid=bc6aa588-55ae-4b58-9657-e59d1d5531f4","ios":"levelo://app?vid=bc6aa588-55ae-4b58-9657-e59d1d5531f4"},"vehicle_type_id":"4","last_reported":1746249012,"current_range_meters":10000,"station_id":"ce4bh312rcd13ifvqdj0","pricing_plan_id":"cebpf4jnsgd1na2vs0mg"},{"bike_id":"2cce8745-f47d-491d-9776-93cf9f036027","system_id":"levelo_inurba_marseille","lat":43.308204,"lon":5.43519,"is_reserved":false,"is_disabled":false,"rental_uris":{"android":"levelo://app?vid=2cce8745-f47d-491d-9776-93cf9f036027","ios":"levelo://app?vid=2cce8745-f47d-491d-9776-93cf9f036027"},"vehicle_type_id":"4","last_reported":1746249012,"current_range_meters":10000,"station_id":"ce4bhph2rcd13ifvqheg","pricing_plan_id":"cebpf4jnsgd1na2vs0mg"},{"bike_id":"f28a6a99-f960-44e5-8dd2-042ad6e229e6","system_id":"levelo_inurba_marseille","lat":43.27818,"lon":5.42755,"is_reserved":false,"is_disabled":false,"rental_uris":{"android":"levelo://app?vid=f28a6a99-f960-44e5-8dd2-042ad6e229e6","ios":"levelo://app?vid=f28a6a99-f960-44e5-8dd2-042ad6e229e6"},"vehicle_type_id":"4","last_reported":1746249012,"current_range_meters":10800,"station_id":"","pricing_plan_id":"cebpf4jnsgd1na2vs0mg"},{"bike_id":"b860950e-8dd9-43ac-ab45-42b462c5ee31","system_id":"levelo_inurba_marseille","lat":43.24685,"lon":5.3819,"is_reserved":false,"is_disabled":false,"rental_uris":{"android":"levelo://app?vid=b860950e-8dd9-43ac-ab45-42b462c5ee31","ios":"levelo://app?vid=b860950e-8dd9-43ac-ab45-42b462c5ee31"},"vehicle_type_id":"4","last_reported":1746249012,"current_range_meters":10800,"station_id":"ce4bhih2rcd13ifvqfr0","pricing_plan_id":"cebpf4jnsgd1na2vs0mg"},{"bike_id":"d24e36e0-e0aa-458e-9dc1-1d3e91441d9d","system_id":"levelo_inurba_marseille","lat":43.29011,"lon":5.3863,"is_reserved":false,"is_disabled":true,"rental_uris":{"android":"levelo://app?vid=d24e36e0-e0aa-458e-9dc1-1d3e91441d9d","ios":"levelo://app?vid=d24e36e0-e0aa-458e-9dc1-1d3e91441d9d"},"vehicle_type_id":"4","last_reported":1746249012,"current_range_meters":10800,"station_id":"ce4bh4p2rcd13ifvqe0g","pricing_plan_id":"cebpf4jnsgd1na2vs0mg"},{"bike_id":"6bcfafe9-e0dc-4830-a2ef-8fbcb15314a2","system_id":"levelo_inurba_marseille","lat":43.29561,"lon":5.422869,"is_reserved":false,"is_disabled":false,"rental_uris":{"android":"levelo://app?vid=6bcfafe9-e0dc-4830-a2ef-8fbcb15314a2","ios":"levelo://app?vid=6bcfafe9-e0dc-4830-a2ef-8fbcb15314a2"},"vehicle_type_id":"4","last_reported":1746249012,"current_range_meters":10800,"station_id":"ce4bhph2rcd13ifvqhdg","pricing_plan_id":"cebpf4jnsgd1na2vs0mg"},{"bike_id":"728d7dda-2d6d-48b3-9412-ac85708f1dff","system_id":"levelo_inurba_marseille","lat":43.32489,"lon":5.36575,"is_reserved":false,"is_disabled":false,"rental_uris":{"android":"levelo://app?vid=728d7dda-2d6d-48b3-9412-ac85708f1dff","ios":"levelo://app?vid=728d7dda-2d6d-48b3-9412-ac85708f1dff"},"vehicle_type_id":"4","last_reported":1746249012,"current_range_meters":10800,"station_id":"ce4bhs12rcd13ifvqhvg","pricing_plan_id":"cebpf4jnsgd1na2vs0mg"},{"bike_id":"570b486c-50df-4f1f-97df-caa86c0d419e","system_id":"levelo_inurba_marseille","lat":43.33732,"lon":5.3559,"is_reserved":false,"is_disabled":false,"rental_uris":{"android":"levelo://app?vid=570b486c-50df-4f1f-97df-caa86c0d419e","ios":"levelo://app?vid=570b486c-50df-4f1f-97df-caa86c0d419e"},"vehicle_type_id":"4","last_reported":1746249012,"current_range_meters":10800,"station_id":"","pricing_plan_id":"cebpf4jnsgd1na2vs0mg"},{"bike_id":"9adfac2a-491e-4112-b03c-2c448baa3a91","system_id":"levelo_inurba_marseille","lat":43.26032,"lon":5.37551,"is_reserved":false,"is_disabled":true,"rental_uris":{"android":"levelo://app?vid=9adfac2a-491e-4112-b03c-2c448baa3a91","ios":"levelo://app?vid=9adfac2a-491e-4112-b03c-2c448baa3a91"},"vehicle_type_id":"4","last_reported":1746249012,"current_range_meters":10800,"station_id":"ce4bhgh2rcd13ifvqfa0","pricing_plan_id":"cebpf4jnsgd1na2vs0mg"},{"bike_id":"729474db-b1a6-49f6-92a9-96aa12d3364c","system_id":"levelo_inurba_marseille","lat":43.2841,"lon":5.3752,"is_reserved":false,"is_disabled":false,"rental_uris":{"android":"levelo://app?vid=729474db-b1a6-49f6-92a9-96aa12d3364c","ios":"levelo://app?vid=729474db-b1a6-49f6-92a9-96aa12d3364c"},"vehicle_type_id":"4","last_reported":1746249012,"current_range_meters":11200,"station_id":"ce4bh412rcd13ifvqds0","pricing_plan_id":"cebpf4jnsgd1na2vs0mg"},{"bike_id":"371b7534-0d9b-4ab0-8f09-4f4cf8973b82","system_id":"levelo_inurba_marseille","lat":43.25106,"lon":5.40325,"is_reserved":false,"is_disabled":false,"rental_uris":{"android":"levelo://app?vid=371b7534-0d9b-4ab0-8f09-4f4cf8973b82","ios":"levelo://app?vid=371b7534-0d9b-4ab0-8f09-4f4cf8973b82"},"vehicle_type_id":"4","last_reported":1746249012,"current_range_meters":11200,"station_id":"ce4bhlh2rcd13ifvqgig","pricing_plan_id":"cebpf4jnsgd1na2vs0mg"},{"bike_id":"b7b819c6-ae62-4e8a-a410-3625e179a9e7","system_id":"levelo_inurba_marseille","lat":43.290319,"lon":5.39948,"is_reserved":false,"is_disabled":false,"rental_uris":{"android":"levelo://app?vid=b7b819c6-ae62-4e8a-a410-3625e179a9e7","ios":"levelo://app?vid=b7b819c6-ae62-4e8a-a410-3625e179a9e7"},"vehicle_type_id":"4","last_reported":1746249012,"current_range_meters":11200,"station_id":"ce4bh392rcd13ifvqdm0","pricing_plan_id":"cebpf4jnsgd1na2vs0mg"},{"bike_id":"3b0a960d-665d-4400-9bee-99f09678c181","system_id":"levelo_inurba_marseille","lat":43.29227,"lon":5.40121,"is_reserved":false,"is_disabled":false,"rental_uris":{"android":"levelo://app?vid=3b0a960d-665d-4400-9bee-99f09678c181","ios":"levelo://app?vid=3b0a960d-665d-4400-9bee-99f09678c181"},"vehicle_type_id":"4","last_reported":1746249012,"current_range_meters":11200,"station_id":"","pricing_plan_id":"cebpf4jnsgd1na2vs0mg"},{"bike_id":"fd2c3c67-23a6-4380-b7ca-8f23c8f78921","system_id":"levelo_inurba_marseille","lat":43.32357,"lon":5.36746,"is_reserved":false,"is_disabled":false,"rental_uris":{"android":"levelo://app?vid=fd2c3c67-23a6-4380-b7ca-8f23c8f78921","ios":"levelo://app?vid=fd2c3c67-23a6-4380-b7ca-8f23c8f78921"},"vehicle_type_id":"4","last_reported":1746249012,"current_range_meters":11200,"station_id":"ce4bhsh2rcd13ifvqi2g","pricing_plan_id":"cebpf4jnsgd1na2vs0mg"},{"bike_id":"dfb3396e-96f5-457c-af11-f6f27dad33e9","system_id":"levelo_inurba_marseille","lat":43.272035,"lon":5.364756,"is_reserved":false,"is_disabled":false,"rental_uris":{"android":"levelo://app?vid=dfb3396e-96f5-457c-af11-f6f27dad33e9","ios":"levelo://app?vid=dfb3396e-96f5-457c-af11-f6f27dad33e9"},"vehicle_type_id":"4","last_reported":1746249012,"current_range_meters":11600,"station_id":"","pricing_plan_id":"cebpf4jnsgd1na2vs0mg"},{"bike_id":"f1ffd2b9-91e9-4bf5-a319-6e95940b0de6","system_id":"levelo_inurba_marseille","lat":43.29569,"lon":5.42345,"is_reserved":false,"is_disabled":false,"rental_uris":{"android":"levelo://app?vid=f1ffd2b9-91e9-4bf5-a319-6e95940b0de6","ios":"levelo://app?vid=f1ffd2b9-91e9-4bf5-a319-6e95940b0de6"},"vehicle_type_id":"4","last_reported":1746249012,"current_range_meters":11600,"station_id":"ce4bhph2rcd13ifvqhdg","pricing_plan_id":"cebpf4jnsgd1na2vs0mg"},{"bike_id":"8105ea61-1930-4b48-827f-ed01cb559bea","system_id":"levelo_inurba_marseille","lat":43.246639,"lon":5.381618,"is_reserved":false,"is_disabled":false,"rental_uris":{"android":"levelo://app?vid=8105ea61-1930-4b48-827f-ed01cb559bea","ios":"levelo://app?vid=8105ea61-1930-4b48-827f-ed01cb559bea"},"vehicle_type_id":"4","last_reported":1746249012,"current_range_meters":11600,"station_id":"ce4bhih2rcd13ifvqfr0","pricing_plan_id":"cebpf4jnsgd1na2vs0mg"},{"bike_id":"fa134cb6-b345-4226-8e0d-33916763269e","system_id":"levelo_inurba_marseille","lat":43.32253,"lon":5.38315,"is_reserved":false,"is_disabled":false,"rental_uris":{"android":"levelo://app?vid=fa134cb6-b345-4226-8e0d-33916763269e","ios":"levelo://app?vid=fa134cb6-b345-4226-8e0d-33916763269e"},"vehicle_type_id":"4","last_reported":1746249012,"current_range_meters":11600,"station_id":"ce4bhr12rcd13ifvqhqg","pricing_plan_id":"cebpf4jnsgd1na2vs0mg"},{"bike_id":"2fc7066a-3168-4b00-a4fc-ece640118f70","system_id":"levelo_inurba_marseille","lat":43.28414,"lon":5.3753,"is_reserved":false,"is_disabled":false,"rental_uris":{"android":"levelo://app?vid=2fc7066a-3168-4b00-a4fc-ece640118f70","ios":"levelo://app?vid=2fc7066a-3168-4b00-a4fc-ece640118f70"},"vehicle_type_id":"4","last_reported":1746249012,"current_range_meters":11600,"station_id":"ce4bh412rcd13ifvqds0","pricing_plan_id":"cebpf4jnsgd1na2vs0mg"},{"bike_id":"2c9391fc-1f3c-4f21-902a-d06184a65186","system_id":"levelo_inurba_marseille","lat":43.30922,"lon":5.40163,"is_reserved":false,"is_disabled":false,"rental_uris":{"android":"levelo://app?vid=2c9391fc-1f3c-4f21-902a-d06184a65186","ios":"levelo://app?vid=2c9391fc-1f3c-4f21-902a-d06184a65186"},"vehicle_type_id":"4","last_reported":1746249012,"current_range_meters":11600,"station_id":"ce4bgvp2rcd13ifvqct0","pricing_plan_id":"cebpf4jnsgd1na2vs0mg"},{"bike_id":"29472bec-ba23-4c0a-ab22-6f21c322113f","system_id":"levelo_inurba_marseille","lat":43.2319,"lon":5.39993,"is_reserved":false,"is_disabled":false,"rental_uris":{"android":"levelo://app?vid=29472bec-ba23-4c0a-ab22-6f21c322113f","ios":"levelo://app?vid=29472bec-ba23-4c0a-ab22-6f21c322113f"},"vehicle_type_id":"4","last_reported":1746249012,"current_range_meters":12000,"station_id":"ce4bhn12rcd13ifvqgqg","pricing_plan_id":"cebpf4jnsgd1na2vs0mg"},{"bike_id":"90fe6b2c-98b3-4084-9346-072b9cd32382","system_id":"levelo_inurba_marseille","lat":43.292507,"lon":5.409096,"is_reserved":false,"is_disabled":false,"rental_uris":{"android":"levelo://app?vid=90fe6b2c-98b3-4084-9346-072b9cd32382","ios":"levelo://app?vid=90fe6b2c-98b3-4084-9346-072b9cd32382"},"vehicle_type_id":"4","last_reported":1746249012,"current_range_meters":12000,"station_id":"ce4bh192rcd13ifvqdc0","pricing_plan_id":"cebpf4jnsgd1na2vs0mg"},{"bike_id":"f4215d2d-8cbc-42de-a4a1-5312ee7d2a19","system_id":"levelo_inurba_marseille","lat":43.240678,"lon":5.377623,"is_reserved":false,"is_disabled":false,"rental_uris":{"android":"levelo://app?vid=f4215d2d-8cbc-42de-a4a1-5312ee7d2a19","ios":"levelo://app?vid=f4215d2d-8cbc-42de-a4a1-5312ee7d2a19"},"vehicle_type_id":"4","last_reported":1746249012,"current_range_meters":12400,"station_id":"ce4bhnp2rcd13ifvqgvg","pricing_plan_id":"cebpf4jnsgd1na2vs0mg"},{"bike_id":"6c0e5220-ee62-4032-884d-af4df430249c","system_id":"levelo_inurba_marseille","lat":43.32128,"lon":5.36787,"is_reserved":false,"is_disabled":false,"rental_uris":{"android":"levelo://app?vid=6c0e5220-ee62-4032-884d-af4df430249c","ios":"levelo://app?vid=6c0e5220-ee62-4032-884d-af4df430249c"},"vehicle_type_id":"4","last_reported":1746249012,"current_range_meters":12400,"station_id":"ce4bhrh2rcd13ifvqhug","pricing_plan_id":"cebpf4jnsgd1na2vs0mg"},{"bike_id":"36a9b9c7-54b7-45b0-81a5-b00d50ed8e1f","system_id":"levelo_inurba_marseille","lat":43.308011,"lon":5.381464,"is_reserved":false,"is_disabled":false,"rental_uris":{"android":"levelo://app?vid=36a9b9c7-54b7-45b0-81a5-b00d50ed8e1f","ios":"levelo://app?vid=36a9b9c7-54b7-45b0-81a5-b00d50ed8e1f"},"vehicle_type_id":"4","last_reported":1746249012,"current_range_meters":12400,"station_id":"ce4bgt12rcd13ifvqce0","pricing_plan_id":"cebpf4jnsgd1na2vs0mg"},{"bike_id":"7f61934c-9cb9-4176-a54d-8a502361a16e","system_id":"levelo_inurba_marseille","lat":43.303214,"lon":5.404374,"is_reserved":false,"is_disabled":false,"rental_uris":{"android":"levelo://app?vid=7f61934c-9cb9-4176-a54d-8a502361a16e","ios":"levelo://app?vid=7f61934c-9cb9-4176-a54d-8a502361a16e"},"vehicle_type_id":"4","last_reported":1746249012,"current_range_meters":12400,"station_id":"ce4bh012rcd13ifvqd10","pricing_plan_id":"cebpf4jnsgd1na2vs0mg"},{"bike_id":"b2a1b543-f7ca-40fa-82e3-61a14489c133","system_id":"levelo_inurba_marseille","lat":43.30804,"lon":5.38152,"is_reserved":false,"is_disabled":false,"rental_uris":{"android":"levelo://app?vid=b2a1b543-f7ca-40fa-82e3-61a14489c133","ios":"levelo://app?vid=b2a1b543-f7ca-40fa-82e3-61a14489c133"},"vehicle_type_id":"4","last_reported":1746249012,"current_range_meters":12400,"station_id":"ce4bgt12rcd13ifvqce0","pricing_plan_id":"cebpf4jnsgd1na2vs0mg"},{"bike_id":"0c3fbeaa-55ff-4c7c-a66c-46f4ecc86aeb","system_id":"levelo_inurba_marseille","lat":43.212058,"lon":5.350823,"is_reserved":false,"is_disabled":true,"rental_uris":{"android":"levelo://app?vid=0c3fbeaa-55ff-4c7c-a66c-46f4ecc86aeb","ios":"levelo://app?vid=0c3fbeaa-55ff-4c7c-a66c-46f4ecc86aeb"},"vehicle_type_id":"4","last_reported":1746249012,"current_range_meters":12400,"station_id":"st_cvj6sg6p6f1abm77japg","pricing_plan_id":"cebpf4jnsgd1na2vs0mg"},{"bike_id":"40dc78fe-7bfb-425d-a044-df3cd1c8f08d","system_id":"levelo_inurba_marseille","lat":43.28361,"lon":5.38107,"is_reserved":false,"is_disabled":false,"rental_uris":{"android":"levelo://app?vid=40dc78fe-7bfb-425d-a044-df3cd1c8f08d","ios":"levelo://app?vid=40dc78fe-7bfb-425d-a044-df3cd1c8f08d"},"vehicle_type_id":"4","last_reported":1746249012,"current_range_meters":12800,"station_id":"ce4bh412rcd13ifvqdr0","pricing_plan_id":"cebpf4jnsgd1na2vs0mg"},{"bike_id":"24060a52-f452-4192-8231-c8227d95c3c1","system_id":"levelo_inurba_marseille","lat":43.308783,"lon":5.39649,"is_reserved":false,"is_disabled":false,"rental_uris":{"android":"levelo://app?vid=24060a52-f452-4192-8231-c8227d95c3c1","ios":"levelo://app?vid=24060a52-f452-4192-8231-c8227d95c3c1"},"vehicle_type_id":"4","last_reported":1746249012,"current_range_meters":12800,"station_id":"ce4bh012rcd13ifvqcv0","pricing_plan_id":"cebpf4jnsgd1na2vs0mg"},{"bike_id":"c401fff3-9103-4b0f-8989-5a8f04a7e207","system_id":"levelo_inurba_marseille","lat":43.31747,"lon":5.39023,"is_reserved":false,"is_disabled":false,"rental_uris":{"android":"levelo://app?vid=c401fff3-9103-4b0f-8989-5a8f04a7e207","ios":"levelo://app?vid=c401fff3-9103-4b0f-8989-5a8f04a7e207"},"vehicle_type_id":"4","last_reported":1746249012,"current_range_meters":12800,"station_id":"ce4bhqp2rcd13ifvqhng","pricing_plan_id":"cebpf4jnsgd1na2vs0mg"},{"bike_id":"8103e5ba-0c41-4b32-abe9-4920a4f338ee","system_id":"levelo_inurba_marseille","lat":43.31469,"lon":5.37303,"is_reserved":false,"is_disabled":false,"rental_uris":{"android":"levelo://app?vid=8103e5ba-0c41-4b32-abe9-4920a4f338ee","ios":"levelo://app?vid=8103e5ba-0c41-4b32-abe9-4920a4f338ee"},"vehicle_type_id":"4","last_reported":1746249012,"current_range_meters":12800,"station_id":"ce4bgt12rcd13ifvqcd0","pricing_plan_id":"cebpf4jnsgd1na2vs0mg"},{"bike_id":"50e5c26a-5146-470c-9de9-86238c4e014f","system_id":"levelo_inurba_marseille","lat":43.311586,"lon":5.387194,"is_reserved":false,"is_disabled":false,"rental_uris":{"android":"levelo://app?vid=50e5c26a-5146-470c-9de9-86238c4e014f","ios":"levelo://app?vid=50e5c26a-5146-470c-9de9-86238c4e014f"},"vehicle_type_id":"4","last_reported":1746249012,"current_range_meters":13600,"station_id":"ce4bgv12rcd13ifvqcp0","pricing_plan_id":"cebpf4jnsgd1na2vs0mg"},{"bike_id":"621930ed-0360-41f8-8e7e-9896edb6537e","system_id":"levelo_inurba_marseille","lat":43.28733,"lon":5.36124,"is_reserved":false,"is_disabled":false,"rental_uris":{"android":"levelo://app?vid=621930ed-0360-41f8-8e7e-9896edb6537e","ios":"levelo://app?vid=621930ed-0360-41f8-8e7e-9896edb6537e"},"vehicle_type_id":"4","last_reported":1746249012,"current_range_meters":13600,"station_id":"cki0cbj6b192h4jlfktg","pricing_plan_id":"cebpf4jnsgd1na2vs0mg"},{"bike_id":"9faa2555-bb1a-42b4-8bf8-904da7025132","system_id":"levelo_inurba_marseille","lat":43.307868,"lon":5.381622,"is_reserved":false,"is_disabled":false,"rental_uris":{"android":"levelo://app?vid=9faa2555-bb1a-42b4-8bf8-904da7025132","ios":"levelo://app?vid=9faa2555-bb1a-42b4-8bf8-904da7025132"},"vehicle_type_id":"4","last_reported":1746249012,"current_range_meters":14000,"station_id":"ce4bgt12rcd13ifvqce0","pricing_plan_id":"cebpf4jnsgd1na2vs0mg"},{"bike_id":"bfdb6247-f47d-4f2c-8e70-264fe5da42e6","system_id":"levelo_inurba_marseille","lat":43.287111,"lon":5.374095,"is_reserved":false,"is_disabled":false,"rental_uris":{"android":"levelo://app?vid=bfdb6247-f47d-4f2c-8e70-264fe5da42e6","ios":"levelo://app?vid=bfdb6247-f47d-4f2c-8e70-264fe5da42e6"},"vehicle_type_id":"4","last_reported":1746249012,"current_range_meters":14000,"station_id":"ce4bh3p2rcd13ifvqdq0","pricing_plan_id":"cebpf4jnsgd1na2vs0mg"},{"bike_id":"37e52987-a8fb-4155-9bf3-e38ed22dec6b","system_id":"levelo_inurba_marseille","lat":43.29612,"lon":5.38097,"is_reserved":false,"is_disabled":true,"rental_uris":{"android":"levelo://app?vid=37e52987-a8fb-4155-9bf3-e38ed22dec6b","ios":"levelo://app?vid=37e52987-a8fb-4155-9bf3-e38ed22dec6b"},"vehicle_type_id":"4","last_reported":1746249012,"current_range_meters":14000,"station_id":"ce4bgl12rcd13ifvqbo0","pricing_plan_id":"cebpf4jnsgd1na2vs0mg"},{"bike_id":"fd58e503-e704-4409-aca1-770e633f9b32","system_id":"levelo_inurba_marseille","lat":43.28464,"lon":5.35895,"is_reserved":false,"is_disabled":false,"rental_uris":{"android":"levelo://app?vid=fd58e503-e704-4409-aca1-770e633f9b32","ios":"levelo://app?vid=fd58e503-e704-4409-aca1-770e633f9b32"},"vehicle_type_id":"4","last_reported":1746249012,"current_range_meters":14000,"station_id":"ce4bhah2rcd13ifvqei0","pricing_plan_id":"cebpf4jnsgd1na2vs0mg"},{"bike_id":"715d4ccd-4d07-4967-8be3-b199930f65b6","system_id":"levelo_inurba_marseille","lat":43.31069,"lon":5.4011,"is_reserved":false,"is_disabled":false,"rental_uris":{"android":"levelo://app?vid=715d4ccd-4d07-4967-8be3-b199930f65b6","ios":"levelo://app?vid=715d4ccd-4d07-4967-8be3-b199930f65b6"},"vehicle_type_id":"4","last_reported":1746249012,"current_range_meters":14000,"station_id":"","pricing_plan_id":"cebpf4jnsgd1na2vs0mg"},{"bike_id":"4ae02176-31a4-48f7-825f-a587fefa23c2","system_id":"levelo_inurba_marseille","lat":43.30173,"lon":5.3661,"is_reserved":false,"is_disabled":true,"rental_uris":{"android":"levelo://app?vid=4ae02176-31a4-48f7-825f-a587fefa23c2","ios":"levelo://app?vid=4ae02176-31a4-48f7-825f-a587fefa23c2"},"vehicle_type_id":"4","last_reported":1746249012,"current_range_meters":14400,"station_id":"ce4bgrh2rcd13ifvqc8g","pricing_plan_id":"cebpf4jnsgd1na2vs0mg"},{"bike_id":"c3856106-206a-4f39-adcf-8916ef5dd857","system_id":"levelo_inurba_marseille","lat":43.31063,"lon":5.38366,"is_reserved":false,"is_disabled":false,"rental_uris":{"android":"levelo://app?vid=c3856106-206a-4f39-adcf-8916ef5dd857","ios":"levelo://app?vid=c3856106-206a-4f39-adcf-8916ef5dd857"},"vehicle_type_id":"4","last_reported":1746249012,"current_range_meters":14400,"station_id":"ce4bgv92rcd13ifvqcr0","pricing_plan_id":"cebpf4jnsgd1na2vs0mg"},{"bike_id":"944f71e1-5595-4798-833c-c7ebd783dc75","system_id":"levelo_inurba_marseille","lat":43.308873,"lon":5.396258,"is_reserved":false,"is_disabled":false,"rental_uris":{"android":"levelo://app?vid=944f71e1-5595-4798-833c-c7ebd783dc75","ios":"levelo://app?vid=944f71e1-5595-4798-833c-c7ebd783dc75"},"vehicle_type_id":"4","last_reported":1746249012,"current_range_meters":14800,"station_id":"ce4bh012rcd13ifvqcv0","pricing_plan_id":"cebpf4jnsgd1na2vs0mg"},{"bike_id":"ff79280e-1855-4d0a-9416-0d33a2ce1c48","system_id":"levelo_inurba_marseille","lat":43.21229,"lon":5.35103,"is_reserved":false,"is_disabled":true,"rental_uris":{"android":"levelo://app?vid=ff79280e-1855-4d0a-9416-0d33a2ce1c48","ios":"levelo://app?vid=ff79280e-1855-4d0a-9416-0d33a2ce1c48"},"vehicle_type_id":"4","last_reported":1746249012,"current_range_meters":14800,"station_id":"","pricing_plan_id":"cebpf4jnsgd1na2vs0mg"},{"bike_id":"4570aeae-1bcc-49f7-accb-37cc53ae6fc1","system_id":"levelo_inurba_marseille","lat":43.285676,"lon":5.394985,"is_reserved":false,"is_disabled":false,"rental_uris":{"android":"levelo://app?vid=4570aeae-1bcc-49f7-accb-37cc53ae6fc1","ios":"levelo://app?vid=4570aeae-1bcc-49f7-accb-37cc53ae6fc1"},"vehicle_type_id":"4","last_reported":1746249012,"current_range_meters":14800,"station_id":"ce4bh292rcd13ifvqdg0","pricing_plan_id":"cebpf4jnsgd1na2vs0mg"},{"bike_id":"8e33ebb8-2f43-4b42-856b-65f59b075019","system_id":"levelo_inurba_marseille","lat":43.290948,"lon":5.381336,"is_reserved":false,"is_disabled":false,"rental_uris":{"android":"levelo://app?vid=8e33ebb8-2f43-4b42-856b-65f59b075019","ios":"levelo://app?vid=8e33ebb8-2f43-4b42-856b-65f59b075019"},"vehicle_type_id":"4","last_reported":1746249012,"current_range_meters":14800,"station_id":"ce4bh512rcd13ifvqe2g","pricing_plan_id":"cebpf4jnsgd1na2vs0mg"},{"bike_id":"b06d9155-0e15-41b9-8f2a-e8f7c4b2bdbb","system_id":"levelo_inurba_marseille","lat":43.25136,"lon":5.40337,"is_reserved":false,"is_disabled":false,"rental_uris":{"android":"levelo://app?vid=b06d9155-0e15-41b9-8f2a-e8f7c4b2bdbb","ios":"levelo://app?vid=b06d9155-0e15-41b9-8f2a-e8f7c4b2bdbb"},"vehicle_type_id":"4","last_reported":1746249012,"current_range_meters":14800,"station_id":"ce4bhlh2rcd13ifvqgig","pricing_plan_id":"cebpf4jnsgd1na2vs0mg"},{"bike_id":"5426b15c-d0d1-4b42-8d42-b676224fcebe","system_id":"levelo_inurba_marseille","lat":43.287221,"lon":5.360869,"is_reserved":false,"is_disabled":false,"rental_uris":{"android":"levelo://app?vid=5426b15c-d0d1-4b42-8d42-b676224fcebe","ios":"levelo://app?vid=5426b15c-d0d1-4b42-8d42-b676224fcebe"},"vehicle_type_id":"4","last_reported":1746249012,"current_range_meters":15200,"station_id":"cki0cbj6b192h4jlfktg","pricing_plan_id":"cebpf4jnsgd1na2vs0mg"},{"bike_id":"a6ceb1bb-4bc7-4d7c-8027-f3b0af77f511","system_id":"levelo_inurba_marseille","lat":43.30926,"lon":5.40155,"is_reserved":false,"is_disabled":false,"rental_uris":{"android":"levelo://app?vid=a6ceb1bb-4bc7-4d7c-8027-f3b0af77f511","ios":"levelo://app?vid=a6ceb1bb-4bc7-4d7c-8027-f3b0af77f511"},"vehicle_type_id":"4","last_reported":1746249012,"current_range_meters":15200,"station_id":"ce4bgvp2rcd13ifvqct0","pricing_plan_id":"cebpf4jnsgd1na2vs0mg"},{"bike_id":"74e82b4c-73e1-4cc5-8435-515ff14956ce","system_id":"levelo_inurba_marseille","lat":43.24678,"lon":5.38152,"is_reserved":false,"is_disabled":false,"rental_uris":{"android":"levelo://app?vid=74e82b4c-73e1-4cc5-8435-515ff14956ce","ios":"levelo://app?vid=74e82b4c-73e1-4cc5-8435-515ff14956ce"},"vehicle_type_id":"4","last_reported":1746249012,"current_range_meters":15200,"station_id":"ce4bhih2rcd13ifvqfr0","pricing_plan_id":"cebpf4jnsgd1na2vs0mg"},{"bike_id":"f662eeb9-5790-4a0f-8a51-4110fcbd7f33","system_id":"levelo_inurba_marseille","lat":43.29273,"lon":5.37615,"is_reserved":false,"is_disabled":false,"rental_uris":{"android":"levelo://app?vid=f662eeb9-5790-4a0f-8a51-4110fcbd7f33","ios":"levelo://app?vid=f662eeb9-5790-4a0f-8a51-4110fcbd7f33"},"vehicle_type_id":"4","last_reported":1746249012,"current_range_meters":15200,"station_id":"ce4bgi12rcd13ifvqb80","pricing_plan_id":"cebpf4jnsgd1na2vs0mg"},{"bike_id":"3fa05eab-bd38-4e51-9d14-fab3387355a7","system_id":"levelo_inurba_marseille","lat":43.322824,"lon":5.382803,"is_reserved":false,"is_disabled":false,"rental_uris":{"android":"levelo://app?vid=3fa05eab-bd38-4e51-9d14-fab3387355a7","ios":"levelo://app?vid=3fa05eab-bd38-4e51-9d14-fab3387355a7"},"vehicle_type_id":"4","last_reported":1746249012,"current_range_meters":15200,"station_id":"ce4bhr12rcd13ifvqhqg","pricing_plan_id":"cebpf4jnsgd1na2vs0mg"},{"bike_id":"7207ec0b-6e32-451c-ba92-56bf28a3e86e","system_id":"levelo_inurba_marseille","lat":43.29044,"lon":5.39971,"is_reserved":false,"is_disabled":false,"rental_uris":{"android":"levelo://app?vid=7207ec0b-6e32-451c-ba92-56bf28a3e86e","ios":"levelo://app?vid=7207ec0b-6e32-451c-ba92-56bf28a3e86e"},"vehicle_type_id":"4","last_reported":1746249012,"current_range_meters":15200,"station_id":"ce4bh392rcd13ifvqdm0","pricing_plan_id":"cebpf4jnsgd1na2vs0mg"},{"bike_id":"79dc9683-b42d-4990-a9a3-c0bcacc25768","system_id":"levelo_inurba_marseille","lat":43.286639,"lon":5.363477,"is_reserved":false,"is_disabled":false,"rental_uris":{"android":"levelo://app?vid=79dc9683-b42d-4990-a9a3-c0bcacc25768","ios":"levelo://app?vid=79dc9683-b42d-4990-a9a3-c0bcacc25768"},"vehicle_type_id":"4","last_reported":1746249012,"current_range_meters":16000,"station_id":"ce4bhah2rcd13ifvqej0","pricing_plan_id":"cebpf4jnsgd1na2vs0mg"},{"bike_id":"fb80c1da-d845-467b-9c3b-2f591f4d56ae","system_id":"levelo_inurba_marseille","lat":43.323406,"lon":5.37422,"is_reserved":false,"is_disabled":false,"rental_uris":{"android":"levelo://app?vid=fb80c1da-d845-467b-9c3b-2f591f4d56ae","ios":"levelo://app?vid=fb80c1da-d845-467b-9c3b-2f591f4d56ae"},"vehicle_type_id":"4","last_reported":1746249012,"current_range_meters":16000,"station_id":"","pricing_plan_id":"cebpf4jnsgd1na2vs0mg"},{"bike_id":"aedf206f-89f3-4f30-9da6-56fb7ff8915b","system_id":"levelo_inurba_marseille","lat":43.280964,"lon":5.403949,"is_reserved":false,"is_disabled":false,"rental_uris":{"android":"levelo://app?vid=aedf206f-89f3-4f30-9da6-56fb7ff8915b","ios":"levelo://app?vid=aedf206f-89f3-4f30-9da6-56fb7ff8915b"},"vehicle_type_id":"4","last_reported":1746249012,"current_range_meters":16000,"station_id":"","pricing_plan_id":"cebpf4jnsgd1na2vs0mg"},{"bike_id":"3417d017-0699-4e0b-add2-d59e728394ac","system_id":"levelo_inurba_marseille","lat":43.29039,"lon":5.39971,"is_reserved":false,"is_disabled":false,"rental_uris":{"android":"levelo://app?vid=3417d017-0699-4e0b-add2-d59e728394ac","ios":"levelo://app?vid=3417d017-0699-4e0b-add2-d59e728394ac"},"vehicle_type_id":"4","last_reported":1746249012,"current_range_meters":16000,"station_id":"ce4bh392rcd13ifvqdm0","pricing_plan_id":"cebpf4jnsgd1na2vs0mg"},{"bike_id":"701e5227-22ae-4915-aea9-f5edaf97a446","system_id":"levelo_inurba_marseille","lat":43.31756,"lon":5.39016,"is_reserved":false,"is_disabled":false,"rental_uris":{"android":"levelo://app?vid=701e5227-22ae-4915-aea9-f5edaf97a446","ios":"levelo://app?vid=701e5227-22ae-4915-aea9-f5edaf97a446"},"vehicle_type_id":"4","last_reported":1746249012,"current_range_meters":16000,"station_id":"ce4bhqp2rcd13ifvqhng","pricing_plan_id":"cebpf4jnsgd1na2vs0mg"},{"bike_id":"52994680-dd2e-446e-af14-5c59208a4d0f","system_id":"levelo_inurba_marseille","lat":43.29965,"lon":5.385046,"is_reserved":false,"is_disabled":true,"rental_uris":{"android":"levelo://app?vid=52994680-dd2e-446e-af14-5c59208a4d0f","ios":"levelo://app?vid=52994680-dd2e-446e-af14-5c59208a4d0f"},"vehicle_type_id":"4","last_reported":1746249012,"current_range_meters":16400,"station_id":"ce4bgj92rcd13ifvqbd0","pricing_plan_id":"cebpf4jnsgd1na2vs0mg"},{"bike_id":"2872d3c1-4ba6-4718-a22b-82465f514cdd","system_id":"levelo_inurba_marseille","lat":43.299713,"lon":5.384978,"is_reserved":false,"is_disabled":true,"rental_uris":{"android":"levelo://app?vid=2872d3c1-4ba6-4718-a22b-82465f514cdd","ios":"levelo://app?vid=2872d3c1-4ba6-4718-a22b-82465f514cdd"},"vehicle_type_id":"4","last_reported":1746249012,"current_range_meters":16400,"station_id":"ce4bgj92rcd13ifvqbd0","pricing_plan_id":"cebpf4jnsgd1na2vs0mg"},{"bike_id":"b9139095-2881-49e4-b714-9d611b216345","system_id":"levelo_inurba_marseille","lat":43.31983,"lon":5.3697,"is_reserved":false,"is_disabled":false,"rental_uris":{"android":"levelo://app?vid=b9139095-2881-49e4-b714-9d611b216345","ios":"levelo://app?vid=b9139095-2881-49e4-b714-9d611b216345"},"vehicle_type_id":"4","last_reported":1746249012,"current_range_meters":16400,"station_id":"","pricing_plan_id":"cebpf4jnsgd1na2vs0mg"},{"bike_id":"fdfb6a91-4b62-45f4-9213-d61ecc4032c1","system_id":"levelo_inurba_marseille","lat":43.29966,"lon":5.40395,"is_reserved":false,"is_disabled":false,"rental_uris":{"android":"levelo://app?vid=fdfb6a91-4b62-45f4-9213-d61ecc4032c1","ios":"levelo://app?vid=fdfb6a91-4b62-45f4-9213-d61ecc4032c1"},"vehicle_type_id":"4","last_reported":1746249012,"current_range_meters":16400,"station_id":"","pricing_plan_id":"cebpf4jnsgd1na2vs0mg"},{"bike_id":"b8d6bd6b-e69d-4869-8d67-2bbec570ca30","system_id":"levelo_inurba_marseille","lat":43.284,"lon":5.37525,"is_reserved":false,"is_disabled":false,"rental_uris":{"android":"levelo://app?vid=b8d6bd6b-e69d-4869-8d67-2bbec570ca30","ios":"levelo://app?vid=b8d6bd6b-e69d-4869-8d67-2bbec570ca30"},"vehicle_type_id":"4","last_reported":1746249012,"current_range_meters":16400,"station_id":"ce4bh412rcd13ifvqds0","pricing_plan_id":"cebpf4jnsgd1na2vs0mg"},{"bike_id":"3ceaa7ea-07cb-4eb1-9b1a-50ec2938631e","system_id":"levelo_inurba_marseille","lat":43.31112,"lon":5.37783,"is_reserved":false,"is_disabled":false,"rental_uris":{"android":"levelo://app?vid=3ceaa7ea-07cb-4eb1-9b1a-50ec2938631e","ios":"levelo://app?vid=3ceaa7ea-07cb-4eb1-9b1a-50ec2938631e"},"vehicle_type_id":"4","last_reported":1746249012,"current_range_meters":16800,"station_id":"ce4bgt92rcd13ifvqcg0","pricing_plan_id":"cebpf4jnsgd1na2vs0mg"},{"bike_id":"fc140763-b1b0-4793-bfd2-b77efd16153a","system_id":"levelo_inurba_marseille","lat":43.290153,"lon":5.386544,"is_reserved":false,"is_disabled":false,"rental_uris":{"android":"levelo://app?vid=fc140763-b1b0-4793-bfd2-b77efd16153a","ios":"levelo://app?vid=fc140763-b1b0-4793-bfd2-b77efd16153a"},"vehicle_type_id":"4","last_reported":1746249012,"current_range_meters":16800,"station_id":"ce4bh4p2rcd13ifvqe0g","pricing_plan_id":"cebpf4jnsgd1na2vs0mg"},{"bike_id":"272da454-799c-41bf-a833-37af71527be9","system_id":"levelo_inurba_marseille","lat":43.29978,"lon":5.37029,"is_reserved":false,"is_disabled":false,"rental_uris":{"android":"levelo://app?vid=272da454-799c-41bf-a833-37af71527be9","ios":"levelo://app?vid=272da454-799c-41bf-a833-37af71527be9"},"vehicle_type_id":"4","last_reported":1746249012,"current_range_meters":16800,"station_id":"","pricing_plan_id":"cebpf4jnsgd1na2vs0mg"},{"bike_id":"b4fac8bf-7bd6-49a5-b30e-acb7f887dcd2","system_id":"levelo_inurba_marseille","lat":43.27938,"lon":5.38108,"is_reserved":false,"is_disabled":false,"rental_uris":{"android":"levelo://app?vid=b4fac8bf-7bd6-49a5-b30e-acb7f887dcd2","ios":"levelo://app?vid=b4fac8bf-7bd6-49a5-b30e-acb7f887dcd2"},"vehicle_type_id":"4","last_reported":1746249012,"current_range_meters":16800,"station_id":"ce4bhf92rcd13ifvqf50","pricing_plan_id":"cebpf4jnsgd1na2vs0mg"},{"bike_id":"e0ceefc0-61c9-406f-91eb-ef69db9dbe42","system_id":"levelo_inurba_marseille","lat":43.26116,"lon":5.414686,"is_reserved":false,"is_disabled":false,"rental_uris":{"android":"levelo://app?vid=e0ceefc0-61c9-406f-91eb-ef69db9dbe42","ios":"levelo://app?vid=e0ceefc0-61c9-406f-91eb-ef69db9dbe42"},"vehicle_type_id":"4","last_reported":1746249012,"current_range_meters":17200,"station_id":"","pricing_plan_id":"cebpf4jnsgd1na2vs0mg"},{"bike_id":"ca491e5c-cc26-4369-9359-35ed40335578","system_id":"levelo_inurba_marseille","lat":43.241726,"lon":5.39728,"is_reserved":false,"is_disabled":false,"rental_uris":{"android":"levelo://app?vid=ca491e5c-cc26-4369-9359-35ed40335578","ios":"levelo://app?vid=ca491e5c-cc26-4369-9359-35ed40335578"},"vehicle_type_id":"4","last_reported":1746249012,"current_range_meters":17200,"station_id":"ce4bhn12rcd13ifvqgpg","pricing_plan_id":"cebpf4jnsgd1na2vs0mg"},{"bike_id":"13f45c48-59a4-4b11-8dcf-2c91f5157d7a","system_id":"levelo_inurba_marseille","lat":43.314798,"lon":5.373072,"is_reserved":false,"is_disabled":false,"rental_uris":{"android":"levelo://app?vid=13f45c48-59a4-4b11-8dcf-2c91f5157d7a","ios":"levelo://app?vid=13f45c48-59a4-4b11-8dcf-2c91f5157d7a"},"vehicle_type_id":"4","last_reported":1746249012,"current_range_meters":17200,"station_id":"ce4bgt12rcd13ifvqcd0","pricing_plan_id":"cebpf4jnsgd1na2vs0mg"},{"bike_id":"0bb0a6cd-b8a5-41d3-88ec-e9648a03c7f5","system_id":"levelo_inurba_marseille","lat":43.25941,"lon":5.40911,"is_reserved":false,"is_disabled":false,"rental_uris":{"android":"levelo://app?vid=0bb0a6cd-b8a5-41d3-88ec-e9648a03c7f5","ios":"levelo://app?vid=0bb0a6cd-b8a5-41d3-88ec-e9648a03c7f5"},"vehicle_type_id":"4","last_reported":1746249012,"current_range_meters":17200,"station_id":"ce4bhm92rcd13ifvqglg","pricing_plan_id":"cebpf4jnsgd1na2vs0mg"},{"bike_id":"3f506505-a089-4076-bc43-08024cf6ce18","system_id":"levelo_inurba_marseille","lat":43.30885,"lon":5.37212,"is_reserved":false,"is_disabled":false,"rental_uris":{"android":"levelo://app?vid=3f506505-a089-4076-bc43-08024cf6ce18","ios":"levelo://app?vid=3f506505-a089-4076-bc43-08024cf6ce18"},"vehicle_type_id":"4","last_reported":1746249012,"current_range_meters":17200,"station_id":"ce4bguh2rcd13ifvqckg","pricing_plan_id":"cebpf4jnsgd1na2vs0mg"},{"bike_id":"50980193-b42c-4f27-acef-93e856756aaa","system_id":"levelo_inurba_marseille","lat":43.337835,"lon":5.374424,"is_reserved":false,"is_disabled":false,"rental_uris":{"android":"levelo://app?vid=50980193-b42c-4f27-acef-93e856756aaa","ios":"levelo://app?vid=50980193-b42c-4f27-acef-93e856756aaa"},"vehicle_type_id":"4","last_reported":1746249012,"current_range_meters":17200,"station_id":"","pricing_plan_id":"cebpf4jnsgd1na2vs0mg"},{"bike_id":"b00cbaf6-2550-46a1-8fbc-f2162c4290d7","system_id":"levelo_inurba_marseille","lat":43.28105,"lon":5.37855,"is_reserved":false,"is_disabled":false,"rental_uris":{"android":"levelo://app?vid=b00cbaf6-2550-46a1-8fbc-f2162c4290d7","ios":"levelo://app?vid=b00cbaf6-2550-46a1-8fbc-f2162c4290d7"},"vehicle_type_id":"4","last_reported":1746249012,"current_range_meters":17600,"station_id":"ce4bha12rcd13ifvqee0","pricing_plan_id":"cebpf4jnsgd1na2vs0mg"},{"bike_id":"d18ef7bb-d11f-4dc4-87f7-55bd62d779aa","system_id":"levelo_inurba_marseille","lat":43.28755,"lon":5.36137,"is_reserved":false,"is_disabled":false,"rental_uris":{"android":"levelo://app?vid=d18ef7bb-d11f-4dc4-87f7-55bd62d779aa","ios":"levelo://app?vid=d18ef7bb-d11f-4dc4-87f7-55bd62d779aa"},"vehicle_type_id":"4","last_reported":1746249012,"current_range_meters":17600,"station_id":"","pricing_plan_id":"cebpf4jnsgd1na2vs0mg"},{"bike_id":"6cad99dd-53e1-4eb9-aa3c-4dd9c0422e70","system_id":"levelo_inurba_marseille","lat":43.304128,"lon":5.397549,"is_reserved":false,"is_disabled":true,"rental_uris":{"android":"levelo://app?vid=6cad99dd-53e1-4eb9-aa3c-4dd9c0422e70","ios":"levelo://app?vid=6cad99dd-53e1-4eb9-aa3c-4dd9c0422e70"},"vehicle_type_id":"4","last_reported":1746249012,"current_range_meters":17600,"station_id":"ce4bh092rcd13ifvqd20","pricing_plan_id":"cebpf4jnsgd1na2vs0mg"},{"bike_id":"a8f57f2b-dc8a-40c9-9d19-a8c7c5f83310","system_id":"levelo_inurba_marseille","lat":43.269412,"lon":5.402798,"is_reserved":false,"is_disabled":true,"rental_uris":{"android":"levelo://app?vid=a8f57f2b-dc8a-40c9-9d19-a8c7c5f83310","ios":"levelo://app?vid=a8f57f2b-dc8a-40c9-9d19-a8c7c5f83310"},"vehicle_type_id":"4","last_reported":1746249012,"current_range_meters":17600,"station_id":"cjm6bp8fraef2m0cb0m0","pricing_plan_id":"cebpf4jnsgd1na2vs0mg"},{"bike_id":"486114f6-ee94-4119-a544-290544e16fde","system_id":"levelo_inurba_marseille","lat":43.30133,"lon":5.3881,"is_reserved":false,"is_disabled":false,"rental_uris":{"android":"levelo://app?vid=486114f6-ee94-4119-a544-290544e16fde","ios":"levelo://app?vid=486114f6-ee94-4119-a544-290544e16fde"},"vehicle_type_id":"4","last_reported":1746249012,"current_range_meters":17600,"station_id":"ce4bghh2rcd13ifvqb60","pricing_plan_id":"cebpf4jnsgd1na2vs0mg"},{"bike_id":"4cac8a45-449f-449e-9ca9-04490eb84c50","system_id":"levelo_inurba_marseille","lat":43.240678,"lon":5.377657,"is_reserved":false,"is_disabled":false,"rental_uris":{"android":"levelo://app?vid=4cac8a45-449f-449e-9ca9-04490eb84c50","ios":"levelo://app?vid=4cac8a45-449f-449e-9ca9-04490eb84c50"},"vehicle_type_id":"4","last_reported":1746249012,"current_range_meters":17600,"station_id":"ce4bhnp2rcd13ifvqgvg","pricing_plan_id":"cebpf4jnsgd1na2vs0mg"},{"bike_id":"df30a786-aa1f-4fea-aa7a-07b4a29738c4","system_id":"levelo_inurba_marseille","lat":43.3172,"lon":5.424048,"is_reserved":false,"is_disabled":false,"rental_uris":{"android":"levelo://app?vid=df30a786-aa1f-4fea-aa7a-07b4a29738c4","ios":"levelo://app?vid=df30a786-aa1f-4fea-aa7a-07b4a29738c4"},"vehicle_type_id":"4","last_reported":1746249012,"current_range_meters":17600,"station_id":"ce4bhp92rcd13ifvqhbg","pricing_plan_id":"cebpf4jnsgd1na2vs0mg"},{"bike_id":"50a4a43d-df2a-41e1-955b-499d1f49c2b2","system_id":"levelo_inurba_marseille","lat":43.24394,"lon":5.37072,"is_reserved":false,"is_disabled":true,"rental_uris":{"android":"levelo://app?vid=50a4a43d-df2a-41e1-955b-499d1f49c2b2","ios":"levelo://app?vid=50a4a43d-df2a-41e1-955b-499d1f49c2b2"},"vehicle_type_id":"4","last_reported":1746249012,"current_range_meters":17600,"station_id":"ce4bhhh2rcd13ifvqfk0","pricing_plan_id":"cebpf4jnsgd1na2vs0mg"},{"bike_id":"cdfd7ebf-d40f-442e-8508-ccaa5f6b29f7","system_id":"levelo_inurba_marseille","lat":43.25913,"lon":5.40874,"is_reserved":false,"is_disabled":false,"rental_uris":{"android":"levelo://app?vid=cdfd7ebf-d40f-442e-8508-ccaa5f6b29f7","ios":"levelo://app?vid=cdfd7ebf-d40f-442e-8508-ccaa5f6b29f7"},"vehicle_type_id":"4","last_reported":1746249012,"current_range_meters":17600,"station_id":"ce4bhm92rcd13ifvqglg","pricing_plan_id":"cebpf4jnsgd1na2vs0mg"},{"bike_id":"4fd57909-8260-462c-adea-94e67f7a5406","system_id":"levelo_inurba_marseille","lat":43.310703,"lon":5.383399,"is_reserved":false,"is_disabled":false,"rental_uris":{"android":"levelo://app?vid=4fd57909-8260-462c-adea-94e67f7a5406","ios":"levelo://app?vid=4fd57909-8260-462c-adea-94e67f7a5406"},"vehicle_type_id":"4","last_reported":1746249012,"current_range_meters":17600,"station_id":"ce4bgv92rcd13ifvqcr0","pricing_plan_id":"cebpf4jnsgd1na2vs0mg"},{"bike_id":"4361e22f-d218-4d30-b3b6-53e44735b0fe","system_id":"levelo_inurba_marseille","lat":43.29759,"lon":5.38017,"is_reserved":false,"is_disabled":true,"rental_uris":{"android":"levelo://app?vid=4361e22f-d218-4d30-b3b6-53e44735b0fe","ios":"levelo://app?vid=4361e22f-d218-4d30-b3b6-53e44735b0fe"},"vehicle_type_id":"4","last_reported":1746249012,"current_range_meters":18000,"station_id":"ce4bgip2rcd13ifvqbb0","pricing_plan_id":"cebpf4jnsgd1na2vs0mg"},{"bike_id":"d76bfe54-9f31-429e-b3fd-66658987c5a6","system_id":"levelo_inurba_marseille","lat":43.3225,"lon":5.3681,"is_reserved":false,"is_disabled":false,"rental_uris":{"android":"levelo://app?vid=d76bfe54-9f31-429e-b3fd-66658987c5a6","ios":"levelo://app?vid=d76bfe54-9f31-429e-b3fd-66658987c5a6"},"vehicle_type_id":"4","last_reported":1746249012,"current_range_meters":18000,"station_id":"","pricing_plan_id":"cebpf4jnsgd1na2vs0mg"},{"bike_id":"73792d1f-5126-4fa6-ae02-d3f1f02502ac","system_id":"levelo_inurba_marseille","lat":43.25088,"lon":5.39521,"is_reserved":false,"is_disabled":false,"rental_uris":{"android":"levelo://app?vid=73792d1f-5126-4fa6-ae02-d3f1f02502ac","ios":"levelo://app?vid=73792d1f-5126-4fa6-ae02-d3f1f02502ac"},"vehicle_type_id":"4","last_reported":1746249012,"current_range_meters":18000,"station_id":"ce4bhm12rcd13ifvqgkg","pricing_plan_id":"cebpf4jnsgd1na2vs0mg"},{"bike_id":"0df7cbdc-0823-4846-ae15-f96ec53c12bc","system_id":"levelo_inurba_marseille","lat":43.31123,"lon":5.37779,"is_reserved":false,"is_disabled":false,"rental_uris":{"android":"levelo://app?vid=0df7cbdc-0823-4846-ae15-f96ec53c12bc","ios":"levelo://app?vid=0df7cbdc-0823-4846-ae15-f96ec53c12bc"},"vehicle_type_id":"4","last_reported":1746249012,"current_range_meters":18000,"station_id":"ce4bgt92rcd13ifvqcg0","pricing_plan_id":"cebpf4jnsgd1na2vs0mg"},{"bike_id":"83d00117-e19c-4fba-b56a-358183f6ad16","system_id":"levelo_inurba_marseille","lat":43.29895,"lon":5.43667,"is_reserved":false,"is_disabled":false,"rental_uris":{"android":"levelo://app?vid=83d00117-e19c-4fba-b56a-358183f6ad16","ios":"levelo://app?vid=83d00117-e19c-4fba-b56a-358183f6ad16"},"vehicle_type_id":"4","last_reported":1746249012,"current_range_meters":18000,"station_id":"ce4bhpp2rcd13ifvqhfg","pricing_plan_id":"cebpf4jnsgd1na2vs0mg"},{"bike_id":"764745f4-22f3-4d3f-9ccf-0bef40653811","system_id":"levelo_inurba_marseille","lat":43.30794,"lon":5.37272,"is_reserved":false,"is_disabled":false,"rental_uris":{"android":"levelo://app?vid=764745f4-22f3-4d3f-9ccf-0bef40653811","ios":"levelo://app?vid=764745f4-22f3-4d3f-9ccf-0bef40653811"},"vehicle_type_id":"4","last_reported":1746249012,"current_range_meters":18000,"station_id":"","pricing_plan_id":"cebpf4jnsgd1na2vs0mg"},{"bike_id":"16e5f374-44c7-4248-91d7-003adf385611","system_id":"levelo_inurba_marseille","lat":43.25136,"lon":5.40367,"is_reserved":false,"is_disabled":false,"rental_uris":{"android":"levelo://app?vid=16e5f374-44c7-4248-91d7-003adf385611","ios":"levelo://app?vid=16e5f374-44c7-4248-91d7-003adf385611"},"vehicle_type_id":"4","last_reported":1746249012,"current_range_meters":18000,"station_id":"","pricing_plan_id":"cebpf4jnsgd1na2vs0mg"},{"bike_id":"383a9fec-74e2-4a49-b93b-c40bae44d5fc","system_id":"levelo_inurba_marseille","lat":43.302464,"lon":5.400493,"is_reserved":false,"is_disabled":false,"rental_uris":{"android":"levelo://app?vid=383a9fec-74e2-4a49-b93b-c40bae44d5fc","ios":"levelo://app?vid=383a9fec-74e2-4a49-b93b-c40bae44d5fc"},"vehicle_type_id":"4","last_reported":1746249012,"current_range_meters":18800,"station_id":"ce4bgvh2rcd13ifvqcs0","pricing_plan_id":"cebpf4jnsgd1na2vs0mg"},{"bike_id":"7c7bde2c-9809-462b-bb9c-d5617957fd26","system_id":"levelo_inurba_marseille","lat":43.23163,"lon":5.43743,"is_reserved":false,"is_disabled":false,"rental_uris":{"android":"levelo://app?vid=7c7bde2c-9809-462b-bb9c-d5617957fd26","ios":"levelo://app?vid=7c7bde2c-9809-462b-bb9c-d5617957fd26"},"vehicle_type_id":"4","last_reported":1746249012,"current_range_meters":18800,"station_id":"ce4bhmp2rcd13ifvqgog","pricing_plan_id":"cebpf4jnsgd1na2vs0mg"},{"bike_id":"063a529b-14c5-42bf-96ef-4c4cc8ee1e32","system_id":"levelo_inurba_marseille","lat":43.30928,"lon":5.40173,"is_reserved":false,"is_disabled":false,"rental_uris":{"android":"levelo://app?vid=063a529b-14c5-42bf-96ef-4c4cc8ee1e32","ios":"levelo://app?vid=063a529b-14c5-42bf-96ef-4c4cc8ee1e32"},"vehicle_type_id":"4","last_reported":1746249012,"current_range_meters":18800,"station_id":"ce4bgvp2rcd13ifvqct0","pricing_plan_id":"cebpf4jnsgd1na2vs0mg"},{"bike_id":"eaadb78f-0516-400e-a932-418372f4ca70","system_id":"levelo_inurba_marseille","lat":43.30427,"lon":5.41303,"is_reserved":false,"is_disabled":false,"rental_uris":{"android":"levelo://app?vid=eaadb78f-0516-400e-a932-418372f4ca70","ios":"levelo://app?vid=eaadb78f-0516-400e-a932-418372f4ca70"},"vehicle_type_id":"4","last_reported":1746249012,"current_range_meters":18800,"station_id":"ce4bhop2rcd13ifvqh8g","pricing_plan_id":"cebpf4jnsgd1na2vs0mg"},{"bike_id":"e2536174-281d-40a3-a28d-e1e8c6e1cab2","system_id":"levelo_inurba_marseille","lat":43.313675,"lon":5.367195,"is_reserved":false,"is_disabled":false,"rental_uris":{"android":"levelo://app?vid=e2536174-281d-40a3-a28d-e1e8c6e1cab2","ios":"levelo://app?vid=e2536174-281d-40a3-a28d-e1e8c6e1cab2"},"vehicle_type_id":"4","last_reported":1746249012,"current_range_meters":18800,"station_id":"ce4bgr92rcd13ifvqc6g","pricing_plan_id":"cebpf4jnsgd1na2vs0mg"},{"bike_id":"84815f9f-2a77-439e-b1f6-88d62a26510f","system_id":"levelo_inurba_marseille","lat":43.23189,"lon":5.40014,"is_reserved":false,"is_disabled":false,"rental_uris":{"android":"levelo://app?vid=84815f9f-2a77-439e-b1f6-88d62a26510f","ios":"levelo://app?vid=84815f9f-2a77-439e-b1f6-88d62a26510f"},"vehicle_type_id":"4","last_reported":1746249012,"current_range_meters":18800,"station_id":"ce4bhn12rcd13ifvqgqg","pricing_plan_id":"cebpf4jnsgd1na2vs0mg"},{"bike_id":"387e9413-883e-4327-8f1c-8ab11f52136f","system_id":"levelo_inurba_marseille","lat":43.28637,"lon":5.36342,"is_reserved":false,"is_disabled":true,"rental_uris":{"android":"levelo://app?vid=387e9413-883e-4327-8f1c-8ab11f52136f","ios":"levelo://app?vid=387e9413-883e-4327-8f1c-8ab11f52136f"},"vehicle_type_id":"4","last_reported":1746249012,"current_range_meters":18800,"station_id":"ce4bhah2rcd13ifvqej0","pricing_plan_id":"cebpf4jnsgd1na2vs0mg"},{"bike_id":"bc094017-5656-40be-919e-5e0cc48c39ce","system_id":"levelo_inurba_marseille","lat":43.23157,"lon":5.43764,"is_reserved":false,"is_disabled":false,"rental_uris":{"android":"levelo://app?vid=bc094017-5656-40be-919e-5e0cc48c39ce","ios":"levelo://app?vid=bc094017-5656-40be-919e-5e0cc48c39ce"},"vehicle_type_id":"4","last_reported":1746249012,"current_range_meters":18800,"station_id":"ce4bhmp2rcd13ifvqgog","pricing_plan_id":"cebpf4jnsgd1na2vs0mg"},{"bike_id":"bc001080-a241-4df9-9258-794a1186b1b9","system_id":"levelo_inurba_marseille","lat":43.28421,"lon":5.37516,"is_reserved":false,"is_disabled":false,"rental_uris":{"android":"levelo://app?vid=bc001080-a241-4df9-9258-794a1186b1b9","ios":"levelo://app?vid=bc001080-a241-4df9-9258-794a1186b1b9"},"vehicle_type_id":"4","last_reported":1746249012,"current_range_meters":18800,"station_id":"ce4bh412rcd13ifvqds0","pricing_plan_id":"cebpf4jnsgd1na2vs0mg"},{"bike_id":"2cd00fa1-aa9b-4b46-86ba-129fb9364ad2","system_id":"levelo_inurba_marseille","lat":43.23165,"lon":5.4374,"is_reserved":false,"is_disabled":false,"rental_uris":{"android":"levelo://app?vid=2cd00fa1-aa9b-4b46-86ba-129fb9364ad2","ios":"levelo://app?vid=2cd00fa1-aa9b-4b46-86ba-129fb9364ad2"},"vehicle_type_id":"4","last_reported":1746249012,"current_range_meters":19200,"station_id":"ce4bhmp2rcd13ifvqgog","pricing_plan_id":"cebpf4jnsgd1na2vs0mg"},{"bike_id":"e34680cc-effe-4b28-bc4e-568a66cdf076","system_id":"levelo_inurba_marseille","lat":43.277041,"lon":5.419733,"is_reserved":false,"is_disabled":false,"rental_uris":{"android":"levelo://app?vid=e34680cc-effe-4b28-bc4e-568a66cdf076","ios":"levelo://app?vid=e34680cc-effe-4b28-bc4e-568a66cdf076"},"vehicle_type_id":"4","last_reported":1746249012,"current_range_meters":19200,"station_id":"","pricing_plan_id":"cebpf4jnsgd1na2vs0mg"},{"bike_id":"93bff410-b448-4e28-975b-d8631f652a97","system_id":"levelo_inurba_marseille","lat":43.2857,"lon":5.394956,"is_reserved":false,"is_disabled":false,"rental_uris":{"android":"levelo://app?vid=93bff410-b448-4e28-975b-d8631f652a97","ios":"levelo://app?vid=93bff410-b448-4e28-975b-d8631f652a97"},"vehicle_type_id":"4","last_reported":1746249012,"current_range_meters":19200,"station_id":"ce4bh292rcd13ifvqdg0","pricing_plan_id":"cebpf4jnsgd1na2vs0mg"},{"bike_id":"be58ce8b-41be-4406-96e6-d94ff951d7a0","system_id":"levelo_inurba_marseille","lat":43.257259,"lon":5.41106,"is_reserved":false,"is_disabled":false,"rental_uris":{"android":"levelo://app?vid=be58ce8b-41be-4406-96e6-d94ff951d7a0","ios":"levelo://app?vid=be58ce8b-41be-4406-96e6-d94ff951d7a0"},"vehicle_type_id":"4","last_reported":1746249012,"current_range_meters":19200,"station_id":"ce4bhkp2rcd13ifvqgd0","pricing_plan_id":"cebpf4jnsgd1na2vs0mg"},{"bike_id":"c8e16fcb-5510-4723-b6e7-2aa49c1b3b8d","system_id":"levelo_inurba_marseille","lat":43.319528,"lon":5.37035,"is_reserved":false,"is_disabled":false,"rental_uris":{"android":"levelo://app?vid=c8e16fcb-5510-4723-b6e7-2aa49c1b3b8d","ios":"levelo://app?vid=c8e16fcb-5510-4723-b6e7-2aa49c1b3b8d"},"vehicle_type_id":"4","last_reported":1746249012,"current_range_meters":19200,"station_id":"","pricing_plan_id":"cebpf4jnsgd1na2vs0mg"},{"bike_id":"ec6da0aa-0845-4bad-8a7b-8655154f5109","system_id":"levelo_inurba_marseille","lat":43.30804,"lon":5.43529,"is_reserved":false,"is_disabled":false,"rental_uris":{"android":"levelo://app?vid=ec6da0aa-0845-4bad-8a7b-8655154f5109","ios":"levelo://app?vid=ec6da0aa-0845-4bad-8a7b-8655154f5109"},"vehicle_type_id":"4","last_reported":1746249012,"current_range_meters":19200,"station_id":"ce4bhph2rcd13ifvqheg","pricing_plan_id":"cebpf4jnsgd1na2vs0mg"},{"bike_id":"738c1866-618f-4b1a-95a6-d414f59abcb2","system_id":"levelo_inurba_marseille","lat":43.29109,"lon":5.38217,"is_reserved":false,"is_disabled":true,"rental_uris":{"android":"levelo://app?vid=738c1866-618f-4b1a-95a6-d414f59abcb2","ios":"levelo://app?vid=738c1866-618f-4b1a-95a6-d414f59abcb2"},"vehicle_type_id":"4","last_reported":1746249012,"current_range_meters":19600,"station_id":"ce4bh512rcd13ifvqe2g","pricing_plan_id":"cebpf4jnsgd1na2vs0mg"},{"bike_id":"5cc735e5-b42d-48a2-abc8-1968b73e50ef","system_id":"levelo_inurba_marseille","lat":43.297808,"lon":5.381282,"is_reserved":false,"is_disabled":false,"rental_uris":{"android":"levelo://app?vid=5cc735e5-b42d-48a2-abc8-1968b73e50ef","ios":"levelo://app?vid=5cc735e5-b42d-48a2-abc8-1968b73e50ef"},"vehicle_type_id":"4","last_reported":1746249012,"current_range_meters":19600,"station_id":"ce4bh512rcd13ifvqe3g","pricing_plan_id":"cebpf4jnsgd1na2vs0mg"},{"bike_id":"d6a6f75b-73c3-463c-a1a6-35bbb4932dc9","system_id":"levelo_inurba_marseille","lat":43.27497,"lon":5.42441,"is_reserved":false,"is_disabled":false,"rental_uris":{"android":"levelo://app?vid=d6a6f75b-73c3-463c-a1a6-35bbb4932dc9","ios":"levelo://app?vid=d6a6f75b-73c3-463c-a1a6-35bbb4932dc9"},"vehicle_type_id":"4","last_reported":1746249012,"current_range_meters":19600,"station_id":"ce4bhn92rcd13ifvqgrg","pricing_plan_id":"cebpf4jnsgd1na2vs0mg"},{"bike_id":"66b8fc62-d5c9-4106-b7c0-1a686c2a706c","system_id":"levelo_inurba_marseille","lat":43.34142,"lon":5.4095,"is_reserved":false,"is_disabled":false,"rental_uris":{"android":"levelo://app?vid=66b8fc62-d5c9-4106-b7c0-1a686c2a706c","ios":"levelo://app?vid=66b8fc62-d5c9-4106-b7c0-1a686c2a706c"},"vehicle_type_id":"4","last_reported":1746249012,"current_range_meters":19600,"station_id":"ce4bhqh2rcd13ifvqhlg","pricing_plan_id":"cebpf4jnsgd1na2vs0mg"},{"bike_id":"5696abf1-193c-4d00-9f52-cdbdf3bb978e","system_id":"levelo_inurba_marseille","lat":43.30976,"lon":5.39055,"is_reserved":false,"is_disabled":true,"rental_uris":{"android":"levelo://app?vid=5696abf1-193c-4d00-9f52-cdbdf3bb978e","ios":"levelo://app?vid=5696abf1-193c-4d00-9f52-cdbdf3bb978e"},"vehicle_type_id":"4","last_reported":1746249012,"current_range_meters":19600,"station_id":"ce4bgup2rcd13ifvqco0","pricing_plan_id":"cebpf4jnsgd1na2vs0mg"},{"bike_id":"02d5d9fb-d158-4625-ad65-d55e5333397f","system_id":"levelo_inurba_marseille","lat":43.280329,"lon":5.369449,"is_reserved":false,"is_disabled":false,"rental_uris":{"android":"levelo://app?vid=02d5d9fb-d158-4625-ad65-d55e5333397f","ios":"levelo://app?vid=02d5d9fb-d158-4625-ad65-d55e5333397f"},"vehicle_type_id":"4","last_reported":1746249012,"current_range_meters":19600,"station_id":"ce4bha12rcd13ifvqef0","pricing_plan_id":"cebpf4jnsgd1na2vs0mg"},{"bike_id":"57d8bd1c-c0ef-4bc9-9141-4a198c997c47","system_id":"levelo_inurba_marseille","lat":43.30526,"lon":5.37185,"is_reserved":false,"is_disabled":false,"rental_uris":{"android":"levelo://app?vid=57d8bd1c-c0ef-4bc9-9141-4a198c997c47","ios":"levelo://app?vid=57d8bd1c-c0ef-4bc9-9141-4a198c997c47"},"vehicle_type_id":"4","last_reported":1746249012,"current_range_meters":19600,"station_id":"","pricing_plan_id":"cebpf4jnsgd1na2vs0mg"},{"bike_id":"c0f19189-dc1a-488b-9b6d-d969d2a90cdb","system_id":"levelo_inurba_marseille","lat":43.308,"lon":5.38149,"is_reserved":false,"is_disabled":false,"rental_uris":{"android":"levelo://app?vid=c0f19189-dc1a-488b-9b6d-d969d2a90cdb","ios":"levelo://app?vid=c0f19189-dc1a-488b-9b6d-d969d2a90cdb"},"vehicle_type_id":"4","last_reported":1746249012,"current_range_meters":19600,"station_id":"ce4bgt12rcd13ifvqce0","pricing_plan_id":"cebpf4jnsgd1na2vs0mg"},{"bike_id":"1a877ed8-aa67-486c-a34b-30e006e67ea0","system_id":"levelo_inurba_marseille","lat":43.28506,"lon":5.38044,"is_reserved":false,"is_disabled":false,"rental_uris":{"android":"levelo://app?vid=1a877ed8-aa67-486c-a34b-30e006e67ea0","ios":"levelo://app?vid=1a877ed8-aa67-486c-a34b-30e006e67ea0"},"vehicle_type_id":"4","last_reported":1746249012,"current_range_meters":19600,"station_id":"","pricing_plan_id":"cebpf4jnsgd1na2vs0mg"},{"bike_id":"5655a86e-0b4f-4db7-ae72-bdc73e135234","system_id":"levelo_inurba_marseille","lat":43.286858,"lon":5.400101,"is_reserved":false,"is_disabled":false,"rental_uris":{"android":"levelo://app?vid=5655a86e-0b4f-4db7-ae72-bdc73e135234","ios":"levelo://app?vid=5655a86e-0b4f-4db7-ae72-bdc73e135234"},"vehicle_type_id":"4","last_reported":1746249012,"current_range_meters":19600,"station_id":"ce4bho92rcd13ifvqh3g","pricing_plan_id":"cebpf4jnsgd1na2vs0mg"},{"bike_id":"e6ab7897-451c-43d0-bb46-1465c18cb411","system_id":"levelo_inurba_marseille","lat":43.29263,"lon":5.38433,"is_reserved":false,"is_disabled":true,"rental_uris":{"android":"levelo://app?vid=e6ab7897-451c-43d0-bb46-1465c18cb411","ios":"levelo://app?vid=e6ab7897-451c-43d0-bb46-1465c18cb411"},"vehicle_type_id":"4","last_reported":1746249012,"current_range_meters":19600,"station_id":"ce4bh692rcd13ifvqea0","pricing_plan_id":"cebpf4jnsgd1na2vs0mg"},{"bike_id":"9fdd63df-700f-46ff-8794-20c6dc2d1006","system_id":"levelo_inurba_marseille","lat":43.26214,"lon":5.40441,"is_reserved":false,"is_disabled":false,"rental_uris":{"android":"levelo://app?vid=9fdd63df-700f-46ff-8794-20c6dc2d1006","ios":"levelo://app?vid=9fdd63df-700f-46ff-8794-20c6dc2d1006"},"vehicle_type_id":"4","last_reported":1746249012,"current_range_meters":19600,"station_id":"ce4bhmh2rcd13ifvqgmg","pricing_plan_id":"cebpf4jnsgd1na2vs0mg"},{"bike_id":"8ee0b0b6-1252-465c-b8fb-724a4b24c7c7","system_id":"levelo_inurba_marseille","lat":43.307782,"lon":5.376563,"is_reserved":false,"is_disabled":false,"rental_uris":{"android":"levelo://app?vid=8ee0b0b6-1252-465c-b8fb-724a4b24c7c7","ios":"levelo://app?vid=8ee0b0b6-1252-465c-b8fb-724a4b24c7c7"},"vehicle_type_id":"4","last_reported":1746249012,"current_range_meters":20000,"station_id":"","pricing_plan_id":"cebpf4jnsgd1na2vs0mg"},{"bike_id":"e48facf2-cd80-422d-936a-277d567d7555","system_id":"levelo_inurba_marseille","lat":43.28616,"lon":5.35105,"is_reserved":false,"is_disabled":true,"rental_uris":{"android":"levelo://app?vid=e48facf2-cd80-422d-936a-277d567d7555","ios":"levelo://app?vid=e48facf2-cd80-422d-936a-277d567d7555"},"vehicle_type_id":"4","last_reported":1746249012,"current_range_meters":20000,"station_id":"ce4bhch2rcd13ifvqeug","pricing_plan_id":"cebpf4jnsgd1na2vs0mg"},{"bike_id":"8d61aad8-d7b2-4fb7-92ec-cd45e88e0c99","system_id":"levelo_inurba_marseille","lat":43.33033,"lon":5.39075,"is_reserved":false,"is_disabled":false,"rental_uris":{"android":"levelo://app?vid=8d61aad8-d7b2-4fb7-92ec-cd45e88e0c99","ios":"levelo://app?vid=8d61aad8-d7b2-4fb7-92ec-cd45e88e0c99"},"vehicle_type_id":"4","last_reported":1746249012,"current_range_meters":20000,"station_id":"ce4bhr92rcd13ifvqhrg","pricing_plan_id":"cebpf4jnsgd1na2vs0mg"},{"bike_id":"7f61457f-a8bd-43bb-93a3-252837b6e6b4","system_id":"levelo_inurba_marseille","lat":43.274982,"lon":5.424555,"is_reserved":false,"is_disabled":false,"rental_uris":{"android":"levelo://app?vid=7f61457f-a8bd-43bb-93a3-252837b6e6b4","ios":"levelo://app?vid=7f61457f-a8bd-43bb-93a3-252837b6e6b4"},"vehicle_type_id":"4","last_reported":1746249012,"current_range_meters":20000,"station_id":"ce4bhn92rcd13ifvqgrg","pricing_plan_id":"cebpf4jnsgd1na2vs0mg"},{"bike_id":"346796c8-e979-4d5e-8fb4-5a13331d58b9","system_id":"levelo_inurba_marseille","lat":43.29059,"lon":5.40003,"is_reserved":false,"is_disabled":false,"rental_uris":{"android":"levelo://app?vid=346796c8-e979-4d5e-8fb4-5a13331d58b9","ios":"levelo://app?vid=346796c8-e979-4d5e-8fb4-5a13331d58b9"},"vehicle_type_id":"4","last_reported":1746249012,"current_range_meters":20400,"station_id":"ce4bh392rcd13ifvqdm0","pricing_plan_id":"cebpf4jnsgd1na2vs0mg"},{"bike_id":"2e479d0e-4abf-498d-9928-4eda7217128f","system_id":"levelo_inurba_marseille","lat":43.27055,"lon":5.40263,"is_reserved":false,"is_disabled":false,"rental_uris":{"android":"levelo://app?vid=2e479d0e-4abf-498d-9928-4eda7217128f","ios":"levelo://app?vid=2e479d0e-4abf-498d-9928-4eda7217128f"},"vehicle_type_id":"4","last_reported":1746249012,"current_range_meters":20400,"station_id":"ce4bhk92rcd13ifvqgc0","pricing_plan_id":"cebpf4jnsgd1na2vs0mg"},{"bike_id":"3699300a-5a2a-424f-96f5-b5854001350a","system_id":"levelo_inurba_marseille","lat":43.28403,"lon":5.381,"is_reserved":false,"is_disabled":false,"rental_uris":{"android":"levelo://app?vid=3699300a-5a2a-424f-96f5-b5854001350a","ios":"levelo://app?vid=3699300a-5a2a-424f-96f5-b5854001350a"},"vehicle_type_id":"4","last_reported":1746249012,"current_range_meters":20400,"station_id":"","pricing_plan_id":"cebpf4jnsgd1na2vs0mg"},{"bike_id":"f7d54ac5-5a5c-49f5-b0c0-204afd6837d2","system_id":"levelo_inurba_marseille","lat":43.28747,"lon":5.36108,"is_reserved":false,"is_disabled":false,"rental_uris":{"android":"levelo://app?vid=f7d54ac5-5a5c-49f5-b0c0-204afd6837d2","ios":"levelo://app?vid=f7d54ac5-5a5c-49f5-b0c0-204afd6837d2"},"vehicle_type_id":"4","last_reported":1746249012,"current_range_meters":20400,"station_id":"cki0cbj6b192h4jlfktg","pricing_plan_id":"cebpf4jnsgd1na2vs0mg"},{"bike_id":"ac9476d3-7dfc-4239-be66-09ee8c79e5b0","system_id":"levelo_inurba_marseille","lat":43.30891,"lon":5.3965,"is_reserved":false,"is_disabled":false,"rental_uris":{"android":"levelo://app?vid=ac9476d3-7dfc-4239-be66-09ee8c79e5b0","ios":"levelo://app?vid=ac9476d3-7dfc-4239-be66-09ee8c79e5b0"},"vehicle_type_id":"4","last_reported":1746249012,"current_range_meters":20800,"station_id":"ce4bh012rcd13ifvqcv0","pricing_plan_id":"cebpf4jnsgd1na2vs0mg"},{"bike_id":"a68c08d3-58cd-4ce8-8b4f-84b7dd7de72b","system_id":"levelo_inurba_marseille","lat":43.25789,"lon":5.39585,"is_reserved":false,"is_disabled":false,"rental_uris":{"android":"levelo://app?vid=a68c08d3-58cd-4ce8-8b4f-84b7dd7de72b","ios":"levelo://app?vid=a68c08d3-58cd-4ce8-8b4f-84b7dd7de72b"},"vehicle_type_id":"4","last_reported":1746249012,"current_range_meters":21600,"station_id":"","pricing_plan_id":"cebpf4jnsgd1na2vs0mg"},{"bike_id":"5fb524f4-92fb-4585-b2e7-5d1799125681","system_id":"levelo_inurba_marseille","lat":43.316968,"lon":5.377697,"is_reserved":false,"is_disabled":false,"rental_uris":{"android":"levelo://app?vid=5fb524f4-92fb-4585-b2e7-5d1799125681","ios":"levelo://app?vid=5fb524f4-92fb-4585-b2e7-5d1799125681"},"vehicle_type_id":"4","last_reported":1746249012,"current_range_meters":21600,"station_id":"ce4bgth2rcd13ifvqch0","pricing_plan_id":"cebpf4jnsgd1na2vs0mg"},{"bike_id":"cbb08514-55a9-4658-ab57-7e447a13d893","system_id":"levelo_inurba_marseille","lat":43.23155,"lon":5.43705,"is_reserved":false,"is_disabled":false,"rental_uris":{"android":"levelo://app?vid=cbb08514-55a9-4658-ab57-7e447a13d893","ios":"levelo://app?vid=cbb08514-55a9-4658-ab57-7e447a13d893"},"vehicle_type_id":"4","last_reported":1746249012,"current_range_meters":21600,"station_id":"ce4bhmp2rcd13ifvqgog","pricing_plan_id":"cebpf4jnsgd1na2vs0mg"},{"bike_id":"f1c3f8a0-09ea-4707-b136-a0a567b93a54","system_id":"levelo_inurba_marseille","lat":43.31337,"lon":5.36737,"is_reserved":false,"is_disabled":false,"rental_uris":{"android":"levelo://app?vid=f1c3f8a0-09ea-4707-b136-a0a567b93a54","ios":"levelo://app?vid=f1c3f8a0-09ea-4707-b136-a0a567b93a54"},"vehicle_type_id":"4","last_reported":1746249012,"current_range_meters":21600,"station_id":"ce4bgr92rcd13ifvqc6g","pricing_plan_id":"cebpf4jnsgd1na2vs0mg"},{"bike_id":"541e646e-53fe-424b-adcc-80d2ba34e340","system_id":"levelo_inurba_marseille","lat":43.231948,"lon":5.399932,"is_reserved":false,"is_disabled":false,"rental_uris":{"android":"levelo://app?vid=541e646e-53fe-424b-adcc-80d2ba34e340","ios":"levelo://app?vid=541e646e-53fe-424b-adcc-80d2ba34e340"},"vehicle_type_id":"4","last_reported":1746249012,"current_range_meters":21600,"station_id":"ce4bhn12rcd13ifvqgqg","pricing_plan_id":"cebpf4jnsgd1na2vs0mg"},{"bike_id":"d16ca422-6368-413c-afec-7cbbcbfb2b74","system_id":"levelo_inurba_marseille","lat":43.28676,"lon":5.38671,"is_reserved":false,"is_disabled":false,"rental_uris":{"android":"levelo://app?vid=d16ca422-6368-413c-afec-7cbbcbfb2b74","ios":"levelo://app?vid=d16ca422-6368-413c-afec-7cbbcbfb2b74"},"vehicle_type_id":"4","last_reported":1746249012,"current_range_meters":21600,"station_id":"ce4bh492rcd13ifvqdug","pricing_plan_id":"cebpf4jnsgd1na2vs0mg"},{"bike_id":"899f1c13-7008-4f05-81eb-05e3064d591d","system_id":"levelo_inurba_marseille","lat":43.28531,"lon":5.35102,"is_reserved":false,"is_disabled":false,"rental_uris":{"android":"levelo://app?vid=899f1c13-7008-4f05-81eb-05e3064d591d","ios":"levelo://app?vid=899f1c13-7008-4f05-81eb-05e3064d591d"},"vehicle_type_id":"4","last_reported":1746249012,"current_range_meters":21600,"station_id":"","pricing_plan_id":"cebpf4jnsgd1na2vs0mg"},{"bike_id":"72688617-9135-42da-8793-e5a91040f395","system_id":"levelo_inurba_marseille","lat":43.21746,"lon":5.34619,"is_reserved":false,"is_disabled":false,"rental_uris":{"android":"levelo://app?vid=72688617-9135-42da-8793-e5a91040f395","ios":"levelo://app?vid=72688617-9135-42da-8793-e5a91040f395"},"vehicle_type_id":"4","last_reported":1746249012,"current_range_meters":22000,"station_id":"st_cvj6r9ubvosntc0bgbag","pricing_plan_id":"cebpf4jnsgd1na2vs0mg"},{"bike_id":"249dbb21-dfe4-4dd5-9e8c-27a5d98cb11a","system_id":"levelo_inurba_marseille","lat":43.310691,"lon":5.383526,"is_reserved":false,"is_disabled":false,"rental_uris":{"android":"levelo://app?vid=249dbb21-dfe4-4dd5-9e8c-27a5d98cb11a","ios":"levelo://app?vid=249dbb21-dfe4-4dd5-9e8c-27a5d98cb11a"},"vehicle_type_id":"4","last_reported":1746249012,"current_range_meters":22000,"station_id":"ce4bgv92rcd13ifvqcr0","pricing_plan_id":"cebpf4jnsgd1na2vs0mg"},{"bike_id":"b88ae174-afc3-4eae-837c-b7397ded4872","system_id":"levelo_inurba_marseille","lat":43.29552,"lon":5.37511,"is_reserved":false,"is_disabled":true,"rental_uris":{"android":"levelo://app?vid=b88ae174-afc3-4eae-837c-b7397ded4872","ios":"levelo://app?vid=b88ae174-afc3-4eae-837c-b7397ded4872"},"vehicle_type_id":"4","last_reported":1746249012,"current_range_meters":22000,"station_id":"ce4bgh92rcd13ifvqb50","pricing_plan_id":"cebpf4jnsgd1na2vs0mg"},{"bike_id":"c9e18556-ba6e-41fb-8567-3cec48f71bfd","system_id":"levelo_inurba_marseille","lat":43.30164,"lon":5.39477,"is_reserved":false,"is_disabled":false,"rental_uris":{"android":"levelo://app?vid=c9e18556-ba6e-41fb-8567-3cec48f71bfd","ios":"levelo://app?vid=c9e18556-ba6e-41fb-8567-3cec48f71bfd"},"vehicle_type_id":"4","last_reported":1746249012,"current_range_meters":22000,"station_id":"","pricing_plan_id":"cebpf4jnsgd1na2vs0mg"},{"bike_id":"d2450fa2-eb02-4667-8398-67924a1ec99e","system_id":"levelo_inurba_marseille","lat":43.31704,"lon":5.43713,"is_reserved":false,"is_disabled":false,"rental_uris":{"android":"levelo://app?vid=d2450fa2-eb02-4667-8398-67924a1ec99e","ios":"levelo://app?vid=d2450fa2-eb02-4667-8398-67924a1ec99e"},"vehicle_type_id":"4","last_reported":1746249012,"current_range_meters":22000,"station_id":"ce4bhp92rcd13ifvqhcg","pricing_plan_id":"cebpf4jnsgd1na2vs0mg"},