{"last_updated":1767961443,"ttl":60,"version":"2.2","data":{"bikes":[{"bike_id":"9cfeff17-a54a-4b3c-baa8-c7ed795fc5f2","system_id":"levelo_inurba_marseille","lat":43.241703,"lon":5.363932,"is_reserved":false,"is_disabled":false,"rental_uris":{"android":"levelo://app?vid=9cfeff17-a54a-4b3c-baa8-c7ed795fc5f2","ios":"levelo://app?vid=9cfeff17-a54a-4b3c-baa8-c7ed795fc5f2"},"vehicle_type_id":"4","last_reported":1767961443,"current_range_meters":2800,"station_id":"cpo36qri1sfpv3e86is0","pricing_plan_id":"cebpf4jnsgd1na2vs0mg"},{"bike_id":"e355ef3e-24a1-489d-b462-e03d4a9532bc","system_id":"levelo_inurba_marseille","lat":43.309525,"lon":5.390366,"is_reserved":false,"is_disabled":false,"rental_uris":{"android":"levelo://app?vid=e355ef3e-24a1-489d-b462-e03d4a9532bc","ios":"levelo://app?vid=e355ef3e-24a1-489d-b462-e03d4a9532bc"},"vehicle_type_id":"4","last_reported":1767961443,"current_range_meters":2800,"station_id":"ce4bgup2rcd13ifvqco0","pricing_plan_id":"cebpf4jnsgd1na2vs0mg"},{"bike_id":"cc85a6ba-05f9-4c4d-a519-e1f41fd3e5dc","system_id":"levelo_inurba_marseille","lat":43.29948,"lon":5.36545,"is_reserved":false,"is_disabled":true,"rental_uris":{"android":"levelo://app?vid=cc85a6ba-05f9-4c4d-a519-e1f41fd3e5dc","ios":"levelo://app?vid=cc85a6ba-05f9-4c4d-a519-e1f41fd3e5dc"},"vehicle_type_id":"4","last_reported":1767961443,"current_range_meters":2800,"station_id":"ce4bgm92rcd13ifvqbr0","pricing_plan_id":"cebpf4jnsgd1na2vs0mg"},{"bike_id":"54eb4ea2-62d2-46f1-be28-8b9786edbd57","system_id":"levelo_inurba_marseille","lat":43.23152,"lon":5.43699,"is_reserved":false,"is_disabled":false,"rental_uris":{"android":"levelo://app?vid=54eb4ea2-62d2-46f1-be28-8b9786edbd57","ios":"levelo://app?vid=54eb4ea2-62d2-46f1-be28-8b9786edbd57"},"vehicle_type_id":"4","last_reported":1767961443,"current_range_meters":2800,"station_id":"ce4bhmp2rcd13ifvqgog","pricing_plan_id":"cebpf4jnsgd1na2vs0mg"},{"bike_id":"662b526c-8c27-4d2d-b35e-6a1cdf3512ce","system_id":"levelo_inurba_marseille","lat":43.24804,"lon":5.37452,"is_reserved":false,"is_disabled":false,"rental_uris":{"android":"levelo://app?vid=662b526c-8c27-4d2d-b35e-6a1cdf3512ce","ios":"levelo://app?vid=662b526c-8c27-4d2d-b35e-6a1cdf3512ce"},"vehicle_type_id":"4","last_reported":1767961443,"current_range_meters":2800,"station_id":"ce4bhgh2rcd13ifvqfb0","pricing_plan_id":"cebpf4jnsgd1na2vs0mg"},{"bike_id":"d701f9a2-629b-4468-98f6-17ad25abddd3","system_id":"levelo_inurba_marseille","lat":43.28855,"lon":5.42517,"is_reserved":false,"is_disabled":false,"rental_uris":{"android":"levelo://app?vid=d701f9a2-629b-4468-98f6-17ad25abddd3","ios":"levelo://app?vid=d701f9a2-629b-4468-98f6-17ad25abddd3"},"vehicle_type_id":"4","last_reported":1767961443,"current_range_meters":2800,"station_id":"st_d3b462108ojc7389ooeg","pricing_plan_id":"cebpf4jnsgd1na2vs0mg"},{"bike_id":"f66d98ac-087a-446d-a0cd-df1062068ca1","system_id":"levelo_inurba_marseille","lat":43.28837,"lon":5.42509,"is_reserved":false,"is_disabled":false,"rental_uris":{"android":"levelo://app?vid=f66d98ac-087a-446d-a0cd-df1062068ca1","ios":"levelo://app?vid=f66d98ac-087a-446d-a0cd-df1062068ca1"},"vehicle_type_id":"4","last_reported":1767961443,"current_range_meters":2800,"station_id":"st_d3b462108ojc7389ooeg","pricing_plan_id":"cebpf4jnsgd1na2vs0mg"},{"bike_id":"b041f73e-24b2-45dc-94b4-d3fa21cc46b4","system_id":"levelo_inurba_marseille","lat":43.24814,"lon":5.37451,"is_reserved":false,"is_disabled":false,"rental_uris":{"android":"levelo://app?vid=b041f73e-24b2-45dc-94b4-d3fa21cc46b4","ios":"levelo://app?vid=b041f73e-24b2-45dc-94b4-d3fa21cc46b4"},"vehicle_type_id":"4","last_reported":1767961443,"current_range_meters":2800,"station_id":"ce4bhgh2rcd13ifvqfb0","pricing_plan_id":"cebpf4jnsgd1na2vs0mg"},{"bike_id":"f0db0b22-e088-46a2-abbe-dbd55331e79a","system_id":"levelo_inurba_marseille","lat":43.26364,"lon":5.41039,"is_reserved":false,"is_disabled":false,"rental_uris":{"android":"levelo://app?vid=f0db0b22-e088-46a2-abbe-dbd55331e79a","ios":"levelo://app?vid=f0db0b22-e088-46a2-abbe-dbd55331e79a"},"vehicle_type_id":"4","last_reported":1767961443,"current_range_meters":2800,"station_id":"st_d4e5ca6na9uc73bfl5fg","pricing_plan_id":"cebpf4jnsgd1na2vs0mg"},{"bike_id":"ef8b8eb6-6226-4146-95a1-d01c656eb60d","system_id":"levelo_inurba_marseille","lat":43.284748,"lon":5.484017,"is_reserved":false,"is_disabled":false,"rental_uris":{"android":"levelo://app?vid=ef8b8eb6-6226-4146-95a1-d01c656eb60d","ios":"levelo://app?vid=ef8b8eb6-6226-4146-95a1-d01c656eb60d"},"vehicle_type_id":"4","last_reported":1767961443,"current_range_meters":2800,"station_id":"st_d3svhcjqgbts73a3dn0g","pricing_plan_id":"cebpf4jnsgd1na2vs0mg"},{"bike_id":"da636dc4-37f9-466d-bd45-ee69705633b0","system_id":"levelo_inurba_marseille","lat":43.31706,"lon":5.43704,"is_reserved":false,"is_disabled":false,"rental_uris":{"android":"levelo://app?vid=da636dc4-37f9-466d-bd45-ee69705633b0","ios":"levelo://app?vid=da636dc4-37f9-466d-bd45-ee69705633b0"},"vehicle_type_id":"4","last_reported":1767961443,"current_range_meters":2800,"station_id":"ce4bhp92rcd13ifvqhcg","pricing_plan_id":"cebpf4jnsgd1na2vs0mg"},{"bike_id":"393a41f0-e5f4-413f-9f9a-e6feae5722eb","system_id":"levelo_inurba_marseille","lat":43.25831,"lon":5.39438,"is_reserved":false,"is_disabled":false,"rental_uris":{"android":"levelo://app?vid=393a41f0-e5f4-413f-9f9a-e6feae5722eb","ios":"levelo://app?vid=393a41f0-e5f4-413f-9f9a-e6feae5722eb"},"vehicle_type_id":"4","last_reported":1767961443,"current_range_meters":2800,"station_id":"ce4bhip2rcd13ifvqft0","pricing_plan_id":"cebpf4jnsgd1na2vs0mg"},{"bike_id":"1adbe3ba-c6cf-4b2f-b3ea-70b6752d9939","system_id":"levelo_inurba_marseille","lat":43.28706,"lon":5.37917,"is_reserved":false,"is_disabled":false,"rental_uris":{"android":"levelo://app?vid=1adbe3ba-c6cf-4b2f-b3ea-70b6752d9939","ios":"levelo://app?vid=1adbe3ba-c6cf-4b2f-b3ea-70b6752d9939"},"vehicle_type_id":"4","last_reported":1767961443,"current_range_meters":2800,"station_id":"ce4bh9p2rcd13ifvqec0","pricing_plan_id":"cebpf4jnsgd1na2vs0mg"},{"bike_id":"b4fa0935-9b50-4a59-a851-194d4cccd67f","system_id":"levelo_inurba_marseille","lat":43.24167,"lon":5.363985,"is_reserved":false,"is_disabled":false,"rental_uris":{"android":"levelo://app?vid=b4fa0935-9b50-4a59-a851-194d4cccd67f","ios":"levelo://app?vid=b4fa0935-9b50-4a59-a851-194d4cccd67f"},"vehicle_type_id":"4","last_reported":1767961443,"current_range_meters":2800,"station_id":"cpo36qri1sfpv3e86is0","pricing_plan_id":"cebpf4jnsgd1na2vs0mg"},{"bike_id":"7d9aa96c-637e-4eb3-9755-31af971b3df0","system_id":"levelo_inurba_marseille","lat":43.28859,"lon":5.42513,"is_reserved":false,"is_disabled":false,"rental_uris":{"android":"levelo://app?vid=7d9aa96c-637e-4eb3-9755-31af971b3df0","ios":"levelo://app?vid=7d9aa96c-637e-4eb3-9755-31af971b3df0"},"vehicle_type_id":"4","last_reported":1767961443,"current_range_meters":3200,"station_id":"st_d3b462108ojc7389ooeg","pricing_plan_id":"cebpf4jnsgd1na2vs0mg"},{"bike_id":"688d7466-0403-4861-900c-12646c185f0d","system_id":"levelo_inurba_marseille","lat":43.29018,"lon":5.39978,"is_reserved":false,"is_disabled":false,"rental_uris":{"android":"levelo://app?vid=688d7466-0403-4861-900c-12646c185f0d","ios":"levelo://app?vid=688d7466-0403-4861-900c-12646c185f0d"},"vehicle_type_id":"4","last_reported":1767961443,"current_range_meters":3200,"station_id":"ce4bh392rcd13ifvqdm0","pricing_plan_id":"cebpf4jnsgd1na2vs0mg"},{"bike_id":"b7f3c4cb-f031-4c24-997a-59db73970d75","system_id":"levelo_inurba_marseille","lat":43.262267,"lon":5.404495,"is_reserved":false,"is_disabled":false,"rental_uris":{"android":"levelo://app?vid=b7f3c4cb-f031-4c24-997a-59db73970d75","ios":"levelo://app?vid=b7f3c4cb-f031-4c24-997a-59db73970d75"},"vehicle_type_id":"4","last_reported":1767961443,"current_range_meters":3200,"station_id":"","pricing_plan_id":"cebpf4jnsgd1na2vs0mg"},{"bike_id":"ac85bb10-c7ee-4643-b359-aaaae092715f","system_id":"levelo_inurba_marseille","lat":43.27993,"lon":5.41674,"is_reserved":false,"is_disabled":false,"rental_uris":{"android":"levelo://app?vid=ac85bb10-c7ee-4643-b359-aaaae092715f","ios":"levelo://app?vid=ac85bb10-c7ee-4643-b359-aaaae092715f"},"vehicle_type_id":"4","last_reported":1767961443,"current_range_meters":3200,"station_id":"ce4bho12rcd13ifvqh1g","pricing_plan_id":"cebpf4jnsgd1na2vs0mg"},{"bike_id":"83baf7ef-456e-4c72-9805-22aa4846a1b3","system_id":"levelo_inurba_marseille","lat":43.28529,"lon":5.44099,"is_reserved":false,"is_disabled":false,"rental_uris":{"android":"levelo://app?vid=83baf7ef-456e-4c72-9805-22aa4846a1b3","ios":"levelo://app?vid=83baf7ef-456e-4c72-9805-22aa4846a1b3"},"vehicle_type_id":"4","last_reported":1767961443,"current_range_meters":3200,"station_id":"st_d3j3df2ikq2c7380ej80","pricing_plan_id":"cebpf4jnsgd1na2vs0mg"},{"bike_id":"357563d8-d33e-4f70-862e-8fab05436ef0","system_id":"levelo_inurba_marseille","lat":43.289776,"lon":5.378228,"is_reserved":false,"is_disabled":false,"rental_uris":{"android":"levelo://app?vid=357563d8-d33e-4f70-862e-8fab05436ef0","ios":"levelo://app?vid=357563d8-d33e-4f70-862e-8fab05436ef0"},"vehicle_type_id":"4","last_reported":1767961443,"current_range_meters":3200,"station_id":"","pricing_plan_id":"cebpf4jnsgd1na2vs0mg"},{"bike_id":"fd172d07-e62e-4e89-83ff-b73ffdf2df2c","system_id":"levelo_inurba_marseille","lat":43.26579,"lon":5.3906,"is_reserved":false,"is_disabled":false,"rental_uris":{"android":"levelo://app?vid=fd172d07-e62e-4e89-83ff-b73ffdf2df2c","ios":"levelo://app?vid=fd172d07-e62e-4e89-83ff-b73ffdf2df2c"},"vehicle_type_id":"4","last_reported":1767961443,"current_range_meters":3200,"station_id":"","pricing_plan_id":"cebpf4jnsgd1na2vs0mg"},{"bike_id":"c76e1a9d-c320-4303-a52d-555dbef28da8","system_id":"levelo_inurba_marseille","lat":43.29756,"lon":5.3809,"is_reserved":false,"is_disabled":false,"rental_uris":{"android":"levelo://app?vid=c76e1a9d-c320-4303-a52d-555dbef28da8","ios":"levelo://app?vid=c76e1a9d-c320-4303-a52d-555dbef28da8"},"vehicle_type_id":"4","last_reported":1767961443,"current_range_meters":3200,"station_id":"","pricing_plan_id":"cebpf4jnsgd1na2vs0mg"},{"bike_id":"a857b56b-54e7-4934-b03b-95d49f266534","system_id":"levelo_inurba_marseille","lat":43.274971,"lon":5.424509,"is_reserved":false,"is_disabled":false,"rental_uris":{"android":"levelo://app?vid=a857b56b-54e7-4934-b03b-95d49f266534","ios":"levelo://app?vid=a857b56b-54e7-4934-b03b-95d49f266534"},"vehicle_type_id":"4","last_reported":1767961443,"current_range_meters":3600,"station_id":"ce4bhn92rcd13ifvqgrg","pricing_plan_id":"cebpf4jnsgd1na2vs0mg"},{"bike_id":"bfd65873-308f-48f0-a29e-b49d69f37a2f","system_id":"levelo_inurba_marseille","lat":43.25569,"lon":5.38241,"is_reserved":false,"is_disabled":false,"rental_uris":{"android":"levelo://app?vid=bfd65873-308f-48f0-a29e-b49d69f37a2f","ios":"levelo://app?vid=bfd65873-308f-48f0-a29e-b49d69f37a2f"},"vehicle_type_id":"4","last_reported":1767961443,"current_range_meters":3600,"station_id":"ce4bhih2rcd13ifvqfs0","pricing_plan_id":"cebpf4jnsgd1na2vs0mg"},{"bike_id":"97315007-64ee-448f-bc3f-6fc2510db218","system_id":"levelo_inurba_marseille","lat":43.28077,"lon":5.39661,"is_reserved":false,"is_disabled":false,"rental_uris":{"android":"levelo://app?vid=97315007-64ee-448f-bc3f-6fc2510db218","ios":"levelo://app?vid=97315007-64ee-448f-bc3f-6fc2510db218"},"vehicle_type_id":"4","last_reported":1767961443,"current_range_meters":3600,"station_id":"ce4bho12rcd13ifvqh2g","pricing_plan_id":"cebpf4jnsgd1na2vs0mg"},{"bike_id":"a6b87eeb-405f-4ab5-8e88-f56e508ce57d","system_id":"levelo_inurba_marseille","lat":43.290273,"lon":5.399684,"is_reserved":false,"is_disabled":false,"rental_uris":{"android":"levelo://app?vid=a6b87eeb-405f-4ab5-8e88-f56e508ce57d","ios":"levelo://app?vid=a6b87eeb-405f-4ab5-8e88-f56e508ce57d"},"vehicle_type_id":"4","last_reported":1767961443,"current_range_meters":3600,"station_id":"ce4bh392rcd13ifvqdm0","pricing_plan_id":"cebpf4jnsgd1na2vs0mg"},{"bike_id":"efcbda51-62e1-4f07-ab6b-7f654193639e","system_id":"levelo_inurba_marseille","lat":43.260616,"lon":5.393949,"is_reserved":false,"is_disabled":false,"rental_uris":{"android":"levelo://app?vid=efcbda51-62e1-4f07-ab6b-7f654193639e","ios":"levelo://app?vid=efcbda51-62e1-4f07-ab6b-7f654193639e"},"vehicle_type_id":"4","last_reported":1767961443,"current_range_meters":3600,"station_id":"ce4bhh92rcd13ifvqfj0","pricing_plan_id":"cebpf4jnsgd1na2vs0mg"},{"bike_id":"4eb82fa0-7803-4a10-90fe-2a5c9e41b4a0","system_id":"levelo_inurba_marseille","lat":43.25577,"lon":5.382355,"is_reserved":false,"is_disabled":false,"rental_uris":{"android":"levelo://app?vid=4eb82fa0-7803-4a10-90fe-2a5c9e41b4a0","ios":"levelo://app?vid=4eb82fa0-7803-4a10-90fe-2a5c9e41b4a0"},"vehicle_type_id":"4","last_reported":1767961443,"current_range_meters":3600,"station_id":"ce4bhih2rcd13ifvqfs0","pricing_plan_id":"cebpf4jnsgd1na2vs0mg"},{"bike_id":"04bf5792-c844-4c60-a16f-72ff5bd359e2","system_id":"levelo_inurba_marseille","lat":43.28153,"lon":5.42647,"is_reserved":false,"is_disabled":false,"rental_uris":{"android":"levelo://app?vid=04bf5792-c844-4c60-a16f-72ff5bd359e2","ios":"levelo://app?vid=04bf5792-c844-4c60-a16f-72ff5bd359e2"},"vehicle_type_id":"4","last_reported":1767961443,"current_range_meters":3600,"station_id":"ce4bhnh2rcd13ifvqgug","pricing_plan_id":"cebpf4jnsgd1na2vs0mg"},{"bike_id":"e9fbb55b-45ea-4b51-8726-aff775b6f253","system_id":"levelo_inurba_marseille","lat":43.22925,"lon":5.35376,"is_reserved":false,"is_disabled":false,"rental_uris":{"android":"levelo://app?vid=e9fbb55b-45ea-4b51-8726-aff775b6f253","ios":"levelo://app?vid=e9fbb55b-45ea-4b51-8726-aff775b6f253"},"vehicle_type_id":"4","last_reported":1767961443,"current_range_meters":3600,"station_id":"cpo3532slgdg3j2ikp40","pricing_plan_id":"cebpf4jnsgd1na2vs0mg"},{"bike_id":"786359c2-cb75-411f-8e73-f4b5395e6530","system_id":"levelo_inurba_marseille","lat":43.2929,"lon":5.37454,"is_reserved":false,"is_disabled":false,"rental_uris":{"android":"levelo://app?vid=786359c2-cb75-411f-8e73-f4b5395e6530","ios":"levelo://app?vid=786359c2-cb75-411f-8e73-f4b5395e6530"},"vehicle_type_id":"4","last_reported":1767961443,"current_range_meters":3600,"station_id":"ce4bgi12rcd13ifvqb70","pricing_plan_id":"cebpf4jnsgd1na2vs0mg"},{"bike_id":"79544bb9-349f-409e-b2bb-723f19511937","system_id":"levelo_inurba_marseille","lat":43.28532,"lon":5.44097,"is_reserved":false,"is_disabled":false,"rental_uris":{"android":"levelo://app?vid=79544bb9-349f-409e-b2bb-723f19511937","ios":"levelo://app?vid=79544bb9-349f-409e-b2bb-723f19511937"},"vehicle_type_id":"4","last_reported":1767961443,"current_range_meters":3600,"station_id":"st_d3j3df2ikq2c7380ej80","pricing_plan_id":"cebpf4jnsgd1na2vs0mg"},{"bike_id":"05266a43-4401-446a-86a7-1fc9c2273209","system_id":"levelo_inurba_marseille","lat":43.302521,"lon":5.400766,"is_reserved":false,"is_disabled":false,"rental_uris":{"android":"levelo://app?vid=05266a43-4401-446a-86a7-1fc9c2273209","ios":"levelo://app?vid=05266a43-4401-446a-86a7-1fc9c2273209"},"vehicle_type_id":"4","last_reported":1767961443,"current_range_meters":3600,"station_id":"ce4bgvh2rcd13ifvqcs0","pricing_plan_id":"cebpf4jnsgd1na2vs0mg"},{"bike_id":"ae4ea6af-ac8e-4f9d-acb8-d08926e47bb1","system_id":"levelo_inurba_marseille","lat":43.33146,"lon":5.377125,"is_reserved":false,"is_disabled":false,"rental_uris":{"android":"levelo://app?vid=ae4ea6af-ac8e-4f9d-acb8-d08926e47bb1","ios":"levelo://app?vid=ae4ea6af-ac8e-4f9d-acb8-d08926e47bb1"},"vehicle_type_id":"4","last_reported":1767961443,"current_range_meters":4000,"station_id":"st_d46cu089ee8s73dldbu0","pricing_plan_id":"cebpf4jnsgd1na2vs0mg"},{"bike_id":"919b15c7-f6dc-4085-8719-a8f579d2184e","system_id":"levelo_inurba_marseille","lat":43.273684,"lon":5.362493,"is_reserved":false,"is_disabled":false,"rental_uris":{"android":"levelo://app?vid=919b15c7-f6dc-4085-8719-a8f579d2184e","ios":"levelo://app?vid=919b15c7-f6dc-4085-8719-a8f579d2184e"},"vehicle_type_id":"4","last_reported":1767961443,"current_range_meters":4000,"station_id":"ce4bhbh2rcd13ifvqeo0","pricing_plan_id":"cebpf4jnsgd1na2vs0mg"},{"bike_id":"d90682e7-3396-41eb-89b3-8f696cfd8ae1","system_id":"levelo_inurba_marseille","lat":43.290202,"lon":5.368427,"is_reserved":false,"is_disabled":false,"rental_uris":{"android":"levelo://app?vid=d90682e7-3396-41eb-89b3-8f696cfd8ae1","ios":"levelo://app?vid=d90682e7-3396-41eb-89b3-8f696cfd8ae1"},"vehicle_type_id":"4","last_reported":1767961443,"current_range_meters":4000,"station_id":"ce4bhap2rcd13ifvqek0","pricing_plan_id":"cebpf4jnsgd1na2vs0mg"},{"bike_id":"38d3baf1-ccb2-4f59-80bf-ce61dff31413","system_id":"levelo_inurba_marseille","lat":43.24814,"lon":5.37458,"is_reserved":false,"is_disabled":false,"rental_uris":{"android":"levelo://app?vid=38d3baf1-ccb2-4f59-80bf-ce61dff31413","ios":"levelo://app?vid=38d3baf1-ccb2-4f59-80bf-ce61dff31413"},"vehicle_type_id":"4","last_reported":1767961443,"current_range_meters":4000,"station_id":"ce4bhgh2rcd13ifvqfb0","pricing_plan_id":"cebpf4jnsgd1na2vs0mg"},{"bike_id":"c15b3d8f-1fde-4cd7-938d-374662af78d6","system_id":"levelo_inurba_marseille","lat":43.30963,"lon":5.39028,"is_reserved":false,"is_disabled":false,"rental_uris":{"android":"levelo://app?vid=c15b3d8f-1fde-4cd7-938d-374662af78d6","ios":"levelo://app?vid=c15b3d8f-1fde-4cd7-938d-374662af78d6"},"vehicle_type_id":"4","last_reported":1767961443,"current_range_meters":4000,"station_id":"ce4bgup2rcd13ifvqco0","pricing_plan_id":"cebpf4jnsgd1na2vs0mg"},{"bike_id":"5407fece-b1e5-43a9-86e2-b54a7e31d89d","system_id":"levelo_inurba_marseille","lat":43.26222,"lon":5.37447,"is_reserved":false,"is_disabled":false,"rental_uris":{"android":"levelo://app?vid=5407fece-b1e5-43a9-86e2-b54a7e31d89d","ios":"levelo://app?vid=5407fece-b1e5-43a9-86e2-b54a7e31d89d"},"vehicle_type_id":"4","last_reported":1767961443,"current_range_meters":4000,"station_id":"ce4bhgp2rcd13ifvqfc0","pricing_plan_id":"cebpf4jnsgd1na2vs0mg"},{"bike_id":"d05b06b9-459f-4515-8ad9-b4f2a701a2d4","system_id":"levelo_inurba_marseille","lat":43.27211,"lon":5.39176,"is_reserved":false,"is_disabled":false,"rental_uris":{"android":"levelo://app?vid=d05b06b9-459f-4515-8ad9-b4f2a701a2d4","ios":"levelo://app?vid=d05b06b9-459f-4515-8ad9-b4f2a701a2d4"},"vehicle_type_id":"4","last_reported":1767961443,"current_range_meters":4000,"station_id":"ce4bhhp2rcd13ifvqfm0","pricing_plan_id":"cebpf4jnsgd1na2vs0mg"},{"bike_id":"3b5cd4d6-ce65-43f4-88df-16f2acfe60d1","system_id":"levelo_inurba_marseille","lat":43.2903,"lon":5.38646,"is_reserved":false,"is_disabled":false,"rental_uris":{"android":"levelo://app?vid=3b5cd4d6-ce65-43f4-88df-16f2acfe60d1","ios":"levelo://app?vid=3b5cd4d6-ce65-43f4-88df-16f2acfe60d1"},"vehicle_type_id":"4","last_reported":1767961443,"current_range_meters":4000,"station_id":"ce4bh4p2rcd13ifvqe0g","pricing_plan_id":"cebpf4jnsgd1na2vs0mg"},{"bike_id":"ff952794-f6da-4471-9ec2-f667cbadd91a","system_id":"levelo_inurba_marseille","lat":43.24037,"lon":5.37747,"is_reserved":false,"is_disabled":false,"rental_uris":{"android":"levelo://app?vid=ff952794-f6da-4471-9ec2-f667cbadd91a","ios":"levelo://app?vid=ff952794-f6da-4471-9ec2-f667cbadd91a"},"vehicle_type_id":"4","last_reported":1767961443,"current_range_meters":4000,"station_id":"ce4bhnp2rcd13ifvqgvg","pricing_plan_id":"cebpf4jnsgd1na2vs0mg"},{"bike_id":"7079bdb2-fe45-4309-a762-84cee8c3e4fd","system_id":"levelo_inurba_marseille","lat":43.26554,"lon":5.37291,"is_reserved":false,"is_disabled":false,"rental_uris":{"android":"levelo://app?vid=7079bdb2-fe45-4309-a762-84cee8c3e4fd","ios":"levelo://app?vid=7079bdb2-fe45-4309-a762-84cee8c3e4fd"},"vehicle_type_id":"4","last_reported":1767961443,"current_range_meters":4000,"station_id":"ce4bhg12rcd13ifvqf70","pricing_plan_id":"cebpf4jnsgd1na2vs0mg"},{"bike_id":"a9c6d546-b01e-4f1f-9ee6-93cac570bf9c","system_id":"levelo_inurba_marseille","lat":43.28621,"lon":5.35097,"is_reserved":false,"is_disabled":false,"rental_uris":{"android":"levelo://app?vid=a9c6d546-b01e-4f1f-9ee6-93cac570bf9c","ios":"levelo://app?vid=a9c6d546-b01e-4f1f-9ee6-93cac570bf9c"},"vehicle_type_id":"4","last_reported":1767961443,"current_range_meters":4000,"station_id":"ce4bhch2rcd13ifvqeug","pricing_plan_id":"cebpf4jnsgd1na2vs0mg"},{"bike_id":"e412bd1f-9559-40df-baea-da06ff8409ea","system_id":"levelo_inurba_marseille","lat":43.31061,"lon":5.37176,"is_reserved":false,"is_disabled":false,"rental_uris":{"android":"levelo://app?vid=e412bd1f-9559-40df-baea-da06ff8409ea","ios":"levelo://app?vid=e412bd1f-9559-40df-baea-da06ff8409ea"},"vehicle_type_id":"4","last_reported":1767961443,"current_range_meters":4000,"station_id":"st_d4kl2rp97mjs73e7tdfg","pricing_plan_id":"cebpf4jnsgd1na2vs0mg"},{"bike_id":"8ddd903e-4b58-445b-933d-a20697560094","system_id":"levelo_inurba_marseille","lat":43.33436,"lon":5.40063,"is_reserved":false,"is_disabled":false,"rental_uris":{"android":"levelo://app?vid=8ddd903e-4b58-445b-933d-a20697560094","ios":"levelo://app?vid=8ddd903e-4b58-445b-933d-a20697560094"},"vehicle_type_id":"4","last_reported":1767961443,"current_range_meters":4000,"station_id":"","pricing_plan_id":"cebpf4jnsgd1na2vs0mg"},{"bike_id":"d1da6efe-850d-40dc-ab1a-ce4ecb2d89c2","system_id":"levelo_inurba_marseille","lat":43.23185,"lon":5.39993,"is_reserved":false,"is_disabled":false,"rental_uris":{"android":"levelo://app?vid=d1da6efe-850d-40dc-ab1a-ce4ecb2d89c2","ios":"levelo://app?vid=d1da6efe-850d-40dc-ab1a-ce4ecb2d89c2"},"vehicle_type_id":"4","last_reported":1767961443,"current_range_meters":4000,"station_id":"ce4bhn12rcd13ifvqgqg","pricing_plan_id":"cebpf4jnsgd1na2vs0mg"},{"bike_id":"16ce7594-dcb6-43ef-aed8-d7494da4c228","system_id":"levelo_inurba_marseille","lat":43.25,"lon":5.38939,"is_reserved":false,"is_disabled":false,"rental_uris":{"android":"levelo://app?vid=16ce7594-dcb6-43ef-aed8-d7494da4c228","ios":"levelo://app?vid=16ce7594-dcb6-43ef-aed8-d7494da4c228"},"vehicle_type_id":"4","last_reported":1767961443,"current_range_meters":4000,"station_id":"ce4bhgp2rcd13ifvqfd0","pricing_plan_id":"cebpf4jnsgd1na2vs0mg"},{"bike_id":"36c3097c-2122-4b98-a149-c16b13fb82b9","system_id":"levelo_inurba_marseille","lat":43.25983,"lon":5.39419,"is_reserved":false,"is_disabled":false,"rental_uris":{"android":"levelo://app?vid=36c3097c-2122-4b98-a149-c16b13fb82b9","ios":"levelo://app?vid=36c3097c-2122-4b98-a149-c16b13fb82b9"},"vehicle_type_id":"4","last_reported":1767961443,"current_range_meters":4000,"station_id":"","pricing_plan_id":"cebpf4jnsgd1na2vs0mg"},{"bike_id":"3ada1a6b-6031-458a-b05a-7b349030768e","system_id":"levelo_inurba_marseille","lat":43.30528,"lon":5.36848,"is_reserved":false,"is_disabled":false,"rental_uris":{"android":"levelo://app?vid=3ada1a6b-6031-458a-b05a-7b349030768e","ios":"levelo://app?vid=3ada1a6b-6031-458a-b05a-7b349030768e"},"vehicle_type_id":"4","last_reported":1767961443,"current_range_meters":4000,"station_id":"","pricing_plan_id":"cebpf4jnsgd1na2vs0mg"},{"bike_id":"8f870c12-c0c3-4b7a-8d0a-24f628ad1788","system_id":"levelo_inurba_marseille","lat":43.31004,"lon":5.37963,"is_reserved":false,"is_disabled":false,"rental_uris":{"android":"levelo://app?vid=8f870c12-c0c3-4b7a-8d0a-24f628ad1788","ios":"levelo://app?vid=8f870c12-c0c3-4b7a-8d0a-24f628ad1788"},"vehicle_type_id":"4","last_reported":1767961443,"current_range_meters":4400,"station_id":"","pricing_plan_id":"cebpf4jnsgd1na2vs0mg"},{"bike_id":"afbfc22c-0163-4e0f-bc46-9fcb146cdab6","system_id":"levelo_inurba_marseille","lat":43.269407,"lon":5.402568,"is_reserved":false,"is_disabled":false,"rental_uris":{"android":"levelo://app?vid=afbfc22c-0163-4e0f-bc46-9fcb146cdab6","ios":"levelo://app?vid=afbfc22c-0163-4e0f-bc46-9fcb146cdab6"},"vehicle_type_id":"4","last_reported":1767961443,"current_range_meters":4400,"station_id":"cjm6bp8fraef2m0cb0m0","pricing_plan_id":"cebpf4jnsgd1na2vs0mg"},{"bike_id":"7daf9ada-91d7-4414-9c61-96e031f37952","system_id":"levelo_inurba_marseille","lat":43.2655,"lon":5.37288,"is_reserved":false,"is_disabled":false,"rental_uris":{"android":"levelo://app?vid=7daf9ada-91d7-4414-9c61-96e031f37952","ios":"levelo://app?vid=7daf9ada-91d7-4414-9c61-96e031f37952"},"vehicle_type_id":"4","last_reported":1767961443,"current_range_meters":4400,"station_id":"ce4bhg12rcd13ifvqf70","pricing_plan_id":"cebpf4jnsgd1na2vs0mg"},{"bike_id":"e41d8bea-ffd2-440d-b446-b472b1d04e4d","system_id":"levelo_inurba_marseille","lat":43.239544,"lon":5.366278,"is_reserved":false,"is_disabled":false,"rental_uris":{"android":"levelo://app?vid=e41d8bea-ffd2-440d-b446-b472b1d04e4d","ios":"levelo://app?vid=e41d8bea-ffd2-440d-b446-b472b1d04e4d"},"vehicle_type_id":"4","last_reported":1767961443,"current_range_meters":4400,"station_id":"ce4bhi12rcd13ifvqfp0","pricing_plan_id":"cebpf4jnsgd1na2vs0mg"},{"bike_id":"617ca6f2-1481-4c5f-a165-87db9947444a","system_id":"levelo_inurba_marseille","lat":43.28486,"lon":5.48387,"is_reserved":false,"is_disabled":false,"rental_uris":{"android":"levelo://app?vid=617ca6f2-1481-4c5f-a165-87db9947444a","ios":"levelo://app?vid=617ca6f2-1481-4c5f-a165-87db9947444a"},"vehicle_type_id":"4","last_reported":1767961443,"current_range_meters":4400,"station_id":"st_d3svhcjqgbts73a3dn0g","pricing_plan_id":"cebpf4jnsgd1na2vs0mg"},{"bike_id":"fa99c4ad-c02a-4d08-a929-1ee6d535f8ed","system_id":"levelo_inurba_marseille","lat":43.273691,"lon":5.362501,"is_reserved":false,"is_disabled":false,"rental_uris":{"android":"levelo://app?vid=fa99c4ad-c02a-4d08-a929-1ee6d535f8ed","ios":"levelo://app?vid=fa99c4ad-c02a-4d08-a929-1ee6d535f8ed"},"vehicle_type_id":"4","last_reported":1767961443,"current_range_meters":4400,"station_id":"ce4bhbh2rcd13ifvqeo0","pricing_plan_id":"cebpf4jnsgd1na2vs0mg"},{"bike_id":"d4c033f9-ee45-454b-bf08-190c89b62955","system_id":"levelo_inurba_marseille","lat":43.30254,"lon":5.40062,"is_reserved":false,"is_disabled":false,"rental_uris":{"android":"levelo://app?vid=d4c033f9-ee45-454b-bf08-190c89b62955","ios":"levelo://app?vid=d4c033f9-ee45-454b-bf08-190c89b62955"},"vehicle_type_id":"4","last_reported":1767961443,"current_range_meters":4400,"station_id":"ce4bgvh2rcd13ifvqcs0","pricing_plan_id":"cebpf4jnsgd1na2vs0mg"},{"bike_id":"4012ce00-ac2e-455d-a7e9-96fa5e4f97af","system_id":"levelo_inurba_marseille","lat":43.27946,"lon":5.4105,"is_reserved":false,"is_disabled":false,"rental_uris":{"android":"levelo://app?vid=4012ce00-ac2e-455d-a7e9-96fa5e4f97af","ios":"levelo://app?vid=4012ce00-ac2e-455d-a7e9-96fa5e4f97af"},"vehicle_type_id":"4","last_reported":1767961443,"current_range_meters":4400,"station_id":"ce4bhnp2rcd13ifvqh0g","pricing_plan_id":"cebpf4jnsgd1na2vs0mg"},{"bike_id":"362f309d-8dd6-4bdf-80f5-648165384441","system_id":"levelo_inurba_marseille","lat":43.246663,"lon":5.381809,"is_reserved":false,"is_disabled":false,"rental_uris":{"android":"levelo://app?vid=362f309d-8dd6-4bdf-80f5-648165384441","ios":"levelo://app?vid=362f309d-8dd6-4bdf-80f5-648165384441"},"vehicle_type_id":"4","last_reported":1767961443,"current_range_meters":4400,"station_id":"ce4bh092rcd13ifvqd20","pricing_plan_id":"cebpf4jnsgd1na2vs0mg"},{"bike_id":"fdbc141a-4743-4666-ade7-eba2b05ee9af","system_id":"levelo_inurba_marseille","lat":43.30463,"lon":5.3791,"is_reserved":false,"is_disabled":false,"rental_uris":{"android":"levelo://app?vid=fdbc141a-4743-4666-ade7-eba2b05ee9af","ios":"levelo://app?vid=fdbc141a-4743-4666-ade7-eba2b05ee9af"},"vehicle_type_id":"4","last_reported":1767961443,"current_range_meters":4400,"station_id":"ce4bgup2rcd13ifvqcn0","pricing_plan_id":"cebpf4jnsgd1na2vs0mg"},{"bike_id":"79b97f79-7230-4403-8e37-be984ceb75fd","system_id":"levelo_inurba_marseille","lat":43.30548,"lon":5.3671,"is_reserved":false,"is_disabled":false,"rental_uris":{"android":"levelo://app?vid=79b97f79-7230-4403-8e37-be984ceb75fd","ios":"levelo://app?vid=79b97f79-7230-4403-8e37-be984ceb75fd"},"vehicle_type_id":"4","last_reported":1767961443,"current_range_meters":4800,"station_id":"ce4bgrp2rcd13ifvqc9g","pricing_plan_id":"cebpf4jnsgd1na2vs0mg"},{"bike_id":"8b0501c8-11e5-44ca-92c5-eb8f94ba6bf6","system_id":"levelo_inurba_marseille","lat":43.29647,"lon":5.378,"is_reserved":false,"is_disabled":false,"rental_uris":{"android":"levelo://app?vid=8b0501c8-11e5-44ca-92c5-eb8f94ba6bf6","ios":"levelo://app?vid=8b0501c8-11e5-44ca-92c5-eb8f94ba6bf6"},"vehicle_type_id":"4","last_reported":1767961443,"current_range_meters":4800,"station_id":"","pricing_plan_id":"cebpf4jnsgd1na2vs0mg"},{"bike_id":"56c55073-d594-4b78-b54f-11b692428f54","system_id":"levelo_inurba_marseille","lat":43.28696,"lon":5.39976,"is_reserved":false,"is_disabled":false,"rental_uris":{"android":"levelo://app?vid=56c55073-d594-4b78-b54f-11b692428f54","ios":"levelo://app?vid=56c55073-d594-4b78-b54f-11b692428f54"},"vehicle_type_id":"4","last_reported":1767961443,"current_range_meters":4800,"station_id":"ce4bho92rcd13ifvqh3g","pricing_plan_id":"cebpf4jnsgd1na2vs0mg"},{"bike_id":"00bf2578-c2e7-4693-bdfc-aa0da096cebc","system_id":"levelo_inurba_marseille","lat":43.2533,"lon":5.42162,"is_reserved":false,"is_disabled":false,"rental_uris":{"android":"levelo://app?vid=00bf2578-c2e7-4693-bdfc-aa0da096cebc","ios":"levelo://app?vid=00bf2578-c2e7-4693-bdfc-aa0da096cebc"},"vehicle_type_id":"4","last_reported":1767961443,"current_range_meters":4800,"station_id":"st_d2m65c5bi1j21697t3ng","pricing_plan_id":"cebpf4jnsgd1na2vs0mg"},{"bike_id":"88436fbc-a867-41fd-9af6-6ae673233f14","system_id":"levelo_inurba_marseille","lat":43.2455,"lon":5.395262,"is_reserved":false,"is_disabled":false,"rental_uris":{"android":"levelo://app?vid=88436fbc-a867-41fd-9af6-6ae673233f14","ios":"levelo://app?vid=88436fbc-a867-41fd-9af6-6ae673233f14"},"vehicle_type_id":"4","last_reported":1767961443,"current_range_meters":4800,"station_id":"ce4bhlp2rcd13ifvqgjg","pricing_plan_id":"cebpf4jnsgd1na2vs0mg"},{"bike_id":"dea4b3f3-7c96-4284-aea9-03d918bcdf80","system_id":"levelo_inurba_marseille","lat":43.30798,"lon":5.38143,"is_reserved":false,"is_disabled":false,"rental_uris":{"android":"levelo://app?vid=dea4b3f3-7c96-4284-aea9-03d918bcdf80","ios":"levelo://app?vid=dea4b3f3-7c96-4284-aea9-03d918bcdf80"},"vehicle_type_id":"4","last_reported":1767961443,"current_range_meters":4800,"station_id":"ce4bgt12rcd13ifvqce0","pricing_plan_id":"cebpf4jnsgd1na2vs0mg"},{"bike_id":"9490b0a7-c0e4-4b73-bab8-6508165586af","system_id":"levelo_inurba_marseille","lat":43.24972,"lon":5.40513,"is_reserved":false,"is_disabled":true,"rental_uris":{"android":"levelo://app?vid=9490b0a7-c0e4-4b73-bab8-6508165586af","ios":"levelo://app?vid=9490b0a7-c0e4-4b73-bab8-6508165586af"},"vehicle_type_id":"4","last_reported":1767961443,"current_range_meters":4800,"station_id":"st_d2ngiaodas8pm72gd1h0","pricing_plan_id":"cebpf4jnsgd1na2vs0mg"},{"bike_id":"18afe1b5-d903-471c-9912-7f7a549b58cf","system_id":"levelo_inurba_marseille","lat":43.32094,"lon":5.36793,"is_reserved":false,"is_disabled":false,"rental_uris":{"android":"levelo://app?vid=18afe1b5-d903-471c-9912-7f7a549b58cf","ios":"levelo://app?vid=18afe1b5-d903-471c-9912-7f7a549b58cf"},"vehicle_type_id":"4","last_reported":1767961443,"current_range_meters":4800,"station_id":"ce4bhrh2rcd13ifvqhug","pricing_plan_id":"cebpf4jnsgd1na2vs0mg"},{"bike_id":"94a6901e-f050-4dbd-8990-b774d466a29a","system_id":"levelo_inurba_marseille","lat":43.32083,"lon":5.36747,"is_reserved":false,"is_disabled":false,"rental_uris":{"android":"levelo://app?vid=94a6901e-f050-4dbd-8990-b774d466a29a","ios":"levelo://app?vid=94a6901e-f050-4dbd-8990-b774d466a29a"},"vehicle_type_id":"4","last_reported":1767961443,"current_range_meters":4800,"station_id":"ce4bhrh2rcd13ifvqhug","pricing_plan_id":"cebpf4jnsgd1na2vs0mg"},{"bike_id":"1ec94ba1-41d1-4288-80e5-6a131d1cb21d","system_id":"levelo_inurba_marseille","lat":43.25333,"lon":5.42174,"is_reserved":false,"is_disabled":false,"rental_uris":{"android":"levelo://app?vid=1ec94ba1-41d1-4288-80e5-6a131d1cb21d","ios":"levelo://app?vid=1ec94ba1-41d1-4288-80e5-6a131d1cb21d"},"vehicle_type_id":"4","last_reported":1767961443,"current_range_meters":4800,"station_id":"st_d2m65c5bi1j21697t3ng","pricing_plan_id":"cebpf4jnsgd1na2vs0mg"},{"bike_id":"df8ff779-90c8-4b65-a5d0-99687c060dae","system_id":"levelo_inurba_marseille","lat":43.32349,"lon":5.36729,"is_reserved":false,"is_disabled":false,"rental_uris":{"android":"levelo://app?vid=df8ff779-90c8-4b65-a5d0-99687c060dae","ios":"levelo://app?vid=df8ff779-90c8-4b65-a5d0-99687c060dae"},"vehicle_type_id":"4","last_reported":1767961443,"current_range_meters":4800,"station_id":"ce4bhsh2rcd13ifvqi2g","pricing_plan_id":"cebpf4jnsgd1na2vs0mg"},{"bike_id":"6df19930-e3eb-4eb3-9a45-a01da3418078","system_id":"levelo_inurba_marseille","lat":43.25827,"lon":5.39427,"is_reserved":false,"is_disabled":false,"rental_uris":{"android":"levelo://app?vid=6df19930-e3eb-4eb3-9a45-a01da3418078","ios":"levelo://app?vid=6df19930-e3eb-4eb3-9a45-a01da3418078"},"vehicle_type_id":"4","last_reported":1767961443,"current_range_meters":5600,"station_id":"ce4bhip2rcd13ifvqft0","pricing_plan_id":"cebpf4jnsgd1na2vs0mg"},{"bike_id":"35bc93a6-6f9c-416a-8b7f-3420f66213d3","system_id":"levelo_inurba_marseille","lat":43.24142,"lon":5.36427,"is_reserved":false,"is_disabled":false,"rental_uris":{"android":"levelo://app?vid=35bc93a6-6f9c-416a-8b7f-3420f66213d3","ios":"levelo://app?vid=35bc93a6-6f9c-416a-8b7f-3420f66213d3"},"vehicle_type_id":"4","last_reported":1767961443,"current_range_meters":5600,"station_id":"cpo36qri1sfpv3e86is0","pricing_plan_id":"cebpf4jnsgd1na2vs0mg"},{"bike_id":"c3c1f2ac-afb8-4ee3-8aa5-6687f610d70e","system_id":"levelo_inurba_marseille","lat":43.29548,"lon":5.37631,"is_reserved":false,"is_disabled":false,"rental_uris":{"android":"levelo://app?vid=c3c1f2ac-afb8-4ee3-8aa5-6687f610d70e","ios":"levelo://app?vid=c3c1f2ac-afb8-4ee3-8aa5-6687f610d70e"},"vehicle_type_id":"4","last_reported":1767961443,"current_range_meters":5600,"station_id":"","pricing_plan_id":"cebpf4jnsgd1na2vs0mg"},{"bike_id":"52c545a6-4990-49e9-b5f1-ef579ddc71f3","system_id":"levelo_inurba_marseille","lat":43.25566,"lon":5.38231,"is_reserved":false,"is_disabled":false,"rental_uris":{"android":"levelo://app?vid=52c545a6-4990-49e9-b5f1-ef579ddc71f3","ios":"levelo://app?vid=52c545a6-4990-49e9-b5f1-ef579ddc71f3"},"vehicle_type_id":"4","last_reported":1767961443,"current_range_meters":5600,"station_id":"ce4bhih2rcd13ifvqfs0","pricing_plan_id":"cebpf4jnsgd1na2vs0mg"},{"bike_id":"ce3cc1d9-9ec8-4064-92e2-4915f0b7e6ce","system_id":"levelo_inurba_marseille","lat":43.24629,"lon":5.43139,"is_reserved":false,"is_disabled":false,"rental_uris":{"android":"levelo://app?vid=ce3cc1d9-9ec8-4064-92e2-4915f0b7e6ce","ios":"levelo://app?vid=ce3cc1d9-9ec8-4064-92e2-4915f0b7e6ce"},"vehicle_type_id":"4","last_reported":1767961443,"current_range_meters":5600,"station_id":"st_d2m6c4gdas8pm72e190g","pricing_plan_id":"cebpf4jnsgd1na2vs0mg"},{"bike_id":"a76c3cca-0b55-4bb3-a27f-9c1202d23218","system_id":"levelo_inurba_marseille","lat":43.27804,"lon":5.40695,"is_reserved":false,"is_disabled":false,"rental_uris":{"android":"levelo://app?vid=a76c3cca-0b55-4bb3-a27f-9c1202d23218","ios":"levelo://app?vid=a76c3cca-0b55-4bb3-a27f-9c1202d23218"},"vehicle_type_id":"4","last_reported":1767961443,"current_range_meters":5600,"station_id":"ce4bhnh2rcd13ifvqgtg","pricing_plan_id":"cebpf4jnsgd1na2vs0mg"},{"bike_id":"bb0e890d-0506-44f5-a8d9-b29bad87de2a","system_id":"levelo_inurba_marseille","lat":43.24168,"lon":5.36395,"is_reserved":false,"is_disabled":false,"rental_uris":{"android":"levelo://app?vid=bb0e890d-0506-44f5-a8d9-b29bad87de2a","ios":"levelo://app?vid=bb0e890d-0506-44f5-a8d9-b29bad87de2a"},"vehicle_type_id":"4","last_reported":1767961443,"current_range_meters":5600,"station_id":"cpo36qri1sfpv3e86is0","pricing_plan_id":"cebpf4jnsgd1na2vs0mg"},{"bike_id":"e7184f68-990d-4adf-ba65-100c7908c7a1","system_id":"levelo_inurba_marseille","lat":43.337444,"lon":5.374475,"is_reserved":false,"is_disabled":false,"rental_uris":{"android":"levelo://app?vid=e7184f68-990d-4adf-ba65-100c7908c7a1","ios":"levelo://app?vid=e7184f68-990d-4adf-ba65-100c7908c7a1"},"vehicle_type_id":"4","last_reported":1767961443,"current_range_meters":5600,"station_id":"","pricing_plan_id":"cebpf4jnsgd1na2vs0mg"},{"bike_id":"571ac46c-c09d-448b-985a-7beda82b850e","system_id":"levelo_inurba_marseille","lat":43.25332,"lon":5.42183,"is_reserved":false,"is_disabled":false,"rental_uris":{"android":"levelo://app?vid=571ac46c-c09d-448b-985a-7beda82b850e","ios":"levelo://app?vid=571ac46c-c09d-448b-985a-7beda82b850e"},"vehicle_type_id":"4","last_reported":1767961443,"current_range_meters":5600,"station_id":"st_d2m65c5bi1j21697t3ng","pricing_plan_id":"cebpf4jnsgd1na2vs0mg"},{"bike_id":"755fddff-196e-4df8-9ed5-b269f8727526","system_id":"levelo_inurba_marseille","lat":43.27181,"lon":5.40997,"is_reserved":false,"is_disabled":false,"rental_uris":{"android":"levelo://app?vid=755fddff-196e-4df8-9ed5-b269f8727526","ios":"levelo://app?vid=755fddff-196e-4df8-9ed5-b269f8727526"},"vehicle_type_id":"4","last_reported":1767961443,"current_range_meters":5600,"station_id":"ce4bhl12rcd13ifvqgf0","pricing_plan_id":"cebpf4jnsgd1na2vs0mg"},{"bike_id":"1f0dca56-e587-4d27-b70d-46bb9b2697c0","system_id":"levelo_inurba_marseille","lat":43.29629,"lon":5.37742,"is_reserved":false,"is_disabled":false,"rental_uris":{"android":"levelo://app?vid=1f0dca56-e587-4d27-b70d-46bb9b2697c0","ios":"levelo://app?vid=1f0dca56-e587-4d27-b70d-46bb9b2697c0"},"vehicle_type_id":"4","last_reported":1767961443,"current_range_meters":5600,"station_id":"ce4bgi92rcd13ifvqb90","pricing_plan_id":"cebpf4jnsgd1na2vs0mg"},{"bike_id":"8c90c973-d813-4351-b024-6a22ded6d260","system_id":"levelo_inurba_marseille","lat":43.323611,"lon":5.367385,"is_reserved":false,"is_disabled":false,"rental_uris":{"android":"levelo://app?vid=8c90c973-d813-4351-b024-6a22ded6d260","ios":"levelo://app?vid=8c90c973-d813-4351-b024-6a22ded6d260"},"vehicle_type_id":"4","last_reported":1767961443,"current_range_meters":5600,"station_id":"ce4bhsh2rcd13ifvqi2g","pricing_plan_id":"cebpf4jnsgd1na2vs0mg"},{"bike_id":"845bee73-fea8-4b21-9671-09bb9a36c361","system_id":"levelo_inurba_marseille","lat":43.25085,"lon":5.39518,"is_reserved":false,"is_disabled":false,"rental_uris":{"android":"levelo://app?vid=845bee73-fea8-4b21-9671-09bb9a36c361","ios":"levelo://app?vid=845bee73-fea8-4b21-9671-09bb9a36c361"},"vehicle_type_id":"4","last_reported":1767961443,"current_range_meters":5600,"station_id":"ce4bhm12rcd13ifvqgkg","pricing_plan_id":"cebpf4jnsgd1na2vs0mg"},{"bike_id":"2e052dac-8ef2-45d8-9e6e-509f5b71c3eb","system_id":"levelo_inurba_marseille","lat":43.30436,"lon":5.39749,"is_reserved":false,"is_disabled":false,"rental_uris":{"android":"levelo://app?vid=2e052dac-8ef2-45d8-9e6e-509f5b71c3eb","ios":"levelo://app?vid=2e052dac-8ef2-45d8-9e6e-509f5b71c3eb"},"vehicle_type_id":"4","last_reported":1767961443,"current_range_meters":5600,"station_id":"ce4bh092rcd13ifvqd20","pricing_plan_id":"cebpf4jnsgd1na2vs0mg"},{"bike_id":"8ff52944-c36c-46ee-b2b9-242f429aa86f","system_id":"levelo_inurba_marseille","lat":43.246657,"lon":5.381697,"is_reserved":false,"is_disabled":false,"rental_uris":{"android":"levelo://app?vid=8ff52944-c36c-46ee-b2b9-242f429aa86f","ios":"levelo://app?vid=8ff52944-c36c-46ee-b2b9-242f429aa86f"},"vehicle_type_id":"4","last_reported":1767961443,"current_range_meters":5600,"station_id":"","pricing_plan_id":"cebpf4jnsgd1na2vs0mg"},{"bike_id":"bfd5a25c-0f25-4329-a75a-9448f37328a6","system_id":"levelo_inurba_marseille","lat":43.28932,"lon":5.36399,"is_reserved":false,"is_disabled":false,"rental_uris":{"android":"levelo://app?vid=bfd5a25c-0f25-4329-a75a-9448f37328a6","ios":"levelo://app?vid=bfd5a25c-0f25-4329-a75a-9448f37328a6"},"vehicle_type_id":"4","last_reported":1767961443,"current_range_meters":5600,"station_id":"ce4bhc92rcd13ifvqetg","pricing_plan_id":"cebpf4jnsgd1na2vs0mg"},{"bike_id":"ae6ca4f3-96d4-4b3a-aa4e-d27567662cca","system_id":"levelo_inurba_marseille","lat":43.24178,"lon":5.39724,"is_reserved":false,"is_disabled":false,"rental_uris":{"android":"levelo://app?vid=ae6ca4f3-96d4-4b3a-aa4e-d27567662cca","ios":"levelo://app?vid=ae6ca4f3-96d4-4b3a-aa4e-d27567662cca"},"vehicle_type_id":"4","last_reported":1767961443,"current_range_meters":5600,"station_id":"ce4bhn12rcd13ifvqgpg","pricing_plan_id":"cebpf4jnsgd1na2vs0mg"},{"bike_id":"9b21fb58-1ca0-4226-bc9d-2eb45c91c4c6","system_id":"levelo_inurba_marseille","lat":43.22553,"lon":5.41619,"is_reserved":false,"is_disabled":false,"rental_uris":{"android":"levelo://app?vid=9b21fb58-1ca0-4226-bc9d-2eb45c91c4c6","ios":"levelo://app?vid=9b21fb58-1ca0-4226-bc9d-2eb45c91c4c6"},"vehicle_type_id":"4","last_reported":1767961443,"current_range_meters":5600,"station_id":"st_d2o4gvlbi1j2169b742g","pricing_plan_id":"cebpf4jnsgd1na2vs0mg"},{"bike_id":"4b20838f-b85d-461c-ae45-5eafcd5b558e","system_id":"levelo_inurba_marseille","lat":43.31476,"lon":5.37312,"is_reserved":false,"is_disabled":false,"rental_uris":{"android":"levelo://app?vid=4b20838f-b85d-461c-ae45-5eafcd5b558e","ios":"levelo://app?vid=4b20838f-b85d-461c-ae45-5eafcd5b558e"},"vehicle_type_id":"4","last_reported":1767961443,"current_range_meters":5600,"station_id":"ce4bgt12rcd13ifvqcd0","pricing_plan_id":"cebpf4jnsgd1na2vs0mg"},{"bike_id":"67ab8f65-39a1-4633-95c4-dbd7a5762734","system_id":"levelo_inurba_marseille","lat":43.23777,"lon":5.36632,"is_reserved":false,"is_disabled":false,"rental_uris":{"android":"levelo://app?vid=67ab8f65-39a1-4633-95c4-dbd7a5762734","ios":"levelo://app?vid=67ab8f65-39a1-4633-95c4-dbd7a5762734"},"vehicle_type_id":"4","last_reported":1767961443,"current_range_meters":5600,"station_id":"st_d3nk18o9ro0c73en2l3g","pricing_plan_id":"cebpf4jnsgd1na2vs0mg"},{"bike_id":"0be2933b-3376-4854-8e8b-e51b6e23ecc1","system_id":"levelo_inurba_marseille","lat":43.292265,"lon":5.360651,"is_reserved":false,"is_disabled":false,"rental_uris":{"android":"levelo://app?vid=0be2933b-3376-4854-8e8b-e51b6e23ecc1","ios":"levelo://app?vid=0be2933b-3376-4854-8e8b-e51b6e23ecc1"},"vehicle_type_id":"4","last_reported":1767961443,"current_range_meters":6000,"station_id":"ce4bhbh2rcd13ifvqeqg","pricing_plan_id":"cebpf4jnsgd1na2vs0mg"},{"bike_id":"528852f0-b3e1-4361-91fd-d35d5de704d7","system_id":"levelo_inurba_marseille","lat":43.25519,"lon":5.37648,"is_reserved":false,"is_disabled":false,"rental_uris":{"android":"levelo://app?vid=528852f0-b3e1-4361-91fd-d35d5de704d7","ios":"levelo://app?vid=528852f0-b3e1-4361-91fd-d35d5de704d7"},"vehicle_type_id":"4","last_reported":1767961443,"current_range_meters":6000,"station_id":"ce4bhh12rcd13ifvqff0","pricing_plan_id":"cebpf4jnsgd1na2vs0mg"},{"bike_id":"07ce38ef-b77b-4e60-8d32-d85f5b3b47f2","system_id":"levelo_inurba_marseille","lat":43.3236,"lon":5.36726,"is_reserved":false,"is_disabled":false,"rental_uris":{"android":"levelo://app?vid=07ce38ef-b77b-4e60-8d32-d85f5b3b47f2","ios":"levelo://app?vid=07ce38ef-b77b-4e60-8d32-d85f5b3b47f2"},"vehicle_type_id":"4","last_reported":1767961443,"current_range_meters":6000,"station_id":"ce4bhsh2rcd13ifvqi2g","pricing_plan_id":"cebpf4jnsgd1na2vs0mg"},{"bike_id":"5e5460df-cd59-4086-88f7-5e8388049ced","system_id":"levelo_inurba_marseille","lat":43.29255,"lon":5.40132,"is_reserved":false,"is_disabled":true,"rental_uris":{"android":"levelo://app?vid=5e5460df-cd59-4086-88f7-5e8388049ced","ios":"levelo://app?vid=5e5460df-cd59-4086-88f7-5e8388049ced"},"vehicle_type_id":"4","last_reported":1767961443,"current_range_meters":6000,"station_id":"ce4bh312rcd13ifvqdk0","pricing_plan_id":"cebpf4jnsgd1na2vs0mg"},{"bike_id":"577b404b-63b1-4b8e-82e8-29162d5c26c7","system_id":"levelo_inurba_marseille","lat":43.32544,"lon":5.36516,"is_reserved":false,"is_disabled":false,"rental_uris":{"android":"levelo://app?vid=577b404b-63b1-4b8e-82e8-29162d5c26c7","ios":"levelo://app?vid=577b404b-63b1-4b8e-82e8-29162d5c26c7"},"vehicle_type_id":"4","last_reported":1767961443,"current_range_meters":6000,"station_id":"","pricing_plan_id":"cebpf4jnsgd1na2vs0mg"},{"bike_id":"03cfdbe3-43e3-422a-89c2-619c7a5fa13f","system_id":"levelo_inurba_marseille","lat":43.28723,"lon":5.37954,"is_reserved":false,"is_disabled":false,"rental_uris":{"android":"levelo://app?vid=03cfdbe3-43e3-422a-89c2-619c7a5fa13f","ios":"levelo://app?vid=03cfdbe3-43e3-422a-89c2-619c7a5fa13f"},"vehicle_type_id":"4","last_reported":1767961443,"current_range_meters":6000,"station_id":"ce4bh9p2rcd13ifvqec0","pricing_plan_id":"cebpf4jnsgd1na2vs0mg"},{"bike_id":"31447a0e-5f20-40ed-81c7-81b3e7eb8db6","system_id":"levelo_inurba_marseille","lat":43.31376,"lon":5.38595,"is_reserved":false,"is_disabled":false,"rental_uris":{"android":"levelo://app?vid=31447a0e-5f20-40ed-81c7-81b3e7eb8db6","ios":"levelo://app?vid=31447a0e-5f20-40ed-81c7-81b3e7eb8db6"},"vehicle_type_id":"4","last_reported":1767961443,"current_range_meters":6000,"station_id":"","pricing_plan_id":"cebpf4jnsgd1na2vs0mg"},{"bike_id":"57997491-6d3e-482c-9d76-5c92688e72f6","system_id":"levelo_inurba_marseille","lat":43.30463,"lon":5.37899,"is_reserved":false,"is_disabled":false,"rental_uris":{"android":"levelo://app?vid=57997491-6d3e-482c-9d76-5c92688e72f6","ios":"levelo://app?vid=57997491-6d3e-482c-9d76-5c92688e72f6"},"vehicle_type_id":"4","last_reported":1767961443,"current_range_meters":6000,"station_id":"ce4bgup2rcd13ifvqcn0","pricing_plan_id":"cebpf4jnsgd1na2vs0mg"},{"bike_id":"9db01230-3e0d-499f-b35f-35ed15c7baf5","system_id":"levelo_inurba_marseille","lat":43.305923,"lon":5.393586,"is_reserved":false,"is_disabled":false,"rental_uris":{"android":"levelo://app?vid=9db01230-3e0d-499f-b35f-35ed15c7baf5","ios":"levelo://app?vid=9db01230-3e0d-499f-b35f-35ed15c7baf5"},"vehicle_type_id":"4","last_reported":1767961443,"current_range_meters":6000,"station_id":"ce4bh0p2rcd13ifvqd80","pricing_plan_id":"cebpf4jnsgd1na2vs0mg"},{"bike_id":"d564640e-8980-4d50-9141-d01b2d41a726","system_id":"levelo_inurba_marseille","lat":43.24136,"lon":5.3644,"is_reserved":false,"is_disabled":false,"rental_uris":{"android":"levelo://app?vid=d564640e-8980-4d50-9141-d01b2d41a726","ios":"levelo://app?vid=d564640e-8980-4d50-9141-d01b2d41a726"},"vehicle_type_id":"4","last_reported":1767961443,"current_range_meters":6000,"station_id":"cpo36qri1sfpv3e86is0","pricing_plan_id":"cebpf4jnsgd1na2vs0mg"},{"bike_id":"748e6a5e-97a9-489d-8fdc-20f62045411a","system_id":"levelo_inurba_marseille","lat":43.289017,"lon":5.396867,"is_reserved":false,"is_disabled":false,"rental_uris":{"android":"levelo://app?vid=748e6a5e-97a9-489d-8fdc-20f62045411a","ios":"levelo://app?vid=748e6a5e-97a9-489d-8fdc-20f62045411a"},"vehicle_type_id":"4","last_reported":1767961443,"current_range_meters":6000,"station_id":"","pricing_plan_id":"cebpf4jnsgd1na2vs0mg"},{"bike_id":"3b4f2fe8-0449-4887-861d-72ca40af1148","system_id":"levelo_inurba_marseille","lat":43.30586,"lon":5.39346,"is_reserved":false,"is_disabled":false,"rental_uris":{"android":"levelo://app?vid=3b4f2fe8-0449-4887-861d-72ca40af1148","ios":"levelo://app?vid=3b4f2fe8-0449-4887-861d-72ca40af1148"},"vehicle_type_id":"4","last_reported":1767961443,"current_range_meters":6000,"station_id":"ce4bh0p2rcd13ifvqd80","pricing_plan_id":"cebpf4jnsgd1na2vs0mg"},{"bike_id":"cb20b229-de5b-4cb2-8047-c25da1b9ea11","system_id":"levelo_inurba_marseille","lat":43.30186,"lon":5.36618,"is_reserved":false,"is_disabled":false,"rental_uris":{"android":"levelo://app?vid=cb20b229-de5b-4cb2-8047-c25da1b9ea11","ios":"levelo://app?vid=cb20b229-de5b-4cb2-8047-c25da1b9ea11"},"vehicle_type_id":"4","last_reported":1767961443,"current_range_meters":6000,"station_id":"ce4bgrh2rcd13ifvqc8g","pricing_plan_id":"cebpf4jnsgd1na2vs0mg"},{"bike_id":"f8739a78-ccd5-4f03-b134-bacebcc9d5a7","system_id":"levelo_inurba_marseille","lat":43.30204,"lon":5.39425,"is_reserved":false,"is_disabled":false,"rental_uris":{"android":"levelo://app?vid=f8739a78-ccd5-4f03-b134-bacebcc9d5a7","ios":"levelo://app?vid=f8739a78-ccd5-4f03-b134-bacebcc9d5a7"},"vehicle_type_id":"4","last_reported":1767961443,"current_range_meters":6400,"station_id":"ce4bh0p2rcd13ifvqd70","pricing_plan_id":"cebpf4jnsgd1na2vs0mg"},{"bike_id":"a947241a-d3af-4302-a18c-3fd572da3e9b","system_id":"levelo_inurba_marseille","lat":43.26019,"lon":5.37574,"is_reserved":false,"is_disabled":false,"rental_uris":{"android":"levelo://app?vid=a947241a-d3af-4302-a18c-3fd572da3e9b","ios":"levelo://app?vid=a947241a-d3af-4302-a18c-3fd572da3e9b"},"vehicle_type_id":"4","last_reported":1767961443,"current_range_meters":6400,"station_id":"ce4bhgh2rcd13ifvqfa0","pricing_plan_id":"cebpf4jnsgd1na2vs0mg"},{"bike_id":"30c1554a-5a63-48b6-a122-23d1d5bc5565","system_id":"levelo_inurba_marseille","lat":43.29628,"lon":5.37789,"is_reserved":false,"is_disabled":false,"rental_uris":{"android":"levelo://app?vid=30c1554a-5a63-48b6-a122-23d1d5bc5565","ios":"levelo://app?vid=30c1554a-5a63-48b6-a122-23d1d5bc5565"},"vehicle_type_id":"4","last_reported":1767961443,"current_range_meters":6400,"station_id":"","pricing_plan_id":"cebpf4jnsgd1na2vs0mg"},{"bike_id":"57aa5ac2-23db-4768-b571-1d1bb04178da","system_id":"levelo_inurba_marseille","lat":43.31067,"lon":5.37166,"is_reserved":false,"is_disabled":false,"rental_uris":{"android":"levelo://app?vid=57aa5ac2-23db-4768-b571-1d1bb04178da","ios":"levelo://app?vid=57aa5ac2-23db-4768-b571-1d1bb04178da"},"vehicle_type_id":"4","last_reported":1767961443,"current_range_meters":6400,"station_id":"st_d4kl2rp97mjs73e7tdfg","pricing_plan_id":"cebpf4jnsgd1na2vs0mg"},{"bike_id":"b2a3da8f-bf56-4eb9-9359-d00614059d44","system_id":"levelo_inurba_marseille","lat":43.29063,"lon":5.38089,"is_reserved":false,"is_disabled":false,"rental_uris":{"android":"levelo://app?vid=b2a3da8f-bf56-4eb9-9359-d00614059d44","ios":"levelo://app?vid=b2a3da8f-bf56-4eb9-9359-d00614059d44"},"vehicle_type_id":"4","last_reported":1767961443,"current_range_meters":6400,"station_id":"","pricing_plan_id":"cebpf4jnsgd1na2vs0mg"},{"bike_id":"7017533d-0e6f-4a91-bdf9-4569e8a4b13c","system_id":"levelo_inurba_marseille","lat":43.30953,"lon":5.39005,"is_reserved":false,"is_disabled":false,"rental_uris":{"android":"levelo://app?vid=7017533d-0e6f-4a91-bdf9-4569e8a4b13c","ios":"levelo://app?vid=7017533d-0e6f-4a91-bdf9-4569e8a4b13c"},"vehicle_type_id":"4","last_reported":1767961443,"current_range_meters":6400,"station_id":"ce4bgup2rcd13ifvqco0","pricing_plan_id":"cebpf4jnsgd1na2vs0mg"},{"bike_id":"cb54f6e5-9911-4432-98fa-33b8ae0da364","system_id":"levelo_inurba_marseille","lat":43.26564,"lon":5.39002,"is_reserved":false,"is_disabled":false,"rental_uris":{"android":"levelo://app?vid=cb54f6e5-9911-4432-98fa-33b8ae0da364","ios":"levelo://app?vid=cb54f6e5-9911-4432-98fa-33b8ae0da364"},"vehicle_type_id":"4","last_reported":1767961443,"current_range_meters":6400,"station_id":"ce4bhe12rcd13ifvqf30","pricing_plan_id":"cebpf4jnsgd1na2vs0mg"},{"bike_id":"7a2db32e-cf3a-409e-bb36-047869209912","system_id":"levelo_inurba_marseille","lat":43.26224,"lon":5.3744,"is_reserved":false,"is_disabled":false,"rental_uris":{"android":"levelo://app?vid=7a2db32e-cf3a-409e-bb36-047869209912","ios":"levelo://app?vid=7a2db32e-cf3a-409e-bb36-047869209912"},"vehicle_type_id":"4","last_reported":1767961443,"current_range_meters":6400,"station_id":"ce4bhgp2rcd13ifvqfc0","pricing_plan_id":"cebpf4jnsgd1na2vs0mg"},{"bike_id":"2a431cde-bb0d-4f71-a36c-aadf5d3f22c1","system_id":"levelo_inurba_marseille","lat":43.29562,"lon":5.37517,"is_reserved":false,"is_disabled":false,"rental_uris":{"android":"levelo://app?vid=2a431cde-bb0d-4f71-a36c-aadf5d3f22c1","ios":"levelo://app?vid=2a431cde-bb0d-4f71-a36c-aadf5d3f22c1"},"vehicle_type_id":"4","last_reported":1767961443,"current_range_meters":6400,"station_id":"ce4bgh92rcd13ifvqb50","pricing_plan_id":"cebpf4jnsgd1na2vs0mg"},{"bike_id":"0d6a9a04-1891-48de-b8dc-a5fb353d9b7e","system_id":"levelo_inurba_marseille","lat":43.28975,"lon":5.35804,"is_reserved":false,"is_disabled":false,"rental_uris":{"android":"levelo://app?vid=0d6a9a04-1891-48de-b8dc-a5fb353d9b7e","ios":"levelo://app?vid=0d6a9a04-1891-48de-b8dc-a5fb353d9b7e"},"vehicle_type_id":"4","last_reported":1767961443,"current_range_meters":6400,"station_id":"","pricing_plan_id":"cebpf4jnsgd1na2vs0mg"},{"bike_id":"c6c13c60-a4a2-4874-91a0-6e6a61fb368b","system_id":"levelo_inurba_marseille","lat":43.25921,"lon":5.409072,"is_reserved":false,"is_disabled":false,"rental_uris":{"android":"levelo://app?vid=c6c13c60-a4a2-4874-91a0-6e6a61fb368b","ios":"levelo://app?vid=c6c13c60-a4a2-4874-91a0-6e6a61fb368b"},"vehicle_type_id":"4","last_reported":1767961443,"current_range_meters":6400,"station_id":"ce4bhm92rcd13ifvqglg","pricing_plan_id":"cebpf4jnsgd1na2vs0mg"},{"bike_id":"db48f5d2-782d-4526-96cf-9084f926b628","system_id":"levelo_inurba_marseille","lat":43.307257,"lon":5.424379,"is_reserved":false,"is_disabled":false,"rental_uris":{"android":"levelo://app?vid=db48f5d2-782d-4526-96cf-9084f926b628","ios":"levelo://app?vid=db48f5d2-782d-4526-96cf-9084f926b628"},"vehicle_type_id":"4","last_reported":1767961443,"current_range_meters":6400,"station_id":"st_cvj6ca6bvosntc0bfgr0","pricing_plan_id":"cebpf4jnsgd1na2vs0mg"},{"bike_id":"84be322d-3f5a-42b3-b4ff-9332fdae0ce8","system_id":"levelo_inurba_marseille","lat":43.33154,"lon":5.37704,"is_reserved":false,"is_disabled":false,"rental_uris":{"android":"levelo://app?vid=84be322d-3f5a-42b3-b4ff-9332fdae0ce8","ios":"levelo://app?vid=84be322d-3f5a-42b3-b4ff-9332fdae0ce8"},"vehicle_type_id":"4","last_reported":1767961443,"current_range_meters":6400,"station_id":"st_d46cu089ee8s73dldbu0","pricing_plan_id":"cebpf4jnsgd1na2vs0mg"},{"bike_id":"e4b543e4-7198-4112-93ae-6c25b36bd4a3","system_id":"levelo_inurba_marseille","lat":43.23784,"lon":5.3663,"is_reserved":false,"is_disabled":false,"rental_uris":{"android":"levelo://app?vid=e4b543e4-7198-4112-93ae-6c25b36bd4a3","ios":"levelo://app?vid=e4b543e4-7198-4112-93ae-6c25b36bd4a3"},"vehicle_type_id":"4","last_reported":1767961443,"current_range_meters":6400,"station_id":"st_d3nk18o9ro0c73en2l3g","pricing_plan_id":"cebpf4jnsgd1na2vs0mg"},{"bike_id":"ee6e2cb0-3438-450d-a7e5-bdd8563f0fbe","system_id":"levelo_inurba_marseille","lat":43.248,"lon":5.3746,"is_reserved":false,"is_disabled":false,"rental_uris":{"android":"levelo://app?vid=ee6e2cb0-3438-450d-a7e5-bdd8563f0fbe","ios":"levelo://app?vid=ee6e2cb0-3438-450d-a7e5-bdd8563f0fbe"},"vehicle_type_id":"4","last_reported":1767961443,"current_range_meters":6400,"station_id":"ce4bhgh2rcd13ifvqfb0","pricing_plan_id":"cebpf4jnsgd1na2vs0mg"},{"bike_id":"3a06fe85-1ecd-4ed3-b577-ae0d63dfc1d8","system_id":"levelo_inurba_marseille","lat":43.28933,"lon":5.36644,"is_reserved":false,"is_disabled":false,"rental_uris":{"android":"levelo://app?vid=3a06fe85-1ecd-4ed3-b577-ae0d63dfc1d8","ios":"levelo://app?vid=3a06fe85-1ecd-4ed3-b577-ae0d63dfc1d8"},"vehicle_type_id":"4","last_reported":1767961443,"current_range_meters":6400,"station_id":"ce4bhap2rcd13ifvqek0","pricing_plan_id":"cebpf4jnsgd1na2vs0mg"},{"bike_id":"0e99465e-2bb5-488d-b976-edf09fa35009","system_id":"levelo_inurba_marseille","lat":43.24651,"lon":5.38882,"is_reserved":false,"is_disabled":false,"rental_uris":{"android":"levelo://app?vid=0e99465e-2bb5-488d-b976-edf09fa35009","ios":"levelo://app?vid=0e99465e-2bb5-488d-b976-edf09fa35009"},"vehicle_type_id":"4","last_reported":1767961443,"current_range_meters":6400,"station_id":"ce4bhg12rcd13ifvqf60","pricing_plan_id":"cebpf4jnsgd1na2vs0mg"},{"bike_id":"203901a8-7796-462c-b8ca-ce985701687f","system_id":"levelo_inurba_marseille","lat":43.28046,"lon":5.39924,"is_reserved":false,"is_disabled":false,"rental_uris":{"android":"levelo://app?vid=203901a8-7796-462c-b8ca-ce985701687f","ios":"levelo://app?vid=203901a8-7796-462c-b8ca-ce985701687f"},"vehicle_type_id":"4","last_reported":1767961443,"current_range_meters":6400,"station_id":"","pricing_plan_id":"cebpf4jnsgd1na2vs0mg"},{"bike_id":"0f003947-35f3-407d-841f-7fac78f83875","system_id":"levelo_inurba_marseille","lat":43.279916,"lon":5.416684,"is_reserved":false,"is_disabled":false,"rental_uris":{"android":"levelo://app?vid=0f003947-35f3-407d-841f-7fac78f83875","ios":"levelo://app?vid=0f003947-35f3-407d-841f-7fac78f83875"},"vehicle_type_id":"4","last_reported":1767961443,"current_range_meters":6400,"station_id":"ce4bho12rcd13ifvqh1g","pricing_plan_id":"cebpf4jnsgd1na2vs0mg"},{"bike_id":"0e7e919c-83a3-45be-90bf-dcf29db4b4ea","system_id":"levelo_inurba_marseille","lat":43.32343,"lon":5.36721,"is_reserved":false,"is_disabled":false,"rental_uris":{"android":"levelo://app?vid=0e7e919c-83a3-45be-90bf-dcf29db4b4ea","ios":"levelo://app?vid=0e7e919c-83a3-45be-90bf-dcf29db4b4ea"},"vehicle_type_id":"4","last_reported":1767961443,"current_range_meters":6800,"station_id":"ce4bhsh2rcd13ifvqi2g","pricing_plan_id":"cebpf4jnsgd1na2vs0mg"},{"bike_id":"34bdaf2f-5a72-4bb9-90ad-0bef4b8c6c07","system_id":"levelo_inurba_marseille","lat":43.2799,"lon":5.41673,"is_reserved":false,"is_disabled":false,"rental_uris":{"android":"levelo://app?vid=34bdaf2f-5a72-4bb9-90ad-0bef4b8c6c07","ios":"levelo://app?vid=34bdaf2f-5a72-4bb9-90ad-0bef4b8c6c07"},"vehicle_type_id":"4","last_reported":1767961443,"current_range_meters":6800,"station_id":"ce4bho12rcd13ifvqh1g","pricing_plan_id":"cebpf4jnsgd1na2vs0mg"},{"bike_id":"20506ba6-5698-4c8c-9176-c77dea2f7a96","system_id":"levelo_inurba_marseille","lat":43.24061,"lon":5.37767,"is_reserved":false,"is_disabled":false,"rental_uris":{"android":"levelo://app?vid=20506ba6-5698-4c8c-9176-c77dea2f7a96","ios":"levelo://app?vid=20506ba6-5698-4c8c-9176-c77dea2f7a96"},"vehicle_type_id":"4","last_reported":1767961443,"current_range_meters":6800,"station_id":"ce4bhnp2rcd13ifvqgvg","pricing_plan_id":"cebpf4jnsgd1na2vs0mg"},{"bike_id":"b7dddc8e-ff5d-458a-a8d3-88dc4e34e930","system_id":"levelo_inurba_marseille","lat":43.273721,"lon":5.362588,"is_reserved":false,"is_disabled":false,"rental_uris":{"android":"levelo://app?vid=b7dddc8e-ff5d-458a-a8d3-88dc4e34e930","ios":"levelo://app?vid=b7dddc8e-ff5d-458a-a8d3-88dc4e34e930"},"vehicle_type_id":"4","last_reported":1767961443,"current_range_meters":6800,"station_id":"ce4bhbh2rcd13ifvqeo0","pricing_plan_id":"cebpf4jnsgd1na2vs0mg"},{"bike_id":"19c90349-756f-4679-a530-ebef5565e237","system_id":"levelo_inurba_marseille","lat":43.323506,"lon":5.367324,"is_reserved":false,"is_disabled":false,"rental_uris":{"android":"levelo://app?vid=19c90349-756f-4679-a530-ebef5565e237","ios":"levelo://app?vid=19c90349-756f-4679-a530-ebef5565e237"},"vehicle_type_id":"4","last_reported":1767961443,"current_range_meters":6800,"station_id":"ce4bhsh2rcd13ifvqi2g","pricing_plan_id":"cebpf4jnsgd1na2vs0mg"},{"bike_id":"c674c454-2af5-49f7-821c-c3b83a90b616","system_id":"levelo_inurba_marseille","lat":43.31145,"lon":5.40712,"is_reserved":false,"is_disabled":false,"rental_uris":{"android":"levelo://app?vid=c674c454-2af5-49f7-821c-c3b83a90b616","ios":"levelo://app?vid=c674c454-2af5-49f7-821c-c3b83a90b616"},"vehicle_type_id":"4","last_reported":1767961443,"current_range_meters":6800,"station_id":"","pricing_plan_id":"cebpf4jnsgd1na2vs0mg"},{"bike_id":"708fa082-0c9b-4653-ac5f-bf6a01c9e532","system_id":"levelo_inurba_marseille","lat":43.25938,"lon":5.40894,"is_reserved":false,"is_disabled":false,"rental_uris":{"android":"levelo://app?vid=708fa082-0c9b-4653-ac5f-bf6a01c9e532","ios":"levelo://app?vid=708fa082-0c9b-4653-ac5f-bf6a01c9e532"},"vehicle_type_id":"4","last_reported":1767961443,"current_range_meters":6800,"station_id":"ce4bhm92rcd13ifvqglg","pricing_plan_id":"cebpf4jnsgd1na2vs0mg"},{"bike_id":"59778b0c-dfa3-463a-837d-e252afe5b329","system_id":"levelo_inurba_marseille","lat":43.26377,"lon":5.41056,"is_reserved":false,"is_disabled":false,"rental_uris":{"android":"levelo://app?vid=59778b0c-dfa3-463a-837d-e252afe5b329","ios":"levelo://app?vid=59778b0c-dfa3-463a-837d-e252afe5b329"},"vehicle_type_id":"4","last_reported":1767961443,"current_range_meters":6800,"station_id":"st_d4e5ca6na9uc73bfl5fg","pricing_plan_id":"cebpf4jnsgd1na2vs0mg"},{"bike_id":"18afa7e5-a060-43b9-bd3e-ab224bbb7669","system_id":"levelo_inurba_marseille","lat":43.28856,"lon":5.42516,"is_reserved":false,"is_disabled":false,"rental_uris":{"android":"levelo://app?vid=18afa7e5-a060-43b9-bd3e-ab224bbb7669","ios":"levelo://app?vid=18afa7e5-a060-43b9-bd3e-ab224bbb7669"},"vehicle_type_id":"4","last_reported":1767961443,"current_range_meters":6800,"station_id":"st_d3b462108ojc7389ooeg","pricing_plan_id":"cebpf4jnsgd1na2vs0mg"},{"bike_id":"73311dd9-ce76-4424-880c-4c44988d4f09","system_id":"levelo_inurba_marseille","lat":43.24963,"lon":5.40503,"is_reserved":false,"is_disabled":false,"rental_uris":{"android":"levelo://app?vid=73311dd9-ce76-4424-880c-4c44988d4f09","ios":"levelo://app?vid=73311dd9-ce76-4424-880c-4c44988d4f09"},"vehicle_type_id":"4","last_reported":1767961443,"current_range_meters":6800,"station_id":"st_d2ngiaodas8pm72gd1h0","pricing_plan_id":"cebpf4jnsgd1na2vs0mg"},{"bike_id":"7873a432-75ba-46ba-a34c-4dc6ef756fe4","system_id":"levelo_inurba_marseille","lat":43.337444,"lon":5.374475,"is_reserved":false,"is_disabled":false,"rental_uris":{"android":"levelo://app?vid=7873a432-75ba-46ba-a34c-4dc6ef756fe4","ios":"levelo://app?vid=7873a432-75ba-46ba-a34c-4dc6ef756fe4"},"vehicle_type_id":"4","last_reported":1767961443,"current_range_meters":6800,"station_id":"","pricing_plan_id":"cebpf4jnsgd1na2vs0mg"},{"bike_id":"2ce5425d-5b38-4acd-a6e9-bb0d6532119b","system_id":"levelo_inurba_marseille","lat":43.29894,"lon":5.43691,"is_reserved":false,"is_disabled":false,"rental_uris":{"android":"levelo://app?vid=2ce5425d-5b38-4acd-a6e9-bb0d6532119b","ios":"levelo://app?vid=2ce5425d-5b38-4acd-a6e9-bb0d6532119b"},"vehicle_type_id":"4","last_reported":1767961443,"current_range_meters":6800,"station_id":"ce4bhpp2rcd13ifvqhfg","pricing_plan_id":"cebpf4jnsgd1na2vs0mg"},{"bike_id":"49693813-6422-4c0b-883f-2f9444f40ff2","system_id":"levelo_inurba_marseille","lat":43.25496,"lon":5.37635,"is_reserved":false,"is_disabled":false,"rental_uris":{"android":"levelo://app?vid=49693813-6422-4c0b-883f-2f9444f40ff2","ios":"levelo://app?vid=49693813-6422-4c0b-883f-2f9444f40ff2"},"vehicle_type_id":"4","last_reported":1767961443,"current_range_meters":6800,"station_id":"ce4bhh12rcd13ifvqff0","pricing_plan_id":"cebpf4jnsgd1na2vs0mg"},{"bike_id":"38f34c0b-018a-4a87-9b2b-2105aec61656","system_id":"levelo_inurba_marseille","lat":43.24169,"lon":5.39714,"is_reserved":false,"is_disabled":false,"rental_uris":{"android":"levelo://app?vid=38f34c0b-018a-4a87-9b2b-2105aec61656","ios":"levelo://app?vid=38f34c0b-018a-4a87-9b2b-2105aec61656"},"vehicle_type_id":"4","last_reported":1767961443,"current_range_meters":6800,"station_id":"ce4bhn12rcd13ifvqgpg","pricing_plan_id":"cebpf4jnsgd1na2vs0mg"},{"bike_id":"85ec619e-5ea0-4fca-a7de-dd41384f5c43","system_id":"levelo_inurba_marseille","lat":43.26543,"lon":5.37301,"is_reserved":false,"is_disabled":false,"rental_uris":{"android":"levelo://app?vid=85ec619e-5ea0-4fca-a7de-dd41384f5c43","ios":"levelo://app?vid=85ec619e-5ea0-4fca-a7de-dd41384f5c43"},"vehicle_type_id":"4","last_reported":1767961443,"current_range_meters":6800,"station_id":"ce4bhg12rcd13ifvqf70","pricing_plan_id":"cebpf4jnsgd1na2vs0mg"},{"bike_id":"a8e18155-d5ce-4d37-9cc5-12efc31f909e","system_id":"levelo_inurba_marseille","lat":43.241638,"lon":5.364018,"is_reserved":false,"is_disabled":false,"rental_uris":{"android":"levelo://app?vid=a8e18155-d5ce-4d37-9cc5-12efc31f909e","ios":"levelo://app?vid=a8e18155-d5ce-4d37-9cc5-12efc31f909e"},"vehicle_type_id":"4","last_reported":1767961443,"current_range_meters":6800,"station_id":"cpo36qri1sfpv3e86is0","pricing_plan_id":"cebpf4jnsgd1na2vs0mg"},{"bike_id":"883431cb-1860-4e61-a523-8898082708c5","system_id":"levelo_inurba_marseille","lat":43.286133,"lon":5.351099,"is_reserved":false,"is_disabled":false,"rental_uris":{"android":"levelo://app?vid=883431cb-1860-4e61-a523-8898082708c5","ios":"levelo://app?vid=883431cb-1860-4e61-a523-8898082708c5"},"vehicle_type_id":"4","last_reported":1767961443,"current_range_meters":6800,"station_id":"ce4bh3p2rcd13ifvqdq0","pricing_plan_id":"cebpf4jnsgd1na2vs0mg"},{"bike_id":"4e41aa3b-9162-476b-82f4-857ae55d1a75","system_id":"levelo_inurba_marseille","lat":43.32353,"lon":5.36753,"is_reserved":false,"is_disabled":false,"rental_uris":{"android":"levelo://app?vid=4e41aa3b-9162-476b-82f4-857ae55d1a75","ios":"levelo://app?vid=4e41aa3b-9162-476b-82f4-857ae55d1a75"},"vehicle_type_id":"4","last_reported":1767961443,"current_range_meters":6800,"station_id":"ce4bhsh2rcd13ifvqi2g","pricing_plan_id":"cebpf4jnsgd1na2vs0mg"},{"bike_id":"eb809e38-a28d-4043-9e39-92f933e79a29","system_id":"levelo_inurba_marseille","lat":43.30137,"lon":5.37409,"is_reserved":false,"is_disabled":false,"rental_uris":{"android":"levelo://app?vid=eb809e38-a28d-4043-9e39-92f933e79a29","ios":"levelo://app?vid=eb809e38-a28d-4043-9e39-92f933e79a29"},"vehicle_type_id":"4","last_reported":1767961443,"current_range_meters":6800,"station_id":"ce4bgs92rcd13ifvqcc0","pricing_plan_id":"cebpf4jnsgd1na2vs0mg"},{"bike_id":"c103346d-3384-4b83-9ff8-dff851f4fdfe","system_id":"levelo_inurba_marseille","lat":43.31411,"lon":5.38115,"is_reserved":false,"is_disabled":false,"rental_uris":{"android":"levelo://app?vid=c103346d-3384-4b83-9ff8-dff851f4fdfe","ios":"levelo://app?vid=c103346d-3384-4b83-9ff8-dff851f4fdfe"},"vehicle_type_id":"4","last_reported":1767961443,"current_range_meters":6800,"station_id":"","pricing_plan_id":"cebpf4jnsgd1na2vs0mg"},{"bike_id":"713202e1-eaed-4067-ab17-b43e53314e08","system_id":"levelo_inurba_marseille","lat":43.30146,"lon":5.38081,"is_reserved":false,"is_disabled":false,"rental_uris":{"android":"levelo://app?vid=713202e1-eaed-4067-ab17-b43e53314e08","ios":"levelo://app?vid=713202e1-eaed-4067-ab17-b43e53314e08"},"vehicle_type_id":"4","last_reported":1767961443,"current_range_meters":6800,"station_id":"ce4bgjp2rcd13ifvqbh0","pricing_plan_id":"cebpf4jnsgd1na2vs0mg"},{"bike_id":"9a84455d-66b0-4d3f-8c81-d289293761d8","system_id":"levelo_inurba_marseille","lat":43.24167,"lon":5.36397,"is_reserved":false,"is_disabled":false,"rental_uris":{"android":"levelo://app?vid=9a84455d-66b0-4d3f-8c81-d289293761d8","ios":"levelo://app?vid=9a84455d-66b0-4d3f-8c81-d289293761d8"},"vehicle_type_id":"4","last_reported":1767961443,"current_range_meters":6800,"station_id":"cpo36qri1sfpv3e86is0","pricing_plan_id":"cebpf4jnsgd1na2vs0mg"},{"bike_id":"30766c8d-7152-4f81-b59b-1c1a2aaa508d","system_id":"levelo_inurba_marseille","lat":43.30091,"lon":5.36667,"is_reserved":false,"is_disabled":false,"rental_uris":{"android":"levelo://app?vid=30766c8d-7152-4f81-b59b-1c1a2aaa508d","ios":"levelo://app?vid=30766c8d-7152-4f81-b59b-1c1a2aaa508d"},"vehicle_type_id":"4","last_reported":1767961443,"current_range_meters":7200,"station_id":"","pricing_plan_id":"cebpf4jnsgd1na2vs0mg"},{"bike_id":"aa186435-cc03-4095-aab3-165e1212d005","system_id":"levelo_inurba_marseille","lat":43.32354,"lon":5.36736,"is_reserved":false,"is_disabled":false,"rental_uris":{"android":"levelo://app?vid=aa186435-cc03-4095-aab3-165e1212d005","ios":"levelo://app?vid=aa186435-cc03-4095-aab3-165e1212d005"},"vehicle_type_id":"4","last_reported":1767961443,"current_range_meters":7200,"station_id":"ce4bhsh2rcd13ifvqi2g","pricing_plan_id":"cebpf4jnsgd1na2vs0mg"},{"bike_id":"b64e452a-bec0-47a7-9fd3-b6c2486866f5","system_id":"levelo_inurba_marseille","lat":43.28454,"lon":5.48371,"is_reserved":false,"is_disabled":false,"rental_uris":{"android":"levelo://app?vid=b64e452a-bec0-47a7-9fd3-b6c2486866f5","ios":"levelo://app?vid=b64e452a-bec0-47a7-9fd3-b6c2486866f5"},"vehicle_type_id":"4","last_reported":1767961443,"current_range_meters":7200,"station_id":"st_d3svhcjqgbts73a3dn0g","pricing_plan_id":"cebpf4jnsgd1na2vs0mg"},{"bike_id":"b4702897-d3f0-43ef-959b-855897d2b5ad","system_id":"levelo_inurba_marseille","lat":43.265456,"lon":5.372963,"is_reserved":false,"is_disabled":false,"rental_uris":{"android":"levelo://app?vid=b4702897-d3f0-43ef-959b-855897d2b5ad","ios":"levelo://app?vid=b4702897-d3f0-43ef-959b-855897d2b5ad"},"vehicle_type_id":"4","last_reported":1767961443,"current_range_meters":7200,"station_id":"ce4bhg12rcd13ifvqf70","pricing_plan_id":"cebpf4jnsgd1na2vs0mg"},{"bike_id":"0eb5c5de-e526-4531-ad17-62b9b5ba50f9","system_id":"levelo_inurba_marseille","lat":43.23202,"lon":5.35557,"is_reserved":false,"is_disabled":false,"rental_uris":{"android":"levelo://app?vid=0eb5c5de-e526-4531-ad17-62b9b5ba50f9","ios":"levelo://app?vid=0eb5c5de-e526-4531-ad17-62b9b5ba50f9"},"vehicle_type_id":"4","last_reported":1767961443,"current_range_meters":7200,"station_id":"ce4bhu92rcd13ifvqi70","pricing_plan_id":"cebpf4jnsgd1na2vs0mg"},{"bike_id":"339c8ef3-a6e8-4b36-abce-e5bab7284546","system_id":"levelo_inurba_marseille","lat":43.29181,"lon":5.37145,"is_reserved":false,"is_disabled":false,"rental_uris":{"android":"levelo://app?vid=339c8ef3-a6e8-4b36-abce-e5bab7284546","ios":"levelo://app?vid=339c8ef3-a6e8-4b36-abce-e5bab7284546"},"vehicle_type_id":"4","last_reported":1767961443,"current_range_meters":7200,"station_id":"ce4bha92rcd13ifvqeh0","pricing_plan_id":"cebpf4jnsgd1na2vs0mg"},{"bike_id":"6fad9ca1-61fd-4cab-8c8e-75dda08e921f","system_id":"levelo_inurba_marseille","lat":43.31919,"lon":5.37323,"is_reserved":false,"is_disabled":false,"rental_uris":{"android":"levelo://app?vid=6fad9ca1-61fd-4cab-8c8e-75dda08e921f","ios":"levelo://app?vid=6fad9ca1-61fd-4cab-8c8e-75dda08e921f"},"vehicle_type_id":"4","last_reported":1767961443,"current_range_meters":7200,"station_id":"","pricing_plan_id":"cebpf4jnsgd1na2vs0mg"},{"bike_id":"3b0c044b-cff7-4737-b3af-017df77671fe","system_id":"levelo_inurba_marseille","lat":43.27995,"lon":5.41665,"is_reserved":false,"is_disabled":false,"rental_uris":{"android":"levelo://app?vid=3b0c044b-cff7-4737-b3af-017df77671fe","ios":"levelo://app?vid=3b0c044b-cff7-4737-b3af-017df77671fe"},"vehicle_type_id":"4","last_reported":1767961443,"current_range_meters":7200,"station_id":"ce4bho12rcd13ifvqh1g","pricing_plan_id":"cebpf4jnsgd1na2vs0mg"},{"bike_id":"41d6a340-d656-4e1d-b151-37314e9070c1","system_id":"levelo_inurba_marseille","lat":43.276205,"lon":5.361075,"is_reserved":false,"is_disabled":false,"rental_uris":{"android":"levelo://app?vid=41d6a340-d656-4e1d-b151-37314e9070c1","ios":"levelo://app?vid=41d6a340-d656-4e1d-b151-37314e9070c1"},"vehicle_type_id":"4","last_reported":1767961443,"current_range_meters":7200,"station_id":"","pricing_plan_id":"cebpf4jnsgd1na2vs0mg"},{"bike_id":"911fe496-38a7-4a4f-92f2-ca45ed43770b","system_id":"levelo_inurba_marseille","lat":43.24658,"lon":5.38145,"is_reserved":false,"is_disabled":false,"rental_uris":{"android":"levelo://app?vid=911fe496-38a7-4a4f-92f2-ca45ed43770b","ios":"levelo://app?vid=911fe496-38a7-4a4f-92f2-ca45ed43770b"},"vehicle_type_id":"4","last_reported":1767961443,"current_range_meters":7200,"station_id":"ce4bhih2rcd13ifvqfr0","pricing_plan_id":"cebpf4jnsgd1na2vs0mg"},{"bike_id":"a14ad7f9-bf16-4829-9533-365e7ac50c2f","system_id":"levelo_inurba_marseille","lat":43.3209,"lon":5.3678,"is_reserved":false,"is_disabled":false,"rental_uris":{"android":"levelo://app?vid=a14ad7f9-bf16-4829-9533-365e7ac50c2f","ios":"levelo://app?vid=a14ad7f9-bf16-4829-9533-365e7ac50c2f"},"vehicle_type_id":"4","last_reported":1767961443,"current_range_meters":7200,"station_id":"ce4bhrh2rcd13ifvqhug","pricing_plan_id":"cebpf4jnsgd1na2vs0mg"},{"bike_id":"f58d6f7b-cbb0-4399-a343-55040a73d9f6","system_id":"levelo_inurba_marseille","lat":43.25336,"lon":5.42163,"is_reserved":false,"is_disabled":false,"rental_uris":{"android":"levelo://app?vid=f58d6f7b-cbb0-4399-a343-55040a73d9f6","ios":"levelo://app?vid=f58d6f7b-cbb0-4399-a343-55040a73d9f6"},"vehicle_type_id":"4","last_reported":1767961443,"current_range_meters":7200,"station_id":"st_d2m65c5bi1j21697t3ng","pricing_plan_id":"cebpf4jnsgd1na2vs0mg"},{"bike_id":"baa1156a-155c-4625-a9d3-27c9511e7ffa","system_id":"levelo_inurba_marseille","lat":43.30329,"lon":5.374,"is_reserved":false,"is_disabled":false,"rental_uris":{"android":"levelo://app?vid=baa1156a-155c-4625-a9d3-27c9511e7ffa","ios":"levelo://app?vid=baa1156a-155c-4625-a9d3-27c9511e7ffa"},"vehicle_type_id":"4","last_reported":1767961443,"current_range_meters":7200,"station_id":"","pricing_plan_id":"cebpf4jnsgd1na2vs0mg"},{"bike_id":"9820178b-b75c-418b-8f16-c5982ab0999b","system_id":"levelo_inurba_marseille","lat":43.27917,"lon":5.39578,"is_reserved":false,"is_disabled":false,"rental_uris":{"android":"levelo://app?vid=9820178b-b75c-418b-8f16-c5982ab0999b","ios":"levelo://app?vid=9820178b-b75c-418b-8f16-c5982ab0999b"},"vehicle_type_id":"4","last_reported":1767961443,"current_range_meters":7200,"station_id":"ce4bhf92rcd13ifvqf40","pricing_plan_id":"cebpf4jnsgd1na2vs0mg"},{"bike_id":"d62b1dd7-04ea-48f5-a204-d6921ceaf13e","system_id":"levelo_inurba_marseille","lat":43.2416,"lon":5.36388,"is_reserved":false,"is_disabled":false,"rental_uris":{"android":"levelo://app?vid=d62b1dd7-04ea-48f5-a204-d6921ceaf13e","ios":"levelo://app?vid=d62b1dd7-04ea-48f5-a204-d6921ceaf13e"},"vehicle_type_id":"4","last_reported":1767961443,"current_range_meters":7200,"station_id":"cpo36qri1sfpv3e86is0","pricing_plan_id":"cebpf4jnsgd1na2vs0mg"},{"bike_id":"8b697a24-51a2-452a-93c9-5c0c040134d0","system_id":"levelo_inurba_marseille","lat":43.322227,"lon":5.394313,"is_reserved":false,"is_disabled":false,"rental_uris":{"android":"levelo://app?vid=8b697a24-51a2-452a-93c9-5c0c040134d0","ios":"levelo://app?vid=8b697a24-51a2-452a-93c9-5c0c040134d0"},"vehicle_type_id":"4","last_reported":1767961443,"current_range_meters":7200,"station_id":"","pricing_plan_id":"cebpf4jnsgd1na2vs0mg"},{"bike_id":"1e8843fa-ed9e-4f6c-ad7f-bb6efec177b1","system_id":"levelo_inurba_marseille","lat":43.26385,"lon":5.41062,"is_reserved":false,"is_disabled":false,"rental_uris":{"android":"levelo://app?vid=1e8843fa-ed9e-4f6c-ad7f-bb6efec177b1","ios":"levelo://app?vid=1e8843fa-ed9e-4f6c-ad7f-bb6efec177b1"},"vehicle_type_id":"4","last_reported":1767961443,"current_range_meters":7200,"station_id":"st_d4e5ca6na9uc73bfl5fg","pricing_plan_id":"cebpf4jnsgd1na2vs0mg"},{"bike_id":"130007a4-f933-433e-9323-6021b20dd097","system_id":"levelo_inurba_marseille","lat":43.29866,"lon":5.39746,"is_reserved":false,"is_disabled":false,"rental_uris":{"android":"levelo://app?vid=130007a4-f933-433e-9323-6021b20dd097","ios":"levelo://app?vid=130007a4-f933-433e-9323-6021b20dd097"},"vehicle_type_id":"4","last_reported":1767961443,"current_range_meters":7200,"station_id":"ce4bh0h2rcd13ifvqd50","pricing_plan_id":"cebpf4jnsgd1na2vs0mg"},{"bike_id":"e11d069d-cc7d-4b1f-a7f9-e060ab894ff0","system_id":"levelo_inurba_marseille","lat":43.26362,"lon":5.41062,"is_reserved":false,"is_disabled":false,"rental_uris":{"android":"levelo://app?vid=e11d069d-cc7d-4b1f-a7f9-e060ab894ff0","ios":"levelo://app?vid=e11d069d-cc7d-4b1f-a7f9-e060ab894ff0"},"vehicle_type_id":"4","last_reported":1767961443,"current_range_meters":7200,"station_id":"st_d4e5ca6na9uc73bfl5fg","pricing_plan_id":"cebpf4jnsgd1na2vs0mg"},{"bike_id":"d5c29c18-7a27-4023-8927-8003cd0b16af","system_id":"levelo_inurba_marseille","lat":43.26162,"lon":5.37501,"is_reserved":false,"is_disabled":false,"rental_uris":{"android":"levelo://app?vid=d5c29c18-7a27-4023-8927-8003cd0b16af","ios":"levelo://app?vid=d5c29c18-7a27-4023-8927-8003cd0b16af"},"vehicle_type_id":"4","last_reported":1767961443,"current_range_meters":7200,"station_id":"ce4bhgp2rcd13ifvqfc0","pricing_plan_id":"cebpf4jnsgd1na2vs0mg"},{"bike_id":"fab08092-cce9-4478-859e-e05fdc61134c","system_id":"levelo_inurba_marseille","lat":43.26553,"lon":5.37283,"is_reserved":false,"is_disabled":false,"rental_uris":{"android":"levelo://app?vid=fab08092-cce9-4478-859e-e05fdc61134c","ios":"levelo://app?vid=fab08092-cce9-4478-859e-e05fdc61134c"},"vehicle_type_id":"4","last_reported":1767961443,"current_range_meters":7200,"station_id":"ce4bhg12rcd13ifvqf70","pricing_plan_id":"cebpf4jnsgd1na2vs0mg"},{"bike_id":"1078caeb-83d9-4342-878c-8bf99d21b820","system_id":"levelo_inurba_marseille","lat":43.29013,"lon":5.38127,"is_reserved":false,"is_disabled":false,"rental_uris":{"android":"levelo://app?vid=1078caeb-83d9-4342-878c-8bf99d21b820","ios":"levelo://app?vid=1078caeb-83d9-4342-878c-8bf99d21b820"},"vehicle_type_id":"4","last_reported":1767961443,"current_range_meters":7200,"station_id":"ce4bh4p2rcd13ifvqe1g","pricing_plan_id":"cebpf4jnsgd1na2vs0mg"},{"bike_id":"e48a0a1d-139d-4eae-9bc8-4eb881e00720","system_id":"levelo_inurba_marseille","lat":43.32351,"lon":5.36732,"is_reserved":false,"is_disabled":false,"rental_uris":{"android":"levelo://app?vid=e48a0a1d-139d-4eae-9bc8-4eb881e00720","ios":"levelo://app?vid=e48a0a1d-139d-4eae-9bc8-4eb881e00720"},"vehicle_type_id":"4","last_reported":1767961443,"current_range_meters":7200,"station_id":"ce4bhsh2rcd13ifvqi2g","pricing_plan_id":"cebpf4jnsgd1na2vs0mg"},{"bike_id":"0300afac-912a-4bda-b7af-7e061ba01547","system_id":"levelo_inurba_marseille","lat":43.29659,"lon":5.37602,"is_reserved":false,"is_disabled":false,"rental_uris":{"android":"levelo://app?vid=0300afac-912a-4bda-b7af-7e061ba01547","ios":"levelo://app?vid=0300afac-912a-4bda-b7af-7e061ba01547"},"vehicle_type_id":"4","last_reported":1767961443,"current_range_meters":7200,"station_id":"","pricing_plan_id":"cebpf4jnsgd1na2vs0mg"},{"bike_id":"569b0032-d7de-4ef5-ac08-24b2ac42db20","system_id":"levelo_inurba_marseille","lat":43.26545,"lon":5.37289,"is_reserved":false,"is_disabled":false,"rental_uris":{"android":"levelo://app?vid=569b0032-d7de-4ef5-ac08-24b2ac42db20","ios":"levelo://app?vid=569b0032-d7de-4ef5-ac08-24b2ac42db20"},"vehicle_type_id":"4","last_reported":1767961443,"current_range_meters":8000,"station_id":"ce4bhg12rcd13ifvqf70","pricing_plan_id":"cebpf4jnsgd1na2vs0mg"},{"bike_id":"e75e2c3e-d799-431c-b611-47c8636c7eba","system_id":"levelo_inurba_marseille","lat":43.30951,"lon":5.38644,"is_reserved":false,"is_disabled":false,"rental_uris":{"android":"levelo://app?vid=e75e2c3e-d799-431c-b611-47c8636c7eba","ios":"levelo://app?vid=e75e2c3e-d799-431c-b611-47c8636c7eba"},"vehicle_type_id":"4","last_reported":1767961443,"current_range_meters":8000,"station_id":"","pricing_plan_id":"cebpf4jnsgd1na2vs0mg"},{"bike_id":"bd78d29c-c760-450d-bc73-3e8bb1aa3e1f","system_id":"levelo_inurba_marseille","lat":43.32361,"lon":5.36732,"is_reserved":false,"is_disabled":false,"rental_uris":{"android":"levelo://app?vid=bd78d29c-c760-450d-bc73-3e8bb1aa3e1f","ios":"levelo://app?vid=bd78d29c-c760-450d-bc73-3e8bb1aa3e1f"},"vehicle_type_id":"4","last_reported":1767961443,"current_range_meters":8000,"station_id":"ce4bhsh2rcd13ifvqi2g","pricing_plan_id":"cebpf4jnsgd1na2vs0mg"},{"bike_id":"e0338060-ce0a-4822-8d71-f2c1872544f8","system_id":"levelo_inurba_marseille","lat":43.28404,"lon":5.34979,"is_reserved":false,"is_disabled":false,"rental_uris":{"android":"levelo://app?vid=e0338060-ce0a-4822-8d71-f2c1872544f8","ios":"levelo://app?vid=e0338060-ce0a-4822-8d71-f2c1872544f8"},"vehicle_type_id":"4","last_reported":1767961443,"current_range_meters":8000,"station_id":"ce4bhbh2rcd13ifvqepg","pricing_plan_id":"cebpf4jnsgd1na2vs0mg"},{"bike_id":"b01b28d2-3f19-4003-9ec3-2602e6f718f6","system_id":"levelo_inurba_marseille","lat":43.304514,"lon":5.376128,"is_reserved":false,"is_disabled":false,"rental_uris":{"android":"levelo://app?vid=b01b28d2-3f19-4003-9ec3-2602e6f718f6","ios":"levelo://app?vid=b01b28d2-3f19-4003-9ec3-2602e6f718f6"},"vehicle_type_id":"4","last_reported":1767961443,"current_range_meters":8000,"station_id":"","pricing_plan_id":"cebpf4jnsgd1na2vs0mg"},{"bike_id":"a5715e19-8fa0-46c8-bd5f-966c0b056dd0","system_id":"levelo_inurba_marseille","lat":43.28343,"lon":5.38108,"is_reserved":false,"is_disabled":false,"rental_uris":{"android":"levelo://app?vid=a5715e19-8fa0-46c8-bd5f-966c0b056dd0","ios":"levelo://app?vid=a5715e19-8fa0-46c8-bd5f-966c0b056dd0"},"vehicle_type_id":"4","last_reported":1767961443,"current_range_meters":8000,"station_id":"ce4bh412rcd13ifvqdr0","pricing_plan_id":"cebpf4jnsgd1na2vs0mg"},{"bike_id":"e8237869-6bc1-4aff-8e00-c83ace1ecdfb","system_id":"levelo_inurba_marseille","lat":43.225335,"lon":5.348347,"is_reserved":false,"is_disabled":false,"rental_uris":{"android":"levelo://app?vid=e8237869-6bc1-4aff-8e00-c83ace1ecdfb","ios":"levelo://app?vid=e8237869-6bc1-4aff-8e00-c83ace1ecdfb"},"vehicle_type_id":"4","last_reported":1767961443,"current_range_meters":8000,"station_id":"","pricing_plan_id":"cebpf4jnsgd1na2vs0mg"},{"bike_id":"4daa41ef-0e83-498d-a75f-b9459f49bf3e","system_id":"levelo_inurba_marseille","lat":43.28941,"lon":5.36639,"is_reserved":false,"is_disabled":false,"rental_uris":{"android":"levelo://app?vid=4daa41ef-0e83-498d-a75f-b9459f49bf3e","ios":"levelo://app?vid=4daa41ef-0e83-498d-a75f-b9459f49bf3e"},"vehicle_type_id":"4","last_reported":1767961443,"current_range_meters":8000,"station_id":"ce4bhap2rcd13ifvqek0","pricing_plan_id":"cebpf4jnsgd1na2vs0mg"},{"bike_id":"ff4d3f0c-f4ca-4e9d-a96d-386990436f7f","system_id":"levelo_inurba_marseille","lat":43.3235,"lon":5.3675,"is_reserved":false,"is_disabled":false,"rental_uris":{"android":"levelo://app?vid=ff4d3f0c-f4ca-4e9d-a96d-386990436f7f","ios":"levelo://app?vid=ff4d3f0c-f4ca-4e9d-a96d-386990436f7f"},"vehicle_type_id":"4","last_reported":1767961443,"current_range_meters":8000,"station_id":"ce4bhsh2rcd13ifvqi2g","pricing_plan_id":"cebpf4jnsgd1na2vs0mg"},{"bike_id":"ed27761f-ddf8-4ca6-ad7f-042a477fd7ea","system_id":"levelo_inurba_marseille","lat":43.29532,"lon":5.37365,"is_reserved":false,"is_disabled":false,"rental_uris":{"android":"levelo://app?vid=ed27761f-ddf8-4ca6-ad7f-042a477fd7ea","ios":"levelo://app?vid=ed27761f-ddf8-4ca6-ad7f-042a477fd7ea"},"vehicle_type_id":"4","last_reported":1767961443,"current_range_meters":8000,"station_id":"","pricing_plan_id":"cebpf4jnsgd1na2vs0mg"},{"bike_id":"acf9b465-5657-433f-abd2-b0a7dddb60bc","system_id":"levelo_inurba_marseille","lat":43.26548,"lon":5.3729,"is_reserved":false,"is_disabled":false,"rental_uris":{"android":"levelo://app?vid=acf9b465-5657-433f-abd2-b0a7dddb60bc","ios":"levelo://app?vid=acf9b465-5657-433f-abd2-b0a7dddb60bc"},"vehicle_type_id":"4","last_reported":1767961443,"current_range_meters":8000,"station_id":"ce4bhg12rcd13ifvqf70","pricing_plan_id":"cebpf4jnsgd1na2vs0mg"},{"bike_id":"ad32bf49-fc1c-427a-89fa-14100d98af66","system_id":"levelo_inurba_marseille","lat":43.28297,"lon":5.35089,"is_reserved":false,"is_disabled":false,"rental_uris":{"android":"levelo://app?vid=ad32bf49-fc1c-427a-89fa-14100d98af66","ios":"levelo://app?vid=ad32bf49-fc1c-427a-89fa-14100d98af66"},"vehicle_type_id":"4","last_reported":1767961443,"current_range_meters":8000,"station_id":"","pricing_plan_id":"cebpf4jnsgd1na2vs0mg"},{"bike_id":"e58f24b3-ba31-40e0-a37e-750aa5dbacf9","system_id":"levelo_inurba_marseille","lat":43.337444,"lon":5.374475,"is_reserved":false,"is_disabled":false,"rental_uris":{"android":"levelo://app?vid=e58f24b3-ba31-40e0-a37e-750aa5dbacf9","ios":"levelo://app?vid=e58f24b3-ba31-40e0-a37e-750aa5dbacf9"},"vehicle_type_id":"4","last_reported":1767961443,"current_range_meters":8000,"station_id":"","pricing_plan_id":"cebpf4jnsgd1na2vs0mg"},{"bike_id":"82e5086e-97a4-4890-8bb5-efc43b4b7c7c","system_id":"levelo_inurba_marseille","lat":43.270541,"lon":5.422872,"is_reserved":false,"is_disabled":false,"rental_uris":{"android":"levelo://app?vid=82e5086e-97a4-4890-8bb5-efc43b4b7c7c","ios":"levelo://app?vid=82e5086e-97a4-4890-8bb5-efc43b4b7c7c"},"vehicle_type_id":"4","last_reported":1767961443,"current_range_meters":8000,"station_id":"ce4bhk92rcd13ifvqgb0","pricing_plan_id":"cebpf4jnsgd1na2vs0mg"},{"bike_id":"ca027080-ef57-4bf6-8ffa-7db0f4787c64","system_id":"levelo_inurba_marseille","lat":43.30546,"lon":5.36554,"is_reserved":false,"is_disabled":false,"rental_uris":{"android":"levelo://app?vid=ca027080-ef57-4bf6-8ffa-7db0f4787c64","ios":"levelo://app?vid=ca027080-ef57-4bf6-8ffa-7db0f4787c64"},"vehicle_type_id":"4","last_reported":1767961443,"current_range_meters":8000,"station_id":"ce4bgs12rcd13ifvqcag","pricing_plan_id":"cebpf4jnsgd1na2vs0mg"},{"bike_id":"fd574b71-9bc4-48df-aab3-baa6a2a11192","system_id":"levelo_inurba_marseille","lat":43.25337,"lon":5.42162,"is_reserved":false,"is_disabled":false,"rental_uris":{"android":"levelo://app?vid=fd574b71-9bc4-48df-aab3-baa6a2a11192","ios":"levelo://app?vid=fd574b71-9bc4-48df-aab3-baa6a2a11192"},"vehicle_type_id":"4","last_reported":1767961443,"current_range_meters":8000,"station_id":"st_d2m65c5bi1j21697t3ng","pricing_plan_id":"cebpf4jnsgd1na2vs0mg"},{"bike_id":"bef98ff8-e15d-45ba-812b-84a58c5c1af3","system_id":"levelo_inurba_marseille","lat":43.25818,"lon":5.39431,"is_reserved":false,"is_disabled":false,"rental_uris":{"android":"levelo://app?vid=bef98ff8-e15d-45ba-812b-84a58c5c1af3","ios":"levelo://app?vid=bef98ff8-e15d-45ba-812b-84a58c5c1af3"},"vehicle_type_id":"4","last_reported":1767961443,"current_range_meters":8000,"station_id":"ce4bhip2rcd13ifvqft0","pricing_plan_id":"cebpf4jnsgd1na2vs0mg"},{"bike_id":"ab60c2fc-90e6-4eb8-a77c-65affb14bc2e","system_id":"levelo_inurba_marseille","lat":43.265662,"lon":5.390226,"is_reserved":false,"is_disabled":false,"rental_uris":{"android":"levelo://app?vid=ab60c2fc-90e6-4eb8-a77c-65affb14bc2e","ios":"levelo://app?vid=ab60c2fc-90e6-4eb8-a77c-65affb14bc2e"},"vehicle_type_id":"4","last_reported":1767961443,"current_range_meters":8000,"station_id":"","pricing_plan_id":"cebpf4jnsgd1na2vs0mg"},{"bike_id":"88c81bbe-9da4-41a4-ab51-980aea16840a","system_id":"levelo_inurba_marseille","lat":43.26062,"lon":5.39396,"is_reserved":false,"is_disabled":false,"rental_uris":{"android":"levelo://app?vid=88c81bbe-9da4-41a4-ab51-980aea16840a","ios":"levelo://app?vid=88c81bbe-9da4-41a4-ab51-980aea16840a"},"vehicle_type_id":"4","last_reported":1767961443,"current_range_meters":8000,"station_id":"ce4bhh92rcd13ifvqfj0","pricing_plan_id":"cebpf4jnsgd1na2vs0mg"},{"bike_id":"262a8fec-bd27-46e9-aad8-6268adcdc681","system_id":"levelo_inurba_marseille","lat":43.212,"lon":5.35082,"is_reserved":false,"is_disabled":false,"rental_uris":{"android":"levelo://app?vid=262a8fec-bd27-46e9-aad8-6268adcdc681","ios":"levelo://app?vid=262a8fec-bd27-46e9-aad8-6268adcdc681"},"vehicle_type_id":"4","last_reported":1767961443,"current_range_meters":8000,"station_id":"st_cvj6sg6p6f1abm77japg","pricing_plan_id":"cebpf4jnsgd1na2vs0mg"},{"bike_id":"1f894333-7d64-4374-abbe-ccf26f4722ca","system_id":"levelo_inurba_marseille","lat":43.276208,"lon":5.361093,"is_reserved":false,"is_disabled":false,"rental_uris":{"android":"levelo://app?vid=1f894333-7d64-4374-abbe-ccf26f4722ca","ios":"levelo://app?vid=1f894333-7d64-4374-abbe-ccf26f4722ca"},"vehicle_type_id":"4","last_reported":1767961443,"current_range_meters":8000,"station_id":"ce4bgj92rcd13ifvqbe0","pricing_plan_id":"cebpf4jnsgd1na2vs0mg"},{"bike_id":"8f679fcc-ff8c-4af2-86fe-c8460158ab1c","system_id":"levelo_inurba_marseille","lat":43.28269,"lon":5.35089,"is_reserved":false,"is_disabled":false,"rental_uris":{"android":"levelo://app?vid=8f679fcc-ff8c-4af2-86fe-c8460158ab1c","ios":"levelo://app?vid=8f679fcc-ff8c-4af2-86fe-c8460158ab1c"},"vehicle_type_id":"4","last_reported":1767961443,"current_range_meters":8000,"station_id":"ce4bhbp2rcd13ifvqerg","pricing_plan_id":"cebpf4jnsgd1na2vs0mg"},{"bike_id":"f732ada2-7e4d-4534-a7c9-8af18d5ed4e2","system_id":"levelo_inurba_marseille","lat":43.255789,"lon":5.382319,"is_reserved":false,"is_disabled":false,"rental_uris":{"android":"levelo://app?vid=f732ada2-7e4d-4534-a7c9-8af18d5ed4e2","ios":"levelo://app?vid=f732ada2-7e4d-4534-a7c9-8af18d5ed4e2"},"vehicle_type_id":"4","last_reported":1767961443,"current_range_meters":8000,"station_id":"ce4bhih2rcd13ifvqfs0","pricing_plan_id":"cebpf4jnsgd1na2vs0mg"},{"bike_id":"491b2e84-c586-4cc5-92b1-bf8147fb5c79","system_id":"levelo_inurba_marseille","lat":43.25121,"lon":5.40323,"is_reserved":false,"is_disabled":false,"rental_uris":{"android":"levelo://app?vid=491b2e84-c586-4cc5-92b1-bf8147fb5c79","ios":"levelo://app?vid=491b2e84-c586-4cc5-92b1-bf8147fb5c79"},"vehicle_type_id":"4","last_reported":1767961443,"current_range_meters":8000,"station_id":"ce4bhlh2rcd13ifvqgig","pricing_plan_id":"cebpf4jnsgd1na2vs0mg"},{"bike_id":"ff012eda-200d-4d95-8552-9202de5433e2","system_id":"levelo_inurba_marseille","lat":43.29304,"lon":5.37797,"is_reserved":false,"is_disabled":false,"rental_uris":{"android":"levelo://app?vid=ff012eda-200d-4d95-8552-9202de5433e2","ios":"levelo://app?vid=ff012eda-200d-4d95-8552-9202de5433e2"},"vehicle_type_id":"4","last_reported":1767961443,"current_range_meters":8000,"station_id":"","pricing_plan_id":"cebpf4jnsgd1na2vs0mg"},{"bike_id":"d5b11fb8-6192-47fb-aadc-4bb75715f25d","system_id":"levelo_inurba_marseille","lat":43.26952,"lon":5.39835,"is_reserved":false,"is_disabled":false,"rental_uris":{"android":"levelo://app?vid=d5b11fb8-6192-47fb-aadc-4bb75715f25d","ios":"levelo://app?vid=d5b11fb8-6192-47fb-aadc-4bb75715f25d"},"vehicle_type_id":"4","last_reported":1767961443,"current_range_meters":8000,"station_id":"","pricing_plan_id":"cebpf4jnsgd1na2vs0mg"},{"bike_id":"1dfe357d-a563-43b8-896c-9ee78ac92751","system_id":"levelo_inurba_marseille","lat":43.25493,"lon":5.37658,"is_reserved":false,"is_disabled":false,"rental_uris":{"android":"levelo://app?vid=1dfe357d-a563-43b8-896c-9ee78ac92751","ios":"levelo://app?vid=1dfe357d-a563-43b8-896c-9ee78ac92751"},"vehicle_type_id":"4","last_reported":1767961443,"current_range_meters":8000,"station_id":"ce4bhh12rcd13ifvqff0","pricing_plan_id":"cebpf4jnsgd1na2vs0mg"},{"bike_id":"7556ec87-ee82-453f-8a43-79b64208618a","system_id":"levelo_inurba_marseille","lat":43.2119,"lon":5.35067,"is_reserved":false,"is_disabled":false,"rental_uris":{"android":"levelo://app?vid=7556ec87-ee82-453f-8a43-79b64208618a","ios":"levelo://app?vid=7556ec87-ee82-453f-8a43-79b64208618a"},"vehicle_type_id":"4","last_reported":1767961443,"current_range_meters":8000,"station_id":"st_cvj6sg6p6f1abm77japg","pricing_plan_id":"cebpf4jnsgd1na2vs0mg"},{"bike_id":"563f06c7-aaae-463f-bd77-2a2b09c362dc","system_id":"levelo_inurba_marseille","lat":43.265538,"lon":5.372943,"is_reserved":false,"is_disabled":false,"rental_uris":{"android":"levelo://app?vid=563f06c7-aaae-463f-bd77-2a2b09c362dc","ios":"levelo://app?vid=563f06c7-aaae-463f-bd77-2a2b09c362dc"},"vehicle_type_id":"4","last_reported":1767961443,"current_range_meters":8000,"station_id":"ce4bhg12rcd13ifvqf70","pricing_plan_id":"cebpf4jnsgd1na2vs0mg"},{"bike_id":"f223966a-e2d1-4fed-bcd9-65f6310fb516","system_id":"levelo_inurba_marseille","lat":43.27655,"lon":5.38915,"is_reserved":false,"is_disabled":true,"rental_uris":{"android":"levelo://app?vid=f223966a-e2d1-4fed-bcd9-65f6310fb516","ios":"levelo://app?vid=f223966a-e2d1-4fed-bcd9-65f6310fb516"},"vehicle_type_id":"4","last_reported":1767961443,"current_range_meters":8000,"station_id":"ce4bhi12rcd13ifvqfo0","pricing_plan_id":"cebpf4jnsgd1na2vs0mg"},{"bike_id":"7d50baf1-e702-4bc4-8ad1-ca576e44cfe3","system_id":"levelo_inurba_marseille","lat":43.24664,"lon":5.43107,"is_reserved":false,"is_disabled":false,"rental_uris":{"android":"levelo://app?vid=7d50baf1-e702-4bc4-8ad1-ca576e44cfe3","ios":"levelo://app?vid=7d50baf1-e702-4bc4-8ad1-ca576e44cfe3"},"vehicle_type_id":"4","last_reported":1767961443,"current_range_meters":8000,"station_id":"st_d2m6c4gdas8pm72e190g","pricing_plan_id":"cebpf4jnsgd1na2vs0mg"},{"bike_id":"85264b74-5b04-4dbe-94c6-abdbdfeafcf0","system_id":"levelo_inurba_marseille","lat":43.28474,"lon":5.48395,"is_reserved":false,"is_disabled":false,"rental_uris":{"android":"levelo://app?vid=85264b74-5b04-4dbe-94c6-abdbdfeafcf0","ios":"levelo://app?vid=85264b74-5b04-4dbe-94c6-abdbdfeafcf0"},"vehicle_type_id":"4","last_reported":1767961443,"current_range_meters":8000,"station_id":"st_d3svhcjqgbts73a3dn0g","pricing_plan_id":"cebpf4jnsgd1na2vs0mg"},{"bike_id":"504a208d-becd-4beb-8341-80131c5bbbf4","system_id":"levelo_inurba_marseille","lat":43.31343,"lon":5.3672,"is_reserved":false,"is_disabled":false,"rental_uris":{"android":"levelo://app?vid=504a208d-becd-4beb-8341-80131c5bbbf4","ios":"levelo://app?vid=504a208d-becd-4beb-8341-80131c5bbbf4"},"vehicle_type_id":"4","last_reported":1767961443,"current_range_meters":8000,"station_id":"ce4bgr92rcd13ifvqc6g","pricing_plan_id":"cebpf4jnsgd1na2vs0mg"},{"bike_id":"4d3c01b0-a5f4-4b71-8b30-7342dceffada","system_id":"levelo_inurba_marseille","lat":43.25865,"lon":5.399,"is_reserved":false,"is_disabled":false,"rental_uris":{"android":"levelo://app?vid=4d3c01b0-a5f4-4b71-8b30-7342dceffada","ios":"levelo://app?vid=4d3c01b0-a5f4-4b71-8b30-7342dceffada"},"vehicle_type_id":"4","last_reported":1767961443,"current_range_meters":8400,"station_id":"ce4bhl92rcd13ifvqghg","pricing_plan_id":"cebpf4jnsgd1na2vs0mg"},{"bike_id":"cc6a42bd-dd7c-4c64-b69f-e5073a2adae2","system_id":"levelo_inurba_marseille","lat":43.21758,"lon":5.34604,"is_reserved":false,"is_disabled":false,"rental_uris":{"android":"levelo://app?vid=cc6a42bd-dd7c-4c64-b69f-e5073a2adae2","ios":"levelo://app?vid=cc6a42bd-dd7c-4c64-b69f-e5073a2adae2"},"vehicle_type_id":"4","last_reported":1767961443,"current_range_meters":8400,"station_id":"st_cvj6r9ubvosntc0bgbag","pricing_plan_id":"cebpf4jnsgd1na2vs0mg"},{"bike_id":"a45d1de9-3319-4f05-8330-0e81554cf06e","system_id":"levelo_inurba_marseille","lat":43.29961,"lon":5.38688,"is_reserved":false,"is_disabled":false,"rental_uris":{"android":"levelo://app?vid=a45d1de9-3319-4f05-8330-0e81554cf06e","ios":"levelo://app?vid=a45d1de9-3319-4f05-8330-0e81554cf06e"},"vehicle_type_id":"4","last_reported":1767961443,"current_range_meters":8400,"station_id":"","pricing_plan_id":"cebpf4jnsgd1na2vs0mg"},{"bike_id":"d0c5aa26-d77a-4047-bf56-c6c68bc7105d","system_id":"levelo_inurba_marseille","lat":43.32121,"lon":5.36785,"is_reserved":false,"is_disabled":false,"rental_uris":{"android":"levelo://app?vid=d0c5aa26-d77a-4047-bf56-c6c68bc7105d","ios":"levelo://app?vid=d0c5aa26-d77a-4047-bf56-c6c68bc7105d"},"vehicle_type_id":"4","last_reported":1767961443,"current_range_meters":8400,"station_id":"ce4bhrh2rcd13ifvqhug","pricing_plan_id":"cebpf4jnsgd1na2vs0mg"},{"bike_id":"db6f44ee-3950-4228-ba6f-9b34da03d263","system_id":"levelo_inurba_marseille","lat":43.270675,"lon":5.42273,"is_reserved":false,"is_disabled":false,"rental_uris":{"android":"levelo://app?vid=db6f44ee-3950-4228-ba6f-9b34da03d263","ios":"levelo://app?vid=db6f44ee-3950-4228-ba6f-9b34da03d263"},"vehicle_type_id":"4","last_reported":1767961443,"current_range_meters":8400,"station_id":"ce4bhk92rcd13ifvqgb0","pricing_plan_id":"cebpf4jnsgd1na2vs0mg"},{"bike_id":"2e9ca2da-7be4-48db-a85c-5ce44214e292","system_id":"levelo_inurba_marseille","lat":43.25563,"lon":5.38242,"is_reserved":false,"is_disabled":false,"rental_uris":{"android":"levelo://app?vid=2e9ca2da-7be4-48db-a85c-5ce44214e292","ios":"levelo://app?vid=2e9ca2da-7be4-48db-a85c-5ce44214e292"},"vehicle_type_id":"4","last_reported":1767961443,"current_range_meters":8400,"station_id":"ce4bhih2rcd13ifvqfs0","pricing_plan_id":"cebpf4jnsgd1na2vs0mg"},{"bike_id":"9a4ccc02-c230-4a71-aa08-76c653b49d28","system_id":"levelo_inurba_marseille","lat":43.31222,"lon":5.36848,"is_reserved":false,"is_disabled":false,"rental_uris":{"android":"levelo://app?vid=9a4ccc02-c230-4a71-aa08-76c653b49d28","ios":"levelo://app?vid=9a4ccc02-c230-4a71-aa08-76c653b49d28"},"vehicle_type_id":"4","last_reported":1767961443,"current_range_meters":8400,"station_id":"ce4bgl92rcd13ifvqbq0","pricing_plan_id":"cebpf4jnsgd1na2vs0mg"},{"bike_id":"d336d32f-a9ab-4eb1-9637-d3fa585ead55","system_id":"levelo_inurba_marseille","lat":43.294881,"lon":5.433014,"is_reserved":false,"is_disabled":false,"rental_uris":{"android":"levelo://app?vid=d336d32f-a9ab-4eb1-9637-d3fa585ead55","ios":"levelo://app?vid=d336d32f-a9ab-4eb1-9637-d3fa585ead55"},"vehicle_type_id":"4","last_reported":1767961443,"current_range_meters":8400,"station_id":"st_d3j5ugp08ojc73fj9d10","pricing_plan_id":"cebpf4jnsgd1na2vs0mg"},{"bike_id":"3faa0f86-b255-4752-abd5-139bae71b2a1","system_id":"levelo_inurba_marseille","lat":43.30468,"lon":5.37903,"is_reserved":false,"is_disabled":false,"rental_uris":{"android":"levelo://app?vid=3faa0f86-b255-4752-abd5-139bae71b2a1","ios":"levelo://app?vid=3faa0f86-b255-4752-abd5-139bae71b2a1"},"vehicle_type_id":"4","last_reported":1767961443,"current_range_meters":8400,"station_id":"ce4bgup2rcd13ifvqcn0","pricing_plan_id":"cebpf4jnsgd1na2vs0mg"},{"bike_id":"6ac99317-2fff-404e-95fe-2a3e9d3870bd","system_id":"levelo_inurba_marseille","lat":43.262226,"lon":5.404626,"is_reserved":false,"is_disabled":false,"rental_uris":{"android":"levelo://app?vid=6ac99317-2fff-404e-95fe-2a3e9d3870bd","ios":"levelo://app?vid=6ac99317-2fff-404e-95fe-2a3e9d3870bd"},"vehicle_type_id":"4","last_reported":1767961443,"current_range_meters":8400,"station_id":"ce4bhmh2rcd13ifvqgmg","pricing_plan_id":"cebpf4jnsgd1na2vs0mg"},{"bike_id":"ca4c6a60-0f61-4f6d-ac20-4ded5e462329","system_id":"levelo_inurba_marseille","lat":43.30156,"lon":5.37404,"is_reserved":false,"is_disabled":false,"rental_uris":{"android":"levelo://app?vid=ca4c6a60-0f61-4f6d-ac20-4ded5e462329","ios":"levelo://app?vid=ca4c6a60-0f61-4f6d-ac20-4ded5e462329"},"vehicle_type_id":"4","last_reported":1767961443,"current_range_meters":8400,"station_id":"ce4bgs92rcd13ifvqcc0","pricing_plan_id":"cebpf4jnsgd1na2vs0mg"},{"bike_id":"1e38a170-3a59-4964-ac74-f59bcf2ec101","system_id":"levelo_inurba_marseille","lat":43.30492,"lon":5.36711,"is_reserved":false,"is_disabled":false,"rental_uris":{"android":"levelo://app?vid=1e38a170-3a59-4964-ac74-f59bcf2ec101","ios":"levelo://app?vid=1e38a170-3a59-4964-ac74-f59bcf2ec101"},"vehicle_type_id":"4","last_reported":1767961443,"current_range_meters":8400,"station_id":"","pricing_plan_id":"cebpf4jnsgd1na2vs0mg"},{"bike_id":"2ba04ee2-09cb-4353-8c96-50a85f5a7926","system_id":"levelo_inurba_marseille","lat":43.24074,"lon":5.37761,"is_reserved":false,"is_disabled":false,"rental_uris":{"android":"levelo://app?vid=2ba04ee2-09cb-4353-8c96-50a85f5a7926","ios":"levelo://app?vid=2ba04ee2-09cb-4353-8c96-50a85f5a7926"},"vehicle_type_id":"4","last_reported":1767961443,"current_range_meters":8400,"station_id":"ce4bhnp2rcd13ifvqgvg","pricing_plan_id":"cebpf4jnsgd1na2vs0mg"},{"bike_id":"204ae4d2-fc20-42d8-a377-c74b8cc578d1","system_id":"levelo_inurba_marseille","lat":43.25114,"lon":5.40322,"is_reserved":false,"is_disabled":false,"rental_uris":{"android":"levelo://app?vid=204ae4d2-fc20-42d8-a377-c74b8cc578d1","ios":"levelo://app?vid=204ae4d2-fc20-42d8-a377-c74b8cc578d1"},"vehicle_type_id":"4","last_reported":1767961443,"current_range_meters":8400,"station_id":"ce4bhlh2rcd13ifvqgig","pricing_plan_id":"cebpf4jnsgd1na2vs0mg"},{"bike_id":"3784f2bf-f44f-44f4-a8be-e3b125ce0193","system_id":"levelo_inurba_marseille","lat":43.27077,"lon":5.40486,"is_reserved":false,"is_disabled":false,"rental_uris":{"android":"levelo://app?vid=3784f2bf-f44f-44f4-a8be-e3b125ce0193","ios":"levelo://app?vid=3784f2bf-f44f-44f4-a8be-e3b125ce0193"},"vehicle_type_id":"4","last_reported":1767961443,"current_range_meters":8400,"station_id":"","pricing_plan_id":"cebpf4jnsgd1na2vs0mg"},{"bike_id":"83d5f245-fb0f-4ec6-9063-867f9d0f37e7","system_id":"levelo_inurba_marseille","lat":43.23142,"lon":5.43719,"is_reserved":false,"is_disabled":false,"rental_uris":{"android":"levelo://app?vid=83d5f245-fb0f-4ec6-9063-867f9d0f37e7","ios":"levelo://app?vid=83d5f245-fb0f-4ec6-9063-867f9d0f37e7"},"vehicle_type_id":"4","last_reported":1767961443,"current_range_meters":8400,"station_id":"ce4bhmp2rcd13ifvqgog","pricing_plan_id":"cebpf4jnsgd1na2vs0mg"},{"bike_id":"ed61a98b-4107-4b98-a611-e8b7c8a14855","system_id":"levelo_inurba_marseille","lat":43.32099,"lon":5.36774,"is_reserved":false,"is_disabled":false,"rental_uris":{"android":"levelo://app?vid=ed61a98b-4107-4b98-a611-e8b7c8a14855","ios":"levelo://app?vid=ed61a98b-4107-4b98-a611-e8b7c8a14855"},"vehicle_type_id":"4","last_reported":1767961443,"current_range_meters":8400,"station_id":"ce4bhrh2rcd13ifvqhug","pricing_plan_id":"cebpf4jnsgd1na2vs0mg"},{"bike_id":"9be47716-b6c4-4f6e-b3d9-238d6399366b","system_id":"levelo_inurba_marseille","lat":43.31369,"lon":5.40468,"is_reserved":false,"is_disabled":false,"rental_uris":{"android":"levelo://app?vid=9be47716-b6c4-4f6e-b3d9-238d6399366b","ios":"levelo://app?vid=9be47716-b6c4-4f6e-b3d9-238d6399366b"},"vehicle_type_id":"4","last_reported":1767961443,"current_range_meters":8400,"station_id":"","pricing_plan_id":"cebpf4jnsgd1na2vs0mg"},