{"last_updated":1752855357,"ttl":60,"version":"2.2","data":{"bikes":[{"bike_id":"53b742a7-31ae-4272-9bba-7740339e2a2f","system_id":"levelo_inurba_marseille","lat":43.33747,"lon":5.37463,"is_reserved":false,"is_disabled":false,"rental_uris":{"android":"levelo://app?vid=53b742a7-31ae-4272-9bba-7740339e2a2f","ios":"levelo://app?vid=53b742a7-31ae-4272-9bba-7740339e2a2f"},"vehicle_type_id":"1","last_reported":1752855358,"current_range_meters":19200,"station_id":"","pricing_plan_id":"cebpf4jnsgd1na2vs0mg"},{"bike_id":"18a4894d-c593-46e6-9bd6-6775abff7fbb","system_id":"levelo_inurba_marseille","lat":43.265547,"lon":5.372835,"is_reserved":false,"is_disabled":false,"rental_uris":{"android":"levelo://app?vid=18a4894d-c593-46e6-9bd6-6775abff7fbb","ios":"levelo://app?vid=18a4894d-c593-46e6-9bd6-6775abff7fbb"},"vehicle_type_id":"4","last_reported":1752855358,"current_range_meters":2800,"station_id":"ce4bhg12rcd13ifvqf70","pricing_plan_id":"cebpf4jnsgd1na2vs0mg"},{"bike_id":"a02cb777-220c-4353-939a-35a0d60a11e6","system_id":"levelo_inurba_marseille","lat":43.29522,"lon":5.39054,"is_reserved":false,"is_disabled":false,"rental_uris":{"android":"levelo://app?vid=a02cb777-220c-4353-939a-35a0d60a11e6","ios":"levelo://app?vid=a02cb777-220c-4353-939a-35a0d60a11e6"},"vehicle_type_id":"4","last_reported":1752855358,"current_range_meters":4800,"station_id":"ce4bh3p2rcd13ifvqdp0","pricing_plan_id":"cebpf4jnsgd1na2vs0mg"},{"bike_id":"abad2914-b41e-402c-8411-b6a90a3d698d","system_id":"levelo_inurba_marseille","lat":43.29851,"lon":5.36287,"is_reserved":false,"is_disabled":false,"rental_uris":{"android":"levelo://app?vid=abad2914-b41e-402c-8411-b6a90a3d698d","ios":"levelo://app?vid=abad2914-b41e-402c-8411-b6a90a3d698d"},"vehicle_type_id":"4","last_reported":1752855358,"current_range_meters":3200,"station_id":"ce4bgpp2rcd13ifvqc3g","pricing_plan_id":"cebpf4jnsgd1na2vs0mg"},{"bike_id":"4a1f9e9d-6f1f-43a0-9796-36a4cef84827","system_id":"levelo_inurba_marseille","lat":43.28942,"lon":5.39629,"is_reserved":false,"is_disabled":false,"rental_uris":{"android":"levelo://app?vid=4a1f9e9d-6f1f-43a0-9796-36a4cef84827","ios":"levelo://app?vid=4a1f9e9d-6f1f-43a0-9796-36a4cef84827"},"vehicle_type_id":"4","last_reported":1752855358,"current_range_meters":3600,"station_id":"ce4bh3h2rcd13ifvqdn0","pricing_plan_id":"cebpf4jnsgd1na2vs0mg"},{"bike_id":"8538fb34-aead-440c-abb4-2f8a8181744a","system_id":"levelo_inurba_marseille","lat":43.30546,"lon":5.36533,"is_reserved":false,"is_disabled":false,"rental_uris":{"android":"levelo://app?vid=8538fb34-aead-440c-abb4-2f8a8181744a","ios":"levelo://app?vid=8538fb34-aead-440c-abb4-2f8a8181744a"},"vehicle_type_id":"4","last_reported":1752855358,"current_range_meters":3600,"station_id":"ce4bgs12rcd13ifvqcag","pricing_plan_id":"cebpf4jnsgd1na2vs0mg"},{"bike_id":"7f7883be-904d-4662-b1fd-b6e8daac10c2","system_id":"levelo_inurba_marseille","lat":43.3089,"lon":5.39657,"is_reserved":false,"is_disabled":false,"rental_uris":{"android":"levelo://app?vid=7f7883be-904d-4662-b1fd-b6e8daac10c2","ios":"levelo://app?vid=7f7883be-904d-4662-b1fd-b6e8daac10c2"},"vehicle_type_id":"4","last_reported":1752855358,"current_range_meters":3600,"station_id":"ce4bh012rcd13ifvqcv0","pricing_plan_id":"cebpf4jnsgd1na2vs0mg"},{"bike_id":"ca34c8d1-9a94-4ef1-80c0-5e6851037b48","system_id":"levelo_inurba_marseille","lat":43.27973,"lon":5.38745,"is_reserved":false,"is_disabled":false,"rental_uris":{"android":"levelo://app?vid=ca34c8d1-9a94-4ef1-80c0-5e6851037b48","ios":"levelo://app?vid=ca34c8d1-9a94-4ef1-80c0-5e6851037b48"},"vehicle_type_id":"4","last_reported":1752855358,"current_range_meters":3200,"station_id":"ce4bhg12rcd13ifvqf80","pricing_plan_id":"cebpf4jnsgd1na2vs0mg"},{"bike_id":"d1f8d913-4303-46cb-b900-14b494a13e54","system_id":"levelo_inurba_marseille","lat":43.29281,"lon":5.40115,"is_reserved":false,"is_disabled":false,"rental_uris":{"android":"levelo://app?vid=d1f8d913-4303-46cb-b900-14b494a13e54","ios":"levelo://app?vid=d1f8d913-4303-46cb-b900-14b494a13e54"},"vehicle_type_id":"4","last_reported":1752855358,"current_range_meters":3600,"station_id":"ce4bh312rcd13ifvqdk0","pricing_plan_id":"cebpf4jnsgd1na2vs0mg"},{"bike_id":"096b2c8d-b61a-4973-bab9-8ebc1d81ebe0","system_id":"levelo_inurba_marseille","lat":43.30139,"lon":5.38785,"is_reserved":false,"is_disabled":true,"rental_uris":{"android":"levelo://app?vid=096b2c8d-b61a-4973-bab9-8ebc1d81ebe0","ios":"levelo://app?vid=096b2c8d-b61a-4973-bab9-8ebc1d81ebe0"},"vehicle_type_id":"4","last_reported":1752855358,"current_range_meters":4000,"station_id":"ce4bghh2rcd13ifvqb60","pricing_plan_id":"cebpf4jnsgd1na2vs0mg"},{"bike_id":"12773b3e-e522-434e-be83-78ff55da8399","system_id":"levelo_inurba_marseille","lat":43.23064,"lon":5.3549,"is_reserved":false,"is_disabled":false,"rental_uris":{"android":"levelo://app?vid=12773b3e-e522-434e-be83-78ff55da8399","ios":"levelo://app?vid=12773b3e-e522-434e-be83-78ff55da8399"},"vehicle_type_id":"4","last_reported":1752855358,"current_range_meters":4400,"station_id":"cpo3342slgdg3j2ifvpg","pricing_plan_id":"cebpf4jnsgd1na2vs0mg"},{"bike_id":"89d290d0-e602-47ee-ae1f-406a9e479868","system_id":"levelo_inurba_marseille","lat":43.28484,"lon":5.38423,"is_reserved":false,"is_disabled":false,"rental_uris":{"android":"levelo://app?vid=89d290d0-e602-47ee-ae1f-406a9e479868","ios":"levelo://app?vid=89d290d0-e602-47ee-ae1f-406a9e479868"},"vehicle_type_id":"4","last_reported":1752855358,"current_range_meters":4800,"station_id":"ce4bh512rcd13ifvqe3g","pricing_plan_id":"cebpf4jnsgd1na2vs0mg"},{"bike_id":"8a5d8df5-340a-4356-aed2-40d953cc6ef0","system_id":"levelo_inurba_marseille","lat":43.28428,"lon":5.34976,"is_reserved":false,"is_disabled":false,"rental_uris":{"android":"levelo://app?vid=8a5d8df5-340a-4356-aed2-40d953cc6ef0","ios":"levelo://app?vid=8a5d8df5-340a-4356-aed2-40d953cc6ef0"},"vehicle_type_id":"4","last_reported":1752855358,"current_range_meters":5600,"station_id":"ce4bhbh2rcd13ifvqepg","pricing_plan_id":"cebpf4jnsgd1na2vs0mg"},{"bike_id":"9a536203-8348-4cba-88d8-a3f7a1e0ee35","system_id":"levelo_inurba_marseille","lat":43.30635,"lon":5.40089,"is_reserved":false,"is_disabled":false,"rental_uris":{"android":"levelo://app?vid=9a536203-8348-4cba-88d8-a3f7a1e0ee35","ios":"levelo://app?vid=9a536203-8348-4cba-88d8-a3f7a1e0ee35"},"vehicle_type_id":"4","last_reported":1752855358,"current_range_meters":6000,"station_id":"ce4bh112rcd13ifvqda0","pricing_plan_id":"cebpf4jnsgd1na2vs0mg"},{"bike_id":"cf9010f6-7275-4292-8e50-10df0daf6f54","system_id":"levelo_inurba_marseille","lat":43.25584,"lon":5.38233,"is_reserved":false,"is_disabled":false,"rental_uris":{"android":"levelo://app?vid=cf9010f6-7275-4292-8e50-10df0daf6f54","ios":"levelo://app?vid=cf9010f6-7275-4292-8e50-10df0daf6f54"},"vehicle_type_id":"4","last_reported":1752855358,"current_range_meters":6000,"station_id":"ce4bhih2rcd13ifvqfs0","pricing_plan_id":"cebpf4jnsgd1na2vs0mg"},{"bike_id":"00b7c97b-2ae4-4014-89ad-5830b45bf73b","system_id":"levelo_inurba_marseille","lat":43.29872,"lon":5.39737,"is_reserved":false,"is_disabled":false,"rental_uris":{"android":"levelo://app?vid=00b7c97b-2ae4-4014-89ad-5830b45bf73b","ios":"levelo://app?vid=00b7c97b-2ae4-4014-89ad-5830b45bf73b"},"vehicle_type_id":"4","last_reported":1752855358,"current_range_meters":5600,"station_id":"ce4bh0h2rcd13ifvqd50","pricing_plan_id":"cebpf4jnsgd1na2vs0mg"},{"bike_id":"5be3ff61-5be5-4487-8dd7-adf032d6f539","system_id":"levelo_inurba_marseille","lat":43.24807,"lon":5.3746,"is_reserved":false,"is_disabled":false,"rental_uris":{"android":"levelo://app?vid=5be3ff61-5be5-4487-8dd7-adf032d6f539","ios":"levelo://app?vid=5be3ff61-5be5-4487-8dd7-adf032d6f539"},"vehicle_type_id":"4","last_reported":1752855358,"current_range_meters":5600,"station_id":"ce4bhgh2rcd13ifvqfb0","pricing_plan_id":"cebpf4jnsgd1na2vs0mg"},{"bike_id":"81f88721-00d0-431c-83bf-446e11578408","system_id":"levelo_inurba_marseille","lat":43.225038,"lon":5.347854,"is_reserved":false,"is_disabled":false,"rental_uris":{"android":"levelo://app?vid=81f88721-00d0-431c-83bf-446e11578408","ios":"levelo://app?vid=81f88721-00d0-431c-83bf-446e11578408"},"vehicle_type_id":"4","last_reported":1752855358,"current_range_meters":6000,"station_id":"st_cvj5dfep6f1abm77gieg","pricing_plan_id":"cebpf4jnsgd1na2vs0mg"},{"bike_id":"20e1cc30-ccbe-478e-bcb7-dc20e13576d1","system_id":"levelo_inurba_marseille","lat":43.28431,"lon":5.34988,"is_reserved":false,"is_disabled":true,"rental_uris":{"android":"levelo://app?vid=20e1cc30-ccbe-478e-bcb7-dc20e13576d1","ios":"levelo://app?vid=20e1cc30-ccbe-478e-bcb7-dc20e13576d1"},"vehicle_type_id":"4","last_reported":1752855358,"current_range_meters":6400,"station_id":"ce4bhbh2rcd13ifvqepg","pricing_plan_id":"cebpf4jnsgd1na2vs0mg"},{"bike_id":"9042c2e5-b70c-470c-b250-ab450dc4048e","system_id":"levelo_inurba_marseille","lat":43.33755,"lon":5.37455,"is_reserved":false,"is_disabled":false,"rental_uris":{"android":"levelo://app?vid=9042c2e5-b70c-470c-b250-ab450dc4048e","ios":"levelo://app?vid=9042c2e5-b70c-470c-b250-ab450dc4048e"},"vehicle_type_id":"4","last_reported":1752855358,"current_range_meters":6400,"station_id":"","pricing_plan_id":"cebpf4jnsgd1na2vs0mg"},{"bike_id":"f0430a6e-8bf6-4716-821a-877fb55761c0","system_id":"levelo_inurba_marseille","lat":43.256111,"lon":5.382366,"is_reserved":false,"is_disabled":false,"rental_uris":{"android":"levelo://app?vid=f0430a6e-8bf6-4716-821a-877fb55761c0","ios":"levelo://app?vid=f0430a6e-8bf6-4716-821a-877fb55761c0"},"vehicle_type_id":"4","last_reported":1752855358,"current_range_meters":6400,"station_id":"ce4bhih2rcd13ifvqfs0","pricing_plan_id":"cebpf4jnsgd1na2vs0mg"},{"bike_id":"eeb43f80-4452-43d0-ab14-32ac7c54d6e5","system_id":"levelo_inurba_marseille","lat":43.29277,"lon":5.36842,"is_reserved":false,"is_disabled":false,"rental_uris":{"android":"levelo://app?vid=eeb43f80-4452-43d0-ab14-32ac7c54d6e5","ios":"levelo://app?vid=eeb43f80-4452-43d0-ab14-32ac7c54d6e5"},"vehicle_type_id":"4","last_reported":1752855358,"current_range_meters":6400,"station_id":"ce4bhbp2rcd13ifvqesg","pricing_plan_id":"cebpf4jnsgd1na2vs0mg"},{"bike_id":"24be87eb-7845-4064-85ce-9fff6548675b","system_id":"levelo_inurba_marseille","lat":43.29252,"lon":5.40911,"is_reserved":false,"is_disabled":false,"rental_uris":{"android":"levelo://app?vid=24be87eb-7845-4064-85ce-9fff6548675b","ios":"levelo://app?vid=24be87eb-7845-4064-85ce-9fff6548675b"},"vehicle_type_id":"4","last_reported":1752855358,"current_range_meters":6800,"station_id":"ce4bh192rcd13ifvqdc0","pricing_plan_id":"cebpf4jnsgd1na2vs0mg"},{"bike_id":"3f865d2e-5f6b-49a4-a2ce-2fabf1e7ab0a","system_id":"levelo_inurba_marseille","lat":43.29277,"lon":5.40113,"is_reserved":false,"is_disabled":false,"rental_uris":{"android":"levelo://app?vid=3f865d2e-5f6b-49a4-a2ce-2fabf1e7ab0a","ios":"levelo://app?vid=3f865d2e-5f6b-49a4-a2ce-2fabf1e7ab0a"},"vehicle_type_id":"4","last_reported":1752855358,"current_range_meters":6800,"station_id":"ce4bh312rcd13ifvqdk0","pricing_plan_id":"cebpf4jnsgd1na2vs0mg"},{"bike_id":"672e62be-08f7-4b44-a8c9-5f8d0b5b7450","system_id":"levelo_inurba_marseille","lat":43.22497,"lon":5.34777,"is_reserved":false,"is_disabled":false,"rental_uris":{"android":"levelo://app?vid=672e62be-08f7-4b44-a8c9-5f8d0b5b7450","ios":"levelo://app?vid=672e62be-08f7-4b44-a8c9-5f8d0b5b7450"},"vehicle_type_id":"4","last_reported":1752855358,"current_range_meters":6800,"station_id":"st_cvj5dfep6f1abm77gieg","pricing_plan_id":"cebpf4jnsgd1na2vs0mg"},{"bike_id":"f7b36973-5e68-434f-9f9a-f2743d7e1cd7","system_id":"levelo_inurba_marseille","lat":43.31331,"lon":5.39692,"is_reserved":false,"is_disabled":false,"rental_uris":{"android":"levelo://app?vid=f7b36973-5e68-434f-9f9a-f2743d7e1cd7","ios":"levelo://app?vid=f7b36973-5e68-434f-9f9a-f2743d7e1cd7"},"vehicle_type_id":"4","last_reported":1752855358,"current_range_meters":6800,"station_id":"ce4bgvp2rcd13ifvqcu0","pricing_plan_id":"cebpf4jnsgd1na2vs0mg"},{"bike_id":"3428aeb7-486e-4ec8-8e3e-c25266778418","system_id":"levelo_inurba_marseille","lat":43.24801,"lon":5.37447,"is_reserved":false,"is_disabled":false,"rental_uris":{"android":"levelo://app?vid=3428aeb7-486e-4ec8-8e3e-c25266778418","ios":"levelo://app?vid=3428aeb7-486e-4ec8-8e3e-c25266778418"},"vehicle_type_id":"4","last_reported":1752855358,"current_range_meters":7200,"station_id":"ce4bhgh2rcd13ifvqfb0","pricing_plan_id":"cebpf4jnsgd1na2vs0mg"},{"bike_id":"e95b1477-33a1-48a7-a021-3878a6895222","system_id":"levelo_inurba_marseille","lat":43.217529,"lon":5.345955,"is_reserved":false,"is_disabled":false,"rental_uris":{"android":"levelo://app?vid=e95b1477-33a1-48a7-a021-3878a6895222","ios":"levelo://app?vid=e95b1477-33a1-48a7-a021-3878a6895222"},"vehicle_type_id":"4","last_reported":1752855358,"current_range_meters":7200,"station_id":"st_cvj6r9ubvosntc0bgbag","pricing_plan_id":"cebpf4jnsgd1na2vs0mg"},{"bike_id":"d32e6b31-9a32-44f8-a8b8-8810bd8aeca8","system_id":"levelo_inurba_marseille","lat":43.29893,"lon":5.43667,"is_reserved":false,"is_disabled":false,"rental_uris":{"android":"levelo://app?vid=d32e6b31-9a32-44f8-a8b8-8810bd8aeca8","ios":"levelo://app?vid=d32e6b31-9a32-44f8-a8b8-8810bd8aeca8"},"vehicle_type_id":"4","last_reported":1752855358,"current_range_meters":7200,"station_id":"ce4bhpp2rcd13ifvqhfg","pricing_plan_id":"cebpf4jnsgd1na2vs0mg"},{"bike_id":"b6e7c63e-2cd4-426f-95c4-41d8430d1c8e","system_id":"levelo_inurba_marseille","lat":43.2731,"lon":5.39075,"is_reserved":false,"is_disabled":false,"rental_uris":{"android":"levelo://app?vid=b6e7c63e-2cd4-426f-95c4-41d8430d1c8e","ios":"levelo://app?vid=b6e7c63e-2cd4-426f-95c4-41d8430d1c8e"},"vehicle_type_id":"4","last_reported":1752855358,"current_range_meters":9200,"station_id":"ce4bhgp2rcd13ifvqfe0","pricing_plan_id":"cebpf4jnsgd1na2vs0mg"},{"bike_id":"04d15a50-cb94-495c-969c-c09473f1fcda","system_id":"levelo_inurba_marseille","lat":43.296196,"lon":5.377039,"is_reserved":false,"is_disabled":true,"rental_uris":{"android":"levelo://app?vid=04d15a50-cb94-495c-969c-c09473f1fcda","ios":"levelo://app?vid=04d15a50-cb94-495c-969c-c09473f1fcda"},"vehicle_type_id":"4","last_reported":1752855358,"current_range_meters":8000,"station_id":"","pricing_plan_id":"cebpf4jnsgd1na2vs0mg"},{"bike_id":"3444bdc6-514a-4ba6-9650-f9073305e33d","system_id":"levelo_inurba_marseille","lat":43.29682,"lon":5.3698,"is_reserved":false,"is_disabled":false,"rental_uris":{"android":"levelo://app?vid=3444bdc6-514a-4ba6-9650-f9073305e33d","ios":"levelo://app?vid=3444bdc6-514a-4ba6-9650-f9073305e33d"},"vehicle_type_id":"4","last_reported":1752855358,"current_range_meters":8000,"station_id":"","pricing_plan_id":"cebpf4jnsgd1na2vs0mg"},{"bike_id":"9f73e6e2-4a21-4b75-96a7-56409ac7e891","system_id":"levelo_inurba_marseille","lat":43.28266,"lon":5.35079,"is_reserved":false,"is_disabled":false,"rental_uris":{"android":"levelo://app?vid=9f73e6e2-4a21-4b75-96a7-56409ac7e891","ios":"levelo://app?vid=9f73e6e2-4a21-4b75-96a7-56409ac7e891"},"vehicle_type_id":"4","last_reported":1752855358,"current_range_meters":8000,"station_id":"ce4bhbp2rcd13ifvqerg","pricing_plan_id":"cebpf4jnsgd1na2vs0mg"},{"bike_id":"fcb43646-13dd-4cea-b3e4-460cae3cbed7","system_id":"levelo_inurba_marseille","lat":43.22517,"lon":5.34779,"is_reserved":false,"is_disabled":false,"rental_uris":{"android":"levelo://app?vid=fcb43646-13dd-4cea-b3e4-460cae3cbed7","ios":"levelo://app?vid=fcb43646-13dd-4cea-b3e4-460cae3cbed7"},"vehicle_type_id":"4","last_reported":1752855358,"current_range_meters":8000,"station_id":"st_cvj5dfep6f1abm77gieg","pricing_plan_id":"cebpf4jnsgd1na2vs0mg"},{"bike_id":"555bc53e-5286-4fb6-9154-af42b3fd9792","system_id":"levelo_inurba_marseille","lat":43.300599,"lon":5.372981,"is_reserved":false,"is_disabled":false,"rental_uris":{"android":"levelo://app?vid=555bc53e-5286-4fb6-9154-af42b3fd9792","ios":"levelo://app?vid=555bc53e-5286-4fb6-9154-af42b3fd9792"},"vehicle_type_id":"4","last_reported":1752855358,"current_range_meters":8000,"station_id":"","pricing_plan_id":"cebpf4jnsgd1na2vs0mg"},{"bike_id":"775e3ace-9991-4f97-aa6c-b1413415bd28","system_id":"levelo_inurba_marseille","lat":43.31072,"lon":5.38355,"is_reserved":false,"is_disabled":false,"rental_uris":{"android":"levelo://app?vid=775e3ace-9991-4f97-aa6c-b1413415bd28","ios":"levelo://app?vid=775e3ace-9991-4f97-aa6c-b1413415bd28"},"vehicle_type_id":"4","last_reported":1752855358,"current_range_meters":8000,"station_id":"ce4bgv92rcd13ifvqcr0","pricing_plan_id":"cebpf4jnsgd1na2vs0mg"},{"bike_id":"5f5fccba-840b-436a-94b0-649257a09bcb","system_id":"levelo_inurba_marseille","lat":43.29004,"lon":5.35613,"is_reserved":false,"is_disabled":false,"rental_uris":{"android":"levelo://app?vid=5f5fccba-840b-436a-94b0-649257a09bcb","ios":"levelo://app?vid=5f5fccba-840b-436a-94b0-649257a09bcb"},"vehicle_type_id":"4","last_reported":1752855358,"current_range_meters":7200,"station_id":"ce4bhb92rcd13ifvqen0","pricing_plan_id":"cebpf4jnsgd1na2vs0mg"},{"bike_id":"dfdad5c9-d2d6-46d5-916b-d7ace8782ce3","system_id":"levelo_inurba_marseille","lat":43.28277,"lon":5.35073,"is_reserved":false,"is_disabled":false,"rental_uris":{"android":"levelo://app?vid=dfdad5c9-d2d6-46d5-916b-d7ace8782ce3","ios":"levelo://app?vid=dfdad5c9-d2d6-46d5-916b-d7ace8782ce3"},"vehicle_type_id":"4","last_reported":1752855358,"current_range_meters":8400,"station_id":"ce4bhbp2rcd13ifvqerg","pricing_plan_id":"cebpf4jnsgd1na2vs0mg"},{"bike_id":"d1b1ae6f-562f-42f0-a958-cbc912a1619d","system_id":"levelo_inurba_marseille","lat":43.276244,"lon":5.361053,"is_reserved":false,"is_disabled":true,"rental_uris":{"android":"levelo://app?vid=d1b1ae6f-562f-42f0-a958-cbc912a1619d","ios":"levelo://app?vid=d1b1ae6f-562f-42f0-a958-cbc912a1619d"},"vehicle_type_id":"4","last_reported":1752855358,"current_range_meters":8400,"station_id":"ce4bgj92rcd13ifvqbe0","pricing_plan_id":"cebpf4jnsgd1na2vs0mg"},{"bike_id":"90a2cc51-3463-4f70-9f5e-90a57a3aa86c","system_id":"levelo_inurba_marseille","lat":43.24662,"lon":5.38162,"is_reserved":false,"is_disabled":false,"rental_uris":{"android":"levelo://app?vid=90a2cc51-3463-4f70-9f5e-90a57a3aa86c","ios":"levelo://app?vid=90a2cc51-3463-4f70-9f5e-90a57a3aa86c"},"vehicle_type_id":"4","last_reported":1752855358,"current_range_meters":8400,"station_id":"ce4bhih2rcd13ifvqfr0","pricing_plan_id":"cebpf4jnsgd1na2vs0mg"},{"bike_id":"28d27c17-e6ca-4cec-aec9-f1f6696b8a12","system_id":"levelo_inurba_marseille","lat":43.29911,"lon":5.43663,"is_reserved":false,"is_disabled":true,"rental_uris":{"android":"levelo://app?vid=28d27c17-e6ca-4cec-aec9-f1f6696b8a12","ios":"levelo://app?vid=28d27c17-e6ca-4cec-aec9-f1f6696b8a12"},"vehicle_type_id":"4","last_reported":1752855358,"current_range_meters":8400,"station_id":"ce4bhpp2rcd13ifvqhfg","pricing_plan_id":"cebpf4jnsgd1na2vs0mg"},{"bike_id":"6066c56e-faf4-49a6-91b3-e2de725ab924","system_id":"levelo_inurba_marseille","lat":43.29273,"lon":5.36842,"is_reserved":false,"is_disabled":false,"rental_uris":{"android":"levelo://app?vid=6066c56e-faf4-49a6-91b3-e2de725ab924","ios":"levelo://app?vid=6066c56e-faf4-49a6-91b3-e2de725ab924"},"vehicle_type_id":"4","last_reported":1752855358,"current_range_meters":8400,"station_id":"ce4bhbp2rcd13ifvqesg","pricing_plan_id":"cebpf4jnsgd1na2vs0mg"},{"bike_id":"2c16edf7-5ade-4450-b264-a118c0a60e8d","system_id":"levelo_inurba_marseille","lat":43.27381,"lon":5.3627,"is_reserved":false,"is_disabled":false,"rental_uris":{"android":"levelo://app?vid=2c16edf7-5ade-4450-b264-a118c0a60e8d","ios":"levelo://app?vid=2c16edf7-5ade-4450-b264-a118c0a60e8d"},"vehicle_type_id":"4","last_reported":1752855358,"current_range_meters":8800,"station_id":"ce4bhbh2rcd13ifvqeo0","pricing_plan_id":"cebpf4jnsgd1na2vs0mg"},{"bike_id":"b315058f-ef7a-41a0-b37b-bd541cf7a96e","system_id":"levelo_inurba_marseille","lat":43.21736,"lon":5.34628,"is_reserved":false,"is_disabled":false,"rental_uris":{"android":"levelo://app?vid=b315058f-ef7a-41a0-b37b-bd541cf7a96e","ios":"levelo://app?vid=b315058f-ef7a-41a0-b37b-bd541cf7a96e"},"vehicle_type_id":"4","last_reported":1752855358,"current_range_meters":8800,"station_id":"st_cvj6r9ubvosntc0bgbag","pricing_plan_id":"cebpf4jnsgd1na2vs0mg"},{"bike_id":"79e00cba-979b-4370-b320-7e4857db9893","system_id":"levelo_inurba_marseille","lat":43.337444,"lon":5.374475,"is_reserved":false,"is_disabled":false,"rental_uris":{"android":"levelo://app?vid=79e00cba-979b-4370-b320-7e4857db9893","ios":"levelo://app?vid=79e00cba-979b-4370-b320-7e4857db9893"},"vehicle_type_id":"4","last_reported":1752855358,"current_range_meters":8800,"station_id":"","pricing_plan_id":"cebpf4jnsgd1na2vs0mg"},{"bike_id":"59c4ea9b-5fbf-45c8-99f9-8cebbc0b9245","system_id":"levelo_inurba_marseille","lat":43.32042,"lon":5.41547,"is_reserved":false,"is_disabled":false,"rental_uris":{"android":"levelo://app?vid=59c4ea9b-5fbf-45c8-99f9-8cebbc0b9245","ios":"levelo://app?vid=59c4ea9b-5fbf-45c8-99f9-8cebbc0b9245"},"vehicle_type_id":"4","last_reported":1752855358,"current_range_meters":8800,"station_id":"ce4bhq92rcd13ifvqhkg","pricing_plan_id":"cebpf4jnsgd1na2vs0mg"},{"bike_id":"c4307be4-fea2-4815-af9d-70c59f98b564","system_id":"levelo_inurba_marseille","lat":43.30192,"lon":5.36628,"is_reserved":false,"is_disabled":false,"rental_uris":{"android":"levelo://app?vid=c4307be4-fea2-4815-af9d-70c59f98b564","ios":"levelo://app?vid=c4307be4-fea2-4815-af9d-70c59f98b564"},"vehicle_type_id":"4","last_reported":1752855358,"current_range_meters":8400,"station_id":"ce4bgrh2rcd13ifvqc8g","pricing_plan_id":"cebpf4jnsgd1na2vs0mg"},{"bike_id":"09c73347-5077-4395-8b92-ee94d41e0a24","system_id":"levelo_inurba_marseille","lat":43.28653,"lon":5.36344,"is_reserved":false,"is_disabled":true,"rental_uris":{"android":"levelo://app?vid=09c73347-5077-4395-8b92-ee94d41e0a24","ios":"levelo://app?vid=09c73347-5077-4395-8b92-ee94d41e0a24"},"vehicle_type_id":"4","last_reported":1752855358,"current_range_meters":8800,"station_id":"ce4bhah2rcd13ifvqej0","pricing_plan_id":"cebpf4jnsgd1na2vs0mg"},{"bike_id":"7ba69901-210a-463b-84fb-7ad044564174","system_id":"levelo_inurba_marseille","lat":43.29698,"lon":5.36596,"is_reserved":false,"is_disabled":false,"rental_uris":{"android":"levelo://app?vid=7ba69901-210a-463b-84fb-7ad044564174","ios":"levelo://app?vid=7ba69901-210a-463b-84fb-7ad044564174"},"vehicle_type_id":"4","last_reported":1752855358,"current_range_meters":8800,"station_id":"ce4bgn12rcd13ifvqbt0","pricing_plan_id":"cebpf4jnsgd1na2vs0mg"},{"bike_id":"66fa49c2-2824-48a9-ae61-8deb3da1cd36","system_id":"levelo_inurba_marseille","lat":43.280883,"lon":5.347109,"is_reserved":false,"is_disabled":false,"rental_uris":{"android":"levelo://app?vid=66fa49c2-2824-48a9-ae61-8deb3da1cd36","ios":"levelo://app?vid=66fa49c2-2824-48a9-ae61-8deb3da1cd36"},"vehicle_type_id":"4","last_reported":1752855358,"current_range_meters":9200,"station_id":"ce4bhbh2rcd13ifvqepg","pricing_plan_id":"cebpf4jnsgd1na2vs0mg"},{"bike_id":"ba27d66c-ed19-4552-958e-386bc2b15424","system_id":"levelo_inurba_marseille","lat":43.29877,"lon":5.3972,"is_reserved":false,"is_disabled":false,"rental_uris":{"android":"levelo://app?vid=ba27d66c-ed19-4552-958e-386bc2b15424","ios":"levelo://app?vid=ba27d66c-ed19-4552-958e-386bc2b15424"},"vehicle_type_id":"4","last_reported":1752855358,"current_range_meters":12000,"station_id":"ce4bh0h2rcd13ifvqd50","pricing_plan_id":"cebpf4jnsgd1na2vs0mg"},{"bike_id":"bc450358-24c6-46d8-8cb6-25b88710537b","system_id":"levelo_inurba_marseille","lat":43.31216,"lon":5.36847,"is_reserved":false,"is_disabled":false,"rental_uris":{"android":"levelo://app?vid=bc450358-24c6-46d8-8cb6-25b88710537b","ios":"levelo://app?vid=bc450358-24c6-46d8-8cb6-25b88710537b"},"vehicle_type_id":"4","last_reported":1752855358,"current_range_meters":8800,"station_id":"ce4bgl92rcd13ifvqbq0","pricing_plan_id":"cebpf4jnsgd1na2vs0mg"},{"bike_id":"099ae2eb-7e12-4a06-8661-cd3ddb32ea32","system_id":"levelo_inurba_marseille","lat":43.29927,"lon":5.374723,"is_reserved":false,"is_disabled":false,"rental_uris":{"android":"levelo://app?vid=099ae2eb-7e12-4a06-8661-cd3ddb32ea32","ios":"levelo://app?vid=099ae2eb-7e12-4a06-8661-cd3ddb32ea32"},"vehicle_type_id":"4","last_reported":1752855358,"current_range_meters":9200,"station_id":"ce4bgjh2rcd13ifvqbg0","pricing_plan_id":"cebpf4jnsgd1na2vs0mg"},{"bike_id":"277985b2-1886-47fa-b875-46027df0b8fc","system_id":"levelo_inurba_marseille","lat":43.30887,"lon":5.39654,"is_reserved":false,"is_disabled":false,"rental_uris":{"android":"levelo://app?vid=277985b2-1886-47fa-b875-46027df0b8fc","ios":"levelo://app?vid=277985b2-1886-47fa-b875-46027df0b8fc"},"vehicle_type_id":"4","last_reported":1752855358,"current_range_meters":9200,"station_id":"ce4bh012rcd13ifvqcv0","pricing_plan_id":"cebpf4jnsgd1na2vs0mg"},{"bike_id":"8c613543-5225-4069-ab9d-d5d3f92a8f34","system_id":"levelo_inurba_marseille","lat":43.2862,"lon":5.35104,"is_reserved":false,"is_disabled":false,"rental_uris":{"android":"levelo://app?vid=8c613543-5225-4069-ab9d-d5d3f92a8f34","ios":"levelo://app?vid=8c613543-5225-4069-ab9d-d5d3f92a8f34"},"vehicle_type_id":"4","last_reported":1752855358,"current_range_meters":9200,"station_id":"ce4bhch2rcd13ifvqeug","pricing_plan_id":"cebpf4jnsgd1na2vs0mg"},{"bike_id":"3f54dcd2-ad05-466a-bcc6-39770b612c39","system_id":"levelo_inurba_marseille","lat":43.32043,"lon":5.41548,"is_reserved":false,"is_disabled":false,"rental_uris":{"android":"levelo://app?vid=3f54dcd2-ad05-466a-bcc6-39770b612c39","ios":"levelo://app?vid=3f54dcd2-ad05-466a-bcc6-39770b612c39"},"vehicle_type_id":"4","last_reported":1752855358,"current_range_meters":8800,"station_id":"ce4bhq92rcd13ifvqhkg","pricing_plan_id":"cebpf4jnsgd1na2vs0mg"},{"bike_id":"07f5ae19-0925-43ef-aab4-48ec58bc62b9","system_id":"levelo_inurba_marseille","lat":43.31468,"lon":5.37433,"is_reserved":false,"is_disabled":false,"rental_uris":{"android":"levelo://app?vid=07f5ae19-0925-43ef-aab4-48ec58bc62b9","ios":"levelo://app?vid=07f5ae19-0925-43ef-aab4-48ec58bc62b9"},"vehicle_type_id":"4","last_reported":1752855358,"current_range_meters":9200,"station_id":"","pricing_plan_id":"cebpf4jnsgd1na2vs0mg"},{"bike_id":"0f1e0ed6-4e35-491f-9e04-106572b348eb","system_id":"levelo_inurba_marseille","lat":43.28161,"lon":5.42637,"is_reserved":false,"is_disabled":false,"rental_uris":{"android":"levelo://app?vid=0f1e0ed6-4e35-491f-9e04-106572b348eb","ios":"levelo://app?vid=0f1e0ed6-4e35-491f-9e04-106572b348eb"},"vehicle_type_id":"4","last_reported":1752855358,"current_range_meters":9200,"station_id":"ce4bhnh2rcd13ifvqgug","pricing_plan_id":"cebpf4jnsgd1na2vs0mg"},{"bike_id":"78428946-6f44-43e9-96f1-0775c9948eb2","system_id":"levelo_inurba_marseille","lat":43.25115,"lon":5.40319,"is_reserved":false,"is_disabled":false,"rental_uris":{"android":"levelo://app?vid=78428946-6f44-43e9-96f1-0775c9948eb2","ios":"levelo://app?vid=78428946-6f44-43e9-96f1-0775c9948eb2"},"vehicle_type_id":"4","last_reported":1752855358,"current_range_meters":8800,"station_id":"ce4bhlh2rcd13ifvqgig","pricing_plan_id":"cebpf4jnsgd1na2vs0mg"},{"bike_id":"9dcf68a8-f53c-495e-a2af-4658047ec671","system_id":"levelo_inurba_marseille","lat":43.30252,"lon":5.40064,"is_reserved":false,"is_disabled":false,"rental_uris":{"android":"levelo://app?vid=9dcf68a8-f53c-495e-a2af-4658047ec671","ios":"levelo://app?vid=9dcf68a8-f53c-495e-a2af-4658047ec671"},"vehicle_type_id":"4","last_reported":1752855358,"current_range_meters":17600,"station_id":"ce4bgvh2rcd13ifvqcs0","pricing_plan_id":"cebpf4jnsgd1na2vs0mg"},{"bike_id":"4f1b8f86-9f1e-4d3a-9a09-ea87db38dfc6","system_id":"levelo_inurba_marseille","lat":43.28633,"lon":5.35095,"is_reserved":false,"is_disabled":false,"rental_uris":{"android":"levelo://app?vid=4f1b8f86-9f1e-4d3a-9a09-ea87db38dfc6","ios":"levelo://app?vid=4f1b8f86-9f1e-4d3a-9a09-ea87db38dfc6"},"vehicle_type_id":"4","last_reported":1752855358,"current_range_meters":9600,"station_id":"ce4bhch2rcd13ifvqeug","pricing_plan_id":"cebpf4jnsgd1na2vs0mg"},{"bike_id":"7b84559a-af8f-4246-84ca-b10702559d83","system_id":"levelo_inurba_marseille","lat":43.25874,"lon":5.39913,"is_reserved":false,"is_disabled":false,"rental_uris":{"android":"levelo://app?vid=7b84559a-af8f-4246-84ca-b10702559d83","ios":"levelo://app?vid=7b84559a-af8f-4246-84ca-b10702559d83"},"vehicle_type_id":"4","last_reported":1752855358,"current_range_meters":9600,"station_id":"ce4bhl92rcd13ifvqghg","pricing_plan_id":"cebpf4jnsgd1na2vs0mg"},{"bike_id":"2ac93549-5c94-4228-8eea-782a21384d10","system_id":"levelo_inurba_marseille","lat":43.29634,"lon":5.37793,"is_reserved":false,"is_disabled":false,"rental_uris":{"android":"levelo://app?vid=2ac93549-5c94-4228-8eea-782a21384d10","ios":"levelo://app?vid=2ac93549-5c94-4228-8eea-782a21384d10"},"vehicle_type_id":"4","last_reported":1752855358,"current_range_meters":10000,"station_id":"","pricing_plan_id":"cebpf4jnsgd1na2vs0mg"},{"bike_id":"91a5bc5c-3617-4d66-b762-ddf062a5169f","system_id":"levelo_inurba_marseille","lat":43.31232,"lon":5.36855,"is_reserved":false,"is_disabled":false,"rental_uris":{"android":"levelo://app?vid=91a5bc5c-3617-4d66-b762-ddf062a5169f","ios":"levelo://app?vid=91a5bc5c-3617-4d66-b762-ddf062a5169f"},"vehicle_type_id":"4","last_reported":1752855358,"current_range_meters":9600,"station_id":"ce4bgl92rcd13ifvqbq0","pricing_plan_id":"cebpf4jnsgd1na2vs0mg"},{"bike_id":"255f63b3-d391-461e-9168-7b692342f2c5","system_id":"levelo_inurba_marseille","lat":43.21198,"lon":5.35091,"is_reserved":false,"is_disabled":false,"rental_uris":{"android":"levelo://app?vid=255f63b3-d391-461e-9168-7b692342f2c5","ios":"levelo://app?vid=255f63b3-d391-461e-9168-7b692342f2c5"},"vehicle_type_id":"4","last_reported":1752855358,"current_range_meters":10800,"station_id":"st_cvj6sg6p6f1abm77japg","pricing_plan_id":"cebpf4jnsgd1na2vs0mg"},{"bike_id":"a812c19a-3003-40c8-a719-f9e929e5731c","system_id":"levelo_inurba_marseille","lat":43.26065,"lon":5.39396,"is_reserved":false,"is_disabled":false,"rental_uris":{"android":"levelo://app?vid=a812c19a-3003-40c8-a719-f9e929e5731c","ios":"levelo://app?vid=a812c19a-3003-40c8-a719-f9e929e5731c"},"vehicle_type_id":"4","last_reported":1752855358,"current_range_meters":10800,"station_id":"ce4bhh92rcd13ifvqfj0","pricing_plan_id":"cebpf4jnsgd1na2vs0mg"},{"bike_id":"da891840-0cec-4ccc-961c-48903736c6fa","system_id":"levelo_inurba_marseille","lat":43.31139,"lon":5.37692,"is_reserved":false,"is_disabled":false,"rental_uris":{"android":"levelo://app?vid=da891840-0cec-4ccc-961c-48903736c6fa","ios":"levelo://app?vid=da891840-0cec-4ccc-961c-48903736c6fa"},"vehicle_type_id":"4","last_reported":1752855358,"current_range_meters":10800,"station_id":"","pricing_plan_id":"cebpf4jnsgd1na2vs0mg"},{"bike_id":"501c62ad-efda-4074-a75a-47e04606411b","system_id":"levelo_inurba_marseille","lat":43.28414,"lon":5.34976,"is_reserved":false,"is_disabled":false,"rental_uris":{"android":"levelo://app?vid=501c62ad-efda-4074-a75a-47e04606411b","ios":"levelo://app?vid=501c62ad-efda-4074-a75a-47e04606411b"},"vehicle_type_id":"4","last_reported":1752855358,"current_range_meters":10800,"station_id":"ce4bhbh2rcd13ifvqepg","pricing_plan_id":"cebpf4jnsgd1na2vs0mg"},{"bike_id":"5f37b687-46c5-459e-8bae-49ced584aac6","system_id":"levelo_inurba_marseille","lat":43.29873,"lon":5.39745,"is_reserved":false,"is_disabled":false,"rental_uris":{"android":"levelo://app?vid=5f37b687-46c5-459e-8bae-49ced584aac6","ios":"levelo://app?vid=5f37b687-46c5-459e-8bae-49ced584aac6"},"vehicle_type_id":"4","last_reported":1752855358,"current_range_meters":10800,"station_id":"ce4bh0h2rcd13ifvqd50","pricing_plan_id":"cebpf4jnsgd1na2vs0mg"},{"bike_id":"e555b545-304c-4dce-8496-1643c0f2600e","system_id":"levelo_inurba_marseille","lat":43.337444,"lon":5.374475,"is_reserved":false,"is_disabled":false,"rental_uris":{"android":"levelo://app?vid=e555b545-304c-4dce-8496-1643c0f2600e","ios":"levelo://app?vid=e555b545-304c-4dce-8496-1643c0f2600e"},"vehicle_type_id":"4","last_reported":1752855358,"current_range_meters":10800,"station_id":"","pricing_plan_id":"cebpf4jnsgd1na2vs0mg"},{"bike_id":"531dca68-8617-41b0-a6cd-abffc94e1d45","system_id":"levelo_inurba_marseille","lat":43.31199,"lon":5.37331,"is_reserved":false,"is_disabled":false,"rental_uris":{"android":"levelo://app?vid=531dca68-8617-41b0-a6cd-abffc94e1d45","ios":"levelo://app?vid=531dca68-8617-41b0-a6cd-abffc94e1d45"},"vehicle_type_id":"4","last_reported":1752855358,"current_range_meters":10800,"station_id":"","pricing_plan_id":"cebpf4jnsgd1na2vs0mg"},{"bike_id":"a0169883-e9bf-4669-a82a-cbd24ebbde58","system_id":"levelo_inurba_marseille","lat":43.260596,"lon":5.393976,"is_reserved":false,"is_disabled":false,"rental_uris":{"android":"levelo://app?vid=a0169883-e9bf-4669-a82a-cbd24ebbde58","ios":"levelo://app?vid=a0169883-e9bf-4669-a82a-cbd24ebbde58"},"vehicle_type_id":"4","last_reported":1752855358,"current_range_meters":10000,"station_id":"ce4bhh92rcd13ifvqfj0","pricing_plan_id":"cebpf4jnsgd1na2vs0mg"},{"bike_id":"0af88599-6653-4379-a21b-d902e6c6ea7c","system_id":"levelo_inurba_marseille","lat":43.2841,"lon":5.34968,"is_reserved":false,"is_disabled":false,"rental_uris":{"android":"levelo://app?vid=0af88599-6653-4379-a21b-d902e6c6ea7c","ios":"levelo://app?vid=0af88599-6653-4379-a21b-d902e6c6ea7c"},"vehicle_type_id":"4","last_reported":1752855358,"current_range_meters":11200,"station_id":"ce4bhbh2rcd13ifvqepg","pricing_plan_id":"cebpf4jnsgd1na2vs0mg"},{"bike_id":"548bb1f5-f7bd-43e1-874a-af75002711c1","system_id":"levelo_inurba_marseille","lat":43.2828,"lon":5.35074,"is_reserved":false,"is_disabled":false,"rental_uris":{"android":"levelo://app?vid=548bb1f5-f7bd-43e1-874a-af75002711c1","ios":"levelo://app?vid=548bb1f5-f7bd-43e1-874a-af75002711c1"},"vehicle_type_id":"4","last_reported":1752855358,"current_range_meters":11200,"station_id":"ce4bhbp2rcd13ifvqerg","pricing_plan_id":"cebpf4jnsgd1na2vs0mg"},{"bike_id":"d84e942b-5f3c-4596-9977-8553e1d3b861","system_id":"levelo_inurba_marseille","lat":43.28272,"lon":5.35066,"is_reserved":false,"is_disabled":false,"rental_uris":{"android":"levelo://app?vid=d84e942b-5f3c-4596-9977-8553e1d3b861","ios":"levelo://app?vid=d84e942b-5f3c-4596-9977-8553e1d3b861"},"vehicle_type_id":"4","last_reported":1752855358,"current_range_meters":11200,"station_id":"ce4bhbp2rcd13ifvqerg","pricing_plan_id":"cebpf4jnsgd1na2vs0mg"},{"bike_id":"8849a529-b609-477b-9f36-09b672ce4fdd","system_id":"levelo_inurba_marseille","lat":43.29255,"lon":5.37617,"is_reserved":false,"is_disabled":true,"rental_uris":{"android":"levelo://app?vid=8849a529-b609-477b-9f36-09b672ce4fdd","ios":"levelo://app?vid=8849a529-b609-477b-9f36-09b672ce4fdd"},"vehicle_type_id":"4","last_reported":1752855358,"current_range_meters":11200,"station_id":"ce4bgi12rcd13ifvqb80","pricing_plan_id":"cebpf4jnsgd1na2vs0mg"},{"bike_id":"48f9916e-ebaa-4fd9-942b-1ecdb5b5c537","system_id":"levelo_inurba_marseille","lat":43.29033,"lon":5.37564,"is_reserved":false,"is_disabled":false,"rental_uris":{"android":"levelo://app?vid=48f9916e-ebaa-4fd9-942b-1ecdb5b5c537","ios":"levelo://app?vid=48f9916e-ebaa-4fd9-942b-1ecdb5b5c537"},"vehicle_type_id":"4","last_reported":1752855358,"current_range_meters":11200,"station_id":"ce4bh692rcd13ifvqe90","pricing_plan_id":"cebpf4jnsgd1na2vs0mg"},{"bike_id":"3fe83527-d3b9-4e83-97fb-d38d532658ae","system_id":"levelo_inurba_marseille","lat":43.26569,"lon":5.39013,"is_reserved":false,"is_disabled":false,"rental_uris":{"android":"levelo://app?vid=3fe83527-d3b9-4e83-97fb-d38d532658ae","ios":"levelo://app?vid=3fe83527-d3b9-4e83-97fb-d38d532658ae"},"vehicle_type_id":"4","last_reported":1752855358,"current_range_meters":11200,"station_id":"ce4bhe12rcd13ifvqf30","pricing_plan_id":"cebpf4jnsgd1na2vs0mg"},{"bike_id":"7f4e528e-ccef-4a5c-a828-1e753b5769ed","system_id":"levelo_inurba_marseille","lat":43.31122,"lon":5.37775,"is_reserved":false,"is_disabled":false,"rental_uris":{"android":"levelo://app?vid=7f4e528e-ccef-4a5c-a828-1e753b5769ed","ios":"levelo://app?vid=7f4e528e-ccef-4a5c-a828-1e753b5769ed"},"vehicle_type_id":"4","last_reported":1752855358,"current_range_meters":11200,"station_id":"ce4bgt92rcd13ifvqcg0","pricing_plan_id":"cebpf4jnsgd1na2vs0mg"},{"bike_id":"e95945e9-e0e8-42d2-babc-3e4c3373619c","system_id":"levelo_inurba_marseille","lat":43.29006,"lon":5.35613,"is_reserved":false,"is_disabled":false,"rental_uris":{"android":"levelo://app?vid=e95945e9-e0e8-42d2-babc-3e4c3373619c","ios":"levelo://app?vid=e95945e9-e0e8-42d2-babc-3e4c3373619c"},"vehicle_type_id":"4","last_reported":1752855358,"current_range_meters":11600,"station_id":"ce4bhb92rcd13ifvqen0","pricing_plan_id":"cebpf4jnsgd1na2vs0mg"},{"bike_id":"3a1a7daa-9dd2-429c-b8ba-1379165f2872","system_id":"levelo_inurba_marseille","lat":43.31232,"lon":5.3687,"is_reserved":false,"is_disabled":false,"rental_uris":{"android":"levelo://app?vid=3a1a7daa-9dd2-429c-b8ba-1379165f2872","ios":"levelo://app?vid=3a1a7daa-9dd2-429c-b8ba-1379165f2872"},"vehicle_type_id":"4","last_reported":1752855358,"current_range_meters":11600,"station_id":"ce4bgl92rcd13ifvqbq0","pricing_plan_id":"cebpf4jnsgd1na2vs0mg"},{"bike_id":"d864f9f6-1c84-4fa8-b780-4a021a010f3c","system_id":"levelo_inurba_marseille","lat":43.29863,"lon":5.39733,"is_reserved":false,"is_disabled":false,"rental_uris":{"android":"levelo://app?vid=d864f9f6-1c84-4fa8-b780-4a021a010f3c","ios":"levelo://app?vid=d864f9f6-1c84-4fa8-b780-4a021a010f3c"},"vehicle_type_id":"4","last_reported":1752855358,"current_range_meters":11600,"station_id":"ce4bh0h2rcd13ifvqd50","pricing_plan_id":"cebpf4jnsgd1na2vs0mg"},{"bike_id":"b6763f9b-c567-457e-9a92-d4ddfa183471","system_id":"levelo_inurba_marseille","lat":43.27997,"lon":5.40015,"is_reserved":false,"is_disabled":false,"rental_uris":{"android":"levelo://app?vid=b6763f9b-c567-457e-9a92-d4ddfa183471","ios":"levelo://app?vid=b6763f9b-c567-457e-9a92-d4ddfa183471"},"vehicle_type_id":"4","last_reported":1752855358,"current_range_meters":11600,"station_id":"ce4bho92rcd13ifvqh4g","pricing_plan_id":"cebpf4jnsgd1na2vs0mg"},{"bike_id":"9ffb9a4e-9204-4c02-845b-b7934f9ddae9","system_id":"levelo_inurba_marseille","lat":43.2843,"lon":5.34996,"is_reserved":false,"is_disabled":false,"rental_uris":{"android":"levelo://app?vid=9ffb9a4e-9204-4c02-845b-b7934f9ddae9","ios":"levelo://app?vid=9ffb9a4e-9204-4c02-845b-b7934f9ddae9"},"vehicle_type_id":"4","last_reported":1752855358,"current_range_meters":12000,"station_id":"ce4bhbh2rcd13ifvqepg","pricing_plan_id":"cebpf4jnsgd1na2vs0mg"},{"bike_id":"c657eca0-7786-4d09-a568-d94b65f566c7","system_id":"levelo_inurba_marseille","lat":43.23961,"lon":5.36624,"is_reserved":false,"is_disabled":false,"rental_uris":{"android":"levelo://app?vid=c657eca0-7786-4d09-a568-d94b65f566c7","ios":"levelo://app?vid=c657eca0-7786-4d09-a568-d94b65f566c7"},"vehicle_type_id":"4","last_reported":1752855358,"current_range_meters":12000,"station_id":"ce4bhi12rcd13ifvqfp0","pricing_plan_id":"cebpf4jnsgd1na2vs0mg"},{"bike_id":"8cbf67ac-351a-483f-a8fe-dcc5448138a6","system_id":"levelo_inurba_marseille","lat":43.2728,"lon":5.39178,"is_reserved":false,"is_disabled":false,"rental_uris":{"android":"levelo://app?vid=8cbf67ac-351a-483f-a8fe-dcc5448138a6","ios":"levelo://app?vid=8cbf67ac-351a-483f-a8fe-dcc5448138a6"},"vehicle_type_id":"4","last_reported":1752855358,"current_range_meters":12400,"station_id":"","pricing_plan_id":"cebpf4jnsgd1na2vs0mg"},{"bike_id":"79562423-1bea-4fdd-8728-0adaa33ec266","system_id":"levelo_inurba_marseille","lat":43.23966,"lon":5.36629,"is_reserved":false,"is_disabled":false,"rental_uris":{"android":"levelo://app?vid=79562423-1bea-4fdd-8728-0adaa33ec266","ios":"levelo://app?vid=79562423-1bea-4fdd-8728-0adaa33ec266"},"vehicle_type_id":"4","last_reported":1752855358,"current_range_meters":12000,"station_id":"ce4bhi12rcd13ifvqfp0","pricing_plan_id":"cebpf4jnsgd1na2vs0mg"},{"bike_id":"b004baab-db70-453e-84a5-9312df4bd1d6","system_id":"levelo_inurba_marseille","lat":43.225,"lon":5.34776,"is_reserved":false,"is_disabled":false,"rental_uris":{"android":"levelo://app?vid=b004baab-db70-453e-84a5-9312df4bd1d6","ios":"levelo://app?vid=b004baab-db70-453e-84a5-9312df4bd1d6"},"vehicle_type_id":"4","last_reported":1752855358,"current_range_meters":12400,"station_id":"st_cvj5dfep6f1abm77gieg","pricing_plan_id":"cebpf4jnsgd1na2vs0mg"},{"bike_id":"35965273-4af4-457c-87a3-4f7523a4ce80","system_id":"levelo_inurba_marseille","lat":43.29015,"lon":5.35621,"is_reserved":false,"is_disabled":true,"rental_uris":{"android":"levelo://app?vid=35965273-4af4-457c-87a3-4f7523a4ce80","ios":"levelo://app?vid=35965273-4af4-457c-87a3-4f7523a4ce80"},"vehicle_type_id":"4","last_reported":1752855358,"current_range_meters":12400,"station_id":"ce4bhb92rcd13ifvqen0","pricing_plan_id":"cebpf4jnsgd1na2vs0mg"},{"bike_id":"fb7c6305-801a-4668-bba9-e4e514825a9a","system_id":"levelo_inurba_marseille","lat":43.28621,"lon":5.35098,"is_reserved":false,"is_disabled":false,"rental_uris":{"android":"levelo://app?vid=fb7c6305-801a-4668-bba9-e4e514825a9a","ios":"levelo://app?vid=fb7c6305-801a-4668-bba9-e4e514825a9a"},"vehicle_type_id":"4","last_reported":1752855358,"current_range_meters":12400,"station_id":"ce4bhch2rcd13ifvqeug","pricing_plan_id":"cebpf4jnsgd1na2vs0mg"},{"bike_id":"f49d312b-67e5-480a-aee1-c0c990c76302","system_id":"levelo_inurba_marseille","lat":43.28424,"lon":5.34991,"is_reserved":false,"is_disabled":false,"rental_uris":{"android":"levelo://app?vid=f49d312b-67e5-480a-aee1-c0c990c76302","ios":"levelo://app?vid=f49d312b-67e5-480a-aee1-c0c990c76302"},"vehicle_type_id":"4","last_reported":1752855358,"current_range_meters":12800,"station_id":"ce4bhbh2rcd13ifvqepg","pricing_plan_id":"cebpf4jnsgd1na2vs0mg"},{"bike_id":"781809f6-1b01-486a-98dc-4267440b299d","system_id":"levelo_inurba_marseille","lat":43.30228,"lon":5.40032,"is_reserved":false,"is_disabled":false,"rental_uris":{"android":"levelo://app?vid=781809f6-1b01-486a-98dc-4267440b299d","ios":"levelo://app?vid=781809f6-1b01-486a-98dc-4267440b299d"},"vehicle_type_id":"4","last_reported":1752855358,"current_range_meters":12800,"station_id":"ce4bgvh2rcd13ifvqcs0","pricing_plan_id":"cebpf4jnsgd1na2vs0mg"},{"bike_id":"537df271-1e3d-4ffc-ad70-ada379266803","system_id":"levelo_inurba_marseille","lat":43.21758,"lon":5.3459,"is_reserved":false,"is_disabled":false,"rental_uris":{"android":"levelo://app?vid=537df271-1e3d-4ffc-ad70-ada379266803","ios":"levelo://app?vid=537df271-1e3d-4ffc-ad70-ada379266803"},"vehicle_type_id":"4","last_reported":1752855358,"current_range_meters":12800,"station_id":"st_cvj6r9ubvosntc0bgbag","pricing_plan_id":"cebpf4jnsgd1na2vs0mg"},{"bike_id":"8dd237ca-0c4d-438b-8f1f-eeee1d6ab274","system_id":"levelo_inurba_marseille","lat":43.24807,"lon":5.37456,"is_reserved":false,"is_disabled":false,"rental_uris":{"android":"levelo://app?vid=8dd237ca-0c4d-438b-8f1f-eeee1d6ab274","ios":"levelo://app?vid=8dd237ca-0c4d-438b-8f1f-eeee1d6ab274"},"vehicle_type_id":"4","last_reported":1752855358,"current_range_meters":12800,"station_id":"ce4bhgh2rcd13ifvqfb0","pricing_plan_id":"cebpf4jnsgd1na2vs0mg"},{"bike_id":"1d9ad7dd-c1bf-4b15-8948-0075f000590c","system_id":"levelo_inurba_marseille","lat":43.290088,"lon":5.38137,"is_reserved":false,"is_disabled":false,"rental_uris":{"android":"levelo://app?vid=1d9ad7dd-c1bf-4b15-8948-0075f000590c","ios":"levelo://app?vid=1d9ad7dd-c1bf-4b15-8948-0075f000590c"},"vehicle_type_id":"4","last_reported":1752855358,"current_range_meters":12800,"station_id":"ce4bh4p2rcd13ifvqe1g","pricing_plan_id":"cebpf4jnsgd1na2vs0mg"},{"bike_id":"2d95b47d-d06f-40a4-bb6e-c13e954e3c8f","system_id":"levelo_inurba_marseille","lat":43.27724,"lon":5.41426,"is_reserved":false,"is_disabled":false,"rental_uris":{"android":"levelo://app?vid=2d95b47d-d06f-40a4-bb6e-c13e954e3c8f","ios":"levelo://app?vid=2d95b47d-d06f-40a4-bb6e-c13e954e3c8f"},"vehicle_type_id":"4","last_reported":1752855358,"current_range_meters":12800,"station_id":"","pricing_plan_id":"cebpf4jnsgd1na2vs0mg"},{"bike_id":"e3acb700-0372-496d-b80b-8b7db1cf6c6f","system_id":"levelo_inurba_marseille","lat":43.2862,"lon":5.35109,"is_reserved":false,"is_disabled":false,"rental_uris":{"android":"levelo://app?vid=e3acb700-0372-496d-b80b-8b7db1cf6c6f","ios":"levelo://app?vid=e3acb700-0372-496d-b80b-8b7db1cf6c6f"},"vehicle_type_id":"4","last_reported":1752855358,"current_range_meters":12800,"station_id":"ce4bhch2rcd13ifvqeug","pricing_plan_id":"cebpf4jnsgd1na2vs0mg"},{"bike_id":"b4a98468-1c4d-48b7-8148-71efc67381e9","system_id":"levelo_inurba_marseille","lat":43.284058,"lon":5.349791,"is_reserved":false,"is_disabled":false,"rental_uris":{"android":"levelo://app?vid=b4a98468-1c4d-48b7-8148-71efc67381e9","ios":"levelo://app?vid=b4a98468-1c4d-48b7-8148-71efc67381e9"},"vehicle_type_id":"4","last_reported":1752855358,"current_range_meters":12800,"station_id":"","pricing_plan_id":"cebpf4jnsgd1na2vs0mg"},{"bike_id":"f2484167-4c38-4146-abfd-ae6dfd486cbc","system_id":"levelo_inurba_marseille","lat":43.28425,"lon":5.34988,"is_reserved":false,"is_disabled":false,"rental_uris":{"android":"levelo://app?vid=f2484167-4c38-4146-abfd-ae6dfd486cbc","ios":"levelo://app?vid=f2484167-4c38-4146-abfd-ae6dfd486cbc"},"vehicle_type_id":"4","last_reported":1752855358,"current_range_meters":12800,"station_id":"ce4bhbh2rcd13ifvqepg","pricing_plan_id":"cebpf4jnsgd1na2vs0mg"},{"bike_id":"ce7bd25b-5213-4881-a28b-f582e6a1d712","system_id":"levelo_inurba_marseille","lat":43.31349,"lon":5.36751,"is_reserved":false,"is_disabled":true,"rental_uris":{"android":"levelo://app?vid=ce7bd25b-5213-4881-a28b-f582e6a1d712","ios":"levelo://app?vid=ce7bd25b-5213-4881-a28b-f582e6a1d712"},"vehicle_type_id":"4","last_reported":1752855358,"current_range_meters":12800,"station_id":"ce4bgr92rcd13ifvqc6g","pricing_plan_id":"cebpf4jnsgd1na2vs0mg"},{"bike_id":"00ecada3-8577-4c51-98e2-f760bc2bb718","system_id":"levelo_inurba_marseille","lat":43.294274,"lon":5.432279,"is_reserved":false,"is_disabled":false,"rental_uris":{"android":"levelo://app?vid=00ecada3-8577-4c51-98e2-f760bc2bb718","ios":"levelo://app?vid=00ecada3-8577-4c51-98e2-f760bc2bb718"},"vehicle_type_id":"4","last_reported":1752855358,"current_range_meters":12800,"station_id":"","pricing_plan_id":"cebpf4jnsgd1na2vs0mg"},{"bike_id":"c6db0f6a-96fe-4e1d-8ded-c2ef38c9bab4","system_id":"levelo_inurba_marseille","lat":43.304183,"lon":5.412838,"is_reserved":false,"is_disabled":true,"rental_uris":{"android":"levelo://app?vid=c6db0f6a-96fe-4e1d-8ded-c2ef38c9bab4","ios":"levelo://app?vid=c6db0f6a-96fe-4e1d-8ded-c2ef38c9bab4"},"vehicle_type_id":"4","last_reported":1752855358,"current_range_meters":13600,"station_id":"ce4bhop2rcd13ifvqh8g","pricing_plan_id":"cebpf4jnsgd1na2vs0mg"},{"bike_id":"28279007-0cad-4da0-95f8-c058a3457363","system_id":"levelo_inurba_marseille","lat":43.28416,"lon":5.34985,"is_reserved":false,"is_disabled":false,"rental_uris":{"android":"levelo://app?vid=28279007-0cad-4da0-95f8-c058a3457363","ios":"levelo://app?vid=28279007-0cad-4da0-95f8-c058a3457363"},"vehicle_type_id":"4","last_reported":1752855358,"current_range_meters":12800,"station_id":"ce4bhbh2rcd13ifvqepg","pricing_plan_id":"cebpf4jnsgd1na2vs0mg"},{"bike_id":"25faa4a1-8a56-4120-92c6-a8ba7ad14181","system_id":"levelo_inurba_marseille","lat":43.28414,"lon":5.34985,"is_reserved":false,"is_disabled":false,"rental_uris":{"android":"levelo://app?vid=25faa4a1-8a56-4120-92c6-a8ba7ad14181","ios":"levelo://app?vid=25faa4a1-8a56-4120-92c6-a8ba7ad14181"},"vehicle_type_id":"4","last_reported":1752855358,"current_range_meters":13600,"station_id":"ce4bhbh2rcd13ifvqepg","pricing_plan_id":"cebpf4jnsgd1na2vs0mg"},{"bike_id":"4607398c-5481-406b-ba58-548c4b76f331","system_id":"levelo_inurba_marseille","lat":43.271854,"lon":5.362776,"is_reserved":false,"is_disabled":false,"rental_uris":{"android":"levelo://app?vid=4607398c-5481-406b-ba58-548c4b76f331","ios":"levelo://app?vid=4607398c-5481-406b-ba58-548c4b76f331"},"vehicle_type_id":"4","last_reported":1752855358,"current_range_meters":13600,"station_id":"","pricing_plan_id":"cebpf4jnsgd1na2vs0mg"},{"bike_id":"e5e68fc3-40c8-4064-926c-22623a86cbb0","system_id":"levelo_inurba_marseille","lat":43.28417,"lon":5.34985,"is_reserved":false,"is_disabled":false,"rental_uris":{"android":"levelo://app?vid=e5e68fc3-40c8-4064-926c-22623a86cbb0","ios":"levelo://app?vid=e5e68fc3-40c8-4064-926c-22623a86cbb0"},"vehicle_type_id":"4","last_reported":1752855358,"current_range_meters":13600,"station_id":"ce4bhbh2rcd13ifvqepg","pricing_plan_id":"cebpf4jnsgd1na2vs0mg"},{"bike_id":"be60c88c-1453-4626-be80-200258f79626","system_id":"levelo_inurba_marseille","lat":43.2319,"lon":5.3555,"is_reserved":false,"is_disabled":false,"rental_uris":{"android":"levelo://app?vid=be60c88c-1453-4626-be80-200258f79626","ios":"levelo://app?vid=be60c88c-1453-4626-be80-200258f79626"},"vehicle_type_id":"4","last_reported":1752855358,"current_range_meters":13600,"station_id":"ce4bhu92rcd13ifvqi70","pricing_plan_id":"cebpf4jnsgd1na2vs0mg"},{"bike_id":"e807ede6-f43c-43e0-92e8-f486fde4a069","system_id":"levelo_inurba_marseille","lat":43.30783,"lon":5.37648,"is_reserved":false,"is_disabled":false,"rental_uris":{"android":"levelo://app?vid=e807ede6-f43c-43e0-92e8-f486fde4a069","ios":"levelo://app?vid=e807ede6-f43c-43e0-92e8-f486fde4a069"},"vehicle_type_id":"4","last_reported":1752855358,"current_range_meters":13600,"station_id":"ce4bgv92rcd13ifvqcq0","pricing_plan_id":"cebpf4jnsgd1na2vs0mg"},{"bike_id":"5ac93e7c-286a-4c1e-b6c0-4e9963e5a9f8","system_id":"levelo_inurba_marseille","lat":43.21194,"lon":5.35075,"is_reserved":false,"is_disabled":false,"rental_uris":{"android":"levelo://app?vid=5ac93e7c-286a-4c1e-b6c0-4e9963e5a9f8","ios":"levelo://app?vid=5ac93e7c-286a-4c1e-b6c0-4e9963e5a9f8"},"vehicle_type_id":"4","last_reported":1752855358,"current_range_meters":13600,"station_id":"st_cvj6sg6p6f1abm77japg","pricing_plan_id":"cebpf4jnsgd1na2vs0mg"},{"bike_id":"c3d98e50-febd-4389-b950-e19c5f2599d1","system_id":"levelo_inurba_marseille","lat":43.3018,"lon":5.36602,"is_reserved":false,"is_disabled":false,"rental_uris":{"android":"levelo://app?vid=c3d98e50-febd-4389-b950-e19c5f2599d1","ios":"levelo://app?vid=c3d98e50-febd-4389-b950-e19c5f2599d1"},"vehicle_type_id":"4","last_reported":1752855358,"current_range_meters":14000,"station_id":"ce4bgrh2rcd13ifvqc8g","pricing_plan_id":"cebpf4jnsgd1na2vs0mg"},{"bike_id":"8e55e73c-f83d-421f-82ef-e9030c9eac66","system_id":"levelo_inurba_marseille","lat":43.30461,"lon":5.37906,"is_reserved":false,"is_disabled":false,"rental_uris":{"android":"levelo://app?vid=8e55e73c-f83d-421f-82ef-e9030c9eac66","ios":"levelo://app?vid=8e55e73c-f83d-421f-82ef-e9030c9eac66"},"vehicle_type_id":"4","last_reported":1752855358,"current_range_meters":14000,"station_id":"ce4bgup2rcd13ifvqcn0","pricing_plan_id":"cebpf4jnsgd1na2vs0mg"},{"bike_id":"dd5d231e-e10e-4ee9-b2cf-eb76656dab20","system_id":"levelo_inurba_marseille","lat":43.28613,"lon":5.35104,"is_reserved":false,"is_disabled":false,"rental_uris":{"android":"levelo://app?vid=dd5d231e-e10e-4ee9-b2cf-eb76656dab20","ios":"levelo://app?vid=dd5d231e-e10e-4ee9-b2cf-eb76656dab20"},"vehicle_type_id":"4","last_reported":1752855358,"current_range_meters":14000,"station_id":"ce4bhch2rcd13ifvqeug","pricing_plan_id":"cebpf4jnsgd1na2vs0mg"},{"bike_id":"5122c296-437f-48a7-aea4-2dead85a367d","system_id":"levelo_inurba_marseille","lat":43.25585,"lon":5.38233,"is_reserved":false,"is_disabled":false,"rental_uris":{"android":"levelo://app?vid=5122c296-437f-48a7-aea4-2dead85a367d","ios":"levelo://app?vid=5122c296-437f-48a7-aea4-2dead85a367d"},"vehicle_type_id":"4","last_reported":1752855358,"current_range_meters":14000,"station_id":"ce4bhih2rcd13ifvqfs0","pricing_plan_id":"cebpf4jnsgd1na2vs0mg"},{"bike_id":"9e46aa88-7b19-47c3-b789-71b8902b53cb","system_id":"levelo_inurba_marseille","lat":43.2815,"lon":5.42631,"is_reserved":false,"is_disabled":false,"rental_uris":{"android":"levelo://app?vid=9e46aa88-7b19-47c3-b789-71b8902b53cb","ios":"levelo://app?vid=9e46aa88-7b19-47c3-b789-71b8902b53cb"},"vehicle_type_id":"4","last_reported":1752855358,"current_range_meters":14000,"station_id":"ce4bhnh2rcd13ifvqgug","pricing_plan_id":"cebpf4jnsgd1na2vs0mg"},{"bike_id":"5340329c-8bc5-4f60-a63c-3f485b4630ab","system_id":"levelo_inurba_marseille","lat":43.28423,"lon":5.34989,"is_reserved":false,"is_disabled":false,"rental_uris":{"android":"levelo://app?vid=5340329c-8bc5-4f60-a63c-3f485b4630ab","ios":"levelo://app?vid=5340329c-8bc5-4f60-a63c-3f485b4630ab"},"vehicle_type_id":"4","last_reported":1752855358,"current_range_meters":14000,"station_id":"ce4bhbh2rcd13ifvqepg","pricing_plan_id":"cebpf4jnsgd1na2vs0mg"},{"bike_id":"9ccdd840-a1d7-4dd3-85a6-343a13f46c47","system_id":"levelo_inurba_marseille","lat":43.30285,"lon":5.37703,"is_reserved":false,"is_disabled":false,"rental_uris":{"android":"levelo://app?vid=9ccdd840-a1d7-4dd3-85a6-343a13f46c47","ios":"levelo://app?vid=9ccdd840-a1d7-4dd3-85a6-343a13f46c47"},"vehicle_type_id":"4","last_reported":1752855358,"current_range_meters":14400,"station_id":"ce4bguh2rcd13ifvqcj0","pricing_plan_id":"cebpf4jnsgd1na2vs0mg"},{"bike_id":"797e03c8-9856-46a2-bf76-6e379de6361f","system_id":"levelo_inurba_marseille","lat":43.24812,"lon":5.37459,"is_reserved":false,"is_disabled":true,"rental_uris":{"android":"levelo://app?vid=797e03c8-9856-46a2-bf76-6e379de6361f","ios":"levelo://app?vid=797e03c8-9856-46a2-bf76-6e379de6361f"},"vehicle_type_id":"4","last_reported":1752855358,"current_range_meters":14400,"station_id":"ce4bhgh2rcd13ifvqfb0","pricing_plan_id":"cebpf4jnsgd1na2vs0mg"},{"bike_id":"c388bf5a-d7c8-4a3e-92eb-cc11ea3da57f","system_id":"levelo_inurba_marseille","lat":43.24668,"lon":5.381637,"is_reserved":false,"is_disabled":false,"rental_uris":{"android":"levelo://app?vid=c388bf5a-d7c8-4a3e-92eb-cc11ea3da57f","ios":"levelo://app?vid=c388bf5a-d7c8-4a3e-92eb-cc11ea3da57f"},"vehicle_type_id":"4","last_reported":1752855358,"current_range_meters":14400,"station_id":"ce4bhih2rcd13ifvqfr0","pricing_plan_id":"cebpf4jnsgd1na2vs0mg"},{"bike_id":"fbf0b7f2-f884-4bd3-a5fa-255e32e8eeed","system_id":"levelo_inurba_marseille","lat":43.24191,"lon":5.36395,"is_reserved":false,"is_disabled":false,"rental_uris":{"android":"levelo://app?vid=fbf0b7f2-f884-4bd3-a5fa-255e32e8eeed","ios":"levelo://app?vid=fbf0b7f2-f884-4bd3-a5fa-255e32e8eeed"},"vehicle_type_id":"4","last_reported":1752855358,"current_range_meters":14400,"station_id":"cpo36qri1sfpv3e86is0","pricing_plan_id":"cebpf4jnsgd1na2vs0mg"},{"bike_id":"58214ab2-24ed-410a-b2c2-29c6564c8ffd","system_id":"levelo_inurba_marseille","lat":43.26505,"lon":5.39536,"is_reserved":false,"is_disabled":false,"rental_uris":{"android":"levelo://app?vid=58214ab2-24ed-410a-b2c2-29c6564c8ffd","ios":"levelo://app?vid=58214ab2-24ed-410a-b2c2-29c6564c8ffd"},"vehicle_type_id":"4","last_reported":1752855358,"current_range_meters":14400,"station_id":"ce4bhi12rcd13ifvqfq0","pricing_plan_id":"cebpf4jnsgd1na2vs0mg"},{"bike_id":"2a7a98a9-267b-4553-b0e0-13837c4af786","system_id":"levelo_inurba_marseille","lat":43.2306,"lon":5.35492,"is_reserved":false,"is_disabled":false,"rental_uris":{"android":"levelo://app?vid=2a7a98a9-267b-4553-b0e0-13837c4af786","ios":"levelo://app?vid=2a7a98a9-267b-4553-b0e0-13837c4af786"},"vehicle_type_id":"4","last_reported":1752855358,"current_range_meters":14400,"station_id":"cpo3342slgdg3j2ifvpg","pricing_plan_id":"cebpf4jnsgd1na2vs0mg"},{"bike_id":"cfb52d04-9134-4c86-8269-771716b20f27","system_id":"levelo_inurba_marseille","lat":43.21209,"lon":5.35063,"is_reserved":false,"is_disabled":false,"rental_uris":{"android":"levelo://app?vid=cfb52d04-9134-4c86-8269-771716b20f27","ios":"levelo://app?vid=cfb52d04-9134-4c86-8269-771716b20f27"},"vehicle_type_id":"4","last_reported":1752855358,"current_range_meters":14400,"station_id":"st_cvj6sg6p6f1abm77japg","pricing_plan_id":"cebpf4jnsgd1na2vs0mg"},{"bike_id":"59bc946a-59a3-4db4-b142-0d4c90f87d19","system_id":"levelo_inurba_marseille","lat":43.2905,"lon":5.37163,"is_reserved":false,"is_disabled":false,"rental_uris":{"android":"levelo://app?vid=59bc946a-59a3-4db4-b142-0d4c90f87d19","ios":"levelo://app?vid=59bc946a-59a3-4db4-b142-0d4c90f87d19"},"vehicle_type_id":"4","last_reported":1752855358,"current_range_meters":14800,"station_id":"ce4bh5p2rcd13ifvqe4g","pricing_plan_id":"cebpf4jnsgd1na2vs0mg"},{"bike_id":"2e8d416a-3cef-44b6-a1ab-73ae35cbe74c","system_id":"levelo_inurba_marseille","lat":43.29713,"lon":5.36609,"is_reserved":false,"is_disabled":false,"rental_uris":{"android":"levelo://app?vid=2e8d416a-3cef-44b6-a1ab-73ae35cbe74c","ios":"levelo://app?vid=2e8d416a-3cef-44b6-a1ab-73ae35cbe74c"},"vehicle_type_id":"4","last_reported":1752855358,"current_range_meters":14800,"station_id":"ce4bgn12rcd13ifvqbt0","pricing_plan_id":"cebpf4jnsgd1na2vs0mg"},{"bike_id":"89eacc7c-1739-4922-b0b6-795bcaaab187","system_id":"levelo_inurba_marseille","lat":43.27917,"lon":5.3957,"is_reserved":false,"is_disabled":false,"rental_uris":{"android":"levelo://app?vid=89eacc7c-1739-4922-b0b6-795bcaaab187","ios":"levelo://app?vid=89eacc7c-1739-4922-b0b6-795bcaaab187"},"vehicle_type_id":"4","last_reported":1752855358,"current_range_meters":14800,"station_id":"ce4bhf92rcd13ifvqf40","pricing_plan_id":"cebpf4jnsgd1na2vs0mg"},{"bike_id":"6b9b1832-6c30-4d33-a843-74c0b22f8b52","system_id":"levelo_inurba_marseille","lat":43.325327,"lon":5.414308,"is_reserved":false,"is_disabled":false,"rental_uris":{"android":"levelo://app?vid=6b9b1832-6c30-4d33-a843-74c0b22f8b52","ios":"levelo://app?vid=6b9b1832-6c30-4d33-a843-74c0b22f8b52"},"vehicle_type_id":"4","last_reported":1752855358,"current_range_meters":14400,"station_id":"ce4bhq12rcd13ifvqhhg","pricing_plan_id":"cebpf4jnsgd1na2vs0mg"},{"bike_id":"70a3940c-c40a-4ef4-8e48-8b68d4968bc7","system_id":"levelo_inurba_marseille","lat":43.23955,"lon":5.36635,"is_reserved":false,"is_disabled":true,"rental_uris":{"android":"levelo://app?vid=70a3940c-c40a-4ef4-8e48-8b68d4968bc7","ios":"levelo://app?vid=70a3940c-c40a-4ef4-8e48-8b68d4968bc7"},"vehicle_type_id":"4","last_reported":1752855358,"current_range_meters":15200,"station_id":"ce4bhi12rcd13ifvqfp0","pricing_plan_id":"cebpf4jnsgd1na2vs0mg"},{"bike_id":"d1c4f566-91e4-4930-acbc-f4136fff2496","system_id":"levelo_inurba_marseille","lat":43.292,"lon":5.35807,"is_reserved":false,"is_disabled":false,"rental_uris":{"android":"levelo://app?vid=d1c4f566-91e4-4930-acbc-f4136fff2496","ios":"levelo://app?vid=d1c4f566-91e4-4930-acbc-f4136fff2496"},"vehicle_type_id":"4","last_reported":1752855358,"current_range_meters":15200,"station_id":"ce4bhb12rcd13ifvqel0","pricing_plan_id":"cebpf4jnsgd1na2vs0mg"},{"bike_id":"a3f9bb2c-a877-4f3f-a6c3-e53d3e777817","system_id":"levelo_inurba_marseille","lat":43.28452,"lon":5.39211,"is_reserved":false,"is_disabled":false,"rental_uris":{"android":"levelo://app?vid=a3f9bb2c-a877-4f3f-a6c3-e53d3e777817","ios":"levelo://app?vid=a3f9bb2c-a877-4f3f-a6c3-e53d3e777817"},"vehicle_type_id":"4","last_reported":1752855358,"current_range_meters":15200,"station_id":"ce4bhoh2rcd13ifvqh5g","pricing_plan_id":"cebpf4jnsgd1na2vs0mg"},{"bike_id":"e86c2c2b-9b98-46ee-a9eb-d50be22ad57e","system_id":"levelo_inurba_marseille","lat":43.26064,"lon":5.39401,"is_reserved":false,"is_disabled":false,"rental_uris":{"android":"levelo://app?vid=e86c2c2b-9b98-46ee-a9eb-d50be22ad57e","ios":"levelo://app?vid=e86c2c2b-9b98-46ee-a9eb-d50be22ad57e"},"vehicle_type_id":"4","last_reported":1752855358,"current_range_meters":15200,"station_id":"ce4bhh92rcd13ifvqfj0","pricing_plan_id":"cebpf4jnsgd1na2vs0mg"},{"bike_id":"a67156ae-789e-45f5-ab3f-ed7d95b24540","system_id":"levelo_inurba_marseille","lat":43.211916,"lon":5.350683,"is_reserved":false,"is_disabled":false,"rental_uris":{"android":"levelo://app?vid=a67156ae-789e-45f5-ab3f-ed7d95b24540","ios":"levelo://app?vid=a67156ae-789e-45f5-ab3f-ed7d95b24540"},"vehicle_type_id":"4","last_reported":1752855358,"current_range_meters":15200,"station_id":"st_cvj6sg6p6f1abm77japg","pricing_plan_id":"cebpf4jnsgd1na2vs0mg"},{"bike_id":"edd0079d-996b-4ae3-9a31-d781f3a059ec","system_id":"levelo_inurba_marseille","lat":43.33786,"lon":5.37426,"is_reserved":false,"is_disabled":false,"rental_uris":{"android":"levelo://app?vid=edd0079d-996b-4ae3-9a31-d781f3a059ec","ios":"levelo://app?vid=edd0079d-996b-4ae3-9a31-d781f3a059ec"},"vehicle_type_id":"4","last_reported":1752855358,"current_range_meters":15200,"station_id":"","pricing_plan_id":"cebpf4jnsgd1na2vs0mg"},{"bike_id":"b7fe52dd-f025-4212-9e78-19e7f6f09593","system_id":"levelo_inurba_marseille","lat":43.21192,"lon":5.350724,"is_reserved":false,"is_disabled":false,"rental_uris":{"android":"levelo://app?vid=b7fe52dd-f025-4212-9e78-19e7f6f09593","ios":"levelo://app?vid=b7fe52dd-f025-4212-9e78-19e7f6f09593"},"vehicle_type_id":"4","last_reported":1752855358,"current_range_meters":15200,"station_id":"st_cvj6sg6p6f1abm77japg","pricing_plan_id":"cebpf4jnsgd1na2vs0mg"},{"bike_id":"32f5afb1-15c9-4431-a998-25b3b86db8d1","system_id":"levelo_inurba_marseille","lat":43.27375,"lon":5.36259,"is_reserved":false,"is_disabled":false,"rental_uris":{"android":"levelo://app?vid=32f5afb1-15c9-4431-a998-25b3b86db8d1","ios":"levelo://app?vid=32f5afb1-15c9-4431-a998-25b3b86db8d1"},"vehicle_type_id":"4","last_reported":1752855358,"current_range_meters":15200,"station_id":"ce4bhbh2rcd13ifvqeo0","pricing_plan_id":"cebpf4jnsgd1na2vs0mg"},{"bike_id":"1ec5a8b9-6c71-4d1e-95be-e71a3adc55d2","system_id":"levelo_inurba_marseille","lat":43.21751,"lon":5.34596,"is_reserved":false,"is_disabled":false,"rental_uris":{"android":"levelo://app?vid=1ec5a8b9-6c71-4d1e-95be-e71a3adc55d2","ios":"levelo://app?vid=1ec5a8b9-6c71-4d1e-95be-e71a3adc55d2"},"vehicle_type_id":"4","last_reported":1752855358,"current_range_meters":16000,"station_id":"st_cvj6r9ubvosntc0bgbag","pricing_plan_id":"cebpf4jnsgd1na2vs0mg"},{"bike_id":"ac0ed4be-466c-4caa-b855-3c6bbe5a11b5","system_id":"levelo_inurba_marseille","lat":43.267548,"lon":5.371835,"is_reserved":false,"is_disabled":false,"rental_uris":{"android":"levelo://app?vid=ac0ed4be-466c-4caa-b855-3c6bbe5a11b5","ios":"levelo://app?vid=ac0ed4be-466c-4caa-b855-3c6bbe5a11b5"},"vehicle_type_id":"4","last_reported":1752855358,"current_range_meters":16000,"station_id":"","pricing_plan_id":"cebpf4jnsgd1na2vs0mg"},{"bike_id":"6f2b188d-268c-4dbe-b8a1-874e327f8d67","system_id":"levelo_inurba_marseille","lat":43.29943,"lon":5.3655,"is_reserved":false,"is_disabled":false,"rental_uris":{"android":"levelo://app?vid=6f2b188d-268c-4dbe-b8a1-874e327f8d67","ios":"levelo://app?vid=6f2b188d-268c-4dbe-b8a1-874e327f8d67"},"vehicle_type_id":"4","last_reported":1752855358,"current_range_meters":16000,"station_id":"ce4bgm92rcd13ifvqbr0","pricing_plan_id":"cebpf4jnsgd1na2vs0mg"},{"bike_id":"8ce9b80c-19c6-4985-81c6-50f285c26740","system_id":"levelo_inurba_marseille","lat":43.23956,"lon":5.36622,"is_reserved":false,"is_disabled":false,"rental_uris":{"android":"levelo://app?vid=8ce9b80c-19c6-4985-81c6-50f285c26740","ios":"levelo://app?vid=8ce9b80c-19c6-4985-81c6-50f285c26740"},"vehicle_type_id":"4","last_reported":1752855358,"current_range_meters":16000,"station_id":"ce4bhi12rcd13ifvqfp0","pricing_plan_id":"cebpf4jnsgd1na2vs0mg"},{"bike_id":"3f7985af-c649-46d7-92d8-8185b4bb07b1","system_id":"levelo_inurba_marseille","lat":43.29283,"lon":5.40123,"is_reserved":false,"is_disabled":false,"rental_uris":{"android":"levelo://app?vid=3f7985af-c649-46d7-92d8-8185b4bb07b1","ios":"levelo://app?vid=3f7985af-c649-46d7-92d8-8185b4bb07b1"},"vehicle_type_id":"4","last_reported":1752855358,"current_range_meters":15200,"station_id":"ce4bh312rcd13ifvqdk0","pricing_plan_id":"cebpf4jnsgd1na2vs0mg"},{"bike_id":"ba9f3e38-527b-4abb-aed1-dabb2d5ce59f","system_id":"levelo_inurba_marseille","lat":43.26942,"lon":5.40251,"is_reserved":false,"is_disabled":false,"rental_uris":{"android":"levelo://app?vid=ba9f3e38-527b-4abb-aed1-dabb2d5ce59f","ios":"levelo://app?vid=ba9f3e38-527b-4abb-aed1-dabb2d5ce59f"},"vehicle_type_id":"4","last_reported":1752855358,"current_range_meters":16000,"station_id":"cjm6bp8fraef2m0cb0m0","pricing_plan_id":"cebpf4jnsgd1na2vs0mg"},{"bike_id":"076a7b82-4934-4b2d-a63c-ec47e05fa63e","system_id":"levelo_inurba_marseille","lat":43.284218,"lon":5.349852,"is_reserved":false,"is_disabled":false,"rental_uris":{"android":"levelo://app?vid=076a7b82-4934-4b2d-a63c-ec47e05fa63e","ios":"levelo://app?vid=076a7b82-4934-4b2d-a63c-ec47e05fa63e"},"vehicle_type_id":"4","last_reported":1752855358,"current_range_meters":16400,"station_id":"ce4bhbh2rcd13ifvqepg","pricing_plan_id":"cebpf4jnsgd1na2vs0mg"},{"bike_id":"b4c63550-3947-41e1-ab2c-4df7865624ff","system_id":"levelo_inurba_marseille","lat":43.28415,"lon":5.34995,"is_reserved":false,"is_disabled":false,"rental_uris":{"android":"levelo://app?vid=b4c63550-3947-41e1-ab2c-4df7865624ff","ios":"levelo://app?vid=b4c63550-3947-41e1-ab2c-4df7865624ff"},"vehicle_type_id":"4","last_reported":1752855358,"current_range_meters":16400,"station_id":"ce4bhbh2rcd13ifvqepg","pricing_plan_id":"cebpf4jnsgd1na2vs0mg"},{"bike_id":"b0198a94-02c3-4b1a-98dc-0280abe3bde9","system_id":"levelo_inurba_marseille","lat":43.289399,"lon":5.396235,"is_reserved":false,"is_disabled":false,"rental_uris":{"android":"levelo://app?vid=b0198a94-02c3-4b1a-98dc-0280abe3bde9","ios":"levelo://app?vid=b0198a94-02c3-4b1a-98dc-0280abe3bde9"},"vehicle_type_id":"4","last_reported":1752855358,"current_range_meters":17200,"station_id":"ce4bh3h2rcd13ifvqdn0","pricing_plan_id":"cebpf4jnsgd1na2vs0mg"},{"bike_id":"17b8dad5-16dc-42da-a541-1f72bb87d6a4","system_id":"levelo_inurba_marseille","lat":43.2903,"lon":5.3865,"is_reserved":false,"is_disabled":false,"rental_uris":{"android":"levelo://app?vid=17b8dad5-16dc-42da-a541-1f72bb87d6a4","ios":"levelo://app?vid=17b8dad5-16dc-42da-a541-1f72bb87d6a4"},"vehicle_type_id":"4","last_reported":1752855358,"current_range_meters":16400,"station_id":"ce4bh4p2rcd13ifvqe0g","pricing_plan_id":"cebpf4jnsgd1na2vs0mg"},{"bike_id":"81b8982e-0de9-4985-b907-712e742b4afd","system_id":"levelo_inurba_marseille","lat":43.28161,"lon":5.40446,"is_reserved":false,"is_disabled":false,"rental_uris":{"android":"levelo://app?vid=81b8982e-0de9-4985-b907-712e742b4afd","ios":"levelo://app?vid=81b8982e-0de9-4985-b907-712e742b4afd"},"vehicle_type_id":"4","last_reported":1752855358,"current_range_meters":16400,"station_id":"","pricing_plan_id":"cebpf4jnsgd1na2vs0mg"},{"bike_id":"8e79a85b-71cd-44e2-9769-4ad285ff7c49","system_id":"levelo_inurba_marseille","lat":43.21743,"lon":5.34626,"is_reserved":false,"is_disabled":false,"rental_uris":{"android":"levelo://app?vid=8e79a85b-71cd-44e2-9769-4ad285ff7c49","ios":"levelo://app?vid=8e79a85b-71cd-44e2-9769-4ad285ff7c49"},"vehicle_type_id":"4","last_reported":1752855358,"current_range_meters":16400,"station_id":"st_cvj6r9ubvosntc0bgbag","pricing_plan_id":"cebpf4jnsgd1na2vs0mg"},{"bike_id":"ef7e9c41-6a08-42ed-ae15-751cede42676","system_id":"levelo_inurba_marseille","lat":43.28417,"lon":5.35011,"is_reserved":false,"is_disabled":false,"rental_uris":{"android":"levelo://app?vid=ef7e9c41-6a08-42ed-ae15-751cede42676","ios":"levelo://app?vid=ef7e9c41-6a08-42ed-ae15-751cede42676"},"vehicle_type_id":"4","last_reported":1752855358,"current_range_meters":16400,"station_id":"ce4bhbh2rcd13ifvqepg","pricing_plan_id":"cebpf4jnsgd1na2vs0mg"},{"bike_id":"5ed7e33c-75eb-4f80-9ced-f5eee5190af4","system_id":"levelo_inurba_marseille","lat":43.295599,"lon":5.42289,"is_reserved":false,"is_disabled":false,"rental_uris":{"android":"levelo://app?vid=5ed7e33c-75eb-4f80-9ced-f5eee5190af4","ios":"levelo://app?vid=5ed7e33c-75eb-4f80-9ced-f5eee5190af4"},"vehicle_type_id":"4","last_reported":1752855358,"current_range_meters":16800,"station_id":"ce4bhph2rcd13ifvqhdg","pricing_plan_id":"cebpf4jnsgd1na2vs0mg"},{"bike_id":"42525367-a877-4c70-a7a3-fe01fcc356af","system_id":"levelo_inurba_marseille","lat":43.307378,"lon":5.424338,"is_reserved":false,"is_disabled":false,"rental_uris":{"android":"levelo://app?vid=42525367-a877-4c70-a7a3-fe01fcc356af","ios":"levelo://app?vid=42525367-a877-4c70-a7a3-fe01fcc356af"},"vehicle_type_id":"4","last_reported":1752855358,"current_range_meters":16800,"station_id":"st_cvj6ca6bvosntc0bfgr0","pricing_plan_id":"cebpf4jnsgd1na2vs0mg"},{"bike_id":"dadd6356-567d-4390-b685-2bef0f59e600","system_id":"levelo_inurba_marseille","lat":43.30379,"lon":5.4248,"is_reserved":false,"is_disabled":false,"rental_uris":{"android":"levelo://app?vid=dadd6356-567d-4390-b685-2bef0f59e600","ios":"levelo://app?vid=dadd6356-567d-4390-b685-2bef0f59e600"},"vehicle_type_id":"4","last_reported":1752855358,"current_range_meters":16800,"station_id":"ce4bhoh2rcd13ifvqh6g","pricing_plan_id":"cebpf4jnsgd1na2vs0mg"},{"bike_id":"bc6e781f-8e83-47c5-b112-8787287f3c46","system_id":"levelo_inurba_marseille","lat":43.29169,"lon":5.37154,"is_reserved":false,"is_disabled":false,"rental_uris":{"android":"levelo://app?vid=bc6e781f-8e83-47c5-b112-8787287f3c46","ios":"levelo://app?vid=bc6e781f-8e83-47c5-b112-8787287f3c46"},"vehicle_type_id":"4","last_reported":1752855358,"current_range_meters":16400,"station_id":"ce4bha92rcd13ifvqeh0","pricing_plan_id":"cebpf4jnsgd1na2vs0mg"},{"bike_id":"262bba80-9a85-4074-97aa-225c3aedc3b7","system_id":"levelo_inurba_marseille","lat":43.30653,"lon":5.40087,"is_reserved":false,"is_disabled":true,"rental_uris":{"android":"levelo://app?vid=262bba80-9a85-4074-97aa-225c3aedc3b7","ios":"levelo://app?vid=262bba80-9a85-4074-97aa-225c3aedc3b7"},"vehicle_type_id":"4","last_reported":1752855358,"current_range_meters":16800,"station_id":"ce4bh112rcd13ifvqda0","pricing_plan_id":"cebpf4jnsgd1na2vs0mg"},{"bike_id":"26bf79a4-f33d-4ee5-8e1a-a9f45dc91eaa","system_id":"levelo_inurba_marseille","lat":43.24077,"lon":5.37759,"is_reserved":false,"is_disabled":false,"rental_uris":{"android":"levelo://app?vid=26bf79a4-f33d-4ee5-8e1a-a9f45dc91eaa","ios":"levelo://app?vid=26bf79a4-f33d-4ee5-8e1a-a9f45dc91eaa"},"vehicle_type_id":"4","last_reported":1752855358,"current_range_meters":16400,"station_id":"ce4bhnp2rcd13ifvqgvg","pricing_plan_id":"cebpf4jnsgd1na2vs0mg"},{"bike_id":"1a794689-0399-4bd8-871c-778f85fe0438","system_id":"levelo_inurba_marseille","lat":43.27499,"lon":5.4245,"is_reserved":false,"is_disabled":false,"rental_uris":{"android":"levelo://app?vid=1a794689-0399-4bd8-871c-778f85fe0438","ios":"levelo://app?vid=1a794689-0399-4bd8-871c-778f85fe0438"},"vehicle_type_id":"4","last_reported":1752855358,"current_range_meters":16800,"station_id":"ce4bhn92rcd13ifvqgrg","pricing_plan_id":"cebpf4jnsgd1na2vs0mg"},{"bike_id":"d4123739-9e80-4d30-b637-d283f39cf579","system_id":"levelo_inurba_marseille","lat":43.28958,"lon":5.36397,"is_reserved":false,"is_disabled":false,"rental_uris":{"android":"levelo://app?vid=d4123739-9e80-4d30-b637-d283f39cf579","ios":"levelo://app?vid=d4123739-9e80-4d30-b637-d283f39cf579"},"vehicle_type_id":"4","last_reported":1752855358,"current_range_meters":16800,"station_id":"ce4bhc92rcd13ifvqetg","pricing_plan_id":"cebpf4jnsgd1na2vs0mg"},{"bike_id":"5722a078-64aa-4789-9f72-f571755e92fd","system_id":"levelo_inurba_marseille","lat":43.28438,"lon":5.34981,"is_reserved":false,"is_disabled":false,"rental_uris":{"android":"levelo://app?vid=5722a078-64aa-4789-9f72-f571755e92fd","ios":"levelo://app?vid=5722a078-64aa-4789-9f72-f571755e92fd"},"vehicle_type_id":"4","last_reported":1752855358,"current_range_meters":16800,"station_id":"ce4bhbh2rcd13ifvqepg","pricing_plan_id":"cebpf4jnsgd1na2vs0mg"},{"bike_id":"86544c9a-dc05-4aca-85f9-464c3b8bcdaf","system_id":"levelo_inurba_marseille","lat":43.31278,"lon":5.40168,"is_reserved":false,"is_disabled":false,"rental_uris":{"android":"levelo://app?vid=86544c9a-dc05-4aca-85f9-464c3b8bcdaf","ios":"levelo://app?vid=86544c9a-dc05-4aca-85f9-464c3b8bcdaf"},"vehicle_type_id":"4","last_reported":1752855358,"current_range_meters":17200,"station_id":"ce4bh092rcd13ifvqd30","pricing_plan_id":"cebpf4jnsgd1na2vs0mg"},{"bike_id":"afc91c81-7042-4270-a28e-07e325ae83c9","system_id":"levelo_inurba_marseille","lat":43.21194,"lon":5.3507,"is_reserved":false,"is_disabled":false,"rental_uris":{"android":"levelo://app?vid=afc91c81-7042-4270-a28e-07e325ae83c9","ios":"levelo://app?vid=afc91c81-7042-4270-a28e-07e325ae83c9"},"vehicle_type_id":"4","last_reported":1752855358,"current_range_meters":17200,"station_id":"st_cvj6sg6p6f1abm77japg","pricing_plan_id":"cebpf4jnsgd1na2vs0mg"},{"bike_id":"9346da80-d0b8-43fb-a02c-d547533828d3","system_id":"levelo_inurba_marseille","lat":43.2842,"lon":5.34991,"is_reserved":false,"is_disabled":false,"rental_uris":{"android":"levelo://app?vid=9346da80-d0b8-43fb-a02c-d547533828d3","ios":"levelo://app?vid=9346da80-d0b8-43fb-a02c-d547533828d3"},"vehicle_type_id":"4","last_reported":1752855358,"current_range_meters":17200,"station_id":"ce4bhbh2rcd13ifvqepg","pricing_plan_id":"cebpf4jnsgd1na2vs0mg"},{"bike_id":"06b46bd1-38ed-44f7-9ba1-67361d8158e7","system_id":"levelo_inurba_marseille","lat":43.28431,"lon":5.34987,"is_reserved":false,"is_disabled":false,"rental_uris":{"android":"levelo://app?vid=06b46bd1-38ed-44f7-9ba1-67361d8158e7","ios":"levelo://app?vid=06b46bd1-38ed-44f7-9ba1-67361d8158e7"},"vehicle_type_id":"4","last_reported":1752855358,"current_range_meters":17200,"station_id":"ce4bhbh2rcd13ifvqepg","pricing_plan_id":"cebpf4jnsgd1na2vs0mg"},{"bike_id":"7024254a-a6ef-48d8-916f-a8f5338e8436","system_id":"levelo_inurba_marseille","lat":43.28167,"lon":5.42622,"is_reserved":false,"is_disabled":false,"rental_uris":{"android":"levelo://app?vid=7024254a-a6ef-48d8-916f-a8f5338e8436","ios":"levelo://app?vid=7024254a-a6ef-48d8-916f-a8f5338e8436"},"vehicle_type_id":"4","last_reported":1752855358,"current_range_meters":17200,"station_id":"ce4bhnh2rcd13ifvqgug","pricing_plan_id":"cebpf4jnsgd1na2vs0mg"},{"bike_id":"70932949-0810-4f53-a300-723f5bcb3ae5","system_id":"levelo_inurba_marseille","lat":43.2251,"lon":5.34784,"is_reserved":false,"is_disabled":false,"rental_uris":{"android":"levelo://app?vid=70932949-0810-4f53-a300-723f5bcb3ae5","ios":"levelo://app?vid=70932949-0810-4f53-a300-723f5bcb3ae5"},"vehicle_type_id":"4","last_reported":1752855358,"current_range_meters":17200,"station_id":"st_cvj5dfep6f1abm77gieg","pricing_plan_id":"cebpf4jnsgd1na2vs0mg"},{"bike_id":"b22b912d-c2aa-4638-b821-9588263e410c","system_id":"levelo_inurba_marseille","lat":43.32368,"lon":5.38882,"is_reserved":false,"is_disabled":false,"rental_uris":{"android":"levelo://app?vid=b22b912d-c2aa-4638-b821-9588263e410c","ios":"levelo://app?vid=b22b912d-c2aa-4638-b821-9588263e410c"},"vehicle_type_id":"4","last_reported":1752855358,"current_range_meters":17200,"station_id":"ce4bhqp2rcd13ifvqhog","pricing_plan_id":"cebpf4jnsgd1na2vs0mg"},{"bike_id":"1d0d06fa-dc9e-427f-a1a1-026c1b429c8f","system_id":"levelo_inurba_marseille","lat":43.29275,"lon":5.36844,"is_reserved":false,"is_disabled":false,"rental_uris":{"android":"levelo://app?vid=1d0d06fa-dc9e-427f-a1a1-026c1b429c8f","ios":"levelo://app?vid=1d0d06fa-dc9e-427f-a1a1-026c1b429c8f"},"vehicle_type_id":"4","last_reported":1752855358,"current_range_meters":17200,"station_id":"ce4bhbp2rcd13ifvqesg","pricing_plan_id":"cebpf4jnsgd1na2vs0mg"},{"bike_id":"94c07cb2-0943-4d24-99f2-97bdab47aa3f","system_id":"levelo_inurba_marseille","lat":43.337444,"lon":5.374475,"is_reserved":false,"is_disabled":false,"rental_uris":{"android":"levelo://app?vid=94c07cb2-0943-4d24-99f2-97bdab47aa3f","ios":"levelo://app?vid=94c07cb2-0943-4d24-99f2-97bdab47aa3f"},"vehicle_type_id":"4","last_reported":1752855358,"current_range_meters":17200,"station_id":"","pricing_plan_id":"cebpf4jnsgd1na2vs0mg"},{"bike_id":"bd7f0af5-ae40-44b6-bc39-9b4e2b89534b","system_id":"levelo_inurba_marseille","lat":43.29868,"lon":5.39734,"is_reserved":false,"is_disabled":false,"rental_uris":{"android":"levelo://app?vid=bd7f0af5-ae40-44b6-bc39-9b4e2b89534b","ios":"levelo://app?vid=bd7f0af5-ae40-44b6-bc39-9b4e2b89534b"},"vehicle_type_id":"4","last_reported":1752855358,"current_range_meters":17600,"station_id":"","pricing_plan_id":"cebpf4jnsgd1na2vs0mg"},{"bike_id":"1d219207-082f-4dad-98a2-fb16c401173b","system_id":"levelo_inurba_marseille","lat":43.26959,"lon":5.402516,"is_reserved":false,"is_disabled":false,"rental_uris":{"android":"levelo://app?vid=1d219207-082f-4dad-98a2-fb16c401173b","ios":"levelo://app?vid=1d219207-082f-4dad-98a2-fb16c401173b"},"vehicle_type_id":"4","last_reported":1752855358,"current_range_meters":17600,"station_id":"cjm6bp8fraef2m0cb0m0","pricing_plan_id":"cebpf4jnsgd1na2vs0mg"},{"bike_id":"97898075-8836-42c8-8575-89683a92c8f3","system_id":"levelo_inurba_marseille","lat":43.33029,"lon":5.39048,"is_reserved":false,"is_disabled":false,"rental_uris":{"android":"levelo://app?vid=97898075-8836-42c8-8575-89683a92c8f3","ios":"levelo://app?vid=97898075-8836-42c8-8575-89683a92c8f3"},"vehicle_type_id":"4","last_reported":1752855358,"current_range_meters":17600,"station_id":"ce4bhr92rcd13ifvqhrg","pricing_plan_id":"cebpf4jnsgd1na2vs0mg"},{"bike_id":"8654c944-d4c4-42a3-a425-ebde908c5e33","system_id":"levelo_inurba_marseille","lat":43.240077,"lon":5.377041,"is_reserved":false,"is_disabled":false,"rental_uris":{"android":"levelo://app?vid=8654c944-d4c4-42a3-a425-ebde908c5e33","ios":"levelo://app?vid=8654c944-d4c4-42a3-a425-ebde908c5e33"},"vehicle_type_id":"4","last_reported":1752855358,"current_range_meters":17600,"station_id":"ce4bhnp2rcd13ifvqgvg","pricing_plan_id":"cebpf4jnsgd1na2vs0mg"},{"bike_id":"8d5e1463-6a03-4e80-bb0d-650bdb86dfa2","system_id":"levelo_inurba_marseille","lat":43.29053,"lon":5.37159,"is_reserved":false,"is_disabled":false,"rental_uris":{"android":"levelo://app?vid=8d5e1463-6a03-4e80-bb0d-650bdb86dfa2","ios":"levelo://app?vid=8d5e1463-6a03-4e80-bb0d-650bdb86dfa2"},"vehicle_type_id":"4","last_reported":1752855358,"current_range_meters":20400,"station_id":"ce4bh5p2rcd13ifvqe4g","pricing_plan_id":"cebpf4jnsgd1na2vs0mg"},{"bike_id":"82fa2dd1-a60b-4609-896b-9efe58a19369","system_id":"levelo_inurba_marseille","lat":43.30544,"lon":5.3652,"is_reserved":false,"is_disabled":false,"rental_uris":{"android":"levelo://app?vid=82fa2dd1-a60b-4609-896b-9efe58a19369","ios":"levelo://app?vid=82fa2dd1-a60b-4609-896b-9efe58a19369"},"vehicle_type_id":"4","last_reported":1752855358,"current_range_meters":17600,"station_id":"ce4bgs12rcd13ifvqcag","pricing_plan_id":"cebpf4jnsgd1na2vs0mg"},{"bike_id":"f6c97062-23b3-48e2-a347-34f6f8f3d30c","system_id":"levelo_inurba_marseille","lat":43.304238,"lon":5.4129,"is_reserved":false,"is_disabled":false,"rental_uris":{"android":"levelo://app?vid=f6c97062-23b3-48e2-a347-34f6f8f3d30c","ios":"levelo://app?vid=f6c97062-23b3-48e2-a347-34f6f8f3d30c"},"vehicle_type_id":"4","last_reported":1752855358,"current_range_meters":17600,"station_id":"ce4bhop2rcd13ifvqh8g","pricing_plan_id":"cebpf4jnsgd1na2vs0mg"},{"bike_id":"d1d78bac-9497-417b-919e-eff729eeda24","system_id":"levelo_inurba_marseille","lat":43.28416,"lon":5.34996,"is_reserved":false,"is_disabled":false,"rental_uris":{"android":"levelo://app?vid=d1d78bac-9497-417b-919e-eff729eeda24","ios":"levelo://app?vid=d1d78bac-9497-417b-919e-eff729eeda24"},"vehicle_type_id":"4","last_reported":1752855358,"current_range_meters":17600,"station_id":"ce4bhbh2rcd13ifvqepg","pricing_plan_id":"cebpf4jnsgd1na2vs0mg"},{"bike_id":"d5cf0ddb-4301-4e01-9253-a4393d968d0a","system_id":"levelo_inurba_marseille","lat":43.22528,"lon":5.34794,"is_reserved":false,"is_disabled":false,"rental_uris":{"android":"levelo://app?vid=d5cf0ddb-4301-4e01-9253-a4393d968d0a","ios":"levelo://app?vid=d5cf0ddb-4301-4e01-9253-a4393d968d0a"},"vehicle_type_id":"4","last_reported":1752855358,"current_range_meters":18000,"station_id":"st_cvj5dfep6f1abm77gieg","pricing_plan_id":"cebpf4jnsgd1na2vs0mg"},{"bike_id":"61ad06bf-04c8-422f-98c4-062c42b64e5b","system_id":"levelo_inurba_marseille","lat":43.28615,"lon":5.35111,"is_reserved":false,"is_disabled":false,"rental_uris":{"android":"levelo://app?vid=61ad06bf-04c8-422f-98c4-062c42b64e5b","ios":"levelo://app?vid=61ad06bf-04c8-422f-98c4-062c42b64e5b"},"vehicle_type_id":"4","last_reported":1752855358,"current_range_meters":18000,"station_id":"ce4bhch2rcd13ifvqeug","pricing_plan_id":"cebpf4jnsgd1na2vs0mg"},{"bike_id":"c8c72cf3-b60a-4eff-ac6b-a3697d2e350a","system_id":"levelo_inurba_marseille","lat":43.288777,"lon":5.353836,"is_reserved":false,"is_disabled":false,"rental_uris":{"android":"levelo://app?vid=c8c72cf3-b60a-4eff-ac6b-a3697d2e350a","ios":"levelo://app?vid=c8c72cf3-b60a-4eff-ac6b-a3697d2e350a"},"vehicle_type_id":"4","last_reported":1752855358,"current_range_meters":18000,"station_id":"ce4bhb92rcd13ifvqen0","pricing_plan_id":"cebpf4jnsgd1na2vs0mg"},{"bike_id":"6bc7dc9e-3227-44ae-8a5c-33ce43b209e3","system_id":"levelo_inurba_marseille","lat":43.30599,"lon":5.37224,"is_reserved":false,"is_disabled":false,"rental_uris":{"android":"levelo://app?vid=6bc7dc9e-3227-44ae-8a5c-33ce43b209e3","ios":"levelo://app?vid=6bc7dc9e-3227-44ae-8a5c-33ce43b209e3"},"vehicle_type_id":"4","last_reported":1752855358,"current_range_meters":18000,"station_id":"ce4bgqh2rcd13ifvqc4g","pricing_plan_id":"cebpf4jnsgd1na2vs0mg"},{"bike_id":"da355e6f-008e-407a-b781-033eafe037e3","system_id":"levelo_inurba_marseille","lat":43.28716,"lon":5.37935,"is_reserved":false,"is_disabled":false,"rental_uris":{"android":"levelo://app?vid=da355e6f-008e-407a-b781-033eafe037e3","ios":"levelo://app?vid=da355e6f-008e-407a-b781-033eafe037e3"},"vehicle_type_id":"4","last_reported":1752855358,"current_range_meters":18000,"station_id":"ce4bh9p2rcd13ifvqec0","pricing_plan_id":"cebpf4jnsgd1na2vs0mg"},{"bike_id":"fe1318bc-2f39-4022-b6dc-3699c278f7c9","system_id":"levelo_inurba_marseille","lat":43.30538,"lon":5.36535,"is_reserved":false,"is_disabled":false,"rental_uris":{"android":"levelo://app?vid=fe1318bc-2f39-4022-b6dc-3699c278f7c9","ios":"levelo://app?vid=fe1318bc-2f39-4022-b6dc-3699c278f7c9"},"vehicle_type_id":"4","last_reported":1752855358,"current_range_meters":18000,"station_id":"ce4bgs12rcd13ifvqcag","pricing_plan_id":"cebpf4jnsgd1na2vs0mg"},{"bike_id":"f7405928-6829-48e5-b042-12d374c468e5","system_id":"levelo_inurba_marseille","lat":43.282704,"lon":5.350543,"is_reserved":false,"is_disabled":false,"rental_uris":{"android":"levelo://app?vid=f7405928-6829-48e5-b042-12d374c468e5","ios":"levelo://app?vid=f7405928-6829-48e5-b042-12d374c468e5"},"vehicle_type_id":"4","last_reported":1752855358,"current_range_meters":18000,"station_id":"ce4bhbp2rcd13ifvqerg","pricing_plan_id":"cebpf4jnsgd1na2vs0mg"},{"bike_id":"db88757d-12a0-4e6d-80f8-234649c60f97","system_id":"levelo_inurba_marseille","lat":43.29422,"lon":5.38583,"is_reserved":false,"is_disabled":false,"rental_uris":{"android":"levelo://app?vid=db88757d-12a0-4e6d-80f8-234649c60f97","ios":"levelo://app?vid=db88757d-12a0-4e6d-80f8-234649c60f97"},"vehicle_type_id":"4","last_reported":1752855358,"current_range_meters":18000,"station_id":"ce4bh2h2rcd13ifvqdh0","pricing_plan_id":"cebpf4jnsgd1na2vs0mg"},{"bike_id":"7360b2c1-827d-4a45-ba07-948ef7d2fc35","system_id":"levelo_inurba_marseille","lat":43.229295,"lon":5.353761,"is_reserved":false,"is_disabled":false,"rental_uris":{"android":"levelo://app?vid=7360b2c1-827d-4a45-ba07-948ef7d2fc35","ios":"levelo://app?vid=7360b2c1-827d-4a45-ba07-948ef7d2fc35"},"vehicle_type_id":"4","last_reported":1752855358,"current_range_meters":18000,"station_id":"","pricing_plan_id":"cebpf4jnsgd1na2vs0mg"},{"bike_id":"03c056d3-00eb-424a-b859-479934a69a08","system_id":"levelo_inurba_marseille","lat":43.28938,"lon":5.36644,"is_reserved":false,"is_disabled":false,"rental_uris":{"android":"levelo://app?vid=03c056d3-00eb-424a-b859-479934a69a08","ios":"levelo://app?vid=03c056d3-00eb-424a-b859-479934a69a08"},"vehicle_type_id":"4","last_reported":1752855358,"current_range_meters":17600,"station_id":"ce4bhap2rcd13ifvqek0","pricing_plan_id":"cebpf4jnsgd1na2vs0mg"},{"bike_id":"96579d04-b9e9-484c-9b9a-af500e5e8552","system_id":"levelo_inurba_marseille","lat":43.32675,"lon":5.36395,"is_reserved":false,"is_disabled":false,"rental_uris":{"android":"levelo://app?vid=96579d04-b9e9-484c-9b9a-af500e5e8552","ios":"levelo://app?vid=96579d04-b9e9-484c-9b9a-af500e5e8552"},"vehicle_type_id":"4","last_reported":1752855358,"current_range_meters":18000,"station_id":"","pricing_plan_id":"cebpf4jnsgd1na2vs0mg"},{"bike_id":"cb7b541b-4aa0-476b-ac1b-c83b6acaa65d","system_id":"levelo_inurba_marseille","lat":43.24168,"lon":5.36397,"is_reserved":false,"is_disabled":false,"rental_uris":{"android":"levelo://app?vid=cb7b541b-4aa0-476b-ac1b-c83b6acaa65d","ios":"levelo://app?vid=cb7b541b-4aa0-476b-ac1b-c83b6acaa65d"},"vehicle_type_id":"4","last_reported":1752855358,"current_range_meters":18800,"station_id":"cpo36qri1sfpv3e86is0","pricing_plan_id":"cebpf4jnsgd1na2vs0mg"},{"bike_id":"d26921fd-4bdd-464e-9d11-776a5055fe23","system_id":"levelo_inurba_marseille","lat":43.282772,"lon":5.350761,"is_reserved":false,"is_disabled":false,"rental_uris":{"android":"levelo://app?vid=d26921fd-4bdd-464e-9d11-776a5055fe23","ios":"levelo://app?vid=d26921fd-4bdd-464e-9d11-776a5055fe23"},"vehicle_type_id":"4","last_reported":1752855358,"current_range_meters":18800,"station_id":"ce4bhbp2rcd13ifvqerg","pricing_plan_id":"cebpf4jnsgd1na2vs0mg"},{"bike_id":"65e7e9d7-8481-4616-be29-d7df01b06a54","system_id":"levelo_inurba_marseille","lat":43.301691,"lon":5.381013,"is_reserved":false,"is_disabled":false,"rental_uris":{"android":"levelo://app?vid=65e7e9d7-8481-4616-be29-d7df01b06a54","ios":"levelo://app?vid=65e7e9d7-8481-4616-be29-d7df01b06a54"},"vehicle_type_id":"4","last_reported":1752855358,"current_range_meters":18800,"station_id":"ce4bgjp2rcd13ifvqbh0","pricing_plan_id":"cebpf4jnsgd1na2vs0mg"},{"bike_id":"76312c10-4548-49d1-8b2e-8df622d15f72","system_id":"levelo_inurba_marseille","lat":43.26941,"lon":5.40261,"is_reserved":false,"is_disabled":false,"rental_uris":{"android":"levelo://app?vid=76312c10-4548-49d1-8b2e-8df622d15f72","ios":"levelo://app?vid=76312c10-4548-49d1-8b2e-8df622d15f72"},"vehicle_type_id":"4","last_reported":1752855358,"current_range_meters":18800,"station_id":"cjm6bp8fraef2m0cb0m0","pricing_plan_id":"cebpf4jnsgd1na2vs0mg"},{"bike_id":"0e2d3030-b1e9-43ea-8039-3819b05ef00e","system_id":"levelo_inurba_marseille","lat":43.286212,"lon":5.351048,"is_reserved":false,"is_disabled":false,"rental_uris":{"android":"levelo://app?vid=0e2d3030-b1e9-43ea-8039-3819b05ef00e","ios":"levelo://app?vid=0e2d3030-b1e9-43ea-8039-3819b05ef00e"},"vehicle_type_id":"4","last_reported":1752855358,"current_range_meters":18800,"station_id":"ce4bhch2rcd13ifvqeug","pricing_plan_id":"cebpf4jnsgd1na2vs0mg"},{"bike_id":"a7b92e07-0d22-4b45-8ef1-b763127c437f","system_id":"levelo_inurba_marseille","lat":43.32524,"lon":5.37548,"is_reserved":false,"is_disabled":false,"rental_uris":{"android":"levelo://app?vid=a7b92e07-0d22-4b45-8ef1-b763127c437f","ios":"levelo://app?vid=a7b92e07-0d22-4b45-8ef1-b763127c437f"},"vehicle_type_id":"4","last_reported":1752855358,"current_range_meters":18800,"station_id":"","pricing_plan_id":"cebpf4jnsgd1na2vs0mg"},{"bike_id":"9eee562f-c74b-4c1a-8fa0-1792764207de","system_id":"levelo_inurba_marseille","lat":43.25486,"lon":5.37648,"is_reserved":false,"is_disabled":true,"rental_uris":{"android":"levelo://app?vid=9eee562f-c74b-4c1a-8fa0-1792764207de","ios":"levelo://app?vid=9eee562f-c74b-4c1a-8fa0-1792764207de"},"vehicle_type_id":"4","last_reported":1752855358,"current_range_meters":19200,"station_id":"ce4bhh12rcd13ifvqff0","pricing_plan_id":"cebpf4jnsgd1na2vs0mg"},{"bike_id":"c51f4791-1b20-4bcc-963b-c54a586cf4cb","system_id":"levelo_inurba_marseille","lat":43.28269,"lon":5.35066,"is_reserved":false,"is_disabled":false,"rental_uris":{"android":"levelo://app?vid=c51f4791-1b20-4bcc-963b-c54a586cf4cb","ios":"levelo://app?vid=c51f4791-1b20-4bcc-963b-c54a586cf4cb"},"vehicle_type_id":"4","last_reported":1752855358,"current_range_meters":19200,"station_id":"ce4bhbp2rcd13ifvqerg","pricing_plan_id":"cebpf4jnsgd1na2vs0mg"},{"bike_id":"03c737bd-edb0-4289-81a3-8b4199c6ec61","system_id":"levelo_inurba_marseille","lat":43.2762,"lon":5.36103,"is_reserved":false,"is_disabled":false,"rental_uris":{"android":"levelo://app?vid=03c737bd-edb0-4289-81a3-8b4199c6ec61","ios":"levelo://app?vid=03c737bd-edb0-4289-81a3-8b4199c6ec61"},"vehicle_type_id":"4","last_reported":1752855358,"current_range_meters":19200,"station_id":"ce4bgj92rcd13ifvqbe0","pricing_plan_id":"cebpf4jnsgd1na2vs0mg"},{"bike_id":"77a9281f-f316-48cf-97fe-ace07633ddd9","system_id":"levelo_inurba_marseille","lat":43.29975,"lon":5.38498,"is_reserved":false,"is_disabled":false,"rental_uris":{"android":"levelo://app?vid=77a9281f-f316-48cf-97fe-ace07633ddd9","ios":"levelo://app?vid=77a9281f-f316-48cf-97fe-ace07633ddd9"},"vehicle_type_id":"4","last_reported":1752855358,"current_range_meters":19200,"station_id":"ce4bgj92rcd13ifvqbd0","pricing_plan_id":"cebpf4jnsgd1na2vs0mg"},{"bike_id":"5188642d-2a64-4671-bbec-d5f09739aeeb","system_id":"levelo_inurba_marseille","lat":43.299243,"lon":5.374833,"is_reserved":false,"is_disabled":false,"rental_uris":{"android":"levelo://app?vid=5188642d-2a64-4671-bbec-d5f09739aeeb","ios":"levelo://app?vid=5188642d-2a64-4671-bbec-d5f09739aeeb"},"vehicle_type_id":"4","last_reported":1752855358,"current_range_meters":19200,"station_id":"ce4bgjh2rcd13ifvqbg0","pricing_plan_id":"cebpf4jnsgd1na2vs0mg"},{"bike_id":"edc4b0c9-fab4-419c-a6b9-8cf24b51f4e2","system_id":"levelo_inurba_marseille","lat":43.22508,"lon":5.34786,"is_reserved":false,"is_disabled":false,"rental_uris":{"android":"levelo://app?vid=edc4b0c9-fab4-419c-a6b9-8cf24b51f4e2","ios":"levelo://app?vid=edc4b0c9-fab4-419c-a6b9-8cf24b51f4e2"},"vehicle_type_id":"4","last_reported":1752855358,"current_range_meters":19200,"station_id":"st_cvj5dfep6f1abm77gieg","pricing_plan_id":"cebpf4jnsgd1na2vs0mg"},{"bike_id":"070514fe-927a-4fb0-9ca7-d8af1cc39ae0","system_id":"levelo_inurba_marseille","lat":43.28283,"lon":5.35085,"is_reserved":false,"is_disabled":false,"rental_uris":{"android":"levelo://app?vid=070514fe-927a-4fb0-9ca7-d8af1cc39ae0","ios":"levelo://app?vid=070514fe-927a-4fb0-9ca7-d8af1cc39ae0"},"vehicle_type_id":"4","last_reported":1752855358,"current_range_meters":19200,"station_id":"ce4bhbp2rcd13ifvqerg","pricing_plan_id":"cebpf4jnsgd1na2vs0mg"},{"bike_id":"10d391b5-c179-4f9b-944d-e8c56b01a775","system_id":"levelo_inurba_marseille","lat":43.21754,"lon":5.34603,"is_reserved":false,"is_disabled":false,"rental_uris":{"android":"levelo://app?vid=10d391b5-c179-4f9b-944d-e8c56b01a775","ios":"levelo://app?vid=10d391b5-c179-4f9b-944d-e8c56b01a775"},"vehicle_type_id":"4","last_reported":1752855358,"current_range_meters":19200,"station_id":"st_cvj6r9ubvosntc0bgbag","pricing_plan_id":"cebpf4jnsgd1na2vs0mg"},{"bike_id":"b4fc9db1-9014-428f-a1e9-a31897b613f4","system_id":"levelo_inurba_marseille","lat":43.28613,"lon":5.35107,"is_reserved":false,"is_disabled":false,"rental_uris":{"android":"levelo://app?vid=b4fc9db1-9014-428f-a1e9-a31897b613f4","ios":"levelo://app?vid=b4fc9db1-9014-428f-a1e9-a31897b613f4"},"vehicle_type_id":"4","last_reported":1752855358,"current_range_meters":19200,"station_id":"ce4bhch2rcd13ifvqeug","pricing_plan_id":"cebpf4jnsgd1na2vs0mg"},{"bike_id":"33ab395a-ffc6-47bd-96a5-d8df1dd2d18e","system_id":"levelo_inurba_marseille","lat":43.21763,"lon":5.34591,"is_reserved":false,"is_disabled":false,"rental_uris":{"android":"levelo://app?vid=33ab395a-ffc6-47bd-96a5-d8df1dd2d18e","ios":"levelo://app?vid=33ab395a-ffc6-47bd-96a5-d8df1dd2d18e"},"vehicle_type_id":"4","last_reported":1752855358,"current_range_meters":19600,"station_id":"st_cvj6r9ubvosntc0bgbag","pricing_plan_id":"cebpf4jnsgd1na2vs0mg"},{"bike_id":"45dea0eb-918d-49f1-8341-001e35c226f0","system_id":"levelo_inurba_marseille","lat":43.21205,"lon":5.35099,"is_reserved":false,"is_disabled":false,"rental_uris":{"android":"levelo://app?vid=45dea0eb-918d-49f1-8341-001e35c226f0","ios":"levelo://app?vid=45dea0eb-918d-49f1-8341-001e35c226f0"},"vehicle_type_id":"4","last_reported":1752855358,"current_range_meters":19600,"station_id":"st_cvj6sg6p6f1abm77japg","pricing_plan_id":"cebpf4jnsgd1na2vs0mg"},{"bike_id":"0b2d0547-590d-4f87-9e6c-d061b1f8edc6","system_id":"levelo_inurba_marseille","lat":43.26488,"lon":5.39548,"is_reserved":false,"is_disabled":false,"rental_uris":{"android":"levelo://app?vid=0b2d0547-590d-4f87-9e6c-d061b1f8edc6","ios":"levelo://app?vid=0b2d0547-590d-4f87-9e6c-d061b1f8edc6"},"vehicle_type_id":"4","last_reported":1752855358,"current_range_meters":19600,"station_id":"ce4bhi12rcd13ifvqfq0","pricing_plan_id":"cebpf4jnsgd1na2vs0mg"},{"bike_id":"81958b60-69b9-4ee8-a975-23ff5b6d8a65","system_id":"levelo_inurba_marseille","lat":43.28416,"lon":5.3499,"is_reserved":false,"is_disabled":false,"rental_uris":{"android":"levelo://app?vid=81958b60-69b9-4ee8-a975-23ff5b6d8a65","ios":"levelo://app?vid=81958b60-69b9-4ee8-a975-23ff5b6d8a65"},"vehicle_type_id":"4","last_reported":1752855358,"current_range_meters":19600,"station_id":"ce4bhbh2rcd13ifvqepg","pricing_plan_id":"cebpf4jnsgd1na2vs0mg"},{"bike_id":"d432aa91-2062-4c53-95c7-2bd4a2122276","system_id":"levelo_inurba_marseille","lat":43.29269,"lon":5.36845,"is_reserved":false,"is_disabled":false,"rental_uris":{"android":"levelo://app?vid=d432aa91-2062-4c53-95c7-2bd4a2122276","ios":"levelo://app?vid=d432aa91-2062-4c53-95c7-2bd4a2122276"},"vehicle_type_id":"4","last_reported":1752855358,"current_range_meters":19600,"station_id":"ce4bhbp2rcd13ifvqesg","pricing_plan_id":"cebpf4jnsgd1na2vs0mg"},{"bike_id":"ae514fe1-85ea-4b12-b065-9e5a24663928","system_id":"levelo_inurba_marseille","lat":43.21189,"lon":5.35072,"is_reserved":false,"is_disabled":false,"rental_uris":{"android":"levelo://app?vid=ae514fe1-85ea-4b12-b065-9e5a24663928","ios":"levelo://app?vid=ae514fe1-85ea-4b12-b065-9e5a24663928"},"vehicle_type_id":"4","last_reported":1752855358,"current_range_meters":19600,"station_id":"st_cvj6sg6p6f1abm77japg","pricing_plan_id":"cebpf4jnsgd1na2vs0mg"},{"bike_id":"53adf772-e559-4105-9924-292b35e64b0e","system_id":"levelo_inurba_marseille","lat":43.28282,"lon":5.35093,"is_reserved":false,"is_disabled":false,"rental_uris":{"android":"levelo://app?vid=53adf772-e559-4105-9924-292b35e64b0e","ios":"levelo://app?vid=53adf772-e559-4105-9924-292b35e64b0e"},"vehicle_type_id":"4","last_reported":1752855358,"current_range_meters":19600,"station_id":"ce4bhbp2rcd13ifvqerg","pricing_plan_id":"cebpf4jnsgd1na2vs0mg"},{"bike_id":"c563397a-8e95-43de-9482-c447bf9c775e","system_id":"levelo_inurba_marseille","lat":43.29338,"lon":5.4116,"is_reserved":false,"is_disabled":false,"rental_uris":{"android":"levelo://app?vid=c563397a-8e95-43de-9482-c447bf9c775e","ios":"levelo://app?vid=c563397a-8e95-43de-9482-c447bf9c775e"},"vehicle_type_id":"4","last_reported":1752855358,"current_range_meters":19600,"station_id":"","pricing_plan_id":"cebpf4jnsgd1na2vs0mg"},{"bike_id":"645d4cef-7927-41ba-bb7f-0b468ff58235","system_id":"levelo_inurba_marseille","lat":43.27373,"lon":5.36253,"is_reserved":false,"is_disabled":false,"rental_uris":{"android":"levelo://app?vid=645d4cef-7927-41ba-bb7f-0b468ff58235","ios":"levelo://app?vid=645d4cef-7927-41ba-bb7f-0b468ff58235"},"vehicle_type_id":"4","last_reported":1752855358,"current_range_meters":19600,"station_id":"ce4bhbh2rcd13ifvqeo0","pricing_plan_id":"cebpf4jnsgd1na2vs0mg"},{"bike_id":"512966d1-1112-480d-b925-842c88796c98","system_id":"levelo_inurba_marseille","lat":43.292614,"lon":5.409156,"is_reserved":false,"is_disabled":false,"rental_uris":{"android":"levelo://app?vid=512966d1-1112-480d-b925-842c88796c98","ios":"levelo://app?vid=512966d1-1112-480d-b925-842c88796c98"},"vehicle_type_id":"4","last_reported":1752855358,"current_range_meters":20000,"station_id":"ce4bh192rcd13ifvqdc0","pricing_plan_id":"cebpf4jnsgd1na2vs0mg"},{"bike_id":"bd4f2166-3fd0-4dcc-b0eb-f1e53c57f556","system_id":"levelo_inurba_marseille","lat":43.21186,"lon":5.35054,"is_reserved":false,"is_disabled":false,"rental_uris":{"android":"levelo://app?vid=bd4f2166-3fd0-4dcc-b0eb-f1e53c57f556","ios":"levelo://app?vid=bd4f2166-3fd0-4dcc-b0eb-f1e53c57f556"},"vehicle_type_id":"4","last_reported":1752855358,"current_range_meters":20000,"station_id":"st_cvj6sg6p6f1abm77japg","pricing_plan_id":"cebpf4jnsgd1na2vs0mg"},{"bike_id":"4a2af6fb-f040-4dff-9ff5-d70c4f952e83","system_id":"levelo_inurba_marseille","lat":43.314993,"lon":5.373055,"is_reserved":false,"is_disabled":true,"rental_uris":{"android":"levelo://app?vid=4a2af6fb-f040-4dff-9ff5-d70c4f952e83","ios":"levelo://app?vid=4a2af6fb-f040-4dff-9ff5-d70c4f952e83"},"vehicle_type_id":"4","last_reported":1752855358,"current_range_meters":20000,"station_id":"ce4bgt12rcd13ifvqcd0","pricing_plan_id":"cebpf4jnsgd1na2vs0mg"},{"bike_id":"d2e684f5-ab36-4a0c-ae08-b590abf9c3c8","system_id":"levelo_inurba_marseille","lat":43.292136,"lon":5.365291,"is_reserved":false,"is_disabled":false,"rental_uris":{"android":"levelo://app?vid=d2e684f5-ab36-4a0c-ae08-b590abf9c3c8","ios":"levelo://app?vid=d2e684f5-ab36-4a0c-ae08-b590abf9c3c8"},"vehicle_type_id":"4","last_reported":1752855358,"current_range_meters":20000,"station_id":"","pricing_plan_id":"cebpf4jnsgd1na2vs0mg"},{"bike_id":"602857e0-eb7a-4d0c-ba46-1f4752ffe544","system_id":"levelo_inurba_marseille","lat":43.32369,"lon":5.38884,"is_reserved":false,"is_disabled":false,"rental_uris":{"android":"levelo://app?vid=602857e0-eb7a-4d0c-ba46-1f4752ffe544","ios":"levelo://app?vid=602857e0-eb7a-4d0c-ba46-1f4752ffe544"},"vehicle_type_id":"4","last_reported":1752855358,"current_range_meters":20000,"station_id":"ce4bhqp2rcd13ifvqhog","pricing_plan_id":"cebpf4jnsgd1na2vs0mg"},{"bike_id":"90d4f77e-262c-4d22-9803-80c7c88599a7","system_id":"levelo_inurba_marseille","lat":43.337444,"lon":5.374475,"is_reserved":false,"is_disabled":false,"rental_uris":{"android":"levelo://app?vid=90d4f77e-262c-4d22-9803-80c7c88599a7","ios":"levelo://app?vid=90d4f77e-262c-4d22-9803-80c7c88599a7"},"vehicle_type_id":"4","last_reported":1752855358,"current_range_meters":20000,"station_id":"","pricing_plan_id":"cebpf4jnsgd1na2vs0mg"},{"bike_id":"4b09503c-2e68-4922-9731-e6ad1c72bd35","system_id":"levelo_inurba_marseille","lat":43.272044,"lon":5.391888,"is_reserved":false,"is_disabled":false,"rental_uris":{"android":"levelo://app?vid=4b09503c-2e68-4922-9731-e6ad1c72bd35","ios":"levelo://app?vid=4b09503c-2e68-4922-9731-e6ad1c72bd35"},"vehicle_type_id":"4","last_reported":1752855358,"current_range_meters":22000,"station_id":"ce4bhhp2rcd13ifvqfm0","pricing_plan_id":"cebpf4jnsgd1na2vs0mg"},{"bike_id":"a168d389-ea1d-4756-ad9b-cf73a31ab442","system_id":"levelo_inurba_marseille","lat":43.288747,"lon":5.400098,"is_reserved":false,"is_disabled":false,"rental_uris":{"android":"levelo://app?vid=a168d389-ea1d-4756-ad9b-cf73a31ab442","ios":"levelo://app?vid=a168d389-ea1d-4756-ad9b-cf73a31ab442"},"vehicle_type_id":"4","last_reported":1752855358,"current_range_meters":20000,"station_id":"","pricing_plan_id":"cebpf4jnsgd1na2vs0mg"},{"bike_id":"194761a1-269e-4c25-89d2-96a531153c1b","system_id":"levelo_inurba_marseille","lat":43.28618,"lon":5.351,"is_reserved":false,"is_disabled":false,"rental_uris":{"android":"levelo://app?vid=194761a1-269e-4c25-89d2-96a531153c1b","ios":"levelo://app?vid=194761a1-269e-4c25-89d2-96a531153c1b"},"vehicle_type_id":"4","last_reported":1752855358,"current_range_meters":20000,"station_id":"ce4bhch2rcd13ifvqeug","pricing_plan_id":"cebpf4jnsgd1na2vs0mg"},{"bike_id":"80117a2d-1ac6-4722-859b-60962a76b426","system_id":"levelo_inurba_marseille","lat":43.30601,"lon":5.37237,"is_reserved":false,"is_disabled":false,"rental_uris":{"android":"levelo://app?vid=80117a2d-1ac6-4722-859b-60962a76b426","ios":"levelo://app?vid=80117a2d-1ac6-4722-859b-60962a76b426"},"vehicle_type_id":"4","last_reported":1752855358,"current_range_meters":20000,"station_id":"ce4bgqh2rcd13ifvqc4g","pricing_plan_id":"cebpf4jnsgd1na2vs0mg"},{"bike_id":"44e89ad7-16a2-4910-805f-061f2aee5ab7","system_id":"levelo_inurba_marseille","lat":43.23194,"lon":5.35561,"is_reserved":false,"is_disabled":false,"rental_uris":{"android":"levelo://app?vid=44e89ad7-16a2-4910-805f-061f2aee5ab7","ios":"levelo://app?vid=44e89ad7-16a2-4910-805f-061f2aee5ab7"},"vehicle_type_id":"4","last_reported":1752855358,"current_range_meters":20000,"station_id":"ce4bhu92rcd13ifvqi70","pricing_plan_id":"cebpf4jnsgd1na2vs0mg"},{"bike_id":"9220ecd8-939e-45ef-b0df-e8839be702da","system_id":"levelo_inurba_marseille","lat":43.27379,"lon":5.36265,"is_reserved":false,"is_disabled":false,"rental_uris":{"android":"levelo://app?vid=9220ecd8-939e-45ef-b0df-e8839be702da","ios":"levelo://app?vid=9220ecd8-939e-45ef-b0df-e8839be702da"},