{"last_updated":1699726074,"ttl":30,"version":"2.2","data":{"bikes":[{"bike_id":"1fdd8911-a527-4c96-9c02-60fcd641e535","system_id":"levelo_inurba_marseille","lat":43.313391,"lon":5.36706,"is_reserved":false,"is_disabled":false,"rental_uris":{"android":"levelo://app?vid=1fdd8911-a527-4c96-9c02-60fcd641e535","ios":"levelo://app?vid=1fdd8911-a527-4c96-9c02-60fcd641e535"},"vehicle_type_id":"4","last_reported":1699726074,"current_range_meters":25200,"station_id":"ce4bgr92rcd13ifvqc6g","pricing_plan_id":"free"},{"bike_id":"990b45b0-5c08-4bef-ab65-8ee81c73f0bd","system_id":"levelo_inurba_marseille","lat":43.312239,"lon":5.368562,"is_reserved":false,"is_disabled":false,"rental_uris":{"android":"levelo://app?vid=990b45b0-5c08-4bef-ab65-8ee81c73f0bd","ios":"levelo://app?vid=990b45b0-5c08-4bef-ab65-8ee81c73f0bd"},"vehicle_type_id":"4","last_reported":1699726074,"current_range_meters":21600,"station_id":"ce4bgl92rcd13ifvqbq0","pricing_plan_id":"free"},{"bike_id":"a303c1eb-c1f9-4f91-8e86-71c806c20ac5","system_id":"levelo_inurba_marseille","lat":43.313759,"lon":5.376093,"is_reserved":false,"is_disabled":false,"rental_uris":{"android":"levelo://app?vid=a303c1eb-c1f9-4f91-8e86-71c806c20ac5","ios":"levelo://app?vid=a303c1eb-c1f9-4f91-8e86-71c806c20ac5"},"vehicle_type_id":"4","last_reported":1699726074,"current_range_meters":27600,"station_id":"","pricing_plan_id":"free"},{"bike_id":"a3e55553-31f7-4753-9826-d4970914ade5","system_id":"levelo_inurba_marseille","lat":43.305396,"lon":5.367092,"is_reserved":false,"is_disabled":false,"rental_uris":{"android":"levelo://app?vid=a3e55553-31f7-4753-9826-d4970914ade5","ios":"levelo://app?vid=a3e55553-31f7-4753-9826-d4970914ade5"},"vehicle_type_id":"4","last_reported":1699726074,"current_range_meters":31200,"station_id":"ce4bgrp2rcd13ifvqc9g","pricing_plan_id":"free"},{"bike_id":"76b359af-c20b-45d0-a1df-78f4c9a6553a","system_id":"levelo_inurba_marseille","lat":43.305706,"lon":5.365654,"is_reserved":false,"is_disabled":false,"rental_uris":{"android":"levelo://app?vid=76b359af-c20b-45d0-a1df-78f4c9a6553a","ios":"levelo://app?vid=76b359af-c20b-45d0-a1df-78f4c9a6553a"},"vehicle_type_id":"4","last_reported":1699726074,"current_range_meters":18000,"station_id":"ce4bgs12rcd13ifvqcag","pricing_plan_id":"free"},{"bike_id":"e28276e2-043a-446a-b0ee-9b62d6ba4969","system_id":"levelo_inurba_marseille","lat":43.31113,"lon":5.37761,"is_reserved":false,"is_disabled":false,"rental_uris":{"android":"levelo://app?vid=e28276e2-043a-446a-b0ee-9b62d6ba4969","ios":"levelo://app?vid=e28276e2-043a-446a-b0ee-9b62d6ba4969"},"vehicle_type_id":"4","last_reported":1699726074,"current_range_meters":0,"station_id":"ce4bgt92rcd13ifvqcg0","pricing_plan_id":"free"},{"bike_id":"57053367-5328-4d78-8951-737f56b37ed9","system_id":"levelo_inurba_marseille","lat":43.319924,"lon":5.373389,"is_reserved":false,"is_disabled":false,"rental_uris":{"android":"levelo://app?vid=57053367-5328-4d78-8951-737f56b37ed9","ios":"levelo://app?vid=57053367-5328-4d78-8951-737f56b37ed9"},"vehicle_type_id":"4","last_reported":1699726074,"current_range_meters":18000,"station_id":"","pricing_plan_id":"free"},{"bike_id":"82b1cb21-a9e6-4724-ae5d-ee3fbe72a2f9","system_id":"levelo_inurba_marseille","lat":43.317075,"lon":5.377367,"is_reserved":false,"is_disabled":false,"rental_uris":{"android":"levelo://app?vid=82b1cb21-a9e6-4724-ae5d-ee3fbe72a2f9","ios":"levelo://app?vid=82b1cb21-a9e6-4724-ae5d-ee3fbe72a2f9"},"vehicle_type_id":"4","last_reported":1699726074,"current_range_meters":5600,"station_id":"ce4bgth2rcd13ifvqch0","pricing_plan_id":"free"},{"bike_id":"59284d0e-d0c8-4250-abbb-0879decb645c","system_id":"levelo_inurba_marseille","lat":43.317075,"lon":5.377367,"is_reserved":false,"is_disabled":false,"rental_uris":{"android":"levelo://app?vid=59284d0e-d0c8-4250-abbb-0879decb645c","ios":"levelo://app?vid=59284d0e-d0c8-4250-abbb-0879decb645c"},"vehicle_type_id":"4","last_reported":1699726074,"current_range_meters":24000,"station_id":"ce4bgth2rcd13ifvqch0","pricing_plan_id":"free"},{"bike_id":"55c02542-e233-423e-8fa3-4540b8d7e21e","system_id":"levelo_inurba_marseille","lat":43.301939,"lon":5.366286,"is_reserved":false,"is_disabled":false,"rental_uris":{"android":"levelo://app?vid=55c02542-e233-423e-8fa3-4540b8d7e21e","ios":"levelo://app?vid=55c02542-e233-423e-8fa3-4540b8d7e21e"},"vehicle_type_id":"4","last_reported":1699726074,"current_range_meters":13200,"station_id":"ce4bgrh2rcd13ifvqc8g","pricing_plan_id":"free"},{"bike_id":"5aa9c884-5a77-4e5a-babc-038ddea7c83b","system_id":"levelo_inurba_marseille","lat":43.301939,"lon":5.366286,"is_reserved":false,"is_disabled":false,"rental_uris":{"android":"levelo://app?vid=5aa9c884-5a77-4e5a-babc-038ddea7c83b","ios":"levelo://app?vid=5aa9c884-5a77-4e5a-babc-038ddea7c83b"},"vehicle_type_id":"4","last_reported":1699726074,"current_range_meters":17200,"station_id":"ce4bgrh2rcd13ifvqc8g","pricing_plan_id":"free"},{"bike_id":"a26a672c-8f86-40f5-9e8e-9856cf399a24","system_id":"levelo_inurba_marseille","lat":43.308051,"lon":5.381541,"is_reserved":false,"is_disabled":false,"rental_uris":{"android":"levelo://app?vid=a26a672c-8f86-40f5-9e8e-9856cf399a24","ios":"levelo://app?vid=a26a672c-8f86-40f5-9e8e-9856cf399a24"},"vehicle_type_id":"4","last_reported":1699726074,"current_range_meters":26000,"station_id":"ce4bgt12rcd13ifvqce0","pricing_plan_id":"free"},{"bike_id":"8ef52193-4a3c-4256-8c92-d02dc1148f05","system_id":"levelo_inurba_marseille","lat":43.3248,"lon":5.36558,"is_reserved":false,"is_disabled":false,"rental_uris":{"android":"levelo://app?vid=8ef52193-4a3c-4256-8c92-d02dc1148f05","ios":"levelo://app?vid=8ef52193-4a3c-4256-8c92-d02dc1148f05"},"vehicle_type_id":"4","last_reported":1699726074,"current_range_meters":11200,"station_id":"ce4bhs12rcd13ifvqhvg","pricing_plan_id":"free"},{"bike_id":"3819deec-fe3d-41c7-8346-2b107cb07054","system_id":"levelo_inurba_marseille","lat":43.315237,"lon":5.383797,"is_reserved":false,"is_disabled":false,"rental_uris":{"android":"levelo://app?vid=3819deec-fe3d-41c7-8346-2b107cb07054","ios":"levelo://app?vid=3819deec-fe3d-41c7-8346-2b107cb07054"},"vehicle_type_id":"4","last_reported":1699726074,"current_range_meters":0,"station_id":"","pricing_plan_id":"free"},{"bike_id":"177f4531-51b5-4aa5-a480-50a77afb24a1","system_id":"levelo_inurba_marseille","lat":43.302784,"lon":5.377158,"is_reserved":false,"is_disabled":false,"rental_uris":{"android":"levelo://app?vid=177f4531-51b5-4aa5-a480-50a77afb24a1","ios":"levelo://app?vid=177f4531-51b5-4aa5-a480-50a77afb24a1"},"vehicle_type_id":"4","last_reported":1699726074,"current_range_meters":1200,"station_id":"ce4bguh2rcd13ifvqcj0","pricing_plan_id":"free"},{"bike_id":"69166d53-ec8e-4a0a-864c-7a29f7650dd8","system_id":"levelo_inurba_marseille","lat":43.321149,"lon":5.380018,"is_reserved":false,"is_disabled":false,"rental_uris":{"android":"levelo://app?vid=69166d53-ec8e-4a0a-864c-7a29f7650dd8","ios":"levelo://app?vid=69166d53-ec8e-4a0a-864c-7a29f7650dd8"},"vehicle_type_id":"4","last_reported":1699726074,"current_range_meters":18000,"station_id":"","pricing_plan_id":"free"},{"bike_id":"13d78257-2559-4a10-97b8-aaa7032179bc","system_id":"levelo_inurba_marseille","lat":43.319975,"lon":5.381519,"is_reserved":false,"is_disabled":false,"rental_uris":{"android":"levelo://app?vid=13d78257-2559-4a10-97b8-aaa7032179bc","ios":"levelo://app?vid=13d78257-2559-4a10-97b8-aaa7032179bc"},"vehicle_type_id":"4","last_reported":1699726074,"current_range_meters":3600,"station_id":"","pricing_plan_id":"free"},{"bike_id":"90f9109a-144b-4382-8ff8-9ecbfb9c1666","system_id":"levelo_inurba_marseille","lat":43.313571,"lon":5.384829,"is_reserved":false,"is_disabled":false,"rental_uris":{"android":"levelo://app?vid=90f9109a-144b-4382-8ff8-9ecbfb9c1666","ios":"levelo://app?vid=90f9109a-144b-4382-8ff8-9ecbfb9c1666"},"vehicle_type_id":"4","last_reported":1699726074,"current_range_meters":27600,"station_id":"ce4bgt92rcd13ifvqcf0","pricing_plan_id":"free"},{"bike_id":"a06f253e-ddee-4a73-9ca7-32e680ba5a43","system_id":"levelo_inurba_marseille","lat":43.313571,"lon":5.384829,"is_reserved":false,"is_disabled":false,"rental_uris":{"android":"levelo://app?vid=a06f253e-ddee-4a73-9ca7-32e680ba5a43","ios":"levelo://app?vid=a06f253e-ddee-4a73-9ca7-32e680ba5a43"},"vehicle_type_id":"4","last_reported":1699726074,"current_range_meters":2400,"station_id":"ce4bgt92rcd13ifvqcf0","pricing_plan_id":"free"},{"bike_id":"61eb098a-c7cd-4827-8d03-f978ec04134a","system_id":"levelo_inurba_marseille","lat":43.299724,"lon":5.371829,"is_reserved":false,"is_disabled":false,"rental_uris":{"android":"levelo://app?vid=61eb098a-c7cd-4827-8d03-f978ec04134a","ios":"levelo://app?vid=61eb098a-c7cd-4827-8d03-f978ec04134a"},"vehicle_type_id":"4","last_reported":1699726074,"current_range_meters":15600,"station_id":"ce4bgr92rcd13ifvqc7g","pricing_plan_id":"free"},{"bike_id":"845b3429-671b-4959-a476-ce6fa951e3d6","system_id":"levelo_inurba_marseille","lat":43.299209,"lon":5.365547,"is_reserved":false,"is_disabled":false,"rental_uris":{"android":"levelo://app?vid=845b3429-671b-4959-a476-ce6fa951e3d6","ios":"levelo://app?vid=845b3429-671b-4959-a476-ce6fa951e3d6"},"vehicle_type_id":"4","last_reported":1699726074,"current_range_meters":19600,"station_id":"ce4bgm92rcd13ifvqbr0","pricing_plan_id":"free"},{"bike_id":"f517f8ef-2a8b-4cce-b6b9-e67c03e8e690","system_id":"levelo_inurba_marseille","lat":43.299724,"lon":5.371829,"is_reserved":false,"is_disabled":false,"rental_uris":{"android":"levelo://app?vid=f517f8ef-2a8b-4cce-b6b9-e67c03e8e690","ios":"levelo://app?vid=f517f8ef-2a8b-4cce-b6b9-e67c03e8e690"},"vehicle_type_id":"4","last_reported":1699726074,"current_range_meters":16000,"station_id":"ce4bgr92rcd13ifvqc7g","pricing_plan_id":"free"},{"bike_id":"f0cd0e99-99df-428b-bcc4-5dfc1403c621","system_id":"levelo_inurba_marseille","lat":43.29917,"lon":5.36776,"is_reserved":false,"is_disabled":false,"rental_uris":{"android":"levelo://app?vid=f0cd0e99-99df-428b-bcc4-5dfc1403c621","ios":"levelo://app?vid=f0cd0e99-99df-428b-bcc4-5dfc1403c621"},"vehicle_type_id":"4","last_reported":1699726074,"current_range_meters":18000,"station_id":"","pricing_plan_id":"free"},{"bike_id":"1d5b0813-2de9-495a-b8d8-9c66bbf1a2e2","system_id":"levelo_inurba_marseille","lat":43.301939,"lon":5.366286,"is_reserved":false,"is_disabled":false,"rental_uris":{"android":"levelo://app?vid=1d5b0813-2de9-495a-b8d8-9c66bbf1a2e2","ios":"levelo://app?vid=1d5b0813-2de9-495a-b8d8-9c66bbf1a2e2"},"vehicle_type_id":"4","last_reported":1699726074,"current_range_meters":23600,"station_id":"ce4bgrh2rcd13ifvqc8g","pricing_plan_id":"free"},{"bike_id":"2aa07dbd-abc3-43b6-a1fa-b3b25d3cf066","system_id":"levelo_inurba_marseille","lat":43.32148,"lon":5.38202,"is_reserved":false,"is_disabled":false,"rental_uris":{"android":"levelo://app?vid=2aa07dbd-abc3-43b6-a1fa-b3b25d3cf066","ios":"levelo://app?vid=2aa07dbd-abc3-43b6-a1fa-b3b25d3cf066"},"vehicle_type_id":"4","last_reported":1699726074,"current_range_meters":0,"station_id":"","pricing_plan_id":"free"},{"bike_id":"0f5b7cf0-70bf-49c1-99dd-4c5f6dc24c72","system_id":"levelo_inurba_marseille","lat":43.307945,"lon":5.376487,"is_reserved":false,"is_disabled":false,"rental_uris":{"android":"levelo://app?vid=0f5b7cf0-70bf-49c1-99dd-4c5f6dc24c72","ios":"levelo://app?vid=0f5b7cf0-70bf-49c1-99dd-4c5f6dc24c72"},"vehicle_type_id":"4","last_reported":1699726074,"current_range_meters":26800,"station_id":"ce4bgv92rcd13ifvqcq0","pricing_plan_id":"free"},{"bike_id":"5b99545a-b757-43a2-86ec-17ac0534185a","system_id":"levelo_inurba_marseille","lat":43.30542,"lon":5.384287,"is_reserved":false,"is_disabled":false,"rental_uris":{"android":"levelo://app?vid=5b99545a-b757-43a2-86ec-17ac0534185a","ios":"levelo://app?vid=5b99545a-b757-43a2-86ec-17ac0534185a"},"vehicle_type_id":"4","last_reported":1699726074,"current_range_meters":16000,"station_id":"ce4bgg92rcd13ifvqb30","pricing_plan_id":"free"},{"bike_id":"e97030bb-e505-4cda-b0d0-58bcb6d0e1b1","system_id":"levelo_inurba_marseille","lat":43.305385,"lon":5.38436,"is_reserved":false,"is_disabled":false,"rental_uris":{"android":"levelo://app?vid=e97030bb-e505-4cda-b0d0-58bcb6d0e1b1","ios":"levelo://app?vid=e97030bb-e505-4cda-b0d0-58bcb6d0e1b1"},"vehicle_type_id":"4","last_reported":1699726074,"current_range_meters":4000,"station_id":"ce4bgg92rcd13ifvqb30","pricing_plan_id":"free"},{"bike_id":"8950f55a-e75d-4fac-9a7c-f529bc0580a5","system_id":"levelo_inurba_marseille","lat":43.320464,"lon":5.384144,"is_reserved":false,"is_disabled":false,"rental_uris":{"android":"levelo://app?vid=8950f55a-e75d-4fac-9a7c-f529bc0580a5","ios":"levelo://app?vid=8950f55a-e75d-4fac-9a7c-f529bc0580a5"},"vehicle_type_id":"4","last_reported":1699726074,"current_range_meters":12400,"station_id":"","pricing_plan_id":"free"},{"bike_id":"6e7351e1-4cd5-4415-b20c-72cd66273662","system_id":"levelo_inurba_marseille","lat":43.32817,"lon":5.36696,"is_reserved":false,"is_disabled":false,"rental_uris":{"android":"levelo://app?vid=6e7351e1-4cd5-4415-b20c-72cd66273662","ios":"levelo://app?vid=6e7351e1-4cd5-4415-b20c-72cd66273662"},"vehicle_type_id":"4","last_reported":1699726074,"current_range_meters":29200,"station_id":"ce4bhs92rcd13ifvqi0g","pricing_plan_id":"free"},{"bike_id":"d2d0f7da-b236-4617-8f3a-aabe3bd3e52e","system_id":"levelo_inurba_marseille","lat":43.328254,"lon":5.366732,"is_reserved":false,"is_disabled":false,"rental_uris":{"android":"levelo://app?vid=d2d0f7da-b236-4617-8f3a-aabe3bd3e52e","ios":"levelo://app?vid=d2d0f7da-b236-4617-8f3a-aabe3bd3e52e"},"vehicle_type_id":"4","last_reported":1699726074,"current_range_meters":31200,"station_id":"ce4bhs92rcd13ifvqi0g","pricing_plan_id":"free"},{"bike_id":"a46312e7-2ce8-4bc2-b854-62161f1506e5","system_id":"levelo_inurba_marseille","lat":43.32829,"lon":5.366792,"is_reserved":false,"is_disabled":false,"rental_uris":{"android":"levelo://app?vid=a46312e7-2ce8-4bc2-b854-62161f1506e5","ios":"levelo://app?vid=a46312e7-2ce8-4bc2-b854-62161f1506e5"},"vehicle_type_id":"4","last_reported":1699726074,"current_range_meters":31200,"station_id":"ce4bhs92rcd13ifvqi0g","pricing_plan_id":"free"},{"bike_id":"a9681a3d-b980-4777-8027-7d8b5339cc38","system_id":"levelo_inurba_marseille","lat":43.328312,"lon":5.366598,"is_reserved":false,"is_disabled":false,"rental_uris":{"android":"levelo://app?vid=a9681a3d-b980-4777-8027-7d8b5339cc38","ios":"levelo://app?vid=a9681a3d-b980-4777-8027-7d8b5339cc38"},"vehicle_type_id":"4","last_reported":1699726074,"current_range_meters":31200,"station_id":"ce4bhs92rcd13ifvqi0g","pricing_plan_id":"free"},{"bike_id":"3fc29c95-14f8-466b-984e-30e97660fd5f","system_id":"levelo_inurba_marseille","lat":43.328336,"lon":5.366896,"is_reserved":false,"is_disabled":false,"rental_uris":{"android":"levelo://app?vid=3fc29c95-14f8-466b-984e-30e97660fd5f","ios":"levelo://app?vid=3fc29c95-14f8-466b-984e-30e97660fd5f"},"vehicle_type_id":"4","last_reported":1699726074,"current_range_meters":0,"station_id":"ce4bhs92rcd13ifvqi0g","pricing_plan_id":"free"},{"bike_id":"3404a27a-232e-431b-a8d0-70548136ccca","system_id":"levelo_inurba_marseille","lat":43.296131,"lon":5.370773,"is_reserved":false,"is_disabled":false,"rental_uris":{"android":"levelo://app?vid=3404a27a-232e-431b-a8d0-70548136ccca","ios":"levelo://app?vid=3404a27a-232e-431b-a8d0-70548136ccca"},"vehicle_type_id":"4","last_reported":1699726074,"current_range_meters":16000,"station_id":"ce4bgnh2rcd13ifvqc0g","pricing_plan_id":"free"},{"bike_id":"d447991a-59b4-4778-a190-7d2b0920a414","system_id":"levelo_inurba_marseille","lat":43.32215,"lon":5.38613,"is_reserved":false,"is_disabled":false,"rental_uris":{"android":"levelo://app?vid=d447991a-59b4-4778-a190-7d2b0920a414","ios":"levelo://app?vid=d447991a-59b4-4778-a190-7d2b0920a414"},"vehicle_type_id":"4","last_reported":1699726074,"current_range_meters":20000,"station_id":"","pricing_plan_id":"free"},{"bike_id":"deb3713d-336b-4c5f-8de6-98b323993dba","system_id":"levelo_inurba_marseille","lat":43.296131,"lon":5.370773,"is_reserved":false,"is_disabled":false,"rental_uris":{"android":"levelo://app?vid=deb3713d-336b-4c5f-8de6-98b323993dba","ios":"levelo://app?vid=deb3713d-336b-4c5f-8de6-98b323993dba"},"vehicle_type_id":"4","last_reported":1699726074,"current_range_meters":14800,"station_id":"ce4bgnh2rcd13ifvqc0g","pricing_plan_id":"free"},{"bike_id":"408e1bba-ac1b-479c-ad30-32026784c873","system_id":"levelo_inurba_marseille","lat":43.2966,"lon":5.37463,"is_reserved":false,"is_disabled":false,"rental_uris":{"android":"levelo://app?vid=408e1bba-ac1b-479c-ad30-32026784c873","ios":"levelo://app?vid=408e1bba-ac1b-479c-ad30-32026784c873"},"vehicle_type_id":"4","last_reported":1699726074,"current_range_meters":15200,"station_id":"","pricing_plan_id":"free"},{"bike_id":"6f3c8f4a-2ab6-4ebb-a0de-c0f4f5bfc9a7","system_id":"levelo_inurba_marseille","lat":43.309589,"lon":5.390258,"is_reserved":false,"is_disabled":false,"rental_uris":{"android":"levelo://app?vid=6f3c8f4a-2ab6-4ebb-a0de-c0f4f5bfc9a7","ios":"levelo://app?vid=6f3c8f4a-2ab6-4ebb-a0de-c0f4f5bfc9a7"},"vehicle_type_id":"4","last_reported":1699726074,"current_range_meters":14000,"station_id":"ce4bgup2rcd13ifvqco0","pricing_plan_id":"free"},{"bike_id":"6c629448-5ee5-4cf1-b692-b7b97d7d61ca","system_id":"levelo_inurba_marseille","lat":43.309589,"lon":5.390258,"is_reserved":false,"is_disabled":false,"rental_uris":{"android":"levelo://app?vid=6c629448-5ee5-4cf1-b692-b7b97d7d61ca","ios":"levelo://app?vid=6c629448-5ee5-4cf1-b692-b7b97d7d61ca"},"vehicle_type_id":"4","last_reported":1699726074,"current_range_meters":20000,"station_id":"ce4bgup2rcd13ifvqco0","pricing_plan_id":"free"},{"bike_id":"f0123185-1a73-4241-ade2-24d0e3967322","system_id":"levelo_inurba_marseille","lat":43.309589,"lon":5.390258,"is_reserved":false,"is_disabled":false,"rental_uris":{"android":"levelo://app?vid=f0123185-1a73-4241-ade2-24d0e3967322","ios":"levelo://app?vid=f0123185-1a73-4241-ade2-24d0e3967322"},"vehicle_type_id":"4","last_reported":1699726074,"current_range_meters":1200,"station_id":"ce4bgup2rcd13ifvqco0","pricing_plan_id":"free"},{"bike_id":"45dcabb7-e96b-4ff9-b7fd-bb1584ac8afe","system_id":"levelo_inurba_marseille","lat":43.309589,"lon":5.390258,"is_reserved":false,"is_disabled":false,"rental_uris":{"android":"levelo://app?vid=45dcabb7-e96b-4ff9-b7fd-bb1584ac8afe","ios":"levelo://app?vid=45dcabb7-e96b-4ff9-b7fd-bb1584ac8afe"},"vehicle_type_id":"4","last_reported":1699726074,"current_range_meters":8400,"station_id":"ce4bgup2rcd13ifvqco0","pricing_plan_id":"free"},{"bike_id":"7303aa12-813f-419c-b09b-feb6e8201044","system_id":"levelo_inurba_marseille","lat":43.309589,"lon":5.390258,"is_reserved":false,"is_disabled":false,"rental_uris":{"android":"levelo://app?vid=7303aa12-813f-419c-b09b-feb6e8201044","ios":"levelo://app?vid=7303aa12-813f-419c-b09b-feb6e8201044"},"vehicle_type_id":"4","last_reported":1699726074,"current_range_meters":16400,"station_id":"ce4bgup2rcd13ifvqco0","pricing_plan_id":"free"},{"bike_id":"f27baee7-5f4a-4fa8-8d01-f5fa7d186e28","system_id":"levelo_inurba_marseille","lat":43.309589,"lon":5.390258,"is_reserved":false,"is_disabled":false,"rental_uris":{"android":"levelo://app?vid=f27baee7-5f4a-4fa8-8d01-f5fa7d186e28","ios":"levelo://app?vid=f27baee7-5f4a-4fa8-8d01-f5fa7d186e28"},"vehicle_type_id":"4","last_reported":1699726074,"current_range_meters":12800,"station_id":"ce4bgup2rcd13ifvqco0","pricing_plan_id":"free"},{"bike_id":"f864e416-47b1-45b4-87b7-ef7880f36a38","system_id":"levelo_inurba_marseille","lat":43.309589,"lon":5.390258,"is_reserved":false,"is_disabled":false,"rental_uris":{"android":"levelo://app?vid=f864e416-47b1-45b4-87b7-ef7880f36a38","ios":"levelo://app?vid=f864e416-47b1-45b4-87b7-ef7880f36a38"},"vehicle_type_id":"4","last_reported":1699726074,"current_range_meters":8000,"station_id":"ce4bgup2rcd13ifvqco0","pricing_plan_id":"free"},{"bike_id":"947fdfc9-7446-42a5-8633-7b604f4aa402","system_id":"levelo_inurba_marseille","lat":43.309589,"lon":5.390258,"is_reserved":false,"is_disabled":false,"rental_uris":{"android":"levelo://app?vid=947fdfc9-7446-42a5-8633-7b604f4aa402","ios":"levelo://app?vid=947fdfc9-7446-42a5-8633-7b604f4aa402"},"vehicle_type_id":"4","last_reported":1699726074,"current_range_meters":15200,"station_id":"ce4bgup2rcd13ifvqco0","pricing_plan_id":"free"},{"bike_id":"cf40a3ed-f06c-44bf-a206-6c294efa3a4c","system_id":"levelo_inurba_marseille","lat":43.309589,"lon":5.390258,"is_reserved":false,"is_disabled":false,"rental_uris":{"android":"levelo://app?vid=cf40a3ed-f06c-44bf-a206-6c294efa3a4c","ios":"levelo://app?vid=cf40a3ed-f06c-44bf-a206-6c294efa3a4c"},"vehicle_type_id":"4","last_reported":1699726074,"current_range_meters":24400,"station_id":"ce4bgup2rcd13ifvqco0","pricing_plan_id":"free"},{"bike_id":"923cc4af-2642-4875-a51f-77158fe87f09","system_id":"levelo_inurba_marseille","lat":43.317557,"lon":5.390173,"is_reserved":false,"is_disabled":false,"rental_uris":{"android":"levelo://app?vid=923cc4af-2642-4875-a51f-77158fe87f09","ios":"levelo://app?vid=923cc4af-2642-4875-a51f-77158fe87f09"},"vehicle_type_id":"4","last_reported":1699726074,"current_range_meters":11200,"station_id":"ce4bhqp2rcd13ifvqhng","pricing_plan_id":"free"},{"bike_id":"feff7d8e-9456-4b4b-b917-4f91bb23e023","system_id":"levelo_inurba_marseille","lat":43.3175,"lon":5.39022,"is_reserved":false,"is_disabled":false,"rental_uris":{"android":"levelo://app?vid=feff7d8e-9456-4b4b-b917-4f91bb23e023","ios":"levelo://app?vid=feff7d8e-9456-4b4b-b917-4f91bb23e023"},"vehicle_type_id":"4","last_reported":1699726074,"current_range_meters":18000,"station_id":"","pricing_plan_id":"free"},{"bike_id":"43e8c742-17d8-4f5f-a0f9-45da8e976870","system_id":"levelo_inurba_marseille","lat":43.317557,"lon":5.390173,"is_reserved":false,"is_disabled":false,"rental_uris":{"android":"levelo://app?vid=43e8c742-17d8-4f5f-a0f9-45da8e976870","ios":"levelo://app?vid=43e8c742-17d8-4f5f-a0f9-45da8e976870"},"vehicle_type_id":"4","last_reported":1699726074,"current_range_meters":13200,"station_id":"ce4bhqp2rcd13ifvqhng","pricing_plan_id":"free"},{"bike_id":"658fc487-9c55-44a1-a80d-c39e5b5f4d2a","system_id":"levelo_inurba_marseille","lat":43.317557,"lon":5.390173,"is_reserved":false,"is_disabled":false,"rental_uris":{"android":"levelo://app?vid=658fc487-9c55-44a1-a80d-c39e5b5f4d2a","ios":"levelo://app?vid=658fc487-9c55-44a1-a80d-c39e5b5f4d2a"},"vehicle_type_id":"4","last_reported":1699726074,"current_range_meters":29200,"station_id":"ce4bhqp2rcd13ifvqhng","pricing_plan_id":"free"},{"bike_id":"9e588716-b81f-44d8-b071-857cbb7449e1","system_id":"levelo_inurba_marseille","lat":43.300273,"lon":5.384277,"is_reserved":false,"is_disabled":false,"rental_uris":{"android":"levelo://app?vid=9e588716-b81f-44d8-b071-857cbb7449e1","ios":"levelo://app?vid=9e588716-b81f-44d8-b071-857cbb7449e1"},"vehicle_type_id":"4","last_reported":1699726074,"current_range_meters":0,"station_id":"","pricing_plan_id":"free"},{"bike_id":"4112fa8a-3158-4f0c-84df-b0bb2a9e49b5","system_id":"levelo_inurba_marseille","lat":43.304278,"lon":5.388868,"is_reserved":false,"is_disabled":false,"rental_uris":{"android":"levelo://app?vid=4112fa8a-3158-4f0c-84df-b0bb2a9e49b5","ios":"levelo://app?vid=4112fa8a-3158-4f0c-84df-b0bb2a9e49b5"},"vehicle_type_id":"4","last_reported":1699726074,"current_range_meters":29200,"station_id":"ce4bgk12rcd13ifvqbi0","pricing_plan_id":"free"},{"bike_id":"173a49ae-7c0f-4ca0-9657-d5cec158df76","system_id":"levelo_inurba_marseille","lat":43.304274,"lon":5.388873,"is_reserved":false,"is_disabled":false,"rental_uris":{"android":"levelo://app?vid=173a49ae-7c0f-4ca0-9657-d5cec158df76","ios":"levelo://app?vid=173a49ae-7c0f-4ca0-9657-d5cec158df76"},"vehicle_type_id":"4","last_reported":1699726074,"current_range_meters":0,"station_id":"ce4bgk12rcd13ifvqbi0","pricing_plan_id":"free"},{"bike_id":"6584667d-14ce-4382-bd07-09e8cfff1785","system_id":"levelo_inurba_marseille","lat":43.299717,"lon":5.384845,"is_reserved":false,"is_disabled":false,"rental_uris":{"android":"levelo://app?vid=6584667d-14ce-4382-bd07-09e8cfff1785","ios":"levelo://app?vid=6584667d-14ce-4382-bd07-09e8cfff1785"},"vehicle_type_id":"4","last_reported":1699726074,"current_range_meters":0,"station_id":"ce4bgj92rcd13ifvqbd0","pricing_plan_id":"free"},{"bike_id":"562d9160-906d-4f11-b808-063ab985ce76","system_id":"levelo_inurba_marseille","lat":43.299033,"lon":5.38475,"is_reserved":false,"is_disabled":false,"rental_uris":{"android":"levelo://app?vid=562d9160-906d-4f11-b808-063ab985ce76","ios":"levelo://app?vid=562d9160-906d-4f11-b808-063ab985ce76"},"vehicle_type_id":"4","last_reported":1699726074,"current_range_meters":0,"station_id":"","pricing_plan_id":"free"},{"bike_id":"290435eb-2a08-4f8e-9b12-ec9bb6049632","system_id":"levelo_inurba_marseille","lat":43.309589,"lon":5.390258,"is_reserved":false,"is_disabled":false,"rental_uris":{"android":"levelo://app?vid=290435eb-2a08-4f8e-9b12-ec9bb6049632","ios":"levelo://app?vid=290435eb-2a08-4f8e-9b12-ec9bb6049632"},"vehicle_type_id":"4","last_reported":1699726074,"current_range_meters":21600,"station_id":"ce4bgup2rcd13ifvqco0","pricing_plan_id":"free"},{"bike_id":"1f3aa647-c800-4573-871b-524cc2bd3ad7","system_id":"levelo_inurba_marseille","lat":43.29602,"lon":5.381084,"is_reserved":false,"is_disabled":false,"rental_uris":{"android":"levelo://app?vid=1f3aa647-c800-4573-871b-524cc2bd3ad7","ios":"levelo://app?vid=1f3aa647-c800-4573-871b-524cc2bd3ad7"},"vehicle_type_id":"4","last_reported":1699726074,"current_range_meters":31200,"station_id":"ce4bgl12rcd13ifvqbo0","pricing_plan_id":"free"},{"bike_id":"1f2edeec-835f-4188-b75a-b19c37bb1dac","system_id":"levelo_inurba_marseille","lat":43.30109,"lon":5.3894,"is_reserved":false,"is_disabled":false,"rental_uris":{"android":"levelo://app?vid=1f2edeec-835f-4188-b75a-b19c37bb1dac","ios":"levelo://app?vid=1f2edeec-835f-4188-b75a-b19c37bb1dac"},"vehicle_type_id":"4","last_reported":1699726074,"current_range_meters":5200,"station_id":"","pricing_plan_id":"free"},{"bike_id":"d9e2b531-a81a-4184-975b-bba6619403d4","system_id":"levelo_inurba_marseille","lat":43.29302,"lon":5.374627,"is_reserved":false,"is_disabled":false,"rental_uris":{"android":"levelo://app?vid=d9e2b531-a81a-4184-975b-bba6619403d4","ios":"levelo://app?vid=d9e2b531-a81a-4184-975b-bba6619403d4"},"vehicle_type_id":"4","last_reported":1699726074,"current_range_meters":0,"station_id":"ce4bgi12rcd13ifvqb70","pricing_plan_id":"free"},{"bike_id":"3b07f32a-d69f-4278-937b-2367e40fa8d3","system_id":"levelo_inurba_marseille","lat":43.30596,"lon":5.39366,"is_reserved":false,"is_disabled":false,"rental_uris":{"android":"levelo://app?vid=3b07f32a-d69f-4278-937b-2367e40fa8d3","ios":"levelo://app?vid=3b07f32a-d69f-4278-937b-2367e40fa8d3"},"vehicle_type_id":"4","last_reported":1699726074,"current_range_meters":0,"station_id":"ce4bh0p2rcd13ifvqd80","pricing_plan_id":"free"},{"bike_id":"c498e4c1-ab90-4205-a0b4-890f360d533c","system_id":"levelo_inurba_marseille","lat":43.303002,"lon":5.392142,"is_reserved":false,"is_disabled":false,"rental_uris":{"android":"levelo://app?vid=c498e4c1-ab90-4205-a0b4-890f360d533c","ios":"levelo://app?vid=c498e4c1-ab90-4205-a0b4-890f360d533c"},"vehicle_type_id":"4","last_reported":1699726074,"current_range_meters":16400,"station_id":"ce4bgkh2rcd13ifvqbk0","pricing_plan_id":"free"},{"bike_id":"2f71aef1-6401-464d-852f-301133586917","system_id":"levelo_inurba_marseille","lat":43.30093,"lon":5.39074,"is_reserved":false,"is_disabled":false,"rental_uris":{"android":"levelo://app?vid=2f71aef1-6401-464d-852f-301133586917","ios":"levelo://app?vid=2f71aef1-6401-464d-852f-301133586917"},"vehicle_type_id":"4","last_reported":1699726074,"current_range_meters":0,"station_id":"ce4bh192rcd13ifvqdb0","pricing_plan_id":"free"},{"bike_id":"d3db800b-0f36-4612-af43-314e331daaac","system_id":"levelo_inurba_marseille","lat":43.300852,"lon":5.390859,"is_reserved":false,"is_disabled":false,"rental_uris":{"android":"levelo://app?vid=d3db800b-0f36-4612-af43-314e331daaac","ios":"levelo://app?vid=d3db800b-0f36-4612-af43-314e331daaac"},"vehicle_type_id":"4","last_reported":1699726074,"current_range_meters":21600,"station_id":"ce4bh192rcd13ifvqdb0","pricing_plan_id":"free"},{"bike_id":"4aa52bb6-21ea-43ee-b9b2-28048629eb64","system_id":"levelo_inurba_marseille","lat":43.30093,"lon":5.39091,"is_reserved":false,"is_disabled":false,"rental_uris":{"android":"levelo://app?vid=4aa52bb6-21ea-43ee-b9b2-28048629eb64","ios":"levelo://app?vid=4aa52bb6-21ea-43ee-b9b2-28048629eb64"},"vehicle_type_id":"4","last_reported":1699726074,"current_range_meters":21600,"station_id":"ce4bh192rcd13ifvqdb0","pricing_plan_id":"free"},{"bike_id":"591a3b57-624d-4510-b2c5-2906da95130a","system_id":"levelo_inurba_marseille","lat":43.29266,"lon":5.3762,"is_reserved":false,"is_disabled":false,"rental_uris":{"android":"levelo://app?vid=591a3b57-624d-4510-b2c5-2906da95130a","ios":"levelo://app?vid=591a3b57-624d-4510-b2c5-2906da95130a"},"vehicle_type_id":"4","last_reported":1699726074,"current_range_meters":0,"station_id":"ce4bgi12rcd13ifvqb80","pricing_plan_id":"free"},{"bike_id":"ea3f0c37-0baf-420d-9c22-53be5b25a8f8","system_id":"levelo_inurba_marseille","lat":43.298892,"lon":5.389161,"is_reserved":false,"is_disabled":false,"rental_uris":{"android":"levelo://app?vid=ea3f0c37-0baf-420d-9c22-53be5b25a8f8","ios":"levelo://app?vid=ea3f0c37-0baf-420d-9c22-53be5b25a8f8"},"vehicle_type_id":"4","last_reported":1699726074,"current_range_meters":0,"station_id":"ce4bh392rcd13ifvqdl0","pricing_plan_id":"free"},{"bike_id":"ca3d5809-c04f-4d47-94fa-0b5c80319cd9","system_id":"levelo_inurba_marseille","lat":43.30885,"lon":5.39638,"is_reserved":false,"is_disabled":false,"rental_uris":{"android":"levelo://app?vid=ca3d5809-c04f-4d47-94fa-0b5c80319cd9","ios":"levelo://app?vid=ca3d5809-c04f-4d47-94fa-0b5c80319cd9"},"vehicle_type_id":"4","last_reported":1699726074,"current_range_meters":4800,"station_id":"ce4bh012rcd13ifvqcv0","pricing_plan_id":"free"},{"bike_id":"81ee6ca4-bd36-4ed4-962e-e6cdc39879de","system_id":"levelo_inurba_marseille","lat":43.309047,"lon":5.396551,"is_reserved":false,"is_disabled":false,"rental_uris":{"android":"levelo://app?vid=81ee6ca4-bd36-4ed4-962e-e6cdc39879de","ios":"levelo://app?vid=81ee6ca4-bd36-4ed4-962e-e6cdc39879de"},"vehicle_type_id":"4","last_reported":1699726074,"current_range_meters":0,"station_id":"ce4bh012rcd13ifvqcv0","pricing_plan_id":"free"},{"bike_id":"196bcf76-c4ee-46be-91ec-9aa1276001d7","system_id":"levelo_inurba_marseille","lat":43.31328,"lon":5.39698,"is_reserved":false,"is_disabled":false,"rental_uris":{"android":"levelo://app?vid=196bcf76-c4ee-46be-91ec-9aa1276001d7","ios":"levelo://app?vid=196bcf76-c4ee-46be-91ec-9aa1276001d7"},"vehicle_type_id":"4","last_reported":1699726074,"current_range_meters":3600,"station_id":"ce4bgvp2rcd13ifvqcu0","pricing_plan_id":"free"},{"bike_id":"731d1903-0374-42bc-a93e-aa05a7f6e2a5","system_id":"levelo_inurba_marseille","lat":43.302008,"lon":5.394694,"is_reserved":false,"is_disabled":false,"rental_uris":{"android":"levelo://app?vid=731d1903-0374-42bc-a93e-aa05a7f6e2a5","ios":"levelo://app?vid=731d1903-0374-42bc-a93e-aa05a7f6e2a5"},"vehicle_type_id":"4","last_reported":1699726074,"current_range_meters":6800,"station_id":"ce4bh0p2rcd13ifvqd70","pricing_plan_id":"free"},{"bike_id":"0a0dd12d-ea15-4cac-8c71-c317e4fae6f0","system_id":"levelo_inurba_marseille","lat":43.294162,"lon":5.386292,"is_reserved":false,"is_disabled":false,"rental_uris":{"android":"levelo://app?vid=0a0dd12d-ea15-4cac-8c71-c317e4fae6f0","ios":"levelo://app?vid=0a0dd12d-ea15-4cac-8c71-c317e4fae6f0"},"vehicle_type_id":"4","last_reported":1699726074,"current_range_meters":2400,"station_id":"ce4bh2h2rcd13ifvqdh0","pricing_plan_id":"free"},{"bike_id":"97e93f43-44e2-422f-a2a2-34ae1b540f07","system_id":"levelo_inurba_marseille","lat":43.289184,"lon":5.366408,"is_reserved":false,"is_disabled":false,"rental_uris":{"android":"levelo://app?vid=97e93f43-44e2-422f-a2a2-34ae1b540f07","ios":"levelo://app?vid=97e93f43-44e2-422f-a2a2-34ae1b540f07"},"vehicle_type_id":"4","last_reported":1699726074,"current_range_meters":0,"station_id":"ce4bhap2rcd13ifvqek0","pricing_plan_id":"free"},{"bike_id":"d877005d-c824-4603-883d-080d95bca03a","system_id":"levelo_inurba_marseille","lat":43.289184,"lon":5.366408,"is_reserved":false,"is_disabled":false,"rental_uris":{"android":"levelo://app?vid=d877005d-c824-4603-883d-080d95bca03a","ios":"levelo://app?vid=d877005d-c824-4603-883d-080d95bca03a"},"vehicle_type_id":"4","last_reported":1699726074,"current_range_meters":1600,"station_id":"ce4bhap2rcd13ifvqek0","pricing_plan_id":"free"},{"bike_id":"da2f470e-e356-4d1e-b32d-9a7e62494931","system_id":"levelo_inurba_marseille","lat":43.29265,"lon":5.3843,"is_reserved":false,"is_disabled":false,"rental_uris":{"android":"levelo://app?vid=da2f470e-e356-4d1e-b32d-9a7e62494931","ios":"levelo://app?vid=da2f470e-e356-4d1e-b32d-9a7e62494931"},"vehicle_type_id":"4","last_reported":1699726074,"current_range_meters":0,"station_id":"ce4bh692rcd13ifvqea0","pricing_plan_id":"free"},{"bike_id":"dda50812-5a49-4b40-88d2-7da3a03b38ce","system_id":"levelo_inurba_marseille","lat":43.292642,"lon":5.384254,"is_reserved":false,"is_disabled":false,"rental_uris":{"android":"levelo://app?vid=dda50812-5a49-4b40-88d2-7da3a03b38ce","ios":"levelo://app?vid=dda50812-5a49-4b40-88d2-7da3a03b38ce"},"vehicle_type_id":"4","last_reported":1699726074,"current_range_meters":21600,"station_id":"ce4bh692rcd13ifvqea0","pricing_plan_id":"free"},{"bike_id":"8761b3ec-0f27-4452-ba4f-9eab51fb370f","system_id":"levelo_inurba_marseille","lat":43.292644,"lon":5.384257,"is_reserved":false,"is_disabled":false,"rental_uris":{"android":"levelo://app?vid=8761b3ec-0f27-4452-ba4f-9eab51fb370f","ios":"levelo://app?vid=8761b3ec-0f27-4452-ba4f-9eab51fb370f"},"vehicle_type_id":"4","last_reported":1699726074,"current_range_meters":800,"station_id":"ce4bh692rcd13ifvqea0","pricing_plan_id":"free"},{"bike_id":"a64ed15c-4abc-45e9-b718-565a421bed86","system_id":"levelo_inurba_marseille","lat":43.292637,"lon":5.384503,"is_reserved":false,"is_disabled":false,"rental_uris":{"android":"levelo://app?vid=a64ed15c-4abc-45e9-b718-565a421bed86","ios":"levelo://app?vid=a64ed15c-4abc-45e9-b718-565a421bed86"},"vehicle_type_id":"4","last_reported":1699726074,"current_range_meters":0,"station_id":"ce4bh692rcd13ifvqea0","pricing_plan_id":"free"},{"bike_id":"30a3156f-4297-45f5-827b-f75f7e687dee","system_id":"levelo_inurba_marseille","lat":43.292644,"lon":5.384257,"is_reserved":false,"is_disabled":false,"rental_uris":{"android":"levelo://app?vid=30a3156f-4297-45f5-827b-f75f7e687dee","ios":"levelo://app?vid=30a3156f-4297-45f5-827b-f75f7e687dee"},"vehicle_type_id":"4","last_reported":1699726074,"current_range_meters":22400,"station_id":"ce4bh692rcd13ifvqea0","pricing_plan_id":"free"},{"bike_id":"a3750632-9a89-47d6-b7ad-5016ce3e8fb2","system_id":"levelo_inurba_marseille","lat":43.29159,"lon":5.38238,"is_reserved":false,"is_disabled":false,"rental_uris":{"android":"levelo://app?vid=a3750632-9a89-47d6-b7ad-5016ce3e8fb2","ios":"levelo://app?vid=a3750632-9a89-47d6-b7ad-5016ce3e8fb2"},"vehicle_type_id":"4","last_reported":1699726074,"current_range_meters":0,"station_id":"","pricing_plan_id":"free"},{"bike_id":"d91be78c-ebe2-4f7c-a4da-a0753ed823e7","system_id":"levelo_inurba_marseille","lat":43.330442,"lon":5.389148,"is_reserved":false,"is_disabled":false,"rental_uris":{"android":"levelo://app?vid=d91be78c-ebe2-4f7c-a4da-a0753ed823e7","ios":"levelo://app?vid=d91be78c-ebe2-4f7c-a4da-a0753ed823e7"},"vehicle_type_id":"4","last_reported":1699726074,"current_range_meters":21600,"station_id":"ce4bhr92rcd13ifvqhrg","pricing_plan_id":"free"},{"bike_id":"8e3f5deb-e2d5-4657-a022-b759bfbbaf08","system_id":"levelo_inurba_marseille","lat":43.33041,"lon":5.3892,"is_reserved":false,"is_disabled":false,"rental_uris":{"android":"levelo://app?vid=8e3f5deb-e2d5-4657-a022-b759bfbbaf08","ios":"levelo://app?vid=8e3f5deb-e2d5-4657-a022-b759bfbbaf08"},"vehicle_type_id":"4","last_reported":1699726074,"current_range_meters":27200,"station_id":"ce4bhr92rcd13ifvqhrg","pricing_plan_id":"free"},{"bike_id":"ffd91395-d42c-4708-b216-1969d114d141","system_id":"levelo_inurba_marseille","lat":43.330442,"lon":5.389148,"is_reserved":false,"is_disabled":false,"rental_uris":{"android":"levelo://app?vid=ffd91395-d42c-4708-b216-1969d114d141","ios":"levelo://app?vid=ffd91395-d42c-4708-b216-1969d114d141"},"vehicle_type_id":"4","last_reported":1699726074,"current_range_meters":20400,"station_id":"ce4bhr92rcd13ifvqhrg","pricing_plan_id":"free"},{"bike_id":"b629e02c-3f16-414b-ab03-30db5c333aeb","system_id":"levelo_inurba_marseille","lat":43.30245,"lon":5.39674,"is_reserved":false,"is_disabled":false,"rental_uris":{"android":"levelo://app?vid=b629e02c-3f16-414b-ab03-30db5c333aeb","ios":"levelo://app?vid=b629e02c-3f16-414b-ab03-30db5c333aeb"},"vehicle_type_id":"4","last_reported":1699726074,"current_range_meters":24400,"station_id":"","pricing_plan_id":"free"},{"bike_id":"2edb08ce-4c41-473c-92ee-0d277a93185b","system_id":"levelo_inurba_marseille","lat":43.290103,"lon":5.356114,"is_reserved":false,"is_disabled":false,"rental_uris":{"android":"levelo://app?vid=2edb08ce-4c41-473c-92ee-0d277a93185b","ios":"levelo://app?vid=2edb08ce-4c41-473c-92ee-0d277a93185b"},"vehicle_type_id":"4","last_reported":1699726074,"current_range_meters":0,"station_id":"ce4bhb92rcd13ifvqen0","pricing_plan_id":"free"},{"bike_id":"18139b58-076f-44e5-87ca-4cb2a4d69dba","system_id":"levelo_inurba_marseille","lat":43.290995,"lon":5.381361,"is_reserved":false,"is_disabled":false,"rental_uris":{"android":"levelo://app?vid=18139b58-076f-44e5-87ca-4cb2a4d69dba","ios":"levelo://app?vid=18139b58-076f-44e5-87ca-4cb2a4d69dba"},"vehicle_type_id":"4","last_reported":1699726074,"current_range_meters":3200,"station_id":"ce4bh512rcd13ifvqe2g","pricing_plan_id":"free"},{"bike_id":"bd530db0-0f50-4481-8545-fec2ebd2b1b3","system_id":"levelo_inurba_marseille","lat":43.29794,"lon":5.39348,"is_reserved":false,"is_disabled":false,"rental_uris":{"android":"levelo://app?vid=bd530db0-0f50-4481-8545-fec2ebd2b1b3","ios":"levelo://app?vid=bd530db0-0f50-4481-8545-fec2ebd2b1b3"},"vehicle_type_id":"4","last_reported":1699726074,"current_range_meters":2800,"station_id":"chh1huq6cuj3fo74tm60","pricing_plan_id":"free"},{"bike_id":"dc079533-8fee-46b9-bb20-3b1e68bd7236","system_id":"levelo_inurba_marseille","lat":43.295169,"lon":5.390426,"is_reserved":false,"is_disabled":false,"rental_uris":{"android":"levelo://app?vid=dc079533-8fee-46b9-bb20-3b1e68bd7236","ios":"levelo://app?vid=dc079533-8fee-46b9-bb20-3b1e68bd7236"},"vehicle_type_id":"4","last_reported":1699726074,"current_range_meters":18000,"station_id":"ce4bh3p2rcd13ifvqdp0","pricing_plan_id":"free"},{"bike_id":"4bc00d32-0a1d-4fea-b4ce-6e22de5883a9","system_id":"levelo_inurba_marseille","lat":43.28983,"lon":5.37843,"is_reserved":false,"is_disabled":false,"rental_uris":{"android":"levelo://app?vid=4bc00d32-0a1d-4fea-b4ce-6e22de5883a9","ios":"levelo://app?vid=4bc00d32-0a1d-4fea-b4ce-6e22de5883a9"},"vehicle_type_id":"4","last_reported":1699726074,"current_range_meters":0,"station_id":"ce4bh9p2rcd13ifvqed0","pricing_plan_id":"free"},{"bike_id":"1b2f06c7-d881-4c0d-9e41-97ae15b902f5","system_id":"levelo_inurba_marseille","lat":43.297815,"lon":5.393548,"is_reserved":false,"is_disabled":false,"rental_uris":{"android":"levelo://app?vid=1b2f06c7-d881-4c0d-9e41-97ae15b902f5","ios":"levelo://app?vid=1b2f06c7-d881-4c0d-9e41-97ae15b902f5"},"vehicle_type_id":"4","last_reported":1699726074,"current_range_meters":18400,"station_id":"chh1huq6cuj3fo74tm60","pricing_plan_id":"free"},{"bike_id":"847c3015-b5ab-4f42-86d8-5512dd085107","system_id":"levelo_inurba_marseille","lat":43.29109,"lon":5.38278,"is_reserved":false,"is_disabled":false,"rental_uris":{"android":"levelo://app?vid=847c3015-b5ab-4f42-86d8-5512dd085107","ios":"levelo://app?vid=847c3015-b5ab-4f42-86d8-5512dd085107"},"vehicle_type_id":"4","last_reported":1699726074,"current_range_meters":14800,"station_id":"","pricing_plan_id":"free"},{"bike_id":"3efb27b4-4701-46cb-b06b-c8ab220cfe31","system_id":"levelo_inurba_marseille","lat":43.290325,"lon":5.38122,"is_reserved":false,"is_disabled":false,"rental_uris":{"android":"levelo://app?vid=3efb27b4-4701-46cb-b06b-c8ab220cfe31","ios":"levelo://app?vid=3efb27b4-4701-46cb-b06b-c8ab220cfe31"},"vehicle_type_id":"4","last_reported":1699726074,"current_range_meters":0,"station_id":"ce4bh4p2rcd13ifvqe1g","pricing_plan_id":"free"},{"bike_id":"289247e2-92bb-46e0-91e6-32bea34f90c8","system_id":"levelo_inurba_marseille","lat":43.31258,"lon":5.40171,"is_reserved":false,"is_disabled":false,"rental_uris":{"android":"levelo://app?vid=289247e2-92bb-46e0-91e6-32bea34f90c8","ios":"levelo://app?vid=289247e2-92bb-46e0-91e6-32bea34f90c8"},"vehicle_type_id":"4","last_reported":1699726074,"current_range_meters":0,"station_id":"ce4bh092rcd13ifvqd30","pricing_plan_id":"free"},{"bike_id":"562205e6-f4ad-47bb-b216-af120907e94b","system_id":"levelo_inurba_marseille","lat":43.309371,"lon":5.401449,"is_reserved":false,"is_disabled":false,"rental_uris":{"android":"levelo://app?vid=562205e6-f4ad-47bb-b216-af120907e94b","ios":"levelo://app?vid=562205e6-f4ad-47bb-b216-af120907e94b"},"vehicle_type_id":"4","last_reported":1699726074,"current_range_meters":0,"station_id":"ce4bgvp2rcd13ifvqct0","pricing_plan_id":"free"},{"bike_id":"859493dc-af9c-47b1-a58d-348dcfd771dd","system_id":"levelo_inurba_marseille","lat":43.309371,"lon":5.401449,"is_reserved":false,"is_disabled":false,"rental_uris":{"android":"levelo://app?vid=859493dc-af9c-47b1-a58d-348dcfd771dd","ios":"levelo://app?vid=859493dc-af9c-47b1-a58d-348dcfd771dd"},"vehicle_type_id":"4","last_reported":1699726074,"current_range_meters":0,"station_id":"ce4bgvp2rcd13ifvqct0","pricing_plan_id":"free"},{"bike_id":"61c9606b-5e0c-419f-a3b5-4fe4d535e889","system_id":"levelo_inurba_marseille","lat":43.33037,"lon":5.392367,"is_reserved":false,"is_disabled":false,"rental_uris":{"android":"levelo://app?vid=61c9606b-5e0c-419f-a3b5-4fe4d535e889","ios":"levelo://app?vid=61c9606b-5e0c-419f-a3b5-4fe4d535e889"},"vehicle_type_id":"4","last_reported":1699726074,"current_range_meters":9600,"station_id":"","pricing_plan_id":"free"},{"bike_id":"f89aaa0c-115a-4800-abc3-8f1712a56df9","system_id":"levelo_inurba_marseille","lat":43.306412,"lon":5.401035,"is_reserved":false,"is_disabled":false,"rental_uris":{"android":"levelo://app?vid=f89aaa0c-115a-4800-abc3-8f1712a56df9","ios":"levelo://app?vid=f89aaa0c-115a-4800-abc3-8f1712a56df9"},"vehicle_type_id":"4","last_reported":1699726074,"current_range_meters":7600,"station_id":"ce4bh112rcd13ifvqda0","pricing_plan_id":"free"},{"bike_id":"e1fa4861-050f-4999-aedd-ca05a7273b77","system_id":"levelo_inurba_marseille","lat":43.301117,"lon":5.398795,"is_reserved":false,"is_disabled":false,"rental_uris":{"android":"levelo://app?vid=e1fa4861-050f-4999-aedd-ca05a7273b77","ios":"levelo://app?vid=e1fa4861-050f-4999-aedd-ca05a7273b77"},"vehicle_type_id":"4","last_reported":1699726074,"current_range_meters":800,"station_id":"ce4bh0h2rcd13ifvqd40","pricing_plan_id":"free"},{"bike_id":"03d31c6e-80ef-4bc0-bcd4-801f1f016f37","system_id":"levelo_inurba_marseille","lat":43.28727,"lon":5.36078,"is_reserved":false,"is_disabled":false,"rental_uris":{"android":"levelo://app?vid=03d31c6e-80ef-4bc0-bcd4-801f1f016f37","ios":"levelo://app?vid=03d31c6e-80ef-4bc0-bcd4-801f1f016f37"},"vehicle_type_id":"4","last_reported":1699726074,"current_range_meters":23600,"station_id":"cki0cbj6b192h4jlfktg","pricing_plan_id":"free"},{"bike_id":"eff21283-2f1c-40ed-9945-012f912c04a3","system_id":"levelo_inurba_marseille","lat":43.298681,"lon":5.397225,"is_reserved":false,"is_disabled":false,"rental_uris":{"android":"levelo://app?vid=eff21283-2f1c-40ed-9945-012f912c04a3","ios":"levelo://app?vid=eff21283-2f1c-40ed-9945-012f912c04a3"},"vehicle_type_id":"4","last_reported":1699726074,"current_range_meters":23600,"station_id":"ce4bh0h2rcd13ifvqd50","pricing_plan_id":"free"},{"bike_id":"53327980-8079-4cd0-8759-d086417193d8","system_id":"levelo_inurba_marseille","lat":43.28662,"lon":5.36363,"is_reserved":false,"is_disabled":false,"rental_uris":{"android":"levelo://app?vid=53327980-8079-4cd0-8759-d086417193d8","ios":"levelo://app?vid=53327980-8079-4cd0-8759-d086417193d8"},"vehicle_type_id":"4","last_reported":1699726074,"current_range_meters":10000,"station_id":"ce4bhi12rcd13ifvqfp0","pricing_plan_id":"free"},{"bike_id":"50130336-a81d-4296-a9b2-758864e8bb82","system_id":"levelo_inurba_marseille","lat":43.286591,"lon":5.363346,"is_reserved":false,"is_disabled":false,"rental_uris":{"android":"levelo://app?vid=50130336-a81d-4296-a9b2-758864e8bb82","ios":"levelo://app?vid=50130336-a81d-4296-a9b2-758864e8bb82"},"vehicle_type_id":"4","last_reported":1699726074,"current_range_meters":26800,"station_id":"ce4bhah2rcd13ifvqej0","pricing_plan_id":"free"},{"bike_id":"3de061ce-0c1c-40ad-b0a8-176572e03720","system_id":"levelo_inurba_marseille","lat":43.286591,"lon":5.363346,"is_reserved":false,"is_disabled":false,"rental_uris":{"android":"levelo://app?vid=3de061ce-0c1c-40ad-b0a8-176572e03720","ios":"levelo://app?vid=3de061ce-0c1c-40ad-b0a8-176572e03720"},"vehicle_type_id":"4","last_reported":1699726074,"current_range_meters":25200,"station_id":"ce4bhah2rcd13ifvqej0","pricing_plan_id":"free"},{"bike_id":"9ee1f14e-a616-4258-9f26-5afcd46f5adc","system_id":"levelo_inurba_marseille","lat":43.298681,"lon":5.397225,"is_reserved":false,"is_disabled":false,"rental_uris":{"android":"levelo://app?vid=9ee1f14e-a616-4258-9f26-5afcd46f5adc","ios":"levelo://app?vid=9ee1f14e-a616-4258-9f26-5afcd46f5adc"},"vehicle_type_id":"4","last_reported":1699726074,"current_range_meters":26800,"station_id":"ce4bh0h2rcd13ifvqd50","pricing_plan_id":"free"},{"bike_id":"7b889e67-d381-45ca-9b39-310bf4877b2d","system_id":"levelo_inurba_marseille","lat":43.302759,"lon":5.400793,"is_reserved":false,"is_disabled":false,"rental_uris":{"android":"levelo://app?vid=7b889e67-d381-45ca-9b39-310bf4877b2d","ios":"levelo://app?vid=7b889e67-d381-45ca-9b39-310bf4877b2d"},"vehicle_type_id":"4","last_reported":1699726074,"current_range_meters":10800,"station_id":"ce4bgvh2rcd13ifvqcs0","pricing_plan_id":"free"},{"bike_id":"68a5ed2e-4f50-47e3-a53a-b8e4fb28c9ed","system_id":"levelo_inurba_marseille","lat":43.289307,"lon":5.38406,"is_reserved":false,"is_disabled":false,"rental_uris":{"android":"levelo://app?vid=68a5ed2e-4f50-47e3-a53a-b8e4fb28c9ed","ios":"levelo://app?vid=68a5ed2e-4f50-47e3-a53a-b8e4fb28c9ed"},"vehicle_type_id":"4","last_reported":1699726074,"current_range_meters":25200,"station_id":"ce4bh612rcd13ifvqe6g","pricing_plan_id":"free"},{"bike_id":"56c576d7-4f5e-403a-a6ab-ba1a53c78b3f","system_id":"levelo_inurba_marseille","lat":43.29031,"lon":5.38652,"is_reserved":false,"is_disabled":false,"rental_uris":{"android":"levelo://app?vid=56c576d7-4f5e-403a-a6ab-ba1a53c78b3f","ios":"levelo://app?vid=56c576d7-4f5e-403a-a6ab-ba1a53c78b3f"},"vehicle_type_id":"4","last_reported":1699726074,"current_range_meters":28800,"station_id":"ce4bh4p2rcd13ifvqe0g","pricing_plan_id":"free"},{"bike_id":"547a1e48-266f-418c-91ab-da10d6c07cde","system_id":"levelo_inurba_marseille","lat":43.289307,"lon":5.38406,"is_reserved":false,"is_disabled":false,"rental_uris":{"android":"levelo://app?vid=547a1e48-266f-418c-91ab-da10d6c07cde","ios":"levelo://app?vid=547a1e48-266f-418c-91ab-da10d6c07cde"},"vehicle_type_id":"4","last_reported":1699726074,"current_range_meters":26400,"station_id":"ce4bh612rcd13ifvqe6g","pricing_plan_id":"free"},{"bike_id":"0118ec99-b129-4b95-86c8-2c23457b1e33","system_id":"levelo_inurba_marseille","lat":43.286039,"lon":5.370681,"is_reserved":false,"is_disabled":false,"rental_uris":{"android":"levelo://app?vid=0118ec99-b129-4b95-86c8-2c23457b1e33","ios":"levelo://app?vid=0118ec99-b129-4b95-86c8-2c23457b1e33"},"vehicle_type_id":"4","last_reported":1699726074,"current_range_meters":0,"station_id":"ce4bht12rcd13ifvqi60","pricing_plan_id":"free"},{"bike_id":"e57449c2-d088-47cf-8bf2-271593713c89","system_id":"levelo_inurba_marseille","lat":43.328576,"lon":5.398841,"is_reserved":false,"is_disabled":false,"rental_uris":{"android":"levelo://app?vid=e57449c2-d088-47cf-8bf2-271593713c89","ios":"levelo://app?vid=e57449c2-d088-47cf-8bf2-271593713c89"},"vehicle_type_id":"4","last_reported":1699726074,"current_range_meters":7200,"station_id":"","pricing_plan_id":"free"},{"bike_id":"ab3d1f34-44e1-4c7b-aa21-5d9a98591807","system_id":"levelo_inurba_marseille","lat":43.330778,"lon":5.396628,"is_reserved":false,"is_disabled":false,"rental_uris":{"android":"levelo://app?vid=ab3d1f34-44e1-4c7b-aa21-5d9a98591807","ios":"levelo://app?vid=ab3d1f34-44e1-4c7b-aa21-5d9a98591807"},"vehicle_type_id":"4","last_reported":1699726074,"current_range_meters":4000,"station_id":"","pricing_plan_id":"free"},{"bike_id":"9f3cc0cc-d7a2-49fd-b834-176b54d9323a","system_id":"levelo_inurba_marseille","lat":43.31667,"lon":5.40526,"is_reserved":false,"is_disabled":false,"rental_uris":{"android":"levelo://app?vid=9f3cc0cc-d7a2-49fd-b834-176b54d9323a","ios":"levelo://app?vid=9f3cc0cc-d7a2-49fd-b834-176b54d9323a"},"vehicle_type_id":"4","last_reported":1699726074,"current_range_meters":0,"station_id":"","pricing_plan_id":"free"},{"bike_id":"d5477ca5-e76c-4cfa-815d-be203a87f3cc","system_id":"levelo_inurba_marseille","lat":43.292,"lon":5.39323,"is_reserved":false,"is_disabled":false,"rental_uris":{"android":"levelo://app?vid=d5477ca5-e76c-4cfa-815d-be203a87f3cc","ios":"levelo://app?vid=d5477ca5-e76c-4cfa-815d-be203a87f3cc"},"vehicle_type_id":"4","last_reported":1699726074,"current_range_meters":0,"station_id":"ce4bh192rcd13ifvqdd0","pricing_plan_id":"free"},{"bike_id":"69726091-7c69-4e22-912f-478c77d0c264","system_id":"levelo_inurba_marseille","lat":43.284534,"lon":5.358662,"is_reserved":false,"is_disabled":false,"rental_uris":{"android":"levelo://app?vid=69726091-7c69-4e22-912f-478c77d0c264","ios":"levelo://app?vid=69726091-7c69-4e22-912f-478c77d0c264"},"vehicle_type_id":"4","last_reported":1699726074,"current_range_meters":14800,"station_id":"ce4bhah2rcd13ifvqei0","pricing_plan_id":"free"},{"bike_id":"6799058f-cb50-4464-816d-823852c0849a","system_id":"levelo_inurba_marseille","lat":43.284534,"lon":5.358662,"is_reserved":false,"is_disabled":false,"rental_uris":{"android":"levelo://app?vid=6799058f-cb50-4464-816d-823852c0849a","ios":"levelo://app?vid=6799058f-cb50-4464-816d-823852c0849a"},"vehicle_type_id":"4","last_reported":1699726074,"current_range_meters":28400,"station_id":"ce4bhah2rcd13ifvqei0","pricing_plan_id":"free"},{"bike_id":"5a0e5138-e86c-4b6a-81f9-b2968288b9d5","system_id":"levelo_inurba_marseille","lat":43.285848,"lon":5.350787,"is_reserved":false,"is_disabled":false,"rental_uris":{"android":"levelo://app?vid=5a0e5138-e86c-4b6a-81f9-b2968288b9d5","ios":"levelo://app?vid=5a0e5138-e86c-4b6a-81f9-b2968288b9d5"},"vehicle_type_id":"4","last_reported":1699726074,"current_range_meters":13200,"station_id":"ce4bhch2rcd13ifvqeug","pricing_plan_id":"free"},{"bike_id":"8f4c3bb3-be43-43fa-b638-5481e7ba8908","system_id":"levelo_inurba_marseille","lat":43.295713,"lon":5.399639,"is_reserved":false,"is_disabled":false,"rental_uris":{"android":"levelo://app?vid=8f4c3bb3-be43-43fa-b638-5481e7ba8908","ios":"levelo://app?vid=8f4c3bb3-be43-43fa-b638-5481e7ba8908"},"vehicle_type_id":"4","last_reported":1699726074,"current_range_meters":800,"station_id":"ce4bh312rcd13ifvqdj0","pricing_plan_id":"free"},{"bike_id":"434ea137-cd98-467a-9193-17445bed72ee","system_id":"levelo_inurba_marseille","lat":43.286595,"lon":5.386795,"is_reserved":false,"is_disabled":false,"rental_uris":{"android":"levelo://app?vid=434ea137-cd98-467a-9193-17445bed72ee","ios":"levelo://app?vid=434ea137-cd98-467a-9193-17445bed72ee"},"vehicle_type_id":"4","last_reported":1699726074,"current_range_meters":9200,"station_id":"ce4bh492rcd13ifvqdug","pricing_plan_id":"free"},{"bike_id":"80ba1ec1-3674-4b38-8915-fe6818e7d666","system_id":"levelo_inurba_marseille","lat":43.28681,"lon":5.386723,"is_reserved":false,"is_disabled":false,"rental_uris":{"android":"levelo://app?vid=80ba1ec1-3674-4b38-8915-fe6818e7d666","ios":"levelo://app?vid=80ba1ec1-3674-4b38-8915-fe6818e7d666"},"vehicle_type_id":"4","last_reported":1699726074,"current_range_meters":0,"station_id":"ce4bh492rcd13ifvqdug","pricing_plan_id":"free"},{"bike_id":"030625bd-f8ba-4389-9944-df2973894a22","system_id":"levelo_inurba_marseille","lat":43.325731,"lon":5.404186,"is_reserved":false,"is_disabled":false,"rental_uris":{"android":"levelo://app?vid=030625bd-f8ba-4389-9944-df2973894a22","ios":"levelo://app?vid=030625bd-f8ba-4389-9944-df2973894a22"},"vehicle_type_id":"4","last_reported":1699726074,"current_range_meters":2800,"station_id":"","pricing_plan_id":"free"},{"bike_id":"0b083c6d-d1d4-4abb-84f8-baa4bad07eff","system_id":"levelo_inurba_marseille","lat":43.28723,"lon":5.38916,"is_reserved":false,"is_disabled":false,"rental_uris":{"android":"levelo://app?vid=0b083c6d-d1d4-4abb-84f8-baa4bad07eff","ios":"levelo://app?vid=0b083c6d-d1d4-4abb-84f8-baa4bad07eff"},"vehicle_type_id":"4","last_reported":1699726074,"current_range_meters":2400,"station_id":"","pricing_plan_id":"free"},{"bike_id":"27511aab-823c-465b-826c-e631eb925b28","system_id":"levelo_inurba_marseille","lat":43.33717,"lon":5.391857,"is_reserved":false,"is_disabled":false,"rental_uris":{"android":"levelo://app?vid=27511aab-823c-465b-826c-e631eb925b28","ios":"levelo://app?vid=27511aab-823c-465b-826c-e631eb925b28"},"vehicle_type_id":"4","last_reported":1699726074,"current_range_meters":13600,"station_id":"ce4bhr92rcd13ifvqhsg","pricing_plan_id":"free"},{"bike_id":"8f73f349-a272-4ad6-b8fd-7b017ee1ab31","system_id":"levelo_inurba_marseille","lat":43.337168,"lon":5.391825,"is_reserved":false,"is_disabled":false,"rental_uris":{"android":"levelo://app?vid=8f73f349-a272-4ad6-b8fd-7b017ee1ab31","ios":"levelo://app?vid=8f73f349-a272-4ad6-b8fd-7b017ee1ab31"},"vehicle_type_id":"4","last_reported":1699726074,"current_range_meters":30000,"station_id":"ce4bhr92rcd13ifvqhsg","pricing_plan_id":"free"},{"bike_id":"832681b9-5e28-445e-8fbd-08837808f75b","system_id":"levelo_inurba_marseille","lat":43.284787,"lon":5.384116,"is_reserved":false,"is_disabled":false,"rental_uris":{"android":"levelo://app?vid=832681b9-5e28-445e-8fbd-08837808f75b","ios":"levelo://app?vid=832681b9-5e28-445e-8fbd-08837808f75b"},"vehicle_type_id":"4","last_reported":1699726074,"current_range_meters":16000,"station_id":"ce4bh512rcd13ifvqe3g","pricing_plan_id":"free"},{"bike_id":"4ad9fcec-f460-4ee6-895b-c8c37479189a","system_id":"levelo_inurba_marseille","lat":43.289363,"lon":5.396322,"is_reserved":false,"is_disabled":false,"rental_uris":{"android":"levelo://app?vid=4ad9fcec-f460-4ee6-895b-c8c37479189a","ios":"levelo://app?vid=4ad9fcec-f460-4ee6-895b-c8c37479189a"},"vehicle_type_id":"4","last_reported":1699726074,"current_range_meters":17600,"station_id":"ce4bh3h2rcd13ifvqdn0","pricing_plan_id":"free"},{"bike_id":"694cc18d-6823-481a-9d09-67d990c2d197","system_id":"levelo_inurba_marseille","lat":43.324289,"lon":5.407562,"is_reserved":false,"is_disabled":false,"rental_uris":{"android":"levelo://app?vid=694cc18d-6823-481a-9d09-67d990c2d197","ios":"levelo://app?vid=694cc18d-6823-481a-9d09-67d990c2d197"},"vehicle_type_id":"4","last_reported":1699726074,"current_range_meters":0,"station_id":"","pricing_plan_id":"free"},{"bike_id":"43d9c907-6378-49c8-8c93-8306be860f8d","system_id":"levelo_inurba_marseille","lat":43.292724,"lon":5.401131,"is_reserved":false,"is_disabled":false,"rental_uris":{"android":"levelo://app?vid=43d9c907-6378-49c8-8c93-8306be860f8d","ios":"levelo://app?vid=43d9c907-6378-49c8-8c93-8306be860f8d"},"vehicle_type_id":"4","last_reported":1699726074,"current_range_meters":26800,"station_id":"ce4bh312rcd13ifvqdk0","pricing_plan_id":"free"},{"bike_id":"78e8b86f-2654-4116-b2ff-c48da0c99704","system_id":"levelo_inurba_marseille","lat":43.292724,"lon":5.401131,"is_reserved":false,"is_disabled":false,"rental_uris":{"android":"levelo://app?vid=78e8b86f-2654-4116-b2ff-c48da0c99704","ios":"levelo://app?vid=78e8b86f-2654-4116-b2ff-c48da0c99704"},"vehicle_type_id":"4","last_reported":1699726074,"current_range_meters":30800,"station_id":"ce4bh312rcd13ifvqdk0","pricing_plan_id":"free"},{"bike_id":"e275fccc-ac30-4c93-a8bb-58e2964d72ef","system_id":"levelo_inurba_marseille","lat":43.292724,"lon":5.401131,"is_reserved":false,"is_disabled":false,"rental_uris":{"android":"levelo://app?vid=e275fccc-ac30-4c93-a8bb-58e2964d72ef","ios":"levelo://app?vid=e275fccc-ac30-4c93-a8bb-58e2964d72ef"},"vehicle_type_id":"4","last_reported":1699726074,"current_range_meters":0,"station_id":"ce4bh312rcd13ifvqdk0","pricing_plan_id":"free"},{"bike_id":"954eae00-15db-4159-ac49-9f30c57ad9d7","system_id":"levelo_inurba_marseille","lat":43.283502,"lon":5.386471,"is_reserved":false,"is_disabled":false,"rental_uris":{"android":"levelo://app?vid=954eae00-15db-4159-ac49-9f30c57ad9d7","ios":"levelo://app?vid=954eae00-15db-4159-ac49-9f30c57ad9d7"},"vehicle_type_id":"4","last_reported":1699726074,"current_range_meters":16800,"station_id":"ce4bh492rcd13ifvqdvg","pricing_plan_id":"free"},{"bike_id":"e1a734b8-f9d1-4389-bcfe-b54d4fca992f","system_id":"levelo_inurba_marseille","lat":43.28039,"lon":5.369297,"is_reserved":false,"is_disabled":false,"rental_uris":{"android":"levelo://app?vid=e1a734b8-f9d1-4389-bcfe-b54d4fca992f","ios":"levelo://app?vid=e1a734b8-f9d1-4389-bcfe-b54d4fca992f"},"vehicle_type_id":"4","last_reported":1699726074,"current_range_meters":29200,"station_id":"ce4bha12rcd13ifvqef0","pricing_plan_id":"free"},{"bike_id":"3c9c78e9-149a-4836-b379-4609d575068d","system_id":"levelo_inurba_marseille","lat":43.280382,"lon":5.369291,"is_reserved":false,"is_disabled":false,"rental_uris":{"android":"levelo://app?vid=3c9c78e9-149a-4836-b379-4609d575068d","ios":"levelo://app?vid=3c9c78e9-149a-4836-b379-4609d575068d"},"vehicle_type_id":"4","last_reported":1699726074,"current_range_meters":0,"station_id":"ce4bha12rcd13ifvqef0","pricing_plan_id":"free"},{"bike_id":"6ff1bc92-38d1-4afa-867c-c407e3a4d121","system_id":"levelo_inurba_marseille","lat":43.280382,"lon":5.369291,"is_reserved":false,"is_disabled":false,"rental_uris":{"android":"levelo://app?vid=6ff1bc92-38d1-4afa-867c-c407e3a4d121","ios":"levelo://app?vid=6ff1bc92-38d1-4afa-867c-c407e3a4d121"},"vehicle_type_id":"4","last_reported":1699726074,"current_range_meters":24800,"station_id":"ce4bha12rcd13ifvqef0","pricing_plan_id":"free"},{"bike_id":"57f9ef9c-16b4-4e74-a7f8-61ddcfcb32f9","system_id":"levelo_inurba_marseille","lat":43.280382,"lon":5.369291,"is_reserved":false,"is_disabled":false,"rental_uris":{"android":"levelo://app?vid=57f9ef9c-16b4-4e74-a7f8-61ddcfcb32f9","ios":"levelo://app?vid=57f9ef9c-16b4-4e74-a7f8-61ddcfcb32f9"},"vehicle_type_id":"4","last_reported":1699726074,"current_range_meters":8000,"station_id":"ce4bha12rcd13ifvqef0","pricing_plan_id":"free"},{"bike_id":"a5b6eaab-327f-4135-b29c-bfa135544990","system_id":"levelo_inurba_marseille","lat":43.29041,"lon":5.399634,"is_reserved":false,"is_disabled":false,"rental_uris":{"android":"levelo://app?vid=a5b6eaab-327f-4135-b29c-bfa135544990","ios":"levelo://app?vid=a5b6eaab-327f-4135-b29c-bfa135544990"},"vehicle_type_id":"4","last_reported":1699726074,"current_range_meters":22000,"station_id":"ce4bh392rcd13ifvqdm0","pricing_plan_id":"free"},{"bike_id":"f41d1522-8663-46a4-91a3-d45f338391d0","system_id":"levelo_inurba_marseille","lat":43.281044,"lon":5.378308,"is_reserved":false,"is_disabled":false,"rental_uris":{"android":"levelo://app?vid=f41d1522-8663-46a4-91a3-d45f338391d0","ios":"levelo://app?vid=f41d1522-8663-46a4-91a3-d45f338391d0"},"vehicle_type_id":"4","last_reported":1699726074,"current_range_meters":20000,"station_id":"ce4bha12rcd13ifvqee0","pricing_plan_id":"free"},{"bike_id":"d2f3b0a9-9caf-40dd-839a-33e625d10d6f","system_id":"levelo_inurba_marseille","lat":43.296263,"lon":5.40601,"is_reserved":false,"is_disabled":false,"rental_uris":{"android":"levelo://app?vid=d2f3b0a9-9caf-40dd-839a-33e625d10d6f","ios":"levelo://app?vid=d2f3b0a9-9caf-40dd-839a-33e625d10d6f"},"vehicle_type_id":"4","last_reported":1699726074,"current_range_meters":7200,"station_id":"ce4bh0h2rcd13ifvqd60","pricing_plan_id":"free"},{"bike_id":"8394a0dd-19df-4694-ac8f-7636593851bb","system_id":"levelo_inurba_marseille","lat":43.296263,"lon":5.40601,"is_reserved":false,"is_disabled":false,"rental_uris":{"android":"levelo://app?vid=8394a0dd-19df-4694-ac8f-7636593851bb","ios":"levelo://app?vid=8394a0dd-19df-4694-ac8f-7636593851bb"},"vehicle_type_id":"4","last_reported":1699726074,"current_range_meters":400,"station_id":"ce4bh0h2rcd13ifvqd60","pricing_plan_id":"free"},{"bike_id":"b85a3cca-1e0b-49e1-9c66-5e4ad6aaaf53","system_id":"levelo_inurba_marseille","lat":43.281044,"lon":5.378308,"is_reserved":false,"is_disabled":false,"rental_uris":{"android":"levelo://app?vid=b85a3cca-1e0b-49e1-9c66-5e4ad6aaaf53","ios":"levelo://app?vid=b85a3cca-1e0b-49e1-9c66-5e4ad6aaaf53"},"vehicle_type_id":"4","last_reported":1699726074,"current_range_meters":17600,"station_id":"ce4bha12rcd13ifvqee0","pricing_plan_id":"free"},{"bike_id":"d8c1ae8a-707d-487e-ac65-338a26dd0414","system_id":"levelo_inurba_marseille","lat":43.296263,"lon":5.40601,"is_reserved":false,"is_disabled":false,"rental_uris":{"android":"levelo://app?vid=d8c1ae8a-707d-487e-ac65-338a26dd0414","ios":"levelo://app?vid=d8c1ae8a-707d-487e-ac65-338a26dd0414"},"vehicle_type_id":"4","last_reported":1699726074,"current_range_meters":1600,"station_id":"ce4bh0h2rcd13ifvqd60","pricing_plan_id":"free"},{"bike_id":"dae64836-7541-46e9-837f-f2f9e1d30f3a","system_id":"levelo_inurba_marseille","lat":43.296263,"lon":5.40601,"is_reserved":false,"is_disabled":false,"rental_uris":{"android":"levelo://app?vid=dae64836-7541-46e9-837f-f2f9e1d30f3a","ios":"levelo://app?vid=dae64836-7541-46e9-837f-f2f9e1d30f3a"},"vehicle_type_id":"4","last_reported":1699726074,"current_range_meters":5600,"station_id":"ce4bh0h2rcd13ifvqd60","pricing_plan_id":"free"},{"bike_id":"c5269fde-c094-4163-a2ac-a6350e774e3c","system_id":"levelo_inurba_marseille","lat":43.323447,"lon":5.41003,"is_reserved":false,"is_disabled":false,"rental_uris":{"android":"levelo://app?vid=c5269fde-c094-4163-a2ac-a6350e774e3c","ios":"levelo://app?vid=c5269fde-c094-4163-a2ac-a6350e774e3c"},"vehicle_type_id":"4","last_reported":1699726074,"current_range_meters":4800,"station_id":"","pricing_plan_id":"free"},{"bike_id":"f8a0657c-a436-42f6-a3f1-03d692e6e5d7","system_id":"levelo_inurba_marseille","lat":43.284462,"lon":5.392121,"is_reserved":false,"is_disabled":false,"rental_uris":{"android":"levelo://app?vid=f8a0657c-a436-42f6-a3f1-03d692e6e5d7","ios":"levelo://app?vid=f8a0657c-a436-42f6-a3f1-03d692e6e5d7"},"vehicle_type_id":"4","last_reported":1699726074,"current_range_meters":10800,"station_id":"ce4bhoh2rcd13ifvqh5g","pricing_plan_id":"free"},{"bike_id":"69b6b9f5-06e3-48d7-94b4-28e8b5fa13a1","system_id":"levelo_inurba_marseille","lat":43.284462,"lon":5.392121,"is_reserved":false,"is_disabled":false,"rental_uris":{"android":"levelo://app?vid=69b6b9f5-06e3-48d7-94b4-28e8b5fa13a1","ios":"levelo://app?vid=69b6b9f5-06e3-48d7-94b4-28e8b5fa13a1"},"vehicle_type_id":"4","last_reported":1699726074,"current_range_meters":11200,"station_id":"ce4bhoh2rcd13ifvqh5g","pricing_plan_id":"free"},{"bike_id":"48e07966-c7e8-46b1-9079-9ff43e9df782","system_id":"levelo_inurba_marseille","lat":43.284462,"lon":5.392121,"is_reserved":false,"is_disabled":false,"rental_uris":{"android":"levelo://app?vid=48e07966-c7e8-46b1-9079-9ff43e9df782","ios":"levelo://app?vid=48e07966-c7e8-46b1-9079-9ff43e9df782"},"vehicle_type_id":"4","last_reported":1699726074,"current_range_meters":26000,"station_id":"ce4bhoh2rcd13ifvqh5g","pricing_plan_id":"free"},{"bike_id":"680faa3e-bb03-4239-a483-9c66b169ab1b","system_id":"levelo_inurba_marseille","lat":43.28573,"lon":5.394992,"is_reserved":false,"is_disabled":false,"rental_uris":{"android":"levelo://app?vid=680faa3e-bb03-4239-a483-9c66b169ab1b","ios":"levelo://app?vid=680faa3e-bb03-4239-a483-9c66b169ab1b"},"vehicle_type_id":"4","last_reported":1699726074,"current_range_meters":25200,"station_id":"ce4bh292rcd13ifvqdg0","pricing_plan_id":"free"},{"bike_id":"a010dc03-3e1d-4133-974d-b62eb63fbb55","system_id":"levelo_inurba_marseille","lat":43.326605,"lon":5.409903,"is_reserved":false,"is_disabled":false,"rental_uris":{"android":"levelo://app?vid=a010dc03-3e1d-4133-974d-b62eb63fbb55","ios":"levelo://app?vid=a010dc03-3e1d-4133-974d-b62eb63fbb55"},"vehicle_type_id":"4","last_reported":1699726074,"current_range_meters":25600,"station_id":"ce4bhpp2rcd13ifvqhgg","pricing_plan_id":"free"},{"bike_id":"b21de5a9-ad17-404d-b3ff-f6b6faf8a1d4","system_id":"levelo_inurba_marseille","lat":43.292569,"lon":5.409107,"is_reserved":false,"is_disabled":false,"rental_uris":{"android":"levelo://app?vid=b21de5a9-ad17-404d-b3ff-f6b6faf8a1d4","ios":"levelo://app?vid=b21de5a9-ad17-404d-b3ff-f6b6faf8a1d4"},"vehicle_type_id":"4","last_reported":1699726074,"current_range_meters":27600,"station_id":"ce4bh192rcd13ifvqdc0","pricing_plan_id":"free"},{"bike_id":"e4377342-b9c7-4083-becf-8c92b83a5533","system_id":"levelo_inurba_marseille","lat":43.304188,"lon":5.412904,"is_reserved":false,"is_disabled":false,"rental_uris":{"android":"levelo://app?vid=e4377342-b9c7-4083-becf-8c92b83a5533","ios":"levelo://app?vid=e4377342-b9c7-4083-becf-8c92b83a5533"},"vehicle_type_id":"4","last_reported":1699726074,"current_range_meters":3200,"station_id":"ce4bhop2rcd13ifvqh8g","pricing_plan_id":"free"},{"bike_id":"96f72e32-9a78-4e33-b034-33e5453b8b7c","system_id":"levelo_inurba_marseille","lat":43.30416,"lon":5.41286,"is_reserved":false,"is_disabled":false,"rental_uris":{"android":"levelo://app?vid=96f72e32-9a78-4e33-b034-33e5453b8b7c","ios":"levelo://app?vid=96f72e32-9a78-4e33-b034-33e5453b8b7c"},"vehicle_type_id":"4","last_reported":1699726074,"current_range_meters":11200,"station_id":"ce4bhop2rcd13ifvqh8g","pricing_plan_id":"free"},{"bike_id":"feca28d2-7019-4e39-96be-d7938cc29597","system_id":"levelo_inurba_marseille","lat":43.32435,"lon":5.4137,"is_reserved":false,"is_disabled":false,"rental_uris":{"android":"levelo://app?vid=feca28d2-7019-4e39-96be-d7938cc29597","ios":"levelo://app?vid=feca28d2-7019-4e39-96be-d7938cc29597"},"vehicle_type_id":"4","last_reported":1699726074,"current_range_meters":20800,"station_id":"","pricing_plan_id":"free"},{"bike_id":"a46ea6b2-5dea-4179-a883-c17c905ee3ae","system_id":"levelo_inurba_marseille","lat":43.292569,"lon":5.409107,"is_reserved":false,"is_disabled":false,"rental_uris":{"android":"levelo://app?vid=a46ea6b2-5dea-4179-a883-c17c905ee3ae","ios":"levelo://app?vid=a46ea6b2-5dea-4179-a883-c17c905ee3ae"},"vehicle_type_id":"4","last_reported":1699726074,"current_range_meters":4000,"station_id":"ce4bh192rcd13ifvqdc0","pricing_plan_id":"free"},{"bike_id":"3ba97417-810b-4ddb-bd2d-96fba8f7873c","system_id":"levelo_inurba_marseille","lat":43.276179,"lon":5.361009,"is_reserved":false,"is_disabled":false,"rental_uris":{"android":"levelo://app?vid=3ba97417-810b-4ddb-bd2d-96fba8f7873c","ios":"levelo://app?vid=3ba97417-810b-4ddb-bd2d-96fba8f7873c"},"vehicle_type_id":"4","last_reported":1699726074,"current_range_meters":30000,"station_id":"ce4bgj92rcd13ifvqbe0","pricing_plan_id":"free"},{"bike_id":"ff1d36f2-94a1-4cf2-9aa0-202365e5981d","system_id":"levelo_inurba_marseille","lat":43.280784,"lon":5.396622,"is_reserved":false,"is_disabled":false,"rental_uris":{"android":"levelo://app?vid=ff1d36f2-94a1-4cf2-9aa0-202365e5981d","ios":"levelo://app?vid=ff1d36f2-94a1-4cf2-9aa0-202365e5981d"},"vehicle_type_id":"4","last_reported":1699726074,"current_range_meters":14800,"station_id":"ce4bho12rcd13ifvqh2g","pricing_plan_id":"free"},{"bike_id":"9dbe2033-6288-411c-b9f1-bd08dcc8b534","system_id":"levelo_inurba_marseille","lat":43.280773,"lon":5.396657,"is_reserved":false,"is_disabled":false,"rental_uris":{"android":"levelo://app?vid=9dbe2033-6288-411c-b9f1-bd08dcc8b534","ios":"levelo://app?vid=9dbe2033-6288-411c-b9f1-bd08dcc8b534"},"vehicle_type_id":"4","last_reported":1699726074,"current_range_meters":27200,"station_id":"","pricing_plan_id":"free"},{"bike_id":"26d2ad9f-5085-43ef-8019-0efeacf6a536","system_id":"levelo_inurba_marseille","lat":43.280784,"lon":5.396622,"is_reserved":false,"is_disabled":false,"rental_uris":{"android":"levelo://app?vid=26d2ad9f-5085-43ef-8019-0efeacf6a536","ios":"levelo://app?vid=26d2ad9f-5085-43ef-8019-0efeacf6a536"},"vehicle_type_id":"4","last_reported":1699726074,"current_range_meters":28400,"station_id":"ce4bho12rcd13ifvqh2g","pricing_plan_id":"free"},{"bike_id":"d3d61f72-2517-4db0-b44c-122d34be7d18","system_id":"levelo_inurba_marseille","lat":43.280784,"lon":5.396622,"is_reserved":false,"is_disabled":false,"rental_uris":{"android":"levelo://app?vid=d3d61f72-2517-4db0-b44c-122d34be7d18","ios":"levelo://app?vid=d3d61f72-2517-4db0-b44c-122d34be7d18"},"vehicle_type_id":"4","last_reported":1699726074,"current_range_meters":24000,"station_id":"ce4bho12rcd13ifvqh2g","pricing_plan_id":"free"},{"bike_id":"0ab52c44-46c6-4d6a-95fe-c91e76a1a611","system_id":"levelo_inurba_marseille","lat":43.303837,"lon":5.418724,"is_reserved":false,"is_disabled":false,"rental_uris":{"android":"levelo://app?vid=0ab52c44-46c6-4d6a-95fe-c91e76a1a611","ios":"levelo://app?vid=0ab52c44-46c6-4d6a-95fe-c91e76a1a611"},"vehicle_type_id":"4","last_reported":1699726074,"current_range_meters":30800,"station_id":"ce4bhop2rcd13ifvqh7g","pricing_plan_id":"free"},{"bike_id":"990c5f6e-1b42-4561-a0c3-7bdcb4ed2a2b","system_id":"levelo_inurba_marseille","lat":43.278401,"lon":5.392152,"is_reserved":false,"is_disabled":false,"rental_uris":{"android":"levelo://app?vid=990c5f6e-1b42-4561-a0c3-7bdcb4ed2a2b","ios":"levelo://app?vid=990c5f6e-1b42-4561-a0c3-7bdcb4ed2a2b"},"vehicle_type_id":"4","last_reported":1699726074,"current_range_meters":1200,"station_id":"ce4bhjp2rcd13ifvqga0","pricing_plan_id":"free"},{"bike_id":"a2b727d4-7355-46b9-95c8-422f56595382","system_id":"levelo_inurba_marseille","lat":43.276771,"lon":5.388799,"is_reserved":false,"is_disabled":false,"rental_uris":{"android":"levelo://app?vid=a2b727d4-7355-46b9-95c8-422f56595382","ios":"levelo://app?vid=a2b727d4-7355-46b9-95c8-422f56595382"},"vehicle_type_id":"4","last_reported":1699726074,"current_range_meters":28000,"station_id":"ce4bhi12rcd13ifvqfo0","pricing_plan_id":"free"},{"bike_id":"68ffca5c-f92e-4d2b-b812-3edfa190d5ea","system_id":"levelo_inurba_marseille","lat":43.278275,"lon":5.396505,"is_reserved":false,"is_disabled":false,"rental_uris":{"android":"levelo://app?vid=68ffca5c-f92e-4d2b-b812-3edfa190d5ea","ios":"levelo://app?vid=68ffca5c-f92e-4d2b-b812-3edfa190d5ea"},"vehicle_type_id":"4","last_reported":1699726074,"current_range_meters":8000,"station_id":"","pricing_plan_id":"free"},{"bike_id":"707c1a3d-2820-4e2b-b348-1774451ad512","system_id":"levelo_inurba_marseille","lat":43.317121,"lon":5.423936,"is_reserved":false,"is_disabled":false,"rental_uris":{"android":"levelo://app?vid=707c1a3d-2820-4e2b-b348-1774451ad512","ios":"levelo://app?vid=707c1a3d-2820-4e2b-b348-1774451ad512"},"vehicle_type_id":"4","last_reported":1699726074,"current_range_meters":30800,"station_id":"ce4bhp92rcd13ifvqhbg","pricing_plan_id":"free"},{"bike_id":"1c8dc25c-b32a-48ee-8901-1e99bd29b4e6","system_id":"levelo_inurba_marseille","lat":43.30411,"lon":5.42551,"is_reserved":false,"is_disabled":false,"rental_uris":{"android":"levelo://app?vid=1c8dc25c-b32a-48ee-8901-1e99bd29b4e6","ios":"levelo://app?vid=1c8dc25c-b32a-48ee-8901-1e99bd29b4e6"},"vehicle_type_id":"4","last_reported":1699726074,"current_range_meters":28800,"station_id":"ce4bhoh2rcd13ifvqh6g","pricing_plan_id":"free"},{"bike_id":"7f7029a1-fbb1-49c4-a3b6-097f36482fc1","system_id":"levelo_inurba_marseille","lat":43.295523,"lon":5.422926,"is_reserved":false,"is_disabled":false,"rental_uris":{"android":"levelo://app?vid=7f7029a1-fbb1-49c4-a3b6-097f36482fc1","ios":"levelo://app?vid=7f7029a1-fbb1-49c4-a3b6-097f36482fc1"},"vehicle_type_id":"4","last_reported":1699726074,"current_range_meters":31600,"station_id":"ce4bhph2rcd13ifvqhdg","pricing_plan_id":"free"},{"bike_id":"e31d8915-f9a7-4841-83af-de530f33757b","system_id":"levelo_inurba_marseille","lat":43.2721,"lon":5.39186,"is_reserved":false,"is_disabled":false,"rental_uris":{"android":"levelo://app?vid=e31d8915-f9a7-4841-83af-de530f33757b","ios":"levelo://app?vid=e31d8915-f9a7-4841-83af-de530f33757b"},"vehicle_type_id":"4","last_reported":1699726074,"current_range_meters":0,"station_id":"ce4bhhp2rcd13ifvqfm0","pricing_plan_id":"free"},{"bike_id":"fea03e83-2672-4901-b739-2fbff174dd7e","system_id":"levelo_inurba_marseille","lat":43.27216,"lon":5.39252,"is_reserved":false,"is_disabled":false,"rental_uris":{"android":"levelo://app?vid=fea03e83-2672-4901-b739-2fbff174dd7e","ios":"levelo://app?vid=fea03e83-2672-4901-b739-2fbff174dd7e"},"vehicle_type_id":"4","last_reported":1699726074,"current_range_meters":4800,"station_id":"","pricing_plan_id":"free"},{"bike_id":"71e768a2-9b49-49d8-bb9b-827044bbb7f7","system_id":"levelo_inurba_marseille","lat":43.27203,"lon":5.39295,"is_reserved":false,"is_disabled":false,"rental_uris":{"android":"levelo://app?vid=71e768a2-9b49-49d8-bb9b-827044bbb7f7","ios":"levelo://app?vid=71e768a2-9b49-49d8-bb9b-827044bbb7f7"},"vehicle_type_id":"4","last_reported":1699726074,"current_range_meters":18400,"station_id":"","pricing_plan_id":"free"},{"bike_id":"3c3ea3b3-81d6-4fcd-9bb1-0e6f5e5d9c00","system_id":"levelo_inurba_marseille","lat":43.278128,"lon":5.407195,"is_reserved":false,"is_disabled":false,"rental_uris":{"android":"levelo://app?vid=3c3ea3b3-81d6-4fcd-9bb1-0e6f5e5d9c00","ios":"levelo://app?vid=3c3ea3b3-81d6-4fcd-9bb1-0e6f5e5d9c00"},"vehicle_type_id":"4","last_reported":1699726074,"current_range_meters":23600,"station_id":"ce4bhnh2rcd13ifvqgtg","pricing_plan_id":"free"},{"bike_id":"6f9593cc-2cf3-49df-a2aa-dcc05e58411f","system_id":"levelo_inurba_marseille","lat":43.278128,"lon":5.407195,"is_reserved":false,"is_disabled":false,"rental_uris":{"android":"levelo://app?vid=6f9593cc-2cf3-49df-a2aa-dcc05e58411f","ios":"levelo://app?vid=6f9593cc-2cf3-49df-a2aa-dcc05e58411f"},"vehicle_type_id":"4","last_reported":1699726074,"current_range_meters":20800,"station_id":"ce4bhnh2rcd13ifvqgtg","pricing_plan_id":"free"},{"bike_id":"a5a6a2dd-3f00-4dac-aeae-8fdce3628759","system_id":"levelo_inurba_marseille","lat":43.278128,"lon":5.407195,"is_reserved":false,"is_disabled":false,"rental_uris":{"android":"levelo://app?vid=a5a6a2dd-3f00-4dac-aeae-8fdce3628759","ios":"levelo://app?vid=a5a6a2dd-3f00-4dac-aeae-8fdce3628759"},"vehicle_type_id":"4","last_reported":1699726074,"current_range_meters":28800,"station_id":"ce4bhnh2rcd13ifvqgtg","pricing_plan_id":"free"},{"bike_id":"75e450f6-e039-4dc5-b2b5-263c562d9952","system_id":"levelo_inurba_marseille","lat":43.278128,"lon":5.407195,"is_reserved":false,"is_disabled":false,"rental_uris":{"android":"levelo://app?vid=75e450f6-e039-4dc5-b2b5-263c562d9952","ios":"levelo://app?vid=75e450f6-e039-4dc5-b2b5-263c562d9952"},"vehicle_type_id":"4","last_reported":1699726074,"current_range_meters":0,"station_id":"ce4bhnh2rcd13ifvqgtg","pricing_plan_id":"free"},{"bike_id":"94960eb6-734d-4c16-83f8-bc518fd4a811","system_id":"levelo_inurba_marseille","lat":43.278128,"lon":5.407195,"is_reserved":false,"is_disabled":false,"rental_uris":{"android":"levelo://app?vid=94960eb6-734d-4c16-83f8-bc518fd4a811","ios":"levelo://app?vid=94960eb6-734d-4c16-83f8-bc518fd4a811"},"vehicle_type_id":"4","last_reported":1699726074,"current_range_meters":28800,"station_id":"ce4bhnh2rcd13ifvqgtg","pricing_plan_id":"free"},{"bike_id":"3d16b8a5-448e-4d23-b7f7-e5ed3839b6bf","system_id":"levelo_inurba_marseille","lat":43.278128,"lon":5.407195,"is_reserved":false,"is_disabled":false,"rental_uris":{"android":"levelo://app?vid=3d16b8a5-448e-4d23-b7f7-e5ed3839b6bf","ios":"levelo://app?vid=3d16b8a5-448e-4d23-b7f7-e5ed3839b6bf"},"vehicle_type_id":"4","last_reported":1699726074,"current_range_meters":0,"station_id":"ce4bhnh2rcd13ifvqgtg","pricing_plan_id":"free"},{"bike_id":"a795fa4f-056d-4ad9-a419-37f50ae9e62c","system_id":"levelo_inurba_marseille","lat":43.2781,"lon":5.40722,"is_reserved":false,"is_disabled":false,"rental_uris":{"android":"levelo://app?vid=a795fa4f-056d-4ad9-a419-37f50ae9e62c","ios":"levelo://app?vid=a795fa4f-056d-4ad9-a419-37f50ae9e62c"},"vehicle_type_id":"4","last_reported":1699726074,"current_range_meters":1200,"station_id":"ce4bhnh2rcd13ifvqgtg","pricing_plan_id":"free"},{"bike_id":"ebf20631-172b-4b50-9aec-1e77840f87c9","system_id":"levelo_inurba_marseille","lat":43.27947,"lon":5.41046,"is_reserved":false,"is_disabled":false,"rental_uris":{"android":"levelo://app?vid=ebf20631-172b-4b50-9aec-1e77840f87c9","ios":"levelo://app?vid=ebf20631-172b-4b50-9aec-1e77840f87c9"},"vehicle_type_id":"4","last_reported":1699726074,"current_range_meters":4000,"station_id":"ce4bhnp2rcd13ifvqh0g","pricing_plan_id":"free"},{"bike_id":"aa5b25cc-4fba-4bb0-ac2a-4c2d5e15e9ad","system_id":"levelo_inurba_marseille","lat":43.27942,"lon":5.4105,"is_reserved":false,"is_disabled":false,"rental_uris":{"android":"levelo://app?vid=aa5b25cc-4fba-4bb0-ac2a-4c2d5e15e9ad","ios":"levelo://app?vid=aa5b25cc-4fba-4bb0-ac2a-4c2d5e15e9ad"},"vehicle_type_id":"4","last_reported":1699726074,"current_range_meters":10000,"station_id":"ce4bhnp2rcd13ifvqh0g","pricing_plan_id":"free"},{"bike_id":"24bd3a67-ff6c-4fe0-83ae-969305153aa5","system_id":"levelo_inurba_marseille","lat":43.269319,"lon":5.389397,"is_reserved":false,"is_disabled":false,"rental_uris":{"android":"levelo://app?vid=24bd3a67-ff6c-4fe0-83ae-969305153aa5","ios":"levelo://app?vid=24bd3a67-ff6c-4fe0-83ae-969305153aa5"},"vehicle_type_id":"4","last_reported":1699726074,"current_range_meters":26400,"station_id":"ce4bhhh2rcd13ifvqfl0","pricing_plan_id":"free"},{"bike_id":"1e62c1a0-1032-4461-a0c3-ae0d2bbaae80","system_id":"levelo_inurba_marseille","lat":43.265714,"lon":5.372891,"is_reserved":false,"is_disabled":false,"rental_uris":{"android":"levelo://app?vid=1e62c1a0-1032-4461-a0c3-ae0d2bbaae80","ios":"levelo://app?vid=1e62c1a0-1032-4461-a0c3-ae0d2bbaae80"},"vehicle_type_id":"4","last_reported":1699726074,"current_range_meters":17600,"station_id":"ce4bhg12rcd13ifvqf70","pricing_plan_id":"free"},{"bike_id":"58baa24c-6cc6-4d40-8bfb-0af3f2b78797","system_id":"levelo_inurba_marseille","lat":43.265714,"lon":5.372891,"is_reserved":false,"is_disabled":false,"rental_uris":{"android":"levelo://app?vid=58baa24c-6cc6-4d40-8bfb-0af3f2b78797","ios":"levelo://app?vid=58baa24c-6cc6-4d40-8bfb-0af3f2b78797"},"vehicle_type_id":"4","last_reported":1699726074,"current_range_meters":2000,"station_id":"ce4bhg12rcd13ifvqf70","pricing_plan_id":"free"},{"bike_id":"ae9b3bbb-faa6-4460-a8be-c73feca9bd67","system_id":"levelo_inurba_marseille","lat":43.26563,"lon":5.39012,"is_reserved":false,"is_disabled":false,"rental_uris":{"android":"levelo://app?vid=ae9b3bbb-faa6-4460-a8be-c73feca9bd67","ios":"levelo://app?vid=ae9b3bbb-faa6-4460-a8be-c73feca9bd67"},"vehicle_type_id":"4","last_reported":1699726074,"current_range_meters":0,"station_id":"ce4bhe12rcd13ifvqf30","pricing_plan_id":"free"},{"bike_id":"99d1910d-a84d-4eaf-bf7a-e5a15d325b53","system_id":"levelo_inurba_marseille","lat":43.331823,"lon":5.431664,"is_reserved":false,"is_disabled":false,"rental_uris":{"android":"levelo://app?vid=99d1910d-a84d-4eaf-bf7a-e5a15d325b53","ios":"levelo://app?vid=99d1910d-a84d-4eaf-bf7a-e5a15d325b53"},"vehicle_type_id":"4","last_reported":1699726074,"current_range_meters":0,"station_id":"","pricing_plan_id":"free"},{"bike_id":"16f17151-fe60-4a21-be1c-c787ed957961","system_id":"levelo_inurba_marseille","lat":43.317057,"lon":5.437067,"is_reserved":false,"is_disabled":false,"rental_uris":{"android":"levelo://app?vid=16f17151-fe60-4a21-be1c-c787ed957961","ios":"levelo://app?vid=16f17151-fe60-4a21-be1c-c787ed957961"},"vehicle_type_id":"4","last_reported":1699726074,"current_range_meters":0,"station_id":"ce4bhp92rcd13ifvqhcg","pricing_plan_id":"free"},{"bike_id":"7a9c66a9-5259-4199-b567-37bb0de61dd8","system_id":"levelo_inurba_marseille","lat":43.271368,"lon":5.40928,"is_reserved":false,"is_disabled":false,"rental_uris":{"android":"levelo://app?vid=7a9c66a9-5259-4199-b567-37bb0de61dd8","ios":"levelo://app?vid=7a9c66a9-5259-4199-b567-37bb0de61dd8"},"vehicle_type_id":"4","last_reported":1699726074,"current_range_meters":14800,"station_id":"ce4bhl12rcd13ifvqgf0","pricing_plan_id":"free"},{"bike_id":"1d88beac-3188-472d-9c9f-ec2a3d3dd142","system_id":"levelo_inurba_marseille","lat":43.271368,"lon":5.40928,"is_reserved":false,"is_disabled":false,"rental_uris":{"android":"levelo://app?vid=1d88beac-3188-472d-9c9f-ec2a3d3dd142","ios":"levelo://app?vid=1d88beac-3188-472d-9c9f-ec2a3d3dd142"},"vehicle_type_id":"4","last_reported":1699726074,"current_range_meters":26400,"station_id":"ce4bhl12rcd13ifvqgf0","pricing_plan_id":"free"},{"bike_id":"8a4087ee-eb27-456c-aa78-99b81d1568ae","system_id":"levelo_inurba_marseille","lat":43.298961,"lon":5.436687,"is_reserved":false,"is_disabled":false,"rental_uris":{"android":"levelo://app?vid=8a4087ee-eb27-456c-aa78-99b81d1568ae","ios":"levelo://app?vid=8a4087ee-eb27-456c-aa78-99b81d1568ae"},"vehicle_type_id":"4","last_reported":1699726074,"current_range_meters":0,"station_id":"ce4bhpp2rcd13ifvqhfg","pricing_plan_id":"free"},{"bike_id":"c48c9371-7c30-4897-8647-06790164a180","system_id":"levelo_inurba_marseille","lat":43.26501,"lon":5.39732,"is_reserved":false,"is_disabled":false,"rental_uris":{"android":"levelo://app?vid=c48c9371-7c30-4897-8647-06790164a180","ios":"levelo://app?vid=c48c9371-7c30-4897-8647-06790164a180"},"vehicle_type_id":"4","last_reported":1699726074,"current_range_meters":0,"station_id":"","pricing_plan_id":"free"},{"bike_id":"3b5bfcfe-b7e3-4624-abf7-d21c0c861046","system_id":"levelo_inurba_marseille","lat":43.281795,"lon":5.425621,"is_reserved":false,"is_disabled":false,"rental_uris":{"android":"levelo://app?vid=3b5bfcfe-b7e3-4624-abf7-d21c0c861046","ios":"levelo://app?vid=3b5bfcfe-b7e3-4624-abf7-d21c0c861046"},"vehicle_type_id":"4","last_reported":1699726074,"current_range_meters":2800,"station_id":"","pricing_plan_id":"free"},{"bike_id":"0582c19d-e11a-4561-8007-f3b9630eb1ae","system_id":"levelo_inurba_marseille","lat":43.260219,"lon":5.37546,"is_reserved":false,"is_disabled":false,"rental_uris":{"android":"levelo://app?vid=0582c19d-e11a-4561-8007-f3b9630eb1ae","ios":"levelo://app?vid=0582c19d-e11a-4561-8007-f3b9630eb1ae"},"vehicle_type_id":"4","last_reported":1699726074,"current_range_meters":18000,"station_id":"ce4bhgh2rcd13ifvqfa0","pricing_plan_id":"free"},{"bike_id":"325759bc-b488-4484-9574-8c4d9495ff8f","system_id":"levelo_inurba_marseille","lat":43.281548,"lon":5.42643,"is_reserved":false,"is_disabled":false,"rental_uris":{"android":"levelo://app?vid=325759bc-b488-4484-9574-8c4d9495ff8f","ios":"levelo://app?vid=325759bc-b488-4484-9574-8c4d9495ff8f"},"vehicle_type_id":"4","last_reported":1699726074,"current_range_meters":19200,"station_id":"ce4bhnh2rcd13ifvqgug","pricing_plan_id":"free"},{"bike_id":"4f6880f4-3164-4fc2-9cf7-3c1358040f10","system_id":"levelo_inurba_marseille","lat":43.290501,"lon":5.433305,"is_reserved":false,"is_disabled":false,"rental_uris":{"android":"levelo://app?vid=4f6880f4-3164-4fc2-9cf7-3c1358040f10","ios":"levelo://app?vid=4f6880f4-3164-4fc2-9cf7-3c1358040f10"},"vehicle_type_id":"4","last_reported":1699726074,"current_range_meters":18800,"station_id":"","pricing_plan_id":"free"},{"bike_id":"a263486d-f56a-46d5-a1dd-a63185081ceb","system_id":"levelo_inurba_marseille","lat":43.281548,"lon":5.42643,"is_reserved":false,"is_disabled":false,"rental_uris":{"android":"levelo://app?vid=a263486d-f56a-46d5-a1dd-a63185081ceb","ios":"levelo://app?vid=a263486d-f56a-46d5-a1dd-a63185081ceb"},"vehicle_type_id":"4","last_reported":1699726074,"current_range_meters":2400,"station_id":"ce4bhnh2rcd13ifvqgug","pricing_plan_id":"free"},{"bike_id":"1ed73a19-67b5-4669-8526-685c80708e99","system_id":"levelo_inurba_marseille","lat":43.281548,"lon":5.42643,"is_reserved":false,"is_disabled":false,"rental_uris":{"android":"levelo://app?vid=1ed73a19-67b5-4669-8526-685c80708e99","ios":"levelo://app?vid=1ed73a19-67b5-4669-8526-685c80708e99"},"vehicle_type_id":"4","last_reported":1699726074,"current_range_meters":31600,"station_id":"ce4bhnh2rcd13ifvqgug","pricing_plan_id":"free"},{"bike_id":"08e440d5-ba27-492d-9ac0-cfeffa9c671b","system_id":"levelo_inurba_marseille","lat":43.281548,"lon":5.42643,"is_reserved":false,"is_disabled":false,"rental_uris":{"android":"levelo://app?vid=08e440d5-ba27-492d-9ac0-cfeffa9c671b","ios":"levelo://app?vid=08e440d5-ba27-492d-9ac0-cfeffa9c671b"},"vehicle_type_id":"4","last_reported":1699726074,"current_range_meters":17200,"station_id":"ce4bhnh2rcd13ifvqgug","pricing_plan_id":"free"},{"bike_id":"36c987c0-f24d-4ba9-8775-bb8cd20b74ec","system_id":"levelo_inurba_marseille","lat":43.281548,"lon":5.42643,"is_reserved":false,"is_disabled":false,"rental_uris":{"android":"levelo://app?vid=36c987c0-f24d-4ba9-8775-bb8cd20b74ec","ios":"levelo://app?vid=36c987c0-f24d-4ba9-8775-bb8cd20b74ec"},"vehicle_type_id":"4","last_reported":1699726074,"current_range_meters":19600,"station_id":"ce4bhnh2rcd13ifvqgug","pricing_plan_id":"free"},{"bike_id":"7929fe62-478b-45ed-a32f-4cee63794674","system_id":"levelo_inurba_marseille","lat":43.275005,"lon":5.424511,"is_reserved":false,"is_disabled":false,"rental_uris":{"android":"levelo://app?vid=7929fe62-478b-45ed-a32f-4cee63794674","ios":"levelo://app?vid=7929fe62-478b-45ed-a32f-4cee63794674"},"vehicle_type_id":"4","last_reported":1699726074,"current_range_meters":16800,"station_id":"","pricing_plan_id":"free"},{"bike_id":"fdc0aceb-a167-484a-a3ff-f54e1fe411ce","system_id":"levelo_inurba_marseille","lat":43.275028,"lon":5.424534,"is_reserved":false,"is_disabled":false,"rental_uris":{"android":"levelo://app?vid=fdc0aceb-a167-484a-a3ff-f54e1fe411ce","ios":"levelo://app?vid=fdc0aceb-a167-484a-a3ff-f54e1fe411ce"},"vehicle_type_id":"4","last_reported":1699726074,"current_range_meters":25600,"station_id":"ce4bhn92rcd13ifvqgrg","pricing_plan_id":"free"},{"bike_id":"2aa6c4b1-a67d-43b7-9eb1-fe5b5bec91bf","system_id":"levelo_inurba_marseille","lat":43.333244,"lon":5.441446,"is_reserved":false,"is_disabled":false,"rental_uris":{"android":"levelo://app?vid=2aa6c4b1-a67d-43b7-9eb1-fe5b5bec91bf","ios":"levelo://app?vid=2aa6c4b1-a67d-43b7-9eb1-fe5b5bec91bf"},"vehicle_type_id":"4","last_reported":1699726074,"current_range_meters":9200,"station_id":"","pricing_plan_id":"free"},{"bike_id":"d1be4948-3db8-46c6-a0e9-4eb9877553a6","system_id":"levelo_inurba_marseille","lat":43.25497,"lon":5.3765,"is_reserved":false,"is_disabled":false,"rental_uris":{"android":"levelo://app?vid=d1be4948-3db8-46c6-a0e9-4eb9877553a6","ios":"levelo://app?vid=d1be4948-3db8-46c6-a0e9-4eb9877553a6"},"vehicle_type_id":"4","last_reported":1699726074,"current_range_meters":23200,"station_id":"ce4bhh12rcd13ifvqff0","pricing_plan_id":"free"},{"bike_id":"276e7ac7-f88a-4751-ac8c-abfa96c25152","system_id":"levelo_inurba_marseille","lat":43.25493,"lon":5.37651,"is_reserved":false,"is_disabled":false,"rental_uris":{"android":"levelo://app?vid=276e7ac7-f88a-4751-ac8c-abfa96c25152","ios":"levelo://app?vid=276e7ac7-f88a-4751-ac8c-abfa96c25152"},"vehicle_type_id":"4","last_reported":1699726074,"current_range_meters":0,"station_id":"ce4bhh12rcd13ifvqff0","pricing_plan_id":"free"},{"bike_id":"759a6f0f-2fb8-4ba7-9362-04dfb77b9ee3","system_id":"levelo_inurba_marseille","lat":43.254947,"lon":5.376454,"is_reserved":false,"is_disabled":false,"rental_uris":{"android":"levelo://app?vid=759a6f0f-2fb8-4ba7-9362-04dfb77b9ee3","ios":"levelo://app?vid=759a6f0f-2fb8-4ba7-9362-04dfb77b9ee3"},"vehicle_type_id":"4","last_reported":1699726074,"current_range_meters":18400,"station_id":"ce4bhh12rcd13ifvqff0","pricing_plan_id":"free"},{"bike_id":"d8599002-1e4e-4a9f-9e22-da9f812e154c","system_id":"levelo_inurba_marseille","lat":43.25489,"lon":5.37646,"is_reserved":false,"is_disabled":false,"rental_uris":{"android":"levelo://app?vid=d8599002-1e4e-4a9f-9e22-da9f812e154c","ios":"levelo://app?vid=d8599002-1e4e-4a9f-9e22-da9f812e154c"},"vehicle_type_id":"4","last_reported":1699726074,"current_range_meters":15200,"station_id":"ce4bhh12rcd13ifvqff0","pricing_plan_id":"free"},{"bike_id":"4e40d249-8a36-4ef3-89ba-123d51976098","system_id":"levelo_inurba_marseille","lat":43.25927,"lon":5.4091,"is_reserved":false,"is_disabled":false,"rental_uris":{"android":"levelo://app?vid=4e40d249-8a36-4ef3-89ba-123d51976098","ios":"levelo://app?vid=4e40d249-8a36-4ef3-89ba-123d51976098"},"vehicle_type_id":"4","last_reported":1699726074,"current_range_meters":0,"station_id":"ce4bhm92rcd13ifvqglg","pricing_plan_id":"free"},{"bike_id":"578120ca-f347-4a1c-929c-752a3f9ca913","system_id":"levelo_inurba_marseille","lat":43.24999,"lon":5.38932,"is_reserved":false,"is_disabled":false,"rental_uris":{"android":"levelo://app?vid=578120ca-f347-4a1c-929c-752a3f9ca913","ios":"levelo://app?vid=578120ca-f347-4a1c-929c-752a3f9ca913"},"vehicle_type_id":"4","last_reported":1699726074,"current_range_meters":10400,"station_id":"ce4bhgp2rcd13ifvqfd0","pricing_plan_id":"free"},{"bike_id":"c70b55b3-86c9-4446-83d0-302c2ea2e52b","system_id":"levelo_inurba_marseille","lat":43.248147,"lon":5.374621,"is_reserved":false,"is_disabled":false,"rental_uris":{"android":"levelo://app?vid=c70b55b3-86c9-4446-83d0-302c2ea2e52b","ios":"levelo://app?vid=c70b55b3-86c9-4446-83d0-302c2ea2e52b"},"vehicle_type_id":"4","last_reported":1699726074,"current_range_meters":31200,"station_id":"ce4bhgh2rcd13ifvqfb0","pricing_plan_id":"free"},{"bike_id":"307cc623-6dba-44a6-b576-69a8969d8229","system_id":"levelo_inurba_marseille","lat":43.24997,"lon":5.38926,"is_reserved":false,"is_disabled":false,"rental_uris":{"android":"levelo://app?vid=307cc623-6dba-44a6-b576-69a8969d8229","ios":"levelo://app?vid=307cc623-6dba-44a6-b576-69a8969d8229"},"vehicle_type_id":"4","last_reported":1699726074,"current_range_meters":29600,"station_id":"ce4bhgp2rcd13ifvqfd0","pricing_plan_id":"free"},{"bike_id":"117f8247-c7a1-4bdc-82ec-a6885bad1e28","system_id":"levelo_inurba_marseille","lat":43.2479,"lon":5.374457,"is_reserved":false,"is_disabled":false,"rental_uris":{"android":"levelo://app?vid=117f8247-c7a1-4bdc-82ec-a6885bad1e28","ios":"levelo://app?vid=117f8247-c7a1-4bdc-82ec-a6885bad1e28"},"vehicle_type_id":"4","last_reported":1699726074,"current_range_meters":24400,"station_id":"ce4bhgh2rcd13ifvqfb0","pricing_plan_id":"free"},{"bike_id":"e87d01a5-bec1-417e-b6d0-0b9a60de459e","system_id":"levelo_inurba_marseille","lat":43.24812,"lon":5.37459,"is_reserved":false,"is_disabled":false,"rental_uris":{"android":"levelo://app?vid=e87d01a5-bec1-417e-b6d0-0b9a60de459e","ios":"levelo://app?vid=e87d01a5-bec1-417e-b6d0-0b9a60de459e"},"vehicle_type_id":"4","last_reported":1699726074,"current_range_meters":16400,"station_id":"ce4bhgh2rcd13ifvqfb0","pricing_plan_id":"free"},{"bike_id":"7ee2788a-03c7-4e21-984e-77d64083401c","system_id":"levelo_inurba_marseille","lat":43.2479,"lon":5.374457,"is_reserved":false,"is_disabled":false,"rental_uris":{"android":"levelo://app?vid=7ee2788a-03c7-4e21-984e-77d64083401c","ios":"levelo://app?vid=7ee2788a-03c7-4e21-984e-77d64083401c"},"vehicle_type_id":"4","last_reported":1699726074,"current_range_meters":28800,"station_id":"ce4bhgh2rcd13ifvqfb0","pricing_plan_id":"free"},{"bike_id":"bc7fc931-ed5d-44d8-832c-2cffc9edf698","system_id":"levelo_inurba_marseille","lat":43.2479,"lon":5.374457,"is_reserved":false,"is_disabled":false,"rental_uris":{"android":"levelo://app?vid=bc7fc931-ed5d-44d8-832c-2cffc9edf698","ios":"levelo://app?vid=bc7fc931-ed5d-44d8-832c-2cffc9edf698"},"vehicle_type_id":"4","last_reported":1699726074,"current_range_meters":32000,"station_id":"ce4bhgh2rcd13ifvqfb0","pricing_plan_id":"free"},{"bike_id":"32a2b8e5-9d0b-425b-b743-4abd61fab379","system_id":"levelo_inurba_marseille","lat":43.2479,"lon":5.374457,"is_reserved":false,"is_disabled":false,"rental_uris":{"android":"levelo://app?vid=32a2b8e5-9d0b-425b-b743-4abd61fab379","ios":"levelo://app?vid=32a2b8e5-9d0b-425b-b743-4abd61fab379"},"vehicle_type_id":"4","last_reported":1699726074,"current_range_meters":14400,"station_id":"ce4bhgh2rcd13ifvqfb0","pricing_plan_id":"free"},{"bike_id":"3bae733a-c42e-4020-9aaf-a80afc12d563","system_id":"levelo_inurba_marseille","lat":43.2479,"lon":5.374457,"is_reserved":false,"is_disabled":false,"rental_uris":{"android":"levelo://app?vid=3bae733a-c42e-4020-9aaf-a80afc12d563","ios":"levelo://app?vid=3bae733a-c42e-4020-9aaf-a80afc12d563"},"vehicle_type_id":"4","last_reported":1699726074,"current_range_meters":25200,"station_id":"ce4bhgh2rcd13ifvqfb0","pricing_plan_id":"free"},{"bike_id":"9337b8d7-0e38-45c3-9c02-77b75e0aafad","system_id":"levelo_inurba_marseille","lat":43.2479,"lon":5.374457,"is_reserved":false,"is_disabled":false,"rental_uris":{"android":"levelo://app?vid=9337b8d7-0e38-45c3-9c02-77b75e0aafad","ios":"levelo://app?vid=9337b8d7-0e38-45c3-9c02-77b75e0aafad"},"vehicle_type_id":"4","last_reported":1699726074,"current_range_meters":29200,"station_id":"ce4bhgh2rcd13ifvqfb0","pricing_plan_id":"free"},{"bike_id":"3dcedec3-cb6a-4966-8210-663bcba2c8e7","system_id":"levelo_inurba_marseille","lat":43.25093,"lon":5.39517,"is_reserved":false,"is_disabled":false,"rental_uris":{"android":"levelo://app?vid=3dcedec3-cb6a-4966-8210-663bcba2c8e7","ios":"levelo://app?vid=3dcedec3-cb6a-4966-8210-663bcba2c8e7"},"vehicle_type_id":"4","last_reported":1699726074,"current_range_meters":24800,"station_id":"ce4bhm12rcd13ifvqgkg","pricing_plan_id":"free"},{"bike_id":"6d99304a-a440-4814-85cf-9921b9956b04","system_id":"levelo_inurba_marseille","lat":43.250966,"lon":5.395186,"is_reserved":false,"is_disabled":false,"rental_uris":{"android":"levelo://app?vid=6d99304a-a440-4814-85cf-9921b9956b04","ios":"levelo://app?vid=6d99304a-a440-4814-85cf-9921b9956b04"},"vehicle_type_id":"4","last_reported":1699726074,"current_range_meters":20000,"station_id":"ce4bhm12rcd13ifvqgkg","pricing_plan_id":"free"},{"bike_id":"f658ef96-a0ba-4113-a2ad-e3f8855f4a70","system_id":"levelo_inurba_marseille","lat":43.246467,"lon":5.388984,"is_reserved":false,"is_disabled":false,"rental_uris":{"android":"levelo://app?vid=f658ef96-a0ba-4113-a2ad-e3f8855f4a70","ios":"levelo://app?vid=f658ef96-a0ba-4113-a2ad-e3f8855f4a70"},"vehicle_type_id":"4","last_reported":1699726074,"current_range_meters":14800,"station_id":"ce4bhg12rcd13ifvqf60","pricing_plan_id":"free"},{"bike_id":"58489653-0d75-4bcc-9fe8-3336f4adde22","system_id":"levelo_inurba_marseille","lat":43.24545,"lon":5.39522,"is_reserved":false,"is_disabled":false,"rental_uris":{"android":"levelo://app?vid=58489653-0d75-4bcc-9fe8-3336f4adde22","ios":"levelo://app?vid=58489653-0d75-4bcc-9fe8-3336f4adde22"},"vehicle_type_id":"4","last_reported":1699726074,"current_range_meters":12400,"station_id":"ce4bhlp2rcd13ifvqgjg","pricing_plan_id":"free"},{"bike_id":"f4d09e39-0ab7-49b5-9980-35f9f9ea664f","system_id":"levelo_inurba_marseille","lat":43.245581,"lon":5.395069,"is_reserved":false,"is_disabled":false,"rental_uris":{"android":"levelo://app?vid=f4d09e39-0ab7-49b5-9980-35f9f9ea664f","ios":"levelo://app?vid=f4d09e39-0ab7-49b5-9980-35f9f9ea664f"},"vehicle_type_id":"4","last_reported":1699726074,"current_range_meters":11200,"station_id":"ce4bhlp2rcd13ifvqgjg","pricing_plan_id":"free"},{"bike_id":"34492017-d4e9-4205-a563-84e4559ed12d","system_id":"levelo_inurba_marseille","lat":43.24544,"lon":5.39525,"is_reserved":false,"is_disabled":false,"rental_uris":{"android":"levelo://app?vid=34492017-d4e9-4205-a563-84e4559ed12d","ios":"levelo://app?vid=34492017-d4e9-4205-a563-84e4559ed12d"},"vehicle_type_id":"4","last_reported":1699726074,"current_range_meters":26400,"station_id":"ce4bhlp2rcd13ifvqgjg","pricing_plan_id":"free"},{"bike_id":"c2e0cf5c-b515-4a2c-ac06-1f8fe671561c","system_id":"levelo_inurba_marseille","lat":43.24541,"lon":5.39525,"is_reserved":false,"is_disabled":false,"rental_uris":{"android":"levelo://app?vid=c2e0cf5c-b515-4a2c-ac06-1f8fe671561c","ios":"levelo://app?vid=c2e0cf5c-b515-4a2c-ac06-1f8fe671561c"},"vehicle_type_id":"4","last_reported":1699726074,"current_range_meters":12800,"station_id":"ce4bhlp2rcd13ifvqgjg","pricing_plan_id":"free"},{"bike_id":"42a92fd4-a595-46ac-8683-395aa407caf3","system_id":"levelo_inurba_marseille","lat":43.245581,"lon":5.395069,"is_reserved":false,"is_disabled":false,"rental_uris":{"android":"levelo://app?vid=42a92fd4-a595-46ac-8683-395aa407caf3","ios":"levelo://app?vid=42a92fd4-a595-46ac-8683-395aa407caf3"},"vehicle_type_id":"4","last_reported":1699726074,"current_range_meters":14800,"station_id":"ce4bhlp2rcd13ifvqgjg","pricing_plan_id":"free"},{"bike_id":"ff92a715-5fbb-4ac9-a157-23ea22833ee2","system_id":"levelo_inurba_marseille","lat":43.245581,"lon":5.395069,"is_reserved":false,"is_disabled":false,"rental_uris":{"android":"levelo://app?vid=ff92a715-5fbb-4ac9-a157-23ea22833ee2","ios":"levelo://app?vid=ff92a715-5fbb-4ac9-a157-23ea22833ee2"},"vehicle_type_id":"4","last_reported":1699726074,"current_range_meters":32000,"station_id":"ce4bhlp2rcd13ifvqgjg","pricing_plan_id":"free"},{"bike_id":"73cd3810-1d6b-44fc-9859-d98fb7672254","system_id":"levelo_inurba_marseille","lat":43.240623,"lon":5.377642,"is_reserved":false,"is_disabled":false,"rental_uris":{"android":"levelo://app?vid=73cd3810-1d6b-44fc-9859-d98fb7672254","ios":"levelo://app?vid=73cd3810-1d6b-44fc-9859-d98fb7672254"},"vehicle_type_id":"4","last_reported":1699726074,"current_range_meters":31600,"station_id":"ce4bhnp2rcd13ifvqgvg","pricing_plan_id":"free"},{"bike_id":"b05a8ece-3033-422a-8788-897daada9393","system_id":"levelo_inurba_marseille","lat":43.240623,"lon":5.377642,"is_reserved":false,"is_disabled":false,"rental_uris":{"android":"levelo://app?vid=b05a8ece-3033-422a-8788-897daada9393","ios":"levelo://app?vid=b05a8ece-3033-422a-8788-897daada9393"},"vehicle_type_id":"4","last_reported":1699726074,"current_range_meters":32000,"station_id":"ce4bhnp2rcd13ifvqgvg","pricing_plan_id":"free"},{"bike_id":"7cf03cd3-e480-404c-9bab-6f3755431d7f","system_id":"levelo_inurba_marseille","lat":43.240623,"lon":5.377642,"is_reserved":false,"is_disabled":false,"rental_uris":{"android":"levelo://app?vid=7cf03cd3-e480-404c-9bab-6f3755431d7f","ios":"levelo://app?vid=7cf03cd3-e480-404c-9bab-6f3755431d7f"},"vehicle_type_id":"4","last_reported":1699726074,"current_range_meters":18800,"station_id":"ce4bhnp2rcd13ifvqgvg","pricing_plan_id":"free"},{"bike_id":"2cb2dfd6-d8dd-4133-bc0b-49e36f1f3b0a","system_id":"levelo_inurba_marseille","lat":43.240623,"lon":5.377642,"is_reserved":false,"is_disabled":false,"rental_uris":{"android":"levelo://app?vid=2cb2dfd6-d8dd-4133-bc0b-49e36f1f3b0a","ios":"levelo://app?vid=2cb2dfd6-d8dd-4133-bc0b-49e36f1f3b0a"},"vehicle_type_id":"4","last_reported":1699726074,"current_range_meters":32000,"station_id":"ce4bhnp2rcd13ifvqgvg","pricing_plan_id":"free"},{"bike_id":"2e13364f-9996-4dd9-b5b3-f3906830f9ba","system_id":"levelo_inurba_marseille","lat":43.239588,"lon":5.366238,"is_reserved":false,"is_disabled":false,"rental_uris":{"android":"levelo://app?vid=2e13364f-9996-4dd9-b5b3-f3906830f9ba","ios":"levelo://app?vid=2e13364f-9996-4dd9-b5b3-f3906830f9ba"},"vehicle_type_id":"4","last_reported":1699726074,"current_range_meters":30000,"station_id":"ce4bhi12rcd13ifvqfp0","pricing_plan_id":"free"},{"bike_id":"554abc78-6a46-41da-9209-e0095f569196","system_id":"levelo_inurba_marseille","lat":43.239588,"lon":5.366238,"is_reserved":false,"is_disabled":false,"rental_uris":{"android":"levelo://app?vid=554abc78-6a46-41da-9209-e0095f569196","ios":"levelo://app?vid=554abc78-6a46-41da-9209-e0095f569196"},"vehicle_type_id":"4","last_reported":1699726074,"current_range_meters":22400,"station_id":"ce4bhi12rcd13ifvqfp0","pricing_plan_id":"free"},{"bike_id":"63accfe7-296c-4641-9b23-24bb20ff5c6e","system_id":"levelo_inurba_marseille","lat":43.241782,"lon":5.397261,"is_reserved":false,"is_disabled":false,"rental_uris":{"android":"levelo://app?vid=63accfe7-296c-4641-9b23-24bb20ff5c6e","ios":"levelo://app?vid=63accfe7-296c-4641-9b23-24bb20ff5c6e"},"vehicle_type_id":"4","last_reported":1699726074,"current_range_meters":28000,"station_id":"ce4bhn12rcd13ifvqgpg","pricing_plan_id":"free"},