{"last_updated":1727367067,"ttl":60,"version":"2.2","data":{"bikes":[{"bike_id":"5b774f1a-9af8-41e7-b65a-d1f61b31fe26","system_id":"levelo_inurba_marseille","lat":43.297677,"lon":5.371295,"is_reserved":false,"is_disabled":false,"rental_uris":{"android":"levelo://app?vid=5b774f1a-9af8-41e7-b65a-d1f61b31fe26","ios":"levelo://app?vid=5b774f1a-9af8-41e7-b65a-d1f61b31fe26"},"vehicle_type_id":"4","last_reported":1727367067,"current_range_meters":37600,"station_id":"ce4bgjh2rcd13ifvqbg0","pricing_plan_id":"cebpf4jnsgd1na2vs0mg"},{"bike_id":"0b2b5427-161f-4218-aed7-5bd8d3705d67","system_id":"levelo_inurba_marseille","lat":43.28032,"lon":5.36944,"is_reserved":false,"is_disabled":false,"rental_uris":{"android":"levelo://app?vid=0b2b5427-161f-4218-aed7-5bd8d3705d67","ios":"levelo://app?vid=0b2b5427-161f-4218-aed7-5bd8d3705d67"},"vehicle_type_id":"4","last_reported":1727367067,"current_range_meters":28400,"station_id":"ce4bha12rcd13ifvqef0","pricing_plan_id":"cebpf4jnsgd1na2vs0mg"},{"bike_id":"50c92ef1-65ec-4bda-a72c-6b4e47b098e7","system_id":"levelo_inurba_marseille","lat":43.30796,"lon":5.38154,"is_reserved":false,"is_disabled":false,"rental_uris":{"android":"levelo://app?vid=50c92ef1-65ec-4bda-a72c-6b4e47b098e7","ios":"levelo://app?vid=50c92ef1-65ec-4bda-a72c-6b4e47b098e7"},"vehicle_type_id":"4","last_reported":1727367067,"current_range_meters":28000,"station_id":"ce4bgt12rcd13ifvqce0","pricing_plan_id":"cebpf4jnsgd1na2vs0mg"},{"bike_id":"6e471fcb-4a18-470d-9198-9ed3f0ed1cee","system_id":"levelo_inurba_marseille","lat":43.29794,"lon":5.40397,"is_reserved":false,"is_disabled":false,"rental_uris":{"android":"levelo://app?vid=6e471fcb-4a18-470d-9198-9ed3f0ed1cee","ios":"levelo://app?vid=6e471fcb-4a18-470d-9198-9ed3f0ed1cee"},"vehicle_type_id":"4","last_reported":1727367067,"current_range_meters":8400,"station_id":"ce4bh112rcd13ifvqd90","pricing_plan_id":"cebpf4jnsgd1na2vs0mg"},{"bike_id":"a9669d3a-c989-4bbf-988b-b787f6909497","system_id":"levelo_inurba_marseille","lat":43.32666,"lon":5.40988,"is_reserved":false,"is_disabled":false,"rental_uris":{"android":"levelo://app?vid=a9669d3a-c989-4bbf-988b-b787f6909497","ios":"levelo://app?vid=a9669d3a-c989-4bbf-988b-b787f6909497"},"vehicle_type_id":"4","last_reported":1727367067,"current_range_meters":38800,"station_id":"ce4bhpp2rcd13ifvqhgg","pricing_plan_id":"cebpf4jnsgd1na2vs0mg"},{"bike_id":"b2d736cc-c34c-4c3b-8b0b-44c1161d8284","system_id":"levelo_inurba_marseille","lat":43.29527,"lon":5.39044,"is_reserved":false,"is_disabled":false,"rental_uris":{"android":"levelo://app?vid=b2d736cc-c34c-4c3b-8b0b-44c1161d8284","ios":"levelo://app?vid=b2d736cc-c34c-4c3b-8b0b-44c1161d8284"},"vehicle_type_id":"4","last_reported":1727367067,"current_range_meters":38000,"station_id":"ce4bh3p2rcd13ifvqdp0","pricing_plan_id":"cebpf4jnsgd1na2vs0mg"},{"bike_id":"eb1cfcaf-8305-42c5-99a6-62b327971527","system_id":"levelo_inurba_marseille","lat":43.24814,"lon":5.37456,"is_reserved":false,"is_disabled":false,"rental_uris":{"android":"levelo://app?vid=eb1cfcaf-8305-42c5-99a6-62b327971527","ios":"levelo://app?vid=eb1cfcaf-8305-42c5-99a6-62b327971527"},"vehicle_type_id":"4","last_reported":1727367067,"current_range_meters":38800,"station_id":"ce4bhgh2rcd13ifvqfb0","pricing_plan_id":"cebpf4jnsgd1na2vs0mg"},{"bike_id":"de566fec-c1ec-44e7-a0e9-074f5a4a0f57","system_id":"levelo_inurba_marseille","lat":43.30415,"lon":5.41287,"is_reserved":false,"is_disabled":false,"rental_uris":{"android":"levelo://app?vid=de566fec-c1ec-44e7-a0e9-074f5a4a0f57","ios":"levelo://app?vid=de566fec-c1ec-44e7-a0e9-074f5a4a0f57"},"vehicle_type_id":"4","last_reported":1727367067,"current_range_meters":35200,"station_id":"ce4bhop2rcd13ifvqh8g","pricing_plan_id":"cebpf4jnsgd1na2vs0mg"},{"bike_id":"8fa652bf-96f2-4b67-a880-3c2435cf0750","system_id":"levelo_inurba_marseille","lat":43.249847,"lon":5.375276,"is_reserved":false,"is_disabled":false,"rental_uris":{"android":"levelo://app?vid=8fa652bf-96f2-4b67-a880-3c2435cf0750","ios":"levelo://app?vid=8fa652bf-96f2-4b67-a880-3c2435cf0750"},"vehicle_type_id":"4","last_reported":1727367067,"current_range_meters":7200,"station_id":"ce4bhh92rcd13ifvqfj0","pricing_plan_id":"cebpf4jnsgd1na2vs0mg"},{"bike_id":"827b708d-16d6-47d5-be38-9309a90d6365","system_id":"levelo_inurba_marseille","lat":43.29849,"lon":5.36279,"is_reserved":false,"is_disabled":false,"rental_uris":{"android":"levelo://app?vid=827b708d-16d6-47d5-be38-9309a90d6365","ios":"levelo://app?vid=827b708d-16d6-47d5-be38-9309a90d6365"},"vehicle_type_id":"4","last_reported":1727367067,"current_range_meters":9600,"station_id":"ce4bgpp2rcd13ifvqc3g","pricing_plan_id":"cebpf4jnsgd1na2vs0mg"},{"bike_id":"f629ad6c-c123-4114-926b-b043ad8e3fc9","system_id":"levelo_inurba_marseille","lat":43.295226,"lon":5.390414,"is_reserved":false,"is_disabled":false,"rental_uris":{"android":"levelo://app?vid=f629ad6c-c123-4114-926b-b043ad8e3fc9","ios":"levelo://app?vid=f629ad6c-c123-4114-926b-b043ad8e3fc9"},"vehicle_type_id":"4","last_reported":1727367067,"current_range_meters":8800,"station_id":"ce4bh3p2rcd13ifvqdp0","pricing_plan_id":"cebpf4jnsgd1na2vs0mg"},{"bike_id":"7737b815-6daf-41f0-8354-4b28ba75917f","system_id":"levelo_inurba_marseille","lat":43.301906,"lon":5.398212,"is_reserved":false,"is_disabled":false,"rental_uris":{"android":"levelo://app?vid=7737b815-6daf-41f0-8354-4b28ba75917f","ios":"levelo://app?vid=7737b815-6daf-41f0-8354-4b28ba75917f"},"vehicle_type_id":"4","last_reported":1727367067,"current_range_meters":10800,"station_id":"ce4bgvp2rcd13ifvqct0","pricing_plan_id":"cebpf4jnsgd1na2vs0mg"},{"bike_id":"b6daf4df-7c90-4c5e-b397-06a87d15013f","system_id":"levelo_inurba_marseille","lat":43.33752,"lon":5.37361,"is_reserved":false,"is_disabled":false,"rental_uris":{"android":"levelo://app?vid=b6daf4df-7c90-4c5e-b397-06a87d15013f","ios":"levelo://app?vid=b6daf4df-7c90-4c5e-b397-06a87d15013f"},"vehicle_type_id":"4","last_reported":1727367067,"current_range_meters":30800,"station_id":"","pricing_plan_id":"cebpf4jnsgd1na2vs0mg"},{"bike_id":"3edd9b76-7722-41b9-92f4-d56e26ea17a6","system_id":"levelo_inurba_marseille","lat":43.27995,"lon":5.40008,"is_reserved":false,"is_disabled":false,"rental_uris":{"android":"levelo://app?vid=3edd9b76-7722-41b9-92f4-d56e26ea17a6","ios":"levelo://app?vid=3edd9b76-7722-41b9-92f4-d56e26ea17a6"},"vehicle_type_id":"4","last_reported":1727367067,"current_range_meters":39200,"station_id":"ce4bho92rcd13ifvqh4g","pricing_plan_id":"cebpf4jnsgd1na2vs0mg"},{"bike_id":"289c9d96-eb99-4235-bc28-477f33f8c391","system_id":"levelo_inurba_marseille","lat":43.31712,"lon":5.43705,"is_reserved":false,"is_disabled":false,"rental_uris":{"android":"levelo://app?vid=289c9d96-eb99-4235-bc28-477f33f8c391","ios":"levelo://app?vid=289c9d96-eb99-4235-bc28-477f33f8c391"},"vehicle_type_id":"4","last_reported":1727367067,"current_range_meters":18800,"station_id":"ce4bhp92rcd13ifvqhcg","pricing_plan_id":"cebpf4jnsgd1na2vs0mg"},{"bike_id":"e3c5fbbf-73cf-4f2d-b2d6-f67ffdb80c53","system_id":"levelo_inurba_marseille","lat":43.3303,"lon":5.39036,"is_reserved":false,"is_disabled":false,"rental_uris":{"android":"levelo://app?vid=e3c5fbbf-73cf-4f2d-b2d6-f67ffdb80c53","ios":"levelo://app?vid=e3c5fbbf-73cf-4f2d-b2d6-f67ffdb80c53"},"vehicle_type_id":"4","last_reported":1727367067,"current_range_meters":28400,"station_id":"ce4bhr92rcd13ifvqhrg","pricing_plan_id":"cebpf4jnsgd1na2vs0mg"},{"bike_id":"48293452-34eb-4ff6-9113-3eaa9fc6d130","system_id":"levelo_inurba_marseille","lat":43.31532,"lon":5.38034,"is_reserved":false,"is_disabled":false,"rental_uris":{"android":"levelo://app?vid=48293452-34eb-4ff6-9113-3eaa9fc6d130","ios":"levelo://app?vid=48293452-34eb-4ff6-9113-3eaa9fc6d130"},"vehicle_type_id":"4","last_reported":1727367067,"current_range_meters":38800,"station_id":"ce4bhsp2rcd13ifvqi50","pricing_plan_id":"cebpf4jnsgd1na2vs0mg"},{"bike_id":"57bc1e84-e83e-4198-85b5-3e7f9c3f0b0b","system_id":"levelo_inurba_marseille","lat":43.24167,"lon":5.36392,"is_reserved":false,"is_disabled":false,"rental_uris":{"android":"levelo://app?vid=57bc1e84-e83e-4198-85b5-3e7f9c3f0b0b","ios":"levelo://app?vid=57bc1e84-e83e-4198-85b5-3e7f9c3f0b0b"},"vehicle_type_id":"4","last_reported":1727367067,"current_range_meters":27200,"station_id":"cpo36qri1sfpv3e86is0","pricing_plan_id":"cebpf4jnsgd1na2vs0mg"},{"bike_id":"7a8458d5-44ac-4f2e-abef-3f01eb31f7ca","system_id":"levelo_inurba_marseille","lat":43.337444,"lon":5.374475,"is_reserved":false,"is_disabled":false,"rental_uris":{"android":"levelo://app?vid=7a8458d5-44ac-4f2e-abef-3f01eb31f7ca","ios":"levelo://app?vid=7a8458d5-44ac-4f2e-abef-3f01eb31f7ca"},"vehicle_type_id":"4","last_reported":1727367067,"current_range_meters":20400,"station_id":"","pricing_plan_id":"cebpf4jnsgd1na2vs0mg"},{"bike_id":"245322ad-98ce-4a03-920e-f8861ea4255a","system_id":"levelo_inurba_marseille","lat":43.23067,"lon":5.35491,"is_reserved":false,"is_disabled":false,"rental_uris":{"android":"levelo://app?vid=245322ad-98ce-4a03-920e-f8861ea4255a","ios":"levelo://app?vid=245322ad-98ce-4a03-920e-f8861ea4255a"},"vehicle_type_id":"4","last_reported":1727367067,"current_range_meters":5600,"station_id":"cpo3342slgdg3j2ifvpg","pricing_plan_id":"cebpf4jnsgd1na2vs0mg"},{"bike_id":"d59b21f0-7bec-4115-9189-e54b54589187","system_id":"levelo_inurba_marseille","lat":43.31704,"lon":5.37768,"is_reserved":false,"is_disabled":false,"rental_uris":{"android":"levelo://app?vid=d59b21f0-7bec-4115-9189-e54b54589187","ios":"levelo://app?vid=d59b21f0-7bec-4115-9189-e54b54589187"},"vehicle_type_id":"4","last_reported":1727367067,"current_range_meters":8800,"station_id":"ce4bgth2rcd13ifvqch0","pricing_plan_id":"cebpf4jnsgd1na2vs0mg"},{"bike_id":"0ff4805d-5eb0-413d-9fd8-adffbbf2ce16","system_id":"levelo_inurba_marseille","lat":43.29851,"lon":5.36277,"is_reserved":false,"is_disabled":false,"rental_uris":{"android":"levelo://app?vid=0ff4805d-5eb0-413d-9fd8-adffbbf2ce16","ios":"levelo://app?vid=0ff4805d-5eb0-413d-9fd8-adffbbf2ce16"},"vehicle_type_id":"4","last_reported":1727367067,"current_range_meters":39200,"station_id":"ce4bgpp2rcd13ifvqc3g","pricing_plan_id":"cebpf4jnsgd1na2vs0mg"},{"bike_id":"01d06107-37b7-4baf-956e-79d5b3b2f001","system_id":"levelo_inurba_marseille","lat":43.27215,"lon":5.39182,"is_reserved":false,"is_disabled":false,"rental_uris":{"android":"levelo://app?vid=01d06107-37b7-4baf-956e-79d5b3b2f001","ios":"levelo://app?vid=01d06107-37b7-4baf-956e-79d5b3b2f001"},"vehicle_type_id":"4","last_reported":1727367067,"current_range_meters":13600,"station_id":"ce4bh112rcd13ifvqda0","pricing_plan_id":"cebpf4jnsgd1na2vs0mg"},{"bike_id":"78118f0d-105e-44e6-9447-780a401a358d","system_id":"levelo_inurba_marseille","lat":43.29268,"lon":5.38441,"is_reserved":false,"is_disabled":false,"rental_uris":{"android":"levelo://app?vid=78118f0d-105e-44e6-9447-780a401a358d","ios":"levelo://app?vid=78118f0d-105e-44e6-9447-780a401a358d"},"vehicle_type_id":"4","last_reported":1727367067,"current_range_meters":8000,"station_id":"ce4bh692rcd13ifvqea0","pricing_plan_id":"cebpf4jnsgd1na2vs0mg"},{"bike_id":"255f1987-104b-404d-963b-06570237d068","system_id":"levelo_inurba_marseille","lat":43.293129,"lon":5.37173,"is_reserved":false,"is_disabled":false,"rental_uris":{"android":"levelo://app?vid=255f1987-104b-404d-963b-06570237d068","ios":"levelo://app?vid=255f1987-104b-404d-963b-06570237d068"},"vehicle_type_id":"4","last_reported":1727367067,"current_range_meters":16400,"station_id":"ce4bgup2rcd13ifvqcn0","pricing_plan_id":"cebpf4jnsgd1na2vs0mg"},{"bike_id":"8d17f10b-cb18-4a62-9a7c-043318106e2d","system_id":"levelo_inurba_marseille","lat":43.30213,"lon":5.36636,"is_reserved":false,"is_disabled":false,"rental_uris":{"android":"levelo://app?vid=8d17f10b-cb18-4a62-9a7c-043318106e2d","ios":"levelo://app?vid=8d17f10b-cb18-4a62-9a7c-043318106e2d"},"vehicle_type_id":"4","last_reported":1727367067,"current_range_meters":7200,"station_id":"ce4bgrh2rcd13ifvqc8g","pricing_plan_id":"cebpf4jnsgd1na2vs0mg"},{"bike_id":"d3ebba82-3747-4270-8303-6c6d444e6a6b","system_id":"levelo_inurba_marseille","lat":43.29953,"lon":5.41313,"is_reserved":false,"is_disabled":false,"rental_uris":{"android":"levelo://app?vid=d3ebba82-3747-4270-8303-6c6d444e6a6b","ios":"levelo://app?vid=d3ebba82-3747-4270-8303-6c6d444e6a6b"},"vehicle_type_id":"4","last_reported":1727367067,"current_range_meters":16800,"station_id":"ce4bhp12rcd13ifvqh9g","pricing_plan_id":"cebpf4jnsgd1na2vs0mg"},{"bike_id":"7b3b1c52-4f5d-433e-a48a-e22d65163dc5","system_id":"levelo_inurba_marseille","lat":43.28269,"lon":5.35074,"is_reserved":false,"is_disabled":false,"rental_uris":{"android":"levelo://app?vid=7b3b1c52-4f5d-433e-a48a-e22d65163dc5","ios":"levelo://app?vid=7b3b1c52-4f5d-433e-a48a-e22d65163dc5"},"vehicle_type_id":"4","last_reported":1727367067,"current_range_meters":11200,"station_id":"ce4bhbp2rcd13ifvqerg","pricing_plan_id":"cebpf4jnsgd1na2vs0mg"},{"bike_id":"20599475-21c1-422b-baf8-0786d938f058","system_id":"levelo_inurba_marseille","lat":43.31701,"lon":5.37756,"is_reserved":false,"is_disabled":false,"rental_uris":{"android":"levelo://app?vid=20599475-21c1-422b-baf8-0786d938f058","ios":"levelo://app?vid=20599475-21c1-422b-baf8-0786d938f058"},"vehicle_type_id":"4","last_reported":1727367067,"current_range_meters":21600,"station_id":"ce4bgth2rcd13ifvqch0","pricing_plan_id":"cebpf4jnsgd1na2vs0mg"},{"bike_id":"e11b86ab-9e25-43d2-be97-de215648e43f","system_id":"levelo_inurba_marseille","lat":43.27811,"lon":5.40713,"is_reserved":false,"is_disabled":false,"rental_uris":{"android":"levelo://app?vid=e11b86ab-9e25-43d2-be97-de215648e43f","ios":"levelo://app?vid=e11b86ab-9e25-43d2-be97-de215648e43f"},"vehicle_type_id":"4","last_reported":1727367067,"current_range_meters":20000,"station_id":"ce4bhnh2rcd13ifvqgtg","pricing_plan_id":"cebpf4jnsgd1na2vs0mg"},{"bike_id":"82c9b378-0844-46ec-9cb7-b992a834a84f","system_id":"levelo_inurba_marseille","lat":43.31325,"lon":5.39694,"is_reserved":false,"is_disabled":false,"rental_uris":{"android":"levelo://app?vid=82c9b378-0844-46ec-9cb7-b992a834a84f","ios":"levelo://app?vid=82c9b378-0844-46ec-9cb7-b992a834a84f"},"vehicle_type_id":"4","last_reported":1727367067,"current_range_meters":11200,"station_id":"ce4bgvp2rcd13ifvqcu0","pricing_plan_id":"cebpf4jnsgd1na2vs0mg"},{"bike_id":"79a05bb1-ccec-47f0-8ebd-1f95854549f8","system_id":"levelo_inurba_marseille","lat":43.31282,"lon":5.380327,"is_reserved":false,"is_disabled":false,"rental_uris":{"android":"levelo://app?vid=79a05bb1-ccec-47f0-8ebd-1f95854549f8","ios":"levelo://app?vid=79a05bb1-ccec-47f0-8ebd-1f95854549f8"},"vehicle_type_id":"4","last_reported":1727367067,"current_range_meters":6400,"station_id":"","pricing_plan_id":"cebpf4jnsgd1na2vs0mg"},{"bike_id":"861ba51c-6a6b-46a6-947c-51f003818291","system_id":"levelo_inurba_marseille","lat":43.32364,"lon":5.38884,"is_reserved":false,"is_disabled":false,"rental_uris":{"android":"levelo://app?vid=861ba51c-6a6b-46a6-947c-51f003818291","ios":"levelo://app?vid=861ba51c-6a6b-46a6-947c-51f003818291"},"vehicle_type_id":"4","last_reported":1727367067,"current_range_meters":13600,"station_id":"ce4bhqp2rcd13ifvqhog","pricing_plan_id":"cebpf4jnsgd1na2vs0mg"},{"bike_id":"fcf70341-bf10-4301-b0d9-989fdf0a1a4d","system_id":"levelo_inurba_marseille","lat":43.25584,"lon":5.38227,"is_reserved":false,"is_disabled":false,"rental_uris":{"android":"levelo://app?vid=fcf70341-bf10-4301-b0d9-989fdf0a1a4d","ios":"levelo://app?vid=fcf70341-bf10-4301-b0d9-989fdf0a1a4d"},"vehicle_type_id":"4","last_reported":1727367067,"current_range_meters":8800,"station_id":"ce4bhih2rcd13ifvqfs0","pricing_plan_id":"cebpf4jnsgd1na2vs0mg"},{"bike_id":"319fb351-284f-4339-9cf0-40396f7c3e7a","system_id":"levelo_inurba_marseille","lat":43.29043,"lon":5.35933,"is_reserved":false,"is_disabled":false,"rental_uris":{"android":"levelo://app?vid=319fb351-284f-4339-9cf0-40396f7c3e7a","ios":"levelo://app?vid=319fb351-284f-4339-9cf0-40396f7c3e7a"},"vehicle_type_id":"4","last_reported":1727367067,"current_range_meters":3200,"station_id":"ce4bha92rcd13ifvqeg0","pricing_plan_id":"cebpf4jnsgd1na2vs0mg"},{"bike_id":"e6d9e707-06c7-4a85-a4d5-af75297ab38f","system_id":"levelo_inurba_marseille","lat":43.25814,"lon":5.39437,"is_reserved":false,"is_disabled":false,"rental_uris":{"android":"levelo://app?vid=e6d9e707-06c7-4a85-a4d5-af75297ab38f","ios":"levelo://app?vid=e6d9e707-06c7-4a85-a4d5-af75297ab38f"},"vehicle_type_id":"4","last_reported":1727367067,"current_range_meters":13600,"station_id":"ce4bhip2rcd13ifvqft0","pricing_plan_id":"cebpf4jnsgd1na2vs0mg"},{"bike_id":"89e7dedb-87b3-4227-a9f3-f889cd8070d6","system_id":"levelo_inurba_marseille","lat":43.29645,"lon":5.38022,"is_reserved":false,"is_disabled":false,"rental_uris":{"android":"levelo://app?vid=89e7dedb-87b3-4227-a9f3-f889cd8070d6","ios":"levelo://app?vid=89e7dedb-87b3-4227-a9f3-f889cd8070d6"},"vehicle_type_id":"4","last_reported":1727367067,"current_range_meters":37600,"station_id":"","pricing_plan_id":"cebpf4jnsgd1na2vs0mg"},{"bike_id":"0a1c918b-919a-4707-9f0f-e55374d2af01","system_id":"levelo_inurba_marseille","lat":43.323404,"lon":5.40625,"is_reserved":false,"is_disabled":false,"rental_uris":{"android":"levelo://app?vid=0a1c918b-919a-4707-9f0f-e55374d2af01","ios":"levelo://app?vid=0a1c918b-919a-4707-9f0f-e55374d2af01"},"vehicle_type_id":"4","last_reported":1727367067,"current_range_meters":10000,"station_id":"ce4bhq92rcd13ifvqhjg","pricing_plan_id":"cebpf4jnsgd1na2vs0mg"},{"bike_id":"825dd3c1-923c-41c8-bf28-5f5e8f4efb8a","system_id":"levelo_inurba_marseille","lat":43.28464,"lon":5.35891,"is_reserved":false,"is_disabled":false,"rental_uris":{"android":"levelo://app?vid=825dd3c1-923c-41c8-bf28-5f5e8f4efb8a","ios":"levelo://app?vid=825dd3c1-923c-41c8-bf28-5f5e8f4efb8a"},"vehicle_type_id":"4","last_reported":1727367067,"current_range_meters":30800,"station_id":"ce4bhah2rcd13ifvqei0","pricing_plan_id":"cebpf4jnsgd1na2vs0mg"},{"bike_id":"8ea19e1d-542e-4c36-8ef4-1214facb9816","system_id":"levelo_inurba_marseille","lat":43.2395,"lon":5.36636,"is_reserved":false,"is_disabled":false,"rental_uris":{"android":"levelo://app?vid=8ea19e1d-542e-4c36-8ef4-1214facb9816","ios":"levelo://app?vid=8ea19e1d-542e-4c36-8ef4-1214facb9816"},"vehicle_type_id":"4","last_reported":1727367067,"current_range_meters":38800,"station_id":"ce4bhi12rcd13ifvqfp0","pricing_plan_id":"cebpf4jnsgd1na2vs0mg"},{"bike_id":"f7f10d47-36d2-4ef6-a779-de6df8ca6db3","system_id":"levelo_inurba_marseille","lat":43.29082,"lon":5.37171,"is_reserved":false,"is_disabled":false,"rental_uris":{"android":"levelo://app?vid=f7f10d47-36d2-4ef6-a779-de6df8ca6db3","ios":"levelo://app?vid=f7f10d47-36d2-4ef6-a779-de6df8ca6db3"},"vehicle_type_id":"4","last_reported":1727367067,"current_range_meters":9200,"station_id":"ce4bh5p2rcd13ifvqe4g","pricing_plan_id":"cebpf4jnsgd1na2vs0mg"},{"bike_id":"d282e7b5-14a3-4313-b024-72bd786979f5","system_id":"levelo_inurba_marseille","lat":43.3237,"lon":5.38883,"is_reserved":false,"is_disabled":false,"rental_uris":{"android":"levelo://app?vid=d282e7b5-14a3-4313-b024-72bd786979f5","ios":"levelo://app?vid=d282e7b5-14a3-4313-b024-72bd786979f5"},"vehicle_type_id":"4","last_reported":1727367067,"current_range_meters":4000,"station_id":"ce4bhqp2rcd13ifvqhog","pricing_plan_id":"cebpf4jnsgd1na2vs0mg"},{"bike_id":"f3bf7448-e739-4978-bd33-4a56cc415f41","system_id":"levelo_inurba_marseille","lat":43.34418,"lon":5.36621,"is_reserved":false,"is_disabled":false,"rental_uris":{"android":"levelo://app?vid=f3bf7448-e739-4978-bd33-4a56cc415f41","ios":"levelo://app?vid=f3bf7448-e739-4978-bd33-4a56cc415f41"},"vehicle_type_id":"4","last_reported":1727367067,"current_range_meters":24400,"station_id":"","pricing_plan_id":"cebpf4jnsgd1na2vs0mg"},{"bike_id":"afcce393-4271-4ec6-b7bd-9d5dce20ac5a","system_id":"levelo_inurba_marseille","lat":43.29005,"lon":5.35616,"is_reserved":false,"is_disabled":false,"rental_uris":{"android":"levelo://app?vid=afcce393-4271-4ec6-b7bd-9d5dce20ac5a","ios":"levelo://app?vid=afcce393-4271-4ec6-b7bd-9d5dce20ac5a"},"vehicle_type_id":"4","last_reported":1727367067,"current_range_meters":22000,"station_id":"ce4bhb92rcd13ifvqen0","pricing_plan_id":"cebpf4jnsgd1na2vs0mg"},{"bike_id":"4bce8fcb-7f1d-47d7-af21-a98b54a6588f","system_id":"levelo_inurba_marseille","lat":43.2718,"lon":5.4099,"is_reserved":false,"is_disabled":false,"rental_uris":{"android":"levelo://app?vid=4bce8fcb-7f1d-47d7-af21-a98b54a6588f","ios":"levelo://app?vid=4bce8fcb-7f1d-47d7-af21-a98b54a6588f"},"vehicle_type_id":"4","last_reported":1727367067,"current_range_meters":34000,"station_id":"ce4bhl12rcd13ifvqgf0","pricing_plan_id":"cebpf4jnsgd1na2vs0mg"},{"bike_id":"99f6d6a9-bf96-4a2f-bbb6-2a14aef6dba7","system_id":"levelo_inurba_marseille","lat":43.3055,"lon":5.38425,"is_reserved":false,"is_disabled":false,"rental_uris":{"android":"levelo://app?vid=99f6d6a9-bf96-4a2f-bbb6-2a14aef6dba7","ios":"levelo://app?vid=99f6d6a9-bf96-4a2f-bbb6-2a14aef6dba7"},"vehicle_type_id":"4","last_reported":1727367067,"current_range_meters":12400,"station_id":"ce4bgg92rcd13ifvqb30","pricing_plan_id":"cebpf4jnsgd1na2vs0mg"},{"bike_id":"52a28ecf-f5e4-4239-87fb-506091f9a714","system_id":"levelo_inurba_marseille","lat":43.26679,"lon":5.38268,"is_reserved":false,"is_disabled":false,"rental_uris":{"android":"levelo://app?vid=52a28ecf-f5e4-4239-87fb-506091f9a714","ios":"levelo://app?vid=52a28ecf-f5e4-4239-87fb-506091f9a714"},"vehicle_type_id":"4","last_reported":1727367067,"current_range_meters":34000,"station_id":"ce4bhg92rcd13ifvqf90","pricing_plan_id":"cebpf4jnsgd1na2vs0mg"},{"bike_id":"2ad7e519-0fd7-41e8-8a0e-8a418ef3dadf","system_id":"levelo_inurba_marseille","lat":43.2417,"lon":5.3639,"is_reserved":false,"is_disabled":false,"rental_uris":{"android":"levelo://app?vid=2ad7e519-0fd7-41e8-8a0e-8a418ef3dadf","ios":"levelo://app?vid=2ad7e519-0fd7-41e8-8a0e-8a418ef3dadf"},"vehicle_type_id":"4","last_reported":1727367067,"current_range_meters":28400,"station_id":"cpo36qri1sfpv3e86is0","pricing_plan_id":"cebpf4jnsgd1na2vs0mg"},{"bike_id":"b0a5c5c8-b96f-4d5c-ad0a-9a4c9139d21f","system_id":"levelo_inurba_marseille","lat":43.29785,"lon":5.37108,"is_reserved":false,"is_disabled":false,"rental_uris":{"android":"levelo://app?vid=b0a5c5c8-b96f-4d5c-ad0a-9a4c9139d21f","ios":"levelo://app?vid=b0a5c5c8-b96f-4d5c-ad0a-9a4c9139d21f"},"vehicle_type_id":"4","last_reported":1727367067,"current_range_meters":18000,"station_id":"ce4bgop2rcd13ifvqc1g","pricing_plan_id":"cebpf4jnsgd1na2vs0mg"},{"bike_id":"abcff17d-391b-482e-9a92-04a952a22cb4","system_id":"levelo_inurba_marseille","lat":43.27068,"lon":5.42279,"is_reserved":false,"is_disabled":false,"rental_uris":{"android":"levelo://app?vid=abcff17d-391b-482e-9a92-04a952a22cb4","ios":"levelo://app?vid=abcff17d-391b-482e-9a92-04a952a22cb4"},"vehicle_type_id":"4","last_reported":1727367067,"current_range_meters":24000,"station_id":"ce4bhk92rcd13ifvqgb0","pricing_plan_id":"cebpf4jnsgd1na2vs0mg"},{"bike_id":"0a735f38-e84e-4535-91db-01d3602aa01c","system_id":"levelo_inurba_marseille","lat":43.295819,"lon":5.375085,"is_reserved":false,"is_disabled":false,"rental_uris":{"android":"levelo://app?vid=0a735f38-e84e-4535-91db-01d3602aa01c","ios":"levelo://app?vid=0a735f38-e84e-4535-91db-01d3602aa01c"},"vehicle_type_id":"4","last_reported":1727367067,"current_range_meters":19600,"station_id":"ce4bgh92rcd13ifvqb50","pricing_plan_id":"cebpf4jnsgd1na2vs0mg"},{"bike_id":"2db7c765-c3e6-41b0-9a7c-4b0a56d6d961","system_id":"levelo_inurba_marseille","lat":43.31762,"lon":5.39016,"is_reserved":false,"is_disabled":false,"rental_uris":{"android":"levelo://app?vid=2db7c765-c3e6-41b0-9a7c-4b0a56d6d961","ios":"levelo://app?vid=2db7c765-c3e6-41b0-9a7c-4b0a56d6d961"},"vehicle_type_id":"4","last_reported":1727367067,"current_range_meters":32000,"station_id":"ce4bhqp2rcd13ifvqhng","pricing_plan_id":"cebpf4jnsgd1na2vs0mg"},{"bike_id":"26155480-acaf-42d9-8841-ed0fe5dbdc7d","system_id":"levelo_inurba_marseille","lat":43.31178,"lon":5.38717,"is_reserved":false,"is_disabled":false,"rental_uris":{"android":"levelo://app?vid=26155480-acaf-42d9-8841-ed0fe5dbdc7d","ios":"levelo://app?vid=26155480-acaf-42d9-8841-ed0fe5dbdc7d"},"vehicle_type_id":"4","last_reported":1727367067,"current_range_meters":27600,"station_id":"ce4bgv12rcd13ifvqcp0","pricing_plan_id":"cebpf4jnsgd1na2vs0mg"},{"bike_id":"26a04b40-19b7-4281-b5d5-b683292f7600","system_id":"levelo_inurba_marseille","lat":43.32484,"lon":5.36573,"is_reserved":false,"is_disabled":false,"rental_uris":{"android":"levelo://app?vid=26a04b40-19b7-4281-b5d5-b683292f7600","ios":"levelo://app?vid=26a04b40-19b7-4281-b5d5-b683292f7600"},"vehicle_type_id":"4","last_reported":1727367067,"current_range_meters":3200,"station_id":"ce4bhs12rcd13ifvqhvg","pricing_plan_id":"cebpf4jnsgd1na2vs0mg"},{"bike_id":"d7c053a7-7701-46ac-b215-a5b53821d048","system_id":"levelo_inurba_marseille","lat":43.2816,"lon":5.42642,"is_reserved":false,"is_disabled":false,"rental_uris":{"android":"levelo://app?vid=d7c053a7-7701-46ac-b215-a5b53821d048","ios":"levelo://app?vid=d7c053a7-7701-46ac-b215-a5b53821d048"},"vehicle_type_id":"4","last_reported":1727367067,"current_range_meters":39200,"station_id":"ce4bhnh2rcd13ifvqgug","pricing_plan_id":"cebpf4jnsgd1na2vs0mg"},{"bike_id":"12bb2fa0-def4-44f9-9009-061dd94ed221","system_id":"levelo_inurba_marseille","lat":43.24169,"lon":5.3639,"is_reserved":false,"is_disabled":false,"rental_uris":{"android":"levelo://app?vid=12bb2fa0-def4-44f9-9009-061dd94ed221","ios":"levelo://app?vid=12bb2fa0-def4-44f9-9009-061dd94ed221"},"vehicle_type_id":"4","last_reported":1727367067,"current_range_meters":8000,"station_id":"cpo36qri1sfpv3e86is0","pricing_plan_id":"cebpf4jnsgd1na2vs0mg"},{"bike_id":"0e1d5774-c491-4534-8599-aa978b9548dd","system_id":"levelo_inurba_marseille","lat":43.3065,"lon":5.40088,"is_reserved":false,"is_disabled":false,"rental_uris":{"android":"levelo://app?vid=0e1d5774-c491-4534-8599-aa978b9548dd","ios":"levelo://app?vid=0e1d5774-c491-4534-8599-aa978b9548dd"},"vehicle_type_id":"4","last_reported":1727367067,"current_range_meters":8400,"station_id":"ce4bh112rcd13ifvqda0","pricing_plan_id":"cebpf4jnsgd1na2vs0mg"},{"bike_id":"e15a9921-7516-49b4-9258-e6612f6b743a","system_id":"levelo_inurba_marseille","lat":43.2318,"lon":5.39988,"is_reserved":false,"is_disabled":false,"rental_uris":{"android":"levelo://app?vid=e15a9921-7516-49b4-9258-e6612f6b743a","ios":"levelo://app?vid=e15a9921-7516-49b4-9258-e6612f6b743a"},"vehicle_type_id":"4","last_reported":1727367067,"current_range_meters":7200,"station_id":"ce4bhn12rcd13ifvqgqg","pricing_plan_id":"cebpf4jnsgd1na2vs0mg"},{"bike_id":"f272c66f-55c0-44be-9174-4a9acc133451","system_id":"levelo_inurba_marseille","lat":43.29009,"lon":5.35615,"is_reserved":false,"is_disabled":false,"rental_uris":{"android":"levelo://app?vid=f272c66f-55c0-44be-9174-4a9acc133451","ios":"levelo://app?vid=f272c66f-55c0-44be-9174-4a9acc133451"},"vehicle_type_id":"4","last_reported":1727367067,"current_range_meters":30000,"station_id":"ce4bhb92rcd13ifvqen0","pricing_plan_id":"cebpf4jnsgd1na2vs0mg"},{"bike_id":"6ffa163c-a476-46d2-ad24-0c23cc9e38cf","system_id":"levelo_inurba_marseille","lat":43.27192,"lon":5.4099,"is_reserved":false,"is_disabled":false,"rental_uris":{"android":"levelo://app?vid=6ffa163c-a476-46d2-ad24-0c23cc9e38cf","ios":"levelo://app?vid=6ffa163c-a476-46d2-ad24-0c23cc9e38cf"},"vehicle_type_id":"4","last_reported":1727367067,"current_range_meters":9200,"station_id":"ce4bhl12rcd13ifvqgf0","pricing_plan_id":"cebpf4jnsgd1na2vs0mg"},{"bike_id":"0610627c-3c26-4cf9-b337-9c2b3876a1cb","system_id":"levelo_inurba_marseille","lat":43.23967,"lon":5.36631,"is_reserved":false,"is_disabled":false,"rental_uris":{"android":"levelo://app?vid=0610627c-3c26-4cf9-b337-9c2b3876a1cb","ios":"levelo://app?vid=0610627c-3c26-4cf9-b337-9c2b3876a1cb"},"vehicle_type_id":"4","last_reported":1727367067,"current_range_meters":32000,"station_id":"ce4bhi12rcd13ifvqfp0","pricing_plan_id":"cebpf4jnsgd1na2vs0mg"},{"bike_id":"637beff3-55bd-4f15-99c0-4cb53d5dddb9","system_id":"levelo_inurba_marseille","lat":43.30654,"lon":5.39535,"is_reserved":false,"is_disabled":false,"rental_uris":{"android":"levelo://app?vid=637beff3-55bd-4f15-99c0-4cb53d5dddb9","ios":"levelo://app?vid=637beff3-55bd-4f15-99c0-4cb53d5dddb9"},"vehicle_type_id":"4","last_reported":1727367067,"current_range_meters":36400,"station_id":"","pricing_plan_id":"cebpf4jnsgd1na2vs0mg"},{"bike_id":"1cad30aa-ceaa-4d9f-8674-60b6557636ed","system_id":"levelo_inurba_marseille","lat":43.28586,"lon":5.39497,"is_reserved":false,"is_disabled":false,"rental_uris":{"android":"levelo://app?vid=1cad30aa-ceaa-4d9f-8674-60b6557636ed","ios":"levelo://app?vid=1cad30aa-ceaa-4d9f-8674-60b6557636ed"},"vehicle_type_id":"4","last_reported":1727367067,"current_range_meters":6800,"station_id":"ce4bh292rcd13ifvqdg0","pricing_plan_id":"cebpf4jnsgd1na2vs0mg"},{"bike_id":"7d7cd75d-1d78-45ce-9693-6184e9bbcd20","system_id":"levelo_inurba_marseille","lat":43.28459,"lon":5.35875,"is_reserved":false,"is_disabled":false,"rental_uris":{"android":"levelo://app?vid=7d7cd75d-1d78-45ce-9693-6184e9bbcd20","ios":"levelo://app?vid=7d7cd75d-1d78-45ce-9693-6184e9bbcd20"},"vehicle_type_id":"4","last_reported":1727367067,"current_range_meters":24800,"station_id":"ce4bhah2rcd13ifvqei0","pricing_plan_id":"cebpf4jnsgd1na2vs0mg"},{"bike_id":"9066fe7b-1461-4849-8d76-15c416cdcb09","system_id":"levelo_inurba_marseille","lat":43.29532,"lon":5.38538,"is_reserved":false,"is_disabled":false,"rental_uris":{"android":"levelo://app?vid=9066fe7b-1461-4849-8d76-15c416cdcb09","ios":"levelo://app?vid=9066fe7b-1461-4849-8d76-15c416cdcb09"},"vehicle_type_id":"4","last_reported":1727367067,"current_range_meters":30000,"station_id":"ce4bgih2rcd13ifvqba0","pricing_plan_id":"cebpf4jnsgd1na2vs0mg"},{"bike_id":"36448e77-b514-4ef4-80c4-8e1d0e4a4636","system_id":"levelo_inurba_marseille","lat":43.29262,"lon":5.40907,"is_reserved":false,"is_disabled":false,"rental_uris":{"android":"levelo://app?vid=36448e77-b514-4ef4-80c4-8e1d0e4a4636","ios":"levelo://app?vid=36448e77-b514-4ef4-80c4-8e1d0e4a4636"},"vehicle_type_id":"4","last_reported":1727367067,"current_range_meters":2800,"station_id":"ce4bh192rcd13ifvqdc0","pricing_plan_id":"cebpf4jnsgd1na2vs0mg"},{"bike_id":"74ccc687-2461-413c-909c-82df28444b14","system_id":"levelo_inurba_marseille","lat":43.3153,"lon":5.38028,"is_reserved":false,"is_disabled":false,"rental_uris":{"android":"levelo://app?vid=74ccc687-2461-413c-909c-82df28444b14","ios":"levelo://app?vid=74ccc687-2461-413c-909c-82df28444b14"},"vehicle_type_id":"4","last_reported":1727367067,"current_range_meters":23200,"station_id":"ce4bhsp2rcd13ifvqi50","pricing_plan_id":"cebpf4jnsgd1na2vs0mg"},{"bike_id":"4223d274-94bd-43b9-bfe0-03a6dac11310","system_id":"levelo_inurba_marseille","lat":43.30101,"lon":5.39077,"is_reserved":false,"is_disabled":false,"rental_uris":{"android":"levelo://app?vid=4223d274-94bd-43b9-bfe0-03a6dac11310","ios":"levelo://app?vid=4223d274-94bd-43b9-bfe0-03a6dac11310"},"vehicle_type_id":"4","last_reported":1727367067,"current_range_meters":6400,"station_id":"ce4bh192rcd13ifvqdb0","pricing_plan_id":"cebpf4jnsgd1na2vs0mg"},{"bike_id":"e632189e-f00b-4c8e-a411-b9fca6de2347","system_id":"levelo_inurba_marseille","lat":43.29712,"lon":5.37699,"is_reserved":false,"is_disabled":false,"rental_uris":{"android":"levelo://app?vid=e632189e-f00b-4c8e-a411-b9fca6de2347","ios":"levelo://app?vid=e632189e-f00b-4c8e-a411-b9fca6de2347"},"vehicle_type_id":"4","last_reported":1727367067,"current_range_meters":25600,"station_id":"ce4bgkh2rcd13ifvqbl0","pricing_plan_id":"cebpf4jnsgd1na2vs0mg"},{"bike_id":"a622c907-46c5-434d-8fd0-7edd60f6603a","system_id":"levelo_inurba_marseille","lat":43.24386,"lon":5.3706,"is_reserved":false,"is_disabled":false,"rental_uris":{"android":"levelo://app?vid=a622c907-46c5-434d-8fd0-7edd60f6603a","ios":"levelo://app?vid=a622c907-46c5-434d-8fd0-7edd60f6603a"},"vehicle_type_id":"4","last_reported":1727367067,"current_range_meters":11200,"station_id":"ce4bhhh2rcd13ifvqfk0","pricing_plan_id":"cebpf4jnsgd1na2vs0mg"},{"bike_id":"594692ca-a4e4-4b59-a792-e9034c8f2cc4","system_id":"levelo_inurba_marseille","lat":43.310674,"lon":5.400434,"is_reserved":false,"is_disabled":false,"rental_uris":{"android":"levelo://app?vid=594692ca-a4e4-4b59-a792-e9034c8f2cc4","ios":"levelo://app?vid=594692ca-a4e4-4b59-a792-e9034c8f2cc4"},"vehicle_type_id":"4","last_reported":1727367067,"current_range_meters":4800,"station_id":"","pricing_plan_id":"cebpf4jnsgd1na2vs0mg"},{"bike_id":"b38c7c26-f9c7-4c7c-accb-6c4346178c27","system_id":"levelo_inurba_marseille","lat":43.26553,"lon":5.37292,"is_reserved":false,"is_disabled":false,"rental_uris":{"android":"levelo://app?vid=b38c7c26-f9c7-4c7c-accb-6c4346178c27","ios":"levelo://app?vid=b38c7c26-f9c7-4c7c-accb-6c4346178c27"},"vehicle_type_id":"4","last_reported":1727367067,"current_range_meters":38800,"station_id":"ce4bhg12rcd13ifvqf70","pricing_plan_id":"cebpf4jnsgd1na2vs0mg"},{"bike_id":"9ae09cc5-27b5-42d4-b370-6a617a491af6","system_id":"levelo_inurba_marseille","lat":43.26552,"lon":5.37284,"is_reserved":false,"is_disabled":false,"rental_uris":{"android":"levelo://app?vid=9ae09cc5-27b5-42d4-b370-6a617a491af6","ios":"levelo://app?vid=9ae09cc5-27b5-42d4-b370-6a617a491af6"},"vehicle_type_id":"4","last_reported":1727367067,"current_range_meters":38800,"station_id":"ce4bhg12rcd13ifvqf70","pricing_plan_id":"cebpf4jnsgd1na2vs0mg"},{"bike_id":"5f42757e-0014-4f3c-8733-4e8daf25f08e","system_id":"levelo_inurba_marseille","lat":43.29278,"lon":5.36845,"is_reserved":false,"is_disabled":false,"rental_uris":{"android":"levelo://app?vid=5f42757e-0014-4f3c-8733-4e8daf25f08e","ios":"levelo://app?vid=5f42757e-0014-4f3c-8733-4e8daf25f08e"},"vehicle_type_id":"4","last_reported":1727367067,"current_range_meters":38800,"station_id":"ce4bhbp2rcd13ifvqesg","pricing_plan_id":"cebpf4jnsgd1na2vs0mg"},{"bike_id":"918413bc-08c6-4538-9e77-7db7912d354f","system_id":"levelo_inurba_marseille","lat":43.2318,"lon":5.39994,"is_reserved":false,"is_disabled":false,"rental_uris":{"android":"levelo://app?vid=918413bc-08c6-4538-9e77-7db7912d354f","ios":"levelo://app?vid=918413bc-08c6-4538-9e77-7db7912d354f"},"vehicle_type_id":"4","last_reported":1727367067,"current_range_meters":27600,"station_id":"ce4bhn12rcd13ifvqgqg","pricing_plan_id":"cebpf4jnsgd1na2vs0mg"},{"bike_id":"ccddab8d-6c0c-47ab-a022-6d1d560a8164","system_id":"levelo_inurba_marseille","lat":43.28729,"lon":5.36081,"is_reserved":false,"is_disabled":false,"rental_uris":{"android":"levelo://app?vid=ccddab8d-6c0c-47ab-a022-6d1d560a8164","ios":"levelo://app?vid=ccddab8d-6c0c-47ab-a022-6d1d560a8164"},"vehicle_type_id":"4","last_reported":1727367067,"current_range_meters":9200,"station_id":"cki0cbj6b192h4jlfktg","pricing_plan_id":"cebpf4jnsgd1na2vs0mg"},{"bike_id":"10c51aa8-18c7-468e-98b2-4eb910a873bf","system_id":"levelo_inurba_marseille","lat":43.30913,"lon":5.36854,"is_reserved":false,"is_disabled":false,"rental_uris":{"android":"levelo://app?vid=10c51aa8-18c7-468e-98b2-4eb910a873bf","ios":"levelo://app?vid=10c51aa8-18c7-468e-98b2-4eb910a873bf"},"vehicle_type_id":"4","last_reported":1727367067,"current_range_meters":38400,"station_id":"ce4bgn92rcd13ifvqbvg","pricing_plan_id":"cebpf4jnsgd1na2vs0mg"},{"bike_id":"9ef7392a-cab0-4030-9578-da73bc5a483a","system_id":"levelo_inurba_marseille","lat":43.29005,"lon":5.35608,"is_reserved":false,"is_disabled":false,"rental_uris":{"android":"levelo://app?vid=9ef7392a-cab0-4030-9578-da73bc5a483a","ios":"levelo://app?vid=9ef7392a-cab0-4030-9578-da73bc5a483a"},"vehicle_type_id":"4","last_reported":1727367067,"current_range_meters":4400,"station_id":"ce4bhb92rcd13ifvqen0","pricing_plan_id":"cebpf4jnsgd1na2vs0mg"},{"bike_id":"b89d1a1f-97b3-45f9-ba02-1ba8f958bb36","system_id":"levelo_inurba_marseille","lat":43.24664,"lon":5.38166,"is_reserved":false,"is_disabled":false,"rental_uris":{"android":"levelo://app?vid=b89d1a1f-97b3-45f9-ba02-1ba8f958bb36","ios":"levelo://app?vid=b89d1a1f-97b3-45f9-ba02-1ba8f958bb36"},"vehicle_type_id":"4","last_reported":1727367067,"current_range_meters":26000,"station_id":"ce4bhih2rcd13ifvqfr0","pricing_plan_id":"cebpf4jnsgd1na2vs0mg"},{"bike_id":"5962f709-a1d3-4d15-9681-a6e7ad916efa","system_id":"levelo_inurba_marseille","lat":43.26171,"lon":5.38741,"is_reserved":false,"is_disabled":false,"rental_uris":{"android":"levelo://app?vid=5962f709-a1d3-4d15-9681-a6e7ad916efa","ios":"levelo://app?vid=5962f709-a1d3-4d15-9681-a6e7ad916efa"},"vehicle_type_id":"4","last_reported":1727367067,"current_range_meters":20400,"station_id":"","pricing_plan_id":"cebpf4jnsgd1na2vs0mg"},{"bike_id":"09f3b664-fb37-4c3c-8799-7154855245ff","system_id":"levelo_inurba_marseille","lat":43.25087,"lon":5.39524,"is_reserved":false,"is_disabled":false,"rental_uris":{"android":"levelo://app?vid=09f3b664-fb37-4c3c-8799-7154855245ff","ios":"levelo://app?vid=09f3b664-fb37-4c3c-8799-7154855245ff"},"vehicle_type_id":"4","last_reported":1727367067,"current_range_meters":35600,"station_id":"ce4bhm12rcd13ifvqgkg","pricing_plan_id":"cebpf4jnsgd1na2vs0mg"},{"bike_id":"17ecd58d-3f78-4d28-92e1-e6a0959ee523","system_id":"levelo_inurba_marseille","lat":43.28668,"lon":5.36353,"is_reserved":false,"is_disabled":false,"rental_uris":{"android":"levelo://app?vid=17ecd58d-3f78-4d28-92e1-e6a0959ee523","ios":"levelo://app?vid=17ecd58d-3f78-4d28-92e1-e6a0959ee523"},"vehicle_type_id":"4","last_reported":1727367067,"current_range_meters":28800,"station_id":"ce4bhah2rcd13ifvqej0","pricing_plan_id":"cebpf4jnsgd1na2vs0mg"},{"bike_id":"db88311b-7824-4a60-92da-87ed180ba971","system_id":"levelo_inurba_marseille","lat":43.301244,"lon":5.398639,"is_reserved":false,"is_disabled":false,"rental_uris":{"android":"levelo://app?vid=db88311b-7824-4a60-92da-87ed180ba971","ios":"levelo://app?vid=db88311b-7824-4a60-92da-87ed180ba971"},"vehicle_type_id":"4","last_reported":1727367067,"current_range_meters":19200,"station_id":"ce4bh0h2rcd13ifvqd40","pricing_plan_id":"cebpf4jnsgd1na2vs0mg"},{"bike_id":"c33bced6-9160-43be-9392-e09cf96aea7e","system_id":"levelo_inurba_marseille","lat":43.28272,"lon":5.35064,"is_reserved":false,"is_disabled":false,"rental_uris":{"android":"levelo://app?vid=c33bced6-9160-43be-9392-e09cf96aea7e","ios":"levelo://app?vid=c33bced6-9160-43be-9392-e09cf96aea7e"},"vehicle_type_id":"4","last_reported":1727367067,"current_range_meters":2000,"station_id":"ce4bhbp2rcd13ifvqerg","pricing_plan_id":"cebpf4jnsgd1na2vs0mg"},{"bike_id":"abb30467-c535-4c52-a904-35b4164197c2","system_id":"levelo_inurba_marseille","lat":43.29966,"lon":5.38484,"is_reserved":false,"is_disabled":false,"rental_uris":{"android":"levelo://app?vid=abb30467-c535-4c52-a904-35b4164197c2","ios":"levelo://app?vid=abb30467-c535-4c52-a904-35b4164197c2"},"vehicle_type_id":"4","last_reported":1727367067,"current_range_meters":8400,"station_id":"ce4bgj92rcd13ifvqbd0","pricing_plan_id":"cebpf4jnsgd1na2vs0mg"},{"bike_id":"cf4f5467-25bf-4458-8f82-814234efba10","system_id":"levelo_inurba_marseille","lat":43.3053,"lon":5.36708,"is_reserved":false,"is_disabled":false,"rental_uris":{"android":"levelo://app?vid=cf4f5467-25bf-4458-8f82-814234efba10","ios":"levelo://app?vid=cf4f5467-25bf-4458-8f82-814234efba10"},"vehicle_type_id":"4","last_reported":1727367067,"current_range_meters":10800,"station_id":"ce4bgrp2rcd13ifvqc9g","pricing_plan_id":"cebpf4jnsgd1na2vs0mg"},{"bike_id":"0c49bf28-02f5-44b1-9d2c-9e8bdd172421","system_id":"levelo_inurba_marseille","lat":43.282806,"lon":5.350752,"is_reserved":false,"is_disabled":false,"rental_uris":{"android":"levelo://app?vid=0c49bf28-02f5-44b1-9d2c-9e8bdd172421","ios":"levelo://app?vid=0c49bf28-02f5-44b1-9d2c-9e8bdd172421"},"vehicle_type_id":"4","last_reported":1727367067,"current_range_meters":3200,"station_id":"ce4bhbp2rcd13ifvqerg","pricing_plan_id":"cebpf4jnsgd1na2vs0mg"},{"bike_id":"da1eb4c8-eb55-4de4-b827-3bf3d60b89d8","system_id":"levelo_inurba_marseille","lat":43.28153,"lon":5.42646,"is_reserved":false,"is_disabled":false,"rental_uris":{"android":"levelo://app?vid=da1eb4c8-eb55-4de4-b827-3bf3d60b89d8","ios":"levelo://app?vid=da1eb4c8-eb55-4de4-b827-3bf3d60b89d8"},"vehicle_type_id":"4","last_reported":1727367067,"current_range_meters":28000,"station_id":"ce4bhnh2rcd13ifvqgug","pricing_plan_id":"cebpf4jnsgd1na2vs0mg"},{"bike_id":"4d8cbbf3-1247-4327-a402-6b1720c38f7b","system_id":"levelo_inurba_marseille","lat":43.28269,"lon":5.35064,"is_reserved":false,"is_disabled":false,"rental_uris":{"android":"levelo://app?vid=4d8cbbf3-1247-4327-a402-6b1720c38f7b","ios":"levelo://app?vid=4d8cbbf3-1247-4327-a402-6b1720c38f7b"},"vehicle_type_id":"4","last_reported":1727367067,"current_range_meters":9200,"station_id":"ce4bhbp2rcd13ifvqerg","pricing_plan_id":"cebpf4jnsgd1na2vs0mg"},{"bike_id":"9111bd61-6f17-47f1-8ba2-379a29a160a2","system_id":"levelo_inurba_marseille","lat":43.286163,"lon":5.35108,"is_reserved":false,"is_disabled":false,"rental_uris":{"android":"levelo://app?vid=9111bd61-6f17-47f1-8ba2-379a29a160a2","ios":"levelo://app?vid=9111bd61-6f17-47f1-8ba2-379a29a160a2"},"vehicle_type_id":"4","last_reported":1727367067,"current_range_meters":11200,"station_id":"ce4bhch2rcd13ifvqeug","pricing_plan_id":"cebpf4jnsgd1na2vs0mg"},{"bike_id":"92cade9c-b9be-430b-9474-69f9360d2375","system_id":"levelo_inurba_marseille","lat":43.28455,"lon":5.3589,"is_reserved":false,"is_disabled":false,"rental_uris":{"android":"levelo://app?vid=92cade9c-b9be-430b-9474-69f9360d2375","ios":"levelo://app?vid=92cade9c-b9be-430b-9474-69f9360d2375"},"vehicle_type_id":"4","last_reported":1727367067,"current_range_meters":18000,"station_id":"ce4bhah2rcd13ifvqei0","pricing_plan_id":"cebpf4jnsgd1na2vs0mg"},{"bike_id":"27edbff1-6490-4cb3-875f-4ef37af7d0a0","system_id":"levelo_inurba_marseille","lat":43.27374,"lon":5.3625,"is_reserved":false,"is_disabled":false,"rental_uris":{"android":"levelo://app?vid=27edbff1-6490-4cb3-875f-4ef37af7d0a0","ios":"levelo://app?vid=27edbff1-6490-4cb3-875f-4ef37af7d0a0"},"vehicle_type_id":"4","last_reported":1727367067,"current_range_meters":9200,"station_id":"ce4bhbh2rcd13ifvqeo0","pricing_plan_id":"cebpf4jnsgd1na2vs0mg"},{"bike_id":"0d302563-b102-4394-97dc-f6fd7274bcbe","system_id":"levelo_inurba_marseille","lat":43.28678,"lon":5.38674,"is_reserved":false,"is_disabled":false,"rental_uris":{"android":"levelo://app?vid=0d302563-b102-4394-97dc-f6fd7274bcbe","ios":"levelo://app?vid=0d302563-b102-4394-97dc-f6fd7274bcbe"},"vehicle_type_id":"4","last_reported":1727367067,"current_range_meters":38800,"station_id":"ce4bh492rcd13ifvqdug","pricing_plan_id":"cebpf4jnsgd1na2vs0mg"},{"bike_id":"c77c91f6-96f8-482d-b20f-c36ca3fc312b","system_id":"levelo_inurba_marseille","lat":43.31996,"lon":5.38166,"is_reserved":false,"is_disabled":false,"rental_uris":{"android":"levelo://app?vid=c77c91f6-96f8-482d-b20f-c36ca3fc312b","ios":"levelo://app?vid=c77c91f6-96f8-482d-b20f-c36ca3fc312b"},"vehicle_type_id":"4","last_reported":1727367067,"current_range_meters":8800,"station_id":"ce4bhr12rcd13ifvqhpg","pricing_plan_id":"cebpf4jnsgd1na2vs0mg"},{"bike_id":"9238ad14-e0d5-4c32-9a08-f97260c3768d","system_id":"levelo_inurba_marseille","lat":43.32482,"lon":5.36564,"is_reserved":false,"is_disabled":false,"rental_uris":{"android":"levelo://app?vid=9238ad14-e0d5-4c32-9a08-f97260c3768d","ios":"levelo://app?vid=9238ad14-e0d5-4c32-9a08-f97260c3768d"},"vehicle_type_id":"4","last_reported":1727367067,"current_range_meters":28000,"station_id":"ce4bhs12rcd13ifvqhvg","pricing_plan_id":"cebpf4jnsgd1na2vs0mg"},{"bike_id":"c2e5a81e-6912-4cb0-98ad-5f3df477fa43","system_id":"levelo_inurba_marseille","lat":43.28995,"lon":5.37586,"is_reserved":false,"is_disabled":false,"rental_uris":{"android":"levelo://app?vid=c2e5a81e-6912-4cb0-98ad-5f3df477fa43","ios":"levelo://app?vid=c2e5a81e-6912-4cb0-98ad-5f3df477fa43"},"vehicle_type_id":"4","last_reported":1727367067,"current_range_meters":38000,"station_id":"ce4bh692rcd13ifvqe90","pricing_plan_id":"cebpf4jnsgd1na2vs0mg"},{"bike_id":"95730e8f-fe43-49de-b3b5-c6a697db2698","system_id":"levelo_inurba_marseille","lat":43.27172,"lon":5.4099,"is_reserved":false,"is_disabled":false,"rental_uris":{"android":"levelo://app?vid=95730e8f-fe43-49de-b3b5-c6a697db2698","ios":"levelo://app?vid=95730e8f-fe43-49de-b3b5-c6a697db2698"},"vehicle_type_id":"4","last_reported":1727367067,"current_range_meters":20400,"station_id":"ce4bhl12rcd13ifvqgf0","pricing_plan_id":"cebpf4jnsgd1na2vs0mg"},{"bike_id":"8460a7e8-1a9d-4ecf-8e31-4e5a3fd8d5e0","system_id":"levelo_inurba_marseille","lat":43.299327,"lon":5.365428,"is_reserved":false,"is_disabled":false,"rental_uris":{"android":"levelo://app?vid=8460a7e8-1a9d-4ecf-8e31-4e5a3fd8d5e0","ios":"levelo://app?vid=8460a7e8-1a9d-4ecf-8e31-4e5a3fd8d5e0"},"vehicle_type_id":"4","last_reported":1727367067,"current_range_meters":16000,"station_id":"ce4bgm92rcd13ifvqbr0","pricing_plan_id":"cebpf4jnsgd1na2vs0mg"},{"bike_id":"c5c527e1-4f56-407c-94ad-94c6a1abeba4","system_id":"levelo_inurba_marseille","lat":43.29278,"lon":5.36844,"is_reserved":false,"is_disabled":false,"rental_uris":{"android":"levelo://app?vid=c5c527e1-4f56-407c-94ad-94c6a1abeba4","ios":"levelo://app?vid=c5c527e1-4f56-407c-94ad-94c6a1abeba4"},"vehicle_type_id":"4","last_reported":1727367067,"current_range_meters":24800,"station_id":"ce4bhbp2rcd13ifvqesg","pricing_plan_id":"cebpf4jnsgd1na2vs0mg"},{"bike_id":"66a5f4fa-0160-4ae7-b8c7-250f791b1c98","system_id":"levelo_inurba_marseille","lat":43.28724,"lon":5.36081,"is_reserved":false,"is_disabled":false,"rental_uris":{"android":"levelo://app?vid=66a5f4fa-0160-4ae7-b8c7-250f791b1c98","ios":"levelo://app?vid=66a5f4fa-0160-4ae7-b8c7-250f791b1c98"},"vehicle_type_id":"4","last_reported":1727367067,"current_range_meters":33200,"station_id":"cki0cbj6b192h4jlfktg","pricing_plan_id":"cebpf4jnsgd1na2vs0mg"},{"bike_id":"8de2e072-160f-4817-a586-8f4e3ff3cc2e","system_id":"levelo_inurba_marseille","lat":43.31713,"lon":5.43702,"is_reserved":false,"is_disabled":false,"rental_uris":{"android":"levelo://app?vid=8de2e072-160f-4817-a586-8f4e3ff3cc2e","ios":"levelo://app?vid=8de2e072-160f-4817-a586-8f4e3ff3cc2e"},"vehicle_type_id":"4","last_reported":1727367067,"current_range_meters":18000,"station_id":"ce4bhp92rcd13ifvqhcg","pricing_plan_id":"cebpf4jnsgd1na2vs0mg"},{"bike_id":"974c0ef7-8a10-4ef3-b70f-c7461cfc9201","system_id":"levelo_inurba_marseille","lat":43.29527,"lon":5.38547,"is_reserved":false,"is_disabled":false,"rental_uris":{"android":"levelo://app?vid=974c0ef7-8a10-4ef3-b70f-c7461cfc9201","ios":"levelo://app?vid=974c0ef7-8a10-4ef3-b70f-c7461cfc9201"},"vehicle_type_id":"4","last_reported":1727367067,"current_range_meters":9600,"station_id":"ce4bgih2rcd13ifvqba0","pricing_plan_id":"cebpf4jnsgd1na2vs0mg"},{"bike_id":"a859ed76-c638-4c0e-9eaf-5a5a0e10a023","system_id":"levelo_inurba_marseille","lat":43.28154,"lon":5.42652,"is_reserved":false,"is_disabled":false,"rental_uris":{"android":"levelo://app?vid=a859ed76-c638-4c0e-9eaf-5a5a0e10a023","ios":"levelo://app?vid=a859ed76-c638-4c0e-9eaf-5a5a0e10a023"},"vehicle_type_id":"4","last_reported":1727367067,"current_range_meters":24000,"station_id":"ce4bhnh2rcd13ifvqgug","pricing_plan_id":"cebpf4jnsgd1na2vs0mg"},{"bike_id":"d89a6b44-b264-4a99-8b3c-f07b95bc3cb9","system_id":"levelo_inurba_marseille","lat":43.32293,"lon":5.38261,"is_reserved":false,"is_disabled":false,"rental_uris":{"android":"levelo://app?vid=d89a6b44-b264-4a99-8b3c-f07b95bc3cb9","ios":"levelo://app?vid=d89a6b44-b264-4a99-8b3c-f07b95bc3cb9"},"vehicle_type_id":"4","last_reported":1727367067,"current_range_meters":21600,"station_id":"ce4bhr12rcd13ifvqhqg","pricing_plan_id":"cebpf4jnsgd1na2vs0mg"},{"bike_id":"e1011166-328e-4f85-b030-2e058ea34f2c","system_id":"levelo_inurba_marseille","lat":43.23181,"lon":5.39983,"is_reserved":false,"is_disabled":false,"rental_uris":{"android":"levelo://app?vid=e1011166-328e-4f85-b030-2e058ea34f2c","ios":"levelo://app?vid=e1011166-328e-4f85-b030-2e058ea34f2c"},"vehicle_type_id":"4","last_reported":1727367067,"current_range_meters":25600,"station_id":"ce4bhn12rcd13ifvqgqg","pricing_plan_id":"cebpf4jnsgd1na2vs0mg"},{"bike_id":"a7bca3df-0344-4204-86d7-b742d4769839","system_id":"levelo_inurba_marseille","lat":43.30863,"lon":5.3685,"is_reserved":false,"is_disabled":false,"rental_uris":{"android":"levelo://app?vid=a7bca3df-0344-4204-86d7-b742d4769839","ios":"levelo://app?vid=a7bca3df-0344-4204-86d7-b742d4769839"},"vehicle_type_id":"4","last_reported":1727367067,"current_range_meters":22400,"station_id":"ce4bgn92rcd13ifvqbvg","pricing_plan_id":"cebpf4jnsgd1na2vs0mg"},{"bike_id":"189a8e17-dc06-4f85-bbde-5afa18abad81","system_id":"levelo_inurba_marseille","lat":43.31759,"lon":5.39014,"is_reserved":false,"is_disabled":false,"rental_uris":{"android":"levelo://app?vid=189a8e17-dc06-4f85-bbde-5afa18abad81","ios":"levelo://app?vid=189a8e17-dc06-4f85-bbde-5afa18abad81"},"vehicle_type_id":"4","last_reported":1727367067,"current_range_meters":7200,"station_id":"ce4bhqp2rcd13ifvqhng","pricing_plan_id":"cebpf4jnsgd1na2vs0mg"},{"bike_id":"1c962412-d8d1-4fa4-916a-8ba07973fa3d","system_id":"levelo_inurba_marseille","lat":43.24644,"lon":5.38893,"is_reserved":false,"is_disabled":false,"rental_uris":{"android":"levelo://app?vid=1c962412-d8d1-4fa4-916a-8ba07973fa3d","ios":"levelo://app?vid=1c962412-d8d1-4fa4-916a-8ba07973fa3d"},"vehicle_type_id":"4","last_reported":1727367067,"current_range_meters":30800,"station_id":"ce4bhg12rcd13ifvqf60","pricing_plan_id":"cebpf4jnsgd1na2vs0mg"},{"bike_id":"e06265c3-73f7-4a0d-b1f4-0e00b5938790","system_id":"levelo_inurba_marseille","lat":43.2987,"lon":5.3973,"is_reserved":false,"is_disabled":false,"rental_uris":{"android":"levelo://app?vid=e06265c3-73f7-4a0d-b1f4-0e00b5938790","ios":"levelo://app?vid=e06265c3-73f7-4a0d-b1f4-0e00b5938790"},"vehicle_type_id":"4","last_reported":1727367067,"current_range_meters":8400,"station_id":"ce4bh0h2rcd13ifvqd50","pricing_plan_id":"cebpf4jnsgd1na2vs0mg"},{"bike_id":"e55af39d-73c0-4316-bcbc-4a730eacc1df","system_id":"levelo_inurba_marseille","lat":43.299896,"lon":5.400493,"is_reserved":false,"is_disabled":false,"rental_uris":{"android":"levelo://app?vid=e55af39d-73c0-4316-bcbc-4a730eacc1df","ios":"levelo://app?vid=e55af39d-73c0-4316-bcbc-4a730eacc1df"},"vehicle_type_id":"4","last_reported":1727367067,"current_range_meters":6400,"station_id":"ce4bhjp2rcd13ifvqg90","pricing_plan_id":"cebpf4jnsgd1na2vs0mg"},{"bike_id":"1ed7c693-e2ca-4f06-bd95-c2f9ed0430da","system_id":"levelo_inurba_marseille","lat":43.25004,"lon":5.38922,"is_reserved":false,"is_disabled":false,"rental_uris":{"android":"levelo://app?vid=1ed7c693-e2ca-4f06-bd95-c2f9ed0430da","ios":"levelo://app?vid=1ed7c693-e2ca-4f06-bd95-c2f9ed0430da"},"vehicle_type_id":"4","last_reported":1727367067,"current_range_meters":23200,"station_id":"ce4bhgp2rcd13ifvqfd0","pricing_plan_id":"cebpf4jnsgd1na2vs0mg"},{"bike_id":"6738e146-f267-4f25-b891-642f57002f2e","system_id":"levelo_inurba_marseille","lat":43.28466,"lon":5.35886,"is_reserved":false,"is_disabled":false,"rental_uris":{"android":"levelo://app?vid=6738e146-f267-4f25-b891-642f57002f2e","ios":"levelo://app?vid=6738e146-f267-4f25-b891-642f57002f2e"},"vehicle_type_id":"4","last_reported":1727367067,"current_range_meters":34800,"station_id":"ce4bhah2rcd13ifvqei0","pricing_plan_id":"cebpf4jnsgd1na2vs0mg"},{"bike_id":"7919e8c7-b4ba-4367-a6f4-8c19cfcaf219","system_id":"levelo_inurba_marseille","lat":43.31331,"lon":5.39685,"is_reserved":false,"is_disabled":false,"rental_uris":{"android":"levelo://app?vid=7919e8c7-b4ba-4367-a6f4-8c19cfcaf219","ios":"levelo://app?vid=7919e8c7-b4ba-4367-a6f4-8c19cfcaf219"},"vehicle_type_id":"4","last_reported":1727367067,"current_range_meters":35200,"station_id":"ce4bgvp2rcd13ifvqcu0","pricing_plan_id":"cebpf4jnsgd1na2vs0mg"},{"bike_id":"4a4bfd88-bdfc-4802-b3a8-e798e4274727","system_id":"levelo_inurba_marseille","lat":43.322878,"lon":5.382582,"is_reserved":false,"is_disabled":false,"rental_uris":{"android":"levelo://app?vid=4a4bfd88-bdfc-4802-b3a8-e798e4274727","ios":"levelo://app?vid=4a4bfd88-bdfc-4802-b3a8-e798e4274727"},"vehicle_type_id":"4","last_reported":1727367067,"current_range_meters":24000,"station_id":"ce4bhr12rcd13ifvqhqg","pricing_plan_id":"cebpf4jnsgd1na2vs0mg"},{"bike_id":"2ba09575-244f-487f-8743-7cdef664b4d1","system_id":"levelo_inurba_marseille","lat":43.29897,"lon":5.43669,"is_reserved":false,"is_disabled":false,"rental_uris":{"android":"levelo://app?vid=2ba09575-244f-487f-8743-7cdef664b4d1","ios":"levelo://app?vid=2ba09575-244f-487f-8743-7cdef664b4d1"},"vehicle_type_id":"4","last_reported":1727367067,"current_range_meters":17600,"station_id":"ce4bhpp2rcd13ifvqhfg","pricing_plan_id":"cebpf4jnsgd1na2vs0mg"},{"bike_id":"f221b7f8-37f4-4445-bf7f-7b325c888a4a","system_id":"levelo_inurba_marseille","lat":43.28268,"lon":5.35062,"is_reserved":false,"is_disabled":false,"rental_uris":{"android":"levelo://app?vid=f221b7f8-37f4-4445-bf7f-7b325c888a4a","ios":"levelo://app?vid=f221b7f8-37f4-4445-bf7f-7b325c888a4a"},"vehicle_type_id":"4","last_reported":1727367067,"current_range_meters":12800,"station_id":"ce4bhbp2rcd13ifvqerg","pricing_plan_id":"cebpf4jnsgd1na2vs0mg"},{"bike_id":"b8d4cfe5-fa00-4798-bb3b-a5cd96b0fee5","system_id":"levelo_inurba_marseille","lat":43.24216,"lon":5.38436,"is_reserved":false,"is_disabled":false,"rental_uris":{"android":"levelo://app?vid=b8d4cfe5-fa00-4798-bb3b-a5cd96b0fee5","ios":"levelo://app?vid=b8d4cfe5-fa00-4798-bb3b-a5cd96b0fee5"},"vehicle_type_id":"4","last_reported":1727367067,"current_range_meters":8000,"station_id":"","pricing_plan_id":"cebpf4jnsgd1na2vs0mg"},{"bike_id":"97dfd568-90c4-49c7-9bb7-88ed645784fe","system_id":"levelo_inurba_marseille","lat":43.29795,"lon":5.38106,"is_reserved":false,"is_disabled":false,"rental_uris":{"android":"levelo://app?vid=97dfd568-90c4-49c7-9bb7-88ed645784fe","ios":"levelo://app?vid=97dfd568-90c4-49c7-9bb7-88ed645784fe"},"vehicle_type_id":"4","last_reported":1727367067,"current_range_meters":37600,"station_id":"ce4bgip2rcd13ifvqbb0","pricing_plan_id":"cebpf4jnsgd1na2vs0mg"},{"bike_id":"bf001fef-f9f9-4f8a-87af-76d9a338fbcf","system_id":"levelo_inurba_marseille","lat":43.29229,"lon":5.36051,"is_reserved":false,"is_disabled":false,"rental_uris":{"android":"levelo://app?vid=bf001fef-f9f9-4f8a-87af-76d9a338fbcf","ios":"levelo://app?vid=bf001fef-f9f9-4f8a-87af-76d9a338fbcf"},"vehicle_type_id":"4","last_reported":1727367067,"current_range_meters":8800,"station_id":"ce4bhbh2rcd13ifvqeqg","pricing_plan_id":"cebpf4jnsgd1na2vs0mg"},{"bike_id":"7be7c110-613e-418c-9775-8a467e455553","system_id":"levelo_inurba_marseille","lat":43.28464,"lon":5.35879,"is_reserved":false,"is_disabled":false,"rental_uris":{"android":"levelo://app?vid=7be7c110-613e-418c-9775-8a467e455553","ios":"levelo://app?vid=7be7c110-613e-418c-9775-8a467e455553"},"vehicle_type_id":"4","last_reported":1727367067,"current_range_meters":26800,"station_id":"ce4bhah2rcd13ifvqei0","pricing_plan_id":"cebpf4jnsgd1na2vs0mg"},{"bike_id":"1e6b0c16-c6ca-44c3-8633-a751ebbb6842","system_id":"levelo_inurba_marseille","lat":43.28608,"lon":5.37068,"is_reserved":false,"is_disabled":false,"rental_uris":{"android":"levelo://app?vid=1e6b0c16-c6ca-44c3-8633-a751ebbb6842","ios":"levelo://app?vid=1e6b0c16-c6ca-44c3-8633-a751ebbb6842"},"vehicle_type_id":"4","last_reported":1727367067,"current_range_meters":30400,"station_id":"ce4bht12rcd13ifvqi60","pricing_plan_id":"cebpf4jnsgd1na2vs0mg"},{"bike_id":"e68e9fe3-a9f9-4994-8977-1788491ab968","system_id":"levelo_inurba_marseille","lat":43.29895,"lon":5.38909,"is_reserved":false,"is_disabled":false,"rental_uris":{"android":"levelo://app?vid=e68e9fe3-a9f9-4994-8977-1788491ab968","ios":"levelo://app?vid=e68e9fe3-a9f9-4994-8977-1788491ab968"},"vehicle_type_id":"4","last_reported":1727367067,"current_range_meters":34000,"station_id":"ce4bh392rcd13ifvqdl0","pricing_plan_id":"cebpf4jnsgd1na2vs0mg"},{"bike_id":"67e79339-73b0-48e1-b2f6-5d4858d7a401","system_id":"levelo_inurba_marseille","lat":43.3361,"lon":5.41033,"is_reserved":false,"is_disabled":false,"rental_uris":{"android":"levelo://app?vid=67e79339-73b0-48e1-b2f6-5d4858d7a401","ios":"levelo://app?vid=67e79339-73b0-48e1-b2f6-5d4858d7a401"},"vehicle_type_id":"4","last_reported":1727367067,"current_range_meters":4000,"station_id":"ce4bhqh2rcd13ifvqhmg","pricing_plan_id":"cebpf4jnsgd1na2vs0mg"},{"bike_id":"ca3e4d3d-4a90-4363-b562-bb0e74f1f4e9","system_id":"levelo_inurba_marseille","lat":43.27991,"lon":5.40004,"is_reserved":false,"is_disabled":false,"rental_uris":{"android":"levelo://app?vid=ca3e4d3d-4a90-4363-b562-bb0e74f1f4e9","ios":"levelo://app?vid=ca3e4d3d-4a90-4363-b562-bb0e74f1f4e9"},"vehicle_type_id":"4","last_reported":1727367067,"current_range_meters":30400,"station_id":"ce4bho92rcd13ifvqh4g","pricing_plan_id":"cebpf4jnsgd1na2vs0mg"},{"bike_id":"b0edbbbb-ef0a-4a65-bb38-113ac03cbfc7","system_id":"levelo_inurba_marseille","lat":43.29791,"lon":5.38138,"is_reserved":false,"is_disabled":false,"rental_uris":{"android":"levelo://app?vid=b0edbbbb-ef0a-4a65-bb38-113ac03cbfc7","ios":"levelo://app?vid=b0edbbbb-ef0a-4a65-bb38-113ac03cbfc7"},"vehicle_type_id":"4","last_reported":1727367067,"current_range_meters":24800,"station_id":"ce4bgip2rcd13ifvqbb0","pricing_plan_id":"cebpf4jnsgd1na2vs0mg"},{"bike_id":"eee6d266-d969-459e-9def-2c03bdad6f10","system_id":"levelo_inurba_marseille","lat":43.31765,"lon":5.39016,"is_reserved":false,"is_disabled":false,"rental_uris":{"android":"levelo://app?vid=eee6d266-d969-459e-9def-2c03bdad6f10","ios":"levelo://app?vid=eee6d266-d969-459e-9def-2c03bdad6f10"},"vehicle_type_id":"4","last_reported":1727367067,"current_range_meters":4000,"station_id":"ce4bhqp2rcd13ifvqhng","pricing_plan_id":"cebpf4jnsgd1na2vs0mg"},{"bike_id":"26bd3a05-d57c-4b9a-8414-dd13781228a9","system_id":"levelo_inurba_marseille","lat":43.26555,"lon":5.37288,"is_reserved":false,"is_disabled":false,"rental_uris":{"android":"levelo://app?vid=26bd3a05-d57c-4b9a-8414-dd13781228a9","ios":"levelo://app?vid=26bd3a05-d57c-4b9a-8414-dd13781228a9"},"vehicle_type_id":"4","last_reported":1727367067,"current_range_meters":36000,"station_id":"ce4bhg12rcd13ifvqf70","pricing_plan_id":"cebpf4jnsgd1na2vs0mg"},{"bike_id":"1f4162d7-3cd5-4a3c-a557-f5d64a7bd417","system_id":"levelo_inurba_marseille","lat":43.32477,"lon":5.36564,"is_reserved":false,"is_disabled":false,"rental_uris":{"android":"levelo://app?vid=1f4162d7-3cd5-4a3c-a557-f5d64a7bd417","ios":"levelo://app?vid=1f4162d7-3cd5-4a3c-a557-f5d64a7bd417"},"vehicle_type_id":"4","last_reported":1727367067,"current_range_meters":23200,"station_id":"ce4bhs12rcd13ifvqhvg","pricing_plan_id":"cebpf4jnsgd1na2vs0mg"},{"bike_id":"5ca0acd8-8f15-46f3-82ff-b2399150ed1d","system_id":"levelo_inurba_marseille","lat":43.26559,"lon":5.37284,"is_reserved":false,"is_disabled":false,"rental_uris":{"android":"levelo://app?vid=5ca0acd8-8f15-46f3-82ff-b2399150ed1d","ios":"levelo://app?vid=5ca0acd8-8f15-46f3-82ff-b2399150ed1d"},"vehicle_type_id":"4","last_reported":1727367067,"current_range_meters":38800,"station_id":"ce4bhg12rcd13ifvqf70","pricing_plan_id":"cebpf4jnsgd1na2vs0mg"},{"bike_id":"fc09ae45-1afc-4cd0-a841-ed2588645d04","system_id":"levelo_inurba_marseille","lat":43.27619,"lon":5.39479,"is_reserved":false,"is_disabled":false,"rental_uris":{"android":"levelo://app?vid=fc09ae45-1afc-4cd0-a841-ed2588645d04","ios":"levelo://app?vid=fc09ae45-1afc-4cd0-a841-ed2588645d04"},"vehicle_type_id":"4","last_reported":1727367067,"current_range_meters":24400,"station_id":"ce4bha92rcd13ifvqeg0","pricing_plan_id":"cebpf4jnsgd1na2vs0mg"},{"bike_id":"6c1fda78-a27a-41ea-9d99-03a440f5f874","system_id":"levelo_inurba_marseille","lat":43.23062,"lon":5.35487,"is_reserved":false,"is_disabled":false,"rental_uris":{"android":"levelo://app?vid=6c1fda78-a27a-41ea-9d99-03a440f5f874","ios":"levelo://app?vid=6c1fda78-a27a-41ea-9d99-03a440f5f874"},"vehicle_type_id":"4","last_reported":1727367067,"current_range_meters":4800,"station_id":"cpo3342slgdg3j2ifvpg","pricing_plan_id":"cebpf4jnsgd1na2vs0mg"},{"bike_id":"9560daa0-c4e3-4ff9-8735-b7bf5fec25a2","system_id":"levelo_inurba_marseille","lat":43.3377,"lon":5.37479,"is_reserved":false,"is_disabled":false,"rental_uris":{"android":"levelo://app?vid=9560daa0-c4e3-4ff9-8735-b7bf5fec25a2","ios":"levelo://app?vid=9560daa0-c4e3-4ff9-8735-b7bf5fec25a2"},"vehicle_type_id":"4","last_reported":1727367067,"current_range_meters":7200,"station_id":"ce4bhg12rcd13ifvqf80","pricing_plan_id":"cebpf4jnsgd1na2vs0mg"},{"bike_id":"2648fc36-2fe0-4000-af6b-cc801ebf0531","system_id":"levelo_inurba_marseille","lat":43.27178,"lon":5.40999,"is_reserved":false,"is_disabled":false,"rental_uris":{"android":"levelo://app?vid=2648fc36-2fe0-4000-af6b-cc801ebf0531","ios":"levelo://app?vid=2648fc36-2fe0-4000-af6b-cc801ebf0531"},"vehicle_type_id":"4","last_reported":1727367067,"current_range_meters":27200,"station_id":"ce4bhl12rcd13ifvqgf0","pricing_plan_id":"cebpf4jnsgd1na2vs0mg"},{"bike_id":"6e0aa71b-8489-416a-9cdf-990d089ae50b","system_id":"levelo_inurba_marseille","lat":43.27374,"lon":5.36257,"is_reserved":false,"is_disabled":false,"rental_uris":{"android":"levelo://app?vid=6e0aa71b-8489-416a-9cdf-990d089ae50b","ios":"levelo://app?vid=6e0aa71b-8489-416a-9cdf-990d089ae50b"},"vehicle_type_id":"4","last_reported":1727367067,"current_range_meters":4400,"station_id":"ce4bhbh2rcd13ifvqeo0","pricing_plan_id":"cebpf4jnsgd1na2vs0mg"},{"bike_id":"b4646ddf-5607-4f29-a71d-6c3f295f60ba","system_id":"levelo_inurba_marseille","lat":43.30883,"lon":5.39659,"is_reserved":false,"is_disabled":false,"rental_uris":{"android":"levelo://app?vid=b4646ddf-5607-4f29-a71d-6c3f295f60ba","ios":"levelo://app?vid=b4646ddf-5607-4f29-a71d-6c3f295f60ba"},"vehicle_type_id":"4","last_reported":1727367067,"current_range_meters":25200,"station_id":"ce4bh012rcd13ifvqcv0","pricing_plan_id":"cebpf4jnsgd1na2vs0mg"},{"bike_id":"b44402de-ddfb-41c6-ab2f-dfc56577d35f","system_id":"levelo_inurba_marseille","lat":43.32486,"lon":5.3657,"is_reserved":false,"is_disabled":false,"rental_uris":{"android":"levelo://app?vid=b44402de-ddfb-41c6-ab2f-dfc56577d35f","ios":"levelo://app?vid=b44402de-ddfb-41c6-ab2f-dfc56577d35f"},"vehicle_type_id":"4","last_reported":1727367067,"current_range_meters":11200,"station_id":"ce4bhs12rcd13ifvqhvg","pricing_plan_id":"cebpf4jnsgd1na2vs0mg"},{"bike_id":"f2cb862f-f97c-4ea4-bbb8-e16845a57bbd","system_id":"levelo_inurba_marseille","lat":43.32487,"lon":5.36553,"is_reserved":false,"is_disabled":false,"rental_uris":{"android":"levelo://app?vid=f2cb862f-f97c-4ea4-bbb8-e16845a57bbd","ios":"levelo://app?vid=f2cb862f-f97c-4ea4-bbb8-e16845a57bbd"},"vehicle_type_id":"4","last_reported":1727367067,"current_range_meters":38000,"station_id":"ce4bhs12rcd13ifvqhvg","pricing_plan_id":"cebpf4jnsgd1na2vs0mg"},{"bike_id":"af8abe42-a0f1-47a3-b0c7-93987f5bc813","system_id":"levelo_inurba_marseille","lat":43.31167,"lon":5.38722,"is_reserved":false,"is_disabled":false,"rental_uris":{"android":"levelo://app?vid=af8abe42-a0f1-47a3-b0c7-93987f5bc813","ios":"levelo://app?vid=af8abe42-a0f1-47a3-b0c7-93987f5bc813"},"vehicle_type_id":"4","last_reported":1727367067,"current_range_meters":4400,"station_id":"ce4bgv12rcd13ifvqcp0","pricing_plan_id":"cebpf4jnsgd1na2vs0mg"},{"bike_id":"264f5e1a-910c-402c-8387-641549ff797c","system_id":"levelo_inurba_marseille","lat":43.29441,"lon":5.37578,"is_reserved":false,"is_disabled":false,"rental_uris":{"android":"levelo://app?vid=264f5e1a-910c-402c-8387-641549ff797c","ios":"levelo://app?vid=264f5e1a-910c-402c-8387-641549ff797c"},"vehicle_type_id":"4","last_reported":1727367067,"current_range_meters":8000,"station_id":"ce4bhah2rcd13ifvqei0","pricing_plan_id":"cebpf4jnsgd1na2vs0mg"},{"bike_id":"571c23f9-84b8-4dea-b2bc-06f7588d01ff","system_id":"levelo_inurba_marseille","lat":43.26805,"lon":5.40265,"is_reserved":false,"is_disabled":false,"rental_uris":{"android":"levelo://app?vid=571c23f9-84b8-4dea-b2bc-06f7588d01ff","ios":"levelo://app?vid=571c23f9-84b8-4dea-b2bc-06f7588d01ff"},"vehicle_type_id":"4","last_reported":1727367067,"current_range_meters":18000,"station_id":"ce501612rcd8frsf0b60","pricing_plan_id":"cebpf4jnsgd1na2vs0mg"},{"bike_id":"1985f22f-2b39-4365-b02f-b62c36df1520","system_id":"levelo_inurba_marseille","lat":43.29969,"lon":5.38491,"is_reserved":false,"is_disabled":false,"rental_uris":{"android":"levelo://app?vid=1985f22f-2b39-4365-b02f-b62c36df1520","ios":"levelo://app?vid=1985f22f-2b39-4365-b02f-b62c36df1520"},"vehicle_type_id":"4","last_reported":1727367067,"current_range_meters":39200,"station_id":"ce4bgj92rcd13ifvqbd0","pricing_plan_id":"cebpf4jnsgd1na2vs0mg"},{"bike_id":"2ac4832e-b1ee-473d-904f-11880cc62bb5","system_id":"levelo_inurba_marseille","lat":43.298799,"lon":5.397466,"is_reserved":false,"is_disabled":false,"rental_uris":{"android":"levelo://app?vid=2ac4832e-b1ee-473d-904f-11880cc62bb5","ios":"levelo://app?vid=2ac4832e-b1ee-473d-904f-11880cc62bb5"},"vehicle_type_id":"4","last_reported":1727367067,"current_range_meters":30400,"station_id":"ce4bh0h2rcd13ifvqd50","pricing_plan_id":"cebpf4jnsgd1na2vs0mg"},{"bike_id":"9a5ed6e5-f06f-4ebd-9659-744dd65a00f0","system_id":"levelo_inurba_marseille","lat":43.292,"lon":5.35795,"is_reserved":false,"is_disabled":false,"rental_uris":{"android":"levelo://app?vid=9a5ed6e5-f06f-4ebd-9659-744dd65a00f0","ios":"levelo://app?vid=9a5ed6e5-f06f-4ebd-9659-744dd65a00f0"},"vehicle_type_id":"4","last_reported":1727367067,"current_range_meters":18000,"station_id":"ce4bhb12rcd13ifvqel0","pricing_plan_id":"cebpf4jnsgd1na2vs0mg"},{"bike_id":"85df1c6e-b750-48e6-9a69-839f497091aa","system_id":"levelo_inurba_marseille","lat":43.28276,"lon":5.35067,"is_reserved":false,"is_disabled":false,"rental_uris":{"android":"levelo://app?vid=85df1c6e-b750-48e6-9a69-839f497091aa","ios":"levelo://app?vid=85df1c6e-b750-48e6-9a69-839f497091aa"},"vehicle_type_id":"4","last_reported":1727367067,"current_range_meters":16000,"station_id":"ce4bhbp2rcd13ifvqerg","pricing_plan_id":"cebpf4jnsgd1na2vs0mg"},{"bike_id":"d6e0c4a3-9804-46b9-a295-0df9259f4e20","system_id":"levelo_inurba_marseille","lat":43.3081,"lon":5.37324,"is_reserved":false,"is_disabled":false,"rental_uris":{"android":"levelo://app?vid=d6e0c4a3-9804-46b9-a295-0df9259f4e20","ios":"levelo://app?vid=d6e0c4a3-9804-46b9-a295-0df9259f4e20"},"vehicle_type_id":"4","last_reported":1727367067,"current_range_meters":31200,"station_id":"","pricing_plan_id":"cebpf4jnsgd1na2vs0mg"},{"bike_id":"c0e8c4f4-8072-4086-9de3-095921b441ed","system_id":"levelo_inurba_marseille","lat":43.298,"lon":5.38107,"is_reserved":false,"is_disabled":false,"rental_uris":{"android":"levelo://app?vid=c0e8c4f4-8072-4086-9de3-095921b441ed","ios":"levelo://app?vid=c0e8c4f4-8072-4086-9de3-095921b441ed"},"vehicle_type_id":"4","last_reported":1727367067,"current_range_meters":32000,"station_id":"ce4bgip2rcd13ifvqbb0","pricing_plan_id":"cebpf4jnsgd1na2vs0mg"},{"bike_id":"d99b52e6-bd0e-4c56-a3cb-88e00d543c69","system_id":"levelo_inurba_marseille","lat":43.30367,"lon":5.39292,"is_reserved":false,"is_disabled":false,"rental_uris":{"android":"levelo://app?vid=d99b52e6-bd0e-4c56-a3cb-88e00d543c69","ios":"levelo://app?vid=d99b52e6-bd0e-4c56-a3cb-88e00d543c69"},"vehicle_type_id":"4","last_reported":1727367067,"current_range_meters":14000,"station_id":"ce4bgkh2rcd13ifvqbk0","pricing_plan_id":"cebpf4jnsgd1na2vs0mg"},{"bike_id":"a352b5e7-0817-45dd-815a-b3db0834200f","system_id":"levelo_inurba_marseille","lat":43.28865,"lon":5.37214,"is_reserved":false,"is_disabled":false,"rental_uris":{"android":"levelo://app?vid=a352b5e7-0817-45dd-815a-b3db0834200f","ios":"levelo://app?vid=a352b5e7-0817-45dd-815a-b3db0834200f"},"vehicle_type_id":"4","last_reported":1727367067,"current_range_meters":22400,"station_id":"ce4bhc92rcd13ifvqetg","pricing_plan_id":"cebpf4jnsgd1na2vs0mg"},{"bike_id":"5b628548-12ea-4cc6-a01b-05cd55aa941e","system_id":"levelo_inurba_marseille","lat":43.27372,"lon":5.36257,"is_reserved":false,"is_disabled":false,"rental_uris":{"android":"levelo://app?vid=5b628548-12ea-4cc6-a01b-05cd55aa941e","ios":"levelo://app?vid=5b628548-12ea-4cc6-a01b-05cd55aa941e"},"vehicle_type_id":"4","last_reported":1727367067,"current_range_meters":27600,"station_id":"ce4bhbh2rcd13ifvqeo0","pricing_plan_id":"cebpf4jnsgd1na2vs0mg"},{"bike_id":"b161f319-efac-42e6-b308-447c51665544","system_id":"levelo_inurba_marseille","lat":43.29977,"lon":5.38496,"is_reserved":false,"is_disabled":false,"rental_uris":{"android":"levelo://app?vid=b161f319-efac-42e6-b308-447c51665544","ios":"levelo://app?vid=b161f319-efac-42e6-b308-447c51665544"},"vehicle_type_id":"4","last_reported":1727367067,"current_range_meters":36400,"station_id":"ce4bgj92rcd13ifvqbd0","pricing_plan_id":"cebpf4jnsgd1na2vs0mg"},{"bike_id":"7f6c0da5-c521-4ae4-9c38-e4887541f9e8","system_id":"levelo_inurba_marseille","lat":43.32473,"lon":5.36568,"is_reserved":false,"is_disabled":false,"rental_uris":{"android":"levelo://app?vid=7f6c0da5-c521-4ae4-9c38-e4887541f9e8","ios":"levelo://app?vid=7f6c0da5-c521-4ae4-9c38-e4887541f9e8"},"vehicle_type_id":"4","last_reported":1727367067,"current_range_meters":4800,"station_id":"ce4bhs12rcd13ifvqhvg","pricing_plan_id":"cebpf4jnsgd1na2vs0mg"},{"bike_id":"b8514f22-61ba-444e-b851-ca81a546b3ce","system_id":"levelo_inurba_marseille","lat":43.3014,"lon":5.39869,"is_reserved":false,"is_disabled":false,"rental_uris":{"android":"levelo://app?vid=b8514f22-61ba-444e-b851-ca81a546b3ce","ios":"levelo://app?vid=b8514f22-61ba-444e-b851-ca81a546b3ce"},"vehicle_type_id":"4","last_reported":1727367067,"current_range_meters":9600,"station_id":"ce4bh0h2rcd13ifvqd40","pricing_plan_id":"cebpf4jnsgd1na2vs0mg"},{"bike_id":"1e4f2c42-41a9-4ca6-909f-ba3e861e6f32","system_id":"levelo_inurba_marseille","lat":43.29274,"lon":5.38444,"is_reserved":false,"is_disabled":false,"rental_uris":{"android":"levelo://app?vid=1e4f2c42-41a9-4ca6-909f-ba3e861e6f32","ios":"levelo://app?vid=1e4f2c42-41a9-4ca6-909f-ba3e861e6f32"},"vehicle_type_id":"4","last_reported":1727367067,"current_range_meters":32400,"station_id":"ce4bh692rcd13ifvqea0","pricing_plan_id":"cebpf4jnsgd1na2vs0mg"},{"bike_id":"07030c9f-b220-4d67-b434-1d818d1c7394","system_id":"levelo_inurba_marseille","lat":43.29901,"lon":5.43654,"is_reserved":false,"is_disabled":false,"rental_uris":{"android":"levelo://app?vid=07030c9f-b220-4d67-b434-1d818d1c7394","ios":"levelo://app?vid=07030c9f-b220-4d67-b434-1d818d1c7394"},"vehicle_type_id":"4","last_reported":1727367067,"current_range_meters":36800,"station_id":"ce4bhpp2rcd13ifvqhfg","pricing_plan_id":"cebpf4jnsgd1na2vs0mg"},{"bike_id":"9678fbfd-f27a-48f9-b854-ab0431ca077b","system_id":"levelo_inurba_marseille","lat":43.27183,"lon":5.4099,"is_reserved":false,"is_disabled":false,"rental_uris":{"android":"levelo://app?vid=9678fbfd-f27a-48f9-b854-ab0431ca077b","ios":"levelo://app?vid=9678fbfd-f27a-48f9-b854-ab0431ca077b"},"vehicle_type_id":"4","last_reported":1727367067,"current_range_meters":24800,"station_id":"ce4bhl12rcd13ifvqgf0","pricing_plan_id":"cebpf4jnsgd1na2vs0mg"},{"bike_id":"e976cfb0-97f6-44e2-ab0a-be8effa64774","system_id":"levelo_inurba_marseille","lat":43.30946,"lon":5.39032,"is_reserved":false,"is_disabled":false,"rental_uris":{"android":"levelo://app?vid=e976cfb0-97f6-44e2-ab0a-be8effa64774","ios":"levelo://app?vid=e976cfb0-97f6-44e2-ab0a-be8effa64774"},"vehicle_type_id":"4","last_reported":1727367067,"current_range_meters":11600,"station_id":"ce4bgup2rcd13ifvqco0","pricing_plan_id":"cebpf4jnsgd1na2vs0mg"},{"bike_id":"b4490c38-37c3-4382-9c83-0c30b9fbe2e9","system_id":"levelo_inurba_marseille","lat":43.31708,"lon":5.40457,"is_reserved":false,"is_disabled":false,"rental_uris":{"android":"levelo://app?vid=b4490c38-37c3-4382-9c83-0c30b9fbe2e9","ios":"levelo://app?vid=b4490c38-37c3-4382-9c83-0c30b9fbe2e9"},"vehicle_type_id":"4","last_reported":1727367067,"current_range_meters":30400,"station_id":"ce4bh012rcd13ifvqd00","pricing_plan_id":"cebpf4jnsgd1na2vs0mg"},{"bike_id":"f17dbafc-151f-485c-a428-c0c83c10c6c9","system_id":"levelo_inurba_marseille","lat":43.29156,"lon":5.43981,"is_reserved":false,"is_disabled":false,"rental_uris":{"android":"levelo://app?vid=f17dbafc-151f-485c-a428-c0c83c10c6c9","ios":"levelo://app?vid=f17dbafc-151f-485c-a428-c0c83c10c6c9"},"vehicle_type_id":"4","last_reported":1727367067,"current_range_meters":20400,"station_id":"","pricing_plan_id":"cebpf4jnsgd1na2vs0mg"},{"bike_id":"e53fd2af-a0b8-4189-af3a-14bc758748f4","system_id":"levelo_inurba_marseille","lat":43.29974,"lon":5.37183,"is_reserved":false,"is_disabled":false,"rental_uris":{"android":"levelo://app?vid=e53fd2af-a0b8-4189-af3a-14bc758748f4","ios":"levelo://app?vid=e53fd2af-a0b8-4189-af3a-14bc758748f4"},"vehicle_type_id":"4","last_reported":1727367067,"current_range_meters":30000,"station_id":"ce4bgr92rcd13ifvqc7g","pricing_plan_id":"cebpf4jnsgd1na2vs0mg"},{"bike_id":"55caec12-1fa8-4c1e-bf85-ede42b91b473","system_id":"levelo_inurba_marseille","lat":43.31762,"lon":5.39019,"is_reserved":false,"is_disabled":false,"rental_uris":{"android":"levelo://app?vid=55caec12-1fa8-4c1e-bf85-ede42b91b473","ios":"levelo://app?vid=55caec12-1fa8-4c1e-bf85-ede42b91b473"},"vehicle_type_id":"4","last_reported":1727367067,"current_range_meters":15200,"station_id":"ce4bhqp2rcd13ifvqhng","pricing_plan_id":"cebpf4jnsgd1na2vs0mg"},{"bike_id":"7cb42e29-f9dd-416b-bdbf-cb3f6f142bc0","system_id":"levelo_inurba_marseille","lat":43.26557,"lon":5.37284,"is_reserved":false,"is_disabled":false,"rental_uris":{"android":"levelo://app?vid=7cb42e29-f9dd-416b-bdbf-cb3f6f142bc0","ios":"levelo://app?vid=7cb42e29-f9dd-416b-bdbf-cb3f6f142bc0"},"vehicle_type_id":"4","last_reported":1727367067,"current_range_meters":38800,"station_id":"ce4bhg12rcd13ifvqf70","pricing_plan_id":"cebpf4jnsgd1na2vs0mg"},{"bike_id":"58fb51aa-9819-4068-b298-80c5b57d7c12","system_id":"levelo_inurba_marseille","lat":43.26211,"lon":5.37443,"is_reserved":false,"is_disabled":false,"rental_uris":{"android":"levelo://app?vid=58fb51aa-9819-4068-b298-80c5b57d7c12","ios":"levelo://app?vid=58fb51aa-9819-4068-b298-80c5b57d7c12"},"vehicle_type_id":"4","last_reported":1727367067,"current_range_meters":38800,"station_id":"ce4bhgp2rcd13ifvqfc0","pricing_plan_id":"cebpf4jnsgd1na2vs0mg"},{"bike_id":"9a075ef3-d3d1-45b4-b543-0991643d6d24","system_id":"levelo_inurba_marseille","lat":43.29621,"lon":5.3717,"is_reserved":false,"is_disabled":false,"rental_uris":{"android":"levelo://app?vid=9a075ef3-d3d1-45b4-b543-0991643d6d24","ios":"levelo://app?vid=9a075ef3-d3d1-45b4-b543-0991643d6d24"},"vehicle_type_id":"4","last_reported":1727367067,"current_range_meters":25200,"station_id":"ce4bgnh2rcd13ifvqc0g","pricing_plan_id":"cebpf4jnsgd1na2vs0mg"},{"bike_id":"8a6de41d-6e1a-489d-bd25-058645b06091","system_id":"levelo_inurba_marseille","lat":43.29637,"lon":5.40601,"is_reserved":false,"is_disabled":false,"rental_uris":{"android":"levelo://app?vid=8a6de41d-6e1a-489d-bd25-058645b06091","ios":"levelo://app?vid=8a6de41d-6e1a-489d-bd25-058645b06091"},"vehicle_type_id":"4","last_reported":1727367067,"current_range_meters":13600,"station_id":"ce4bh0h2rcd13ifvqd60","pricing_plan_id":"cebpf4jnsgd1na2vs0mg"},{"bike_id":"b83a07c8-3d44-4aa5-a716-78f6a1bb0564","system_id":"levelo_inurba_marseille","lat":43.32478,"lon":5.36572,"is_reserved":false,"is_disabled":false,"rental_uris":{"android":"levelo://app?vid=b83a07c8-3d44-4aa5-a716-78f6a1bb0564","ios":"levelo://app?vid=b83a07c8-3d44-4aa5-a716-78f6a1bb0564"},"vehicle_type_id":"4","last_reported":1727367067,"current_range_meters":38800,"station_id":"ce4bhs12rcd13ifvqhvg","pricing_plan_id":"cebpf4jnsgd1na2vs0mg"},{"bike_id":"2453f3b5-7d62-449d-9e47-e0f4370ec355","system_id":"levelo_inurba_marseille","lat":43.29869,"lon":5.3973,"is_reserved":false,"is_disabled":false,"rental_uris":{"android":"levelo://app?vid=2453f3b5-7d62-449d-9e47-e0f4370ec355","ios":"levelo://app?vid=2453f3b5-7d62-449d-9e47-e0f4370ec355"},"vehicle_type_id":"4","last_reported":1727367067,"current_range_meters":34800,"station_id":"ce4bh0h2rcd13ifvqd50","pricing_plan_id":"cebpf4jnsgd1na2vs0mg"},{"bike_id":"5356cf63-8b58-41a6-b04a-597daab02686","system_id":"levelo_inurba_marseille","lat":43.27177,"lon":5.4099,"is_reserved":false,"is_disabled":false,"rental_uris":{"android":"levelo://app?vid=5356cf63-8b58-41a6-b04a-597daab02686","ios":"levelo://app?vid=5356cf63-8b58-41a6-b04a-597daab02686"},"vehicle_type_id":"4","last_reported":1727367067,"current_range_meters":28400,"station_id":"ce4bhl12rcd13ifvqgf0","pricing_plan_id":"cebpf4jnsgd1na2vs0mg"},{"bike_id":"9b51c4ec-4702-43aa-a8fb-1cc696b9bd8a","system_id":"levelo_inurba_marseille","lat":43.26555,"lon":5.37288,"is_reserved":false,"is_disabled":false,"rental_uris":{"android":"levelo://app?vid=9b51c4ec-4702-43aa-a8fb-1cc696b9bd8a","ios":"levelo://app?vid=9b51c4ec-4702-43aa-a8fb-1cc696b9bd8a"},"vehicle_type_id":"4","last_reported":1727367067,"current_range_meters":38800,"station_id":"ce4bhg12rcd13ifvqf70","pricing_plan_id":"cebpf4jnsgd1na2vs0mg"},{"bike_id":"3e68e27f-1b46-49c5-a516-528a1ce2aded","system_id":"levelo_inurba_marseille","lat":43.29583,"lon":5.37513,"is_reserved":false,"is_disabled":false,"rental_uris":{"android":"levelo://app?vid=3e68e27f-1b46-49c5-a516-528a1ce2aded","ios":"levelo://app?vid=3e68e27f-1b46-49c5-a516-528a1ce2aded"},"vehicle_type_id":"4","last_reported":1727367067,"current_range_meters":38800,"station_id":"ce4bgh92rcd13ifvqb50","pricing_plan_id":"cebpf4jnsgd1na2vs0mg"},{"bike_id":"881a2c94-93c1-416c-ba41-acfc90c04668","system_id":"levelo_inurba_marseille","lat":43.26785,"lon":5.39418,"is_reserved":false,"is_disabled":false,"rental_uris":{"android":"levelo://app?vid=881a2c94-93c1-416c-ba41-acfc90c04668","ios":"levelo://app?vid=881a2c94-93c1-416c-ba41-acfc90c04668"},"vehicle_type_id":"4","last_reported":1727367067,"current_range_meters":39200,"station_id":"ce4bhh12rcd13ifvqfg0","pricing_plan_id":"cebpf4jnsgd1na2vs0mg"},{"bike_id":"205ba06f-f20b-4725-b2e3-26242ae4f522","system_id":"levelo_inurba_marseille","lat":43.28465,"lon":5.35891,"is_reserved":false,"is_disabled":false,"rental_uris":{"android":"levelo://app?vid=205ba06f-f20b-4725-b2e3-26242ae4f522","ios":"levelo://app?vid=205ba06f-f20b-4725-b2e3-26242ae4f522"},"vehicle_type_id":"4","last_reported":1727367067,"current_range_meters":6800,"station_id":"ce4bhah2rcd13ifvqei0","pricing_plan_id":"cebpf4jnsgd1na2vs0mg"},{"bike_id":"f5c85d1e-3e4d-4b6e-ac6e-3014c5c63901","system_id":"levelo_inurba_marseille","lat":43.30881,"lon":5.3966,"is_reserved":false,"is_disabled":false,"rental_uris":{"android":"levelo://app?vid=f5c85d1e-3e4d-4b6e-ac6e-3014c5c63901","ios":"levelo://app?vid=f5c85d1e-3e4d-4b6e-ac6e-3014c5c63901"},"vehicle_type_id":"4","last_reported":1727367067,"current_range_meters":19200,"station_id":"ce4bh012rcd13ifvqcv0","pricing_plan_id":"cebpf4jnsgd1na2vs0mg"},{"bike_id":"5da38e69-f62b-4de3-bea3-8379997e85c5","system_id":"levelo_inurba_marseille","lat":43.32476,"lon":5.36558,"is_reserved":false,"is_disabled":false,"rental_uris":{"android":"levelo://app?vid=5da38e69-f62b-4de3-bea3-8379997e85c5","ios":"levelo://app?vid=5da38e69-f62b-4de3-bea3-8379997e85c5"},"vehicle_type_id":"4","last_reported":1727367067,"current_range_meters":33200,"station_id":"ce4bhs12rcd13ifvqhvg","pricing_plan_id":"cebpf4jnsgd1na2vs0mg"},{"bike_id":"c8accb22-b05a-41e8-986d-14589c2611a2","system_id":"levelo_inurba_marseille","lat":43.28459,"lon":5.35877,"is_reserved":false,"is_disabled":false,"rental_uris":{"android":"levelo://app?vid=c8accb22-b05a-41e8-986d-14589c2611a2","ios":"levelo://app?vid=c8accb22-b05a-41e8-986d-14589c2611a2"},"vehicle_type_id":"4","last_reported":1727367067,"current_range_meters":14400,"station_id":"ce4bhah2rcd13ifvqei0","pricing_plan_id":"cebpf4jnsgd1na2vs0mg"},{"bike_id":"68b90aa5-fd10-43bb-bd26-ca22f8dd6c66","system_id":"levelo_inurba_marseille","lat":43.29635,"lon":5.40596,"is_reserved":false,"is_disabled":false,"rental_uris":{"android":"levelo://app?vid=68b90aa5-fd10-43bb-bd26-ca22f8dd6c66","ios":"levelo://app?vid=68b90aa5-fd10-43bb-bd26-ca22f8dd6c66"},"vehicle_type_id":"4","last_reported":1727367067,"current_range_meters":30000,"station_id":"ce4bh0h2rcd13ifvqd60","pricing_plan_id":"cebpf4jnsgd1na2vs0mg"},{"bike_id":"f7228a19-bbe7-4c74-acc1-6d1c69e62dd7","system_id":"levelo_inurba_marseille","lat":43.3028,"lon":5.36809,"is_reserved":false,"is_disabled":false,"rental_uris":{"android":"levelo://app?vid=f7228a19-bbe7-4c74-acc1-6d1c69e62dd7","ios":"levelo://app?vid=f7228a19-bbe7-4c74-acc1-6d1c69e62dd7"},"vehicle_type_id":"4","last_reported":1727367067,"current_range_meters":9200,"station_id":"","pricing_plan_id":"cebpf4jnsgd1na2vs0mg"},{"bike_id":"8b01be7d-5b91-4976-a4b1-82fce74552e9","system_id":"levelo_inurba_marseille","lat":43.25588,"lon":5.38231,"is_reserved":false,"is_disabled":false,"rental_uris":{"android":"levelo://app?vid=8b01be7d-5b91-4976-a4b1-82fce74552e9","ios":"levelo://app?vid=8b01be7d-5b91-4976-a4b1-82fce74552e9"},"vehicle_type_id":"4","last_reported":1727367067,"current_range_meters":16000,"station_id":"ce4bhih2rcd13ifvqfs0","pricing_plan_id":"cebpf4jnsgd1na2vs0mg"},{"bike_id":"495af44c-305f-45f7-a848-444063c1500c","system_id":"levelo_inurba_marseille","lat":43.31711,"lon":5.43705,"is_reserved":false,"is_disabled":false,"rental_uris":{"android":"levelo://app?vid=495af44c-305f-45f7-a848-444063c1500c","ios":"levelo://app?vid=495af44c-305f-45f7-a848-444063c1500c"},"vehicle_type_id":"4","last_reported":1727367067,"current_range_meters":37600,"station_id":"ce4bhp92rcd13ifvqhcg","pricing_plan_id":"cebpf4jnsgd1na2vs0mg"},{"bike_id":"c0035714-3acc-4423-bd27-7ed036457cf0","system_id":"levelo_inurba_marseille","lat":43.2737,"lon":5.36262,"is_reserved":false,"is_disabled":false,"rental_uris":{"android":"levelo://app?vid=c0035714-3acc-4423-bd27-7ed036457cf0","ios":"levelo://app?vid=c0035714-3acc-4423-bd27-7ed036457cf0"},"vehicle_type_id":"4","last_reported":1727367067,"current_range_meters":26000,"station_id":"ce4bhbh2rcd13ifvqeo0","pricing_plan_id":"cebpf4jnsgd1na2vs0mg"},{"bike_id":"cfb0d988-5687-40d7-90a4-b89fdbb4e017","system_id":"levelo_inurba_marseille","lat":43.3248,"lon":5.3656,"is_reserved":false,"is_disabled":false,"rental_uris":{"android":"levelo://app?vid=cfb0d988-5687-40d7-90a4-b89fdbb4e017","ios":"levelo://app?vid=cfb0d988-5687-40d7-90a4-b89fdbb4e017"},"vehicle_type_id":"4","last_reported":1727367067,"current_range_meters":39200,"station_id":"ce4bhs12rcd13ifvqhvg","pricing_plan_id":"cebpf4jnsgd1na2vs0mg"},{"bike_id":"7c43d4dd-ff69-4e63-b7de-87a8c28adb01","system_id":"levelo_inurba_marseille","lat":43.24387,"lon":5.37052,"is_reserved":false,"is_disabled":false,"rental_uris":{"android":"levelo://app?vid=7c43d4dd-ff69-4e63-b7de-87a8c28adb01","ios":"levelo://app?vid=7c43d4dd-ff69-4e63-b7de-87a8c28adb01"},"vehicle_type_id":"4","last_reported":1727367067,"current_range_meters":38800,"station_id":"ce4bhhh2rcd13ifvqfk0","pricing_plan_id":"cebpf4jnsgd1na2vs0mg"},{"bike_id":"4556eb19-17be-40bc-acdc-bef1966a039f","system_id":"levelo_inurba_marseille","lat":43.29723,"lon":5.37702,"is_reserved":false,"is_disabled":false,"rental_uris":{"android":"levelo://app?vid=4556eb19-17be-40bc-acdc-bef1966a039f","ios":"levelo://app?vid=4556eb19-17be-40bc-acdc-bef1966a039f"},"vehicle_type_id":"4","last_reported":1727367067,"current_range_meters":24800,"station_id":"ce4bgkh2rcd13ifvqbl0","pricing_plan_id":"cebpf4jnsgd1na2vs0mg"},{"bike_id":"59dd7440-e095-46aa-a73a-6af9f5241f85","system_id":"levelo_inurba_marseille","lat":43.26807,"lon":5.40274,"is_reserved":false,"is_disabled":false,"rental_uris":{"android":"levelo://app?vid=59dd7440-e095-46aa-a73a-6af9f5241f85","ios":"levelo://app?vid=59dd7440-e095-46aa-a73a-6af9f5241f85"},"vehicle_type_id":"4","last_reported":1727367067,"current_range_meters":2000,"station_id":"ce501612rcd8frsf0b60","pricing_plan_id":"cebpf4jnsgd1na2vs0mg"},{"bike_id":"3a8578e1-e10d-4adf-9e60-49ed71fbaa90","system_id":"levelo_inurba_marseille","lat":43.26558,"lon":5.37287,"is_reserved":false,"is_disabled":false,"rental_uris":{"android":"levelo://app?vid=3a8578e1-e10d-4adf-9e60-49ed71fbaa90","ios":"levelo://app?vid=3a8578e1-e10d-4adf-9e60-49ed71fbaa90"},"vehicle_type_id":"4","last_reported":1727367067,"current_range_meters":9200,"station_id":"ce4bhg12rcd13ifvqf70","pricing_plan_id":"cebpf4jnsgd1na2vs0mg"},{"bike_id":"b1bbf941-06ef-4305-8c59-681e2e0eba23","system_id":"levelo_inurba_marseille","lat":43.28708,"lon":5.39988,"is_reserved":false,"is_disabled":false,"rental_uris":{"android":"levelo://app?vid=b1bbf941-06ef-4305-8c59-681e2e0eba23","ios":"levelo://app?vid=b1bbf941-06ef-4305-8c59-681e2e0eba23"},"vehicle_type_id":"4","last_reported":1727367067,"current_range_meters":20400,"station_id":"ce4bho92rcd13ifvqh3g","pricing_plan_id":"cebpf4jnsgd1na2vs0mg"},{"bike_id":"b8994d55-2d04-4917-9d38-01dd899bf521","system_id":"levelo_inurba_marseille","lat":43.23968,"lon":5.36632,"is_reserved":false,"is_disabled":false,"rental_uris":{"android":"levelo://app?vid=b8994d55-2d04-4917-9d38-01dd899bf521","ios":"levelo://app?vid=b8994d55-2d04-4917-9d38-01dd899bf521"},"vehicle_type_id":"4","last_reported":1727367067,"current_range_meters":8800,"station_id":"ce4bhi12rcd13ifvqfp0","pricing_plan_id":"cebpf4jnsgd1na2vs0mg"},{"bike_id":"404c4bd3-d4f1-4be2-9ada-08d3da425776","system_id":"levelo_inurba_marseille","lat":43.29294,"lon":5.371812,"is_reserved":false,"is_disabled":false,"rental_uris":{"android":"levelo://app?vid=404c4bd3-d4f1-4be2-9ada-08d3da425776","ios":"levelo://app?vid=404c4bd3-d4f1-4be2-9ada-08d3da425776"},"vehicle_type_id":"4","last_reported":1727367067,"current_range_meters":19600,"station_id":"ce4bgh92rcd13ifvqb40","pricing_plan_id":"cebpf4jnsgd1na2vs0mg"},{"bike_id":"7de43b17-298c-4d81-9660-50122dcc207b","system_id":"levelo_inurba_marseille","lat":43.29534,"lon":5.37514,"is_reserved":false,"is_disabled":false,"rental_uris":{"android":"levelo://app?vid=7de43b17-298c-4d81-9660-50122dcc207b","ios":"levelo://app?vid=7de43b17-298c-4d81-9660-50122dcc207b"},"vehicle_type_id":"4","last_reported":1727367067,"current_range_meters":31200,"station_id":"ce4bgkp2rcd13ifvqbmg","pricing_plan_id":"cebpf4jnsgd1na2vs0mg"},{"bike_id":"c7c6826d-98cb-4eba-91bd-c605d31a9a49","system_id":"levelo_inurba_marseille","lat":43.31167,"lon":5.40112,"is_reserved":false,"is_disabled":false,"rental_uris":{"android":"levelo://app?vid=c7c6826d-98cb-4eba-91bd-c605d31a9a49","ios":"levelo://app?vid=c7c6826d-98cb-4eba-91bd-c605d31a9a49"},"vehicle_type_id":"4","last_reported":1727367067,"current_range_meters":17600,"station_id":"ce4bh092rcd13ifvqd30","pricing_plan_id":"cebpf4jnsgd1na2vs0mg"},{"bike_id":"8656eb52-6e49-4b69-9d7e-577bcb4301c6","system_id":"levelo_inurba_marseille","lat":43.32111,"lon":5.36766,"is_reserved":false,"is_disabled":false,"rental_uris":{"android":"levelo://app?vid=8656eb52-6e49-4b69-9d7e-577bcb4301c6","ios":"levelo://app?vid=8656eb52-6e49-4b69-9d7e-577bcb4301c6"},"vehicle_type_id":"4","last_reported":1727367067,"current_range_meters":38400,"station_id":"ce4bhrh2rcd13ifvqhug","pricing_plan_id":"cebpf4jnsgd1na2vs0mg"},{"bike_id":"99239da4-4696-4592-abba-751498e2d0be","system_id":"levelo_inurba_marseille","lat":43.29302,"lon":5.37459,"is_reserved":false,"is_disabled":false,"rental_uris":{"android":"levelo://app?vid=99239da4-4696-4592-abba-751498e2d0be","ios":"levelo://app?vid=99239da4-4696-4592-abba-751498e2d0be"},"vehicle_type_id":"4","last_reported":1727367067,"current_range_meters":3200,"station_id":"ce4bgi12rcd13ifvqb70","pricing_plan_id":"cebpf4jnsgd1na2vs0mg"},{"bike_id":"ee134ec8-98b7-453b-90f4-040791517515","system_id":"levelo_inurba_marseille","lat":43.24811,"lon":5.37461,"is_reserved":false,"is_disabled":false,"rental_uris":{"android":"levelo://app?vid=ee134ec8-98b7-453b-90f4-040791517515","ios":"levelo://app?vid=ee134ec8-98b7-453b-90f4-040791517515"},"vehicle_type_id":"4","last_reported":1727367067,"current_range_meters":38800,"station_id":"ce4bhgh2rcd13ifvqfb0","pricing_plan_id":"cebpf4jnsgd1na2vs0mg"},{"bike_id":"f205bbcd-191a-4ed0-bf0e-cdde12636a27","system_id":"levelo_inurba_marseille","lat":43.27999,"lon":5.40003,"is_reserved":false,"is_disabled":false,"rental_uris":{"android":"levelo://app?vid=f205bbcd-191a-4ed0-bf0e-cdde12636a27","ios":"levelo://app?vid=f205bbcd-191a-4ed0-bf0e-cdde12636a27"},"vehicle_type_id":"4","last_reported":1727367067,"current_range_meters":8000,"station_id":"ce4bho92rcd13ifvqh4g","pricing_plan_id":"cebpf4jnsgd1na2vs0mg"},{"bike_id":"affc44ac-d8aa-44ab-b1a5-025392daad77","system_id":"levelo_inurba_marseille","lat":43.32002,"lon":5.38164,"is_reserved":false,"is_disabled":false,"rental_uris":{"android":"levelo://app?vid=affc44ac-d8aa-44ab-b1a5-025392daad77","ios":"levelo://app?vid=affc44ac-d8aa-44ab-b1a5-025392daad77"},"vehicle_type_id":"4","last_reported":1727367067,"current_range_meters":30800,"station_id":"ce4bhr12rcd13ifvqhpg","pricing_plan_id":"cebpf4jnsgd1na2vs0mg"},{"bike_id":"ae7496aa-2fd9-4228-93eb-59179f4ca647","system_id":"levelo_inurba_marseille","lat":43.29903,"lon":5.43663,"is_reserved":false,"is_disabled":false,"rental_uris":{"android":"levelo://app?vid=ae7496aa-2fd9-4228-93eb-59179f4ca647","ios":"levelo://app?vid=ae7496aa-2fd9-4228-93eb-59179f4ca647"},"vehicle_type_id":"4","last_reported":1727367067,"current_range_meters":28800,"station_id":"ce4bhpp2rcd13ifvqhfg","pricing_plan_id":"cebpf4jnsgd1na2vs0mg"},{"bike_id":"464bf0fd-b3d7-4f39-9b7c-da296295a9f1","system_id":"levelo_inurba_marseille","lat":43.29006,"lon":5.35608,"is_reserved":false,"is_disabled":false,"rental_uris":{"android":"levelo://app?vid=464bf0fd-b3d7-4f39-9b7c-da296295a9f1","ios":"levelo://app?vid=464bf0fd-b3d7-4f39-9b7c-da296295a9f1"},"vehicle_type_id":"4","last_reported":1727367067,"current_range_meters":26800,"station_id":"ce4bhb92rcd13ifvqen0","pricing_plan_id":"cebpf4jnsgd1na2vs0mg"},{"bike_id":"74d84006-36ee-4173-9183-f9731f103927","system_id":"levelo_inurba_marseille","lat":43.31275,"lon":5.40167,"is_reserved":false,"is_disabled":false,"rental_uris":{"android":"levelo://app?vid=74d84006-36ee-4173-9183-f9731f103927","ios":"levelo://app?vid=74d84006-36ee-4173-9183-f9731f103927"},"vehicle_type_id":"4","last_reported":1727367067,"current_range_meters":22400,"station_id":"ce4bh092rcd13ifvqd30","pricing_plan_id":"cebpf4jnsgd1na2vs0mg"},{"bike_id":"2fc33999-a444-4909-acc3-e642cfb67aa3","system_id":"levelo_inurba_marseille","lat":43.29806,"lon":5.38104,"is_reserved":false,"is_disabled":false,"rental_uris":{"android":"levelo://app?vid=2fc33999-a444-4909-acc3-e642cfb67aa3","ios":"levelo://app?vid=2fc33999-a444-4909-acc3-e642cfb67aa3"},"vehicle_type_id":"4","last_reported":1727367067,"current_range_meters":25600,"station_id":"ce4bgip2rcd13ifvqbb0","pricing_plan_id":"cebpf4jnsgd1na2vs0mg"},{"bike_id":"09c066d0-b55d-4051-b473-6516efbb725c","system_id":"levelo_inurba_marseille","lat":43.31712,"lon":5.37742,"is_reserved":false,"is_disabled":false,"rental_uris":{"android":"levelo://app?vid=09c066d0-b55d-4051-b473-6516efbb725c","ios":"levelo://app?vid=09c066d0-b55d-4051-b473-6516efbb725c"},"vehicle_type_id":"4","last_reported":1727367067,"current_range_meters":10800,"station_id":"ce4bgth2rcd13ifvqch0","pricing_plan_id":"cebpf4jnsgd1na2vs0mg"},{"bike_id":"bece8c30-f0c2-4c88-9e61-2cae7c93b02f","system_id":"levelo_inurba_marseille","lat":43.32478,"lon":5.36569,"is_reserved":false,"is_disabled":false,"rental_uris":{"android":"levelo://app?vid=bece8c30-f0c2-4c88-9e61-2cae7c93b02f","ios":"levelo://app?vid=bece8c30-f0c2-4c88-9e61-2cae7c93b02f"},"vehicle_type_id":"4","last_reported":1727367067,"current_range_meters":24800,"station_id":"ce4bhs12rcd13ifvqhvg","pricing_plan_id":"cebpf4jnsgd1na2vs0mg"},{"bike_id":"bcc9c574-7fcb-45a0-b860-b20f66a59eef","system_id":"levelo_inurba_marseille","lat":43.23853,"lon":5.43093,"is_reserved":false,"is_disabled":false,"rental_uris":{"android":"levelo://app?vid=bcc9c574-7fcb-45a0-b860-b20f66a59eef","ios":"levelo://app?vid=bcc9c574-7fcb-45a0-b860-b20f66a59eef"},"vehicle_type_id":"4","last_reported":1727367067,"current_range_meters":17600,"station_id":"","pricing_plan_id":"cebpf4jnsgd1na2vs0mg"},{"bike_id":"b3bf015d-faca-4f95-a717-4d9d67d6fa90","system_id":"levelo_inurba_marseille","lat":43.29796,"lon":5.3811,"is_reserved":false,"is_disabled":false,"rental_uris":{"android":"levelo://app?vid=b3bf015d-faca-4f95-a717-4d9d67d6fa90","ios":"levelo://app?vid=b3bf015d-faca-4f95-a717-4d9d67d6fa90"},"vehicle_type_id":"4","last_reported":1727367067,"current_range_meters":4000,"station_id":"ce4bgip2rcd13ifvqbb0","pricing_plan_id":"cebpf4jnsgd1na2vs0mg"},{"bike_id":"4415e0a7-f50f-4df9-acc6-36d7f02e3eb9","system_id":"levelo_inurba_marseille","lat":43.324874,"lon":5.365579,"is_reserved":false,"is_disabled":false,"rental_uris":{"android":"levelo://app?vid=4415e0a7-f50f-4df9-acc6-36d7f02e3eb9","ios":"levelo://app?vid=4415e0a7-f50f-4df9-acc6-36d7f02e3eb9"},"vehicle_type_id":"4","last_reported":1727367067,"current_range_meters":39200,"station_id":"ce4bhs12rcd13ifvqhvg","pricing_plan_id":"cebpf4jnsgd1na2vs0mg"},{"bike_id":"067a5099-11bf-406b-b3d0-465ef042579d","system_id":"levelo_inurba_marseille","lat":43.30136,"lon":5.39872,"is_reserved":false,"is_disabled":false,"rental_uris":{"android":"levelo://app?vid=067a5099-11bf-406b-b3d0-465ef042579d","ios":"levelo://app?vid=067a5099-11bf-406b-b3d0-465ef042579d"},"vehicle_type_id":"4","last_reported":1727367067,"current_range_meters":38800,"station_id":"ce4bh0h2rcd13ifvqd40","pricing_plan_id":"cebpf4jnsgd1na2vs0mg"},{"bike_id":"dcbc07d3-730c-49de-8db1-bbc3a5a9347a","system_id":"levelo_inurba_marseille","lat":43.28155,"lon":5.42642,"is_reserved":false,"is_disabled":false,"rental_uris":{"android":"levelo://app?vid=dcbc07d3-730c-49de-8db1-bbc3a5a9347a","ios":"levelo://app?vid=dcbc07d3-730c-49de-8db1-bbc3a5a9347a"},"vehicle_type_id":"4","last_reported":1727367067,"current_range_meters":16000,"station_id":"ce4bhnh2rcd13ifvqgug","pricing_plan_id":"cebpf4jnsgd1na2vs0mg"},{"bike_id":"aac26247-0ad3-42be-8362-81909e56d5cb","system_id":"levelo_inurba_marseille","lat":43.29961,"lon":5.38496,"is_reserved":false,"is_disabled":false,"rental_uris":{"android":"levelo://app?vid=aac26247-0ad3-42be-8362-81909e56d5cb","ios":"levelo://app?vid=aac26247-0ad3-42be-8362-81909e56d5cb"},"vehicle_type_id":"4","last_reported":1727367067,"current_range_meters":3600,"station_id":"ce4bgj92rcd13ifvqbd0","pricing_plan_id":"cebpf4jnsgd1na2vs0mg"},{"bike_id":"318a6e30-ecb8-4230-bbed-543f7961fccf","system_id":"levelo_inurba_marseille","lat":43.29799,"lon":5.40402,"is_reserved":false,"is_disabled":false,"rental_uris":{"android":"levelo://app?vid=318a6e30-ecb8-4230-bbed-543f7961fccf","ios":"levelo://app?vid=318a6e30-ecb8-4230-bbed-543f7961fccf"},"vehicle_type_id":"4","last_reported":1727367067,"current_range_meters":7200,"station_id":"ce4bh112rcd13ifvqd90","pricing_plan_id":"cebpf4jnsgd1na2vs0mg"},{"bike_id":"d1bc7ee8-81b7-40b3-947b-1197a7b5273c","system_id":"levelo_inurba_marseille","lat":43.29893,"lon":5.43665,"is_reserved":false,"is_disabled":false,"rental_uris":{"android":"levelo://app?vid=d1bc7ee8-81b7-40b3-947b-1197a7b5273c","ios":"levelo://app?vid=d1bc7ee8-81b7-40b3-947b-1197a7b5273c"},"vehicle_type_id":"4","last_reported":1727367067,"current_range_meters":3600,"station_id":"ce4bhpp2rcd13ifvqhfg","pricing_plan_id":"cebpf4jnsgd1na2vs0mg"},{"bike_id":"5c57a883-508b-41ba-96c4-34be1920578c","system_id":"levelo_inurba_marseille","lat":43.25084,"lon":5.39525,"is_reserved":false,"is_disabled":false,"rental_uris":{"android":"levelo://app?vid=5c57a883-508b-41ba-96c4-34be1920578c","ios":"levelo://app?vid=5c57a883-508b-41ba-96c4-34be1920578c"},"vehicle_type_id":"4","last_reported":1727367067,"current_range_meters":25600,"station_id":"ce4bhm12rcd13ifvqgkg","pricing_plan_id":"cebpf4jnsgd1na2vs0mg"},{"bike_id":"5f442181-59a1-4553-ad1c-1018f4c0f497","system_id":"levelo_inurba_marseille","lat":43.28721,"lon":5.36083,"is_reserved":false,"is_disabled":false,"rental_uris":{"android":"levelo://app?vid=5f442181-59a1-4553-ad1c-1018f4c0f497","ios":"levelo://app?vid=5f442181-59a1-4553-ad1c-1018f4c0f497"},"vehicle_type_id":"4","last_reported":1727367067,"current_range_meters":38800,"station_id":"cki0cbj6b192h4jlfktg","pricing_plan_id":"cebpf4jnsgd1na2vs0mg"},{"bike_id":"3336d0f7-2956-4fea-9c3e-b942521fe8ab","system_id":"levelo_inurba_marseille","lat":43.29902,"lon":5.43655,"is_reserved":false,"is_disabled":false,"rental_uris":{"android":"levelo://app?vid=3336d0f7-2956-4fea-9c3e-b942521fe8ab","ios":"levelo://app?vid=3336d0f7-2956-4fea-9c3e-b942521fe8ab"},"vehicle_type_id":"4","last_reported":1727367067,"current_range_meters":36800,"station_id":"ce4bhpp2rcd13ifvqhfg","pricing_plan_id":"cebpf4jnsgd1na2vs0mg"},{"bike_id":"f4c832e6-8540-4362-82b5-f57e14f893cb","system_id":"levelo_inurba_marseille","lat":43.29301,"lon":5.37458,"is_reserved":false,"is_disabled":false,"rental_uris":{"android":"levelo://app?vid=f4c832e6-8540-4362-82b5-f57e14f893cb","ios":"levelo://app?vid=f4c832e6-8540-4362-82b5-f57e14f893cb"},"vehicle_type_id":"4","last_reported":1727367067,"current_range_meters":23200,"station_id":"ce4bgi12rcd13ifvqb70","pricing_plan_id":"cebpf4jnsgd1na2vs0mg"},{"bike_id":"a647c03e-5e8d-4cbb-b4d4-38775b0b612b","system_id":"levelo_inurba_marseille","lat":43.31724,"lon":5.424,"is_reserved":false,"is_disabled":false,"rental_uris":{"android":"levelo://app?vid=a647c03e-5e8d-4cbb-b4d4-38775b0b612b","ios":"levelo://app?vid=a647c03e-5e8d-4cbb-b4d4-38775b0b612b"},"vehicle_type_id":"4","last_reported":1727367067,"current_range_meters":15200,"station_id":"ce4bhp92rcd13ifvqhbg","pricing_plan_id":"cebpf4jnsgd1na2vs0mg"},{"bike_id":"28e5afae-15b3-4bd9-81ac-2bbfe509221e","system_id":"levelo_inurba_marseille","lat":43.31526,"lon":5.38038,"is_reserved":false,"is_disabled":false,"rental_uris":{"android":"levelo://app?vid=28e5afae-15b3-4bd9-81ac-2bbfe509221e","ios":"levelo://app?vid=28e5afae-15b3-4bd9-81ac-2bbfe509221e"},"vehicle_type_id":"4","last_reported":1727367067,"current_range_meters":15200,"station_id":"ce4bhsp2rcd13ifvqi50","pricing_plan_id":"cebpf4jnsgd1na2vs0mg"},{"bike_id":"c6a3db17-74dd-428c-aad6-e7b52e0f0d49","system_id":"levelo_inurba_marseille","lat":43.32484,"lon":5.36555,"is_reserved":false,"is_disabled":false,"rental_uris":{"android":"levelo://app?vid=c6a3db17-74dd-428c-aad6-e7b52e0f0d49","ios":"levelo://app?vid=c6a3db17-74dd-428c-aad6-e7b52e0f0d49"},"vehicle_type_id":"4","last_reported":1727367067,"current_range_meters":27200,"station_id":"ce4bhs12rcd13ifvqhvg","pricing_plan_id":"cebpf4jnsgd1na2vs0mg"},{"bike_id":"9eb3330a-e08e-4da3-8ed1-9a5614460517","system_id":"levelo_inurba_marseille","lat":43.26552,"lon":5.37285,"is_reserved":false,"is_disabled":false,"rental_uris":{"android":"levelo://app?vid=9eb3330a-e08e-4da3-8ed1-9a5614460517","ios":"levelo://app?vid=9eb3330a-e08e-4da3-8ed1-9a5614460517"},"vehicle_type_id":"4","last_reported":1727367067,"current_range_meters":8400,"station_id":"ce4bhg12rcd13ifvqf70","pricing_plan_id":"cebpf4jnsgd1na2vs0mg"},{"bike_id":"4a0c6460-3536-458d-b0b5-ef8cb207aaf2","system_id":"levelo_inurba_marseille","lat":43.32291,"lon":5.38263,"is_reserved":false,"is_disabled":false,"rental_uris":{"android":"levelo://app?vid=4a0c6460-3536-458d-b0b5-ef8cb207aaf2","ios":"levelo://app?vid=4a0c6460-3536-458d-b0b5-ef8cb207aaf2"},"vehicle_type_id":"4","last_reported":1727367067,"current_range_meters":32400,"station_id":"ce4bhr12rcd13ifvqhqg","pricing_plan_id":"cebpf4jnsgd1na2vs0mg"},{"bike_id":"8aea8088-d6ae-4740-b35b-5d9bdd0f8913","system_id":"levelo_inurba_marseille","lat":43.30801,"lon":5.43541,"is_reserved":false,"is_disabled":false,"rental_uris":{"android":"levelo://app?vid=8aea8088-d6ae-4740-b35b-5d9bdd0f8913","ios":"levelo://app?vid=8aea8088-d6ae-4740-b35b-5d9bdd0f8913"},"vehicle_type_id":"4","last_reported":1727367067,"current_range_meters":18800,"station_id":"ce4bhph2rcd13ifvqheg","pricing_plan_id":"cebpf4jnsgd1na2vs0mg"},{"bike_id":"763ffb23-4fd1-4072-919f-85f500220ed5","system_id":"levelo_inurba_marseille","lat":43.29581,"lon":5.36736,"is_reserved":false,"is_disabled":false,"rental_uris":{"android":"levelo://app?vid=763ffb23-4fd1-4072-919f-85f500220ed5","ios":"levelo://app?vid=763ffb23-4fd1-4072-919f-85f500220ed5"},"vehicle_type_id":"4","last_reported":1727367067,"current_range_meters":35600,"station_id":"ce4bgph2rcd13ifvqc2g","pricing_plan_id":"cebpf4jnsgd1na2vs0mg"},