{"last_updated":1735960330,"ttl":60,"version":"2.2","data":{"bikes":[{"bike_id":"7e37bb78-6df8-4065-a33a-785e0d2acb31","system_id":"levelo_inurba_marseille","lat":43.29186,"lon":5.35788,"is_reserved":false,"is_disabled":false,"rental_uris":{"android":"levelo://app?vid=7e37bb78-6df8-4065-a33a-785e0d2acb31","ios":"levelo://app?vid=7e37bb78-6df8-4065-a33a-785e0d2acb31"},"vehicle_type_id":"4","last_reported":1735960330,"current_range_meters":39200,"station_id":"ce4bhb12rcd13ifvqel0","pricing_plan_id":"cebpf4jnsgd1na2vs0mg"},{"bike_id":"0dead8bf-cfce-47e2-9a37-65d84692e715","system_id":"levelo_inurba_marseille","lat":43.30139,"lon":5.3986,"is_reserved":false,"is_disabled":false,"rental_uris":{"android":"levelo://app?vid=0dead8bf-cfce-47e2-9a37-65d84692e715","ios":"levelo://app?vid=0dead8bf-cfce-47e2-9a37-65d84692e715"},"vehicle_type_id":"4","last_reported":1735960330,"current_range_meters":32000,"station_id":"ce4bh0h2rcd13ifvqd40","pricing_plan_id":"cebpf4jnsgd1na2vs0mg"},{"bike_id":"bf54e88b-da3f-4189-8098-c83ac2078216","system_id":"levelo_inurba_marseille","lat":43.27948,"lon":5.41039,"is_reserved":false,"is_disabled":false,"rental_uris":{"android":"levelo://app?vid=bf54e88b-da3f-4189-8098-c83ac2078216","ios":"levelo://app?vid=bf54e88b-da3f-4189-8098-c83ac2078216"},"vehicle_type_id":"4","last_reported":1735960330,"current_range_meters":25600,"station_id":"ce4bhnp2rcd13ifvqh0g","pricing_plan_id":"cebpf4jnsgd1na2vs0mg"},{"bike_id":"8a1c8515-1ea6-4df4-8053-9c02da774842","system_id":"levelo_inurba_marseille","lat":43.30657,"lon":5.40082,"is_reserved":false,"is_disabled":false,"rental_uris":{"android":"levelo://app?vid=8a1c8515-1ea6-4df4-8053-9c02da774842","ios":"levelo://app?vid=8a1c8515-1ea6-4df4-8053-9c02da774842"},"vehicle_type_id":"4","last_reported":1735960330,"current_range_meters":3600,"station_id":"ce4bh112rcd13ifvqda0","pricing_plan_id":"cebpf4jnsgd1na2vs0mg"},{"bike_id":"7ebb8584-61a3-4124-a2af-8145a28fbd50","system_id":"levelo_inurba_marseille","lat":43.311689,"lon":5.387163,"is_reserved":false,"is_disabled":false,"rental_uris":{"android":"levelo://app?vid=7ebb8584-61a3-4124-a2af-8145a28fbd50","ios":"levelo://app?vid=7ebb8584-61a3-4124-a2af-8145a28fbd50"},"vehicle_type_id":"4","last_reported":1735960330,"current_range_meters":38400,"station_id":"ce4bgv12rcd13ifvqcp0","pricing_plan_id":"cebpf4jnsgd1na2vs0mg"},{"bike_id":"05793010-67bf-4cf9-85c1-266c8ecb0e3c","system_id":"levelo_inurba_marseille","lat":43.239615,"lon":5.366383,"is_reserved":false,"is_disabled":false,"rental_uris":{"android":"levelo://app?vid=05793010-67bf-4cf9-85c1-266c8ecb0e3c","ios":"levelo://app?vid=05793010-67bf-4cf9-85c1-266c8ecb0e3c"},"vehicle_type_id":"4","last_reported":1735960330,"current_range_meters":35200,"station_id":"ce4bhi12rcd13ifvqfp0","pricing_plan_id":"cebpf4jnsgd1na2vs0mg"},{"bike_id":"f384c3fa-1379-45bb-873d-560539185d63","system_id":"levelo_inurba_marseille","lat":43.32114,"lon":5.36779,"is_reserved":false,"is_disabled":false,"rental_uris":{"android":"levelo://app?vid=f384c3fa-1379-45bb-873d-560539185d63","ios":"levelo://app?vid=f384c3fa-1379-45bb-873d-560539185d63"},"vehicle_type_id":"4","last_reported":1735960330,"current_range_meters":29600,"station_id":"ce4bhrh2rcd13ifvqhug","pricing_plan_id":"cebpf4jnsgd1na2vs0mg"},{"bike_id":"ca4beb2c-c4d8-484f-9237-25798230877a","system_id":"levelo_inurba_marseille","lat":43.29005,"lon":5.35617,"is_reserved":false,"is_disabled":false,"rental_uris":{"android":"levelo://app?vid=ca4beb2c-c4d8-484f-9237-25798230877a","ios":"levelo://app?vid=ca4beb2c-c4d8-484f-9237-25798230877a"},"vehicle_type_id":"4","last_reported":1735960330,"current_range_meters":39200,"station_id":"ce4bhb92rcd13ifvqen0","pricing_plan_id":"cebpf4jnsgd1na2vs0mg"},{"bike_id":"cdc4b0cc-0711-4b56-904c-59d269c327ef","system_id":"levelo_inurba_marseille","lat":43.31344,"lon":5.39687,"is_reserved":false,"is_disabled":false,"rental_uris":{"android":"levelo://app?vid=cdc4b0cc-0711-4b56-904c-59d269c327ef","ios":"levelo://app?vid=cdc4b0cc-0711-4b56-904c-59d269c327ef"},"vehicle_type_id":"4","last_reported":1735960330,"current_range_meters":38000,"station_id":"ce4bgvp2rcd13ifvqcu0","pricing_plan_id":"cebpf4jnsgd1na2vs0mg"},{"bike_id":"e1dfcdee-18af-407f-9a6c-807a8fefbf81","system_id":"levelo_inurba_marseille","lat":43.29004,"lon":5.35593,"is_reserved":false,"is_disabled":false,"rental_uris":{"android":"levelo://app?vid=e1dfcdee-18af-407f-9a6c-807a8fefbf81","ios":"levelo://app?vid=e1dfcdee-18af-407f-9a6c-807a8fefbf81"},"vehicle_type_id":"4","last_reported":1735960330,"current_range_meters":38800,"station_id":"ce4bhb92rcd13ifvqen0","pricing_plan_id":"cebpf4jnsgd1na2vs0mg"},{"bike_id":"d983dea5-70b4-4f36-bbbe-3e06107ca98c","system_id":"levelo_inurba_marseille","lat":43.286809,"lon":5.386606,"is_reserved":false,"is_disabled":false,"rental_uris":{"android":"levelo://app?vid=d983dea5-70b4-4f36-bbbe-3e06107ca98c","ios":"levelo://app?vid=d983dea5-70b4-4f36-bbbe-3e06107ca98c"},"vehicle_type_id":"4","last_reported":1735960330,"current_range_meters":23200,"station_id":"ce4bh492rcd13ifvqdug","pricing_plan_id":"cebpf4jnsgd1na2vs0mg"},{"bike_id":"36d0910b-d540-4d75-b065-f044cb5b6555","system_id":"levelo_inurba_marseille","lat":43.29591,"lon":5.36731,"is_reserved":false,"is_disabled":false,"rental_uris":{"android":"levelo://app?vid=36d0910b-d540-4d75-b065-f044cb5b6555","ios":"levelo://app?vid=36d0910b-d540-4d75-b065-f044cb5b6555"},"vehicle_type_id":"4","last_reported":1735960330,"current_range_meters":38800,"station_id":"ce4bgph2rcd13ifvqc2g","pricing_plan_id":"cebpf4jnsgd1na2vs0mg"},{"bike_id":"9ed1d7d7-aa53-4a59-8c2f-3f877ca0891a","system_id":"levelo_inurba_marseille","lat":43.27918,"lon":5.41052,"is_reserved":false,"is_disabled":false,"rental_uris":{"android":"levelo://app?vid=9ed1d7d7-aa53-4a59-8c2f-3f877ca0891a","ios":"levelo://app?vid=9ed1d7d7-aa53-4a59-8c2f-3f877ca0891a"},"vehicle_type_id":"4","last_reported":1735960330,"current_range_meters":34800,"station_id":"ce4bhnp2rcd13ifvqh0g","pricing_plan_id":"cebpf4jnsgd1na2vs0mg"},{"bike_id":"48e7821a-d358-4e69-bb72-a0000778557d","system_id":"levelo_inurba_marseille","lat":43.31762,"lon":5.39018,"is_reserved":false,"is_disabled":false,"rental_uris":{"android":"levelo://app?vid=48e7821a-d358-4e69-bb72-a0000778557d","ios":"levelo://app?vid=48e7821a-d358-4e69-bb72-a0000778557d"},"vehicle_type_id":"4","last_reported":1735960330,"current_range_meters":38800,"station_id":"ce4bhqp2rcd13ifvqhng","pricing_plan_id":"cebpf4jnsgd1na2vs0mg"},{"bike_id":"fe3aafb8-a6b4-4a18-a86a-13b013e22a76","system_id":"levelo_inurba_marseille","lat":43.314983,"lon":5.373082,"is_reserved":false,"is_disabled":false,"rental_uris":{"android":"levelo://app?vid=fe3aafb8-a6b4-4a18-a86a-13b013e22a76","ios":"levelo://app?vid=fe3aafb8-a6b4-4a18-a86a-13b013e22a76"},"vehicle_type_id":"4","last_reported":1735960330,"current_range_meters":37600,"station_id":"ce4bgt12rcd13ifvqcd0","pricing_plan_id":"cebpf4jnsgd1na2vs0mg"},{"bike_id":"a5e8d165-70e0-422e-a09a-e4ad1afc121d","system_id":"levelo_inurba_marseille","lat":43.2841,"lon":5.41305,"is_reserved":false,"is_disabled":true,"rental_uris":{"android":"levelo://app?vid=a5e8d165-70e0-422e-a09a-e4ad1afc121d","ios":"levelo://app?vid=a5e8d165-70e0-422e-a09a-e4ad1afc121d"},"vehicle_type_id":"4","last_reported":1735960330,"current_range_meters":27600,"station_id":"","pricing_plan_id":"cebpf4jnsgd1na2vs0mg"},{"bike_id":"116f92ae-65b4-4f7c-a23b-1117c0a69b33","system_id":"levelo_inurba_marseille","lat":43.28619,"lon":5.351038,"is_reserved":false,"is_disabled":false,"rental_uris":{"android":"levelo://app?vid=116f92ae-65b4-4f7c-a23b-1117c0a69b33","ios":"levelo://app?vid=116f92ae-65b4-4f7c-a23b-1117c0a69b33"},"vehicle_type_id":"4","last_reported":1735960330,"current_range_meters":24800,"station_id":"ce4bhch2rcd13ifvqeug","pricing_plan_id":"cebpf4jnsgd1na2vs0mg"},{"bike_id":"efe82dc4-c15f-4046-9226-91dca361e6bd","system_id":"levelo_inurba_marseille","lat":43.25585,"lon":5.38244,"is_reserved":false,"is_disabled":false,"rental_uris":{"android":"levelo://app?vid=efe82dc4-c15f-4046-9226-91dca361e6bd","ios":"levelo://app?vid=efe82dc4-c15f-4046-9226-91dca361e6bd"},"vehicle_type_id":"4","last_reported":1735960330,"current_range_meters":38800,"station_id":"ce4bhih2rcd13ifvqfs0","pricing_plan_id":"cebpf4jnsgd1na2vs0mg"},{"bike_id":"0a72fabb-c385-470f-8026-c60effe2f3f0","system_id":"levelo_inurba_marseille","lat":43.29675,"lon":5.35968,"is_reserved":false,"is_disabled":false,"rental_uris":{"android":"levelo://app?vid=0a72fabb-c385-470f-8026-c60effe2f3f0","ios":"levelo://app?vid=0a72fabb-c385-470f-8026-c60effe2f3f0"},"vehicle_type_id":"4","last_reported":1735960330,"current_range_meters":22800,"station_id":"","pricing_plan_id":"cebpf4jnsgd1na2vs0mg"},{"bike_id":"1b1277ee-e053-4b62-84de-42724b9e0c2d","system_id":"levelo_inurba_marseille","lat":43.30303,"lon":5.36911,"is_reserved":false,"is_disabled":false,"rental_uris":{"android":"levelo://app?vid=1b1277ee-e053-4b62-84de-42724b9e0c2d","ios":"levelo://app?vid=1b1277ee-e053-4b62-84de-42724b9e0c2d"},"vehicle_type_id":"4","last_reported":1735960330,"current_range_meters":38800,"station_id":"ce4bgqh2rcd13ifvqc5g","pricing_plan_id":"cebpf4jnsgd1na2vs0mg"},{"bike_id":"76d392c8-6dd4-4fbf-b626-27c2990c047b","system_id":"levelo_inurba_marseille","lat":43.28132,"lon":5.42773,"is_reserved":false,"is_disabled":false,"rental_uris":{"android":"levelo://app?vid=76d392c8-6dd4-4fbf-b626-27c2990c047b","ios":"levelo://app?vid=76d392c8-6dd4-4fbf-b626-27c2990c047b"},"vehicle_type_id":"4","last_reported":1735960330,"current_range_meters":14000,"station_id":"","pricing_plan_id":"cebpf4jnsgd1na2vs0mg"},{"bike_id":"ebb56956-e2e2-4f51-8f7a-80ccc26c078c","system_id":"levelo_inurba_marseille","lat":43.28141,"lon":5.42649,"is_reserved":false,"is_disabled":false,"rental_uris":{"android":"levelo://app?vid=ebb56956-e2e2-4f51-8f7a-80ccc26c078c","ios":"levelo://app?vid=ebb56956-e2e2-4f51-8f7a-80ccc26c078c"},"vehicle_type_id":"4","last_reported":1735960330,"current_range_meters":28800,"station_id":"ce4bhnh2rcd13ifvqgug","pricing_plan_id":"cebpf4jnsgd1na2vs0mg"},{"bike_id":"7653e4dc-dde3-44a0-90b1-c01d8f4ac579","system_id":"levelo_inurba_marseille","lat":43.23964,"lon":5.36631,"is_reserved":false,"is_disabled":false,"rental_uris":{"android":"levelo://app?vid=7653e4dc-dde3-44a0-90b1-c01d8f4ac579","ios":"levelo://app?vid=7653e4dc-dde3-44a0-90b1-c01d8f4ac579"},"vehicle_type_id":"4","last_reported":1735960330,"current_range_meters":6000,"station_id":"ce4bhi12rcd13ifvqfp0","pricing_plan_id":"cebpf4jnsgd1na2vs0mg"},{"bike_id":"46681a0e-77c7-4e8c-9bb0-8038ae70f7ff","system_id":"levelo_inurba_marseille","lat":43.303,"lon":5.36903,"is_reserved":false,"is_disabled":false,"rental_uris":{"android":"levelo://app?vid=46681a0e-77c7-4e8c-9bb0-8038ae70f7ff","ios":"levelo://app?vid=46681a0e-77c7-4e8c-9bb0-8038ae70f7ff"},"vehicle_type_id":"4","last_reported":1735960330,"current_range_meters":38800,"station_id":"ce4bgqh2rcd13ifvqc5g","pricing_plan_id":"cebpf4jnsgd1na2vs0mg"},{"bike_id":"593d8424-f565-422e-8480-e0f50e2c043e","system_id":"levelo_inurba_marseille","lat":43.27959,"lon":5.387246,"is_reserved":false,"is_disabled":true,"rental_uris":{"android":"levelo://app?vid=593d8424-f565-422e-8480-e0f50e2c043e","ios":"levelo://app?vid=593d8424-f565-422e-8480-e0f50e2c043e"},"vehicle_type_id":"4","last_reported":1735960330,"current_range_meters":38400,"station_id":"ce4bhg12rcd13ifvqf80","pricing_plan_id":"cebpf4jnsgd1na2vs0mg"},{"bike_id":"53bf85fe-dd63-4844-ad95-abf78e8c02a9","system_id":"levelo_inurba_marseille","lat":43.30173,"lon":5.36657,"is_reserved":false,"is_disabled":false,"rental_uris":{"android":"levelo://app?vid=53bf85fe-dd63-4844-ad95-abf78e8c02a9","ios":"levelo://app?vid=53bf85fe-dd63-4844-ad95-abf78e8c02a9"},"vehicle_type_id":"4","last_reported":1735960330,"current_range_meters":19200,"station_id":"ce4bgrh2rcd13ifvqc8g","pricing_plan_id":"cebpf4jnsgd1na2vs0mg"},{"bike_id":"b2aa002a-204a-4b80-9d0b-d9f09c9d5fa1","system_id":"levelo_inurba_marseille","lat":43.33609,"lon":5.41021,"is_reserved":false,"is_disabled":false,"rental_uris":{"android":"levelo://app?vid=b2aa002a-204a-4b80-9d0b-d9f09c9d5fa1","ios":"levelo://app?vid=b2aa002a-204a-4b80-9d0b-d9f09c9d5fa1"},"vehicle_type_id":"4","last_reported":1735960330,"current_range_meters":26000,"station_id":"ce4bhqh2rcd13ifvqhmg","pricing_plan_id":"cebpf4jnsgd1na2vs0mg"},{"bike_id":"c1fbacba-07fa-4084-9309-d9b176bb6829","system_id":"levelo_inurba_marseille","lat":43.28675,"lon":5.36344,"is_reserved":false,"is_disabled":false,"rental_uris":{"android":"levelo://app?vid=c1fbacba-07fa-4084-9309-d9b176bb6829","ios":"levelo://app?vid=c1fbacba-07fa-4084-9309-d9b176bb6829"},"vehicle_type_id":"4","last_reported":1735960330,"current_range_meters":38800,"station_id":"ce4bhah2rcd13ifvqej0","pricing_plan_id":"cebpf4jnsgd1na2vs0mg"},{"bike_id":"c1271aaf-ee65-4fd7-920e-9bd36ec29ad2","system_id":"levelo_inurba_marseille","lat":43.31491,"lon":5.37254,"is_reserved":false,"is_disabled":false,"rental_uris":{"android":"levelo://app?vid=c1271aaf-ee65-4fd7-920e-9bd36ec29ad2","ios":"levelo://app?vid=c1271aaf-ee65-4fd7-920e-9bd36ec29ad2"},"vehicle_type_id":"4","last_reported":1735960330,"current_range_meters":25200,"station_id":"ce4bgt12rcd13ifvqcd0","pricing_plan_id":"cebpf4jnsgd1na2vs0mg"},{"bike_id":"15d7971b-eed3-4b6e-8e61-b40a5a6478e8","system_id":"levelo_inurba_marseille","lat":43.306,"lon":5.37225,"is_reserved":false,"is_disabled":false,"rental_uris":{"android":"levelo://app?vid=15d7971b-eed3-4b6e-8e61-b40a5a6478e8","ios":"levelo://app?vid=15d7971b-eed3-4b6e-8e61-b40a5a6478e8"},"vehicle_type_id":"4","last_reported":1735960330,"current_range_meters":38400,"station_id":"ce4bgqh2rcd13ifvqc4g","pricing_plan_id":"cebpf4jnsgd1na2vs0mg"},{"bike_id":"9d281a53-6992-4392-9438-72ec394ec5a5","system_id":"levelo_inurba_marseille","lat":43.24387,"lon":5.37059,"is_reserved":false,"is_disabled":false,"rental_uris":{"android":"levelo://app?vid=9d281a53-6992-4392-9438-72ec394ec5a5","ios":"levelo://app?vid=9d281a53-6992-4392-9438-72ec394ec5a5"},"vehicle_type_id":"4","last_reported":1735960330,"current_range_meters":7200,"station_id":"ce4bhhh2rcd13ifvqfk0","pricing_plan_id":"cebpf4jnsgd1na2vs0mg"},{"bike_id":"eb09bd5e-b0d3-4b59-b9d4-1e064baa5923","system_id":"levelo_inurba_marseille","lat":43.280314,"lon":5.369501,"is_reserved":false,"is_disabled":false,"rental_uris":{"android":"levelo://app?vid=eb09bd5e-b0d3-4b59-b9d4-1e064baa5923","ios":"levelo://app?vid=eb09bd5e-b0d3-4b59-b9d4-1e064baa5923"},"vehicle_type_id":"4","last_reported":1735960330,"current_range_meters":2800,"station_id":"ce4bha12rcd13ifvqef0","pricing_plan_id":"cebpf4jnsgd1na2vs0mg"},{"bike_id":"6c92faae-448f-4fcd-b837-c7db2ff4caee","system_id":"levelo_inurba_marseille","lat":43.30648,"lon":5.40066,"is_reserved":false,"is_disabled":false,"rental_uris":{"android":"levelo://app?vid=6c92faae-448f-4fcd-b837-c7db2ff4caee","ios":"levelo://app?vid=6c92faae-448f-4fcd-b837-c7db2ff4caee"},"vehicle_type_id":"4","last_reported":1735960330,"current_range_meters":38400,"station_id":"ce4bh112rcd13ifvqda0","pricing_plan_id":"cebpf4jnsgd1na2vs0mg"},{"bike_id":"6d3a5393-18d8-4074-94e6-f79359c087b0","system_id":"levelo_inurba_marseille","lat":43.29196,"lon":5.39328,"is_reserved":false,"is_disabled":false,"rental_uris":{"android":"levelo://app?vid=6d3a5393-18d8-4074-94e6-f79359c087b0","ios":"levelo://app?vid=6d3a5393-18d8-4074-94e6-f79359c087b0"},"vehicle_type_id":"4","last_reported":1735960330,"current_range_meters":38800,"station_id":"ce4bh192rcd13ifvqdd0","pricing_plan_id":"cebpf4jnsgd1na2vs0mg"},{"bike_id":"7816c12e-61a1-48b1-b7a9-75d01de1e070","system_id":"levelo_inurba_marseille","lat":43.28927,"lon":5.36409,"is_reserved":false,"is_disabled":false,"rental_uris":{"android":"levelo://app?vid=7816c12e-61a1-48b1-b7a9-75d01de1e070","ios":"levelo://app?vid=7816c12e-61a1-48b1-b7a9-75d01de1e070"},"vehicle_type_id":"4","last_reported":1735960330,"current_range_meters":38800,"station_id":"ce4bhc92rcd13ifvqetg","pricing_plan_id":"cebpf4jnsgd1na2vs0mg"},{"bike_id":"a7372f70-ee95-48b9-a7fc-4423c57fc977","system_id":"levelo_inurba_marseille","lat":43.25575,"lon":5.38243,"is_reserved":false,"is_disabled":false,"rental_uris":{"android":"levelo://app?vid=a7372f70-ee95-48b9-a7fc-4423c57fc977","ios":"levelo://app?vid=a7372f70-ee95-48b9-a7fc-4423c57fc977"},"vehicle_type_id":"4","last_reported":1735960330,"current_range_meters":36000,"station_id":"ce4bhih2rcd13ifvqfs0","pricing_plan_id":"cebpf4jnsgd1na2vs0mg"},{"bike_id":"8e73d16b-1acc-4f69-b015-05407354b4ca","system_id":"levelo_inurba_marseille","lat":43.28973,"lon":5.37845,"is_reserved":false,"is_disabled":false,"rental_uris":{"android":"levelo://app?vid=8e73d16b-1acc-4f69-b015-05407354b4ca","ios":"levelo://app?vid=8e73d16b-1acc-4f69-b015-05407354b4ca"},"vehicle_type_id":"4","last_reported":1735960330,"current_range_meters":25600,"station_id":"ce4bh9p2rcd13ifvqed0","pricing_plan_id":"cebpf4jnsgd1na2vs0mg"},{"bike_id":"8134c671-2ab1-454b-8dc5-429e4b508ef7","system_id":"levelo_inurba_marseille","lat":43.26802,"lon":5.40267,"is_reserved":false,"is_disabled":false,"rental_uris":{"android":"levelo://app?vid=8134c671-2ab1-454b-8dc5-429e4b508ef7","ios":"levelo://app?vid=8134c671-2ab1-454b-8dc5-429e4b508ef7"},"vehicle_type_id":"4","last_reported":1735960330,"current_range_meters":35600,"station_id":"ce501612rcd8frsf0b60","pricing_plan_id":"cebpf4jnsgd1na2vs0mg"},{"bike_id":"1edca33b-8d82-4613-945e-057a682428fe","system_id":"levelo_inurba_marseille","lat":43.33106,"lon":5.38228,"is_reserved":false,"is_disabled":false,"rental_uris":{"android":"levelo://app?vid=1edca33b-8d82-4613-945e-057a682428fe","ios":"levelo://app?vid=1edca33b-8d82-4613-945e-057a682428fe"},"vehicle_type_id":"4","last_reported":1735960330,"current_range_meters":30800,"station_id":"","pricing_plan_id":"cebpf4jnsgd1na2vs0mg"},{"bike_id":"18f3cae1-31d6-4997-a825-88b4e3979bb4","system_id":"levelo_inurba_marseille","lat":43.25488,"lon":5.37666,"is_reserved":false,"is_disabled":false,"rental_uris":{"android":"levelo://app?vid=18f3cae1-31d6-4997-a825-88b4e3979bb4","ios":"levelo://app?vid=18f3cae1-31d6-4997-a825-88b4e3979bb4"},"vehicle_type_id":"4","last_reported":1735960330,"current_range_meters":38800,"station_id":"ce4bhh12rcd13ifvqff0","pricing_plan_id":"cebpf4jnsgd1na2vs0mg"},{"bike_id":"7bab18fb-6fdc-4696-89d8-6c991bcc57fb","system_id":"levelo_inurba_marseille","lat":43.27823,"lon":5.39201,"is_reserved":false,"is_disabled":false,"rental_uris":{"android":"levelo://app?vid=7bab18fb-6fdc-4696-89d8-6c991bcc57fb","ios":"levelo://app?vid=7bab18fb-6fdc-4696-89d8-6c991bcc57fb"},"vehicle_type_id":"4","last_reported":1735960330,"current_range_meters":38800,"station_id":"ce4bhjp2rcd13ifvqga0","pricing_plan_id":"cebpf4jnsgd1na2vs0mg"},{"bike_id":"fb0d5d50-2cba-4668-8a68-53b559a0ffc7","system_id":"levelo_inurba_marseille","lat":43.246734,"lon":5.381659,"is_reserved":false,"is_disabled":false,"rental_uris":{"android":"levelo://app?vid=fb0d5d50-2cba-4668-8a68-53b559a0ffc7","ios":"levelo://app?vid=fb0d5d50-2cba-4668-8a68-53b559a0ffc7"},"vehicle_type_id":"4","last_reported":1735960330,"current_range_meters":32400,"station_id":"ce4bhih2rcd13ifvqfr0","pricing_plan_id":"cebpf4jnsgd1na2vs0mg"},{"bike_id":"0c3b96ff-9de9-4b06-a81b-acb466115de3","system_id":"levelo_inurba_marseille","lat":43.25534,"lon":5.37649,"is_reserved":false,"is_disabled":false,"rental_uris":{"android":"levelo://app?vid=0c3b96ff-9de9-4b06-a81b-acb466115de3","ios":"levelo://app?vid=0c3b96ff-9de9-4b06-a81b-acb466115de3"},"vehicle_type_id":"4","last_reported":1735960330,"current_range_meters":37600,"station_id":"ce4bhh12rcd13ifvqff0","pricing_plan_id":"cebpf4jnsgd1na2vs0mg"},{"bike_id":"7f19a19c-d1b3-49ca-8538-1dc8022ef981","system_id":"levelo_inurba_marseille","lat":43.32102,"lon":5.36787,"is_reserved":false,"is_disabled":false,"rental_uris":{"android":"levelo://app?vid=7f19a19c-d1b3-49ca-8538-1dc8022ef981","ios":"levelo://app?vid=7f19a19c-d1b3-49ca-8538-1dc8022ef981"},"vehicle_type_id":"4","last_reported":1735960330,"current_range_meters":22800,"station_id":"ce4bhrh2rcd13ifvqhug","pricing_plan_id":"cebpf4jnsgd1na2vs0mg"},{"bike_id":"938f72f5-d3ed-4ad0-b720-47ecf0cb2559","system_id":"levelo_inurba_marseille","lat":43.28541,"lon":5.3947,"is_reserved":false,"is_disabled":false,"rental_uris":{"android":"levelo://app?vid=938f72f5-d3ed-4ad0-b720-47ecf0cb2559","ios":"levelo://app?vid=938f72f5-d3ed-4ad0-b720-47ecf0cb2559"},"vehicle_type_id":"4","last_reported":1735960330,"current_range_meters":38800,"station_id":"ce4bh292rcd13ifvqdg0","pricing_plan_id":"cebpf4jnsgd1na2vs0mg"},{"bike_id":"6288db88-221b-4719-af5a-faa3dac348ce","system_id":"levelo_inurba_marseille","lat":43.30931,"lon":5.40154,"is_reserved":false,"is_disabled":false,"rental_uris":{"android":"levelo://app?vid=6288db88-221b-4719-af5a-faa3dac348ce","ios":"levelo://app?vid=6288db88-221b-4719-af5a-faa3dac348ce"},"vehicle_type_id":"4","last_reported":1735960330,"current_range_meters":26000,"station_id":"ce4bgvp2rcd13ifvqct0","pricing_plan_id":"cebpf4jnsgd1na2vs0mg"},{"bike_id":"22dcddca-903e-4320-8758-4e730ed46e04","system_id":"levelo_inurba_marseille","lat":43.3088,"lon":5.39632,"is_reserved":false,"is_disabled":false,"rental_uris":{"android":"levelo://app?vid=22dcddca-903e-4320-8758-4e730ed46e04","ios":"levelo://app?vid=22dcddca-903e-4320-8758-4e730ed46e04"},"vehicle_type_id":"4","last_reported":1735960330,"current_range_meters":11600,"station_id":"ce4bh012rcd13ifvqcv0","pricing_plan_id":"cebpf4jnsgd1na2vs0mg"},{"bike_id":"3126e039-f2e3-49b1-bc29-a722b3d3f659","system_id":"levelo_inurba_marseille","lat":43.29775,"lon":5.37089,"is_reserved":false,"is_disabled":false,"rental_uris":{"android":"levelo://app?vid=3126e039-f2e3-49b1-bc29-a722b3d3f659","ios":"levelo://app?vid=3126e039-f2e3-49b1-bc29-a722b3d3f659"},"vehicle_type_id":"4","last_reported":1735960330,"current_range_meters":37600,"station_id":"ce4bgop2rcd13ifvqc1g","pricing_plan_id":"cebpf4jnsgd1na2vs0mg"},{"bike_id":"e5403346-1340-42d8-86d6-6f7caa577628","system_id":"levelo_inurba_marseille","lat":43.30792,"lon":5.37648,"is_reserved":false,"is_disabled":false,"rental_uris":{"android":"levelo://app?vid=e5403346-1340-42d8-86d6-6f7caa577628","ios":"levelo://app?vid=e5403346-1340-42d8-86d6-6f7caa577628"},"vehicle_type_id":"4","last_reported":1735960330,"current_range_meters":38000,"station_id":"ce4bgv92rcd13ifvqcq0","pricing_plan_id":"cebpf4jnsgd1na2vs0mg"},{"bike_id":"900befed-316a-4022-9675-3a013ee278fe","system_id":"levelo_inurba_marseille","lat":43.3236,"lon":5.36754,"is_reserved":false,"is_disabled":false,"rental_uris":{"android":"levelo://app?vid=900befed-316a-4022-9675-3a013ee278fe","ios":"levelo://app?vid=900befed-316a-4022-9675-3a013ee278fe"},"vehicle_type_id":"4","last_reported":1735960330,"current_range_meters":31200,"station_id":"ce4bhsh2rcd13ifvqi2g","pricing_plan_id":"cebpf4jnsgd1na2vs0mg"},{"bike_id":"2d501b20-a059-4090-bcbd-11ae141d8fcf","system_id":"levelo_inurba_marseille","lat":43.28693,"lon":5.37391,"is_reserved":false,"is_disabled":false,"rental_uris":{"android":"levelo://app?vid=2d501b20-a059-4090-bcbd-11ae141d8fcf","ios":"levelo://app?vid=2d501b20-a059-4090-bcbd-11ae141d8fcf"},"vehicle_type_id":"4","last_reported":1735960330,"current_range_meters":32000,"station_id":"ce4bh3p2rcd13ifvqdq0","pricing_plan_id":"cebpf4jnsgd1na2vs0mg"},{"bike_id":"3c7472a4-a45c-4f46-a692-aa44ebf92f21","system_id":"levelo_inurba_marseille","lat":43.27407,"lon":5.39412,"is_reserved":false,"is_disabled":false,"rental_uris":{"android":"levelo://app?vid=3c7472a4-a45c-4f46-a692-aa44ebf92f21","ios":"levelo://app?vid=3c7472a4-a45c-4f46-a692-aa44ebf92f21"},"vehicle_type_id":"4","last_reported":1735960330,"current_range_meters":28800,"station_id":"ce4bhdp2rcd13ifvqf20","pricing_plan_id":"cebpf4jnsgd1na2vs0mg"},{"bike_id":"058ecb54-af3e-4e44-a703-6e3c9b29c958","system_id":"levelo_inurba_marseille","lat":43.28999,"lon":5.35497,"is_reserved":false,"is_disabled":false,"rental_uris":{"android":"levelo://app?vid=058ecb54-af3e-4e44-a703-6e3c9b29c958","ios":"levelo://app?vid=058ecb54-af3e-4e44-a703-6e3c9b29c958"},"vehicle_type_id":"4","last_reported":1735960330,"current_range_meters":38800,"station_id":"ce4bhb92rcd13ifvqen0","pricing_plan_id":"cebpf4jnsgd1na2vs0mg"},{"bike_id":"f0ead5dd-c086-40ba-b637-5a58405b88b0","system_id":"levelo_inurba_marseille","lat":43.25109,"lon":5.40339,"is_reserved":false,"is_disabled":false,"rental_uris":{"android":"levelo://app?vid=f0ead5dd-c086-40ba-b637-5a58405b88b0","ios":"levelo://app?vid=f0ead5dd-c086-40ba-b637-5a58405b88b0"},"vehicle_type_id":"4","last_reported":1735960330,"current_range_meters":3600,"station_id":"ce4bhlh2rcd13ifvqgig","pricing_plan_id":"cebpf4jnsgd1na2vs0mg"},{"bike_id":"b5b2166a-b0b8-4fc4-9960-24fcf8dddf0c","system_id":"levelo_inurba_marseille","lat":43.30828,"lon":5.38063,"is_reserved":false,"is_disabled":false,"rental_uris":{"android":"levelo://app?vid=b5b2166a-b0b8-4fc4-9960-24fcf8dddf0c","ios":"levelo://app?vid=b5b2166a-b0b8-4fc4-9960-24fcf8dddf0c"},"vehicle_type_id":"4","last_reported":1735960330,"current_range_meters":9600,"station_id":"","pricing_plan_id":"cebpf4jnsgd1na2vs0mg"},{"bike_id":"4ebd3511-bc61-4f86-96fb-65795db0f905","system_id":"levelo_inurba_marseille","lat":43.29794,"lon":5.40422,"is_reserved":false,"is_disabled":false,"rental_uris":{"android":"levelo://app?vid=4ebd3511-bc61-4f86-96fb-65795db0f905","ios":"levelo://app?vid=4ebd3511-bc61-4f86-96fb-65795db0f905"},"vehicle_type_id":"4","last_reported":1735960330,"current_range_meters":35200,"station_id":"ce4bh112rcd13ifvqd90","pricing_plan_id":"cebpf4jnsgd1na2vs0mg"},{"bike_id":"ea7050ff-7aa9-43ba-b203-b876f0962480","system_id":"levelo_inurba_marseille","lat":43.279983,"lon":5.400233,"is_reserved":false,"is_disabled":true,"rental_uris":{"android":"levelo://app?vid=ea7050ff-7aa9-43ba-b203-b876f0962480","ios":"levelo://app?vid=ea7050ff-7aa9-43ba-b203-b876f0962480"},"vehicle_type_id":"4","last_reported":1735960330,"current_range_meters":0,"station_id":"ce4bho92rcd13ifvqh4g","pricing_plan_id":"cebpf4jnsgd1na2vs0mg"},{"bike_id":"ace1766f-9b12-46d0-9afa-fd9b29f81ec7","system_id":"levelo_inurba_marseille","lat":43.304507,"lon":5.38893,"is_reserved":false,"is_disabled":false,"rental_uris":{"android":"levelo://app?vid=ace1766f-9b12-46d0-9afa-fd9b29f81ec7","ios":"levelo://app?vid=ace1766f-9b12-46d0-9afa-fd9b29f81ec7"},"vehicle_type_id":"4","last_reported":1735960330,"current_range_meters":36800,"station_id":"ce4bgk12rcd13ifvqbi0","pricing_plan_id":"cebpf4jnsgd1na2vs0mg"},{"bike_id":"13e1d001-5304-4440-8773-a99209b55da5","system_id":"levelo_inurba_marseille","lat":43.26793,"lon":5.39421,"is_reserved":false,"is_disabled":false,"rental_uris":{"android":"levelo://app?vid=13e1d001-5304-4440-8773-a99209b55da5","ios":"levelo://app?vid=13e1d001-5304-4440-8773-a99209b55da5"},"vehicle_type_id":"4","last_reported":1735960330,"current_range_meters":38800,"station_id":"ce4bhh12rcd13ifvqfg0","pricing_plan_id":"cebpf4jnsgd1na2vs0mg"},{"bike_id":"013a03d3-efe2-4f14-ab94-9d9f117fe332","system_id":"levelo_inurba_marseille","lat":43.26562,"lon":5.37284,"is_reserved":false,"is_disabled":true,"rental_uris":{"android":"levelo://app?vid=013a03d3-efe2-4f14-ab94-9d9f117fe332","ios":"levelo://app?vid=013a03d3-efe2-4f14-ab94-9d9f117fe332"},"vehicle_type_id":"4","last_reported":1735960330,"current_range_meters":400,"station_id":"ce4bhg12rcd13ifvqf70","pricing_plan_id":"cebpf4jnsgd1na2vs0mg"},{"bike_id":"2332862a-3884-4317-af82-ee9793e9b62c","system_id":"levelo_inurba_marseille","lat":43.24073,"lon":5.37709,"is_reserved":false,"is_disabled":false,"rental_uris":{"android":"levelo://app?vid=2332862a-3884-4317-af82-ee9793e9b62c","ios":"levelo://app?vid=2332862a-3884-4317-af82-ee9793e9b62c"},"vehicle_type_id":"4","last_reported":1735960330,"current_range_meters":18000,"station_id":"ce4bhnp2rcd13ifvqgvg","pricing_plan_id":"cebpf4jnsgd1na2vs0mg"},{"bike_id":"2dc8a66d-24cf-4895-80e5-0d94d1246134","system_id":"levelo_inurba_marseille","lat":43.28022,"lon":5.36951,"is_reserved":false,"is_disabled":false,"rental_uris":{"android":"levelo://app?vid=2dc8a66d-24cf-4895-80e5-0d94d1246134","ios":"levelo://app?vid=2dc8a66d-24cf-4895-80e5-0d94d1246134"},"vehicle_type_id":"4","last_reported":1735960330,"current_range_meters":18000,"station_id":"ce4bha12rcd13ifvqef0","pricing_plan_id":"cebpf4jnsgd1na2vs0mg"},{"bike_id":"2a583d9b-e42e-4633-b002-dbbb4f9b26aa","system_id":"levelo_inurba_marseille","lat":43.299436,"lon":5.365399,"is_reserved":false,"is_disabled":false,"rental_uris":{"android":"levelo://app?vid=2a583d9b-e42e-4633-b002-dbbb4f9b26aa","ios":"levelo://app?vid=2a583d9b-e42e-4633-b002-dbbb4f9b26aa"},"vehicle_type_id":"4","last_reported":1735960330,"current_range_meters":22800,"station_id":"ce4bgm92rcd13ifvqbr0","pricing_plan_id":"cebpf4jnsgd1na2vs0mg"},{"bike_id":"d0943ec1-121d-4618-a29a-f7c35af8f741","system_id":"levelo_inurba_marseille","lat":43.25117,"lon":5.40328,"is_reserved":false,"is_disabled":false,"rental_uris":{"android":"levelo://app?vid=d0943ec1-121d-4618-a29a-f7c35af8f741","ios":"levelo://app?vid=d0943ec1-121d-4618-a29a-f7c35af8f741"},"vehicle_type_id":"4","last_reported":1735960330,"current_range_meters":17600,"station_id":"ce4bhlh2rcd13ifvqgig","pricing_plan_id":"cebpf4jnsgd1na2vs0mg"},{"bike_id":"b196ede2-15dc-4193-a4cf-026c9e7d182c","system_id":"levelo_inurba_marseille","lat":43.32654,"lon":5.40996,"is_reserved":false,"is_disabled":false,"rental_uris":{"android":"levelo://app?vid=b196ede2-15dc-4193-a4cf-026c9e7d182c","ios":"levelo://app?vid=b196ede2-15dc-4193-a4cf-026c9e7d182c"},"vehicle_type_id":"4","last_reported":1735960330,"current_range_meters":23200,"station_id":"ce4bhpp2rcd13ifvqhgg","pricing_plan_id":"cebpf4jnsgd1na2vs0mg"},{"bike_id":"af6f5cf6-fe33-49d4-9b2b-a069d115dde7","system_id":"levelo_inurba_marseille","lat":43.29856,"lon":5.36275,"is_reserved":false,"is_disabled":false,"rental_uris":{"android":"levelo://app?vid=af6f5cf6-fe33-49d4-9b2b-a069d115dde7","ios":"levelo://app?vid=af6f5cf6-fe33-49d4-9b2b-a069d115dde7"},"vehicle_type_id":"4","last_reported":1735960330,"current_range_meters":20400,"station_id":"ce4bgpp2rcd13ifvqc3g","pricing_plan_id":"cebpf4jnsgd1na2vs0mg"},{"bike_id":"3a269826-99f7-4419-932c-0eb0bed13f31","system_id":"levelo_inurba_marseille","lat":43.23953,"lon":5.3663,"is_reserved":false,"is_disabled":false,"rental_uris":{"android":"levelo://app?vid=3a269826-99f7-4419-932c-0eb0bed13f31","ios":"levelo://app?vid=3a269826-99f7-4419-932c-0eb0bed13f31"},"vehicle_type_id":"4","last_reported":1735960330,"current_range_meters":26800,"station_id":"ce4bhi12rcd13ifvqfp0","pricing_plan_id":"cebpf4jnsgd1na2vs0mg"},{"bike_id":"187242c6-6bf3-4f6c-be6f-031703a6b4d1","system_id":"levelo_inurba_marseille","lat":43.25114,"lon":5.40281,"is_reserved":false,"is_disabled":false,"rental_uris":{"android":"levelo://app?vid=187242c6-6bf3-4f6c-be6f-031703a6b4d1","ios":"levelo://app?vid=187242c6-6bf3-4f6c-be6f-031703a6b4d1"},"vehicle_type_id":"4","last_reported":1735960330,"current_range_meters":28000,"station_id":"ce4bhlh2rcd13ifvqgig","pricing_plan_id":"cebpf4jnsgd1na2vs0mg"},{"bike_id":"01a892c4-6d34-4a6b-9f97-5324cd46aa08","system_id":"levelo_inurba_marseille","lat":43.28978,"lon":5.37848,"is_reserved":false,"is_disabled":true,"rental_uris":{"android":"levelo://app?vid=01a892c4-6d34-4a6b-9f97-5324cd46aa08","ios":"levelo://app?vid=01a892c4-6d34-4a6b-9f97-5324cd46aa08"},"vehicle_type_id":"4","last_reported":1735960330,"current_range_meters":37600,"station_id":"ce4bh9p2rcd13ifvqed0","pricing_plan_id":"cebpf4jnsgd1na2vs0mg"},{"bike_id":"c40c5b60-e437-4fc4-852b-36f34453d498","system_id":"levelo_inurba_marseille","lat":43.28159,"lon":5.42646,"is_reserved":false,"is_disabled":false,"rental_uris":{"android":"levelo://app?vid=c40c5b60-e437-4fc4-852b-36f34453d498","ios":"levelo://app?vid=c40c5b60-e437-4fc4-852b-36f34453d498"},"vehicle_type_id":"4","last_reported":1735960330,"current_range_meters":37600,"station_id":"ce4bhnh2rcd13ifvqgug","pricing_plan_id":"cebpf4jnsgd1na2vs0mg"},{"bike_id":"f89a9995-ad09-45b9-98cd-30ee55ef71b9","system_id":"levelo_inurba_marseille","lat":43.26931,"lon":5.40254,"is_reserved":false,"is_disabled":false,"rental_uris":{"android":"levelo://app?vid=f89a9995-ad09-45b9-98cd-30ee55ef71b9","ios":"levelo://app?vid=f89a9995-ad09-45b9-98cd-30ee55ef71b9"},"vehicle_type_id":"4","last_reported":1735960330,"current_range_meters":38400,"station_id":"cjm6bp8fraef2m0cb0m0","pricing_plan_id":"cebpf4jnsgd1na2vs0mg"},{"bike_id":"d085f58b-745f-4180-b55b-83a215dc4056","system_id":"levelo_inurba_marseille","lat":43.27952,"lon":5.38723,"is_reserved":false,"is_disabled":false,"rental_uris":{"android":"levelo://app?vid=d085f58b-745f-4180-b55b-83a215dc4056","ios":"levelo://app?vid=d085f58b-745f-4180-b55b-83a215dc4056"},"vehicle_type_id":"4","last_reported":1735960330,"current_range_meters":28000,"station_id":"ce4bhg12rcd13ifvqf80","pricing_plan_id":"cebpf4jnsgd1na2vs0mg"},{"bike_id":"f0a47081-7ea3-4a2b-bd2c-896f80ec43b7","system_id":"levelo_inurba_marseille","lat":43.30894,"lon":5.3719,"is_reserved":false,"is_disabled":false,"rental_uris":{"android":"levelo://app?vid=f0a47081-7ea3-4a2b-bd2c-896f80ec43b7","ios":"levelo://app?vid=f0a47081-7ea3-4a2b-bd2c-896f80ec43b7"},"vehicle_type_id":"4","last_reported":1735960330,"current_range_meters":34000,"station_id":"ce4bguh2rcd13ifvqckg","pricing_plan_id":"cebpf4jnsgd1na2vs0mg"},{"bike_id":"1ee77a01-9dae-44df-a88b-1c12c24b8572","system_id":"levelo_inurba_marseille","lat":43.30307,"lon":5.36896,"is_reserved":false,"is_disabled":false,"rental_uris":{"android":"levelo://app?vid=1ee77a01-9dae-44df-a88b-1c12c24b8572","ios":"levelo://app?vid=1ee77a01-9dae-44df-a88b-1c12c24b8572"},"vehicle_type_id":"4","last_reported":1735960330,"current_range_meters":37600,"station_id":"ce4bgqh2rcd13ifvqc5g","pricing_plan_id":"cebpf4jnsgd1na2vs0mg"},{"bike_id":"c38119df-a0cc-4d53-851b-aebce98309d3","system_id":"levelo_inurba_marseille","lat":43.25024,"lon":5.38917,"is_reserved":false,"is_disabled":false,"rental_uris":{"android":"levelo://app?vid=c38119df-a0cc-4d53-851b-aebce98309d3","ios":"levelo://app?vid=c38119df-a0cc-4d53-851b-aebce98309d3"},"vehicle_type_id":"4","last_reported":1735960330,"current_range_meters":6400,"station_id":"ce4bhgp2rcd13ifvqfd0","pricing_plan_id":"cebpf4jnsgd1na2vs0mg"},{"bike_id":"67db294d-0b76-4157-a194-2dbf5b8dfae1","system_id":"levelo_inurba_marseille","lat":43.30299,"lon":5.39214,"is_reserved":false,"is_disabled":false,"rental_uris":{"android":"levelo://app?vid=67db294d-0b76-4157-a194-2dbf5b8dfae1","ios":"levelo://app?vid=67db294d-0b76-4157-a194-2dbf5b8dfae1"},"vehicle_type_id":"4","last_reported":1735960330,"current_range_meters":36800,"station_id":"ce4bgkh2rcd13ifvqbk0","pricing_plan_id":"cebpf4jnsgd1na2vs0mg"},{"bike_id":"969c8a84-cf60-4395-8c81-a1d2e7dc81af","system_id":"levelo_inurba_marseille","lat":43.258618,"lon":5.399044,"is_reserved":false,"is_disabled":false,"rental_uris":{"android":"levelo://app?vid=969c8a84-cf60-4395-8c81-a1d2e7dc81af","ios":"levelo://app?vid=969c8a84-cf60-4395-8c81-a1d2e7dc81af"},"vehicle_type_id":"4","last_reported":1735960330,"current_range_meters":22800,"station_id":"ce4bhl92rcd13ifvqghg","pricing_plan_id":"cebpf4jnsgd1na2vs0mg"},{"bike_id":"d06765fb-ae36-4bd9-824c-0b5234000b68","system_id":"levelo_inurba_marseille","lat":43.2512,"lon":5.40309,"is_reserved":false,"is_disabled":false,"rental_uris":{"android":"levelo://app?vid=d06765fb-ae36-4bd9-824c-0b5234000b68","ios":"levelo://app?vid=d06765fb-ae36-4bd9-824c-0b5234000b68"},"vehicle_type_id":"4","last_reported":1735960330,"current_range_meters":38800,"station_id":"ce4bhlh2rcd13ifvqgig","pricing_plan_id":"cebpf4jnsgd1na2vs0mg"},{"bike_id":"e62a9961-12fa-4314-af24-7ed97deb9ffe","system_id":"levelo_inurba_marseille","lat":43.31374,"lon":5.38494,"is_reserved":false,"is_disabled":false,"rental_uris":{"android":"levelo://app?vid=e62a9961-12fa-4314-af24-7ed97deb9ffe","ios":"levelo://app?vid=e62a9961-12fa-4314-af24-7ed97deb9ffe"},"vehicle_type_id":"4","last_reported":1735960330,"current_range_meters":14400,"station_id":"ce4bgt92rcd13ifvqcf0","pricing_plan_id":"cebpf4jnsgd1na2vs0mg"},{"bike_id":"f3d41f41-839d-41a5-aa6d-f2ba87ff18f0","system_id":"levelo_inurba_marseille","lat":43.240773,"lon":5.377621,"is_reserved":false,"is_disabled":true,"rental_uris":{"android":"levelo://app?vid=f3d41f41-839d-41a5-aa6d-f2ba87ff18f0","ios":"levelo://app?vid=f3d41f41-839d-41a5-aa6d-f2ba87ff18f0"},"vehicle_type_id":"4","last_reported":1735960330,"current_range_meters":1600,"station_id":"ce4bhnp2rcd13ifvqgvg","pricing_plan_id":"cebpf4jnsgd1na2vs0mg"},{"bike_id":"6d14468d-d4fe-4fb2-b1d6-ebb52c384fb6","system_id":"levelo_inurba_marseille","lat":43.31983,"lon":5.38151,"is_reserved":false,"is_disabled":false,"rental_uris":{"android":"levelo://app?vid=6d14468d-d4fe-4fb2-b1d6-ebb52c384fb6","ios":"levelo://app?vid=6d14468d-d4fe-4fb2-b1d6-ebb52c384fb6"},"vehicle_type_id":"4","last_reported":1735960330,"current_range_meters":38000,"station_id":"ce4bhr12rcd13ifvqhpg","pricing_plan_id":"cebpf4jnsgd1na2vs0mg"},{"bike_id":"4b03cd5f-9e8c-4d47-9e0b-af68ce649735","system_id":"levelo_inurba_marseille","lat":43.28928,"lon":5.39622,"is_reserved":false,"is_disabled":false,"rental_uris":{"android":"levelo://app?vid=4b03cd5f-9e8c-4d47-9e0b-af68ce649735","ios":"levelo://app?vid=4b03cd5f-9e8c-4d47-9e0b-af68ce649735"},"vehicle_type_id":"4","last_reported":1735960330,"current_range_meters":37600,"station_id":"ce4bh3h2rcd13ifvqdn0","pricing_plan_id":"cebpf4jnsgd1na2vs0mg"},{"bike_id":"2f857458-45ae-4306-9ffb-5d94252d59a5","system_id":"levelo_inurba_marseille","lat":43.24644,"lon":5.389093,"is_reserved":false,"is_disabled":false,"rental_uris":{"android":"levelo://app?vid=2f857458-45ae-4306-9ffb-5d94252d59a5","ios":"levelo://app?vid=2f857458-45ae-4306-9ffb-5d94252d59a5"},"vehicle_type_id":"4","last_reported":1735960330,"current_range_meters":38800,"station_id":"ce4bhg12rcd13ifvqf60","pricing_plan_id":"cebpf4jnsgd1na2vs0mg"},{"bike_id":"6784e735-63a8-4472-8e88-26e242f2fae1","system_id":"levelo_inurba_marseille","lat":43.32296,"lon":5.36647,"is_reserved":false,"is_disabled":false,"rental_uris":{"android":"levelo://app?vid=6784e735-63a8-4472-8e88-26e242f2fae1","ios":"levelo://app?vid=6784e735-63a8-4472-8e88-26e242f2fae1"},"vehicle_type_id":"4","last_reported":1735960330,"current_range_meters":30400,"station_id":"ce4bhsh2rcd13ifvqi2g","pricing_plan_id":"cebpf4jnsgd1na2vs0mg"},{"bike_id":"7b78d5e2-5142-402d-a4f8-0f3037a6c533","system_id":"levelo_inurba_marseille","lat":43.269493,"lon":5.38628,"is_reserved":false,"is_disabled":true,"rental_uris":{"android":"levelo://app?vid=7b78d5e2-5142-402d-a4f8-0f3037a6c533","ios":"levelo://app?vid=7b78d5e2-5142-402d-a4f8-0f3037a6c533"},"vehicle_type_id":"4","last_reported":1735960330,"current_range_meters":14400,"station_id":"ce4bhh92rcd13ifvqfh0","pricing_plan_id":"cebpf4jnsgd1na2vs0mg"},{"bike_id":"cbb6eaa8-2a66-410e-9a99-0cc5daa01219","system_id":"levelo_inurba_marseille","lat":43.290025,"lon":5.356065,"is_reserved":false,"is_disabled":false,"rental_uris":{"android":"levelo://app?vid=cbb6eaa8-2a66-410e-9a99-0cc5daa01219","ios":"levelo://app?vid=cbb6eaa8-2a66-410e-9a99-0cc5daa01219"},"vehicle_type_id":"4","last_reported":1735960330,"current_range_meters":38800,"station_id":"ce4bhb92rcd13ifvqen0","pricing_plan_id":"cebpf4jnsgd1na2vs0mg"},{"bike_id":"00b0c897-4e8f-453d-8e9d-6135317dff3d","system_id":"levelo_inurba_marseille","lat":43.2956,"lon":5.42252,"is_reserved":false,"is_disabled":false,"rental_uris":{"android":"levelo://app?vid=00b0c897-4e8f-453d-8e9d-6135317dff3d","ios":"levelo://app?vid=00b0c897-4e8f-453d-8e9d-6135317dff3d"},"vehicle_type_id":"4","last_reported":1735960330,"current_range_meters":38400,"station_id":"ce4bhph2rcd13ifvqhdg","pricing_plan_id":"cebpf4jnsgd1na2vs0mg"},{"bike_id":"d0d21930-fe1d-478b-8251-bcf89564599d","system_id":"levelo_inurba_marseille","lat":43.295504,"lon":5.422838,"is_reserved":false,"is_disabled":false,"rental_uris":{"android":"levelo://app?vid=d0d21930-fe1d-478b-8251-bcf89564599d","ios":"levelo://app?vid=d0d21930-fe1d-478b-8251-bcf89564599d"},"vehicle_type_id":"4","last_reported":1735960330,"current_range_meters":30400,"station_id":"ce4bhph2rcd13ifvqhdg","pricing_plan_id":"cebpf4jnsgd1na2vs0mg"},{"bike_id":"177e1785-11e2-4ba1-8c2e-0766aed8947b","system_id":"levelo_inurba_marseille","lat":43.31372,"lon":5.38497,"is_reserved":false,"is_disabled":false,"rental_uris":{"android":"levelo://app?vid=177e1785-11e2-4ba1-8c2e-0766aed8947b","ios":"levelo://app?vid=177e1785-11e2-4ba1-8c2e-0766aed8947b"},"vehicle_type_id":"4","last_reported":1735960330,"current_range_meters":30000,"station_id":"ce4bgt92rcd13ifvqcf0","pricing_plan_id":"cebpf4jnsgd1na2vs0mg"},{"bike_id":"ef650c97-676b-47d7-bbac-7a4cdccbedab","system_id":"levelo_inurba_marseille","lat":43.30676,"lon":5.40046,"is_reserved":false,"is_disabled":false,"rental_uris":{"android":"levelo://app?vid=ef650c97-676b-47d7-bbac-7a4cdccbedab","ios":"levelo://app?vid=ef650c97-676b-47d7-bbac-7a4cdccbedab"},"vehicle_type_id":"4","last_reported":1735960330,"current_range_meters":39200,"station_id":"ce4bh112rcd13ifvqda0","pricing_plan_id":"cebpf4jnsgd1na2vs0mg"},{"bike_id":"7facf5dc-2dca-40fb-abf1-f4666c23c735","system_id":"levelo_inurba_marseille","lat":43.26677,"lon":5.38268,"is_reserved":false,"is_disabled":false,"rental_uris":{"android":"levelo://app?vid=7facf5dc-2dca-40fb-abf1-f4666c23c735","ios":"levelo://app?vid=7facf5dc-2dca-40fb-abf1-f4666c23c735"},"vehicle_type_id":"4","last_reported":1735960330,"current_range_meters":28000,"station_id":"ce4bhg92rcd13ifvqf90","pricing_plan_id":"cebpf4jnsgd1na2vs0mg"},{"bike_id":"1237c156-cfa6-45ec-9298-949dcdbd11b6","system_id":"levelo_inurba_marseille","lat":43.27377,"lon":5.3625,"is_reserved":false,"is_disabled":false,"rental_uris":{"android":"levelo://app?vid=1237c156-cfa6-45ec-9298-949dcdbd11b6","ios":"levelo://app?vid=1237c156-cfa6-45ec-9298-949dcdbd11b6"},"vehicle_type_id":"4","last_reported":1735960330,"current_range_meters":38000,"station_id":"ce4bhbh2rcd13ifvqeo0","pricing_plan_id":"cebpf4jnsgd1na2vs0mg"},{"bike_id":"cb9ddef6-e3ca-4d83-8257-6a73eb8266c6","system_id":"levelo_inurba_marseille","lat":43.32661,"lon":5.40993,"is_reserved":false,"is_disabled":false,"rental_uris":{"android":"levelo://app?vid=cb9ddef6-e3ca-4d83-8257-6a73eb8266c6","ios":"levelo://app?vid=cb9ddef6-e3ca-4d83-8257-6a73eb8266c6"},"vehicle_type_id":"4","last_reported":1735960330,"current_range_meters":37600,"station_id":"ce4bhpp2rcd13ifvqhgg","pricing_plan_id":"cebpf4jnsgd1na2vs0mg"},{"bike_id":"7b9e134f-1d5b-46f5-87f8-6cc312c5778f","system_id":"levelo_inurba_marseille","lat":43.229265,"lon":5.353782,"is_reserved":false,"is_disabled":false,"rental_uris":{"android":"levelo://app?vid=7b9e134f-1d5b-46f5-87f8-6cc312c5778f","ios":"levelo://app?vid=7b9e134f-1d5b-46f5-87f8-6cc312c5778f"},"vehicle_type_id":"4","last_reported":1735960330,"current_range_meters":38400,"station_id":"cpo3532slgdg3j2ikp40","pricing_plan_id":"cebpf4jnsgd1na2vs0mg"},{"bike_id":"c0a41200-1ce4-4b17-a1dd-d6d86b277ca4","system_id":"levelo_inurba_marseille","lat":43.280269,"lon":5.369419,"is_reserved":false,"is_disabled":false,"rental_uris":{"android":"levelo://app?vid=c0a41200-1ce4-4b17-a1dd-d6d86b277ca4","ios":"levelo://app?vid=c0a41200-1ce4-4b17-a1dd-d6d86b277ca4"},"vehicle_type_id":"4","last_reported":1735960330,"current_range_meters":38800,"station_id":"ce4bha12rcd13ifvqef0","pricing_plan_id":"cebpf4jnsgd1na2vs0mg"},{"bike_id":"135cf862-1e80-4855-8234-457b3ef98c02","system_id":"levelo_inurba_marseille","lat":43.295847,"lon":5.367446,"is_reserved":false,"is_disabled":false,"rental_uris":{"android":"levelo://app?vid=135cf862-1e80-4855-8234-457b3ef98c02","ios":"levelo://app?vid=135cf862-1e80-4855-8234-457b3ef98c02"},"vehicle_type_id":"4","last_reported":1735960330,"current_range_meters":9600,"station_id":"ce4bgph2rcd13ifvqc2g","pricing_plan_id":"cebpf4jnsgd1na2vs0mg"},{"bike_id":"46e25da2-6e23-48b8-9f30-ddeb892b8091","system_id":"levelo_inurba_marseille","lat":43.307907,"lon":5.381518,"is_reserved":false,"is_disabled":false,"rental_uris":{"android":"levelo://app?vid=46e25da2-6e23-48b8-9f30-ddeb892b8091","ios":"levelo://app?vid=46e25da2-6e23-48b8-9f30-ddeb892b8091"},"vehicle_type_id":"4","last_reported":1735960330,"current_range_meters":36800,"station_id":"ce4bgt12rcd13ifvqce0","pricing_plan_id":"cebpf4jnsgd1na2vs0mg"},{"bike_id":"b6bb9f04-4321-49e9-99be-1ec01f122623","system_id":"levelo_inurba_marseille","lat":43.27448,"lon":5.3942,"is_reserved":false,"is_disabled":false,"rental_uris":{"android":"levelo://app?vid=b6bb9f04-4321-49e9-99be-1ec01f122623","ios":"levelo://app?vid=b6bb9f04-4321-49e9-99be-1ec01f122623"},"vehicle_type_id":"4","last_reported":1735960330,"current_range_meters":38800,"station_id":"ce4bhdp2rcd13ifvqf20","pricing_plan_id":"cebpf4jnsgd1na2vs0mg"},{"bike_id":"34825794-d565-4dbd-8cbe-c88df4608f04","system_id":"levelo_inurba_marseille","lat":43.27794,"lon":5.40725,"is_reserved":false,"is_disabled":false,"rental_uris":{"android":"levelo://app?vid=34825794-d565-4dbd-8cbe-c88df4608f04","ios":"levelo://app?vid=34825794-d565-4dbd-8cbe-c88df4608f04"},"vehicle_type_id":"4","last_reported":1735960330,"current_range_meters":38400,"station_id":"ce4bhnh2rcd13ifvqgtg","pricing_plan_id":"cebpf4jnsgd1na2vs0mg"},{"bike_id":"9085f317-eea3-445b-8bdd-28ff00ca8048","system_id":"levelo_inurba_marseille","lat":43.26673,"lon":5.38282,"is_reserved":false,"is_disabled":false,"rental_uris":{"android":"levelo://app?vid=9085f317-eea3-445b-8bdd-28ff00ca8048","ios":"levelo://app?vid=9085f317-eea3-445b-8bdd-28ff00ca8048"},"vehicle_type_id":"4","last_reported":1735960330,"current_range_meters":32800,"station_id":"ce4bhg92rcd13ifvqf90","pricing_plan_id":"cebpf4jnsgd1na2vs0mg"},{"bike_id":"a6f828f1-5f97-4da7-bf33-7d48a155db3e","system_id":"levelo_inurba_marseille","lat":43.278408,"lon":5.392008,"is_reserved":false,"is_disabled":false,"rental_uris":{"android":"levelo://app?vid=a6f828f1-5f97-4da7-bf33-7d48a155db3e","ios":"levelo://app?vid=a6f828f1-5f97-4da7-bf33-7d48a155db3e"},"vehicle_type_id":"4","last_reported":1735960330,"current_range_meters":28400,"station_id":"ce4bhjp2rcd13ifvqga0","pricing_plan_id":"cebpf4jnsgd1na2vs0mg"},{"bike_id":"109249d2-7daf-4296-bfbc-45d5163d23df","system_id":"levelo_inurba_marseille","lat":43.30594,"lon":5.37181,"is_reserved":false,"is_disabled":true,"rental_uris":{"android":"levelo://app?vid=109249d2-7daf-4296-bfbc-45d5163d23df","ios":"levelo://app?vid=109249d2-7daf-4296-bfbc-45d5163d23df"},"vehicle_type_id":"4","last_reported":1735960330,"current_range_meters":30400,"station_id":"ce4bgqh2rcd13ifvqc4g","pricing_plan_id":"cebpf4jnsgd1na2vs0mg"},{"bike_id":"0d2af419-b932-4758-89fb-ab0fc6fe2641","system_id":"levelo_inurba_marseille","lat":43.30408,"lon":5.41297,"is_reserved":false,"is_disabled":false,"rental_uris":{"android":"levelo://app?vid=0d2af419-b932-4758-89fb-ab0fc6fe2641","ios":"levelo://app?vid=0d2af419-b932-4758-89fb-ab0fc6fe2641"},"vehicle_type_id":"4","last_reported":1735960330,"current_range_meters":16800,"station_id":"ce4bhop2rcd13ifvqh8g","pricing_plan_id":"cebpf4jnsgd1na2vs0mg"},{"bike_id":"e4f1d7f7-1c65-4b71-a2e9-b5c8e7d0e0c5","system_id":"levelo_inurba_marseille","lat":43.25112,"lon":5.40309,"is_reserved":false,"is_disabled":false,"rental_uris":{"android":"levelo://app?vid=e4f1d7f7-1c65-4b71-a2e9-b5c8e7d0e0c5","ios":"levelo://app?vid=e4f1d7f7-1c65-4b71-a2e9-b5c8e7d0e0c5"},"vehicle_type_id":"4","last_reported":1735960330,"current_range_meters":7200,"station_id":"ce4bhlh2rcd13ifvqgig","pricing_plan_id":"cebpf4jnsgd1na2vs0mg"},{"bike_id":"03e0e2e1-c2d7-409a-a105-d70a732410b2","system_id":"levelo_inurba_marseille","lat":43.245484,"lon":5.395218,"is_reserved":false,"is_disabled":false,"rental_uris":{"android":"levelo://app?vid=03e0e2e1-c2d7-409a-a105-d70a732410b2","ios":"levelo://app?vid=03e0e2e1-c2d7-409a-a105-d70a732410b2"},"vehicle_type_id":"4","last_reported":1735960330,"current_range_meters":9600,"station_id":"ce4bhlp2rcd13ifvqgjg","pricing_plan_id":"cebpf4jnsgd1na2vs0mg"},{"bike_id":"8a94385a-5ec5-4b84-a374-9fa96b860c6e","system_id":"levelo_inurba_marseille","lat":43.31277,"lon":5.40176,"is_reserved":false,"is_disabled":false,"rental_uris":{"android":"levelo://app?vid=8a94385a-5ec5-4b84-a374-9fa96b860c6e","ios":"levelo://app?vid=8a94385a-5ec5-4b84-a374-9fa96b860c6e"},"vehicle_type_id":"4","last_reported":1735960330,"current_range_meters":28000,"station_id":"ce4bh092rcd13ifvqd30","pricing_plan_id":"cebpf4jnsgd1na2vs0mg"},{"bike_id":"40977940-0cd3-4c4e-ab13-342c16c738ab","system_id":"levelo_inurba_marseille","lat":43.24654,"lon":5.38895,"is_reserved":false,"is_disabled":false,"rental_uris":{"android":"levelo://app?vid=40977940-0cd3-4c4e-ab13-342c16c738ab","ios":"levelo://app?vid=40977940-0cd3-4c4e-ab13-342c16c738ab"},"vehicle_type_id":"4","last_reported":1735960330,"current_range_meters":16400,"station_id":"ce4bhg12rcd13ifvqf60","pricing_plan_id":"cebpf4jnsgd1na2vs0mg"},{"bike_id":"0fb09dc4-c559-469b-b944-d0167194cfca","system_id":"levelo_inurba_marseille","lat":43.27948,"lon":5.41048,"is_reserved":false,"is_disabled":false,"rental_uris":{"android":"levelo://app?vid=0fb09dc4-c559-469b-b944-d0167194cfca","ios":"levelo://app?vid=0fb09dc4-c559-469b-b944-d0167194cfca"},"vehicle_type_id":"4","last_reported":1735960330,"current_range_meters":38800,"station_id":"ce4bhnp2rcd13ifvqh0g","pricing_plan_id":"cebpf4jnsgd1na2vs0mg"},{"bike_id":"6befa724-a01f-4ce7-a943-40045c8a7a16","system_id":"levelo_inurba_marseille","lat":43.2694,"lon":5.3891,"is_reserved":false,"is_disabled":false,"rental_uris":{"android":"levelo://app?vid=6befa724-a01f-4ce7-a943-40045c8a7a16","ios":"levelo://app?vid=6befa724-a01f-4ce7-a943-40045c8a7a16"},"vehicle_type_id":"4","last_reported":1735960330,"current_range_meters":37600,"station_id":"ce4bhhh2rcd13ifvqfl0","pricing_plan_id":"cebpf4jnsgd1na2vs0mg"},{"bike_id":"ffaa7442-5806-4ded-827f-12be4a9f93f7","system_id":"levelo_inurba_marseille","lat":43.26197,"lon":5.37447,"is_reserved":false,"is_disabled":false,"rental_uris":{"android":"levelo://app?vid=ffaa7442-5806-4ded-827f-12be4a9f93f7","ios":"levelo://app?vid=ffaa7442-5806-4ded-827f-12be4a9f93f7"},"vehicle_type_id":"4","last_reported":1735960330,"current_range_meters":38800,"station_id":"ce4bhgp2rcd13ifvqfc0","pricing_plan_id":"cebpf4jnsgd1na2vs0mg"},{"bike_id":"44e9c572-1cde-4d72-9c84-6f456bc1eb4b","system_id":"levelo_inurba_marseille","lat":43.307897,"lon":5.38161,"is_reserved":false,"is_disabled":false,"rental_uris":{"android":"levelo://app?vid=44e9c572-1cde-4d72-9c84-6f456bc1eb4b","ios":"levelo://app?vid=44e9c572-1cde-4d72-9c84-6f456bc1eb4b"},"vehicle_type_id":"4","last_reported":1735960330,"current_range_meters":38000,"station_id":"ce4bgt12rcd13ifvqce0","pricing_plan_id":"cebpf4jnsgd1na2vs0mg"},{"bike_id":"6c0950ff-ad32-4545-a3b0-d009b8de7beb","system_id":"levelo_inurba_marseille","lat":43.26501,"lon":5.39517,"is_reserved":false,"is_disabled":false,"rental_uris":{"android":"levelo://app?vid=6c0950ff-ad32-4545-a3b0-d009b8de7beb","ios":"levelo://app?vid=6c0950ff-ad32-4545-a3b0-d009b8de7beb"},"vehicle_type_id":"4","last_reported":1735960330,"current_range_meters":38800,"station_id":"ce4bhi12rcd13ifvqfq0","pricing_plan_id":"cebpf4jnsgd1na2vs0mg"},{"bike_id":"641d8acc-50b2-4173-ab23-c70f2a11d28e","system_id":"levelo_inurba_marseille","lat":43.28144,"lon":5.42645,"is_reserved":false,"is_disabled":true,"rental_uris":{"android":"levelo://app?vid=641d8acc-50b2-4173-ab23-c70f2a11d28e","ios":"levelo://app?vid=641d8acc-50b2-4173-ab23-c70f2a11d28e"},"vehicle_type_id":"4","last_reported":1735960330,"current_range_meters":38000,"station_id":"ce4bhnh2rcd13ifvqgug","pricing_plan_id":"cebpf4jnsgd1na2vs0mg"},{"bike_id":"0a903dd4-aa5a-4030-b502-395f71036d16","system_id":"levelo_inurba_marseille","lat":43.246728,"lon":5.381511,"is_reserved":false,"is_disabled":false,"rental_uris":{"android":"levelo://app?vid=0a903dd4-aa5a-4030-b502-395f71036d16","ios":"levelo://app?vid=0a903dd4-aa5a-4030-b502-395f71036d16"},"vehicle_type_id":"4","last_reported":1735960330,"current_range_meters":28800,"station_id":"ce4bhih2rcd13ifvqfr0","pricing_plan_id":"cebpf4jnsgd1na2vs0mg"},{"bike_id":"8e936699-fb94-4c05-a18e-6a31521ab968","system_id":"levelo_inurba_marseille","lat":43.284694,"lon":5.358941,"is_reserved":false,"is_disabled":true,"rental_uris":{"android":"levelo://app?vid=8e936699-fb94-4c05-a18e-6a31521ab968","ios":"levelo://app?vid=8e936699-fb94-4c05-a18e-6a31521ab968"},"vehicle_type_id":"4","last_reported":1735960330,"current_range_meters":32800,"station_id":"ce4bhah2rcd13ifvqei0","pricing_plan_id":"cebpf4jnsgd1na2vs0mg"},{"bike_id":"237a0d5a-8195-4695-b7fc-17dfb3b6dfc0","system_id":"levelo_inurba_marseille","lat":43.286114,"lon":5.370564,"is_reserved":false,"is_disabled":false,"rental_uris":{"android":"levelo://app?vid=237a0d5a-8195-4695-b7fc-17dfb3b6dfc0","ios":"levelo://app?vid=237a0d5a-8195-4695-b7fc-17dfb3b6dfc0"},"vehicle_type_id":"4","last_reported":1735960330,"current_range_meters":18000,"station_id":"ce4bht12rcd13ifvqi60","pricing_plan_id":"cebpf4jnsgd1na2vs0mg"},{"bike_id":"d9039fb6-1526-43a5-ab47-bf6c74051347","system_id":"levelo_inurba_marseille","lat":43.281552,"lon":5.4264,"is_reserved":false,"is_disabled":false,"rental_uris":{"android":"levelo://app?vid=d9039fb6-1526-43a5-ab47-bf6c74051347","ios":"levelo://app?vid=d9039fb6-1526-43a5-ab47-bf6c74051347"},"vehicle_type_id":"4","last_reported":1735960330,"current_range_meters":35600,"station_id":"ce4bhnh2rcd13ifvqgug","pricing_plan_id":"cebpf4jnsgd1na2vs0mg"},{"bike_id":"3a3a4eb7-ea9e-4f95-973d-bbbd1fc7238b","system_id":"levelo_inurba_marseille","lat":43.27991,"lon":5.416546,"is_reserved":false,"is_disabled":false,"rental_uris":{"android":"levelo://app?vid=3a3a4eb7-ea9e-4f95-973d-bbbd1fc7238b","ios":"levelo://app?vid=3a3a4eb7-ea9e-4f95-973d-bbbd1fc7238b"},"vehicle_type_id":"4","last_reported":1735960330,"current_range_meters":37600,"station_id":"ce4bho12rcd13ifvqh1g","pricing_plan_id":"cebpf4jnsgd1na2vs0mg"},{"bike_id":"bd609247-c05b-4bfd-8224-3974e4956916","system_id":"levelo_inurba_marseille","lat":43.308967,"lon":5.368449,"is_reserved":false,"is_disabled":true,"rental_uris":{"android":"levelo://app?vid=bd609247-c05b-4bfd-8224-3974e4956916","ios":"levelo://app?vid=bd609247-c05b-4bfd-8224-3974e4956916"},"vehicle_type_id":"4","last_reported":1735960330,"current_range_meters":37600,"station_id":"ce4bgn92rcd13ifvqbvg","pricing_plan_id":"cebpf4jnsgd1na2vs0mg"},{"bike_id":"7023404b-8be7-4ebd-b50a-d6abd594a7f9","system_id":"levelo_inurba_marseille","lat":43.257271,"lon":5.411067,"is_reserved":false,"is_disabled":false,"rental_uris":{"android":"levelo://app?vid=7023404b-8be7-4ebd-b50a-d6abd594a7f9","ios":"levelo://app?vid=7023404b-8be7-4ebd-b50a-d6abd594a7f9"},"vehicle_type_id":"4","last_reported":1735960330,"current_range_meters":38800,"station_id":"ce4bhkp2rcd13ifvqgd0","pricing_plan_id":"cebpf4jnsgd1na2vs0mg"},{"bike_id":"076fd57e-0317-4954-966f-7d5b4ac9f89d","system_id":"levelo_inurba_marseille","lat":43.31267,"lon":5.40179,"is_reserved":false,"is_disabled":false,"rental_uris":{"android":"levelo://app?vid=076fd57e-0317-4954-966f-7d5b4ac9f89d","ios":"levelo://app?vid=076fd57e-0317-4954-966f-7d5b4ac9f89d"},"vehicle_type_id":"4","last_reported":1735960330,"current_range_meters":36400,"station_id":"ce4bh092rcd13ifvqd30","pricing_plan_id":"cebpf4jnsgd1na2vs0mg"},{"bike_id":"b50c1e04-9c20-4daa-ad06-7d854e9beedd","system_id":"levelo_inurba_marseille","lat":43.26188,"lon":5.37455,"is_reserved":false,"is_disabled":false,"rental_uris":{"android":"levelo://app?vid=b50c1e04-9c20-4daa-ad06-7d854e9beedd","ios":"levelo://app?vid=b50c1e04-9c20-4daa-ad06-7d854e9beedd"},"vehicle_type_id":"4","last_reported":1735960330,"current_range_meters":35200,"station_id":"ce4bhgp2rcd13ifvqfc0","pricing_plan_id":"cebpf4jnsgd1na2vs0mg"},{"bike_id":"fe6f290f-0e15-46b1-9ee2-787dc5c43fe5","system_id":"levelo_inurba_marseille","lat":43.29555,"lon":5.4229,"is_reserved":false,"is_disabled":false,"rental_uris":{"android":"levelo://app?vid=fe6f290f-0e15-46b1-9ee2-787dc5c43fe5","ios":"levelo://app?vid=fe6f290f-0e15-46b1-9ee2-787dc5c43fe5"},"vehicle_type_id":"4","last_reported":1735960330,"current_range_meters":16400,"station_id":"ce4bhph2rcd13ifvqhdg","pricing_plan_id":"cebpf4jnsgd1na2vs0mg"},{"bike_id":"96bda347-866d-4dff-98a3-e2ed393f23fc","system_id":"levelo_inurba_marseille","lat":43.30337,"lon":5.434971,"is_reserved":false,"is_disabled":false,"rental_uris":{"android":"levelo://app?vid=96bda347-866d-4dff-98a3-e2ed393f23fc","ios":"levelo://app?vid=96bda347-866d-4dff-98a3-e2ed393f23fc"},"vehicle_type_id":"4","last_reported":1735960330,"current_range_meters":24800,"station_id":"","pricing_plan_id":"cebpf4jnsgd1na2vs0mg"},{"bike_id":"1d0ee6fa-7e84-4bad-a513-32569bfb99a6","system_id":"levelo_inurba_marseille","lat":43.274151,"lon":5.393924,"is_reserved":false,"is_disabled":false,"rental_uris":{"android":"levelo://app?vid=1d0ee6fa-7e84-4bad-a513-32569bfb99a6","ios":"levelo://app?vid=1d0ee6fa-7e84-4bad-a513-32569bfb99a6"},"vehicle_type_id":"4","last_reported":1735960330,"current_range_meters":38800,"station_id":"ce4bhdp2rcd13ifvqf20","pricing_plan_id":"cebpf4jnsgd1na2vs0mg"},{"bike_id":"8978f7d9-23f5-4684-91f0-9f9259357d39","system_id":"levelo_inurba_marseille","lat":43.34134,"lon":5.40919,"is_reserved":false,"is_disabled":false,"rental_uris":{"android":"levelo://app?vid=8978f7d9-23f5-4684-91f0-9f9259357d39","ios":"levelo://app?vid=8978f7d9-23f5-4684-91f0-9f9259357d39"},"vehicle_type_id":"4","last_reported":1735960330,"current_range_meters":36800,"station_id":"ce4bhqh2rcd13ifvqhlg","pricing_plan_id":"cebpf4jnsgd1na2vs0mg"},{"bike_id":"d5d56bac-e55e-4a77-b8f3-6a55df83ff3a","system_id":"levelo_inurba_marseille","lat":43.299857,"lon":5.371874,"is_reserved":false,"is_disabled":false,"rental_uris":{"android":"levelo://app?vid=d5d56bac-e55e-4a77-b8f3-6a55df83ff3a","ios":"levelo://app?vid=d5d56bac-e55e-4a77-b8f3-6a55df83ff3a"},"vehicle_type_id":"4","last_reported":1735960330,"current_range_meters":32400,"station_id":"ce4bgr92rcd13ifvqc7g","pricing_plan_id":"cebpf4jnsgd1na2vs0mg"},{"bike_id":"2ff0edbb-1120-44a4-b8a8-0b9a430d70c1","system_id":"levelo_inurba_marseille","lat":43.30437,"lon":5.38895,"is_reserved":false,"is_disabled":false,"rental_uris":{"android":"levelo://app?vid=2ff0edbb-1120-44a4-b8a8-0b9a430d70c1","ios":"levelo://app?vid=2ff0edbb-1120-44a4-b8a8-0b9a430d70c1"},"vehicle_type_id":"4","last_reported":1735960330,"current_range_meters":38000,"station_id":"ce4bgk12rcd13ifvqbi0","pricing_plan_id":"cebpf4jnsgd1na2vs0mg"},{"bike_id":"983a939f-0c90-4b41-8e07-1ba37a328643","system_id":"levelo_inurba_marseille","lat":43.2417,"lon":5.36394,"is_reserved":false,"is_disabled":false,"rental_uris":{"android":"levelo://app?vid=983a939f-0c90-4b41-8e07-1ba37a328643","ios":"levelo://app?vid=983a939f-0c90-4b41-8e07-1ba37a328643"},"vehicle_type_id":"4","last_reported":1735960330,"current_range_meters":26800,"station_id":"cpo36qri1sfpv3e86is0","pricing_plan_id":"cebpf4jnsgd1na2vs0mg"},{"bike_id":"0d36baca-b4e4-4eb6-85e9-d02c7038df15","system_id":"levelo_inurba_marseille","lat":43.30521,"lon":5.36547,"is_reserved":false,"is_disabled":true,"rental_uris":{"android":"levelo://app?vid=0d36baca-b4e4-4eb6-85e9-d02c7038df15","ios":"levelo://app?vid=0d36baca-b4e4-4eb6-85e9-d02c7038df15"},"vehicle_type_id":"4","last_reported":1735960330,"current_range_meters":28400,"station_id":"ce4bgs12rcd13ifvqcag","pricing_plan_id":"cebpf4jnsgd1na2vs0mg"},{"bike_id":"8c0f623e-53a4-4ffd-8e02-34e8b27a8284","system_id":"levelo_inurba_marseille","lat":43.29984,"lon":5.38559,"is_reserved":false,"is_disabled":false,"rental_uris":{"android":"levelo://app?vid=8c0f623e-53a4-4ffd-8e02-34e8b27a8284","ios":"levelo://app?vid=8c0f623e-53a4-4ffd-8e02-34e8b27a8284"},"vehicle_type_id":"4","last_reported":1735960330,"current_range_meters":37600,"station_id":"ce4bgj92rcd13ifvqbd0","pricing_plan_id":"cebpf4jnsgd1na2vs0mg"},{"bike_id":"dbd7f6c9-df67-46d9-a336-d417ecad0d25","system_id":"levelo_inurba_marseille","lat":43.29921,"lon":5.43645,"is_reserved":false,"is_disabled":false,"rental_uris":{"android":"levelo://app?vid=dbd7f6c9-df67-46d9-a336-d417ecad0d25","ios":"levelo://app?vid=dbd7f6c9-df67-46d9-a336-d417ecad0d25"},"vehicle_type_id":"4","last_reported":1735960330,"current_range_meters":36000,"station_id":"ce4bhpp2rcd13ifvqhfg","pricing_plan_id":"cebpf4jnsgd1na2vs0mg"},{"bike_id":"376c5e24-8c99-4a45-b448-d5554cb31c99","system_id":"levelo_inurba_marseille","lat":43.287194,"lon":5.399955,"is_reserved":false,"is_disabled":true,"rental_uris":{"android":"levelo://app?vid=376c5e24-8c99-4a45-b448-d5554cb31c99","ios":"levelo://app?vid=376c5e24-8c99-4a45-b448-d5554cb31c99"},"vehicle_type_id":"4","last_reported":1735960330,"current_range_meters":36800,"station_id":"ce4bho92rcd13ifvqh3g","pricing_plan_id":"cebpf4jnsgd1na2vs0mg"},{"bike_id":"dfc8a5ce-5ff4-4c79-bd9d-48e6c81f2d38","system_id":"levelo_inurba_marseille","lat":43.28609,"lon":5.37052,"is_reserved":false,"is_disabled":false,"rental_uris":{"android":"levelo://app?vid=dfc8a5ce-5ff4-4c79-bd9d-48e6c81f2d38","ios":"levelo://app?vid=dfc8a5ce-5ff4-4c79-bd9d-48e6c81f2d38"},"vehicle_type_id":"4","last_reported":1735960330,"current_range_meters":26800,"station_id":"ce4bht12rcd13ifvqi60","pricing_plan_id":"cebpf4jnsgd1na2vs0mg"},{"bike_id":"7c863057-f1ae-4435-9460-2cc51ef60299","system_id":"levelo_inurba_marseille","lat":43.29218,"lon":5.36085,"is_reserved":false,"is_disabled":false,"rental_uris":{"android":"levelo://app?vid=7c863057-f1ae-4435-9460-2cc51ef60299","ios":"levelo://app?vid=7c863057-f1ae-4435-9460-2cc51ef60299"},"vehicle_type_id":"4","last_reported":1735960330,"current_range_meters":32000,"station_id":"ce4bhbh2rcd13ifvqeqg","pricing_plan_id":"cebpf4jnsgd1na2vs0mg"},{"bike_id":"349a4ab8-6f13-4948-be71-abaadb9466ee","system_id":"levelo_inurba_marseille","lat":43.240725,"lon":5.377539,"is_reserved":false,"is_disabled":false,"rental_uris":{"android":"levelo://app?vid=349a4ab8-6f13-4948-be71-abaadb9466ee","ios":"levelo://app?vid=349a4ab8-6f13-4948-be71-abaadb9466ee"},"vehicle_type_id":"4","last_reported":1735960330,"current_range_meters":37600,"station_id":"ce4bhnp2rcd13ifvqgvg","pricing_plan_id":"cebpf4jnsgd1na2vs0mg"},{"bike_id":"50e1035a-38ba-4105-93bb-00f1c81b01fc","system_id":"levelo_inurba_marseille","lat":43.29188,"lon":5.35817,"is_reserved":false,"is_disabled":false,"rental_uris":{"android":"levelo://app?vid=50e1035a-38ba-4105-93bb-00f1c81b01fc","ios":"levelo://app?vid=50e1035a-38ba-4105-93bb-00f1c81b01fc"},"vehicle_type_id":"4","last_reported":1735960330,"current_range_meters":38800,"station_id":"ce4bhb12rcd13ifvqel0","pricing_plan_id":"cebpf4jnsgd1na2vs0mg"},{"bike_id":"9a7386b2-f745-4cca-b5f8-5a0fa83711b8","system_id":"levelo_inurba_marseille","lat":43.25828,"lon":5.39449,"is_reserved":false,"is_disabled":false,"rental_uris":{"android":"levelo://app?vid=9a7386b2-f745-4cca-b5f8-5a0fa83711b8","ios":"levelo://app?vid=9a7386b2-f745-4cca-b5f8-5a0fa83711b8"},"vehicle_type_id":"4","last_reported":1735960330,"current_range_meters":39200,"station_id":"ce4bhip2rcd13ifvqft0","pricing_plan_id":"cebpf4jnsgd1na2vs0mg"},{"bike_id":"a5857756-0478-41f2-bfa4-405eeda359bc","system_id":"levelo_inurba_marseille","lat":43.26676,"lon":5.38245,"is_reserved":false,"is_disabled":false,"rental_uris":{"android":"levelo://app?vid=a5857756-0478-41f2-bfa4-405eeda359bc","ios":"levelo://app?vid=a5857756-0478-41f2-bfa4-405eeda359bc"},"vehicle_type_id":"4","last_reported":1735960330,"current_range_meters":38800,"station_id":"ce4bhg92rcd13ifvqf90","pricing_plan_id":"cebpf4jnsgd1na2vs0mg"},{"bike_id":"e9c9ac99-6db0-4a19-9854-52585a709e6e","system_id":"levelo_inurba_marseille","lat":43.295745,"lon":5.367314,"is_reserved":false,"is_disabled":false,"rental_uris":{"android":"levelo://app?vid=e9c9ac99-6db0-4a19-9854-52585a709e6e","ios":"levelo://app?vid=e9c9ac99-6db0-4a19-9854-52585a709e6e"},"vehicle_type_id":"4","last_reported":1735960330,"current_range_meters":36000,"station_id":"ce4bgph2rcd13ifvqc2g","pricing_plan_id":"cebpf4jnsgd1na2vs0mg"},{"bike_id":"1f7cd740-2c18-4894-a0a5-47e69df84924","system_id":"levelo_inurba_marseille","lat":43.24985,"lon":5.38961,"is_reserved":false,"is_disabled":false,"rental_uris":{"android":"levelo://app?vid=1f7cd740-2c18-4894-a0a5-47e69df84924","ios":"levelo://app?vid=1f7cd740-2c18-4894-a0a5-47e69df84924"},"vehicle_type_id":"4","last_reported":1735960330,"current_range_meters":32800,"station_id":"ce4bhgp2rcd13ifvqfd0","pricing_plan_id":"cebpf4jnsgd1na2vs0mg"},{"bike_id":"f3998a04-3b93-4948-8eb7-aa16047370fd","system_id":"levelo_inurba_marseille","lat":43.27965,"lon":5.41043,"is_reserved":false,"is_disabled":false,"rental_uris":{"android":"levelo://app?vid=f3998a04-3b93-4948-8eb7-aa16047370fd","ios":"levelo://app?vid=f3998a04-3b93-4948-8eb7-aa16047370fd"},"vehicle_type_id":"4","last_reported":1735960330,"current_range_meters":16000,"station_id":"ce4bhnp2rcd13ifvqh0g","pricing_plan_id":"cebpf4jnsgd1na2vs0mg"},{"bike_id":"94978c18-c7ac-49d8-9c72-40484a75119d","system_id":"levelo_inurba_marseille","lat":43.29004,"lon":5.35606,"is_reserved":false,"is_disabled":false,"rental_uris":{"android":"levelo://app?vid=94978c18-c7ac-49d8-9c72-40484a75119d","ios":"levelo://app?vid=94978c18-c7ac-49d8-9c72-40484a75119d"},"vehicle_type_id":"4","last_reported":1735960330,"current_range_meters":38800,"station_id":"ce4bhb92rcd13ifvqen0","pricing_plan_id":"cebpf4jnsgd1na2vs0mg"},{"bike_id":"f3435332-11c4-4ce2-9f7e-083072d5319f","system_id":"levelo_inurba_marseille","lat":43.25498,"lon":5.37652,"is_reserved":false,"is_disabled":false,"rental_uris":{"android":"levelo://app?vid=f3435332-11c4-4ce2-9f7e-083072d5319f","ios":"levelo://app?vid=f3435332-11c4-4ce2-9f7e-083072d5319f"},"vehicle_type_id":"4","last_reported":1735960330,"current_range_meters":19200,"station_id":"ce4bhh12rcd13ifvqff0","pricing_plan_id":"cebpf4jnsgd1na2vs0mg"},{"bike_id":"ae269516-63cb-416b-964a-217904f9d7b3","system_id":"levelo_inurba_marseille","lat":43.232,"lon":5.39983,"is_reserved":false,"is_disabled":false,"rental_uris":{"android":"levelo://app?vid=ae269516-63cb-416b-964a-217904f9d7b3","ios":"levelo://app?vid=ae269516-63cb-416b-964a-217904f9d7b3"},"vehicle_type_id":"4","last_reported":1735960330,"current_range_meters":10800,"station_id":"ce4bhn12rcd13ifvqgqg","pricing_plan_id":"cebpf4jnsgd1na2vs0mg"},{"bike_id":"c150b4c3-2169-48df-a9d5-cdbc11d0c0c7","system_id":"levelo_inurba_marseille","lat":43.29212,"lon":5.36053,"is_reserved":false,"is_disabled":true,"rental_uris":{"android":"levelo://app?vid=c150b4c3-2169-48df-a9d5-cdbc11d0c0c7","ios":"levelo://app?vid=c150b4c3-2169-48df-a9d5-cdbc11d0c0c7"},"vehicle_type_id":"4","last_reported":1735960330,"current_range_meters":10800,"station_id":"ce4bhbh2rcd13ifvqeqg","pricing_plan_id":"cebpf4jnsgd1na2vs0mg"},{"bike_id":"00570d6a-8aaf-4569-865f-a5e50d81a72c","system_id":"levelo_inurba_marseille","lat":43.295197,"lon":5.39398,"is_reserved":false,"is_disabled":false,"rental_uris":{"android":"levelo://app?vid=00570d6a-8aaf-4569-865f-a5e50d81a72c","ios":"levelo://app?vid=00570d6a-8aaf-4569-865f-a5e50d81a72c"},"vehicle_type_id":"4","last_reported":1735960330,"current_range_meters":28800,"station_id":"ce4bh292rcd13ifvqdf0","pricing_plan_id":"cebpf4jnsgd1na2vs0mg"},{"bike_id":"9a633b20-48e1-4d57-88ca-cc77983ef0f1","system_id":"levelo_inurba_marseille","lat":43.28177,"lon":5.42655,"is_reserved":false,"is_disabled":false,"rental_uris":{"android":"levelo://app?vid=9a633b20-48e1-4d57-88ca-cc77983ef0f1","ios":"levelo://app?vid=9a633b20-48e1-4d57-88ca-cc77983ef0f1"},"vehicle_type_id":"4","last_reported":1735960330,"current_range_meters":8400,"station_id":"ce4bhnh2rcd13ifvqgug","pricing_plan_id":"cebpf4jnsgd1na2vs0mg"},{"bike_id":"d7a02a89-4954-456d-81ac-6cbad04e26c2","system_id":"levelo_inurba_marseille","lat":43.28672,"lon":5.36355,"is_reserved":false,"is_disabled":false,"rental_uris":{"android":"levelo://app?vid=d7a02a89-4954-456d-81ac-6cbad04e26c2","ios":"levelo://app?vid=d7a02a89-4954-456d-81ac-6cbad04e26c2"},"vehicle_type_id":"4","last_reported":1735960330,"current_range_meters":38800,"station_id":"ce4bhah2rcd13ifvqej0","pricing_plan_id":"cebpf4jnsgd1na2vs0mg"},{"bike_id":"be558537-8dd8-4b3a-bb76-a7452ba544cf","system_id":"levelo_inurba_marseille","lat":43.31284,"lon":5.40155,"is_reserved":false,"is_disabled":false,"rental_uris":{"android":"levelo://app?vid=be558537-8dd8-4b3a-bb76-a7452ba544cf","ios":"levelo://app?vid=be558537-8dd8-4b3a-bb76-a7452ba544cf"},"vehicle_type_id":"4","last_reported":1735960330,"current_range_meters":9600,"station_id":"ce4bh092rcd13ifvqd30","pricing_plan_id":"cebpf4jnsgd1na2vs0mg"},{"bike_id":"eaecfcca-aa89-4e9a-8d17-c5be1539665b","system_id":"levelo_inurba_marseille","lat":43.28266,"lon":5.35082,"is_reserved":false,"is_disabled":true,"rental_uris":{"android":"levelo://app?vid=eaecfcca-aa89-4e9a-8d17-c5be1539665b","ios":"levelo://app?vid=eaecfcca-aa89-4e9a-8d17-c5be1539665b"},"vehicle_type_id":"4","last_reported":1735960330,"current_range_meters":8400,"station_id":"ce4bhbp2rcd13ifvqerg","pricing_plan_id":"cebpf4jnsgd1na2vs0mg"},{"bike_id":"896797d5-e48c-435a-a4ff-c7d0b4682116","system_id":"levelo_inurba_marseille","lat":43.27811,"lon":5.40732,"is_reserved":false,"is_disabled":false,"rental_uris":{"android":"levelo://app?vid=896797d5-e48c-435a-a4ff-c7d0b4682116","ios":"levelo://app?vid=896797d5-e48c-435a-a4ff-c7d0b4682116"},"vehicle_type_id":"4","last_reported":1735960330,"current_range_meters":28400,"station_id":"ce4bhnh2rcd13ifvqgtg","pricing_plan_id":"cebpf4jnsgd1na2vs0mg"},{"bike_id":"728e33c6-8a0a-4e9a-a5b8-1b6363b44aeb","system_id":"levelo_inurba_marseille","lat":43.29,"lon":5.35616,"is_reserved":false,"is_disabled":false,"rental_uris":{"android":"levelo://app?vid=728e33c6-8a0a-4e9a-a5b8-1b6363b44aeb","ios":"levelo://app?vid=728e33c6-8a0a-4e9a-a5b8-1b6363b44aeb"},"vehicle_type_id":"4","last_reported":1735960330,"current_range_meters":37600,"station_id":"ce4bhb92rcd13ifvqen0","pricing_plan_id":"cebpf4jnsgd1na2vs0mg"},{"bike_id":"13ef7d4c-1aac-463f-b78f-283376e4de16","system_id":"levelo_inurba_marseille","lat":43.22918,"lon":5.35378,"is_reserved":false,"is_disabled":false,"rental_uris":{"android":"levelo://app?vid=13ef7d4c-1aac-463f-b78f-283376e4de16","ios":"levelo://app?vid=13ef7d4c-1aac-463f-b78f-283376e4de16"},"vehicle_type_id":"4","last_reported":1735960330,"current_range_meters":38400,"station_id":"cpo3532slgdg3j2ikp40","pricing_plan_id":"cebpf4jnsgd1na2vs0mg"},{"bike_id":"cf54008b-27af-48d5-90e3-f17a9778834c","system_id":"levelo_inurba_marseille","lat":43.31361,"lon":5.38506,"is_reserved":false,"is_disabled":false,"rental_uris":{"android":"levelo://app?vid=cf54008b-27af-48d5-90e3-f17a9778834c","ios":"levelo://app?vid=cf54008b-27af-48d5-90e3-f17a9778834c"},"vehicle_type_id":"4","last_reported":1735960330,"current_range_meters":37600,"station_id":"ce4bgt92rcd13ifvqcf0","pricing_plan_id":"cebpf4jnsgd1na2vs0mg"},{"bike_id":"2a5f3b0a-f9d0-48ea-9bef-aa26f1f028b8","system_id":"levelo_inurba_marseille","lat":43.257174,"lon":5.411136,"is_reserved":false,"is_disabled":false,"rental_uris":{"android":"levelo://app?vid=2a5f3b0a-f9d0-48ea-9bef-aa26f1f028b8","ios":"levelo://app?vid=2a5f3b0a-f9d0-48ea-9bef-aa26f1f028b8"},"vehicle_type_id":"4","last_reported":1735960330,"current_range_meters":38800,"station_id":"ce4bhkp2rcd13ifvqgd0","pricing_plan_id":"cebpf4jnsgd1na2vs0mg"},{"bike_id":"3b123c2a-2f45-40a4-99ee-394de99fe1b6","system_id":"levelo_inurba_marseille","lat":43.29789,"lon":5.39357,"is_reserved":false,"is_disabled":false,"rental_uris":{"android":"levelo://app?vid=3b123c2a-2f45-40a4-99ee-394de99fe1b6","ios":"levelo://app?vid=3b123c2a-2f45-40a4-99ee-394de99fe1b6"},"vehicle_type_id":"4","last_reported":1735960330,"current_range_meters":38800,"station_id":"chh1huq6cuj3fo74tm60","pricing_plan_id":"cebpf4jnsgd1na2vs0mg"},{"bike_id":"0fe51e2a-6ba3-400a-8679-dc5ed19a829b","system_id":"levelo_inurba_marseille","lat":43.30934,"lon":5.40145,"is_reserved":false,"is_disabled":false,"rental_uris":{"android":"levelo://app?vid=0fe51e2a-6ba3-400a-8679-dc5ed19a829b","ios":"levelo://app?vid=0fe51e2a-6ba3-400a-8679-dc5ed19a829b"},"vehicle_type_id":"4","last_reported":1735960330,"current_range_meters":38800,"station_id":"ce4bgvp2rcd13ifvqct0","pricing_plan_id":"cebpf4jnsgd1na2vs0mg"},{"bike_id":"f3c12ef4-82bd-48ff-8ba6-8f2c9a44f8b9","system_id":"levelo_inurba_marseille","lat":43.248111,"lon":5.374559,"is_reserved":false,"is_disabled":false,"rental_uris":{"android":"levelo://app?vid=f3c12ef4-82bd-48ff-8ba6-8f2c9a44f8b9","ios":"levelo://app?vid=f3c12ef4-82bd-48ff-8ba6-8f2c9a44f8b9"},"vehicle_type_id":"4","last_reported":1735960330,"current_range_meters":38800,"station_id":"ce4bhgh2rcd13ifvqfb0","pricing_plan_id":"cebpf4jnsgd1na2vs0mg"},{"bike_id":"7d430f43-95c5-4363-9f87-1d675dddcbf2","system_id":"levelo_inurba_marseille","lat":43.25074,"lon":5.39527,"is_reserved":false,"is_disabled":false,"rental_uris":{"android":"levelo://app?vid=7d430f43-95c5-4363-9f87-1d675dddcbf2","ios":"levelo://app?vid=7d430f43-95c5-4363-9f87-1d675dddcbf2"},"vehicle_type_id":"4","last_reported":1735960330,"current_range_meters":37600,"station_id":"ce4bhm12rcd13ifvqgkg","pricing_plan_id":"cebpf4jnsgd1na2vs0mg"},{"bike_id":"c023bde9-ffda-4fe0-b15d-b0ad0e628af2","system_id":"levelo_inurba_marseille","lat":43.25506,"lon":5.37651,"is_reserved":false,"is_disabled":false,"rental_uris":{"android":"levelo://app?vid=c023bde9-ffda-4fe0-b15d-b0ad0e628af2","ios":"levelo://app?vid=c023bde9-ffda-4fe0-b15d-b0ad0e628af2"},"vehicle_type_id":"4","last_reported":1735960330,"current_range_meters":36400,"station_id":"ce4bhh12rcd13ifvqff0","pricing_plan_id":"cebpf4jnsgd1na2vs0mg"},{"bike_id":"68ef66f0-dd96-424a-ba29-3c004929578e","system_id":"levelo_inurba_marseille","lat":43.23195,"lon":5.39966,"is_reserved":false,"is_disabled":false,"rental_uris":{"android":"levelo://app?vid=68ef66f0-dd96-424a-ba29-3c004929578e","ios":"levelo://app?vid=68ef66f0-dd96-424a-ba29-3c004929578e"},"vehicle_type_id":"4","last_reported":1735960330,"current_range_meters":38800,"station_id":"ce4bhn12rcd13ifvqgqg","pricing_plan_id":"cebpf4jnsgd1na2vs0mg"},{"bike_id":"725999bb-8b32-4e5b-95fc-d63880a1b626","system_id":"levelo_inurba_marseille","lat":43.3265,"lon":5.409926,"is_reserved":false,"is_disabled":false,"rental_uris":{"android":"levelo://app?vid=725999bb-8b32-4e5b-95fc-d63880a1b626","ios":"levelo://app?vid=725999bb-8b32-4e5b-95fc-d63880a1b626"},"vehicle_type_id":"4","last_reported":1735960330,"current_range_meters":38800,"station_id":"ce4bhpp2rcd13ifvqhgg","pricing_plan_id":"cebpf4jnsgd1na2vs0mg"},{"bike_id":"ef9a109c-b390-454f-93a8-8485ab2a2218","system_id":"levelo_inurba_marseille","lat":43.30134,"lon":5.37415,"is_reserved":false,"is_disabled":false,"rental_uris":{"android":"levelo://app?vid=ef9a109c-b390-454f-93a8-8485ab2a2218","ios":"levelo://app?vid=ef9a109c-b390-454f-93a8-8485ab2a2218"},"vehicle_type_id":"4","last_reported":1735960330,"current_range_meters":38800,"station_id":"ce4bgs92rcd13ifvqcc0","pricing_plan_id":"cebpf4jnsgd1na2vs0mg"},{"bike_id":"eae11c21-0e68-4841-b456-38f5bd6f851c","system_id":"levelo_inurba_marseille","lat":43.267913,"lon":5.39419,"is_reserved":false,"is_disabled":false,"rental_uris":{"android":"levelo://app?vid=eae11c21-0e68-4841-b456-38f5bd6f851c","ios":"levelo://app?vid=eae11c21-0e68-4841-b456-38f5bd6f851c"},"vehicle_type_id":"4","last_reported":1735960330,"current_range_meters":17600,"station_id":"ce4bhh12rcd13ifvqfg0","pricing_plan_id":"cebpf4jnsgd1na2vs0mg"},{"bike_id":"270f72ca-6ff0-4006-b955-8701cfe72efd","system_id":"levelo_inurba_marseille","lat":43.29271,"lon":5.40131,"is_reserved":false,"is_disabled":true,"rental_uris":{"android":"levelo://app?vid=270f72ca-6ff0-4006-b955-8701cfe72efd","ios":"levelo://app?vid=270f72ca-6ff0-4006-b955-8701cfe72efd"},"vehicle_type_id":"4","last_reported":1735960330,"current_range_meters":8000,"station_id":"ce4bh312rcd13ifvqdk0","pricing_plan_id":"cebpf4jnsgd1na2vs0mg"},{"bike_id":"3603cabe-4957-48a6-b971-b737ca16a43d","system_id":"levelo_inurba_marseille","lat":43.32654,"lon":5.41003,"is_reserved":false,"is_disabled":false,"rental_uris":{"android":"levelo://app?vid=3603cabe-4957-48a6-b971-b737ca16a43d","ios":"levelo://app?vid=3603cabe-4957-48a6-b971-b737ca16a43d"},"vehicle_type_id":"4","last_reported":1735960330,"current_range_meters":19600,"station_id":"ce4bhpp2rcd13ifvqhgg","pricing_plan_id":"cebpf4jnsgd1na2vs0mg"},{"bike_id":"16ef519c-c129-4a25-869c-377cd2829023","system_id":"levelo_inurba_marseille","lat":43.32004,"lon":5.38151,"is_reserved":false,"is_disabled":false,"rental_uris":{"android":"levelo://app?vid=16ef519c-c129-4a25-869c-377cd2829023","ios":"levelo://app?vid=16ef519c-c129-4a25-869c-377cd2829023"},"vehicle_type_id":"4","last_reported":1735960330,"current_range_meters":25600,"station_id":"ce4bhr12rcd13ifvqhpg","pricing_plan_id":"cebpf4jnsgd1na2vs0mg"},{"bike_id":"53b06025-d8c9-4bda-94c7-740ea5b3c0ee","system_id":"levelo_inurba_marseille","lat":43.29711,"lon":5.36616,"is_reserved":false,"is_disabled":false,"rental_uris":{"android":"levelo://app?vid=53b06025-d8c9-4bda-94c7-740ea5b3c0ee","ios":"levelo://app?vid=53b06025-d8c9-4bda-94c7-740ea5b3c0ee"},"vehicle_type_id":"4","last_reported":1735960330,"current_range_meters":38800,"station_id":"ce4bgn12rcd13ifvqbt0","pricing_plan_id":"cebpf4jnsgd1na2vs0mg"},{"bike_id":"dcbbbac4-6615-48d1-aecd-87a0c7ad19b6","system_id":"levelo_inurba_marseille","lat":43.32488,"lon":5.36551,"is_reserved":false,"is_disabled":false,"rental_uris":{"android":"levelo://app?vid=dcbbbac4-6615-48d1-aecd-87a0c7ad19b6","ios":"levelo://app?vid=dcbbbac4-6615-48d1-aecd-87a0c7ad19b6"},"vehicle_type_id":"4","last_reported":1735960330,"current_range_meters":38800,"station_id":"ce4bhs12rcd13ifvqhvg","pricing_plan_id":"cebpf4jnsgd1na2vs0mg"},{"bike_id":"f0098e0a-70aa-4edf-b188-3a8c30449504","system_id":"levelo_inurba_marseille","lat":43.28104,"lon":5.39679,"is_reserved":false,"is_disabled":false,"rental_uris":{"android":"levelo://app?vid=f0098e0a-70aa-4edf-b188-3a8c30449504","ios":"levelo://app?vid=f0098e0a-70aa-4edf-b188-3a8c30449504"},"vehicle_type_id":"4","last_reported":1735960330,"current_range_meters":37600,"station_id":"ce4bho12rcd13ifvqh2g","pricing_plan_id":"cebpf4jnsgd1na2vs0mg"},{"bike_id":"13a28414-459a-4707-9716-ef38899da2be","system_id":"levelo_inurba_marseille","lat":43.31129,"lon":5.37753,"is_reserved":false,"is_disabled":false,"rental_uris":{"android":"levelo://app?vid=13a28414-459a-4707-9716-ef38899da2be","ios":"levelo://app?vid=13a28414-459a-4707-9716-ef38899da2be"},"vehicle_type_id":"4","last_reported":1735960330,"current_range_meters":32800,"station_id":"ce4bgt92rcd13ifvqcg0","pricing_plan_id":"cebpf4jnsgd1na2vs0mg"},{"bike_id":"759be572-b19d-406e-a346-0fb62285ee94","system_id":"levelo_inurba_marseille","lat":43.28713,"lon":5.37396,"is_reserved":false,"is_disabled":false,"rental_uris":{"android":"levelo://app?vid=759be572-b19d-406e-a346-0fb62285ee94","ios":"levelo://app?vid=759be572-b19d-406e-a346-0fb62285ee94"},"vehicle_type_id":"4","last_reported":1735960330,"current_range_meters":28800,"station_id":"ce4bh3p2rcd13ifvqdq0","pricing_plan_id":"cebpf4jnsgd1na2vs0mg"},{"bike_id":"2bd213f6-7c3b-4206-a8d7-1b059cfadb7f","system_id":"levelo_inurba_marseille","lat":43.33707,"lon":5.39182,"is_reserved":false,"is_disabled":false,"rental_uris":{"android":"levelo://app?vid=2bd213f6-7c3b-4206-a8d7-1b059cfadb7f","ios":"levelo://app?vid=2bd213f6-7c3b-4206-a8d7-1b059cfadb7f"},"vehicle_type_id":"4","last_reported":1735960330,"current_range_meters":38800,"station_id":"ce4bhr92rcd13ifvqhsg","pricing_plan_id":"cebpf4jnsgd1na2vs0mg"},{"bike_id":"4e2e926a-cc62-4529-8b24-3abbcf0f0be2","system_id":"levelo_inurba_marseille","lat":43.23184,"lon":5.35569,"is_reserved":false,"is_disabled":false,"rental_uris":{"android":"levelo://app?vid=4e2e926a-cc62-4529-8b24-3abbcf0f0be2","ios":"levelo://app?vid=4e2e926a-cc62-4529-8b24-3abbcf0f0be2"},"vehicle_type_id":"4","last_reported":1735960330,"current_range_meters":30400,"station_id":"ce4bhu92rcd13ifvqi70","pricing_plan_id":"cebpf4jnsgd1na2vs0mg"},{"bike_id":"8dcee21a-1bcd-4586-954f-877fd5cefc47","system_id":"levelo_inurba_marseille","lat":43.29722,"lon":5.37271,"is_reserved":false,"is_disabled":false,"rental_uris":{"android":"levelo://app?vid=8dcee21a-1bcd-4586-954f-877fd5cefc47","ios":"levelo://app?vid=8dcee21a-1bcd-4586-954f-877fd5cefc47"},"vehicle_type_id":"4","last_reported":1735960330,"current_range_meters":38000,"station_id":"ce4bgk12rcd13ifvqbj0","pricing_plan_id":"cebpf4jnsgd1na2vs0mg"},{"bike_id":"6ff7a661-2f44-4088-86bb-65af247efcf3","system_id":"levelo_inurba_marseille","lat":43.30327,"lon":5.40429,"is_reserved":false,"is_disabled":false,"rental_uris":{"android":"levelo://app?vid=6ff7a661-2f44-4088-86bb-65af247efcf3","ios":"levelo://app?vid=6ff7a661-2f44-4088-86bb-65af247efcf3"},"vehicle_type_id":"4","last_reported":1735960330,"current_range_meters":35600,"station_id":"ce4bh012rcd13ifvqd10","pricing_plan_id":"cebpf4jnsgd1na2vs0mg"},{"bike_id":"16bca792-170f-4fc8-b366-3673e97ab09d","system_id":"levelo_inurba_marseille","lat":43.30151,"lon":5.38101,"is_reserved":false,"is_disabled":false,"rental_uris":{"android":"levelo://app?vid=16bca792-170f-4fc8-b366-3673e97ab09d","ios":"levelo://app?vid=16bca792-170f-4fc8-b366-3673e97ab09d"},"vehicle_type_id":"4","last_reported":1735960330,"current_range_meters":37600,"station_id":"ce4bgjp2rcd13ifvqbh0","pricing_plan_id":"cebpf4jnsgd1na2vs0mg"},{"bike_id":"58fb77f5-e771-46fe-921c-89882575d4b1","system_id":"levelo_inurba_marseille","lat":43.30769,"lon":5.37654,"is_reserved":false,"is_disabled":false,"rental_uris":{"android":"levelo://app?vid=58fb77f5-e771-46fe-921c-89882575d4b1","ios":"levelo://app?vid=58fb77f5-e771-46fe-921c-89882575d4b1"},"vehicle_type_id":"4","last_reported":1735960330,"current_range_meters":24400,"station_id":"ce4bgv92rcd13ifvqcq0","pricing_plan_id":"cebpf4jnsgd1na2vs0mg"},{"bike_id":"72b1f96f-9187-47f7-aca5-24af49b1cd5c","system_id":"levelo_inurba_marseille","lat":43.31284,"lon":5.39713,"is_reserved":false,"is_disabled":false,"rental_uris":{"android":"levelo://app?vid=72b1f96f-9187-47f7-aca5-24af49b1cd5c","ios":"levelo://app?vid=72b1f96f-9187-47f7-aca5-24af49b1cd5c"},"vehicle_type_id":"4","last_reported":1735960330,"current_range_meters":28000,"station_id":"","pricing_plan_id":"cebpf4jnsgd1na2vs0mg"},{"bike_id":"5e584ae4-fb04-4605-b8fd-532b0218e039","system_id":"levelo_inurba_marseille","lat":43.336059,"lon":5.410227,"is_reserved":false,"is_disabled":false,"rental_uris":{"android":"levelo://app?vid=5e584ae4-fb04-4605-b8fd-532b0218e039","ios":"levelo://app?vid=5e584ae4-fb04-4605-b8fd-532b0218e039"},"vehicle_type_id":"4","last_reported":1735960330,"current_range_meters":16800,"station_id":"ce4bhqh2rcd13ifvqhmg","pricing_plan_id":"cebpf4jnsgd1na2vs0mg"},{"bike_id":"fcd65edb-334d-41b2-b3cc-dc0acc373026","system_id":"levelo_inurba_marseille","lat":43.30054,"lon":5.38808,"is_reserved":false,"is_disabled":false,"rental_uris":{"android":"levelo://app?vid=fcd65edb-334d-41b2-b3cc-dc0acc373026","ios":"levelo://app?vid=fcd65edb-334d-41b2-b3cc-dc0acc373026"},"vehicle_type_id":"4","last_reported":1735960330,"current_range_meters":3200,"station_id":"","pricing_plan_id":"cebpf4jnsgd1na2vs0mg"},{"bike_id":"93b0597b-4e60-4277-8289-d05658c8f11f","system_id":"levelo_inurba_marseille","lat":43.25119,"lon":5.40341,"is_reserved":false,"is_disabled":false,"rental_uris":{"android":"levelo://app?vid=93b0597b-4e60-4277-8289-d05658c8f11f","ios":"levelo://app?vid=93b0597b-4e60-4277-8289-d05658c8f11f"},"vehicle_type_id":"4","last_reported":1735960330,"current_range_meters":24800,"station_id":"ce4bhlh2rcd13ifvqgig","pricing_plan_id":"cebpf4jnsgd1na2vs0mg"},{"bike_id":"791dec88-10e9-48b5-9fc6-b0acca6d5c2e","system_id":"levelo_inurba_marseille","lat":43.29265,"lon":5.37441,"is_reserved":false,"is_disabled":true,"rental_uris":{"android":"levelo://app?vid=791dec88-10e9-48b5-9fc6-b0acca6d5c2e","ios":"levelo://app?vid=791dec88-10e9-48b5-9fc6-b0acca6d5c2e"},"vehicle_type_id":"4","last_reported":1735960330,"current_range_meters":0,"station_id":"ce4bgi12rcd13ifvqb70","pricing_plan_id":"cebpf4jnsgd1na2vs0mg"},{"bike_id":"ea1081ab-636c-44a8-8e22-c79cb504ca08","system_id":"levelo_inurba_marseille","lat":43.29568,"lon":5.39983,"is_reserved":false,"is_disabled":false,"rental_uris":{"android":"levelo://app?vid=ea1081ab-636c-44a8-8e22-c79cb504ca08","ios":"levelo://app?vid=ea1081ab-636c-44a8-8e22-c79cb504ca08"},"vehicle_type_id":"4","last_reported":1735960330,"current_range_meters":38800,"station_id":"ce4bh312rcd13ifvqdj0","pricing_plan_id":"cebpf4jnsgd1na2vs0mg"},{"bike_id":"0ca16f76-316a-45df-bcf7-84cb0e51bdc4","system_id":"levelo_inurba_marseille","lat":43.29812,"lon":5.38094,"is_reserved":false,"is_disabled":false,"rental_uris":{"android":"levelo://app?vid=0ca16f76-316a-45df-bcf7-84cb0e51bdc4","ios":"levelo://app?vid=0ca16f76-316a-45df-bcf7-84cb0e51bdc4"},"vehicle_type_id":"4","last_reported":1735960330,"current_range_meters":39200,"station_id":"ce4bgip2rcd13ifvqbb0","pricing_plan_id":"cebpf4jnsgd1na2vs0mg"},{"bike_id":"34617586-430d-4b7a-9eab-a1013b7c582e","system_id":"levelo_inurba_marseille","lat":43.28984,"lon":5.37834,"is_reserved":false,"is_disabled":true,"rental_uris":{"android":"levelo://app?vid=34617586-430d-4b7a-9eab-a1013b7c582e","ios":"levelo://app?vid=34617586-430d-4b7a-9eab-a1013b7c582e"},"vehicle_type_id":"4","last_reported":1735960330,"current_range_meters":28800,"station_id":"ce4bh9p2rcd13ifvqed0","pricing_plan_id":"cebpf4jnsgd1na2vs0mg"},{"bike_id":"48d2688d-946c-4cd9-95b1-87f4dc14a3ad","system_id":"levelo_inurba_marseille","lat":43.27942,"lon":5.41149,"is_reserved":false,"is_disabled":false,"rental_uris":{"android":"levelo://app?vid=48d2688d-946c-4cd9-95b1-87f4dc14a3ad","ios":"levelo://app?vid=48d2688d-946c-4cd9-95b1-87f4dc14a3ad"},"vehicle_type_id":"4","last_reported":1735960330,"current_range_meters":16000,"station_id":"","pricing_plan_id":"cebpf4jnsgd1na2vs0mg"},{"bike_id":"e86e8a6b-2981-4147-9bb2-a5ab92db9450","system_id":"levelo_inurba_marseille","lat":43.2815,"lon":5.42644,"is_reserved":false,"is_disabled":false,"rental_uris":{"android":"levelo://app?vid=e86e8a6b-2981-4147-9bb2-a5ab92db9450","ios":"levelo://app?vid=e86e8a6b-2981-4147-9bb2-a5ab92db9450"},"vehicle_type_id":"4","last_reported":1735960330,"current_range_meters":35600,"station_id":"ce4bhnh2rcd13ifvqgug","pricing_plan_id":"cebpf4jnsgd1na2vs0mg"},{"bike_id":"96ba7f26-1810-4a4d-90e4-a07a1e6cacee","system_id":"levelo_inurba_marseille","lat":43.248101,"lon":5.374514,"is_reserved":false,"is_disabled":false,"rental_uris":{"android":"levelo://app?vid=96ba7f26-1810-4a4d-90e4-a07a1e6cacee","ios":"levelo://app?vid=96ba7f26-1810-4a4d-90e4-a07a1e6cacee"},"vehicle_type_id":"4","last_reported":1735960330,"current_range_meters":25600,"station_id":"ce4bhgh2rcd13ifvqfb0","pricing_plan_id":"cebpf4jnsgd1na2vs0mg"},{"bike_id":"d9676b1a-df49-429f-b317-1de61bb96597","system_id":"levelo_inurba_marseille","lat":43.286226,"lon":5.350983,"is_reserved":false,"is_disabled":false,"rental_uris":{"android":"levelo://app?vid=d9676b1a-df49-429f-b317-1de61bb96597","ios":"levelo://app?vid=d9676b1a-df49-429f-b317-1de61bb96597"},"vehicle_type_id":"4","last_reported":1735960330,"current_range_meters":32000,"station_id":"ce4bhch2rcd13ifvqeug","pricing_plan_id":"cebpf4jnsgd1na2vs0mg"},{"bike_id":"d47811bf-749c-4c6f-9213-9a6896ca1809","system_id":"levelo_inurba_marseille","lat":43.29055,"lon":5.37575,"is_reserved":false,"is_disabled":false,"rental_uris":{"android":"levelo://app?vid=d47811bf-749c-4c6f-9213-9a6896ca1809","ios":"levelo://app?vid=d47811bf-749c-4c6f-9213-9a6896ca1809"},"vehicle_type_id":"4","last_reported":1735960330,"current_range_meters":38000,"station_id":"ce4bh692rcd13ifvqe90","pricing_plan_id":"cebpf4jnsgd1na2vs0mg"},{"bike_id":"e40b8873-a7cf-4e56-b106-d515344f64c4","system_id":"levelo_inurba_marseille","lat":43.23195,"lon":5.35567,"is_reserved":false,"is_disabled":false,"rental_uris":{"android":"levelo://app?vid=e40b8873-a7cf-4e56-b106-d515344f64c4","ios":"levelo://app?vid=e40b8873-a7cf-4e56-b106-d515344f64c4"},"vehicle_type_id":"4","last_reported":1735960330,"current_range_meters":38800,"station_id":"ce4bhu92rcd13ifvqi70","pricing_plan_id":"cebpf4jnsgd1na2vs0mg"},{"bike_id":"bbf998ea-d252-4590-8711-16d78ff4b07c","system_id":"levelo_inurba_marseille","lat":43.24639,"lon":5.38906,"is_reserved":false,"is_disabled":false,"rental_uris":{"android":"levelo://app?vid=bbf998ea-d252-4590-8711-16d78ff4b07c","ios":"levelo://app?vid=bbf998ea-d252-4590-8711-16d78ff4b07c"},"vehicle_type_id":"4","last_reported":1735960330,"current_range_meters":38800,"station_id":"ce4bhg12rcd13ifvqf60","pricing_plan_id":"cebpf4jnsgd1na2vs0mg"},{"bike_id":"41922f31-fe1e-475e-8406-170a4edcb08b","system_id":"levelo_inurba_marseille","lat":43.28452,"lon":5.3587,"is_reserved":false,"is_disabled":false,"rental_uris":{"android":"levelo://app?vid=41922f31-fe1e-475e-8406-170a4edcb08b","ios":"levelo://app?vid=41922f31-fe1e-475e-8406-170a4edcb08b"},"vehicle_type_id":"4","last_reported":1735960330,"current_range_meters":36400,"station_id":"ce4bhah2rcd13ifvqei0","pricing_plan_id":"cebpf4jnsgd1na2vs0mg"},{"bike_id":"ae7e0755-109c-4ac1-b281-a83da3ffdb09","system_id":"levelo_inurba_marseille","lat":43.28694,"lon":5.3739,"is_reserved":false,"is_disabled":false,"rental_uris":{"android":"levelo://app?vid=ae7e0755-109c-4ac1-b281-a83da3ffdb09","ios":"levelo://app?vid=ae7e0755-109c-4ac1-b281-a83da3ffdb09"},"vehicle_type_id":"4","last_reported":1735960330,"current_range_meters":38800,"station_id":"ce4bh3p2rcd13ifvqdq0","pricing_plan_id":"cebpf4jnsgd1na2vs0mg"},{"bike_id":"5250f7d4-1da6-441d-b627-ab92cb7e088d","system_id":"levelo_inurba_marseille","lat":43.24813,"lon":5.37469,"is_reserved":false,"is_disabled":false,"rental_uris":{"android":"levelo://app?vid=5250f7d4-1da6-441d-b627-ab92cb7e088d","ios":"levelo://app?vid=5250f7d4-1da6-441d-b627-ab92cb7e088d"},"vehicle_type_id":"4","last_reported":1735960330,"current_range_meters":27200,"station_id":"ce4bhgh2rcd13ifvqfb0","pricing_plan_id":"cebpf4jnsgd1na2vs0mg"},{"bike_id":"7aa30ba3-8959-44f8-9d72-45b09d0ff2b1","system_id":"levelo_inurba_marseille","lat":43.27942,"lon":5.41046,"is_reserved":false,"is_disabled":false,"rental_uris":{"android":"levelo://app?vid=7aa30ba3-8959-44f8-9d72-45b09d0ff2b1","ios":"levelo://app?vid=7aa30ba3-8959-44f8-9d72-45b09d0ff2b1"},"vehicle_type_id":"4","last_reported":1735960330,"current_range_meters":28400,"station_id":"ce4bhnp2rcd13ifvqh0g","pricing_plan_id":"cebpf4jnsgd1na2vs0mg"},{"bike_id":"c76f010e-8b23-4840-a7a5-a9a5d3648fa3","system_id":"levelo_inurba_marseille","lat":43.308768,"lon":5.371966,"is_reserved":false,"is_disabled":true,"rental_uris":{"android":"levelo://app?vid=c76f010e-8b23-4840-a7a5-a9a5d3648fa3","ios":"levelo://app?vid=c76f010e-8b23-4840-a7a5-a9a5d3648fa3"},"vehicle_type_id":"4","last_reported":1735960330,"current_range_meters":10800,"station_id":"ce4bguh2rcd13ifvqckg","pricing_plan_id":"cebpf4jnsgd1na2vs0mg"},{"bike_id":"6f21fba1-6f8e-47c4-a476-286cca5f9cc6","system_id":"levelo_inurba_marseille","lat":43.28274,"lon":5.35078,"is_reserved":false,"is_disabled":true,"rental_uris":{"android":"levelo://app?vid=6f21fba1-6f8e-47c4-a476-286cca5f9cc6","ios":"levelo://app?vid=6f21fba1-6f8e-47c4-a476-286cca5f9cc6"},"vehicle_type_id":"4","last_reported":1735960330,"current_range_meters":5600,"station_id":"ce4bhbp2rcd13ifvqerg","pricing_plan_id":"cebpf4jnsgd1na2vs0mg"},{"bike_id":"09e64385-2ecb-4bb9-b546-a98347585cb3","system_id":"levelo_inurba_marseille","lat":43.306032,"lon":5.372215,"is_reserved":false,"is_disabled":false,"rental_uris":{"android":"levelo://app?vid=09e64385-2ecb-4bb9-b546-a98347585cb3","ios":"levelo://app?vid=09e64385-2ecb-4bb9-b546-a98347585cb3"},"vehicle_type_id":"4","last_reported":1735960330,"current_range_meters":38000,"station_id":"ce4bgqh2rcd13ifvqc4g","pricing_plan_id":"cebpf4jnsgd1na2vs0mg"},{"bike_id":"067a14cd-d2e4-467c-88bd-28fc181bd951","system_id":"levelo_inurba_marseille","lat":43.28698,"lon":5.37407,"is_reserved":false,"is_disabled":false,"rental_uris":{"android":"levelo://app?vid=067a14cd-d2e4-467c-88bd-28fc181bd951","ios":"levelo://app?vid=067a14cd-d2e4-467c-88bd-28fc181bd951"},"vehicle_type_id":"4","last_reported":1735960330,"current_range_meters":39200,"station_id":"ce4bh3p2rcd13ifvqdq0","pricing_plan_id":"cebpf4jnsgd1na2vs0mg"},{"bike_id":"3b0bc8f7-79d8-4609-aaf2-0d56834403e5","system_id":"levelo_inurba_marseille","lat":43.30291,"lon":5.392,"is_reserved":false,"is_disabled":false,"rental_uris":{"android":"levelo://app?vid=3b0bc8f7-79d8-4609-aaf2-0d56834403e5","ios":"levelo://app?vid=3b0bc8f7-79d8-4609-aaf2-0d56834403e5"},"vehicle_type_id":"4","last_reported":1735960330,"current_range_meters":36400,"station_id":"ce4bgkh2rcd13ifvqbk0","pricing_plan_id":"cebpf4jnsgd1na2vs0mg"},{"bike_id":"4eea4ba4-b591-434c-8374-6eb211ed15d6","system_id":"levelo_inurba_marseille","lat":43.28706,"lon":5.37433,"is_reserved":false,"is_disabled":false,"rental_uris":{"android":"levelo://app?vid=4eea4ba4-b591-434c-8374-6eb211ed15d6","ios":"levelo://app?vid=4eea4ba4-b591-434c-8374-6eb211ed15d6"},"vehicle_type_id":"4","last_reported":1735960330,"current_range_meters":22000,"station_id":"ce4bh3p2rcd13ifvqdq0","pricing_plan_id":"cebpf4jnsgd1na2vs0mg"},{"bike_id":"1c02ae40-e43c-4632-b75b-2df9308dc3fe","system_id":"levelo_inurba_marseille","lat":43.33758,"lon":5.37445,"is_reserved":false,"is_disabled":false,"rental_uris":{"android":"levelo://app?vid=1c02ae40-e43c-4632-b75b-2df9308dc3fe","ios":"levelo://app?vid=1c02ae40-e43c-4632-b75b-2df9308dc3fe"},"vehicle_type_id":"4","last_reported":1735960330,"current_range_meters":32000,"station_id":"","pricing_plan_id":"cebpf4jnsgd1na2vs0mg"},{"bike_id":"e0a17fdd-f816-499e-8295-a9ce94a610e8","system_id":"levelo_inurba_marseille","lat":43.29718,"lon":5.36615,"is_reserved":false,"is_disabled":false,"rental_uris":{"android":"levelo://app?vid=e0a17fdd-f816-499e-8295-a9ce94a610e8","ios":"levelo://app?vid=e0a17fdd-f816-499e-8295-a9ce94a610e8"},"vehicle_type_id":"4","last_reported":1735960330,"current_range_meters":30400,"station_id":"ce4bgn12rcd13ifvqbt0","pricing_plan_id":"cebpf4jnsgd1na2vs0mg"},{"bike_id":"380d9a3e-df22-4d70-b6c7-a9e2a1230a08","system_id":"levelo_inurba_marseille","lat":43.2815,"lon":5.42656,"is_reserved":false,"is_disabled":false,"rental_uris":{"android":"levelo://app?vid=380d9a3e-df22-4d70-b6c7-a9e2a1230a08","ios":"levelo://app?vid=380d9a3e-df22-4d70-b6c7-a9e2a1230a08"},"vehicle_type_id":"4","last_reported":1735960330,"current_range_meters":29600,"station_id":"ce4bhnh2rcd13ifvqgug","pricing_plan_id":"cebpf4jnsgd1na2vs0mg"},{"bike_id":"5b31f532-8cdc-4374-a449-6c9c7fdbd8b7","system_id":"levelo_inurba_marseille","lat":43.282551,"lon":5.35081,"is_reserved":false,"is_disabled":false,"rental_uris":{"android":"levelo://app?vid=5b31f532-8cdc-4374-a449-6c9c7fdbd8b7","ios":"levelo://app?vid=5b31f532-8cdc-4374-a449-6c9c7fdbd8b7"},"vehicle_type_id":"4","last_reported":1735960330,"current_range_meters":28000,"station_id":"ce4bhbp2rcd13ifvqerg","pricing_plan_id":"cebpf4jnsgd1na2vs0mg"},{"bike_id":"941b6922-c132-47c2-b426-f0b2c37af18f","system_id":"levelo_inurba_marseille","lat":43.24808,"lon":5.37466,"is_reserved":false,"is_disabled":false,"rental_uris":{"android":"levelo://app?vid=941b6922-c132-47c2-b426-f0b2c37af18f","ios":"levelo://app?vid=941b6922-c132-47c2-b426-f0b2c37af18f"},"vehicle_type_id":"4","last_reported":1735960330,"current_range_meters":30400,"station_id":"ce4bhgh2rcd13ifvqfb0","pricing_plan_id":"cebpf4jnsgd1na2vs0mg"},{"bike_id":"8d84443c-2f32-4d35-ba29-cc396841e9df","system_id":"levelo_inurba_marseille","lat":43.28467,"lon":5.38412,"is_reserved":false,"is_disabled":false,"rental_uris":{"android":"levelo://app?vid=8d84443c-2f32-4d35-ba29-cc396841e9df","ios":"levelo://app?vid=8d84443c-2f32-4d35-ba29-cc396841e9df"},"vehicle_type_id":"4","last_reported":1735960330,"current_range_meters":32000,"station_id":"ce4bh512rcd13ifvqe3g","pricing_plan_id":"cebpf4jnsgd1na2vs0mg"},{"bike_id":"262b0d7a-b83b-40f1-bc54-810a9a289441","system_id":"levelo_inurba_marseille","lat":43.29188,"lon":5.35813,"is_reserved":false,"is_disabled":false,"rental_uris":{"android":"levelo://app?vid=262b0d7a-b83b-40f1-bc54-810a9a289441","ios":"levelo://app?vid=262b0d7a-b83b-40f1-bc54-810a9a289441"},"vehicle_type_id":"4","last_reported":1735960330,"current_range_meters":38800,"station_id":"ce4bhb12rcd13ifvqel0","pricing_plan_id":"cebpf4jnsgd1na2vs0mg"},{"bike_id":"85cba0a3-d6ec-4723-83bf-95316674cece","system_id":"levelo_inurba_marseille","lat":43.27575,"lon":5.38511,"is_reserved":false,"is_disabled":true,"rental_uris":{"android":"levelo://app?vid=85cba0a3-d6ec-4723-83bf-95316674cece","ios":"levelo://app?vid=85cba0a3-d6ec-4723-83bf-95316674cece"},"vehicle_type_id":"4","last_reported":1735960330,"current_range_meters":8000,"station_id":"ce4bhh92rcd13ifvqfi0","pricing_plan_id":"cebpf4jnsgd1na2vs0mg"},{"bike_id":"d5355d3d-6620-4d8e-801e-d620f116c682","system_id":"levelo_inurba_marseille","lat":43.23084,"lon":5.35473,"is_reserved":false,"is_disabled":false,"rental_uris":{"android":"levelo://app?vid=d5355d3d-6620-4d8e-801e-d620f116c682","ios":"levelo://app?vid=d5355d3d-6620-4d8e-801e-d620f116c682"},"vehicle_type_id":"4","last_reported":1735960330,"current_range_meters":20800,"station_id":"cpo3342slgdg3j2ifvpg","pricing_plan_id":"cebpf4jnsgd1na2vs0mg"},{"bike_id":"235534bd-ca53-418b-8c6c-404f024bf9f1","system_id":"levelo_inurba_marseille","lat":43.28034,"lon":5.36949,"is_reserved":false,"is_disabled":false,"rental_uris":{"android":"levelo://app?vid=235534bd-ca53-418b-8c6c-404f024bf9f1","ios":"levelo://app?vid=235534bd-ca53-418b-8c6c-404f024bf9f1"},"vehicle_type_id":"4","last_reported":1735960330,"current_range_meters":24000,"station_id":"ce4bha12rcd13ifvqef0","pricing_plan_id":"cebpf4jnsgd1na2vs0mg"},{"bike_id":"3498144d-bb2d-4193-ae5b-ba6d2f0a3b93","system_id":"levelo_inurba_marseille","lat":43.32502,"lon":5.36699,"is_reserved":false,"is_disabled":false,"rental_uris":{"android":"levelo://app?vid=3498144d-bb2d-4193-ae5b-ba6d2f0a3b93","ios":"levelo://app?vid=3498144d-bb2d-4193-ae5b-ba6d2f0a3b93"},"vehicle_type_id":"4","last_reported":1735960330,"current_range_meters":38000,"station_id":"","pricing_plan_id":"cebpf4jnsgd1na2vs0mg"},{"bike_id":"fed231b8-8d55-420b-88e1-a67f860fe4c7","system_id":"levelo_inurba_marseille","lat":43.31168,"lon":5.38714,"is_reserved":false,"is_disabled":false,"rental_uris":{"android":"levelo://app?vid=fed231b8-8d55-420b-88e1-a67f860fe4c7","ios":"levelo://app?vid=fed231b8-8d55-420b-88e1-a67f860fe4c7"},"vehicle_type_id":"4","last_reported":1735960330,"current_range_meters":17600,"station_id":"ce4bgv12rcd13ifvqcp0","pricing_plan_id":"cebpf4jnsgd1na2vs0mg"},{"bike_id":"f8b614ac-cbb9-425c-9c6e-3cfc0718c795","system_id":"levelo_inurba_marseille","lat":43.300999,"lon":5.390911,"is_reserved":false,"is_disabled":false,"rental_uris":{"android":"levelo://app?vid=f8b614ac-cbb9-425c-9c6e-3cfc0718c795","ios":"levelo://app?vid=f8b614ac-cbb9-425c-9c6e-3cfc0718c795"},"vehicle_type_id":"4","last_reported":1735960330,"current_range_meters":38000,"station_id":"ce4bh192rcd13ifvqdb0","pricing_plan_id":"cebpf4jnsgd1na2vs0mg"},{"bike_id":"9106d3ff-fc86-4d68-9c8d-6412f9d842de","system_id":"levelo_inurba_marseille","lat":43.254916,"lon":5.376576,"is_reserved":false,"is_disabled":false,"rental_uris":{"android":"levelo://app?vid=9106d3ff-fc86-4d68-9c8d-6412f9d842de","ios":"levelo://app?vid=9106d3ff-fc86-4d68-9c8d-6412f9d842de"},"vehicle_type_id":"4","last_reported":1735960330,"current_range_meters":38800,"station_id":"ce4bhh12rcd13ifvqff0","pricing_plan_id":"cebpf4jnsgd1na2vs0mg"},{"bike_id":"20a40771-05e4-4491-8593-80a44dd596df","system_id":"levelo_inurba_marseille","lat":43.287,"lon":5.36098,"is_reserved":false,"is_disabled":false,"rental_uris":{"android":"levelo://app?vid=20a40771-05e4-4491-8593-80a44dd596df","ios":"levelo://app?vid=20a40771-05e4-4491-8593-80a44dd596df"},"vehicle_type_id":"4","last_reported":1735960330,"current_range_meters":21600,"station_id":"cki0cbj6b192h4jlfktg","pricing_plan_id":"cebpf4jnsgd1na2vs0mg"},