{"last_updated":1687125938,"ttl":30,"version":"2.2","data":{"bikes":[{"bike_id":"e0d8f962-2c89-4362-af94-87bc34386507","system_id":"levelo_inurba_marseille","lat":43.314811,"lon":5.373103,"is_reserved":false,"is_disabled":false,"rental_uris":{"android":"levelo://app?vid=e0d8f962-2c89-4362-af94-87bc34386507","ios":"levelo://app?vid=e0d8f962-2c89-4362-af94-87bc34386507"},"vehicle_type_id":"4","last_reported":1687125939,"current_range_meters":24400,"station_id":"ce4bgt12rcd13ifvqcd0","pricing_plan_id":"free"},{"bike_id":"782097f9-9434-4d2e-b2d0-f6c9828acf42","system_id":"levelo_inurba_marseille","lat":43.314811,"lon":5.373104,"is_reserved":false,"is_disabled":false,"rental_uris":{"android":"levelo://app?vid=782097f9-9434-4d2e-b2d0-f6c9828acf42","ios":"levelo://app?vid=782097f9-9434-4d2e-b2d0-f6c9828acf42"},"vehicle_type_id":"4","last_reported":1687125939,"current_range_meters":13200,"station_id":"ce4bgt12rcd13ifvqcd0","pricing_plan_id":"free"},{"bike_id":"bbc55e6e-862d-4554-b9fd-698a2b08b5ba","system_id":"levelo_inurba_marseille","lat":43.31496,"lon":5.37295,"is_reserved":false,"is_disabled":false,"rental_uris":{"android":"levelo://app?vid=bbc55e6e-862d-4554-b9fd-698a2b08b5ba","ios":"levelo://app?vid=bbc55e6e-862d-4554-b9fd-698a2b08b5ba"},"vehicle_type_id":"4","last_reported":1687125939,"current_range_meters":18800,"station_id":"ce4bgt12rcd13ifvqcd0","pricing_plan_id":"free"},{"bike_id":"ede9989b-ee63-4746-9a12-7354d19d40fc","system_id":"levelo_inurba_marseille","lat":43.314811,"lon":5.373103,"is_reserved":false,"is_disabled":false,"rental_uris":{"android":"levelo://app?vid=ede9989b-ee63-4746-9a12-7354d19d40fc","ios":"levelo://app?vid=ede9989b-ee63-4746-9a12-7354d19d40fc"},"vehicle_type_id":"4","last_reported":1687125939,"current_range_meters":29200,"station_id":"ce4bgt12rcd13ifvqcd0","pricing_plan_id":"free"},{"bike_id":"fff1a752-a0c3-4f30-b86b-9510f7ec9a1b","system_id":"levelo_inurba_marseille","lat":43.31486,"lon":5.37307,"is_reserved":false,"is_disabled":false,"rental_uris":{"android":"levelo://app?vid=fff1a752-a0c3-4f30-b86b-9510f7ec9a1b","ios":"levelo://app?vid=fff1a752-a0c3-4f30-b86b-9510f7ec9a1b"},"vehicle_type_id":"4","last_reported":1687125939,"current_range_meters":4400,"station_id":"ce4bgt12rcd13ifvqcd0","pricing_plan_id":"free"},{"bike_id":"9c010ccd-71df-4eb6-916b-68947abfa074","system_id":"levelo_inurba_marseille","lat":43.314811,"lon":5.373103,"is_reserved":false,"is_disabled":false,"rental_uris":{"android":"levelo://app?vid=9c010ccd-71df-4eb6-916b-68947abfa074","ios":"levelo://app?vid=9c010ccd-71df-4eb6-916b-68947abfa074"},"vehicle_type_id":"4","last_reported":1687125939,"current_range_meters":30000,"station_id":"ce4bgt12rcd13ifvqcd0","pricing_plan_id":"free"},{"bike_id":"595b09ae-ade1-4d40-83eb-548895143d38","system_id":"levelo_inurba_marseille","lat":43.314811,"lon":5.373103,"is_reserved":false,"is_disabled":false,"rental_uris":{"android":"levelo://app?vid=595b09ae-ade1-4d40-83eb-548895143d38","ios":"levelo://app?vid=595b09ae-ade1-4d40-83eb-548895143d38"},"vehicle_type_id":"4","last_reported":1687125939,"current_range_meters":30800,"station_id":"ce4bgt12rcd13ifvqcd0","pricing_plan_id":"free"},{"bike_id":"921061e0-48a5-40f9-84d5-2ed326d428c0","system_id":"levelo_inurba_marseille","lat":43.30545,"lon":5.36686,"is_reserved":false,"is_disabled":false,"rental_uris":{"android":"levelo://app?vid=921061e0-48a5-40f9-84d5-2ed326d428c0","ios":"levelo://app?vid=921061e0-48a5-40f9-84d5-2ed326d428c0"},"vehicle_type_id":"4","last_reported":1687125939,"current_range_meters":31200,"station_id":"","pricing_plan_id":"free"},{"bike_id":"6e1085a9-cb78-41e2-9a02-87f43fb9b80d","system_id":"levelo_inurba_marseille","lat":43.305714,"lon":5.365633,"is_reserved":false,"is_disabled":false,"rental_uris":{"android":"levelo://app?vid=6e1085a9-cb78-41e2-9a02-87f43fb9b80d","ios":"levelo://app?vid=6e1085a9-cb78-41e2-9a02-87f43fb9b80d"},"vehicle_type_id":"4","last_reported":1687125939,"current_range_meters":31200,"station_id":"ce4bgs12rcd13ifvqcag","pricing_plan_id":"free"},{"bike_id":"191de81f-de13-49aa-8109-ae779b9d1558","system_id":"levelo_inurba_marseille","lat":43.30545,"lon":5.36539,"is_reserved":false,"is_disabled":false,"rental_uris":{"android":"levelo://app?vid=191de81f-de13-49aa-8109-ae779b9d1558","ios":"levelo://app?vid=191de81f-de13-49aa-8109-ae779b9d1558"},"vehicle_type_id":"4","last_reported":1687125939,"current_range_meters":31200,"station_id":"ce4bgs12rcd13ifvqcag","pricing_plan_id":"free"},{"bike_id":"1a1aa4ed-24fb-468d-b2e7-69df49343030","system_id":"levelo_inurba_marseille","lat":43.305714,"lon":5.365633,"is_reserved":false,"is_disabled":false,"rental_uris":{"android":"levelo://app?vid=1a1aa4ed-24fb-468d-b2e7-69df49343030","ios":"levelo://app?vid=1a1aa4ed-24fb-468d-b2e7-69df49343030"},"vehicle_type_id":"4","last_reported":1687125939,"current_range_meters":31200,"station_id":"ce4bgs12rcd13ifvqcag","pricing_plan_id":"free"},{"bike_id":"e3d8f5da-9d15-4c3c-85e4-c7a5b9e5f706","system_id":"levelo_inurba_marseille","lat":43.305989,"lon":5.37225,"is_reserved":false,"is_disabled":false,"rental_uris":{"android":"levelo://app?vid=e3d8f5da-9d15-4c3c-85e4-c7a5b9e5f706","ios":"levelo://app?vid=e3d8f5da-9d15-4c3c-85e4-c7a5b9e5f706"},"vehicle_type_id":"4","last_reported":1687125939,"current_range_meters":14000,"station_id":"ce4bgqh2rcd13ifvqc4g","pricing_plan_id":"free"},{"bike_id":"d6d95a10-4f91-49e7-8dcf-ad0a702eeeb4","system_id":"levelo_inurba_marseille","lat":43.305989,"lon":5.37225,"is_reserved":false,"is_disabled":false,"rental_uris":{"android":"levelo://app?vid=d6d95a10-4f91-49e7-8dcf-ad0a702eeeb4","ios":"levelo://app?vid=d6d95a10-4f91-49e7-8dcf-ad0a702eeeb4"},"vehicle_type_id":"4","last_reported":1687125939,"current_range_meters":21600,"station_id":"ce4bgqh2rcd13ifvqc4g","pricing_plan_id":"free"},{"bike_id":"47e6996c-d18a-483c-be14-bb4789c5a5d0","system_id":"levelo_inurba_marseille","lat":43.305989,"lon":5.37225,"is_reserved":false,"is_disabled":false,"rental_uris":{"android":"levelo://app?vid=47e6996c-d18a-483c-be14-bb4789c5a5d0","ios":"levelo://app?vid=47e6996c-d18a-483c-be14-bb4789c5a5d0"},"vehicle_type_id":"4","last_reported":1687125939,"current_range_meters":21600,"station_id":"ce4bgqh2rcd13ifvqc4g","pricing_plan_id":"free"},{"bike_id":"99bccd45-8b5d-4c82-904c-d741ee6c6530","system_id":"levelo_inurba_marseille","lat":43.305989,"lon":5.37225,"is_reserved":false,"is_disabled":false,"rental_uris":{"android":"levelo://app?vid=99bccd45-8b5d-4c82-904c-d741ee6c6530","ios":"levelo://app?vid=99bccd45-8b5d-4c82-904c-d741ee6c6530"},"vehicle_type_id":"4","last_reported":1687125939,"current_range_meters":11600,"station_id":"ce4bgqh2rcd13ifvqc4g","pricing_plan_id":"free"},{"bike_id":"d641abf7-d3cb-4aea-b4ff-7755ea2ba3e7","system_id":"levelo_inurba_marseille","lat":43.311125,"lon":5.377624,"is_reserved":false,"is_disabled":false,"rental_uris":{"android":"levelo://app?vid=d641abf7-d3cb-4aea-b4ff-7755ea2ba3e7","ios":"levelo://app?vid=d641abf7-d3cb-4aea-b4ff-7755ea2ba3e7"},"vehicle_type_id":"4","last_reported":1687125939,"current_range_meters":3200,"station_id":"ce4bgt92rcd13ifvqcg0","pricing_plan_id":"free"},{"bike_id":"612ae939-a332-4e78-8447-93e3e426d025","system_id":"levelo_inurba_marseille","lat":43.311125,"lon":5.377624,"is_reserved":false,"is_disabled":false,"rental_uris":{"android":"levelo://app?vid=612ae939-a332-4e78-8447-93e3e426d025","ios":"levelo://app?vid=612ae939-a332-4e78-8447-93e3e426d025"},"vehicle_type_id":"4","last_reported":1687125939,"current_range_meters":31200,"station_id":"ce4bgt92rcd13ifvqcg0","pricing_plan_id":"free"},{"bike_id":"38d96d2c-86ec-4e14-8601-9862d726f6c4","system_id":"levelo_inurba_marseille","lat":43.311125,"lon":5.377624,"is_reserved":false,"is_disabled":false,"rental_uris":{"android":"levelo://app?vid=38d96d2c-86ec-4e14-8601-9862d726f6c4","ios":"levelo://app?vid=38d96d2c-86ec-4e14-8601-9862d726f6c4"},"vehicle_type_id":"4","last_reported":1687125939,"current_range_meters":0,"station_id":"ce4bgt92rcd13ifvqcg0","pricing_plan_id":"free"},{"bike_id":"bf21d0d8-f6c9-4dd2-844e-ff7e1ecd6c85","system_id":"levelo_inurba_marseille","lat":43.311125,"lon":5.377624,"is_reserved":false,"is_disabled":false,"rental_uris":{"android":"levelo://app?vid=bf21d0d8-f6c9-4dd2-844e-ff7e1ecd6c85","ios":"levelo://app?vid=bf21d0d8-f6c9-4dd2-844e-ff7e1ecd6c85"},"vehicle_type_id":"4","last_reported":1687125939,"current_range_meters":26000,"station_id":"ce4bgt92rcd13ifvqcg0","pricing_plan_id":"free"},{"bike_id":"14156c24-c8c8-4f46-8ca8-64611fe1e34d","system_id":"levelo_inurba_marseille","lat":43.305989,"lon":5.37225,"is_reserved":false,"is_disabled":false,"rental_uris":{"android":"levelo://app?vid=14156c24-c8c8-4f46-8ca8-64611fe1e34d","ios":"levelo://app?vid=14156c24-c8c8-4f46-8ca8-64611fe1e34d"},"vehicle_type_id":"4","last_reported":1687125939,"current_range_meters":11200,"station_id":"ce4bgqh2rcd13ifvqc4g","pricing_plan_id":"free"},{"bike_id":"2424216c-0462-4ad0-b127-d0366c91b61c","system_id":"levelo_inurba_marseille","lat":43.31691,"lon":5.37677,"is_reserved":false,"is_disabled":false,"rental_uris":{"android":"levelo://app?vid=2424216c-0462-4ad0-b127-d0366c91b61c","ios":"levelo://app?vid=2424216c-0462-4ad0-b127-d0366c91b61c"},"vehicle_type_id":"4","last_reported":1687125939,"current_range_meters":26800,"station_id":"","pricing_plan_id":"free"},{"bike_id":"49a7f0d9-a735-4d48-be3f-0fc21ff0eec7","system_id":"levelo_inurba_marseille","lat":43.301939,"lon":5.366286,"is_reserved":false,"is_disabled":false,"rental_uris":{"android":"levelo://app?vid=49a7f0d9-a735-4d48-be3f-0fc21ff0eec7","ios":"levelo://app?vid=49a7f0d9-a735-4d48-be3f-0fc21ff0eec7"},"vehicle_type_id":"4","last_reported":1687125939,"current_range_meters":3200,"station_id":"ce4bgrh2rcd13ifvqc8g","pricing_plan_id":"free"},{"bike_id":"7d4abfa1-c6f2-433d-a807-90ab5e02a3a2","system_id":"levelo_inurba_marseille","lat":43.301939,"lon":5.366286,"is_reserved":false,"is_disabled":false,"rental_uris":{"android":"levelo://app?vid=7d4abfa1-c6f2-433d-a807-90ab5e02a3a2","ios":"levelo://app?vid=7d4abfa1-c6f2-433d-a807-90ab5e02a3a2"},"vehicle_type_id":"4","last_reported":1687125939,"current_range_meters":0,"station_id":"ce4bgrh2rcd13ifvqc8g","pricing_plan_id":"free"},{"bike_id":"88a5ed08-0ca3-4502-9b71-74eebe842222","system_id":"levelo_inurba_marseille","lat":43.301939,"lon":5.366286,"is_reserved":false,"is_disabled":false,"rental_uris":{"android":"levelo://app?vid=88a5ed08-0ca3-4502-9b71-74eebe842222","ios":"levelo://app?vid=88a5ed08-0ca3-4502-9b71-74eebe842222"},"vehicle_type_id":"4","last_reported":1687125939,"current_range_meters":10000,"station_id":"ce4bgrh2rcd13ifvqc8g","pricing_plan_id":"free"},{"bike_id":"91ea5b4a-50f9-46cd-b162-00b5b0ea8410","system_id":"levelo_inurba_marseille","lat":43.308012,"lon":5.381511,"is_reserved":false,"is_disabled":false,"rental_uris":{"android":"levelo://app?vid=91ea5b4a-50f9-46cd-b162-00b5b0ea8410","ios":"levelo://app?vid=91ea5b4a-50f9-46cd-b162-00b5b0ea8410"},"vehicle_type_id":"4","last_reported":1687125939,"current_range_meters":11200,"station_id":"ce4bgt12rcd13ifvqce0","pricing_plan_id":"free"},{"bike_id":"ae33307b-fcd5-479b-9ae1-9002ed226c6e","system_id":"levelo_inurba_marseille","lat":43.308012,"lon":5.381511,"is_reserved":false,"is_disabled":false,"rental_uris":{"android":"levelo://app?vid=ae33307b-fcd5-479b-9ae1-9002ed226c6e","ios":"levelo://app?vid=ae33307b-fcd5-479b-9ae1-9002ed226c6e"},"vehicle_type_id":"4","last_reported":1687125939,"current_range_meters":28000,"station_id":"ce4bgt12rcd13ifvqce0","pricing_plan_id":"free"},{"bike_id":"221fe44a-074e-4971-bf18-0c84948b927c","system_id":"levelo_inurba_marseille","lat":43.304606,"lon":5.379026,"is_reserved":false,"is_disabled":false,"rental_uris":{"android":"levelo://app?vid=221fe44a-074e-4971-bf18-0c84948b927c","ios":"levelo://app?vid=221fe44a-074e-4971-bf18-0c84948b927c"},"vehicle_type_id":"4","last_reported":1687125939,"current_range_meters":20400,"station_id":"ce4bgup2rcd13ifvqcn0","pricing_plan_id":"free"},{"bike_id":"aa35cf4f-6cac-4917-a123-89a3d279339e","system_id":"levelo_inurba_marseille","lat":43.304606,"lon":5.379026,"is_reserved":false,"is_disabled":false,"rental_uris":{"android":"levelo://app?vid=aa35cf4f-6cac-4917-a123-89a3d279339e","ios":"levelo://app?vid=aa35cf4f-6cac-4917-a123-89a3d279339e"},"vehicle_type_id":"4","last_reported":1687125939,"current_range_meters":8400,"station_id":"ce4bgup2rcd13ifvqcn0","pricing_plan_id":"free"},{"bike_id":"1764b814-7ab2-40cf-a4ca-37ca930643af","system_id":"levelo_inurba_marseille","lat":43.304606,"lon":5.379026,"is_reserved":false,"is_disabled":false,"rental_uris":{"android":"levelo://app?vid=1764b814-7ab2-40cf-a4ca-37ca930643af","ios":"levelo://app?vid=1764b814-7ab2-40cf-a4ca-37ca930643af"},"vehicle_type_id":"4","last_reported":1687125939,"current_range_meters":26400,"station_id":"ce4bgup2rcd13ifvqcn0","pricing_plan_id":"free"},{"bike_id":"4b35c3c0-596a-4dec-a288-5fe3684c4354","system_id":"levelo_inurba_marseille","lat":43.304606,"lon":5.379026,"is_reserved":false,"is_disabled":false,"rental_uris":{"android":"levelo://app?vid=4b35c3c0-596a-4dec-a288-5fe3684c4354","ios":"levelo://app?vid=4b35c3c0-596a-4dec-a288-5fe3684c4354"},"vehicle_type_id":"4","last_reported":1687125939,"current_range_meters":15600,"station_id":"ce4bgup2rcd13ifvqcn0","pricing_plan_id":"free"},{"bike_id":"dd54eb5c-962c-466c-8635-581b3464ee04","system_id":"levelo_inurba_marseille","lat":43.304606,"lon":5.379026,"is_reserved":false,"is_disabled":false,"rental_uris":{"android":"levelo://app?vid=dd54eb5c-962c-466c-8635-581b3464ee04","ios":"levelo://app?vid=dd54eb5c-962c-466c-8635-581b3464ee04"},"vehicle_type_id":"4","last_reported":1687125939,"current_range_meters":24800,"station_id":"ce4bgup2rcd13ifvqcn0","pricing_plan_id":"free"},{"bike_id":"f1956139-b1ca-4b41-83bf-a479a81f4b89","system_id":"levelo_inurba_marseille","lat":43.30465,"lon":5.37911,"is_reserved":false,"is_disabled":false,"rental_uris":{"android":"levelo://app?vid=f1956139-b1ca-4b41-83bf-a479a81f4b89","ios":"levelo://app?vid=f1956139-b1ca-4b41-83bf-a479a81f4b89"},"vehicle_type_id":"4","last_reported":1687125939,"current_range_meters":20800,"station_id":"ce4bgup2rcd13ifvqcn0","pricing_plan_id":"free"},{"bike_id":"43fc693e-f2a9-4aec-8fd9-d094bb02cb70","system_id":"levelo_inurba_marseille","lat":43.304606,"lon":5.379026,"is_reserved":false,"is_disabled":false,"rental_uris":{"android":"levelo://app?vid=43fc693e-f2a9-4aec-8fd9-d094bb02cb70","ios":"levelo://app?vid=43fc693e-f2a9-4aec-8fd9-d094bb02cb70"},"vehicle_type_id":"4","last_reported":1687125939,"current_range_meters":16000,"station_id":"ce4bgup2rcd13ifvqcn0","pricing_plan_id":"free"},{"bike_id":"8040aca1-e9dd-4def-b2a8-0db0f33f0ee0","system_id":"levelo_inurba_marseille","lat":43.30148,"lon":5.37411,"is_reserved":false,"is_disabled":false,"rental_uris":{"android":"levelo://app?vid=8040aca1-e9dd-4def-b2a8-0db0f33f0ee0","ios":"levelo://app?vid=8040aca1-e9dd-4def-b2a8-0db0f33f0ee0"},"vehicle_type_id":"4","last_reported":1687125939,"current_range_meters":31200,"station_id":"ce4bgs92rcd13ifvqcc0","pricing_plan_id":"free"},{"bike_id":"7c2e3e9a-fe98-4aef-a675-05abd939717e","system_id":"levelo_inurba_marseille","lat":43.30146,"lon":5.37412,"is_reserved":false,"is_disabled":false,"rental_uris":{"android":"levelo://app?vid=7c2e3e9a-fe98-4aef-a675-05abd939717e","ios":"levelo://app?vid=7c2e3e9a-fe98-4aef-a675-05abd939717e"},"vehicle_type_id":"4","last_reported":1687125939,"current_range_meters":26000,"station_id":"ce4bgs92rcd13ifvqcc0","pricing_plan_id":"free"},{"bike_id":"d3c6793c-3fc9-48a2-a65d-a368b95852db","system_id":"levelo_inurba_marseille","lat":43.302784,"lon":5.377158,"is_reserved":false,"is_disabled":false,"rental_uris":{"android":"levelo://app?vid=d3c6793c-3fc9-48a2-a65d-a368b95852db","ios":"levelo://app?vid=d3c6793c-3fc9-48a2-a65d-a368b95852db"},"vehicle_type_id":"4","last_reported":1687125939,"current_range_meters":7600,"station_id":"ce4bguh2rcd13ifvqcj0","pricing_plan_id":"free"},{"bike_id":"35122efc-e55e-459e-bff3-8c95771d6de5","system_id":"levelo_inurba_marseille","lat":43.30144,"lon":5.37414,"is_reserved":false,"is_disabled":false,"rental_uris":{"android":"levelo://app?vid=35122efc-e55e-459e-bff3-8c95771d6de5","ios":"levelo://app?vid=35122efc-e55e-459e-bff3-8c95771d6de5"},"vehicle_type_id":"4","last_reported":1687125939,"current_range_meters":31200,"station_id":"ce4bgs92rcd13ifvqcc0","pricing_plan_id":"free"},{"bike_id":"5c9eecb4-0262-4e4c-92f0-80adc6e03893","system_id":"levelo_inurba_marseille","lat":43.319935,"lon":5.381699,"is_reserved":false,"is_disabled":false,"rental_uris":{"android":"levelo://app?vid=5c9eecb4-0262-4e4c-92f0-80adc6e03893","ios":"levelo://app?vid=5c9eecb4-0262-4e4c-92f0-80adc6e03893"},"vehicle_type_id":"4","last_reported":1687125939,"current_range_meters":12800,"station_id":"ce4bhr12rcd13ifvqhpg","pricing_plan_id":"free"},{"bike_id":"abb15d38-9ee6-4113-8939-36cef9e63da7","system_id":"levelo_inurba_marseille","lat":43.319935,"lon":5.381699,"is_reserved":false,"is_disabled":false,"rental_uris":{"android":"levelo://app?vid=abb15d38-9ee6-4113-8939-36cef9e63da7","ios":"levelo://app?vid=abb15d38-9ee6-4113-8939-36cef9e63da7"},"vehicle_type_id":"4","last_reported":1687125939,"current_range_meters":5600,"station_id":"ce4bhr12rcd13ifvqhpg","pricing_plan_id":"free"},{"bike_id":"2255ca2e-ae7f-4125-a151-9b6121c03059","system_id":"levelo_inurba_marseille","lat":43.313571,"lon":5.384829,"is_reserved":false,"is_disabled":false,"rental_uris":{"android":"levelo://app?vid=2255ca2e-ae7f-4125-a151-9b6121c03059","ios":"levelo://app?vid=2255ca2e-ae7f-4125-a151-9b6121c03059"},"vehicle_type_id":"4","last_reported":1687125939,"current_range_meters":28400,"station_id":"ce4bgt92rcd13ifvqcf0","pricing_plan_id":"free"},{"bike_id":"54c4cd93-4f19-4287-b17c-af99a21d6bf6","system_id":"levelo_inurba_marseille","lat":43.313571,"lon":5.384829,"is_reserved":false,"is_disabled":false,"rental_uris":{"android":"levelo://app?vid=54c4cd93-4f19-4287-b17c-af99a21d6bf6","ios":"levelo://app?vid=54c4cd93-4f19-4287-b17c-af99a21d6bf6"},"vehicle_type_id":"4","last_reported":1687125939,"current_range_meters":25600,"station_id":"ce4bgt92rcd13ifvqcf0","pricing_plan_id":"free"},{"bike_id":"94ef9b91-9a73-4a36-9ad7-e6ce59db45a8","system_id":"levelo_inurba_marseille","lat":43.313571,"lon":5.384829,"is_reserved":false,"is_disabled":false,"rental_uris":{"android":"levelo://app?vid=94ef9b91-9a73-4a36-9ad7-e6ce59db45a8","ios":"levelo://app?vid=94ef9b91-9a73-4a36-9ad7-e6ce59db45a8"},"vehicle_type_id":"4","last_reported":1687125939,"current_range_meters":12800,"station_id":"ce4bgt92rcd13ifvqcf0","pricing_plan_id":"free"},{"bike_id":"4c0002a5-d178-4571-a532-369266d0905d","system_id":"levelo_inurba_marseille","lat":43.305364,"lon":5.384119,"is_reserved":false,"is_disabled":false,"rental_uris":{"android":"levelo://app?vid=4c0002a5-d178-4571-a532-369266d0905d","ios":"levelo://app?vid=4c0002a5-d178-4571-a532-369266d0905d"},"vehicle_type_id":"4","last_reported":1687125939,"current_range_meters":4000,"station_id":"ce4bgg92rcd13ifvqb30","pricing_plan_id":"free"},{"bike_id":"319bf623-6c8b-40e9-aa78-d23cedb63ee2","system_id":"levelo_inurba_marseille","lat":43.299243,"lon":5.37481,"is_reserved":false,"is_disabled":false,"rental_uris":{"android":"levelo://app?vid=319bf623-6c8b-40e9-aa78-d23cedb63ee2","ios":"levelo://app?vid=319bf623-6c8b-40e9-aa78-d23cedb63ee2"},"vehicle_type_id":"4","last_reported":1687125939,"current_range_meters":4400,"station_id":"ce4bgjh2rcd13ifvqbg0","pricing_plan_id":"free"},{"bike_id":"78911849-321a-41c5-b67b-eefecdab885b","system_id":"levelo_inurba_marseille","lat":43.32824,"lon":5.36686,"is_reserved":false,"is_disabled":false,"rental_uris":{"android":"levelo://app?vid=78911849-321a-41c5-b67b-eefecdab885b","ios":"levelo://app?vid=78911849-321a-41c5-b67b-eefecdab885b"},"vehicle_type_id":"4","last_reported":1687125939,"current_range_meters":4400,"station_id":"ce4bhs92rcd13ifvqi0g","pricing_plan_id":"free"},{"bike_id":"6d5ccf33-759a-4c7a-af82-9f67388b4177","system_id":"levelo_inurba_marseille","lat":43.32825,"lon":5.36683,"is_reserved":false,"is_disabled":false,"rental_uris":{"android":"levelo://app?vid=6d5ccf33-759a-4c7a-af82-9f67388b4177","ios":"levelo://app?vid=6d5ccf33-759a-4c7a-af82-9f67388b4177"},"vehicle_type_id":"4","last_reported":1687125939,"current_range_meters":29200,"station_id":"ce4bhs92rcd13ifvqi0g","pricing_plan_id":"free"},{"bike_id":"69bf5c29-7e5d-45c7-b1b2-514d42707ee7","system_id":"levelo_inurba_marseille","lat":43.32825,"lon":5.36682,"is_reserved":false,"is_disabled":false,"rental_uris":{"android":"levelo://app?vid=69bf5c29-7e5d-45c7-b1b2-514d42707ee7","ios":"levelo://app?vid=69bf5c29-7e5d-45c7-b1b2-514d42707ee7"},"vehicle_type_id":"4","last_reported":1687125939,"current_range_meters":29200,"station_id":"ce4bhs92rcd13ifvqi0g","pricing_plan_id":"free"},{"bike_id":"27e857a0-6074-435d-85c0-7fc3761f1cbb","system_id":"levelo_inurba_marseille","lat":43.32826,"lon":5.36677,"is_reserved":false,"is_disabled":false,"rental_uris":{"android":"levelo://app?vid=27e857a0-6074-435d-85c0-7fc3761f1cbb","ios":"levelo://app?vid=27e857a0-6074-435d-85c0-7fc3761f1cbb"},"vehicle_type_id":"4","last_reported":1687125939,"current_range_meters":28400,"station_id":"ce4bhs92rcd13ifvqi0g","pricing_plan_id":"free"},{"bike_id":"c4c82479-60a6-4390-8970-3229e3eebb9c","system_id":"levelo_inurba_marseille","lat":43.32827,"lon":5.36686,"is_reserved":false,"is_disabled":false,"rental_uris":{"android":"levelo://app?vid=c4c82479-60a6-4390-8970-3229e3eebb9c","ios":"levelo://app?vid=c4c82479-60a6-4390-8970-3229e3eebb9c"},"vehicle_type_id":"4","last_reported":1687125939,"current_range_meters":17600,"station_id":"ce4bhs92rcd13ifvqi0g","pricing_plan_id":"free"},{"bike_id":"731cce5d-c725-402d-b941-54910a08f036","system_id":"levelo_inurba_marseille","lat":43.32829,"lon":5.36688,"is_reserved":false,"is_disabled":false,"rental_uris":{"android":"levelo://app?vid=731cce5d-c725-402d-b941-54910a08f036","ios":"levelo://app?vid=731cce5d-c725-402d-b941-54910a08f036"},"vehicle_type_id":"4","last_reported":1687125939,"current_range_meters":28400,"station_id":"ce4bhs92rcd13ifvqi0g","pricing_plan_id":"free"},{"bike_id":"9e60ff88-fe04-4b70-9af4-05a83fe316c7","system_id":"levelo_inurba_marseille","lat":43.32834,"lon":5.36681,"is_reserved":false,"is_disabled":false,"rental_uris":{"android":"levelo://app?vid=9e60ff88-fe04-4b70-9af4-05a83fe316c7","ios":"levelo://app?vid=9e60ff88-fe04-4b70-9af4-05a83fe316c7"},"vehicle_type_id":"4","last_reported":1687125939,"current_range_meters":27200,"station_id":"ce4bhs92rcd13ifvqi0g","pricing_plan_id":"free"},{"bike_id":"176f4894-d7fc-460e-aa5d-7c8c1e206dc3","system_id":"levelo_inurba_marseille","lat":43.297163,"lon":5.365866,"is_reserved":false,"is_disabled":false,"rental_uris":{"android":"levelo://app?vid=176f4894-d7fc-460e-aa5d-7c8c1e206dc3","ios":"levelo://app?vid=176f4894-d7fc-460e-aa5d-7c8c1e206dc3"},"vehicle_type_id":"4","last_reported":1687125939,"current_range_meters":9200,"station_id":"ce4bgn12rcd13ifvqbt0","pricing_plan_id":"free"},{"bike_id":"88d0330c-5bb0-4a19-9b65-d4683b42e015","system_id":"levelo_inurba_marseille","lat":43.29683,"lon":5.36046,"is_reserved":false,"is_disabled":false,"rental_uris":{"android":"levelo://app?vid=88d0330c-5bb0-4a19-9b65-d4683b42e015","ios":"levelo://app?vid=88d0330c-5bb0-4a19-9b65-d4683b42e015"},"vehicle_type_id":"4","last_reported":1687125939,"current_range_meters":1200,"station_id":"","pricing_plan_id":"free"},{"bike_id":"24f41ca5-b432-4feb-a0c8-a15026b97306","system_id":"levelo_inurba_marseille","lat":43.296131,"lon":5.370773,"is_reserved":false,"is_disabled":false,"rental_uris":{"android":"levelo://app?vid=24f41ca5-b432-4feb-a0c8-a15026b97306","ios":"levelo://app?vid=24f41ca5-b432-4feb-a0c8-a15026b97306"},"vehicle_type_id":"4","last_reported":1687125939,"current_range_meters":10800,"station_id":"ce4bgnh2rcd13ifvqc0g","pricing_plan_id":"free"},{"bike_id":"216fb444-b3ed-492e-9599-7a5e306c98a2","system_id":"levelo_inurba_marseille","lat":43.309589,"lon":5.390258,"is_reserved":false,"is_disabled":false,"rental_uris":{"android":"levelo://app?vid=216fb444-b3ed-492e-9599-7a5e306c98a2","ios":"levelo://app?vid=216fb444-b3ed-492e-9599-7a5e306c98a2"},"vehicle_type_id":"4","last_reported":1687125939,"current_range_meters":29200,"station_id":"ce4bgup2rcd13ifvqco0","pricing_plan_id":"free"},{"bike_id":"2f4ffc9a-a396-4289-8339-052543e2ed97","system_id":"levelo_inurba_marseille","lat":43.29911,"lon":5.38157,"is_reserved":false,"is_disabled":false,"rental_uris":{"android":"levelo://app?vid=2f4ffc9a-a396-4289-8339-052543e2ed97","ios":"levelo://app?vid=2f4ffc9a-a396-4289-8339-052543e2ed97"},"vehicle_type_id":"4","last_reported":1687125939,"current_range_meters":0,"station_id":"ce4bgj12rcd13ifvqbc0","pricing_plan_id":"free"},{"bike_id":"2e3cdfb8-72e6-4b55-9943-f997a38b85a9","system_id":"levelo_inurba_marseille","lat":43.309589,"lon":5.390258,"is_reserved":false,"is_disabled":false,"rental_uris":{"android":"levelo://app?vid=2e3cdfb8-72e6-4b55-9943-f997a38b85a9","ios":"levelo://app?vid=2e3cdfb8-72e6-4b55-9943-f997a38b85a9"},"vehicle_type_id":"4","last_reported":1687125939,"current_range_meters":11600,"station_id":"ce4bgup2rcd13ifvqco0","pricing_plan_id":"free"},{"bike_id":"a690f3c6-9702-4888-8eb9-51a8caa1a384","system_id":"levelo_inurba_marseille","lat":43.304278,"lon":5.388868,"is_reserved":false,"is_disabled":false,"rental_uris":{"android":"levelo://app?vid=a690f3c6-9702-4888-8eb9-51a8caa1a384","ios":"levelo://app?vid=a690f3c6-9702-4888-8eb9-51a8caa1a384"},"vehicle_type_id":"4","last_reported":1687125939,"current_range_meters":24400,"station_id":"ce4bgk12rcd13ifvqbi0","pricing_plan_id":"free"},{"bike_id":"250c8a96-8498-4211-b8f3-1b00a8d1fbaf","system_id":"levelo_inurba_marseille","lat":43.296477,"lon":5.37768,"is_reserved":false,"is_disabled":false,"rental_uris":{"android":"levelo://app?vid=250c8a96-8498-4211-b8f3-1b00a8d1fbaf","ios":"levelo://app?vid=250c8a96-8498-4211-b8f3-1b00a8d1fbaf"},"vehicle_type_id":"4","last_reported":1687125939,"current_range_meters":11200,"station_id":"","pricing_plan_id":"free"},{"bike_id":"c325d0dd-4cd2-464d-a5db-a54c9a912624","system_id":"levelo_inurba_marseille","lat":43.295748,"lon":5.37522,"is_reserved":false,"is_disabled":false,"rental_uris":{"android":"levelo://app?vid=c325d0dd-4cd2-464d-a5db-a54c9a912624","ios":"levelo://app?vid=c325d0dd-4cd2-464d-a5db-a54c9a912624"},"vehicle_type_id":"4","last_reported":1687125939,"current_range_meters":25600,"station_id":"ce4bgh92rcd13ifvqb50","pricing_plan_id":"free"},{"bike_id":"f18bac59-ab68-444b-9295-a86eace0c2b3","system_id":"levelo_inurba_marseille","lat":43.299707,"lon":5.384859,"is_reserved":false,"is_disabled":false,"rental_uris":{"android":"levelo://app?vid=f18bac59-ab68-444b-9295-a86eace0c2b3","ios":"levelo://app?vid=f18bac59-ab68-444b-9295-a86eace0c2b3"},"vehicle_type_id":"4","last_reported":1687125939,"current_range_meters":25600,"station_id":"ce4bgj92rcd13ifvqbd0","pricing_plan_id":"free"},{"bike_id":"23318330-7b2f-47fd-9d31-f7541627ccba","system_id":"levelo_inurba_marseille","lat":43.299707,"lon":5.384859,"is_reserved":false,"is_disabled":false,"rental_uris":{"android":"levelo://app?vid=23318330-7b2f-47fd-9d31-f7541627ccba","ios":"levelo://app?vid=23318330-7b2f-47fd-9d31-f7541627ccba"},"vehicle_type_id":"4","last_reported":1687125939,"current_range_meters":400,"station_id":"ce4bgj92rcd13ifvqbd0","pricing_plan_id":"free"},{"bike_id":"bb335696-9086-470f-9c5f-1244bc2e0b8f","system_id":"levelo_inurba_marseille","lat":43.299717,"lon":5.384845,"is_reserved":false,"is_disabled":false,"rental_uris":{"android":"levelo://app?vid=bb335696-9086-470f-9c5f-1244bc2e0b8f","ios":"levelo://app?vid=bb335696-9086-470f-9c5f-1244bc2e0b8f"},"vehicle_type_id":"4","last_reported":1687125939,"current_range_meters":30800,"station_id":"ce4bgj92rcd13ifvqbd0","pricing_plan_id":"free"},{"bike_id":"58f295a5-f1f1-4484-ac4f-fdc1da84269f","system_id":"levelo_inurba_marseille","lat":43.299717,"lon":5.384845,"is_reserved":false,"is_disabled":false,"rental_uris":{"android":"levelo://app?vid=58f295a5-f1f1-4484-ac4f-fdc1da84269f","ios":"levelo://app?vid=58f295a5-f1f1-4484-ac4f-fdc1da84269f"},"vehicle_type_id":"4","last_reported":1687125939,"current_range_meters":4400,"station_id":"ce4bgj92rcd13ifvqbd0","pricing_plan_id":"free"},{"bike_id":"c7fb44fa-b720-46f3-8dc5-6519f57b6ebe","system_id":"levelo_inurba_marseille","lat":43.299707,"lon":5.384859,"is_reserved":false,"is_disabled":false,"rental_uris":{"android":"levelo://app?vid=c7fb44fa-b720-46f3-8dc5-6519f57b6ebe","ios":"levelo://app?vid=c7fb44fa-b720-46f3-8dc5-6519f57b6ebe"},"vehicle_type_id":"4","last_reported":1687125939,"current_range_meters":24400,"station_id":"ce4bgj92rcd13ifvqbd0","pricing_plan_id":"free"},{"bike_id":"906b6bd7-5c76-4676-967f-622c83c11ef1","system_id":"levelo_inurba_marseille","lat":43.299717,"lon":5.384845,"is_reserved":false,"is_disabled":false,"rental_uris":{"android":"levelo://app?vid=906b6bd7-5c76-4676-967f-622c83c11ef1","ios":"levelo://app?vid=906b6bd7-5c76-4676-967f-622c83c11ef1"},"vehicle_type_id":"4","last_reported":1687125939,"current_range_meters":14000,"station_id":"ce4bgj92rcd13ifvqbd0","pricing_plan_id":"free"},{"bike_id":"5c53e534-782f-416b-97b1-198614431dac","system_id":"levelo_inurba_marseille","lat":43.299717,"lon":5.384845,"is_reserved":false,"is_disabled":false,"rental_uris":{"android":"levelo://app?vid=5c53e534-782f-416b-97b1-198614431dac","ios":"levelo://app?vid=5c53e534-782f-416b-97b1-198614431dac"},"vehicle_type_id":"4","last_reported":1687125939,"current_range_meters":18400,"station_id":"ce4bgj92rcd13ifvqbd0","pricing_plan_id":"free"},{"bike_id":"eb56f040-d7e3-440c-9d05-82afe187dd21","system_id":"levelo_inurba_marseille","lat":43.299724,"lon":5.384848,"is_reserved":false,"is_disabled":false,"rental_uris":{"android":"levelo://app?vid=eb56f040-d7e3-440c-9d05-82afe187dd21","ios":"levelo://app?vid=eb56f040-d7e3-440c-9d05-82afe187dd21"},"vehicle_type_id":"4","last_reported":1687125939,"current_range_meters":30400,"station_id":"ce4bgj92rcd13ifvqbd0","pricing_plan_id":"free"},{"bike_id":"d8602186-3092-4be3-ae9d-953b22826575","system_id":"levelo_inurba_marseille","lat":43.299724,"lon":5.384848,"is_reserved":false,"is_disabled":false,"rental_uris":{"android":"levelo://app?vid=d8602186-3092-4be3-ae9d-953b22826575","ios":"levelo://app?vid=d8602186-3092-4be3-ae9d-953b22826575"},"vehicle_type_id":"4","last_reported":1687125939,"current_range_meters":16800,"station_id":"ce4bgj92rcd13ifvqbd0","pricing_plan_id":"free"},{"bike_id":"55b552f9-47a0-459e-af29-8f24e7f56710","system_id":"levelo_inurba_marseille","lat":43.299724,"lon":5.384848,"is_reserved":false,"is_disabled":false,"rental_uris":{"android":"levelo://app?vid=55b552f9-47a0-459e-af29-8f24e7f56710","ios":"levelo://app?vid=55b552f9-47a0-459e-af29-8f24e7f56710"},"vehicle_type_id":"4","last_reported":1687125939,"current_range_meters":22000,"station_id":"ce4bgj92rcd13ifvqbd0","pricing_plan_id":"free"},{"bike_id":"0100a688-6eac-43d0-bf90-97c080a6e462","system_id":"levelo_inurba_marseille","lat":43.32367,"lon":5.388836,"is_reserved":false,"is_disabled":false,"rental_uris":{"android":"levelo://app?vid=0100a688-6eac-43d0-bf90-97c080a6e462","ios":"levelo://app?vid=0100a688-6eac-43d0-bf90-97c080a6e462"},"vehicle_type_id":"4","last_reported":1687125939,"current_range_meters":15200,"station_id":"ce4bhqp2rcd13ifvqhog","pricing_plan_id":"free"},{"bike_id":"9ff5e686-c760-4fee-b5de-d5d0394be428","system_id":"levelo_inurba_marseille","lat":43.32367,"lon":5.388836,"is_reserved":false,"is_disabled":false,"rental_uris":{"android":"levelo://app?vid=9ff5e686-c760-4fee-b5de-d5d0394be428","ios":"levelo://app?vid=9ff5e686-c760-4fee-b5de-d5d0394be428"},"vehicle_type_id":"4","last_reported":1687125939,"current_range_meters":10400,"station_id":"ce4bhqp2rcd13ifvqhog","pricing_plan_id":"free"},{"bike_id":"64bf5995-e1cd-400c-b4dd-97956e1f681e","system_id":"levelo_inurba_marseille","lat":43.32367,"lon":5.388836,"is_reserved":false,"is_disabled":false,"rental_uris":{"android":"levelo://app?vid=64bf5995-e1cd-400c-b4dd-97956e1f681e","ios":"levelo://app?vid=64bf5995-e1cd-400c-b4dd-97956e1f681e"},"vehicle_type_id":"4","last_reported":1687125939,"current_range_meters":7600,"station_id":"ce4bhqp2rcd13ifvqhog","pricing_plan_id":"free"},{"bike_id":"d852f6e7-92f3-42a5-90b9-92d33ffa9a5c","system_id":"levelo_inurba_marseille","lat":43.32367,"lon":5.388836,"is_reserved":false,"is_disabled":false,"rental_uris":{"android":"levelo://app?vid=d852f6e7-92f3-42a5-90b9-92d33ffa9a5c","ios":"levelo://app?vid=d852f6e7-92f3-42a5-90b9-92d33ffa9a5c"},"vehicle_type_id":"4","last_reported":1687125939,"current_range_meters":14800,"station_id":"ce4bhqp2rcd13ifvqhog","pricing_plan_id":"free"},{"bike_id":"c25bbca6-334a-48c9-b2aa-c69eb97c9d81","system_id":"levelo_inurba_marseille","lat":43.32367,"lon":5.388836,"is_reserved":false,"is_disabled":false,"rental_uris":{"android":"levelo://app?vid=c25bbca6-334a-48c9-b2aa-c69eb97c9d81","ios":"levelo://app?vid=c25bbca6-334a-48c9-b2aa-c69eb97c9d81"},"vehicle_type_id":"4","last_reported":1687125939,"current_range_meters":28400,"station_id":"ce4bhqp2rcd13ifvqhog","pricing_plan_id":"free"},{"bike_id":"50c6b16a-a581-4486-a79b-0bb2828ef218","system_id":"levelo_inurba_marseille","lat":43.292749,"lon":5.368398,"is_reserved":false,"is_disabled":false,"rental_uris":{"android":"levelo://app?vid=50c6b16a-a581-4486-a79b-0bb2828ef218","ios":"levelo://app?vid=50c6b16a-a581-4486-a79b-0bb2828ef218"},"vehicle_type_id":"4","last_reported":1687125939,"current_range_meters":0,"station_id":"ce4bhbp2rcd13ifvqesg","pricing_plan_id":"free"},{"bike_id":"9019e8f1-60d2-4909-a933-186029a9b0e1","system_id":"levelo_inurba_marseille","lat":43.301374,"lon":5.3904,"is_reserved":false,"is_disabled":false,"rental_uris":{"android":"levelo://app?vid=9019e8f1-60d2-4909-a933-186029a9b0e1","ios":"levelo://app?vid=9019e8f1-60d2-4909-a933-186029a9b0e1"},"vehicle_type_id":"4","last_reported":1687125939,"current_range_meters":17600,"station_id":"ce4bhgh2rcd13ifvqfa0","pricing_plan_id":"free"},{"bike_id":"90f9565e-030a-406c-bd3b-f7bbefeaeea9","system_id":"levelo_inurba_marseille","lat":43.2936,"lon":5.37835,"is_reserved":false,"is_disabled":false,"rental_uris":{"android":"levelo://app?vid=90f9565e-030a-406c-bd3b-f7bbefeaeea9","ios":"levelo://app?vid=90f9565e-030a-406c-bd3b-f7bbefeaeea9"},"vehicle_type_id":"4","last_reported":1687125939,"current_range_meters":28400,"station_id":"ce4bgjh2rcd13ifvqbf0","pricing_plan_id":"free"},{"bike_id":"5cd39362-48f6-4555-8363-2ac971881ec8","system_id":"levelo_inurba_marseille","lat":43.302992,"lon":5.392136,"is_reserved":false,"is_disabled":false,"rental_uris":{"android":"levelo://app?vid=5cd39362-48f6-4555-8363-2ac971881ec8","ios":"levelo://app?vid=5cd39362-48f6-4555-8363-2ac971881ec8"},"vehicle_type_id":"4","last_reported":1687125939,"current_range_meters":26400,"station_id":"ce4bgkh2rcd13ifvqbk0","pricing_plan_id":"free"},{"bike_id":"ef3a4ba8-2bf8-42e3-9420-16136fb749a0","system_id":"levelo_inurba_marseille","lat":43.300852,"lon":5.390859,"is_reserved":false,"is_disabled":false,"rental_uris":{"android":"levelo://app?vid=ef3a4ba8-2bf8-42e3-9420-16136fb749a0","ios":"levelo://app?vid=ef3a4ba8-2bf8-42e3-9420-16136fb749a0"},"vehicle_type_id":"4","last_reported":1687125939,"current_range_meters":15600,"station_id":"ce4bh192rcd13ifvqdb0","pricing_plan_id":"free"},{"bike_id":"c0818495-d4c6-4d12-ad92-f8d981e1a031","system_id":"levelo_inurba_marseille","lat":43.300852,"lon":5.390859,"is_reserved":false,"is_disabled":false,"rental_uris":{"android":"levelo://app?vid=c0818495-d4c6-4d12-ad92-f8d981e1a031","ios":"levelo://app?vid=c0818495-d4c6-4d12-ad92-f8d981e1a031"},"vehicle_type_id":"4","last_reported":1687125939,"current_range_meters":18800,"station_id":"ce4bh192rcd13ifvqdb0","pricing_plan_id":"free"},{"bike_id":"c40d2f6a-9a3c-4d8d-ac76-4c297512856c","system_id":"levelo_inurba_marseille","lat":43.300852,"lon":5.390859,"is_reserved":false,"is_disabled":false,"rental_uris":{"android":"levelo://app?vid=c40d2f6a-9a3c-4d8d-ac76-4c297512856c","ios":"levelo://app?vid=c40d2f6a-9a3c-4d8d-ac76-4c297512856c"},"vehicle_type_id":"4","last_reported":1687125939,"current_range_meters":31600,"station_id":"ce4bh192rcd13ifvqdb0","pricing_plan_id":"free"},{"bike_id":"02401813-cfd7-45a7-a153-0e9255cc48d1","system_id":"levelo_inurba_marseille","lat":43.300852,"lon":5.390859,"is_reserved":false,"is_disabled":false,"rental_uris":{"android":"levelo://app?vid=02401813-cfd7-45a7-a153-0e9255cc48d1","ios":"levelo://app?vid=02401813-cfd7-45a7-a153-0e9255cc48d1"},"vehicle_type_id":"4","last_reported":1687125939,"current_range_meters":26800,"station_id":"ce4bh192rcd13ifvqdb0","pricing_plan_id":"free"},{"bike_id":"f566c84e-7972-4f76-9d0f-b6c764ecb224","system_id":"levelo_inurba_marseille","lat":43.30102,"lon":5.39084,"is_reserved":false,"is_disabled":false,"rental_uris":{"android":"levelo://app?vid=f566c84e-7972-4f76-9d0f-b6c764ecb224","ios":"levelo://app?vid=f566c84e-7972-4f76-9d0f-b6c764ecb224"},"vehicle_type_id":"4","last_reported":1687125939,"current_range_meters":31200,"station_id":"ce4bh192rcd13ifvqdb0","pricing_plan_id":"free"},{"bike_id":"eaf9320f-08d0-412e-9001-ad5d233332ce","system_id":"levelo_inurba_marseille","lat":43.30085,"lon":5.390856,"is_reserved":false,"is_disabled":false,"rental_uris":{"android":"levelo://app?vid=eaf9320f-08d0-412e-9001-ad5d233332ce","ios":"levelo://app?vid=eaf9320f-08d0-412e-9001-ad5d233332ce"},"vehicle_type_id":"4","last_reported":1687125939,"current_range_meters":30000,"station_id":"ce4bh192rcd13ifvqdb0","pricing_plan_id":"free"},{"bike_id":"bf98c3f1-2cf4-4863-b6fc-1df2b5837e42","system_id":"levelo_inurba_marseille","lat":43.32689,"lon":5.38831,"is_reserved":false,"is_disabled":false,"rental_uris":{"android":"levelo://app?vid=bf98c3f1-2cf4-4863-b6fc-1df2b5837e42","ios":"levelo://app?vid=bf98c3f1-2cf4-4863-b6fc-1df2b5837e42"},"vehicle_type_id":"4","last_reported":1687125939,"current_range_meters":17200,"station_id":"","pricing_plan_id":"free"},{"bike_id":"0c6470f8-d2dd-48e8-b10a-6f84692d9d86","system_id":"levelo_inurba_marseille","lat":43.30398,"lon":5.39324,"is_reserved":false,"is_disabled":false,"rental_uris":{"android":"levelo://app?vid=0c6470f8-d2dd-48e8-b10a-6f84692d9d86","ios":"levelo://app?vid=0c6470f8-d2dd-48e8-b10a-6f84692d9d86"},"vehicle_type_id":"4","last_reported":1687125939,"current_range_meters":10400,"station_id":"","pricing_plan_id":"free"},{"bike_id":"3c6da382-aa58-45cb-96da-320ddd52cfe2","system_id":"levelo_inurba_marseille","lat":43.29891,"lon":5.38904,"is_reserved":false,"is_disabled":false,"rental_uris":{"android":"levelo://app?vid=3c6da382-aa58-45cb-96da-320ddd52cfe2","ios":"levelo://app?vid=3c6da382-aa58-45cb-96da-320ddd52cfe2"},"vehicle_type_id":"4","last_reported":1687125939,"current_range_meters":22000,"station_id":"ce4bh392rcd13ifvqdl0","pricing_plan_id":"free"},{"bike_id":"313e9307-45da-44e1-ac4f-23150195e0b3","system_id":"levelo_inurba_marseille","lat":43.2989,"lon":5.38907,"is_reserved":false,"is_disabled":false,"rental_uris":{"android":"levelo://app?vid=313e9307-45da-44e1-ac4f-23150195e0b3","ios":"levelo://app?vid=313e9307-45da-44e1-ac4f-23150195e0b3"},"vehicle_type_id":"4","last_reported":1687125939,"current_range_meters":12000,"station_id":"ce4bh392rcd13ifvqdl0","pricing_plan_id":"free"},{"bike_id":"bf58b19c-1ce5-4b18-9b43-f98882f13702","system_id":"levelo_inurba_marseille","lat":43.29874,"lon":5.38902,"is_reserved":false,"is_disabled":false,"rental_uris":{"android":"levelo://app?vid=bf58b19c-1ce5-4b18-9b43-f98882f13702","ios":"levelo://app?vid=bf58b19c-1ce5-4b18-9b43-f98882f13702"},"vehicle_type_id":"4","last_reported":1687125939,"current_range_meters":22000,"station_id":"ce4bh392rcd13ifvqdl0","pricing_plan_id":"free"},{"bike_id":"f99e9929-8072-4af1-bf79-5cf6bf4bfb6c","system_id":"levelo_inurba_marseille","lat":43.298764,"lon":5.388973,"is_reserved":false,"is_disabled":false,"rental_uris":{"android":"levelo://app?vid=f99e9929-8072-4af1-bf79-5cf6bf4bfb6c","ios":"levelo://app?vid=f99e9929-8072-4af1-bf79-5cf6bf4bfb6c"},"vehicle_type_id":"4","last_reported":1687125939,"current_range_meters":23200,"station_id":"ce4bh392rcd13ifvqdl0","pricing_plan_id":"free"},{"bike_id":"2f58d735-5305-4fee-a21a-a1d9d3a9a68d","system_id":"levelo_inurba_marseille","lat":43.298764,"lon":5.388973,"is_reserved":false,"is_disabled":false,"rental_uris":{"android":"levelo://app?vid=2f58d735-5305-4fee-a21a-a1d9d3a9a68d","ios":"levelo://app?vid=2f58d735-5305-4fee-a21a-a1d9d3a9a68d"},"vehicle_type_id":"4","last_reported":1687125939,"current_range_meters":8400,"station_id":"ce4bh392rcd13ifvqdl0","pricing_plan_id":"free"},{"bike_id":"b82419e8-1db5-4f11-9caf-d00fff04d9f9","system_id":"levelo_inurba_marseille","lat":43.309038,"lon":5.396546,"is_reserved":false,"is_disabled":false,"rental_uris":{"android":"levelo://app?vid=b82419e8-1db5-4f11-9caf-d00fff04d9f9","ios":"levelo://app?vid=b82419e8-1db5-4f11-9caf-d00fff04d9f9"},"vehicle_type_id":"4","last_reported":1687125939,"current_range_meters":1200,"station_id":"ce4bh012rcd13ifvqcv0","pricing_plan_id":"free"},{"bike_id":"744c215c-ceca-4b2d-84c5-ba444d9b7d86","system_id":"levelo_inurba_marseille","lat":43.313291,"lon":5.396838,"is_reserved":false,"is_disabled":false,"rental_uris":{"android":"levelo://app?vid=744c215c-ceca-4b2d-84c5-ba444d9b7d86","ios":"levelo://app?vid=744c215c-ceca-4b2d-84c5-ba444d9b7d86"},"vehicle_type_id":"4","last_reported":1687125939,"current_range_meters":1600,"station_id":"ce4bgvp2rcd13ifvqcu0","pricing_plan_id":"free"},{"bike_id":"915bcf72-ec55-4ea2-afb4-1fc09a4c88f7","system_id":"levelo_inurba_marseille","lat":43.309038,"lon":5.396546,"is_reserved":false,"is_disabled":false,"rental_uris":{"android":"levelo://app?vid=915bcf72-ec55-4ea2-afb4-1fc09a4c88f7","ios":"levelo://app?vid=915bcf72-ec55-4ea2-afb4-1fc09a4c88f7"},"vehicle_type_id":"4","last_reported":1687125939,"current_range_meters":4800,"station_id":"ce4bh012rcd13ifvqcv0","pricing_plan_id":"free"},{"bike_id":"6199cfac-86e0-4c58-9bc6-f36f45e72daf","system_id":"levelo_inurba_marseille","lat":43.313291,"lon":5.396838,"is_reserved":false,"is_disabled":false,"rental_uris":{"android":"levelo://app?vid=6199cfac-86e0-4c58-9bc6-f36f45e72daf","ios":"levelo://app?vid=6199cfac-86e0-4c58-9bc6-f36f45e72daf"},"vehicle_type_id":"4","last_reported":1687125939,"current_range_meters":6800,"station_id":"ce4bgvp2rcd13ifvqcu0","pricing_plan_id":"free"},{"bike_id":"f90825ef-b2cc-4750-97eb-6f2da5f9dfa8","system_id":"levelo_inurba_marseille","lat":43.29196,"lon":5.35734,"is_reserved":false,"is_disabled":false,"rental_uris":{"android":"levelo://app?vid=f90825ef-b2cc-4750-97eb-6f2da5f9dfa8","ios":"levelo://app?vid=f90825ef-b2cc-4750-97eb-6f2da5f9dfa8"},"vehicle_type_id":"4","last_reported":1687125939,"current_range_meters":22400,"station_id":"","pricing_plan_id":"free"},{"bike_id":"194217e3-db30-418a-8bd7-aedd37e823c5","system_id":"levelo_inurba_marseille","lat":43.302008,"lon":5.394694,"is_reserved":false,"is_disabled":false,"rental_uris":{"android":"levelo://app?vid=194217e3-db30-418a-8bd7-aedd37e823c5","ios":"levelo://app?vid=194217e3-db30-418a-8bd7-aedd37e823c5"},"vehicle_type_id":"4","last_reported":1687125939,"current_range_meters":20800,"station_id":"ce4bh0p2rcd13ifvqd70","pricing_plan_id":"free"},{"bike_id":"d97c918d-11dc-4031-9eb4-bab3d56e5436","system_id":"levelo_inurba_marseille","lat":43.290624,"lon":5.359245,"is_reserved":false,"is_disabled":false,"rental_uris":{"android":"levelo://app?vid=d97c918d-11dc-4031-9eb4-bab3d56e5436","ios":"levelo://app?vid=d97c918d-11dc-4031-9eb4-bab3d56e5436"},"vehicle_type_id":"4","last_reported":1687125939,"current_range_meters":31200,"station_id":"ce4bha92rcd13ifvqeg0","pricing_plan_id":"free"},{"bike_id":"89d611fd-611a-4549-9f29-09f73e324d69","system_id":"levelo_inurba_marseille","lat":43.290624,"lon":5.359245,"is_reserved":false,"is_disabled":false,"rental_uris":{"android":"levelo://app?vid=89d611fd-611a-4549-9f29-09f73e324d69","ios":"levelo://app?vid=89d611fd-611a-4549-9f29-09f73e324d69"},"vehicle_type_id":"4","last_reported":1687125939,"current_range_meters":28800,"station_id":"ce4bha92rcd13ifvqeg0","pricing_plan_id":"free"},{"bike_id":"55ccf9c2-726b-4fc2-a639-a0bef636f8e4","system_id":"levelo_inurba_marseille","lat":43.290624,"lon":5.359245,"is_reserved":false,"is_disabled":false,"rental_uris":{"android":"levelo://app?vid=55ccf9c2-726b-4fc2-a639-a0bef636f8e4","ios":"levelo://app?vid=55ccf9c2-726b-4fc2-a639-a0bef636f8e4"},"vehicle_type_id":"4","last_reported":1687125939,"current_range_meters":22800,"station_id":"ce4bha92rcd13ifvqeg0","pricing_plan_id":"free"},{"bike_id":"8d022017-a28c-44a8-8a12-ccb3888bff98","system_id":"levelo_inurba_marseille","lat":43.290631,"lon":5.359244,"is_reserved":false,"is_disabled":false,"rental_uris":{"android":"levelo://app?vid=8d022017-a28c-44a8-8a12-ccb3888bff98","ios":"levelo://app?vid=8d022017-a28c-44a8-8a12-ccb3888bff98"},"vehicle_type_id":"4","last_reported":1687125939,"current_range_meters":12000,"station_id":"ce4bha92rcd13ifvqeg0","pricing_plan_id":"free"},{"bike_id":"5cd7f59a-29eb-442e-8d13-6d81b59dcb5d","system_id":"levelo_inurba_marseille","lat":43.294153,"lon":5.386305,"is_reserved":false,"is_disabled":false,"rental_uris":{"android":"levelo://app?vid=5cd7f59a-29eb-442e-8d13-6d81b59dcb5d","ios":"levelo://app?vid=5cd7f59a-29eb-442e-8d13-6d81b59dcb5d"},"vehicle_type_id":"4","last_reported":1687125939,"current_range_meters":10400,"station_id":"ce4bh2h2rcd13ifvqdh0","pricing_plan_id":"free"},{"bike_id":"1d3b7a87-e65a-463e-89ef-143dca56d2b3","system_id":"levelo_inurba_marseille","lat":43.294162,"lon":5.386292,"is_reserved":false,"is_disabled":false,"rental_uris":{"android":"levelo://app?vid=1d3b7a87-e65a-463e-89ef-143dca56d2b3","ios":"levelo://app?vid=1d3b7a87-e65a-463e-89ef-143dca56d2b3"},"vehicle_type_id":"4","last_reported":1687125939,"current_range_meters":5200,"station_id":"ce4bh2h2rcd13ifvqdh0","pricing_plan_id":"free"},{"bike_id":"a91ca493-850f-469c-8b1b-3145fa44f7fa","system_id":"levelo_inurba_marseille","lat":43.290327,"lon":5.375711,"is_reserved":false,"is_disabled":false,"rental_uris":{"android":"levelo://app?vid=a91ca493-850f-469c-8b1b-3145fa44f7fa","ios":"levelo://app?vid=a91ca493-850f-469c-8b1b-3145fa44f7fa"},"vehicle_type_id":"4","last_reported":1687125939,"current_range_meters":29600,"station_id":"ce4bh692rcd13ifvqe90","pricing_plan_id":"free"},{"bike_id":"e4d30123-c43a-46c4-902e-25de2752023e","system_id":"levelo_inurba_marseille","lat":43.289184,"lon":5.366408,"is_reserved":false,"is_disabled":false,"rental_uris":{"android":"levelo://app?vid=e4d30123-c43a-46c4-902e-25de2752023e","ios":"levelo://app?vid=e4d30123-c43a-46c4-902e-25de2752023e"},"vehicle_type_id":"4","last_reported":1687125939,"current_range_meters":2800,"station_id":"ce4bhap2rcd13ifvqek0","pricing_plan_id":"free"},{"bike_id":"087fefa5-24e7-42b9-ab9e-4cf642dac6d5","system_id":"levelo_inurba_marseille","lat":43.304274,"lon":5.397513,"is_reserved":false,"is_disabled":false,"rental_uris":{"android":"levelo://app?vid=087fefa5-24e7-42b9-ab9e-4cf642dac6d5","ios":"levelo://app?vid=087fefa5-24e7-42b9-ab9e-4cf642dac6d5"},"vehicle_type_id":"4","last_reported":1687125939,"current_range_meters":27600,"station_id":"ce4bh092rcd13ifvqd20","pricing_plan_id":"free"},{"bike_id":"38eb09af-7166-42b9-865e-84246929498f","system_id":"levelo_inurba_marseille","lat":43.2927,"lon":5.38431,"is_reserved":false,"is_disabled":false,"rental_uris":{"android":"levelo://app?vid=38eb09af-7166-42b9-865e-84246929498f","ios":"levelo://app?vid=38eb09af-7166-42b9-865e-84246929498f"},"vehicle_type_id":"4","last_reported":1687125939,"current_range_meters":31200,"station_id":"ce4bh692rcd13ifvqea0","pricing_plan_id":"free"},{"bike_id":"28147565-b24d-486c-9f6f-e539413c8027","system_id":"levelo_inurba_marseille","lat":43.304274,"lon":5.397513,"is_reserved":false,"is_disabled":false,"rental_uris":{"android":"levelo://app?vid=28147565-b24d-486c-9f6f-e539413c8027","ios":"levelo://app?vid=28147565-b24d-486c-9f6f-e539413c8027"},"vehicle_type_id":"4","last_reported":1687125939,"current_range_meters":14000,"station_id":"ce4bh092rcd13ifvqd20","pricing_plan_id":"free"},{"bike_id":"0c1a279d-1c88-48d9-882c-2226b5d5ce61","system_id":"levelo_inurba_marseille","lat":43.292642,"lon":5.384254,"is_reserved":false,"is_disabled":false,"rental_uris":{"android":"levelo://app?vid=0c1a279d-1c88-48d9-882c-2226b5d5ce61","ios":"levelo://app?vid=0c1a279d-1c88-48d9-882c-2226b5d5ce61"},"vehicle_type_id":"4","last_reported":1687125939,"current_range_meters":2000,"station_id":"ce4bh692rcd13ifvqea0","pricing_plan_id":"free"},{"bike_id":"c9d6c6cf-50bc-4d44-9c79-63dd9b78bed0","system_id":"levelo_inurba_marseille","lat":43.304274,"lon":5.397513,"is_reserved":false,"is_disabled":false,"rental_uris":{"android":"levelo://app?vid=c9d6c6cf-50bc-4d44-9c79-63dd9b78bed0","ios":"levelo://app?vid=c9d6c6cf-50bc-4d44-9c79-63dd9b78bed0"},"vehicle_type_id":"4","last_reported":1687125939,"current_range_meters":6400,"station_id":"ce4bh092rcd13ifvqd20","pricing_plan_id":"free"},{"bike_id":"91e454ec-6031-4a68-94a1-55191f634a66","system_id":"levelo_inurba_marseille","lat":43.304274,"lon":5.397513,"is_reserved":false,"is_disabled":false,"rental_uris":{"android":"levelo://app?vid=91e454ec-6031-4a68-94a1-55191f634a66","ios":"levelo://app?vid=91e454ec-6031-4a68-94a1-55191f634a66"},"vehicle_type_id":"4","last_reported":1687125939,"current_range_meters":24400,"station_id":"ce4bh092rcd13ifvqd20","pricing_plan_id":"free"},{"bike_id":"e25ee598-7238-4304-9305-a540eca54ba1","system_id":"levelo_inurba_marseille","lat":43.304296,"lon":5.397513,"is_reserved":false,"is_disabled":false,"rental_uris":{"android":"levelo://app?vid=e25ee598-7238-4304-9305-a540eca54ba1","ios":"levelo://app?vid=e25ee598-7238-4304-9305-a540eca54ba1"},"vehicle_type_id":"4","last_reported":1687125939,"current_range_meters":9600,"station_id":"ce4bh092rcd13ifvqd20","pricing_plan_id":"free"},{"bike_id":"0b62efba-3b49-42e3-a72c-2ce8d8158dde","system_id":"levelo_inurba_marseille","lat":43.290104,"lon":5.356111,"is_reserved":false,"is_disabled":false,"rental_uris":{"android":"levelo://app?vid=0b62efba-3b49-42e3-a72c-2ce8d8158dde","ios":"levelo://app?vid=0b62efba-3b49-42e3-a72c-2ce8d8158dde"},"vehicle_type_id":"4","last_reported":1687125939,"current_range_meters":2400,"station_id":"ce4bhb92rcd13ifvqen0","pricing_plan_id":"free"},{"bike_id":"b4e7fc2d-b8f3-4831-b8f6-7dd5a95dae01","system_id":"levelo_inurba_marseille","lat":43.29006,"lon":5.35612,"is_reserved":false,"is_disabled":false,"rental_uris":{"android":"levelo://app?vid=b4e7fc2d-b8f3-4831-b8f6-7dd5a95dae01","ios":"levelo://app?vid=b4e7fc2d-b8f3-4831-b8f6-7dd5a95dae01"},"vehicle_type_id":"4","last_reported":1687125939,"current_range_meters":0,"station_id":"ce4bhb92rcd13ifvqen0","pricing_plan_id":"free"},{"bike_id":"0eaeeb92-000e-4a7a-a8a6-76dba02ff49a","system_id":"levelo_inurba_marseille","lat":43.290995,"lon":5.381361,"is_reserved":false,"is_disabled":false,"rental_uris":{"android":"levelo://app?vid=0eaeeb92-000e-4a7a-a8a6-76dba02ff49a","ios":"levelo://app?vid=0eaeeb92-000e-4a7a-a8a6-76dba02ff49a"},"vehicle_type_id":"4","last_reported":1687125939,"current_range_meters":24800,"station_id":"ce4bh512rcd13ifvqe2g","pricing_plan_id":"free"},{"bike_id":"520f3590-31be-414c-b4ec-7180212ed572","system_id":"levelo_inurba_marseille","lat":43.290995,"lon":5.381361,"is_reserved":false,"is_disabled":false,"rental_uris":{"android":"levelo://app?vid=520f3590-31be-414c-b4ec-7180212ed572","ios":"levelo://app?vid=520f3590-31be-414c-b4ec-7180212ed572"},"vehicle_type_id":"4","last_reported":1687125939,"current_range_meters":28400,"station_id":"ce4bh512rcd13ifvqe2g","pricing_plan_id":"free"},{"bike_id":"5a25565f-601b-4369-92b1-ff276fe552b6","system_id":"levelo_inurba_marseille","lat":43.29099,"lon":5.38153,"is_reserved":false,"is_disabled":false,"rental_uris":{"android":"levelo://app?vid=5a25565f-601b-4369-92b1-ff276fe552b6","ios":"levelo://app?vid=5a25565f-601b-4369-92b1-ff276fe552b6"},"vehicle_type_id":"4","last_reported":1687125939,"current_range_meters":31200,"station_id":"ce4bh512rcd13ifvqe2g","pricing_plan_id":"free"},{"bike_id":"02e77b5d-bc74-4197-86f7-d73f0004b3d1","system_id":"levelo_inurba_marseille","lat":43.289743,"lon":5.378304,"is_reserved":false,"is_disabled":false,"rental_uris":{"android":"levelo://app?vid=02e77b5d-bc74-4197-86f7-d73f0004b3d1","ios":"levelo://app?vid=02e77b5d-bc74-4197-86f7-d73f0004b3d1"},"vehicle_type_id":"4","last_reported":1687125939,"current_range_meters":8000,"station_id":"ce4bh9p2rcd13ifvqed0","pricing_plan_id":"free"},{"bike_id":"7ee86436-3364-4bd2-9136-8ed96e76b4ae","system_id":"levelo_inurba_marseille","lat":43.295169,"lon":5.390426,"is_reserved":false,"is_disabled":false,"rental_uris":{"android":"levelo://app?vid=7ee86436-3364-4bd2-9136-8ed96e76b4ae","ios":"levelo://app?vid=7ee86436-3364-4bd2-9136-8ed96e76b4ae"},"vehicle_type_id":"4","last_reported":1687125939,"current_range_meters":20800,"station_id":"ce4bh3p2rcd13ifvqdp0","pricing_plan_id":"free"},{"bike_id":"67bd978c-7231-4d16-a5b3-37d99a95a89a","system_id":"levelo_inurba_marseille","lat":43.289743,"lon":5.378304,"is_reserved":false,"is_disabled":false,"rental_uris":{"android":"levelo://app?vid=67bd978c-7231-4d16-a5b3-37d99a95a89a","ios":"levelo://app?vid=67bd978c-7231-4d16-a5b3-37d99a95a89a"},"vehicle_type_id":"4","last_reported":1687125939,"current_range_meters":28800,"station_id":"ce4bh9p2rcd13ifvqed0","pricing_plan_id":"free"},{"bike_id":"4dfe9a17-7a32-48e0-9373-295cbe45476f","system_id":"levelo_inurba_marseille","lat":43.289743,"lon":5.378304,"is_reserved":false,"is_disabled":false,"rental_uris":{"android":"levelo://app?vid=4dfe9a17-7a32-48e0-9373-295cbe45476f","ios":"levelo://app?vid=4dfe9a17-7a32-48e0-9373-295cbe45476f"},"vehicle_type_id":"4","last_reported":1687125939,"current_range_meters":8400,"station_id":"ce4bh9p2rcd13ifvqed0","pricing_plan_id":"free"},{"bike_id":"9ccc3260-d5e5-4967-b722-428412fa7546","system_id":"levelo_inurba_marseille","lat":43.295169,"lon":5.390426,"is_reserved":false,"is_disabled":false,"rental_uris":{"android":"levelo://app?vid=9ccc3260-d5e5-4967-b722-428412fa7546","ios":"levelo://app?vid=9ccc3260-d5e5-4967-b722-428412fa7546"},"vehicle_type_id":"4","last_reported":1687125939,"current_range_meters":28000,"station_id":"ce4bh3p2rcd13ifvqdp0","pricing_plan_id":"free"},{"bike_id":"b9b44b37-7edf-4ab6-8685-17eb58a26dbc","system_id":"levelo_inurba_marseille","lat":43.295169,"lon":5.390426,"is_reserved":false,"is_disabled":false,"rental_uris":{"android":"levelo://app?vid=b9b44b37-7edf-4ab6-8685-17eb58a26dbc","ios":"levelo://app?vid=b9b44b37-7edf-4ab6-8685-17eb58a26dbc"},"vehicle_type_id":"4","last_reported":1687125939,"current_range_meters":31200,"station_id":"ce4bh3p2rcd13ifvqdp0","pricing_plan_id":"free"},{"bike_id":"f31d77c1-9b9f-47de-8958-548f03b79c6d","system_id":"levelo_inurba_marseille","lat":43.295169,"lon":5.390426,"is_reserved":false,"is_disabled":false,"rental_uris":{"android":"levelo://app?vid=f31d77c1-9b9f-47de-8958-548f03b79c6d","ios":"levelo://app?vid=f31d77c1-9b9f-47de-8958-548f03b79c6d"},"vehicle_type_id":"4","last_reported":1687125939,"current_range_meters":16400,"station_id":"ce4bh3p2rcd13ifvqdp0","pricing_plan_id":"free"},{"bike_id":"ad2c077a-e863-4b5c-9593-f12007142eed","system_id":"levelo_inurba_marseille","lat":43.295169,"lon":5.390426,"is_reserved":false,"is_disabled":false,"rental_uris":{"android":"levelo://app?vid=ad2c077a-e863-4b5c-9593-f12007142eed","ios":"levelo://app?vid=ad2c077a-e863-4b5c-9593-f12007142eed"},"vehicle_type_id":"4","last_reported":1687125939,"current_range_meters":8000,"station_id":"ce4bh3p2rcd13ifvqdp0","pricing_plan_id":"free"},{"bike_id":"4a60c920-0237-4bc8-8f21-a59a040ce24d","system_id":"levelo_inurba_marseille","lat":43.295169,"lon":5.390426,"is_reserved":false,"is_disabled":false,"rental_uris":{"android":"levelo://app?vid=4a60c920-0237-4bc8-8f21-a59a040ce24d","ios":"levelo://app?vid=4a60c920-0237-4bc8-8f21-a59a040ce24d"},"vehicle_type_id":"4","last_reported":1687125939,"current_range_meters":8800,"station_id":"ce4bh3p2rcd13ifvqdp0","pricing_plan_id":"free"},{"bike_id":"bf791992-8d1b-48fd-8975-fdf278506518","system_id":"levelo_inurba_marseille","lat":43.29029,"lon":5.38132,"is_reserved":false,"is_disabled":false,"rental_uris":{"android":"levelo://app?vid=bf791992-8d1b-48fd-8975-fdf278506518","ios":"levelo://app?vid=bf791992-8d1b-48fd-8975-fdf278506518"},"vehicle_type_id":"4","last_reported":1687125939,"current_range_meters":29600,"station_id":"ce4bh4p2rcd13ifvqe1g","pricing_plan_id":"free"},{"bike_id":"555358da-6719-4023-a8f8-395063eca89a","system_id":"levelo_inurba_marseille","lat":43.29012,"lon":5.38098,"is_reserved":false,"is_disabled":false,"rental_uris":{"android":"levelo://app?vid=555358da-6719-4023-a8f8-395063eca89a","ios":"levelo://app?vid=555358da-6719-4023-a8f8-395063eca89a"},"vehicle_type_id":"4","last_reported":1687125939,"current_range_meters":31200,"station_id":"ce4bh4p2rcd13ifvqe1g","pricing_plan_id":"free"},{"bike_id":"5844e96d-0c22-46f9-a97f-569a7d15905b","system_id":"levelo_inurba_marseille","lat":43.29021,"lon":5.38135,"is_reserved":false,"is_disabled":false,"rental_uris":{"android":"levelo://app?vid=5844e96d-0c22-46f9-a97f-569a7d15905b","ios":"levelo://app?vid=5844e96d-0c22-46f9-a97f-569a7d15905b"},"vehicle_type_id":"4","last_reported":1687125939,"current_range_meters":31200,"station_id":"ce4bh4p2rcd13ifvqe1g","pricing_plan_id":"free"},{"bike_id":"7badc410-e7b8-45f9-80cd-f6ea04ee8abe","system_id":"levelo_inurba_marseille","lat":43.28856,"lon":5.358371,"is_reserved":false,"is_disabled":false,"rental_uris":{"android":"levelo://app?vid=7badc410-e7b8-45f9-80cd-f6ea04ee8abe","ios":"levelo://app?vid=7badc410-e7b8-45f9-80cd-f6ea04ee8abe"},"vehicle_type_id":"4","last_reported":1687125939,"current_range_meters":1200,"station_id":"ce4bhb12rcd13ifvqem0","pricing_plan_id":"free"},{"bike_id":"dabed2b8-d909-46b3-88f4-013fee55c097","system_id":"levelo_inurba_marseille","lat":43.29018,"lon":5.38144,"is_reserved":false,"is_disabled":false,"rental_uris":{"android":"levelo://app?vid=dabed2b8-d909-46b3-88f4-013fee55c097","ios":"levelo://app?vid=dabed2b8-d909-46b3-88f4-013fee55c097"},"vehicle_type_id":"4","last_reported":1687125939,"current_range_meters":31200,"station_id":"ce4bh4p2rcd13ifvqe1g","pricing_plan_id":"free"},{"bike_id":"b267138b-d513-4e57-b806-18fa7eb0ed0a","system_id":"levelo_inurba_marseille","lat":43.28856,"lon":5.358371,"is_reserved":false,"is_disabled":false,"rental_uris":{"android":"levelo://app?vid=b267138b-d513-4e57-b806-18fa7eb0ed0a","ios":"levelo://app?vid=b267138b-d513-4e57-b806-18fa7eb0ed0a"},"vehicle_type_id":"4","last_reported":1687125939,"current_range_meters":7600,"station_id":"ce4bhb12rcd13ifvqem0","pricing_plan_id":"free"},{"bike_id":"425568bc-331e-4230-b8a8-0c17a04d1cec","system_id":"levelo_inurba_marseille","lat":43.28856,"lon":5.358371,"is_reserved":false,"is_disabled":false,"rental_uris":{"android":"levelo://app?vid=425568bc-331e-4230-b8a8-0c17a04d1cec","ios":"levelo://app?vid=425568bc-331e-4230-b8a8-0c17a04d1cec"},"vehicle_type_id":"4","last_reported":1687125939,"current_range_meters":30400,"station_id":"ce4bhb12rcd13ifvqem0","pricing_plan_id":"free"},{"bike_id":"2d476d93-328d-4dd2-876e-4ec798ebadb3","system_id":"levelo_inurba_marseille","lat":43.309371,"lon":5.401449,"is_reserved":false,"is_disabled":false,"rental_uris":{"android":"levelo://app?vid=2d476d93-328d-4dd2-876e-4ec798ebadb3","ios":"levelo://app?vid=2d476d93-328d-4dd2-876e-4ec798ebadb3"},"vehicle_type_id":"4","last_reported":1687125939,"current_range_meters":2800,"station_id":"ce4bgvp2rcd13ifvqct0","pricing_plan_id":"free"},{"bike_id":"7397650f-39d3-438c-ac58-cf41e68c9386","system_id":"levelo_inurba_marseille","lat":43.3064,"lon":5.40065,"is_reserved":false,"is_disabled":false,"rental_uris":{"android":"levelo://app?vid=7397650f-39d3-438c-ac58-cf41e68c9386","ios":"levelo://app?vid=7397650f-39d3-438c-ac58-cf41e68c9386"},"vehicle_type_id":"4","last_reported":1687125939,"current_range_meters":400,"station_id":"","pricing_plan_id":"free"},{"bike_id":"cbf85b53-9c02-4930-b0db-6a58ba23aa47","system_id":"levelo_inurba_marseille","lat":43.30641,"lon":5.40066,"is_reserved":false,"is_disabled":false,"rental_uris":{"android":"levelo://app?vid=cbf85b53-9c02-4930-b0db-6a58ba23aa47","ios":"levelo://app?vid=cbf85b53-9c02-4930-b0db-6a58ba23aa47"},"vehicle_type_id":"4","last_reported":1687125939,"current_range_meters":2800,"station_id":"","pricing_plan_id":"free"},{"bike_id":"03dc7bc4-0651-47b3-9419-e601814ec75b","system_id":"levelo_inurba_marseille","lat":43.30642,"lon":5.40069,"is_reserved":false,"is_disabled":false,"rental_uris":{"android":"levelo://app?vid=03dc7bc4-0651-47b3-9419-e601814ec75b","ios":"levelo://app?vid=03dc7bc4-0651-47b3-9419-e601814ec75b"},"vehicle_type_id":"4","last_reported":1687125939,"current_range_meters":22400,"station_id":"ce4bh112rcd13ifvqda0","pricing_plan_id":"free"},{"bike_id":"41a8749b-6d93-4d1b-8e52-c5f60f65ae7c","system_id":"levelo_inurba_marseille","lat":43.33752,"lon":5.37443,"is_reserved":false,"is_disabled":false,"rental_uris":{"android":"levelo://app?vid=41a8749b-6d93-4d1b-8e52-c5f60f65ae7c","ios":"levelo://app?vid=41a8749b-6d93-4d1b-8e52-c5f60f65ae7c"},"vehicle_type_id":"4","last_reported":1687125939,"current_range_meters":25600,"station_id":"","pricing_plan_id":"free"},{"bike_id":"3524aba2-de2f-4ef4-8939-05801f8f100a","system_id":"levelo_inurba_marseille","lat":43.30646,"lon":5.40088,"is_reserved":false,"is_disabled":false,"rental_uris":{"android":"levelo://app?vid=3524aba2-de2f-4ef4-8939-05801f8f100a","ios":"levelo://app?vid=3524aba2-de2f-4ef4-8939-05801f8f100a"},"vehicle_type_id":"4","last_reported":1687125939,"current_range_meters":12800,"station_id":"ce4bh112rcd13ifvqda0","pricing_plan_id":"free"},{"bike_id":"e9dca547-42ba-4d28-93d5-aece827ff329","system_id":"levelo_inurba_marseille","lat":43.30644,"lon":5.4009,"is_reserved":false,"is_disabled":false,"rental_uris":{"android":"levelo://app?vid=e9dca547-42ba-4d28-93d5-aece827ff329","ios":"levelo://app?vid=e9dca547-42ba-4d28-93d5-aece827ff329"},"vehicle_type_id":"4","last_reported":1687125939,"current_range_meters":6800,"station_id":"ce4bh112rcd13ifvqda0","pricing_plan_id":"free"},{"bike_id":"a47ed742-21c9-4f54-ad39-8c71bf2b52d7","system_id":"levelo_inurba_marseille","lat":43.301117,"lon":5.398795,"is_reserved":false,"is_disabled":false,"rental_uris":{"android":"levelo://app?vid=a47ed742-21c9-4f54-ad39-8c71bf2b52d7","ios":"levelo://app?vid=a47ed742-21c9-4f54-ad39-8c71bf2b52d7"},"vehicle_type_id":"4","last_reported":1687125939,"current_range_meters":12000,"station_id":"ce4bh0h2rcd13ifvqd40","pricing_plan_id":"free"},{"bike_id":"4f7bb7f8-fd52-4323-8c30-6e7598d4b7d6","system_id":"levelo_inurba_marseille","lat":43.301117,"lon":5.398795,"is_reserved":false,"is_disabled":false,"rental_uris":{"android":"levelo://app?vid=4f7bb7f8-fd52-4323-8c30-6e7598d4b7d6","ios":"levelo://app?vid=4f7bb7f8-fd52-4323-8c30-6e7598d4b7d6"},"vehicle_type_id":"4","last_reported":1687125939,"current_range_meters":6400,"station_id":"ce4bh0h2rcd13ifvqd40","pricing_plan_id":"free"},{"bike_id":"bfa3d14e-aac3-49f9-9efb-e7c149f3b661","system_id":"levelo_inurba_marseille","lat":43.30114,"lon":5.39854,"is_reserved":false,"is_disabled":false,"rental_uris":{"android":"levelo://app?vid=bfa3d14e-aac3-49f9-9efb-e7c149f3b661","ios":"levelo://app?vid=bfa3d14e-aac3-49f9-9efb-e7c149f3b661"},"vehicle_type_id":"4","last_reported":1687125939,"current_range_meters":0,"station_id":"ce4bh0h2rcd13ifvqd40","pricing_plan_id":"free"},{"bike_id":"889f9f79-73af-47cf-975b-39b19a484f30","system_id":"levelo_inurba_marseille","lat":43.298681,"lon":5.397225,"is_reserved":false,"is_disabled":false,"rental_uris":{"android":"levelo://app?vid=889f9f79-73af-47cf-975b-39b19a484f30","ios":"levelo://app?vid=889f9f79-73af-47cf-975b-39b19a484f30"},"vehicle_type_id":"4","last_reported":1687125939,"current_range_meters":10000,"station_id":"ce4bh0h2rcd13ifvqd50","pricing_plan_id":"free"},{"bike_id":"c38cdeef-88c8-40ec-848a-b7eff2c38546","system_id":"levelo_inurba_marseille","lat":43.286591,"lon":5.363346,"is_reserved":false,"is_disabled":false,"rental_uris":{"android":"levelo://app?vid=c38cdeef-88c8-40ec-848a-b7eff2c38546","ios":"levelo://app?vid=c38cdeef-88c8-40ec-848a-b7eff2c38546"},"vehicle_type_id":"4","last_reported":1687125939,"current_range_meters":28800,"station_id":"ce4bhah2rcd13ifvqej0","pricing_plan_id":"free"},{"bike_id":"0e6acab3-cfe9-477b-9b25-e6a01e48363e","system_id":"levelo_inurba_marseille","lat":43.287,"lon":5.37374,"is_reserved":false,"is_disabled":false,"rental_uris":{"android":"levelo://app?vid=0e6acab3-cfe9-477b-9b25-e6a01e48363e","ios":"levelo://app?vid=0e6acab3-cfe9-477b-9b25-e6a01e48363e"},"vehicle_type_id":"4","last_reported":1687125939,"current_range_meters":5600,"station_id":"ce4bh3p2rcd13ifvqdq0","pricing_plan_id":"free"},{"bike_id":"2e495cab-1af4-49bf-882c-5bdbd135a45e","system_id":"levelo_inurba_marseille","lat":43.298681,"lon":5.397225,"is_reserved":false,"is_disabled":false,"rental_uris":{"android":"levelo://app?vid=2e495cab-1af4-49bf-882c-5bdbd135a45e","ios":"levelo://app?vid=2e495cab-1af4-49bf-882c-5bdbd135a45e"},"vehicle_type_id":"4","last_reported":1687125939,"current_range_meters":10000,"station_id":"ce4bh0h2rcd13ifvqd50","pricing_plan_id":"free"},{"bike_id":"aa214c90-d559-4eac-ac6f-76763a7b6457","system_id":"levelo_inurba_marseille","lat":43.28701,"lon":5.37388,"is_reserved":false,"is_disabled":false,"rental_uris":{"android":"levelo://app?vid=aa214c90-d559-4eac-ac6f-76763a7b6457","ios":"levelo://app?vid=aa214c90-d559-4eac-ac6f-76763a7b6457"},"vehicle_type_id":"4","last_reported":1687125939,"current_range_meters":24800,"station_id":"ce4bh3p2rcd13ifvqdq0","pricing_plan_id":"free"},{"bike_id":"39664c94-05d8-4919-915c-46bdfce3a1dc","system_id":"levelo_inurba_marseille","lat":43.295196,"lon":5.39397,"is_reserved":false,"is_disabled":false,"rental_uris":{"android":"levelo://app?vid=39664c94-05d8-4919-915c-46bdfce3a1dc","ios":"levelo://app?vid=39664c94-05d8-4919-915c-46bdfce3a1dc"},"vehicle_type_id":"4","last_reported":1687125939,"current_range_meters":5600,"station_id":"ce4bh292rcd13ifvqdf0","pricing_plan_id":"free"},{"bike_id":"93679b84-4d79-4558-a1ee-f84205a8ea5f","system_id":"levelo_inurba_marseille","lat":43.28699,"lon":5.37382,"is_reserved":false,"is_disabled":false,"rental_uris":{"android":"levelo://app?vid=93679b84-4d79-4558-a1ee-f84205a8ea5f","ios":"levelo://app?vid=93679b84-4d79-4558-a1ee-f84205a8ea5f"},"vehicle_type_id":"4","last_reported":1687125939,"current_range_meters":28000,"station_id":"ce4bh3p2rcd13ifvqdq0","pricing_plan_id":"free"},{"bike_id":"2836a377-c092-4a53-88be-7a880ae7d14d","system_id":"levelo_inurba_marseille","lat":43.295196,"lon":5.39397,"is_reserved":false,"is_disabled":false,"rental_uris":{"android":"levelo://app?vid=2836a377-c092-4a53-88be-7a880ae7d14d","ios":"levelo://app?vid=2836a377-c092-4a53-88be-7a880ae7d14d"},"vehicle_type_id":"4","last_reported":1687125939,"current_range_meters":0,"station_id":"ce4bh292rcd13ifvqdf0","pricing_plan_id":"free"},{"bike_id":"6419555d-a5fa-4e58-8ffc-653801ae2719","system_id":"levelo_inurba_marseille","lat":43.28698,"lon":5.37398,"is_reserved":false,"is_disabled":false,"rental_uris":{"android":"levelo://app?vid=6419555d-a5fa-4e58-8ffc-653801ae2719","ios":"levelo://app?vid=6419555d-a5fa-4e58-8ffc-653801ae2719"},"vehicle_type_id":"4","last_reported":1687125939,"current_range_meters":4800,"station_id":"ce4bh3p2rcd13ifvqdq0","pricing_plan_id":"free"},{"bike_id":"b1ec9fc6-3537-4ac5-89f4-7f17f371f056","system_id":"levelo_inurba_marseille","lat":43.28695,"lon":5.37382,"is_reserved":false,"is_disabled":false,"rental_uris":{"android":"levelo://app?vid=b1ec9fc6-3537-4ac5-89f4-7f17f371f056","ios":"levelo://app?vid=b1ec9fc6-3537-4ac5-89f4-7f17f371f056"},"vehicle_type_id":"4","last_reported":1687125939,"current_range_meters":25200,"station_id":"ce4bh3p2rcd13ifvqdq0","pricing_plan_id":"free"},{"bike_id":"4990af2e-1302-48a0-9b1b-f5ddaa6f1560","system_id":"levelo_inurba_marseille","lat":43.295196,"lon":5.39397,"is_reserved":false,"is_disabled":false,"rental_uris":{"android":"levelo://app?vid=4990af2e-1302-48a0-9b1b-f5ddaa6f1560","ios":"levelo://app?vid=4990af2e-1302-48a0-9b1b-f5ddaa6f1560"},"vehicle_type_id":"4","last_reported":1687125939,"current_range_meters":17600,"station_id":"ce4bh292rcd13ifvqdf0","pricing_plan_id":"free"},{"bike_id":"34b465e9-6ff7-4d1f-a26d-7b6e8511940b","system_id":"levelo_inurba_marseille","lat":43.302759,"lon":5.400793,"is_reserved":false,"is_disabled":false,"rental_uris":{"android":"levelo://app?vid=34b465e9-6ff7-4d1f-a26d-7b6e8511940b","ios":"levelo://app?vid=34b465e9-6ff7-4d1f-a26d-7b6e8511940b"},"vehicle_type_id":"4","last_reported":1687125939,"current_range_meters":9200,"station_id":"ce4bgvh2rcd13ifvqcs0","pricing_plan_id":"free"},{"bike_id":"180ba63a-5efa-4855-8d38-31ab3c721341","system_id":"levelo_inurba_marseille","lat":43.286039,"lon":5.370679,"is_reserved":false,"is_disabled":false,"rental_uris":{"android":"levelo://app?vid=180ba63a-5efa-4855-8d38-31ab3c721341","ios":"levelo://app?vid=180ba63a-5efa-4855-8d38-31ab3c721341"},"vehicle_type_id":"4","last_reported":1687125939,"current_range_meters":7600,"station_id":"ce4bht12rcd13ifvqi60","pricing_plan_id":"free"},{"bike_id":"c68f5399-aaf0-40e1-b636-b2672cdc9ea5","system_id":"levelo_inurba_marseille","lat":43.286039,"lon":5.370681,"is_reserved":false,"is_disabled":false,"rental_uris":{"android":"levelo://app?vid=c68f5399-aaf0-40e1-b636-b2672cdc9ea5","ios":"levelo://app?vid=c68f5399-aaf0-40e1-b636-b2672cdc9ea5"},"vehicle_type_id":"4","last_reported":1687125939,"current_range_meters":19200,"station_id":"ce4bht12rcd13ifvqi60","pricing_plan_id":"free"},{"bike_id":"a44d6401-70d0-4382-82af-b1b0b13b5beb","system_id":"levelo_inurba_marseille","lat":43.287185,"lon":5.379373,"is_reserved":false,"is_disabled":false,"rental_uris":{"android":"levelo://app?vid=a44d6401-70d0-4382-82af-b1b0b13b5beb","ios":"levelo://app?vid=a44d6401-70d0-4382-82af-b1b0b13b5beb"},"vehicle_type_id":"4","last_reported":1687125939,"current_range_meters":16000,"station_id":"ce4bh9p2rcd13ifvqec0","pricing_plan_id":"free"},{"bike_id":"b7e731f4-887b-46ed-ae73-86e7bcffbcb7","system_id":"levelo_inurba_marseille","lat":43.31645,"lon":5.40432,"is_reserved":false,"is_disabled":false,"rental_uris":{"android":"levelo://app?vid=b7e731f4-887b-46ed-ae73-86e7bcffbcb7","ios":"levelo://app?vid=b7e731f4-887b-46ed-ae73-86e7bcffbcb7"},"vehicle_type_id":"4","last_reported":1687125939,"current_range_meters":0,"station_id":"ce4bh012rcd13ifvqd00","pricing_plan_id":"free"},{"bike_id":"125b205e-fb1a-4fa4-b869-739ee7ab2002","system_id":"levelo_inurba_marseille","lat":43.316523,"lon":5.404367,"is_reserved":false,"is_disabled":false,"rental_uris":{"android":"levelo://app?vid=125b205e-fb1a-4fa4-b869-739ee7ab2002","ios":"levelo://app?vid=125b205e-fb1a-4fa4-b869-739ee7ab2002"},"vehicle_type_id":"4","last_reported":1687125939,"current_range_meters":17600,"station_id":"ce4bh012rcd13ifvqd00","pricing_plan_id":"free"},{"bike_id":"6ba32a33-7a5d-40f3-875b-a7bf01d4ea1a","system_id":"levelo_inurba_marseille","lat":43.316523,"lon":5.404367,"is_reserved":false,"is_disabled":false,"rental_uris":{"android":"levelo://app?vid=6ba32a33-7a5d-40f3-875b-a7bf01d4ea1a","ios":"levelo://app?vid=6ba32a33-7a5d-40f3-875b-a7bf01d4ea1a"},"vehicle_type_id":"4","last_reported":1687125939,"current_range_meters":0,"station_id":"ce4bh012rcd13ifvqd00","pricing_plan_id":"free"},{"bike_id":"e0a63683-8694-4db9-82de-94a64980e610","system_id":"levelo_inurba_marseille","lat":43.316517,"lon":5.404375,"is_reserved":false,"is_disabled":false,"rental_uris":{"android":"levelo://app?vid=e0a63683-8694-4db9-82de-94a64980e610","ios":"levelo://app?vid=e0a63683-8694-4db9-82de-94a64980e610"},"vehicle_type_id":"4","last_reported":1687125939,"current_range_meters":24000,"station_id":"ce4bh012rcd13ifvqd00","pricing_plan_id":"free"},{"bike_id":"febe90af-2f0f-4951-9847-9156667fb275","system_id":"levelo_inurba_marseille","lat":43.316523,"lon":5.404367,"is_reserved":false,"is_disabled":false,"rental_uris":{"android":"levelo://app?vid=febe90af-2f0f-4951-9847-9156667fb275","ios":"levelo://app?vid=febe90af-2f0f-4951-9847-9156667fb275"},"vehicle_type_id":"4","last_reported":1687125939,"current_range_meters":8800,"station_id":"ce4bh012rcd13ifvqd00","pricing_plan_id":"free"},{"bike_id":"31e1f181-7b04-4e60-9c5f-09b84accd525","system_id":"levelo_inurba_marseille","lat":43.291994,"lon":5.392907,"is_reserved":false,"is_disabled":false,"rental_uris":{"android":"levelo://app?vid=31e1f181-7b04-4e60-9c5f-09b84accd525","ios":"levelo://app?vid=31e1f181-7b04-4e60-9c5f-09b84accd525"},"vehicle_type_id":"4","last_reported":1687125939,"current_range_meters":9600,"station_id":"ce4bh192rcd13ifvqdd0","pricing_plan_id":"free"},{"bike_id":"2b380462-1017-417a-94c4-86f5efe13d70","system_id":"levelo_inurba_marseille","lat":43.291994,"lon":5.392907,"is_reserved":false,"is_disabled":false,"rental_uris":{"android":"levelo://app?vid=2b380462-1017-417a-94c4-86f5efe13d70","ios":"levelo://app?vid=2b380462-1017-417a-94c4-86f5efe13d70"},"vehicle_type_id":"4","last_reported":1687125939,"current_range_meters":30400,"station_id":"ce4bh192rcd13ifvqdd0","pricing_plan_id":"free"},{"bike_id":"833e5453-5a0a-44eb-b0d9-239321b10938","system_id":"levelo_inurba_marseille","lat":43.291994,"lon":5.392907,"is_reserved":false,"is_disabled":false,"rental_uris":{"android":"levelo://app?vid=833e5453-5a0a-44eb-b0d9-239321b10938","ios":"levelo://app?vid=833e5453-5a0a-44eb-b0d9-239321b10938"},"vehicle_type_id":"4","last_reported":1687125939,"current_range_meters":14800,"station_id":"ce4bh192rcd13ifvqdd0","pricing_plan_id":"free"},{"bike_id":"1d9fb367-d523-4684-8fdb-34eb7234c36e","system_id":"levelo_inurba_marseille","lat":43.284534,"lon":5.358662,"is_reserved":false,"is_disabled":false,"rental_uris":{"android":"levelo://app?vid=1d9fb367-d523-4684-8fdb-34eb7234c36e","ios":"levelo://app?vid=1d9fb367-d523-4684-8fdb-34eb7234c36e"},"vehicle_type_id":"4","last_reported":1687125939,"current_range_meters":16800,"station_id":"ce4bhah2rcd13ifvqei0","pricing_plan_id":"free"},{"bike_id":"68a5f972-63ea-45b6-9d89-79381f0cf4d4","system_id":"levelo_inurba_marseille","lat":43.294314,"lon":5.397498,"is_reserved":false,"is_disabled":false,"rental_uris":{"android":"levelo://app?vid=68a5f972-63ea-45b6-9d89-79381f0cf4d4","ios":"levelo://app?vid=68a5f972-63ea-45b6-9d89-79381f0cf4d4"},"vehicle_type_id":"4","last_reported":1687125939,"current_range_meters":6800,"station_id":"ce4bh3h2rcd13ifvqdo0","pricing_plan_id":"free"},{"bike_id":"dd1774f0-ce1e-44f3-94ef-21ddb21305d6","system_id":"levelo_inurba_marseille","lat":43.284534,"lon":5.358662,"is_reserved":false,"is_disabled":false,"rental_uris":{"android":"levelo://app?vid=dd1774f0-ce1e-44f3-94ef-21ddb21305d6","ios":"levelo://app?vid=dd1774f0-ce1e-44f3-94ef-21ddb21305d6"},"vehicle_type_id":"4","last_reported":1687125939,"current_range_meters":6400,"station_id":"ce4bhah2rcd13ifvqei0","pricing_plan_id":"free"},{"bike_id":"cfb74004-faba-4031-b764-a6184595f83a","system_id":"levelo_inurba_marseille","lat":43.284534,"lon":5.358662,"is_reserved":false,"is_disabled":false,"rental_uris":{"android":"levelo://app?vid=cfb74004-faba-4031-b764-a6184595f83a","ios":"levelo://app?vid=cfb74004-faba-4031-b764-a6184595f83a"},"vehicle_type_id":"4","last_reported":1687125939,"current_range_meters":4000,"station_id":"ce4bhah2rcd13ifvqei0","pricing_plan_id":"free"},{"bike_id":"0c622936-96bc-4b82-b074-36b20e288107","system_id":"levelo_inurba_marseille","lat":43.2843,"lon":5.37512,"is_reserved":false,"is_disabled":false,"rental_uris":{"android":"levelo://app?vid=0c622936-96bc-4b82-b074-36b20e288107","ios":"levelo://app?vid=0c622936-96bc-4b82-b074-36b20e288107"},"vehicle_type_id":"4","last_reported":1687125939,"current_range_meters":14800,"station_id":"ce4bh412rcd13ifvqds0","pricing_plan_id":"free"},{"bike_id":"6b5fb0a4-aa5e-4150-a74f-308d01fab376","system_id":"levelo_inurba_marseille","lat":43.28416,"lon":5.37508,"is_reserved":false,"is_disabled":false,"rental_uris":{"android":"levelo://app?vid=6b5fb0a4-aa5e-4150-a74f-308d01fab376","ios":"levelo://app?vid=6b5fb0a4-aa5e-4150-a74f-308d01fab376"},"vehicle_type_id":"4","last_reported":1687125939,"current_range_meters":800,"station_id":"ce4bh412rcd13ifvqds0","pricing_plan_id":"free"},{"bike_id":"900c2ee5-77c3-4708-b22d-261e7771d140","system_id":"levelo_inurba_marseille","lat":43.283998,"lon":5.375062,"is_reserved":false,"is_disabled":false,"rental_uris":{"android":"levelo://app?vid=900c2ee5-77c3-4708-b22d-261e7771d140","ios":"levelo://app?vid=900c2ee5-77c3-4708-b22d-261e7771d140"},"vehicle_type_id":"4","last_reported":1687125939,"current_range_meters":31200,"station_id":"ce4bh412rcd13ifvqds0","pricing_plan_id":"free"},{"bike_id":"faf802b8-daaf-4e03-8d43-d803412aad68","system_id":"levelo_inurba_marseille","lat":43.284137,"lon":5.375082,"is_reserved":false,"is_disabled":false,"rental_uris":{"android":"levelo://app?vid=faf802b8-daaf-4e03-8d43-d803412aad68","ios":"levelo://app?vid=faf802b8-daaf-4e03-8d43-d803412aad68"},"vehicle_type_id":"4","last_reported":1687125939,"current_range_meters":31200,"station_id":"","pricing_plan_id":"free"},{"bike_id":"c9779eb0-84c2-4929-acc9-850cf75be219","system_id":"levelo_inurba_marseille","lat":43.28406,"lon":5.37515,"is_reserved":false,"is_disabled":false,"rental_uris":{"android":"levelo://app?vid=c9779eb0-84c2-4929-acc9-850cf75be219","ios":"levelo://app?vid=c9779eb0-84c2-4929-acc9-850cf75be219"},"vehicle_type_id":"4","last_reported":1687125939,"current_range_meters":31200,"station_id":"ce4bh412rcd13ifvqds0","pricing_plan_id":"free"},{"bike_id":"8f9842c2-e20a-4663-a715-2383f33838b8","system_id":"levelo_inurba_marseille","lat":43.295713,"lon":5.399639,"is_reserved":false,"is_disabled":false,"rental_uris":{"android":"levelo://app?vid=8f9842c2-e20a-4663-a715-2383f33838b8","ios":"levelo://app?vid=8f9842c2-e20a-4663-a715-2383f33838b8"},"vehicle_type_id":"4","last_reported":1687125939,"current_range_meters":16000,"station_id":"ce4bh312rcd13ifvqdj0","pricing_plan_id":"free"},{"bike_id":"233dd976-5b18-4db2-b3d8-382ef26f0c9d","system_id":"levelo_inurba_marseille","lat":43.295713,"lon":5.399639,"is_reserved":false,"is_disabled":false,"rental_uris":{"android":"levelo://app?vid=233dd976-5b18-4db2-b3d8-382ef26f0c9d","ios":"levelo://app?vid=233dd976-5b18-4db2-b3d8-382ef26f0c9d"},"vehicle_type_id":"4","last_reported":1687125939,"current_range_meters":24800,"station_id":"ce4bh312rcd13ifvqdj0","pricing_plan_id":"free"},{"bike_id":"51fe196b-eee7-4709-9f76-9cad9d6c698e","system_id":"levelo_inurba_marseille","lat":43.295713,"lon":5.399639,"is_reserved":false,"is_disabled":false,"rental_uris":{"android":"levelo://app?vid=51fe196b-eee7-4709-9f76-9cad9d6c698e","ios":"levelo://app?vid=51fe196b-eee7-4709-9f76-9cad9d6c698e"},"vehicle_type_id":"4","last_reported":1687125939,"current_range_meters":10000,"station_id":"ce4bh312rcd13ifvqdj0","pricing_plan_id":"free"},{"bike_id":"6b7bcbd7-2cb3-4a11-9578-73c730d58a27","system_id":"levelo_inurba_marseille","lat":43.286595,"lon":5.386795,"is_reserved":false,"is_disabled":false,"rental_uris":{"android":"levelo://app?vid=6b7bcbd7-2cb3-4a11-9578-73c730d58a27","ios":"levelo://app?vid=6b7bcbd7-2cb3-4a11-9578-73c730d58a27"},"vehicle_type_id":"4","last_reported":1687125939,"current_range_meters":8800,"station_id":"ce4bh492rcd13ifvqdug","pricing_plan_id":"free"},{"bike_id":"43275ef6-770c-4f0e-926c-1c3aecd7abec","system_id":"levelo_inurba_marseille","lat":43.287909,"lon":5.390554,"is_reserved":false,"is_disabled":false,"rental_uris":{"android":"levelo://app?vid=43275ef6-770c-4f0e-926c-1c3aecd7abec","ios":"levelo://app?vid=43275ef6-770c-4f0e-926c-1c3aecd7abec"},"vehicle_type_id":"4","last_reported":1687125939,"current_range_meters":11200,"station_id":"","pricing_plan_id":"free"},{"bike_id":"536b47a7-25f9-49cb-9608-1b3c49b68cf4","system_id":"levelo_inurba_marseille","lat":43.33725,"lon":5.39188,"is_reserved":false,"is_disabled":false,"rental_uris":{"android":"levelo://app?vid=536b47a7-25f9-49cb-9608-1b3c49b68cf4","ios":"levelo://app?vid=536b47a7-25f9-49cb-9608-1b3c49b68cf4"},"vehicle_type_id":"4","last_reported":1687125939,"current_range_meters":8400,"station_id":"","pricing_plan_id":"free"},{"bike_id":"842ce627-29e9-4ef7-9698-121cc4a7cae2","system_id":"levelo_inurba_marseille","lat":43.28484,"lon":5.3842,"is_reserved":false,"is_disabled":false,"rental_uris":{"android":"levelo://app?vid=842ce627-29e9-4ef7-9698-121cc4a7cae2","ios":"levelo://app?vid=842ce627-29e9-4ef7-9698-121cc4a7cae2"},"vehicle_type_id":"4","last_reported":1687125939,"current_range_meters":30000,"station_id":"ce4bh512rcd13ifvqe3g","pricing_plan_id":"free"},{"bike_id":"9423b56c-9ae4-481c-ac04-61ab98f623f1","system_id":"levelo_inurba_marseille","lat":43.288497,"lon":5.393089,"is_reserved":false,"is_disabled":false,"rental_uris":{"android":"levelo://app?vid=9423b56c-9ae4-481c-ac04-61ab98f623f1","ios":"levelo://app?vid=9423b56c-9ae4-481c-ac04-61ab98f623f1"},"vehicle_type_id":"4","last_reported":1687125939,"current_range_meters":28800,"station_id":"ce4bh2p2rcd13ifvqdi0","pricing_plan_id":"free"},{"bike_id":"00b4d942-d645-4a17-a320-9c02b5ecca68","system_id":"levelo_inurba_marseille","lat":43.288501,"lon":5.393087,"is_reserved":false,"is_disabled":false,"rental_uris":{"android":"levelo://app?vid=00b4d942-d645-4a17-a320-9c02b5ecca68","ios":"levelo://app?vid=00b4d942-d645-4a17-a320-9c02b5ecca68"},"vehicle_type_id":"4","last_reported":1687125939,"current_range_meters":20400,"station_id":"ce4bh2p2rcd13ifvqdi0","pricing_plan_id":"free"},{"bike_id":"5670449d-936f-49e4-89c4-657687e60d6d","system_id":"levelo_inurba_marseille","lat":43.288497,"lon":5.393089,"is_reserved":false,"is_disabled":false,"rental_uris":{"android":"levelo://app?vid=5670449d-936f-49e4-89c4-657687e60d6d","ios":"levelo://app?vid=5670449d-936f-49e4-89c4-657687e60d6d"},"vehicle_type_id":"4","last_reported":1687125939,"current_range_meters":27600,"station_id":"ce4bh2p2rcd13ifvqdi0","pricing_plan_id":"free"},{"bike_id":"a64e8a09-c4c0-40b5-b487-bd15f0cd6473","system_id":"levelo_inurba_marseille","lat":43.28351,"lon":5.381,"is_reserved":false,"is_disabled":false,"rental_uris":{"android":"levelo://app?vid=a64e8a09-c4c0-40b5-b487-bd15f0cd6473","ios":"levelo://app?vid=a64e8a09-c4c0-40b5-b487-bd15f0cd6473"},"vehicle_type_id":"4","last_reported":1687125939,"current_range_meters":31200,"station_id":"ce4bh412rcd13ifvqdr0","pricing_plan_id":"free"},{"bike_id":"acf82042-63ab-4173-8ab1-808087a15689","system_id":"levelo_inurba_marseille","lat":43.283498,"lon":5.380948,"is_reserved":false,"is_disabled":false,"rental_uris":{"android":"levelo://app?vid=acf82042-63ab-4173-8ab1-808087a15689","ios":"levelo://app?vid=acf82042-63ab-4173-8ab1-808087a15689"},"vehicle_type_id":"4","last_reported":1687125939,"current_range_meters":20400,"station_id":"ce4bh412rcd13ifvqdr0","pricing_plan_id":"free"},{"bike_id":"16e5fedd-6e86-436a-a0a2-72c7cd60a6ea","system_id":"levelo_inurba_marseille","lat":43.32177,"lon":5.40785,"is_reserved":false,"is_disabled":false,"rental_uris":{"android":"levelo://app?vid=16e5fedd-6e86-436a-a0a2-72c7cd60a6ea","ios":"levelo://app?vid=16e5fedd-6e86-436a-a0a2-72c7cd60a6ea"},"vehicle_type_id":"4","last_reported":1687125939,"current_range_meters":31200,"station_id":"","pricing_plan_id":"free"},{"bike_id":"ad123874-de9f-42f8-a886-4bb4f7ccaa29","system_id":"levelo_inurba_marseille","lat":43.289363,"lon":5.396322,"is_reserved":false,"is_disabled":false,"rental_uris":{"android":"levelo://app?vid=ad123874-de9f-42f8-a886-4bb4f7ccaa29","ios":"levelo://app?vid=ad123874-de9f-42f8-a886-4bb4f7ccaa29"},"vehicle_type_id":"4","last_reported":1687125939,"current_range_meters":8000,"station_id":"ce4bh3h2rcd13ifvqdn0","pricing_plan_id":"free"},{"bike_id":"5d5099b8-a9f2-4ef0-99c5-c9173c70a0d5","system_id":"levelo_inurba_marseille","lat":43.292724,"lon":5.401131,"is_reserved":false,"is_disabled":false,"rental_uris":{"android":"levelo://app?vid=5d5099b8-a9f2-4ef0-99c5-c9173c70a0d5","ios":"levelo://app?vid=5d5099b8-a9f2-4ef0-99c5-c9173c70a0d5"},"vehicle_type_id":"4","last_reported":1687125939,"current_range_meters":0,"station_id":"ce4bh312rcd13ifvqdk0","pricing_plan_id":"free"},{"bike_id":"dd47ca0b-b49c-4c0d-80b1-e07e8ff85d5b","system_id":"levelo_inurba_marseille","lat":43.29282,"lon":5.4012,"is_reserved":false,"is_disabled":false,"rental_uris":{"android":"levelo://app?vid=dd47ca0b-b49c-4c0d-80b1-e07e8ff85d5b","ios":"levelo://app?vid=dd47ca0b-b49c-4c0d-80b1-e07e8ff85d5b"},"vehicle_type_id":"4","last_reported":1687125939,"current_range_meters":30400,"station_id":"ce4bh312rcd13ifvqdk0","pricing_plan_id":"free"},{"bike_id":"2331a41b-854c-4e8b-9f42-2b8d1c8deb55","system_id":"levelo_inurba_marseille","lat":43.292724,"lon":5.401131,"is_reserved":false,"is_disabled":false,"rental_uris":{"android":"levelo://app?vid=2331a41b-854c-4e8b-9f42-2b8d1c8deb55","ios":"levelo://app?vid=2331a41b-854c-4e8b-9f42-2b8d1c8deb55"},"vehicle_type_id":"4","last_reported":1687125939,"current_range_meters":0,"station_id":"ce4bh312rcd13ifvqdk0","pricing_plan_id":"free"},{"bike_id":"5f84d6dd-78f0-4176-8a38-2ade92499db2","system_id":"levelo_inurba_marseille","lat":43.28274,"lon":5.35059,"is_reserved":false,"is_disabled":false,"rental_uris":{"android":"levelo://app?vid=5f84d6dd-78f0-4176-8a38-2ade92499db2","ios":"levelo://app?vid=5f84d6dd-78f0-4176-8a38-2ade92499db2"},"vehicle_type_id":"4","last_reported":1687125939,"current_range_meters":29200,"station_id":"ce4bhbp2rcd13ifvqerg","pricing_plan_id":"free"},{"bike_id":"aff9eaaf-e2a5-4a9b-803a-8af8b6c4403b","system_id":"levelo_inurba_marseille","lat":43.280382,"lon":5.369291,"is_reserved":false,"is_disabled":false,"rental_uris":{"android":"levelo://app?vid=aff9eaaf-e2a5-4a9b-803a-8af8b6c4403b","ios":"levelo://app?vid=aff9eaaf-e2a5-4a9b-803a-8af8b6c4403b"},"vehicle_type_id":"4","last_reported":1687125939,"current_range_meters":24400,"station_id":"ce4bha12rcd13ifvqef0","pricing_plan_id":"free"},{"bike_id":"da6e278f-38ce-4eef-b2d8-21eba0c6ebf8","system_id":"levelo_inurba_marseille","lat":43.283502,"lon":5.386471,"is_reserved":false,"is_disabled":false,"rental_uris":{"android":"levelo://app?vid=da6e278f-38ce-4eef-b2d8-21eba0c6ebf8","ios":"levelo://app?vid=da6e278f-38ce-4eef-b2d8-21eba0c6ebf8"},"vehicle_type_id":"4","last_reported":1687125939,"current_range_meters":400,"station_id":"ce4bh492rcd13ifvqdvg","pricing_plan_id":"free"},{"bike_id":"c05612fb-25e0-48b7-9b5b-c1bc0199dee9","system_id":"levelo_inurba_marseille","lat":43.283502,"lon":5.386471,"is_reserved":false,"is_disabled":false,"rental_uris":{"android":"levelo://app?vid=c05612fb-25e0-48b7-9b5b-c1bc0199dee9","ios":"levelo://app?vid=c05612fb-25e0-48b7-9b5b-c1bc0199dee9"},"vehicle_type_id":"4","last_reported":1687125939,"current_range_meters":12400,"station_id":"ce4bh492rcd13ifvqdvg","pricing_plan_id":"free"},{"bike_id":"46eb29ba-ab8d-492f-8f04-16415aa2c203","system_id":"levelo_inurba_marseille","lat":43.28042,"lon":5.36945,"is_reserved":false,"is_disabled":false,"rental_uris":{"android":"levelo://app?vid=46eb29ba-ab8d-492f-8f04-16415aa2c203","ios":"levelo://app?vid=46eb29ba-ab8d-492f-8f04-16415aa2c203"},"vehicle_type_id":"4","last_reported":1687125939,"current_range_meters":8000,"station_id":"ce4bha12rcd13ifvqef0","pricing_plan_id":"free"},{"bike_id":"ee9b49df-f706-4d08-984b-88ed1cb9f198","system_id":"levelo_inurba_marseille","lat":43.282744,"lon":5.350533,"is_reserved":false,"is_disabled":false,"rental_uris":{"android":"levelo://app?vid=ee9b49df-f706-4d08-984b-88ed1cb9f198","ios":"levelo://app?vid=ee9b49df-f706-4d08-984b-88ed1cb9f198"},"vehicle_type_id":"4","last_reported":1687125939,"current_range_meters":4000,"station_id":"ce4bhbp2rcd13ifvqerg","pricing_plan_id":"free"},{"bike_id":"e1009e4e-753a-487b-88f4-316a9b7a2c4e","system_id":"levelo_inurba_marseille","lat":43.282744,"lon":5.350533,"is_reserved":false,"is_disabled":false,"rental_uris":{"android":"levelo://app?vid=e1009e4e-753a-487b-88f4-316a9b7a2c4e","ios":"levelo://app?vid=e1009e4e-753a-487b-88f4-316a9b7a2c4e"},"vehicle_type_id":"4","last_reported":1687125939,"current_range_meters":26400,"station_id":"ce4bhbp2rcd13ifvqerg","pricing_plan_id":"free"},{"bike_id":"03021d50-aa72-4c57-b641-d2e93acbfba4","system_id":"levelo_inurba_marseille","lat":43.283502,"lon":5.386471,"is_reserved":false,"is_disabled":false,"rental_uris":{"android":"levelo://app?vid=03021d50-aa72-4c57-b641-d2e93acbfba4","ios":"levelo://app?vid=03021d50-aa72-4c57-b641-d2e93acbfba4"},"vehicle_type_id":"4","last_reported":1687125939,"current_range_meters":400,"station_id":"ce4bh492rcd13ifvqdvg","pricing_plan_id":"free"},{"bike_id":"c687310d-e148-4513-9168-1cb933f9b274","system_id":"levelo_inurba_marseille","lat":43.290412,"lon":5.399633,"is_reserved":false,"is_disabled":false,"rental_uris":{"android":"levelo://app?vid=c687310d-e148-4513-9168-1cb933f9b274","ios":"levelo://app?vid=c687310d-e148-4513-9168-1cb933f9b274"},"vehicle_type_id":"4","last_reported":1687125939,"current_range_meters":12800,"station_id":"ce4bh392rcd13ifvqdm0","pricing_plan_id":"free"},{"bike_id":"5e431da1-7ab4-4a1c-a20a-257bab74db4e","system_id":"levelo_inurba_marseille","lat":43.29038,"lon":5.39958,"is_reserved":false,"is_disabled":false,"rental_uris":{"android":"levelo://app?vid=5e431da1-7ab4-4a1c-a20a-257bab74db4e","ios":"levelo://app?vid=5e431da1-7ab4-4a1c-a20a-257bab74db4e"},"vehicle_type_id":"4","last_reported":1687125939,"current_range_meters":13600,"station_id":"ce4bh392rcd13ifvqdm0","pricing_plan_id":"free"},{"bike_id":"0efde5b2-515d-455b-8c08-9062c8639f64","system_id":"levelo_inurba_marseille","lat":43.281044,"lon":5.378308,"is_reserved":false,"is_disabled":false,"rental_uris":{"android":"levelo://app?vid=0efde5b2-515d-455b-8c08-9062c8639f64","ios":"levelo://app?vid=0efde5b2-515d-455b-8c08-9062c8639f64"},"vehicle_type_id":"4","last_reported":1687125939,"current_range_meters":19200,"station_id":"ce4bha12rcd13ifvqee0","pricing_plan_id":"free"},{"bike_id":"240560df-b133-4773-b53c-549ba0f1bfde","system_id":"levelo_inurba_marseille","lat":43.281044,"lon":5.378308,"is_reserved":false,"is_disabled":false,"rental_uris":{"android":"levelo://app?vid=240560df-b133-4773-b53c-549ba0f1bfde","ios":"levelo://app?vid=240560df-b133-4773-b53c-549ba0f1bfde"},"vehicle_type_id":"4","last_reported":1687125939,"current_range_meters":31200,"station_id":"ce4bha12rcd13ifvqee0","pricing_plan_id":"free"},{"bike_id":"a12d6d7f-87f5-4e69-a83e-efa3ae9b5da4","system_id":"levelo_inurba_marseille","lat":43.281044,"lon":5.378308,"is_reserved":false,"is_disabled":false,"rental_uris":{"android":"levelo://app?vid=a12d6d7f-87f5-4e69-a83e-efa3ae9b5da4","ios":"levelo://app?vid=a12d6d7f-87f5-4e69-a83e-efa3ae9b5da4"},"vehicle_type_id":"4","last_reported":1687125939,"current_range_meters":31200,"station_id":"ce4bha12rcd13ifvqee0","pricing_plan_id":"free"},{"bike_id":"efc89082-1077-4f17-b65d-07f75a78762c","system_id":"levelo_inurba_marseille","lat":43.281044,"lon":5.378308,"is_reserved":false,"is_disabled":false,"rental_uris":{"android":"levelo://app?vid=efc89082-1077-4f17-b65d-07f75a78762c","ios":"levelo://app?vid=efc89082-1077-4f17-b65d-07f75a78762c"},"vehicle_type_id":"4","last_reported":1687125939,"current_range_meters":31200,"station_id":"ce4bha12rcd13ifvqee0","pricing_plan_id":"free"},{"bike_id":"155d10a7-1330-4aa5-86d3-8629d9bbfe02","system_id":"levelo_inurba_marseille","lat":43.296263,"lon":5.40601,"is_reserved":false,"is_disabled":false,"rental_uris":{"android":"levelo://app?vid=155d10a7-1330-4aa5-86d3-8629d9bbfe02","ios":"levelo://app?vid=155d10a7-1330-4aa5-86d3-8629d9bbfe02"},"vehicle_type_id":"4","last_reported":1687125939,"current_range_meters":13600,"station_id":"ce4bh0h2rcd13ifvqd60","pricing_plan_id":"free"},{"bike_id":"ad457d59-bf5d-435f-83ee-342538b32940","system_id":"levelo_inurba_marseille","lat":43.28104,"lon":5.37835,"is_reserved":false,"is_disabled":false,"rental_uris":{"android":"levelo://app?vid=ad457d59-bf5d-435f-83ee-342538b32940","ios":"levelo://app?vid=ad457d59-bf5d-435f-83ee-342538b32940"},"vehicle_type_id":"4","last_reported":1687125939,"current_range_meters":31200,"station_id":"ce4bha12rcd13ifvqee0","pricing_plan_id":"free"},{"bike_id":"8b02f778-a793-474d-bcbc-44e6010399ab","system_id":"levelo_inurba_marseille","lat":43.281044,"lon":5.378308,"is_reserved":false,"is_disabled":false,"rental_uris":{"android":"levelo://app?vid=8b02f778-a793-474d-bcbc-44e6010399ab","ios":"levelo://app?vid=8b02f778-a793-474d-bcbc-44e6010399ab"},"vehicle_type_id":"4","last_reported":1687125939,"current_range_meters":7200,"station_id":"ce4bha12rcd13ifvqee0","pricing_plan_id":"free"},{"bike_id":"d5b80876-96c8-4763-9afb-30e0c652831f","system_id":"levelo_inurba_marseille","lat":43.28101,"lon":5.37842,"is_reserved":false,"is_disabled":false,"rental_uris":{"android":"levelo://app?vid=d5b80876-96c8-4763-9afb-30e0c652831f","ios":"levelo://app?vid=d5b80876-96c8-4763-9afb-30e0c652831f"},"vehicle_type_id":"4","last_reported":1687125939,"current_range_meters":31200,"station_id":"ce4bha12rcd13ifvqee0","pricing_plan_id":"free"},{"bike_id":"cd0de0fb-fa7a-4798-a359-6f95a0666225","system_id":"levelo_inurba_marseille","lat":43.28097,"lon":5.37844,"is_reserved":false,"is_disabled":false,"rental_uris":{"android":"levelo://app?vid=cd0de0fb-fa7a-4798-a359-6f95a0666225","ios":"levelo://app?vid=cd0de0fb-fa7a-4798-a359-6f95a0666225"},"vehicle_type_id":"4","last_reported":1687125939,"current_range_meters":24800,"station_id":"ce4bha12rcd13ifvqee0","pricing_plan_id":"free"},{"bike_id":"d1af20b0-5ca2-4af0-a0c3-1876aedb7ac4","system_id":"levelo_inurba_marseille","lat":43.284462,"lon":5.392121,"is_reserved":false,"is_disabled":false,"rental_uris":{"android":"levelo://app?vid=d1af20b0-5ca2-4af0-a0c3-1876aedb7ac4","ios":"levelo://app?vid=d1af20b0-5ca2-4af0-a0c3-1876aedb7ac4"},"vehicle_type_id":"4","last_reported":1687125939,"current_range_meters":12800,"station_id":"ce4bhoh2rcd13ifvqh5g","pricing_plan_id":"free"},{"bike_id":"ab8a92d9-970a-4c38-a016-66c83ae95fab","system_id":"levelo_inurba_marseille","lat":43.284462,"lon":5.392121,"is_reserved":false,"is_disabled":false,"rental_uris":{"android":"levelo://app?vid=ab8a92d9-970a-4c38-a016-66c83ae95fab","ios":"levelo://app?vid=ab8a92d9-970a-4c38-a016-66c83ae95fab"},"vehicle_type_id":"4","last_reported":1687125939,"current_range_meters":16800,"station_id":"ce4bhoh2rcd13ifvqh5g","pricing_plan_id":"free"},{"bike_id":"3bc9c48e-c1cd-405d-8d86-8dbd862daff0","system_id":"levelo_inurba_marseille","lat":43.284462,"lon":5.392121,"is_reserved":false,"is_disabled":false,"rental_uris":{"android":"levelo://app?vid=3bc9c48e-c1cd-405d-8d86-8dbd862daff0","ios":"levelo://app?vid=3bc9c48e-c1cd-405d-8d86-8dbd862daff0"},"vehicle_type_id":"4","last_reported":1687125939,"current_range_meters":24800,"station_id":"ce4bhoh2rcd13ifvqh5g","pricing_plan_id":"free"},{"bike_id":"757aab88-ff0d-4c5d-a7ff-f40064d8230f","system_id":"levelo_inurba_marseille","lat":43.284462,"lon":5.392121,"is_reserved":false,"is_disabled":false,"rental_uris":{"android":"levelo://app?vid=757aab88-ff0d-4c5d-a7ff-f40064d8230f","ios":"levelo://app?vid=757aab88-ff0d-4c5d-a7ff-f40064d8230f"},"vehicle_type_id":"4","last_reported":1687125939,"current_range_meters":12000,"station_id":"ce4bhoh2rcd13ifvqh5g","pricing_plan_id":"free"},{"bike_id":"d5f50fab-c603-43a1-a119-2b2f0dc9e030","system_id":"levelo_inurba_marseille","lat":43.28573,"lon":5.394992,"is_reserved":false,"is_disabled":false,"rental_uris":{"android":"levelo://app?vid=d5f50fab-c603-43a1-a119-2b2f0dc9e030","ios":"levelo://app?vid=d5f50fab-c603-43a1-a119-2b2f0dc9e030"},"vehicle_type_id":"4","last_reported":1687125939,"current_range_meters":27200,"station_id":"ce4bh292rcd13ifvqdg0","pricing_plan_id":"free"},{"bike_id":"3321b24f-2c43-48aa-bdbf-f2b426c593a4","system_id":"levelo_inurba_marseille","lat":43.28576,"lon":5.39496,"is_reserved":false,"is_disabled":false,"rental_uris":{"android":"levelo://app?vid=3321b24f-2c43-48aa-bdbf-f2b426c593a4","ios":"levelo://app?vid=3321b24f-2c43-48aa-bdbf-f2b426c593a4"},"vehicle_type_id":"4","last_reported":1687125939,"current_range_meters":6800,"station_id":"ce4bh292rcd13ifvqdg0","pricing_plan_id":"free"},{"bike_id":"d2b3ecfe-0ae3-4066-b081-e363446d152c","system_id":"levelo_inurba_marseille","lat":43.28573,"lon":5.394992,"is_reserved":false,"is_disabled":false,"rental_uris":{"android":"levelo://app?vid=d2b3ecfe-0ae3-4066-b081-e363446d152c","ios":"levelo://app?vid=d2b3ecfe-0ae3-4066-b081-e363446d152c"},"vehicle_type_id":"4","last_reported":1687125939,"current_range_meters":31200,"station_id":"ce4bh292rcd13ifvqdg0","pricing_plan_id":"free"},{"bike_id":"d852f400-3f6d-410c-b0a0-e8cefa552d0b","system_id":"levelo_inurba_marseille","lat":43.28573,"lon":5.39492,"is_reserved":false,"is_disabled":false,"rental_uris":{"android":"levelo://app?vid=d852f400-3f6d-410c-b0a0-e8cefa552d0b","ios":"levelo://app?vid=d852f400-3f6d-410c-b0a0-e8cefa552d0b"},"vehicle_type_id":"4","last_reported":1687125939,"current_range_meters":7600,"station_id":"","pricing_plan_id":"free"},{"bike_id":"e7607c34-2658-48c5-8894-429c92362894","system_id":"levelo_inurba_marseille","lat":43.285742,"lon":5.395004,"is_reserved":false,"is_disabled":false,"rental_uris":{"android":"levelo://app?vid=e7607c34-2658-48c5-8894-429c92362894","ios":"levelo://app?vid=e7607c34-2658-48c5-8894-429c92362894"},"vehicle_type_id":"4","last_reported":1687125939,"current_range_meters":12800,"station_id":"ce4bh292rcd13ifvqdg0","pricing_plan_id":"free"},{"bike_id":"16c55b7c-4f29-4544-ba25-3608e1edf6fa","system_id":"levelo_inurba_marseille","lat":43.304188,"lon":5.412904,"is_reserved":false,"is_disabled":false,"rental_uris":{"android":"levelo://app?vid=16c55b7c-4f29-4544-ba25-3608e1edf6fa","ios":"levelo://app?vid=16c55b7c-4f29-4544-ba25-3608e1edf6fa"},"vehicle_type_id":"4","last_reported":1687125939,"current_range_meters":26000,"station_id":"ce4bhop2rcd13ifvqh8g","pricing_plan_id":"free"},{"bike_id":"9cb0657b-81d4-4c3b-85ec-28145a7da63d","system_id":"levelo_inurba_marseille","lat":43.27906,"lon":5.3801,"is_reserved":false,"is_disabled":false,"rental_uris":{"android":"levelo://app?vid=9cb0657b-81d4-4c3b-85ec-28145a7da63d","ios":"levelo://app?vid=9cb0657b-81d4-4c3b-85ec-28145a7da63d"},"vehicle_type_id":"4","last_reported":1687125939,"current_range_meters":30000,"station_id":"","pricing_plan_id":"free"},{"bike_id":"fb3ac01e-b290-4c3b-9c9d-8143d28fbf9f","system_id":"levelo_inurba_marseille","lat":43.287154,"lon":5.399979,"is_reserved":false,"is_disabled":false,"rental_uris":{"android":"levelo://app?vid=fb3ac01e-b290-4c3b-9c9d-8143d28fbf9f","ios":"levelo://app?vid=fb3ac01e-b290-4c3b-9c9d-8143d28fbf9f"},"vehicle_type_id":"4","last_reported":1687125939,"current_range_meters":28800,"station_id":"ce4bho92rcd13ifvqh3g","pricing_plan_id":"free"},{"bike_id":"c46f2cfc-3b2b-45a0-b8d8-1ca12a55d16f","system_id":"levelo_inurba_marseille","lat":43.287154,"lon":5.399979,"is_reserved":false,"is_disabled":false,"rental_uris":{"android":"levelo://app?vid=c46f2cfc-3b2b-45a0-b8d8-1ca12a55d16f","ios":"levelo://app?vid=c46f2cfc-3b2b-45a0-b8d8-1ca12a55d16f"},"vehicle_type_id":"4","last_reported":1687125939,"current_range_meters":13600,"station_id":"ce4bho92rcd13ifvqh3g","pricing_plan_id":"free"},{"bike_id":"14df0036-a422-4f95-a657-a20feb40df18","system_id":"levelo_inurba_marseille","lat":43.287154,"lon":5.399979,"is_reserved":false,"is_disabled":false,"rental_uris":{"android":"levelo://app?vid=14df0036-a422-4f95-a657-a20feb40df18","ios":"levelo://app?vid=14df0036-a422-4f95-a657-a20feb40df18"},"vehicle_type_id":"4","last_reported":1687125939,"current_range_meters":10800,"station_id":"ce4bho92rcd13ifvqh3g","pricing_plan_id":"free"},{"bike_id":"c7b75931-59d5-4b7f-ab10-0154f41209a4","system_id":"levelo_inurba_marseille","lat":43.28706,"lon":5.39985,"is_reserved":false,"is_disabled":false,"rental_uris":{"android":"levelo://app?vid=c7b75931-59d5-4b7f-ab10-0154f41209a4","ios":"levelo://app?vid=c7b75931-59d5-4b7f-ab10-0154f41209a4"},