{"last_updated":1748023994,"ttl":60,"version":"2.2","data":{"bikes":[{"bike_id":"c0b9fd4f-e181-46ce-b0bf-f5119973334f","system_id":"levelo_inurba_marseille","lat":43.33771,"lon":5.37424,"is_reserved":false,"is_disabled":true,"rental_uris":{"android":"levelo://app?vid=c0b9fd4f-e181-46ce-b0bf-f5119973334f","ios":"levelo://app?vid=c0b9fd4f-e181-46ce-b0bf-f5119973334f"},"vehicle_type_id":"4","last_reported":1748023994,"current_range_meters":0,"station_id":"","pricing_plan_id":"cebpf4jnsgd1na2vs0mg"},{"bike_id":"d4150556-b601-4cc0-b77e-49c2d38938cf","system_id":"levelo_inurba_marseille","lat":43.288605,"lon":5.45511,"is_reserved":false,"is_disabled":true,"rental_uris":{"android":"levelo://app?vid=d4150556-b601-4cc0-b77e-49c2d38938cf","ios":"levelo://app?vid=d4150556-b601-4cc0-b77e-49c2d38938cf"},"vehicle_type_id":"4","last_reported":1748023994,"current_range_meters":0,"station_id":"","pricing_plan_id":"cebpf4jnsgd1na2vs0mg"},{"bike_id":"e8162579-a5ad-485f-ad83-fec8a2ebe7e1","system_id":"levelo_inurba_marseille","lat":43.26801,"lon":5.39166,"is_reserved":false,"is_disabled":true,"rental_uris":{"android":"levelo://app?vid=e8162579-a5ad-485f-ad83-fec8a2ebe7e1","ios":"levelo://app?vid=e8162579-a5ad-485f-ad83-fec8a2ebe7e1"},"vehicle_type_id":"4","last_reported":1748023994,"current_range_meters":0,"station_id":"","pricing_plan_id":"cebpf4jnsgd1na2vs0mg"},{"bike_id":"100cc0c6-a769-4671-8fc4-915d1c9ddbe0","system_id":"levelo_inurba_marseille","lat":43.27384,"lon":5.39083,"is_reserved":false,"is_disabled":true,"rental_uris":{"android":"levelo://app?vid=100cc0c6-a769-4671-8fc4-915d1c9ddbe0","ios":"levelo://app?vid=100cc0c6-a769-4671-8fc4-915d1c9ddbe0"},"vehicle_type_id":"4","last_reported":1748023994,"current_range_meters":0,"station_id":"","pricing_plan_id":"cebpf4jnsgd1na2vs0mg"},{"bike_id":"0f6a4443-323a-4dd0-af8a-e0ff958d0dfa","system_id":"levelo_inurba_marseille","lat":43.32567,"lon":5.36412,"is_reserved":false,"is_disabled":true,"rental_uris":{"android":"levelo://app?vid=0f6a4443-323a-4dd0-af8a-e0ff958d0dfa","ios":"levelo://app?vid=0f6a4443-323a-4dd0-af8a-e0ff958d0dfa"},"vehicle_type_id":"4","last_reported":1748023994,"current_range_meters":0,"station_id":"","pricing_plan_id":"cebpf4jnsgd1na2vs0mg"},{"bike_id":"c4b55004-c014-4bfa-a092-f7c7649b87ca","system_id":"levelo_inurba_marseille","lat":43.2629,"lon":5.39297,"is_reserved":false,"is_disabled":true,"rental_uris":{"android":"levelo://app?vid=c4b55004-c014-4bfa-a092-f7c7649b87ca","ios":"levelo://app?vid=c4b55004-c014-4bfa-a092-f7c7649b87ca"},"vehicle_type_id":"4","last_reported":1748023994,"current_range_meters":0,"station_id":"","pricing_plan_id":"cebpf4jnsgd1na2vs0mg"},{"bike_id":"a9d86a3e-ff61-4b3c-b1d6-cb137b96f17c","system_id":"levelo_inurba_marseille","lat":43.28917,"lon":5.43051,"is_reserved":false,"is_disabled":true,"rental_uris":{"android":"levelo://app?vid=a9d86a3e-ff61-4b3c-b1d6-cb137b96f17c","ios":"levelo://app?vid=a9d86a3e-ff61-4b3c-b1d6-cb137b96f17c"},"vehicle_type_id":"4","last_reported":1748023994,"current_range_meters":0,"station_id":"","pricing_plan_id":"cebpf4jnsgd1na2vs0mg"},{"bike_id":"15dcdbbd-a41e-43eb-9ed6-26ec15ce7a50","system_id":"levelo_inurba_marseille","lat":43.21414,"lon":5.34119,"is_reserved":false,"is_disabled":true,"rental_uris":{"android":"levelo://app?vid=15dcdbbd-a41e-43eb-9ed6-26ec15ce7a50","ios":"levelo://app?vid=15dcdbbd-a41e-43eb-9ed6-26ec15ce7a50"},"vehicle_type_id":"4","last_reported":1748023994,"current_range_meters":0,"station_id":"","pricing_plan_id":"cebpf4jnsgd1na2vs0mg"},{"bike_id":"d5556f10-9fe8-4eda-adea-5894176576cd","system_id":"levelo_inurba_marseille","lat":43.27212,"lon":5.3908,"is_reserved":false,"is_disabled":true,"rental_uris":{"android":"levelo://app?vid=d5556f10-9fe8-4eda-adea-5894176576cd","ios":"levelo://app?vid=d5556f10-9fe8-4eda-adea-5894176576cd"},"vehicle_type_id":"4","last_reported":1748023994,"current_range_meters":0,"station_id":"","pricing_plan_id":"cebpf4jnsgd1na2vs0mg"},{"bike_id":"e9dd3aa4-b5e7-4480-926d-d7f537719bfa","system_id":"levelo_inurba_marseille","lat":43.230331,"lon":5.401847,"is_reserved":false,"is_disabled":true,"rental_uris":{"android":"levelo://app?vid=e9dd3aa4-b5e7-4480-926d-d7f537719bfa","ios":"levelo://app?vid=e9dd3aa4-b5e7-4480-926d-d7f537719bfa"},"vehicle_type_id":"4","last_reported":1748023994,"current_range_meters":0,"station_id":"","pricing_plan_id":"cebpf4jnsgd1na2vs0mg"},{"bike_id":"721917e8-959c-4f91-8571-a6c33ab7fe31","system_id":"levelo_inurba_marseille","lat":43.30797,"lon":5.38143,"is_reserved":false,"is_disabled":true,"rental_uris":{"android":"levelo://app?vid=721917e8-959c-4f91-8571-a6c33ab7fe31","ios":"levelo://app?vid=721917e8-959c-4f91-8571-a6c33ab7fe31"},"vehicle_type_id":"4","last_reported":1748023994,"current_range_meters":0,"station_id":"ce4bgt12rcd13ifvqce0","pricing_plan_id":"cebpf4jnsgd1na2vs0mg"},{"bike_id":"8550f758-3449-46e4-b806-5a73d101b3b5","system_id":"levelo_inurba_marseille","lat":43.31703,"lon":5.37765,"is_reserved":false,"is_disabled":true,"rental_uris":{"android":"levelo://app?vid=8550f758-3449-46e4-b806-5a73d101b3b5","ios":"levelo://app?vid=8550f758-3449-46e4-b806-5a73d101b3b5"},"vehicle_type_id":"4","last_reported":1748023994,"current_range_meters":0,"station_id":"ce4bgth2rcd13ifvqch0","pricing_plan_id":"cebpf4jnsgd1na2vs0mg"},{"bike_id":"86b9650f-c73c-47a1-8ae0-bcd1247fa8eb","system_id":"levelo_inurba_marseille","lat":43.30634,"lon":5.37389,"is_reserved":false,"is_disabled":true,"rental_uris":{"android":"levelo://app?vid=86b9650f-c73c-47a1-8ae0-bcd1247fa8eb","ios":"levelo://app?vid=86b9650f-c73c-47a1-8ae0-bcd1247fa8eb"},"vehicle_type_id":"4","last_reported":1748023994,"current_range_meters":0,"station_id":"ce4bgv92rcd13ifvqcq0","pricing_plan_id":"cebpf4jnsgd1na2vs0mg"},{"bike_id":"16fc555e-44fe-4734-8cbd-01b7dc8cd3e3","system_id":"levelo_inurba_marseille","lat":43.31718,"lon":5.40444,"is_reserved":false,"is_disabled":true,"rental_uris":{"android":"levelo://app?vid=16fc555e-44fe-4734-8cbd-01b7dc8cd3e3","ios":"levelo://app?vid=16fc555e-44fe-4734-8cbd-01b7dc8cd3e3"},"vehicle_type_id":"4","last_reported":1748023994,"current_range_meters":0,"station_id":"ce4bh012rcd13ifvqd00","pricing_plan_id":"cebpf4jnsgd1na2vs0mg"},{"bike_id":"eda098e2-ebea-488f-99cc-a515e093d730","system_id":"levelo_inurba_marseille","lat":43.30142,"lon":5.39838,"is_reserved":false,"is_disabled":true,"rental_uris":{"android":"levelo://app?vid=eda098e2-ebea-488f-99cc-a515e093d730","ios":"levelo://app?vid=eda098e2-ebea-488f-99cc-a515e093d730"},"vehicle_type_id":"4","last_reported":1748023994,"current_range_meters":0,"station_id":"ce4bh0h2rcd13ifvqd40","pricing_plan_id":"cebpf4jnsgd1na2vs0mg"},{"bike_id":"970f32de-d505-462c-8215-b9921526db5b","system_id":"levelo_inurba_marseille","lat":43.29001,"lon":5.35614,"is_reserved":false,"is_disabled":true,"rental_uris":{"android":"levelo://app?vid=970f32de-d505-462c-8215-b9921526db5b","ios":"levelo://app?vid=970f32de-d505-462c-8215-b9921526db5b"},"vehicle_type_id":"4","last_reported":1748023994,"current_range_meters":0,"station_id":"ce4bhb92rcd13ifvqen0","pricing_plan_id":"cebpf4jnsgd1na2vs0mg"},{"bike_id":"07d27aae-2d49-4586-8b0e-bf75b2df7e01","system_id":"levelo_inurba_marseille","lat":43.286187,"lon":5.351055,"is_reserved":false,"is_disabled":true,"rental_uris":{"android":"levelo://app?vid=07d27aae-2d49-4586-8b0e-bf75b2df7e01","ios":"levelo://app?vid=07d27aae-2d49-4586-8b0e-bf75b2df7e01"},"vehicle_type_id":"4","last_reported":1748023994,"current_range_meters":0,"station_id":"ce4bhch2rcd13ifvqeug","pricing_plan_id":"cebpf4jnsgd1na2vs0mg"},{"bike_id":"b2b1f7e5-9643-43dc-8567-37da359cab34","system_id":"levelo_inurba_marseille","lat":43.27911,"lon":5.39585,"is_reserved":false,"is_disabled":true,"rental_uris":{"android":"levelo://app?vid=b2b1f7e5-9643-43dc-8567-37da359cab34","ios":"levelo://app?vid=b2b1f7e5-9643-43dc-8567-37da359cab34"},"vehicle_type_id":"4","last_reported":1748023994,"current_range_meters":0,"station_id":"ce4bhf92rcd13ifvqf40","pricing_plan_id":"cebpf4jnsgd1na2vs0mg"},{"bike_id":"32c0a92c-ef27-4c4d-8f24-e0106542916e","system_id":"levelo_inurba_marseille","lat":43.2735,"lon":5.39074,"is_reserved":false,"is_disabled":true,"rental_uris":{"android":"levelo://app?vid=32c0a92c-ef27-4c4d-8f24-e0106542916e","ios":"levelo://app?vid=32c0a92c-ef27-4c4d-8f24-e0106542916e"},"vehicle_type_id":"4","last_reported":1748023994,"current_range_meters":0,"station_id":"ce4bhgp2rcd13ifvqfe0","pricing_plan_id":"cebpf4jnsgd1na2vs0mg"},{"bike_id":"928b336a-f78e-4d9d-8c1e-ca36e2f0f47d","system_id":"levelo_inurba_marseille","lat":43.26789,"lon":5.39411,"is_reserved":false,"is_disabled":true,"rental_uris":{"android":"levelo://app?vid=928b336a-f78e-4d9d-8c1e-ca36e2f0f47d","ios":"levelo://app?vid=928b336a-f78e-4d9d-8c1e-ca36e2f0f47d"},"vehicle_type_id":"4","last_reported":1748023994,"current_range_meters":0,"station_id":"ce4bhh12rcd13ifvqfg0","pricing_plan_id":"cebpf4jnsgd1na2vs0mg"},{"bike_id":"7ac0b219-c152-4eb3-b925-f5ed7c5a9411","system_id":"levelo_inurba_marseille","lat":43.26059,"lon":5.39398,"is_reserved":false,"is_disabled":true,"rental_uris":{"android":"levelo://app?vid=7ac0b219-c152-4eb3-b925-f5ed7c5a9411","ios":"levelo://app?vid=7ac0b219-c152-4eb3-b925-f5ed7c5a9411"},"vehicle_type_id":"4","last_reported":1748023994,"current_range_meters":0,"station_id":"ce4bhh92rcd13ifvqfj0","pricing_plan_id":"cebpf4jnsgd1na2vs0mg"},{"bike_id":"8e0bd30d-55cd-44b6-ab77-c2c7900a65f0","system_id":"levelo_inurba_marseille","lat":43.2722,"lon":5.39148,"is_reserved":false,"is_disabled":true,"rental_uris":{"android":"levelo://app?vid=8e0bd30d-55cd-44b6-ab77-c2c7900a65f0","ios":"levelo://app?vid=8e0bd30d-55cd-44b6-ab77-c2c7900a65f0"},"vehicle_type_id":"4","last_reported":1748023994,"current_range_meters":0,"station_id":"ce4bhhp2rcd13ifvqfm0","pricing_plan_id":"cebpf4jnsgd1na2vs0mg"},{"bike_id":"4b81e971-e774-4c57-8b2d-9dc884fc33bb","system_id":"levelo_inurba_marseille","lat":43.2783,"lon":5.39211,"is_reserved":false,"is_disabled":true,"rental_uris":{"android":"levelo://app?vid=4b81e971-e774-4c57-8b2d-9dc884fc33bb","ios":"levelo://app?vid=4b81e971-e774-4c57-8b2d-9dc884fc33bb"},"vehicle_type_id":"4","last_reported":1748023994,"current_range_meters":0,"station_id":"ce4bhjp2rcd13ifvqga0","pricing_plan_id":"cebpf4jnsgd1na2vs0mg"},{"bike_id":"bdfe31a2-4f89-49e7-a036-c566f08fc011","system_id":"levelo_inurba_marseille","lat":43.27056,"lon":5.40257,"is_reserved":false,"is_disabled":true,"rental_uris":{"android":"levelo://app?vid=bdfe31a2-4f89-49e7-a036-c566f08fc011","ios":"levelo://app?vid=bdfe31a2-4f89-49e7-a036-c566f08fc011"},"vehicle_type_id":"4","last_reported":1748023994,"current_range_meters":0,"station_id":"ce4bhk92rcd13ifvqgc0","pricing_plan_id":"cebpf4jnsgd1na2vs0mg"},{"bike_id":"07992a9a-dcdc-4465-ad99-11d920fc2de7","system_id":"levelo_inurba_marseille","lat":43.25727,"lon":5.41108,"is_reserved":false,"is_disabled":true,"rental_uris":{"android":"levelo://app?vid=07992a9a-dcdc-4465-ad99-11d920fc2de7","ios":"levelo://app?vid=07992a9a-dcdc-4465-ad99-11d920fc2de7"},"vehicle_type_id":"4","last_reported":1748023994,"current_range_meters":0,"station_id":"ce4bhkp2rcd13ifvqgd0","pricing_plan_id":"cebpf4jnsgd1na2vs0mg"},{"bike_id":"c88cd536-5384-4654-9fc9-07ecdadb95d6","system_id":"levelo_inurba_marseille","lat":43.28138,"lon":5.42629,"is_reserved":false,"is_disabled":true,"rental_uris":{"android":"levelo://app?vid=c88cd536-5384-4654-9fc9-07ecdadb95d6","ios":"levelo://app?vid=c88cd536-5384-4654-9fc9-07ecdadb95d6"},"vehicle_type_id":"4","last_reported":1748023994,"current_range_meters":0,"station_id":"ce4bhnh2rcd13ifvqgug","pricing_plan_id":"cebpf4jnsgd1na2vs0mg"},{"bike_id":"fed22d71-0a64-45c8-97c1-5a4ced8f0302","system_id":"levelo_inurba_marseille","lat":43.217536,"lon":5.346053,"is_reserved":false,"is_disabled":true,"rental_uris":{"android":"levelo://app?vid=fed22d71-0a64-45c8-97c1-5a4ced8f0302","ios":"levelo://app?vid=fed22d71-0a64-45c8-97c1-5a4ced8f0302"},"vehicle_type_id":"4","last_reported":1748023994,"current_range_meters":0,"station_id":"st_cvj6r9ubvosntc0bgbag","pricing_plan_id":"cebpf4jnsgd1na2vs0mg"},{"bike_id":"35744f37-8fd2-4108-967b-3b65cf9c8517","system_id":"levelo_inurba_marseille","lat":43.297748,"lon":5.380865,"is_reserved":false,"is_disabled":true,"rental_uris":{"android":"levelo://app?vid=35744f37-8fd2-4108-967b-3b65cf9c8517","ios":"levelo://app?vid=35744f37-8fd2-4108-967b-3b65cf9c8517"},"vehicle_type_id":"4","last_reported":1748023994,"current_range_meters":400,"station_id":"ce4bh092rcd13ifvqd20","pricing_plan_id":"cebpf4jnsgd1na2vs0mg"},{"bike_id":"f3e82300-7ced-4920-9c92-e20285042260","system_id":"levelo_inurba_marseille","lat":43.33024,"lon":5.3903,"is_reserved":false,"is_disabled":true,"rental_uris":{"android":"levelo://app?vid=f3e82300-7ced-4920-9c92-e20285042260","ios":"levelo://app?vid=f3e82300-7ced-4920-9c92-e20285042260"},"vehicle_type_id":"4","last_reported":1748023994,"current_range_meters":400,"station_id":"ce4bhr92rcd13ifvqhrg","pricing_plan_id":"cebpf4jnsgd1na2vs0mg"},{"bike_id":"c10089a1-a1f6-4df8-9e1c-2a6c3b10c038","system_id":"levelo_inurba_marseille","lat":43.21746,"lon":5.34599,"is_reserved":false,"is_disabled":true,"rental_uris":{"android":"levelo://app?vid=c10089a1-a1f6-4df8-9e1c-2a6c3b10c038","ios":"levelo://app?vid=c10089a1-a1f6-4df8-9e1c-2a6c3b10c038"},"vehicle_type_id":"4","last_reported":1748023994,"current_range_meters":400,"station_id":"st_cvj6r9ubvosntc0bgbag","pricing_plan_id":"cebpf4jnsgd1na2vs0mg"},{"bike_id":"1367ab49-61d7-45bd-b728-c3d96cabed5b","system_id":"levelo_inurba_marseille","lat":43.30932,"lon":5.40151,"is_reserved":false,"is_disabled":true,"rental_uris":{"android":"levelo://app?vid=1367ab49-61d7-45bd-b728-c3d96cabed5b","ios":"levelo://app?vid=1367ab49-61d7-45bd-b728-c3d96cabed5b"},"vehicle_type_id":"4","last_reported":1748023994,"current_range_meters":800,"station_id":"ce4bgvp2rcd13ifvqct0","pricing_plan_id":"cebpf4jnsgd1na2vs0mg"},{"bike_id":"e2d6ffc4-a92d-4e28-8bf7-e22ba27369fa","system_id":"levelo_inurba_marseille","lat":43.29504,"lon":5.39417,"is_reserved":false,"is_disabled":true,"rental_uris":{"android":"levelo://app?vid=e2d6ffc4-a92d-4e28-8bf7-e22ba27369fa","ios":"levelo://app?vid=e2d6ffc4-a92d-4e28-8bf7-e22ba27369fa"},"vehicle_type_id":"4","last_reported":1748023994,"current_range_meters":800,"station_id":"ce4bh292rcd13ifvqdf0","pricing_plan_id":"cebpf4jnsgd1na2vs0mg"},{"bike_id":"13b2130d-9ac4-4a50-bde6-60fbc2ea911d","system_id":"levelo_inurba_marseille","lat":43.26476,"lon":5.39552,"is_reserved":false,"is_disabled":true,"rental_uris":{"android":"levelo://app?vid=13b2130d-9ac4-4a50-bde6-60fbc2ea911d","ios":"levelo://app?vid=13b2130d-9ac4-4a50-bde6-60fbc2ea911d"},"vehicle_type_id":"4","last_reported":1748023994,"current_range_meters":800,"station_id":"ce4bhi12rcd13ifvqfq0","pricing_plan_id":"cebpf4jnsgd1na2vs0mg"},{"bike_id":"5d84ba18-0f83-4763-b48a-a6c21fb4dc86","system_id":"levelo_inurba_marseille","lat":43.283905,"lon":5.375444,"is_reserved":false,"is_disabled":true,"rental_uris":{"android":"levelo://app?vid=5d84ba18-0f83-4763-b48a-a6c21fb4dc86","ios":"levelo://app?vid=5d84ba18-0f83-4763-b48a-a6c21fb4dc86"},"vehicle_type_id":"4","last_reported":1748023994,"current_range_meters":1200,"station_id":"","pricing_plan_id":"cebpf4jnsgd1na2vs0mg"},{"bike_id":"77ea5cf0-c3a5-48d4-bf2e-893673844ee7","system_id":"levelo_inurba_marseille","lat":43.29415,"lon":5.38633,"is_reserved":false,"is_disabled":true,"rental_uris":{"android":"levelo://app?vid=77ea5cf0-c3a5-48d4-bf2e-893673844ee7","ios":"levelo://app?vid=77ea5cf0-c3a5-48d4-bf2e-893673844ee7"},"vehicle_type_id":"4","last_reported":1748023994,"current_range_meters":1200,"station_id":"ce4bh2h2rcd13ifvqdh0","pricing_plan_id":"cebpf4jnsgd1na2vs0mg"},{"bike_id":"d3fbaa8d-7b0e-4657-ada6-74ec7c50f790","system_id":"levelo_inurba_marseille","lat":43.27674,"lon":5.38875,"is_reserved":false,"is_disabled":true,"rental_uris":{"android":"levelo://app?vid=d3fbaa8d-7b0e-4657-ada6-74ec7c50f790","ios":"levelo://app?vid=d3fbaa8d-7b0e-4657-ada6-74ec7c50f790"},"vehicle_type_id":"4","last_reported":1748023994,"current_range_meters":1200,"station_id":"ce4bhi12rcd13ifvqfo0","pricing_plan_id":"cebpf4jnsgd1na2vs0mg"},{"bike_id":"df369b23-8fd2-4d59-b23a-35f6f0c34bcd","system_id":"levelo_inurba_marseille","lat":43.287121,"lon":5.399783,"is_reserved":false,"is_disabled":true,"rental_uris":{"android":"levelo://app?vid=df369b23-8fd2-4d59-b23a-35f6f0c34bcd","ios":"levelo://app?vid=df369b23-8fd2-4d59-b23a-35f6f0c34bcd"},"vehicle_type_id":"4","last_reported":1748023994,"current_range_meters":1200,"station_id":"ce4bho92rcd13ifvqh3g","pricing_plan_id":"cebpf4jnsgd1na2vs0mg"},{"bike_id":"dea94bae-0219-4b6d-bdb8-7a77b2ca5afd","system_id":"levelo_inurba_marseille","lat":43.26938,"lon":5.40255,"is_reserved":false,"is_disabled":true,"rental_uris":{"android":"levelo://app?vid=dea94bae-0219-4b6d-bdb8-7a77b2ca5afd","ios":"levelo://app?vid=dea94bae-0219-4b6d-bdb8-7a77b2ca5afd"},"vehicle_type_id":"4","last_reported":1748023994,"current_range_meters":1200,"station_id":"cjm6bp8fraef2m0cb0m0","pricing_plan_id":"cebpf4jnsgd1na2vs0mg"},{"bike_id":"d83e1d67-cecf-4e82-8e4b-d78ef015664d","system_id":"levelo_inurba_marseille","lat":43.30324,"lon":5.39196,"is_reserved":false,"is_disabled":true,"rental_uris":{"android":"levelo://app?vid=d83e1d67-cecf-4e82-8e4b-d78ef015664d","ios":"levelo://app?vid=d83e1d67-cecf-4e82-8e4b-d78ef015664d"},"vehicle_type_id":"4","last_reported":1748023994,"current_range_meters":1600,"station_id":"ce4bgkh2rcd13ifvqbk0","pricing_plan_id":"cebpf4jnsgd1na2vs0mg"},{"bike_id":"3eb3bab7-6a7c-465c-921c-e096889494c5","system_id":"levelo_inurba_marseille","lat":43.30662,"lon":5.40118,"is_reserved":false,"is_disabled":true,"rental_uris":{"android":"levelo://app?vid=3eb3bab7-6a7c-465c-921c-e096889494c5","ios":"levelo://app?vid=3eb3bab7-6a7c-465c-921c-e096889494c5"},"vehicle_type_id":"4","last_reported":1748023994,"current_range_meters":1600,"station_id":"ce4bh112rcd13ifvqda0","pricing_plan_id":"cebpf4jnsgd1na2vs0mg"},{"bike_id":"db37ae50-d810-4314-a4a8-257e41468937","system_id":"levelo_inurba_marseille","lat":43.29022,"lon":5.38651,"is_reserved":false,"is_disabled":true,"rental_uris":{"android":"levelo://app?vid=db37ae50-d810-4314-a4a8-257e41468937","ios":"levelo://app?vid=db37ae50-d810-4314-a4a8-257e41468937"},"vehicle_type_id":"4","last_reported":1748023994,"current_range_meters":1600,"station_id":"ce4bh4p2rcd13ifvqe0g","pricing_plan_id":"cebpf4jnsgd1na2vs0mg"},{"bike_id":"d8b74a30-819e-4b50-bb8a-aaa77cfb3b00","system_id":"levelo_inurba_marseille","lat":43.27311,"lon":5.39113,"is_reserved":false,"is_disabled":true,"rental_uris":{"android":"levelo://app?vid=d8b74a30-819e-4b50-bb8a-aaa77cfb3b00","ios":"levelo://app?vid=d8b74a30-819e-4b50-bb8a-aaa77cfb3b00"},"vehicle_type_id":"4","last_reported":1748023994,"current_range_meters":1600,"station_id":"ce4bhgp2rcd13ifvqfe0","pricing_plan_id":"cebpf4jnsgd1na2vs0mg"},{"bike_id":"39081584-f83f-4d2e-a48e-53c87877b7fd","system_id":"levelo_inurba_marseille","lat":43.301518,"lon":5.381146,"is_reserved":false,"is_disabled":true,"rental_uris":{"android":"levelo://app?vid=39081584-f83f-4d2e-a48e-53c87877b7fd","ios":"levelo://app?vid=39081584-f83f-4d2e-a48e-53c87877b7fd"},"vehicle_type_id":"4","last_reported":1748023994,"current_range_meters":2000,"station_id":"ce4bgjp2rcd13ifvqbh0","pricing_plan_id":"cebpf4jnsgd1na2vs0mg"},{"bike_id":"160c40d9-a750-4d3e-8b99-b208f81a7329","system_id":"levelo_inurba_marseille","lat":43.29515,"lon":5.39045,"is_reserved":false,"is_disabled":true,"rental_uris":{"android":"levelo://app?vid=160c40d9-a750-4d3e-8b99-b208f81a7329","ios":"levelo://app?vid=160c40d9-a750-4d3e-8b99-b208f81a7329"},"vehicle_type_id":"4","last_reported":1748023994,"current_range_meters":2000,"station_id":"ce4bh3p2rcd13ifvqdp0","pricing_plan_id":"cebpf4jnsgd1na2vs0mg"},{"bike_id":"c597ba23-59bf-4a88-8214-07bc1b735e9f","system_id":"levelo_inurba_marseille","lat":43.25494,"lon":5.37647,"is_reserved":false,"is_disabled":false,"rental_uris":{"android":"levelo://app?vid=c597ba23-59bf-4a88-8214-07bc1b735e9f","ios":"levelo://app?vid=c597ba23-59bf-4a88-8214-07bc1b735e9f"},"vehicle_type_id":"4","last_reported":1748023994,"current_range_meters":2000,"station_id":"ce4bhh12rcd13ifvqff0","pricing_plan_id":"cebpf4jnsgd1na2vs0mg"},{"bike_id":"755434ef-7b2a-4556-9705-3762e5dc6238","system_id":"levelo_inurba_marseille","lat":43.24665,"lon":5.3817,"is_reserved":false,"is_disabled":true,"rental_uris":{"android":"levelo://app?vid=755434ef-7b2a-4556-9705-3762e5dc6238","ios":"levelo://app?vid=755434ef-7b2a-4556-9705-3762e5dc6238"},"vehicle_type_id":"4","last_reported":1748023994,"current_range_meters":2000,"station_id":"ce4bhih2rcd13ifvqfr0","pricing_plan_id":"cebpf4jnsgd1na2vs0mg"},{"bike_id":"f31e9c33-5fc5-4ad7-b4ce-583de661a634","system_id":"levelo_inurba_marseille","lat":43.2587,"lon":5.39899,"is_reserved":false,"is_disabled":true,"rental_uris":{"android":"levelo://app?vid=f31e9c33-5fc5-4ad7-b4ce-583de661a634","ios":"levelo://app?vid=f31e9c33-5fc5-4ad7-b4ce-583de661a634"},"vehicle_type_id":"4","last_reported":1748023994,"current_range_meters":2000,"station_id":"ce4bhl92rcd13ifvqghg","pricing_plan_id":"cebpf4jnsgd1na2vs0mg"},{"bike_id":"54e4b086-1d0d-46a7-b1bc-1ecae5d19ff7","system_id":"levelo_inurba_marseille","lat":43.30537,"lon":5.36797,"is_reserved":false,"is_disabled":false,"rental_uris":{"android":"levelo://app?vid=54e4b086-1d0d-46a7-b1bc-1ecae5d19ff7","ios":"levelo://app?vid=54e4b086-1d0d-46a7-b1bc-1ecae5d19ff7"},"vehicle_type_id":"4","last_reported":1748023994,"current_range_meters":2800,"station_id":"","pricing_plan_id":"cebpf4jnsgd1na2vs0mg"},{"bike_id":"7f617827-5239-48ef-9bfe-a0ad8755607a","system_id":"levelo_inurba_marseille","lat":43.30072,"lon":5.39079,"is_reserved":false,"is_disabled":false,"rental_uris":{"android":"levelo://app?vid=7f617827-5239-48ef-9bfe-a0ad8755607a","ios":"levelo://app?vid=7f617827-5239-48ef-9bfe-a0ad8755607a"},"vehicle_type_id":"4","last_reported":1748023994,"current_range_meters":2800,"station_id":"ce4bh192rcd13ifvqdb0","pricing_plan_id":"cebpf4jnsgd1na2vs0mg"},{"bike_id":"738fff00-ec93-48d3-b466-a89b19a1baa0","system_id":"levelo_inurba_marseille","lat":43.29554,"lon":5.42294,"is_reserved":false,"is_disabled":false,"rental_uris":{"android":"levelo://app?vid=738fff00-ec93-48d3-b466-a89b19a1baa0","ios":"levelo://app?vid=738fff00-ec93-48d3-b466-a89b19a1baa0"},"vehicle_type_id":"4","last_reported":1748023994,"current_range_meters":2800,"station_id":"ce4bhph2rcd13ifvqhdg","pricing_plan_id":"cebpf4jnsgd1na2vs0mg"},{"bike_id":"c3c7ae58-40dc-49fe-91c8-045c830c98b8","system_id":"levelo_inurba_marseille","lat":43.31945,"lon":5.44968,"is_reserved":false,"is_disabled":false,"rental_uris":{"android":"levelo://app?vid=c3c7ae58-40dc-49fe-91c8-045c830c98b8","ios":"levelo://app?vid=c3c7ae58-40dc-49fe-91c8-045c830c98b8"},"vehicle_type_id":"4","last_reported":1748023994,"current_range_meters":3200,"station_id":"","pricing_plan_id":"cebpf4jnsgd1na2vs0mg"},{"bike_id":"eab1c04f-54b5-4052-9da6-db9b78f7f80d","system_id":"levelo_inurba_marseille","lat":43.2649,"lon":5.39541,"is_reserved":false,"is_disabled":false,"rental_uris":{"android":"levelo://app?vid=eab1c04f-54b5-4052-9da6-db9b78f7f80d","ios":"levelo://app?vid=eab1c04f-54b5-4052-9da6-db9b78f7f80d"},"vehicle_type_id":"4","last_reported":1748023994,"current_range_meters":3200,"station_id":"ce4bhi12rcd13ifvqfq0","pricing_plan_id":"cebpf4jnsgd1na2vs0mg"},{"bike_id":"3fe3d6c4-138a-47df-b6b4-e6f19e8f7d46","system_id":"levelo_inurba_marseille","lat":43.21404,"lon":5.34125,"is_reserved":false,"is_disabled":false,"rental_uris":{"android":"levelo://app?vid=3fe3d6c4-138a-47df-b6b4-e6f19e8f7d46","ios":"levelo://app?vid=3fe3d6c4-138a-47df-b6b4-e6f19e8f7d46"},"vehicle_type_id":"4","last_reported":1748023994,"current_range_meters":3600,"station_id":"","pricing_plan_id":"cebpf4jnsgd1na2vs0mg"},{"bike_id":"2272a850-baaa-4aa4-87ed-07bdec6af405","system_id":"levelo_inurba_marseille","lat":43.26677,"lon":5.38268,"is_reserved":false,"is_disabled":false,"rental_uris":{"android":"levelo://app?vid=2272a850-baaa-4aa4-87ed-07bdec6af405","ios":"levelo://app?vid=2272a850-baaa-4aa4-87ed-07bdec6af405"},"vehicle_type_id":"4","last_reported":1748023994,"current_range_meters":3600,"station_id":"ce4bhg92rcd13ifvqf90","pricing_plan_id":"cebpf4jnsgd1na2vs0mg"},{"bike_id":"3fcd411d-7795-4781-9674-9136a5733a87","system_id":"levelo_inurba_marseille","lat":43.27213,"lon":5.39212,"is_reserved":false,"is_disabled":false,"rental_uris":{"android":"levelo://app?vid=3fcd411d-7795-4781-9674-9136a5733a87","ios":"levelo://app?vid=3fcd411d-7795-4781-9674-9136a5733a87"},"vehicle_type_id":"4","last_reported":1748023994,"current_range_meters":3600,"station_id":"ce4bhhp2rcd13ifvqfm0","pricing_plan_id":"cebpf4jnsgd1na2vs0mg"},{"bike_id":"eff77c2f-b733-4ef2-87c2-2f70da4d311e","system_id":"levelo_inurba_marseille","lat":43.23198,"lon":5.3555,"is_reserved":false,"is_disabled":false,"rental_uris":{"android":"levelo://app?vid=eff77c2f-b733-4ef2-87c2-2f70da4d311e","ios":"levelo://app?vid=eff77c2f-b733-4ef2-87c2-2f70da4d311e"},"vehicle_type_id":"4","last_reported":1748023994,"current_range_meters":3600,"station_id":"ce4bhu92rcd13ifvqi70","pricing_plan_id":"cebpf4jnsgd1na2vs0mg"},{"bike_id":"5dc7fea5-2a02-4c7d-a634-33feda377898","system_id":"levelo_inurba_marseille","lat":43.269397,"lon":5.402493,"is_reserved":false,"is_disabled":false,"rental_uris":{"android":"levelo://app?vid=5dc7fea5-2a02-4c7d-a634-33feda377898","ios":"levelo://app?vid=5dc7fea5-2a02-4c7d-a634-33feda377898"},"vehicle_type_id":"4","last_reported":1748023994,"current_range_meters":3600,"station_id":"cjm6bp8fraef2m0cb0m0","pricing_plan_id":"cebpf4jnsgd1na2vs0mg"},{"bike_id":"663fc025-6fc1-4004-895e-f0f1709c8797","system_id":"levelo_inurba_marseille","lat":43.265218,"lon":5.369906,"is_reserved":false,"is_disabled":false,"rental_uris":{"android":"levelo://app?vid=663fc025-6fc1-4004-895e-f0f1709c8797","ios":"levelo://app?vid=663fc025-6fc1-4004-895e-f0f1709c8797"},"vehicle_type_id":"4","last_reported":1748023994,"current_range_meters":4000,"station_id":"","pricing_plan_id":"cebpf4jnsgd1na2vs0mg"},{"bike_id":"ad4d8099-03a6-43ca-966f-189fb83ff678","system_id":"levelo_inurba_marseille","lat":43.3128,"lon":5.37397,"is_reserved":false,"is_disabled":false,"rental_uris":{"android":"levelo://app?vid=ad4d8099-03a6-43ca-966f-189fb83ff678","ios":"levelo://app?vid=ad4d8099-03a6-43ca-966f-189fb83ff678"},"vehicle_type_id":"4","last_reported":1748023994,"current_range_meters":4000,"station_id":"","pricing_plan_id":"cebpf4jnsgd1na2vs0mg"},{"bike_id":"87d12c44-2692-481c-b415-ec131d15b09d","system_id":"levelo_inurba_marseille","lat":43.27914,"lon":5.39583,"is_reserved":false,"is_disabled":false,"rental_uris":{"android":"levelo://app?vid=87d12c44-2692-481c-b415-ec131d15b09d","ios":"levelo://app?vid=87d12c44-2692-481c-b415-ec131d15b09d"},"vehicle_type_id":"4","last_reported":1748023994,"current_range_meters":4000,"station_id":"ce4bhf92rcd13ifvqf40","pricing_plan_id":"cebpf4jnsgd1na2vs0mg"},{"bike_id":"ff9ed5d3-5809-498d-b57a-7d5f4c64884c","system_id":"levelo_inurba_marseille","lat":43.27206,"lon":5.39175,"is_reserved":false,"is_disabled":false,"rental_uris":{"android":"levelo://app?vid=ff9ed5d3-5809-498d-b57a-7d5f4c64884c","ios":"levelo://app?vid=ff9ed5d3-5809-498d-b57a-7d5f4c64884c"},"vehicle_type_id":"4","last_reported":1748023994,"current_range_meters":4000,"station_id":"ce4bhhp2rcd13ifvqfm0","pricing_plan_id":"cebpf4jnsgd1na2vs0mg"},{"bike_id":"0da1da0a-9bf1-4dbe-a8f3-fc3c5620e60e","system_id":"levelo_inurba_marseille","lat":43.31976,"lon":5.3806,"is_reserved":false,"is_disabled":false,"rental_uris":{"android":"levelo://app?vid=0da1da0a-9bf1-4dbe-a8f3-fc3c5620e60e","ios":"levelo://app?vid=0da1da0a-9bf1-4dbe-a8f3-fc3c5620e60e"},"vehicle_type_id":"4","last_reported":1748023994,"current_range_meters":4400,"station_id":"","pricing_plan_id":"cebpf4jnsgd1na2vs0mg"},{"bike_id":"6237efe6-e96f-450b-a659-4a0752e223dd","system_id":"levelo_inurba_marseille","lat":43.26901,"lon":5.40271,"is_reserved":false,"is_disabled":false,"rental_uris":{"android":"levelo://app?vid=6237efe6-e96f-450b-a659-4a0752e223dd","ios":"levelo://app?vid=6237efe6-e96f-450b-a659-4a0752e223dd"},"vehicle_type_id":"4","last_reported":1748023994,"current_range_meters":4400,"station_id":"","pricing_plan_id":"cebpf4jnsgd1na2vs0mg"},{"bike_id":"f9fb40c0-1fcd-48cb-8e26-3f2dc0fb2451","system_id":"levelo_inurba_marseille","lat":43.33751,"lon":5.37509,"is_reserved":false,"is_disabled":false,"rental_uris":{"android":"levelo://app?vid=f9fb40c0-1fcd-48cb-8e26-3f2dc0fb2451","ios":"levelo://app?vid=f9fb40c0-1fcd-48cb-8e26-3f2dc0fb2451"},"vehicle_type_id":"4","last_reported":1748023994,"current_range_meters":4400,"station_id":"","pricing_plan_id":"cebpf4jnsgd1na2vs0mg"},{"bike_id":"4c689b43-c9a4-4e06-a6db-6409a7b55ab4","system_id":"levelo_inurba_marseille","lat":43.30593,"lon":5.39352,"is_reserved":false,"is_disabled":false,"rental_uris":{"android":"levelo://app?vid=4c689b43-c9a4-4e06-a6db-6409a7b55ab4","ios":"levelo://app?vid=4c689b43-c9a4-4e06-a6db-6409a7b55ab4"},"vehicle_type_id":"4","last_reported":1748023994,"current_range_meters":4400,"station_id":"ce4bh0p2rcd13ifvqd80","pricing_plan_id":"cebpf4jnsgd1na2vs0mg"},{"bike_id":"b71301c4-2d18-4d2e-826b-0f7dcea3cdc3","system_id":"levelo_inurba_marseille","lat":43.26507,"lon":5.3956,"is_reserved":false,"is_disabled":false,"rental_uris":{"android":"levelo://app?vid=b71301c4-2d18-4d2e-826b-0f7dcea3cdc3","ios":"levelo://app?vid=b71301c4-2d18-4d2e-826b-0f7dcea3cdc3"},"vehicle_type_id":"4","last_reported":1748023994,"current_range_meters":4400,"station_id":"ce4bhi12rcd13ifvqfq0","pricing_plan_id":"cebpf4jnsgd1na2vs0mg"},{"bike_id":"2c7e17ce-ab08-4c34-9ba9-2835558e90ee","system_id":"levelo_inurba_marseille","lat":43.2649,"lon":5.39542,"is_reserved":false,"is_disabled":false,"rental_uris":{"android":"levelo://app?vid=2c7e17ce-ab08-4c34-9ba9-2835558e90ee","ios":"levelo://app?vid=2c7e17ce-ab08-4c34-9ba9-2835558e90ee"},"vehicle_type_id":"4","last_reported":1748023994,"current_range_meters":4400,"station_id":"ce4bhi12rcd13ifvqfq0","pricing_plan_id":"cebpf4jnsgd1na2vs0mg"},{"bike_id":"5ec14d0e-46b9-4858-a749-8034228116ef","system_id":"levelo_inurba_marseille","lat":43.2586,"lon":5.39884,"is_reserved":false,"is_disabled":false,"rental_uris":{"android":"levelo://app?vid=5ec14d0e-46b9-4858-a749-8034228116ef","ios":"levelo://app?vid=5ec14d0e-46b9-4858-a749-8034228116ef"},"vehicle_type_id":"4","last_reported":1748023994,"current_range_meters":4400,"station_id":"ce4bhl92rcd13ifvqghg","pricing_plan_id":"cebpf4jnsgd1na2vs0mg"},{"bike_id":"80481db6-5092-4fdb-a834-5b16c330428d","system_id":"levelo_inurba_marseille","lat":43.28152,"lon":5.42649,"is_reserved":false,"is_disabled":false,"rental_uris":{"android":"levelo://app?vid=80481db6-5092-4fdb-a834-5b16c330428d","ios":"levelo://app?vid=80481db6-5092-4fdb-a834-5b16c330428d"},"vehicle_type_id":"4","last_reported":1748023994,"current_range_meters":4400,"station_id":"ce4bhnh2rcd13ifvqgug","pricing_plan_id":"cebpf4jnsgd1na2vs0mg"},{"bike_id":"5ff611c6-5f03-4f55-8e9f-ad017bbaf6a9","system_id":"levelo_inurba_marseille","lat":43.32286,"lon":5.38257,"is_reserved":false,"is_disabled":false,"rental_uris":{"android":"levelo://app?vid=5ff611c6-5f03-4f55-8e9f-ad017bbaf6a9","ios":"levelo://app?vid=5ff611c6-5f03-4f55-8e9f-ad017bbaf6a9"},"vehicle_type_id":"4","last_reported":1748023994,"current_range_meters":4400,"station_id":"ce4bhr12rcd13ifvqhqg","pricing_plan_id":"cebpf4jnsgd1na2vs0mg"},{"bike_id":"b26d73fb-78c1-4ee4-9c58-2037b09c28a1","system_id":"levelo_inurba_marseille","lat":43.26942,"lon":5.40244,"is_reserved":false,"is_disabled":false,"rental_uris":{"android":"levelo://app?vid=b26d73fb-78c1-4ee4-9c58-2037b09c28a1","ios":"levelo://app?vid=b26d73fb-78c1-4ee4-9c58-2037b09c28a1"},"vehicle_type_id":"4","last_reported":1748023994,"current_range_meters":4400,"station_id":"cjm6bp8fraef2m0cb0m0","pricing_plan_id":"cebpf4jnsgd1na2vs0mg"},{"bike_id":"576bcd6d-0791-405d-aeee-719c950f6e1b","system_id":"levelo_inurba_marseille","lat":43.27206,"lon":5.39196,"is_reserved":false,"is_disabled":false,"rental_uris":{"android":"levelo://app?vid=576bcd6d-0791-405d-aeee-719c950f6e1b","ios":"levelo://app?vid=576bcd6d-0791-405d-aeee-719c950f6e1b"},"vehicle_type_id":"4","last_reported":1748023994,"current_range_meters":4800,"station_id":"ce4bhhp2rcd13ifvqfm0","pricing_plan_id":"cebpf4jnsgd1na2vs0mg"},{"bike_id":"04337cb1-3274-423a-9624-8ca0cae34c71","system_id":"levelo_inurba_marseille","lat":43.27834,"lon":5.39222,"is_reserved":false,"is_disabled":false,"rental_uris":{"android":"levelo://app?vid=04337cb1-3274-423a-9624-8ca0cae34c71","ios":"levelo://app?vid=04337cb1-3274-423a-9624-8ca0cae34c71"},"vehicle_type_id":"4","last_reported":1748023994,"current_range_meters":4800,"station_id":"ce4bhjp2rcd13ifvqga0","pricing_plan_id":"cebpf4jnsgd1na2vs0mg"},{"bike_id":"46c34e26-66bd-466d-8c35-35356b882959","system_id":"levelo_inurba_marseille","lat":43.28613,"lon":5.37069,"is_reserved":false,"is_disabled":false,"rental_uris":{"android":"levelo://app?vid=46c34e26-66bd-466d-8c35-35356b882959","ios":"levelo://app?vid=46c34e26-66bd-466d-8c35-35356b882959"},"vehicle_type_id":"4","last_reported":1748023994,"current_range_meters":4800,"station_id":"ce4bht12rcd13ifvqi60","pricing_plan_id":"cebpf4jnsgd1na2vs0mg"},{"bike_id":"27653dcd-dec9-4f13-b172-8968c20c1725","system_id":"levelo_inurba_marseille","lat":43.238553,"lon":5.430975,"is_reserved":false,"is_disabled":false,"rental_uris":{"android":"levelo://app?vid=27653dcd-dec9-4f13-b172-8968c20c1725","ios":"levelo://app?vid=27653dcd-dec9-4f13-b172-8968c20c1725"},"vehicle_type_id":"4","last_reported":1748023994,"current_range_meters":5600,"station_id":"","pricing_plan_id":"cebpf4jnsgd1na2vs0mg"},{"bike_id":"ebc6b596-d658-44e3-a352-c15c04588959","system_id":"levelo_inurba_marseille","lat":43.28023,"lon":5.36947,"is_reserved":false,"is_disabled":false,"rental_uris":{"android":"levelo://app?vid=ebc6b596-d658-44e3-a352-c15c04588959","ios":"levelo://app?vid=ebc6b596-d658-44e3-a352-c15c04588959"},"vehicle_type_id":"4","last_reported":1748023994,"current_range_meters":5600,"station_id":"ce4bha12rcd13ifvqef0","pricing_plan_id":"cebpf4jnsgd1na2vs0mg"},{"bike_id":"026205c8-266b-4daf-9721-6e072228a957","system_id":"levelo_inurba_marseille","lat":43.27448,"lon":5.394,"is_reserved":false,"is_disabled":false,"rental_uris":{"android":"levelo://app?vid=026205c8-266b-4daf-9721-6e072228a957","ios":"levelo://app?vid=026205c8-266b-4daf-9721-6e072228a957"},"vehicle_type_id":"4","last_reported":1748023994,"current_range_meters":5600,"station_id":"ce4bhdp2rcd13ifvqf20","pricing_plan_id":"cebpf4jnsgd1na2vs0mg"},{"bike_id":"4321015c-142b-46b0-b98b-243358fb8183","system_id":"levelo_inurba_marseille","lat":43.27918,"lon":5.39581,"is_reserved":false,"is_disabled":false,"rental_uris":{"android":"levelo://app?vid=4321015c-142b-46b0-b98b-243358fb8183","ios":"levelo://app?vid=4321015c-142b-46b0-b98b-243358fb8183"},"vehicle_type_id":"4","last_reported":1748023994,"current_range_meters":5600,"station_id":"ce4bhf92rcd13ifvqf40","pricing_plan_id":"cebpf4jnsgd1na2vs0mg"},{"bike_id":"b0a52626-cbf0-4764-97ae-22b06579790e","system_id":"levelo_inurba_marseille","lat":43.27058,"lon":5.40259,"is_reserved":false,"is_disabled":false,"rental_uris":{"android":"levelo://app?vid=b0a52626-cbf0-4764-97ae-22b06579790e","ios":"levelo://app?vid=b0a52626-cbf0-4764-97ae-22b06579790e"},"vehicle_type_id":"4","last_reported":1748023994,"current_range_meters":5600,"station_id":"ce4bhk92rcd13ifvqgc0","pricing_plan_id":"cebpf4jnsgd1na2vs0mg"},{"bike_id":"2beacbd4-9ba8-4aa5-99c8-d3c30bd9fb89","system_id":"levelo_inurba_marseille","lat":43.28012,"lon":5.39997,"is_reserved":false,"is_disabled":false,"rental_uris":{"android":"levelo://app?vid=2beacbd4-9ba8-4aa5-99c8-d3c30bd9fb89","ios":"levelo://app?vid=2beacbd4-9ba8-4aa5-99c8-d3c30bd9fb89"},"vehicle_type_id":"4","last_reported":1748023994,"current_range_meters":5600,"station_id":"ce4bho92rcd13ifvqh4g","pricing_plan_id":"cebpf4jnsgd1na2vs0mg"},{"bike_id":"c6561e61-d16b-42cb-8e38-12144f737f8a","system_id":"levelo_inurba_marseille","lat":43.29915,"lon":5.37468,"is_reserved":false,"is_disabled":false,"rental_uris":{"android":"levelo://app?vid=c6561e61-d16b-42cb-8e38-12144f737f8a","ios":"levelo://app?vid=c6561e61-d16b-42cb-8e38-12144f737f8a"},"vehicle_type_id":"4","last_reported":1748023994,"current_range_meters":6000,"station_id":"","pricing_plan_id":"cebpf4jnsgd1na2vs0mg"},{"bike_id":"994141d8-8bad-410f-8c68-5aba0da2d08a","system_id":"levelo_inurba_marseille","lat":43.276209,"lon":5.36116,"is_reserved":false,"is_disabled":false,"rental_uris":{"android":"levelo://app?vid=994141d8-8bad-410f-8c68-5aba0da2d08a","ios":"levelo://app?vid=994141d8-8bad-410f-8c68-5aba0da2d08a"},"vehicle_type_id":"4","last_reported":1748023994,"current_range_meters":6000,"station_id":"ce4bgj92rcd13ifvqbe0","pricing_plan_id":"cebpf4jnsgd1na2vs0mg"},{"bike_id":"10e4f69d-0b34-444a-98da-85c7173b6106","system_id":"levelo_inurba_marseille","lat":43.28412,"lon":5.34982,"is_reserved":false,"is_disabled":false,"rental_uris":{"android":"levelo://app?vid=10e4f69d-0b34-444a-98da-85c7173b6106","ios":"levelo://app?vid=10e4f69d-0b34-444a-98da-85c7173b6106"},"vehicle_type_id":"4","last_reported":1748023994,"current_range_meters":6000,"station_id":"ce4bhbh2rcd13ifvqepg","pricing_plan_id":"cebpf4jnsgd1na2vs0mg"},{"bike_id":"3c721735-3ee7-462b-ae42-e0d07bfefcc6","system_id":"levelo_inurba_marseille","lat":43.27313,"lon":5.39109,"is_reserved":false,"is_disabled":false,"rental_uris":{"android":"levelo://app?vid=3c721735-3ee7-462b-ae42-e0d07bfefcc6","ios":"levelo://app?vid=3c721735-3ee7-462b-ae42-e0d07bfefcc6"},"vehicle_type_id":"4","last_reported":1748023994,"current_range_meters":6000,"station_id":"ce4bhgp2rcd13ifvqfe0","pricing_plan_id":"cebpf4jnsgd1na2vs0mg"},{"bike_id":"745078dc-d13c-459f-873d-69086c075544","system_id":"levelo_inurba_marseille","lat":43.243953,"lon":5.37044,"is_reserved":false,"is_disabled":false,"rental_uris":{"android":"levelo://app?vid=745078dc-d13c-459f-873d-69086c075544","ios":"levelo://app?vid=745078dc-d13c-459f-873d-69086c075544"},"vehicle_type_id":"4","last_reported":1748023994,"current_range_meters":6000,"station_id":"ce4bhhh2rcd13ifvqfk0","pricing_plan_id":"cebpf4jnsgd1na2vs0mg"},{"bike_id":"d9a0f01b-fda8-4ae1-a3af-6ca4afa98529","system_id":"levelo_inurba_marseille","lat":43.26522,"lon":5.39545,"is_reserved":false,"is_disabled":false,"rental_uris":{"android":"levelo://app?vid=d9a0f01b-fda8-4ae1-a3af-6ca4afa98529","ios":"levelo://app?vid=d9a0f01b-fda8-4ae1-a3af-6ca4afa98529"},"vehicle_type_id":"4","last_reported":1748023994,"current_range_meters":6000,"station_id":"ce4bhi12rcd13ifvqfq0","pricing_plan_id":"cebpf4jnsgd1na2vs0mg"},{"bike_id":"e250da42-8b61-4a73-8ff4-ac2e965c5b87","system_id":"levelo_inurba_marseille","lat":43.25859,"lon":5.39901,"is_reserved":false,"is_disabled":false,"rental_uris":{"android":"levelo://app?vid=e250da42-8b61-4a73-8ff4-ac2e965c5b87","ios":"levelo://app?vid=e250da42-8b61-4a73-8ff4-ac2e965c5b87"},"vehicle_type_id":"4","last_reported":1748023994,"current_range_meters":6000,"station_id":"ce4bhl92rcd13ifvqghg","pricing_plan_id":"cebpf4jnsgd1na2vs0mg"},{"bike_id":"b3602979-436e-45e3-9b6a-acfe34836bb3","system_id":"levelo_inurba_marseille","lat":43.28147,"lon":5.42647,"is_reserved":false,"is_disabled":false,"rental_uris":{"android":"levelo://app?vid=b3602979-436e-45e3-9b6a-acfe34836bb3","ios":"levelo://app?vid=b3602979-436e-45e3-9b6a-acfe34836bb3"},"vehicle_type_id":"4","last_reported":1748023994,"current_range_meters":6000,"station_id":"ce4bhnh2rcd13ifvqgug","pricing_plan_id":"cebpf4jnsgd1na2vs0mg"},{"bike_id":"31110881-d64f-45f8-9810-bbf84a002836","system_id":"levelo_inurba_marseille","lat":43.28336,"lon":5.46107,"is_reserved":false,"is_disabled":false,"rental_uris":{"android":"levelo://app?vid=31110881-d64f-45f8-9810-bbf84a002836","ios":"levelo://app?vid=31110881-d64f-45f8-9810-bbf84a002836"},"vehicle_type_id":"4","last_reported":1748023994,"current_range_meters":6400,"station_id":"","pricing_plan_id":"cebpf4jnsgd1na2vs0mg"},{"bike_id":"f5cc6698-b75d-4836-9142-4d89b333566d","system_id":"levelo_inurba_marseille","lat":43.295258,"lon":5.385404,"is_reserved":false,"is_disabled":false,"rental_uris":{"android":"levelo://app?vid=f5cc6698-b75d-4836-9142-4d89b333566d","ios":"levelo://app?vid=f5cc6698-b75d-4836-9142-4d89b333566d"},"vehicle_type_id":"4","last_reported":1748023994,"current_range_meters":6400,"station_id":"ce4bgih2rcd13ifvqba0","pricing_plan_id":"cebpf4jnsgd1na2vs0mg"},{"bike_id":"50a5a1ba-23e6-4c28-a6c2-2080fcd99de7","system_id":"levelo_inurba_marseille","lat":43.29962,"lon":5.38508,"is_reserved":false,"is_disabled":false,"rental_uris":{"android":"levelo://app?vid=50a5a1ba-23e6-4c28-a6c2-2080fcd99de7","ios":"levelo://app?vid=50a5a1ba-23e6-4c28-a6c2-2080fcd99de7"},"vehicle_type_id":"4","last_reported":1748023994,"current_range_meters":6400,"station_id":"ce4bgj92rcd13ifvqbd0","pricing_plan_id":"cebpf4jnsgd1na2vs0mg"},{"bike_id":"857fb918-0cdb-4d3d-a240-0e50bf4a9052","system_id":"levelo_inurba_marseille","lat":43.31113,"lon":5.37765,"is_reserved":false,"is_disabled":false,"rental_uris":{"android":"levelo://app?vid=857fb918-0cdb-4d3d-a240-0e50bf4a9052","ios":"levelo://app?vid=857fb918-0cdb-4d3d-a240-0e50bf4a9052"},"vehicle_type_id":"4","last_reported":1748023994,"current_range_meters":6400,"station_id":"ce4bgt92rcd13ifvqcg0","pricing_plan_id":"cebpf4jnsgd1na2vs0mg"},{"bike_id":"a1adc98b-b381-4f36-a2ef-c0cb0b5f76c7","system_id":"levelo_inurba_marseille","lat":43.29277,"lon":5.40118,"is_reserved":false,"is_disabled":false,"rental_uris":{"android":"levelo://app?vid=a1adc98b-b381-4f36-a2ef-c0cb0b5f76c7","ios":"levelo://app?vid=a1adc98b-b381-4f36-a2ef-c0cb0b5f76c7"},"vehicle_type_id":"4","last_reported":1748023994,"current_range_meters":6400,"station_id":"ce4bh312rcd13ifvqdk0","pricing_plan_id":"cebpf4jnsgd1na2vs0mg"},{"bike_id":"0045c9b7-9b2a-437b-939a-a1c67c13fbb7","system_id":"levelo_inurba_marseille","lat":43.25497,"lon":5.37645,"is_reserved":false,"is_disabled":false,"rental_uris":{"android":"levelo://app?vid=0045c9b7-9b2a-437b-939a-a1c67c13fbb7","ios":"levelo://app?vid=0045c9b7-9b2a-437b-939a-a1c67c13fbb7"},"vehicle_type_id":"4","last_reported":1748023994,"current_range_meters":6400,"station_id":"ce4bhh12rcd13ifvqff0","pricing_plan_id":"cebpf4jnsgd1na2vs0mg"},{"bike_id":"93a344e6-8243-4070-bf43-270634e364fe","system_id":"levelo_inurba_marseille","lat":43.28,"lon":5.40013,"is_reserved":false,"is_disabled":false,"rental_uris":{"android":"levelo://app?vid=93a344e6-8243-4070-bf43-270634e364fe","ios":"levelo://app?vid=93a344e6-8243-4070-bf43-270634e364fe"},"vehicle_type_id":"4","last_reported":1748023994,"current_range_meters":6400,"station_id":"ce4bho92rcd13ifvqh4g","pricing_plan_id":"cebpf4jnsgd1na2vs0mg"},{"bike_id":"d28e2290-37b9-4bea-8560-37df42d1a9d5","system_id":"levelo_inurba_marseille","lat":43.29557,"lon":5.4229,"is_reserved":false,"is_disabled":false,"rental_uris":{"android":"levelo://app?vid=d28e2290-37b9-4bea-8560-37df42d1a9d5","ios":"levelo://app?vid=d28e2290-37b9-4bea-8560-37df42d1a9d5"},"vehicle_type_id":"4","last_reported":1748023994,"current_range_meters":6400,"station_id":"ce4bhph2rcd13ifvqhdg","pricing_plan_id":"cebpf4jnsgd1na2vs0mg"},{"bike_id":"d256c6a4-d35b-4c32-b7db-2bac8ab63b70","system_id":"levelo_inurba_marseille","lat":43.23196,"lon":5.35551,"is_reserved":false,"is_disabled":false,"rental_uris":{"android":"levelo://app?vid=d256c6a4-d35b-4c32-b7db-2bac8ab63b70","ios":"levelo://app?vid=d256c6a4-d35b-4c32-b7db-2bac8ab63b70"},"vehicle_type_id":"4","last_reported":1748023994,"current_range_meters":6400,"station_id":"ce4bhu92rcd13ifvqi70","pricing_plan_id":"cebpf4jnsgd1na2vs0mg"},{"bike_id":"6eac4826-6c71-4cd3-a404-229c1deee238","system_id":"levelo_inurba_marseille","lat":43.26932,"lon":5.40246,"is_reserved":false,"is_disabled":false,"rental_uris":{"android":"levelo://app?vid=6eac4826-6c71-4cd3-a404-229c1deee238","ios":"levelo://app?vid=6eac4826-6c71-4cd3-a404-229c1deee238"},"vehicle_type_id":"4","last_reported":1748023994,"current_range_meters":6400,"station_id":"cjm6bp8fraef2m0cb0m0","pricing_plan_id":"cebpf4jnsgd1na2vs0mg"},{"bike_id":"bc409db9-8a12-4d53-bab4-001367099efe","system_id":"levelo_inurba_marseille","lat":43.26957,"lon":5.40256,"is_reserved":false,"is_disabled":false,"rental_uris":{"android":"levelo://app?vid=bc409db9-8a12-4d53-bab4-001367099efe","ios":"levelo://app?vid=bc409db9-8a12-4d53-bab4-001367099efe"},"vehicle_type_id":"4","last_reported":1748023994,"current_range_meters":6400,"station_id":"cjm6bp8fraef2m0cb0m0","pricing_plan_id":"cebpf4jnsgd1na2vs0mg"},{"bike_id":"950cad50-4e47-43b4-ba8e-d97ac6386634","system_id":"levelo_inurba_marseille","lat":43.255774,"lon":5.382209,"is_reserved":false,"is_disabled":false,"rental_uris":{"android":"levelo://app?vid=950cad50-4e47-43b4-ba8e-d97ac6386634","ios":"levelo://app?vid=950cad50-4e47-43b4-ba8e-d97ac6386634"},"vehicle_type_id":"4","last_reported":1748023994,"current_range_meters":6800,"station_id":"","pricing_plan_id":"cebpf4jnsgd1na2vs0mg"},{"bike_id":"7a993db6-0262-451f-98e0-2279c3f270d4","system_id":"levelo_inurba_marseille","lat":43.29266,"lon":5.37634,"is_reserved":false,"is_disabled":false,"rental_uris":{"android":"levelo://app?vid=7a993db6-0262-451f-98e0-2279c3f270d4","ios":"levelo://app?vid=7a993db6-0262-451f-98e0-2279c3f270d4"},"vehicle_type_id":"4","last_reported":1748023994,"current_range_meters":6800,"station_id":"ce4bgi12rcd13ifvqb80","pricing_plan_id":"cebpf4jnsgd1na2vs0mg"},{"bike_id":"08104ae9-4461-4440-a655-322be9556400","system_id":"levelo_inurba_marseille","lat":43.25502,"lon":5.37654,"is_reserved":false,"is_disabled":false,"rental_uris":{"android":"levelo://app?vid=08104ae9-4461-4440-a655-322be9556400","ios":"levelo://app?vid=08104ae9-4461-4440-a655-322be9556400"},"vehicle_type_id":"4","last_reported":1748023994,"current_range_meters":6800,"station_id":"ce4bhh12rcd13ifvqff0","pricing_plan_id":"cebpf4jnsgd1na2vs0mg"},{"bike_id":"63aa4083-8647-4976-a413-47a3f6bf4ae4","system_id":"levelo_inurba_marseille","lat":43.32367,"lon":5.38886,"is_reserved":false,"is_disabled":false,"rental_uris":{"android":"levelo://app?vid=63aa4083-8647-4976-a413-47a3f6bf4ae4","ios":"levelo://app?vid=63aa4083-8647-4976-a413-47a3f6bf4ae4"},"vehicle_type_id":"4","last_reported":1748023994,"current_range_meters":6800,"station_id":"ce4bhqp2rcd13ifvqhog","pricing_plan_id":"cebpf4jnsgd1na2vs0mg"},{"bike_id":"05ce4339-3b35-45d1-aa83-84ba32399018","system_id":"levelo_inurba_marseille","lat":43.282227,"lon":5.390653,"is_reserved":false,"is_disabled":false,"rental_uris":{"android":"levelo://app?vid=05ce4339-3b35-45d1-aa83-84ba32399018","ios":"levelo://app?vid=05ce4339-3b35-45d1-aa83-84ba32399018"},"vehicle_type_id":"4","last_reported":1748023994,"current_range_meters":7200,"station_id":"","pricing_plan_id":"cebpf4jnsgd1na2vs0mg"},{"bike_id":"7dfdfdc8-9c79-46b6-9a4b-924773b53f29","system_id":"levelo_inurba_marseille","lat":43.26843,"lon":5.3917,"is_reserved":false,"is_disabled":false,"rental_uris":{"android":"levelo://app?vid=7dfdfdc8-9c79-46b6-9a4b-924773b53f29","ios":"levelo://app?vid=7dfdfdc8-9c79-46b6-9a4b-924773b53f29"},"vehicle_type_id":"4","last_reported":1748023994,"current_range_meters":7200,"station_id":"","pricing_plan_id":"cebpf4jnsgd1na2vs0mg"},{"bike_id":"6abb9ab4-3976-4e3e-b994-f2f72ee02055","system_id":"levelo_inurba_marseille","lat":43.30481,"lon":5.37285,"is_reserved":false,"is_disabled":false,"rental_uris":{"android":"levelo://app?vid=6abb9ab4-3976-4e3e-b994-f2f72ee02055","ios":"levelo://app?vid=6abb9ab4-3976-4e3e-b994-f2f72ee02055"},"vehicle_type_id":"4","last_reported":1748023994,"current_range_meters":7200,"station_id":"","pricing_plan_id":"cebpf4jnsgd1na2vs0mg"},{"bike_id":"b4f9f5d4-d50f-469c-8843-cc6885d3c038","system_id":"levelo_inurba_marseille","lat":43.303015,"lon":5.39216,"is_reserved":false,"is_disabled":false,"rental_uris":{"android":"levelo://app?vid=b4f9f5d4-d50f-469c-8843-cc6885d3c038","ios":"levelo://app?vid=b4f9f5d4-d50f-469c-8843-cc6885d3c038"},"vehicle_type_id":"4","last_reported":1748023994,"current_range_meters":7200,"station_id":"ce4bgkh2rcd13ifvqbk0","pricing_plan_id":"cebpf4jnsgd1na2vs0mg"},{"bike_id":"a8a9be11-70a5-4057-8106-37d79a0b1a66","system_id":"levelo_inurba_marseille","lat":43.30796,"lon":5.38161,"is_reserved":false,"is_disabled":false,"rental_uris":{"android":"levelo://app?vid=a8a9be11-70a5-4057-8106-37d79a0b1a66","ios":"levelo://app?vid=a8a9be11-70a5-4057-8106-37d79a0b1a66"},"vehicle_type_id":"4","last_reported":1748023994,"current_range_meters":7200,"station_id":"ce4bgt12rcd13ifvqce0","pricing_plan_id":"cebpf4jnsgd1na2vs0mg"},{"bike_id":"8f2916e8-d10c-4a05-8b2b-ebe68ba16b36","system_id":"levelo_inurba_marseille","lat":43.26678,"lon":5.38278,"is_reserved":false,"is_disabled":false,"rental_uris":{"android":"levelo://app?vid=8f2916e8-d10c-4a05-8b2b-ebe68ba16b36","ios":"levelo://app?vid=8f2916e8-d10c-4a05-8b2b-ebe68ba16b36"},"vehicle_type_id":"4","last_reported":1748023994,"current_range_meters":7200,"station_id":"ce4bhg92rcd13ifvqf90","pricing_plan_id":"cebpf4jnsgd1na2vs0mg"},{"bike_id":"642cb7b7-e7c4-4185-b975-0e4bd47c9f56","system_id":"levelo_inurba_marseille","lat":43.255795,"lon":5.382223,"is_reserved":false,"is_disabled":false,"rental_uris":{"android":"levelo://app?vid=642cb7b7-e7c4-4185-b975-0e4bd47c9f56","ios":"levelo://app?vid=642cb7b7-e7c4-4185-b975-0e4bd47c9f56"},"vehicle_type_id":"4","last_reported":1748023994,"current_range_meters":7200,"station_id":"ce4bhih2rcd13ifvqfs0","pricing_plan_id":"cebpf4jnsgd1na2vs0mg"},{"bike_id":"90c667ab-28e0-43bd-a854-060ba0f89c0a","system_id":"levelo_inurba_marseille","lat":43.25571,"lon":5.38253,"is_reserved":false,"is_disabled":false,"rental_uris":{"android":"levelo://app?vid=90c667ab-28e0-43bd-a854-060ba0f89c0a","ios":"levelo://app?vid=90c667ab-28e0-43bd-a854-060ba0f89c0a"},"vehicle_type_id":"4","last_reported":1748023994,"current_range_meters":7200,"station_id":"ce4bhih2rcd13ifvqfs0","pricing_plan_id":"cebpf4jnsgd1na2vs0mg"},{"bike_id":"f3e24f25-b1fb-431b-b679-572ef457e775","system_id":"levelo_inurba_marseille","lat":43.29899,"lon":5.43675,"is_reserved":false,"is_disabled":false,"rental_uris":{"android":"levelo://app?vid=f3e24f25-b1fb-431b-b679-572ef457e775","ios":"levelo://app?vid=f3e24f25-b1fb-431b-b679-572ef457e775"},"vehicle_type_id":"4","last_reported":1748023994,"current_range_meters":7200,"station_id":"ce4bhpp2rcd13ifvqhfg","pricing_plan_id":"cebpf4jnsgd1na2vs0mg"},{"bike_id":"ae5118b2-34b2-4d6c-8f2f-5ec3cd71528f","system_id":"levelo_inurba_marseille","lat":43.232,"lon":5.3555,"is_reserved":false,"is_disabled":false,"rental_uris":{"android":"levelo://app?vid=ae5118b2-34b2-4d6c-8f2f-5ec3cd71528f","ios":"levelo://app?vid=ae5118b2-34b2-4d6c-8f2f-5ec3cd71528f"},"vehicle_type_id":"4","last_reported":1748023994,"current_range_meters":7200,"station_id":"ce4bhu92rcd13ifvqi70","pricing_plan_id":"cebpf4jnsgd1na2vs0mg"},{"bike_id":"2ac58fa5-8197-4eff-a115-23fe49e74316","system_id":"levelo_inurba_marseille","lat":43.2293,"lon":5.35377,"is_reserved":false,"is_disabled":false,"rental_uris":{"android":"levelo://app?vid=2ac58fa5-8197-4eff-a115-23fe49e74316","ios":"levelo://app?vid=2ac58fa5-8197-4eff-a115-23fe49e74316"},"vehicle_type_id":"4","last_reported":1748023994,"current_range_meters":7200,"station_id":"cpo3532slgdg3j2ikp40","pricing_plan_id":"cebpf4jnsgd1na2vs0mg"},{"bike_id":"f1bb8c47-e910-4bf1-9c58-8aee9a9d5ddc","system_id":"levelo_inurba_marseille","lat":43.29616,"lon":5.37175,"is_reserved":false,"is_disabled":false,"rental_uris":{"android":"levelo://app?vid=f1bb8c47-e910-4bf1-9c58-8aee9a9d5ddc","ios":"levelo://app?vid=f1bb8c47-e910-4bf1-9c58-8aee9a9d5ddc"},"vehicle_type_id":"4","last_reported":1748023994,"current_range_meters":8000,"station_id":"ce4bgnh2rcd13ifvqc0g","pricing_plan_id":"cebpf4jnsgd1na2vs0mg"},{"bike_id":"75af5a56-4979-414e-93be-71955e3591c1","system_id":"levelo_inurba_marseille","lat":43.30212,"lon":5.3946,"is_reserved":false,"is_disabled":false,"rental_uris":{"android":"levelo://app?vid=75af5a56-4979-414e-93be-71955e3591c1","ios":"levelo://app?vid=75af5a56-4979-414e-93be-71955e3591c1"},"vehicle_type_id":"4","last_reported":1748023994,"current_range_meters":8000,"station_id":"ce4bh0p2rcd13ifvqd70","pricing_plan_id":"cebpf4jnsgd1na2vs0mg"},{"bike_id":"769c3939-f275-406f-a98a-62526338776d","system_id":"levelo_inurba_marseille","lat":43.273376,"lon":5.391043,"is_reserved":false,"is_disabled":false,"rental_uris":{"android":"levelo://app?vid=769c3939-f275-406f-a98a-62526338776d","ios":"levelo://app?vid=769c3939-f275-406f-a98a-62526338776d"},"vehicle_type_id":"4","last_reported":1748023994,"current_range_meters":8000,"station_id":"ce4bhgp2rcd13ifvqfe0","pricing_plan_id":"cebpf4jnsgd1na2vs0mg"},{"bike_id":"ef3c4886-d9f4-4c03-81f9-f922060fbfdb","system_id":"levelo_inurba_marseille","lat":43.27304,"lon":5.39087,"is_reserved":false,"is_disabled":false,"rental_uris":{"android":"levelo://app?vid=ef3c4886-d9f4-4c03-81f9-f922060fbfdb","ios":"levelo://app?vid=ef3c4886-d9f4-4c03-81f9-f922060fbfdb"},"vehicle_type_id":"4","last_reported":1748023994,"current_range_meters":8000,"station_id":"ce4bhgp2rcd13ifvqfe0","pricing_plan_id":"cebpf4jnsgd1na2vs0mg"},{"bike_id":"f964d8b1-0b91-46ab-9d80-ebd4c26a8b6f","system_id":"levelo_inurba_marseille","lat":43.27211,"lon":5.39168,"is_reserved":false,"is_disabled":false,"rental_uris":{"android":"levelo://app?vid=f964d8b1-0b91-46ab-9d80-ebd4c26a8b6f","ios":"levelo://app?vid=f964d8b1-0b91-46ab-9d80-ebd4c26a8b6f"},"vehicle_type_id":"4","last_reported":1748023994,"current_range_meters":8000,"station_id":"ce4bhhp2rcd13ifvqfm0","pricing_plan_id":"cebpf4jnsgd1na2vs0mg"},{"bike_id":"81fb952a-7301-42d2-8bc0-023094dec725","system_id":"levelo_inurba_marseille","lat":43.27229,"lon":5.39176,"is_reserved":false,"is_disabled":false,"rental_uris":{"android":"levelo://app?vid=81fb952a-7301-42d2-8bc0-023094dec725","ios":"levelo://app?vid=81fb952a-7301-42d2-8bc0-023094dec725"},"vehicle_type_id":"4","last_reported":1748023994,"current_range_meters":8000,"station_id":"ce4bhhp2rcd13ifvqfm0","pricing_plan_id":"cebpf4jnsgd1na2vs0mg"},{"bike_id":"696c80fb-e509-4c23-bbb4-b574cb708527","system_id":"levelo_inurba_marseille","lat":43.26492,"lon":5.39557,"is_reserved":false,"is_disabled":false,"rental_uris":{"android":"levelo://app?vid=696c80fb-e509-4c23-bbb4-b574cb708527","ios":"levelo://app?vid=696c80fb-e509-4c23-bbb4-b574cb708527"},"vehicle_type_id":"4","last_reported":1748023994,"current_range_meters":8000,"station_id":"ce4bhi12rcd13ifvqfq0","pricing_plan_id":"cebpf4jnsgd1na2vs0mg"},{"bike_id":"2540b0da-dc7a-4853-9dbb-a212dbb6dda3","system_id":"levelo_inurba_marseille","lat":43.2558,"lon":5.38241,"is_reserved":false,"is_disabled":false,"rental_uris":{"android":"levelo://app?vid=2540b0da-dc7a-4853-9dbb-a212dbb6dda3","ios":"levelo://app?vid=2540b0da-dc7a-4853-9dbb-a212dbb6dda3"},"vehicle_type_id":"4","last_reported":1748023994,"current_range_meters":8000,"station_id":"ce4bhih2rcd13ifvqfs0","pricing_plan_id":"cebpf4jnsgd1na2vs0mg"},{"bike_id":"1f93c8ee-2186-42f9-a6f7-69ae5eb9a072","system_id":"levelo_inurba_marseille","lat":43.28613,"lon":5.37055,"is_reserved":false,"is_disabled":false,"rental_uris":{"android":"levelo://app?vid=1f93c8ee-2186-42f9-a6f7-69ae5eb9a072","ios":"levelo://app?vid=1f93c8ee-2186-42f9-a6f7-69ae5eb9a072"},"vehicle_type_id":"4","last_reported":1748023994,"current_range_meters":8000,"station_id":"ce4bht12rcd13ifvqi60","pricing_plan_id":"cebpf4jnsgd1na2vs0mg"},{"bike_id":"30d49d23-f08a-4506-b918-c39e5ce750b9","system_id":"levelo_inurba_marseille","lat":43.26822,"lon":5.40251,"is_reserved":false,"is_disabled":false,"rental_uris":{"android":"levelo://app?vid=30d49d23-f08a-4506-b918-c39e5ce750b9","ios":"levelo://app?vid=30d49d23-f08a-4506-b918-c39e5ce750b9"},"vehicle_type_id":"4","last_reported":1748023994,"current_range_meters":8000,"station_id":"ce501612rcd8frsf0b60","pricing_plan_id":"cebpf4jnsgd1na2vs0mg"},{"bike_id":"025730a1-3559-474f-887d-ec599ae24b9f","system_id":"levelo_inurba_marseille","lat":43.26951,"lon":5.40247,"is_reserved":false,"is_disabled":false,"rental_uris":{"android":"levelo://app?vid=025730a1-3559-474f-887d-ec599ae24b9f","ios":"levelo://app?vid=025730a1-3559-474f-887d-ec599ae24b9f"},"vehicle_type_id":"4","last_reported":1748023994,"current_range_meters":8000,"station_id":"cjm6bp8fraef2m0cb0m0","pricing_plan_id":"cebpf4jnsgd1na2vs0mg"},{"bike_id":"6352eed5-eb32-4a64-ba7a-74e58cdf6fc0","system_id":"levelo_inurba_marseille","lat":43.23072,"lon":5.35492,"is_reserved":false,"is_disabled":false,"rental_uris":{"android":"levelo://app?vid=6352eed5-eb32-4a64-ba7a-74e58cdf6fc0","ios":"levelo://app?vid=6352eed5-eb32-4a64-ba7a-74e58cdf6fc0"},"vehicle_type_id":"4","last_reported":1748023994,"current_range_meters":8000,"station_id":"cpo3342slgdg3j2ifvpg","pricing_plan_id":"cebpf4jnsgd1na2vs0mg"},{"bike_id":"e2d341e1-0789-46d1-be25-3abcb6af9d9e","system_id":"levelo_inurba_marseille","lat":43.22933,"lon":5.35385,"is_reserved":false,"is_disabled":false,"rental_uris":{"android":"levelo://app?vid=e2d341e1-0789-46d1-be25-3abcb6af9d9e","ios":"levelo://app?vid=e2d341e1-0789-46d1-be25-3abcb6af9d9e"},"vehicle_type_id":"4","last_reported":1748023994,"current_range_meters":8000,"station_id":"cpo3532slgdg3j2ikp40","pricing_plan_id":"cebpf4jnsgd1na2vs0mg"},{"bike_id":"afdf90c6-5b9d-4aaf-ae57-9e04bcff99b4","system_id":"levelo_inurba_marseille","lat":43.29709,"lon":5.38007,"is_reserved":false,"is_disabled":false,"rental_uris":{"android":"levelo://app?vid=afdf90c6-5b9d-4aaf-ae57-9e04bcff99b4","ios":"levelo://app?vid=afdf90c6-5b9d-4aaf-ae57-9e04bcff99b4"},"vehicle_type_id":"4","last_reported":1748023994,"current_range_meters":8400,"station_id":"","pricing_plan_id":"cebpf4jnsgd1na2vs0mg"},{"bike_id":"c761ee84-2d9d-4da3-a10d-38ed1074b620","system_id":"levelo_inurba_marseille","lat":43.310053,"lon":5.375278,"is_reserved":false,"is_disabled":false,"rental_uris":{"android":"levelo://app?vid=c761ee84-2d9d-4da3-a10d-38ed1074b620","ios":"levelo://app?vid=c761ee84-2d9d-4da3-a10d-38ed1074b620"},"vehicle_type_id":"4","last_reported":1748023994,"current_range_meters":8400,"station_id":"","pricing_plan_id":"cebpf4jnsgd1na2vs0mg"},{"bike_id":"01ddaa1a-eb5e-48a6-afd1-086e21b7bd9f","system_id":"levelo_inurba_marseille","lat":43.29317,"lon":5.41181,"is_reserved":false,"is_disabled":false,"rental_uris":{"android":"levelo://app?vid=01ddaa1a-eb5e-48a6-afd1-086e21b7bd9f","ios":"levelo://app?vid=01ddaa1a-eb5e-48a6-afd1-086e21b7bd9f"},"vehicle_type_id":"4","last_reported":1748023994,"current_range_meters":8400,"station_id":"","pricing_plan_id":"cebpf4jnsgd1na2vs0mg"},{"bike_id":"0a141d35-a73a-4454-8ed7-c180725f0903","system_id":"levelo_inurba_marseille","lat":43.29194,"lon":5.35802,"is_reserved":false,"is_disabled":false,"rental_uris":{"android":"levelo://app?vid=0a141d35-a73a-4454-8ed7-c180725f0903","ios":"levelo://app?vid=0a141d35-a73a-4454-8ed7-c180725f0903"},"vehicle_type_id":"4","last_reported":1748023994,"current_range_meters":8400,"station_id":"ce4bhb12rcd13ifvqel0","pricing_plan_id":"cebpf4jnsgd1na2vs0mg"},{"bike_id":"65a8775f-932b-4704-b8e4-c4fcaf2a8a57","system_id":"levelo_inurba_marseille","lat":43.26801,"lon":5.39411,"is_reserved":false,"is_disabled":false,"rental_uris":{"android":"levelo://app?vid=65a8775f-932b-4704-b8e4-c4fcaf2a8a57","ios":"levelo://app?vid=65a8775f-932b-4704-b8e4-c4fcaf2a8a57"},"vehicle_type_id":"4","last_reported":1748023994,"current_range_meters":8400,"station_id":"ce4bhh12rcd13ifvqfg0","pricing_plan_id":"cebpf4jnsgd1na2vs0mg"},{"bike_id":"9ecdc04a-9bb3-4f09-aab1-1d6c3e4b305c","system_id":"levelo_inurba_marseille","lat":43.26781,"lon":5.39418,"is_reserved":false,"is_disabled":false,"rental_uris":{"android":"levelo://app?vid=9ecdc04a-9bb3-4f09-aab1-1d6c3e4b305c","ios":"levelo://app?vid=9ecdc04a-9bb3-4f09-aab1-1d6c3e4b305c"},"vehicle_type_id":"4","last_reported":1748023994,"current_range_meters":8400,"station_id":"ce4bhh12rcd13ifvqfg0","pricing_plan_id":"cebpf4jnsgd1na2vs0mg"},{"bike_id":"9bf7af8e-d2ee-45d1-8b60-78f3c08f1aff","system_id":"levelo_inurba_marseille","lat":43.23061,"lon":5.355,"is_reserved":false,"is_disabled":false,"rental_uris":{"android":"levelo://app?vid=9bf7af8e-d2ee-45d1-8b60-78f3c08f1aff","ios":"levelo://app?vid=9bf7af8e-d2ee-45d1-8b60-78f3c08f1aff"},"vehicle_type_id":"4","last_reported":1748023994,"current_range_meters":8400,"station_id":"cpo3342slgdg3j2ifvpg","pricing_plan_id":"cebpf4jnsgd1na2vs0mg"},{"bike_id":"900926bd-c178-4fb1-9ad6-ba459192fc5c","system_id":"levelo_inurba_marseille","lat":43.2417,"lon":5.36398,"is_reserved":false,"is_disabled":false,"rental_uris":{"android":"levelo://app?vid=900926bd-c178-4fb1-9ad6-ba459192fc5c","ios":"levelo://app?vid=900926bd-c178-4fb1-9ad6-ba459192fc5c"},"vehicle_type_id":"4","last_reported":1748023994,"current_range_meters":8400,"station_id":"cpo36qri1sfpv3e86is0","pricing_plan_id":"cebpf4jnsgd1na2vs0mg"},{"bike_id":"68bfc4cb-61ab-43c3-ab88-17645cafe6e7","system_id":"levelo_inurba_marseille","lat":43.31753,"lon":5.37592,"is_reserved":false,"is_disabled":false,"rental_uris":{"android":"levelo://app?vid=68bfc4cb-61ab-43c3-ab88-17645cafe6e7","ios":"levelo://app?vid=68bfc4cb-61ab-43c3-ab88-17645cafe6e7"},"vehicle_type_id":"4","last_reported":1748023994,"current_range_meters":8800,"station_id":"","pricing_plan_id":"cebpf4jnsgd1na2vs0mg"},{"bike_id":"045a5498-6978-4487-b57a-17296fb7ae58","system_id":"levelo_inurba_marseille","lat":43.2862,"lon":5.351,"is_reserved":false,"is_disabled":false,"rental_uris":{"android":"levelo://app?vid=045a5498-6978-4487-b57a-17296fb7ae58","ios":"levelo://app?vid=045a5498-6978-4487-b57a-17296fb7ae58"},"vehicle_type_id":"4","last_reported":1748023994,"current_range_meters":8800,"station_id":"ce4bhch2rcd13ifvqeug","pricing_plan_id":"cebpf4jnsgd1na2vs0mg"},{"bike_id":"59f10329-c5ed-4b9e-9c35-ad3f68156a4a","system_id":"levelo_inurba_marseille","lat":43.24802,"lon":5.37449,"is_reserved":false,"is_disabled":false,"rental_uris":{"android":"levelo://app?vid=59f10329-c5ed-4b9e-9c35-ad3f68156a4a","ios":"levelo://app?vid=59f10329-c5ed-4b9e-9c35-ad3f68156a4a"},"vehicle_type_id":"4","last_reported":1748023994,"current_range_meters":8800,"station_id":"ce4bhgh2rcd13ifvqfb0","pricing_plan_id":"cebpf4jnsgd1na2vs0mg"},{"bike_id":"9b5eb54d-a325-4fc8-8363-9bf2ad1b6b48","system_id":"levelo_inurba_marseille","lat":43.27205,"lon":5.39172,"is_reserved":false,"is_disabled":false,"rental_uris":{"android":"levelo://app?vid=9b5eb54d-a325-4fc8-8363-9bf2ad1b6b48","ios":"levelo://app?vid=9b5eb54d-a325-4fc8-8363-9bf2ad1b6b48"},"vehicle_type_id":"4","last_reported":1748023994,"current_range_meters":8800,"station_id":"ce4bhhp2rcd13ifvqfm0","pricing_plan_id":"cebpf4jnsgd1na2vs0mg"},{"bike_id":"2d5f7454-a4a6-4e8b-9495-8d6b94c61ba5","system_id":"levelo_inurba_marseille","lat":43.2293,"lon":5.35375,"is_reserved":false,"is_disabled":false,"rental_uris":{"android":"levelo://app?vid=2d5f7454-a4a6-4e8b-9495-8d6b94c61ba5","ios":"levelo://app?vid=2d5f7454-a4a6-4e8b-9495-8d6b94c61ba5"},"vehicle_type_id":"4","last_reported":1748023994,"current_range_meters":8800,"station_id":"cpo3532slgdg3j2ikp40","pricing_plan_id":"cebpf4jnsgd1na2vs0mg"},{"bike_id":"3514769a-76dd-4631-9866-6d91084af7c5","system_id":"levelo_inurba_marseille","lat":43.29849,"lon":5.36281,"is_reserved":false,"is_disabled":false,"rental_uris":{"android":"levelo://app?vid=3514769a-76dd-4631-9866-6d91084af7c5","ios":"levelo://app?vid=3514769a-76dd-4631-9866-6d91084af7c5"},"vehicle_type_id":"4","last_reported":1748023994,"current_range_meters":9200,"station_id":"ce4bgpp2rcd13ifvqc3g","pricing_plan_id":"cebpf4jnsgd1na2vs0mg"},{"bike_id":"d7129e24-819e-4444-bc5d-104d855ea043","system_id":"levelo_inurba_marseille","lat":43.29264,"lon":5.38445,"is_reserved":false,"is_disabled":false,"rental_uris":{"android":"levelo://app?vid=d7129e24-819e-4444-bc5d-104d855ea043","ios":"levelo://app?vid=d7129e24-819e-4444-bc5d-104d855ea043"},"vehicle_type_id":"4","last_reported":1748023994,"current_range_meters":9200,"station_id":"ce4bh692rcd13ifvqea0","pricing_plan_id":"cebpf4jnsgd1na2vs0mg"},{"bike_id":"9239dd73-7ba3-4460-b117-4aca574b33de","system_id":"levelo_inurba_marseille","lat":43.29194,"lon":5.3579,"is_reserved":false,"is_disabled":false,"rental_uris":{"android":"levelo://app?vid=9239dd73-7ba3-4460-b117-4aca574b33de","ios":"levelo://app?vid=9239dd73-7ba3-4460-b117-4aca574b33de"},"vehicle_type_id":"4","last_reported":1748023994,"current_range_meters":9200,"station_id":"ce4bhb12rcd13ifvqel0","pricing_plan_id":"cebpf4jnsgd1na2vs0mg"},{"bike_id":"61a3955e-e6a0-4d27-ad88-582cd4713a0b","system_id":"levelo_inurba_marseille","lat":43.279199,"lon":5.395781,"is_reserved":false,"is_disabled":false,"rental_uris":{"android":"levelo://app?vid=61a3955e-e6a0-4d27-ad88-582cd4713a0b","ios":"levelo://app?vid=61a3955e-e6a0-4d27-ad88-582cd4713a0b"},"vehicle_type_id":"4","last_reported":1748023994,"current_range_meters":9200,"station_id":"ce4bhf92rcd13ifvqf40","pricing_plan_id":"cebpf4jnsgd1na2vs0mg"},{"bike_id":"08ee356c-5e7f-411a-92fa-743c60587785","system_id":"levelo_inurba_marseille","lat":43.26017,"lon":5.37559,"is_reserved":false,"is_disabled":false,"rental_uris":{"android":"levelo://app?vid=08ee356c-5e7f-411a-92fa-743c60587785","ios":"levelo://app?vid=08ee356c-5e7f-411a-92fa-743c60587785"},"vehicle_type_id":"4","last_reported":1748023994,"current_range_meters":9200,"station_id":"ce4bhgh2rcd13ifvqfa0","pricing_plan_id":"cebpf4jnsgd1na2vs0mg"},{"bike_id":"aa62967c-cfba-4bf7-95f3-be4c53208273","system_id":"levelo_inurba_marseille","lat":43.24809,"lon":5.37459,"is_reserved":false,"is_disabled":false,"rental_uris":{"android":"levelo://app?vid=aa62967c-cfba-4bf7-95f3-be4c53208273","ios":"levelo://app?vid=aa62967c-cfba-4bf7-95f3-be4c53208273"},"vehicle_type_id":"4","last_reported":1748023994,"current_range_meters":9200,"station_id":"ce4bhgh2rcd13ifvqfb0","pricing_plan_id":"cebpf4jnsgd1na2vs0mg"},{"bike_id":"e4a0a7aa-315e-4665-830a-a4989c0bc72b","system_id":"levelo_inurba_marseille","lat":43.27311,"lon":5.39108,"is_reserved":false,"is_disabled":false,"rental_uris":{"android":"levelo://app?vid=e4a0a7aa-315e-4665-830a-a4989c0bc72b","ios":"levelo://app?vid=e4a0a7aa-315e-4665-830a-a4989c0bc72b"},"vehicle_type_id":"4","last_reported":1748023994,"current_range_meters":9200,"station_id":"ce4bhgp2rcd13ifvqfe0","pricing_plan_id":"cebpf4jnsgd1na2vs0mg"},{"bike_id":"e3e19b90-9823-4b53-b8a7-4c599b3176c2","system_id":"levelo_inurba_marseille","lat":43.250986,"lon":5.403355,"is_reserved":false,"is_disabled":false,"rental_uris":{"android":"levelo://app?vid=e3e19b90-9823-4b53-b8a7-4c599b3176c2","ios":"levelo://app?vid=e3e19b90-9823-4b53-b8a7-4c599b3176c2"},"vehicle_type_id":"4","last_reported":1748023994,"current_range_meters":9200,"station_id":"ce4bhlh2rcd13ifvqgig","pricing_plan_id":"cebpf4jnsgd1na2vs0mg"},{"bike_id":"3872a2da-d0b1-4f6c-b9f0-c92c52dfe7dd","system_id":"levelo_inurba_marseille","lat":43.28156,"lon":5.42637,"is_reserved":false,"is_disabled":false,"rental_uris":{"android":"levelo://app?vid=3872a2da-d0b1-4f6c-b9f0-c92c52dfe7dd","ios":"levelo://app?vid=3872a2da-d0b1-4f6c-b9f0-c92c52dfe7dd"},"vehicle_type_id":"4","last_reported":1748023994,"current_range_meters":9200,"station_id":"ce4bhnh2rcd13ifvqgug","pricing_plan_id":"cebpf4jnsgd1na2vs0mg"},{"bike_id":"780d44ea-9dfa-4892-93ef-998d12415c0d","system_id":"levelo_inurba_marseille","lat":43.26962,"lon":5.40249,"is_reserved":false,"is_disabled":false,"rental_uris":{"android":"levelo://app?vid=780d44ea-9dfa-4892-93ef-998d12415c0d","ios":"levelo://app?vid=780d44ea-9dfa-4892-93ef-998d12415c0d"},"vehicle_type_id":"4","last_reported":1748023994,"current_range_meters":9200,"station_id":"cjm6bp8fraef2m0cb0m0","pricing_plan_id":"cebpf4jnsgd1na2vs0mg"},{"bike_id":"d212ad20-625e-4ecb-8914-e8f325b78175","system_id":"levelo_inurba_marseille","lat":43.26969,"lon":5.40246,"is_reserved":false,"is_disabled":false,"rental_uris":{"android":"levelo://app?vid=d212ad20-625e-4ecb-8914-e8f325b78175","ios":"levelo://app?vid=d212ad20-625e-4ecb-8914-e8f325b78175"},"vehicle_type_id":"4","last_reported":1748023994,"current_range_meters":9200,"station_id":"cjm6bp8fraef2m0cb0m0","pricing_plan_id":"cebpf4jnsgd1na2vs0mg"},{"bike_id":"445c8e5d-653a-4f19-bcda-f05be4c05033","system_id":"levelo_inurba_marseille","lat":43.298393,"lon":5.364046,"is_reserved":false,"is_disabled":false,"rental_uris":{"android":"levelo://app?vid=445c8e5d-653a-4f19-bcda-f05be4c05033","ios":"levelo://app?vid=445c8e5d-653a-4f19-bcda-f05be4c05033"},"vehicle_type_id":"4","last_reported":1748023994,"current_range_meters":9600,"station_id":"ce4bgpp2rcd13ifvqc3g","pricing_plan_id":"cebpf4jnsgd1na2vs0mg"},{"bike_id":"28136e2a-e870-4f8d-8186-41229211cab4","system_id":"levelo_inurba_marseille","lat":43.2918,"lon":5.35812,"is_reserved":false,"is_disabled":false,"rental_uris":{"android":"levelo://app?vid=28136e2a-e870-4f8d-8186-41229211cab4","ios":"levelo://app?vid=28136e2a-e870-4f8d-8186-41229211cab4"},"vehicle_type_id":"4","last_reported":1748023994,"current_range_meters":9600,"station_id":"ce4bhb12rcd13ifvqel0","pricing_plan_id":"cebpf4jnsgd1na2vs0mg"},{"bike_id":"9cd22fed-04c4-474a-9727-f7f9467c9f14","system_id":"levelo_inurba_marseille","lat":43.26024,"lon":5.3755,"is_reserved":false,"is_disabled":false,"rental_uris":{"android":"levelo://app?vid=9cd22fed-04c4-474a-9727-f7f9467c9f14","ios":"levelo://app?vid=9cd22fed-04c4-474a-9727-f7f9467c9f14"},"vehicle_type_id":"4","last_reported":1748023994,"current_range_meters":9600,"station_id":"ce4bhgh2rcd13ifvqfa0","pricing_plan_id":"cebpf4jnsgd1na2vs0mg"},{"bike_id":"98c698e5-f785-40b1-9912-9175b478257b","system_id":"levelo_inurba_marseille","lat":43.29555,"lon":5.42292,"is_reserved":false,"is_disabled":false,"rental_uris":{"android":"levelo://app?vid=98c698e5-f785-40b1-9912-9175b478257b","ios":"levelo://app?vid=98c698e5-f785-40b1-9912-9175b478257b"},"vehicle_type_id":"4","last_reported":1748023994,"current_range_meters":9600,"station_id":"ce4bhph2rcd13ifvqhdg","pricing_plan_id":"cebpf4jnsgd1na2vs0mg"},{"bike_id":"af6e9929-3256-4d9c-924e-54b3f8db6179","system_id":"levelo_inurba_marseille","lat":43.29416,"lon":5.38623,"is_reserved":false,"is_disabled":false,"rental_uris":{"android":"levelo://app?vid=af6e9929-3256-4d9c-924e-54b3f8db6179","ios":"levelo://app?vid=af6e9929-3256-4d9c-924e-54b3f8db6179"},"vehicle_type_id":"4","last_reported":1748023994,"current_range_meters":10000,"station_id":"ce4bh2h2rcd13ifvqdh0","pricing_plan_id":"cebpf4jnsgd1na2vs0mg"},{"bike_id":"b4373012-8249-48f4-9bcd-74bed8259617","system_id":"levelo_inurba_marseille","lat":43.28028,"lon":5.36953,"is_reserved":false,"is_disabled":false,"rental_uris":{"android":"levelo://app?vid=b4373012-8249-48f4-9bcd-74bed8259617","ios":"levelo://app?vid=b4373012-8249-48f4-9bcd-74bed8259617"},"vehicle_type_id":"4","last_reported":1748023994,"current_range_meters":10000,"station_id":"ce4bha12rcd13ifvqef0","pricing_plan_id":"cebpf4jnsgd1na2vs0mg"},{"bike_id":"e42b1051-5ede-4349-816b-680b651ff51a","system_id":"levelo_inurba_marseille","lat":43.28641,"lon":5.3511,"is_reserved":false,"is_disabled":false,"rental_uris":{"android":"levelo://app?vid=e42b1051-5ede-4349-816b-680b651ff51a","ios":"levelo://app?vid=e42b1051-5ede-4349-816b-680b651ff51a"},"vehicle_type_id":"4","last_reported":1748023994,"current_range_meters":10000,"station_id":"ce4bhch2rcd13ifvqeug","pricing_plan_id":"cebpf4jnsgd1na2vs0mg"},{"bike_id":"3eada1c2-15cd-4ea6-8993-44ebf14edd28","system_id":"levelo_inurba_marseille","lat":43.26554,"lon":5.37288,"is_reserved":false,"is_disabled":false,"rental_uris":{"android":"levelo://app?vid=3eada1c2-15cd-4ea6-8993-44ebf14edd28","ios":"levelo://app?vid=3eada1c2-15cd-4ea6-8993-44ebf14edd28"},"vehicle_type_id":"4","last_reported":1748023994,"current_range_meters":10000,"station_id":"ce4bhg12rcd13ifvqf70","pricing_plan_id":"cebpf4jnsgd1na2vs0mg"},{"bike_id":"fead304d-8a75-47c8-9a48-ac8af3a41971","system_id":"levelo_inurba_marseille","lat":43.27317,"lon":5.39082,"is_reserved":false,"is_disabled":false,"rental_uris":{"android":"levelo://app?vid=fead304d-8a75-47c8-9a48-ac8af3a41971","ios":"levelo://app?vid=fead304d-8a75-47c8-9a48-ac8af3a41971"},"vehicle_type_id":"4","last_reported":1748023994,"current_range_meters":10000,"station_id":"ce4bhgp2rcd13ifvqfe0","pricing_plan_id":"cebpf4jnsgd1na2vs0mg"},{"bike_id":"5b30b6d5-2388-4be5-9358-b714f46c893d","system_id":"levelo_inurba_marseille","lat":43.26784,"lon":5.3941,"is_reserved":false,"is_disabled":false,"rental_uris":{"android":"levelo://app?vid=5b30b6d5-2388-4be5-9358-b714f46c893d","ios":"levelo://app?vid=5b30b6d5-2388-4be5-9358-b714f46c893d"},"vehicle_type_id":"4","last_reported":1748023994,"current_range_meters":10000,"station_id":"ce4bhh12rcd13ifvqfg0","pricing_plan_id":"cebpf4jnsgd1na2vs0mg"},{"bike_id":"1f8f2cf8-e258-4b66-9b66-66da44b9c55c","system_id":"levelo_inurba_marseille","lat":43.30989,"lon":5.40222,"is_reserved":false,"is_disabled":false,"rental_uris":{"android":"levelo://app?vid=1f8f2cf8-e258-4b66-9b66-66da44b9c55c","ios":"levelo://app?vid=1f8f2cf8-e258-4b66-9b66-66da44b9c55c"},"vehicle_type_id":"4","last_reported":1748023994,"current_range_meters":10800,"station_id":"","pricing_plan_id":"cebpf4jnsgd1na2vs0mg"},{"bike_id":"29782e98-913f-4ad8-b4b6-d5db2775fcd6","system_id":"levelo_inurba_marseille","lat":43.29008,"lon":5.3561,"is_reserved":false,"is_disabled":false,"rental_uris":{"android":"levelo://app?vid=29782e98-913f-4ad8-b4b6-d5db2775fcd6","ios":"levelo://app?vid=29782e98-913f-4ad8-b4b6-d5db2775fcd6"},"vehicle_type_id":"4","last_reported":1748023994,"current_range_meters":10800,"station_id":"ce4bhb92rcd13ifvqen0","pricing_plan_id":"cebpf4jnsgd1na2vs0mg"},{"bike_id":"b3779267-b441-4f19-ba14-fb5d6e2ab3c1","system_id":"levelo_inurba_marseille","lat":43.24998,"lon":5.38948,"is_reserved":false,"is_disabled":false,"rental_uris":{"android":"levelo://app?vid=b3779267-b441-4f19-ba14-fb5d6e2ab3c1","ios":"levelo://app?vid=b3779267-b441-4f19-ba14-fb5d6e2ab3c1"},"vehicle_type_id":"4","last_reported":1748023994,"current_range_meters":10800,"station_id":"ce4bhgp2rcd13ifvqfd0","pricing_plan_id":"cebpf4jnsgd1na2vs0mg"},{"bike_id":"552282b3-0e38-45bb-8f8c-feb6b67c398a","system_id":"levelo_inurba_marseille","lat":43.26801,"lon":5.394078,"is_reserved":false,"is_disabled":false,"rental_uris":{"android":"levelo://app?vid=552282b3-0e38-45bb-8f8c-feb6b67c398a","ios":"levelo://app?vid=552282b3-0e38-45bb-8f8c-feb6b67c398a"},"vehicle_type_id":"4","last_reported":1748023994,"current_range_meters":10800,"station_id":"ce4bhh12rcd13ifvqfg0","pricing_plan_id":"cebpf4jnsgd1na2vs0mg"},{"bike_id":"37ede679-426e-4ba8-bc4a-9d0736ab1431","system_id":"levelo_inurba_marseille","lat":43.26966,"lon":5.38637,"is_reserved":false,"is_disabled":false,"rental_uris":{"android":"levelo://app?vid=37ede679-426e-4ba8-bc4a-9d0736ab1431","ios":"levelo://app?vid=37ede679-426e-4ba8-bc4a-9d0736ab1431"},"vehicle_type_id":"4","last_reported":1748023994,"current_range_meters":10800,"station_id":"ce4bhh92rcd13ifvqfh0","pricing_plan_id":"cebpf4jnsgd1na2vs0mg"},{"bike_id":"1e164eaf-2ffb-4814-9442-b43f6b5c9f80","system_id":"levelo_inurba_marseille","lat":43.24184,"lon":5.36372,"is_reserved":false,"is_disabled":false,"rental_uris":{"android":"levelo://app?vid=1e164eaf-2ffb-4814-9442-b43f6b5c9f80","ios":"levelo://app?vid=1e164eaf-2ffb-4814-9442-b43f6b5c9f80"},"vehicle_type_id":"4","last_reported":1748023994,"current_range_meters":10800,"station_id":"cpo36qri1sfpv3e86is0","pricing_plan_id":"cebpf4jnsgd1na2vs0mg"},{"bike_id":"a34e1c8a-351b-4adc-918c-7576a04dfeba","system_id":"levelo_inurba_marseille","lat":43.31066,"lon":5.38354,"is_reserved":false,"is_disabled":false,"rental_uris":{"android":"levelo://app?vid=a34e1c8a-351b-4adc-918c-7576a04dfeba","ios":"levelo://app?vid=a34e1c8a-351b-4adc-918c-7576a04dfeba"},"vehicle_type_id":"4","last_reported":1748023994,"current_range_meters":11200,"station_id":"ce4bgv92rcd13ifvqcr0","pricing_plan_id":"cebpf4jnsgd1na2vs0mg"},{"bike_id":"23bb59d0-e0cc-4011-8341-3b6f3b50fa91","system_id":"levelo_inurba_marseille","lat":43.28857,"lon":5.35855,"is_reserved":false,"is_disabled":false,"rental_uris":{"android":"levelo://app?vid=23bb59d0-e0cc-4011-8341-3b6f3b50fa91","ios":"levelo://app?vid=23bb59d0-e0cc-4011-8341-3b6f3b50fa91"},"vehicle_type_id":"4","last_reported":1748023994,"current_range_meters":11200,"station_id":"ce4bhb12rcd13ifvqem0","pricing_plan_id":"cebpf4jnsgd1na2vs0mg"},{"bike_id":"dd40806f-eba5-4577-9663-709526fb7801","system_id":"levelo_inurba_marseille","lat":43.27313,"lon":5.3909,"is_reserved":false,"is_disabled":false,"rental_uris":{"android":"levelo://app?vid=dd40806f-eba5-4577-9663-709526fb7801","ios":"levelo://app?vid=dd40806f-eba5-4577-9663-709526fb7801"},"vehicle_type_id":"4","last_reported":1748023994,"current_range_meters":11200,"station_id":"ce4bhgp2rcd13ifvqfe0","pricing_plan_id":"cebpf4jnsgd1na2vs0mg"},{"bike_id":"a34d964a-2bb2-49a8-85bd-baed48c39661","system_id":"levelo_inurba_marseille","lat":43.26782,"lon":5.39415,"is_reserved":false,"is_disabled":false,"rental_uris":{"android":"levelo://app?vid=a34d964a-2bb2-49a8-85bd-baed48c39661","ios":"levelo://app?vid=a34d964a-2bb2-49a8-85bd-baed48c39661"},"vehicle_type_id":"4","last_reported":1748023994,"current_range_meters":11200,"station_id":"ce4bhh12rcd13ifvqfg0","pricing_plan_id":"cebpf4jnsgd1na2vs0mg"},{"bike_id":"2ea50577-1176-467c-8d1f-ce07d6571fb8","system_id":"levelo_inurba_marseille","lat":43.23195,"lon":5.35554,"is_reserved":false,"is_disabled":false,"rental_uris":{"android":"levelo://app?vid=2ea50577-1176-467c-8d1f-ce07d6571fb8","ios":"levelo://app?vid=2ea50577-1176-467c-8d1f-ce07d6571fb8"},"vehicle_type_id":"4","last_reported":1748023994,"current_range_meters":11200,"station_id":"ce4bhu92rcd13ifvqi70","pricing_plan_id":"cebpf4jnsgd1na2vs0mg"},{"bike_id":"bf662ae0-26e4-4bb7-9f9e-d0df53c116b8","system_id":"levelo_inurba_marseille","lat":43.23194,"lon":5.35559,"is_reserved":false,"is_disabled":false,"rental_uris":{"android":"levelo://app?vid=bf662ae0-26e4-4bb7-9f9e-d0df53c116b8","ios":"levelo://app?vid=bf662ae0-26e4-4bb7-9f9e-d0df53c116b8"},"vehicle_type_id":"4","last_reported":1748023994,"current_range_meters":11200,"station_id":"ce4bhu92rcd13ifvqi70","pricing_plan_id":"cebpf4jnsgd1na2vs0mg"},{"bike_id":"8302e8aa-48c0-4f19-853c-462e809ef8d3","system_id":"levelo_inurba_marseille","lat":43.29788,"lon":5.39324,"is_reserved":false,"is_disabled":false,"rental_uris":{"android":"levelo://app?vid=8302e8aa-48c0-4f19-853c-462e809ef8d3","ios":"levelo://app?vid=8302e8aa-48c0-4f19-853c-462e809ef8d3"},"vehicle_type_id":"4","last_reported":1748023994,"current_range_meters":11200,"station_id":"chh1huq6cuj3fo74tm60","pricing_plan_id":"cebpf4jnsgd1na2vs0mg"},{"bike_id":"7d6249f3-f84f-4c08-a76f-40ca1947970f","system_id":"levelo_inurba_marseille","lat":43.29306,"lon":5.371691,"is_reserved":false,"is_disabled":false,"rental_uris":{"android":"levelo://app?vid=7d6249f3-f84f-4c08-a76f-40ca1947970f","ios":"levelo://app?vid=7d6249f3-f84f-4c08-a76f-40ca1947970f"},"vehicle_type_id":"4","last_reported":1748023994,"current_range_meters":11600,"station_id":"ce4bgh92rcd13ifvqb40","pricing_plan_id":"cebpf4jnsgd1na2vs0mg"},{"bike_id":"2eade79b-0917-4c66-8514-04249621d42b","system_id":"levelo_inurba_marseille","lat":43.25576,"lon":5.38248,"is_reserved":false,"is_disabled":false,"rental_uris":{"android":"levelo://app?vid=2eade79b-0917-4c66-8514-04249621d42b","ios":"levelo://app?vid=2eade79b-0917-4c66-8514-04249621d42b"},"vehicle_type_id":"4","last_reported":1748023994,"current_range_meters":11600,"station_id":"ce4bhih2rcd13ifvqfs0","pricing_plan_id":"cebpf4jnsgd1na2vs0mg"},{"bike_id":"19894f63-916c-4d0c-8f05-fc7d43032177","system_id":"levelo_inurba_marseille","lat":43.28148,"lon":5.42668,"is_reserved":false,"is_disabled":false,"rental_uris":{"android":"levelo://app?vid=19894f63-916c-4d0c-8f05-fc7d43032177","ios":"levelo://app?vid=19894f63-916c-4d0c-8f05-fc7d43032177"},"vehicle_type_id":"4","last_reported":1748023994,"current_range_meters":11600,"station_id":"ce4bhnh2rcd13ifvqgug","pricing_plan_id":"cebpf4jnsgd1na2vs0mg"},{"bike_id":"3af1902c-c1d0-49b2-ab59-6dd7ff411dd2","system_id":"levelo_inurba_marseille","lat":43.25849,"lon":5.399,"is_reserved":false,"is_disabled":false,"rental_uris":{"android":"levelo://app?vid=3af1902c-c1d0-49b2-ab59-6dd7ff411dd2","ios":"levelo://app?vid=3af1902c-c1d0-49b2-ab59-6dd7ff411dd2"},"vehicle_type_id":"4","last_reported":1748023994,"current_range_meters":12000,"station_id":"ce4bhl92rcd13ifvqghg","pricing_plan_id":"cebpf4jnsgd1na2vs0mg"},{"bike_id":"fa529a29-8d21-4f13-9783-e1708a99c344","system_id":"levelo_inurba_marseille","lat":43.246516,"lon":5.388955,"is_reserved":false,"is_disabled":false,"rental_uris":{"android":"levelo://app?vid=fa529a29-8d21-4f13-9783-e1708a99c344","ios":"levelo://app?vid=fa529a29-8d21-4f13-9783-e1708a99c344"},"vehicle_type_id":"4","last_reported":1748023994,"current_range_meters":12000,"station_id":"ce4bhlh2rcd13ifvqgig","pricing_plan_id":"cebpf4jnsgd1na2vs0mg"},{"bike_id":"5d88ad18-2efa-4e4a-839a-f9380844e889","system_id":"levelo_inurba_marseille","lat":43.29557,"lon":5.42291,"is_reserved":false,"is_disabled":false,"rental_uris":{"android":"levelo://app?vid=5d88ad18-2efa-4e4a-839a-f9380844e889","ios":"levelo://app?vid=5d88ad18-2efa-4e4a-839a-f9380844e889"},"vehicle_type_id":"4","last_reported":1748023994,"current_range_meters":12000,"station_id":"ce4bhph2rcd13ifvqhdg","pricing_plan_id":"cebpf4jnsgd1na2vs0mg"},{"bike_id":"a448135a-64af-4f98-9f8a-578568c5303a","system_id":"levelo_inurba_marseille","lat":43.28448,"lon":5.39191,"is_reserved":false,"is_disabled":false,"rental_uris":{"android":"levelo://app?vid=a448135a-64af-4f98-9f8a-578568c5303a","ios":"levelo://app?vid=a448135a-64af-4f98-9f8a-578568c5303a"},"vehicle_type_id":"4","last_reported":1748023994,"current_range_meters":12400,"station_id":"ce4bhoh2rcd13ifvqh5g","pricing_plan_id":"cebpf4jnsgd1na2vs0mg"},{"bike_id":"8b2e90f1-176c-48dc-aa0b-acd4de1303c1","system_id":"levelo_inurba_marseille","lat":43.26801,"lon":5.40278,"is_reserved":false,"is_disabled":false,"rental_uris":{"android":"levelo://app?vid=8b2e90f1-176c-48dc-aa0b-acd4de1303c1","ios":"levelo://app?vid=8b2e90f1-176c-48dc-aa0b-acd4de1303c1"},"vehicle_type_id":"4","last_reported":1748023994,"current_range_meters":12400,"station_id":"ce501612rcd8frsf0b60","pricing_plan_id":"cebpf4jnsgd1na2vs0mg"},{"bike_id":"82979e57-cf99-4dba-974c-b640ac8178d4","system_id":"levelo_inurba_marseille","lat":43.29271,"lon":5.36846,"is_reserved":false,"is_disabled":false,"rental_uris":{"android":"levelo://app?vid=82979e57-cf99-4dba-974c-b640ac8178d4","ios":"levelo://app?vid=82979e57-cf99-4dba-974c-b640ac8178d4"},"vehicle_type_id":"4","last_reported":1748023994,"current_range_meters":12800,"station_id":"ce4bhbp2rcd13ifvqesg","pricing_plan_id":"cebpf4jnsgd1na2vs0mg"},{"bike_id":"da6ae96f-a1a1-4eac-925b-7c8695eac3e0","system_id":"levelo_inurba_marseille","lat":43.27206,"lon":5.39187,"is_reserved":false,"is_disabled":false,"rental_uris":{"android":"levelo://app?vid=da6ae96f-a1a1-4eac-925b-7c8695eac3e0","ios":"levelo://app?vid=da6ae96f-a1a1-4eac-925b-7c8695eac3e0"},"vehicle_type_id":"4","last_reported":1748023994,"current_range_meters":12800,"station_id":"ce4bhhp2rcd13ifvqfm0","pricing_plan_id":"cebpf4jnsgd1na2vs0mg"},{"bike_id":"df66a44b-7f8b-4658-b418-d7dbf5e9b86f","system_id":"levelo_inurba_marseille","lat":43.27832,"lon":5.39209,"is_reserved":false,"is_disabled":false,"rental_uris":{"android":"levelo://app?vid=df66a44b-7f8b-4658-b418-d7dbf5e9b86f","ios":"levelo://app?vid=df66a44b-7f8b-4658-b418-d7dbf5e9b86f"},"vehicle_type_id":"4","last_reported":1748023994,"current_range_meters":12800,"station_id":"ce4bhjp2rcd13ifvqga0","pricing_plan_id":"cebpf4jnsgd1na2vs0mg"},{"bike_id":"2474387a-6079-4a49-9fbe-ab2f9ed23ad4","system_id":"levelo_inurba_marseille","lat":43.29552,"lon":5.42293,"is_reserved":false,"is_disabled":false,"rental_uris":{"android":"levelo://app?vid=2474387a-6079-4a49-9fbe-ab2f9ed23ad4","ios":"levelo://app?vid=2474387a-6079-4a49-9fbe-ab2f9ed23ad4"},"vehicle_type_id":"4","last_reported":1748023994,"current_range_meters":12800,"station_id":"ce4bhph2rcd13ifvqhdg","pricing_plan_id":"cebpf4jnsgd1na2vs0mg"},{"bike_id":"9f656134-943d-4837-90af-a36d99e02dad","system_id":"levelo_inurba_marseille","lat":43.302,"lon":5.45371,"is_reserved":false,"is_disabled":false,"rental_uris":{"android":"levelo://app?vid=9f656134-943d-4837-90af-a36d99e02dad","ios":"levelo://app?vid=9f656134-943d-4837-90af-a36d99e02dad"},"vehicle_type_id":"4","last_reported":1748023994,"current_range_meters":13600,"station_id":"","pricing_plan_id":"cebpf4jnsgd1na2vs0mg"},{"bike_id":"55f32a8e-dcae-4100-bfa1-8b26f53a1e87","system_id":"levelo_inurba_marseille","lat":43.294145,"lon":5.386214,"is_reserved":false,"is_disabled":false,"rental_uris":{"android":"levelo://app?vid=55f32a8e-dcae-4100-bfa1-8b26f53a1e87","ios":"levelo://app?vid=55f32a8e-dcae-4100-bfa1-8b26f53a1e87"},"vehicle_type_id":"4","last_reported":1748023994,"current_range_meters":13600,"station_id":"ce4bh2h2rcd13ifvqdh0","pricing_plan_id":"cebpf4jnsgd1na2vs0mg"},{"bike_id":"483bd685-6986-4c65-89c2-fac7b427034c","system_id":"levelo_inurba_marseille","lat":43.27313,"lon":5.39076,"is_reserved":false,"is_disabled":false,"rental_uris":{"android":"levelo://app?vid=483bd685-6986-4c65-89c2-fac7b427034c","ios":"levelo://app?vid=483bd685-6986-4c65-89c2-fac7b427034c"},"vehicle_type_id":"4","last_reported":1748023994,"current_range_meters":13600,"station_id":"ce4bhgp2rcd13ifvqfe0","pricing_plan_id":"cebpf4jnsgd1na2vs0mg"},{"bike_id":"fd0b6eb4-495e-4358-9d13-81eb88a2de89","system_id":"levelo_inurba_marseille","lat":43.23176,"lon":5.39984,"is_reserved":false,"is_disabled":false,"rental_uris":{"android":"levelo://app?vid=fd0b6eb4-495e-4358-9d13-81eb88a2de89","ios":"levelo://app?vid=fd0b6eb4-495e-4358-9d13-81eb88a2de89"},"vehicle_type_id":"4","last_reported":1748023994,"current_range_meters":13600,"station_id":"ce4bhn12rcd13ifvqgqg","pricing_plan_id":"cebpf4jnsgd1na2vs0mg"},{"bike_id":"968776f7-697a-4e34-bca8-6b06a584de91","system_id":"levelo_inurba_marseille","lat":43.23183,"lon":5.39985,"is_reserved":false,"is_disabled":false,"rental_uris":{"android":"levelo://app?vid=968776f7-697a-4e34-bca8-6b06a584de91","ios":"levelo://app?vid=968776f7-697a-4e34-bca8-6b06a584de91"},"vehicle_type_id":"4","last_reported":1748023994,"current_range_meters":13600,"station_id":"ce4bhn12rcd13ifvqgqg","pricing_plan_id":"cebpf4jnsgd1na2vs0mg"},{"bike_id":"e0c890fd-be77-4ffb-840b-a9ec936fb36e","system_id":"levelo_inurba_marseille","lat":43.29557,"lon":5.42275,"is_reserved":false,"is_disabled":false,"rental_uris":{"android":"levelo://app?vid=e0c890fd-be77-4ffb-840b-a9ec936fb36e","ios":"levelo://app?vid=e0c890fd-be77-4ffb-840b-a9ec936fb36e"},"vehicle_type_id":"4","last_reported":1748023994,"current_range_meters":13600,"station_id":"ce4bhph2rcd13ifvqhdg","pricing_plan_id":"cebpf4jnsgd1na2vs0mg"},{"bike_id":"3da04a3a-16dd-46bd-a906-a6561bf763a8","system_id":"levelo_inurba_marseille","lat":43.32964,"lon":5.39393,"is_reserved":false,"is_disabled":false,"rental_uris":{"android":"levelo://app?vid=3da04a3a-16dd-46bd-a906-a6561bf763a8","ios":"levelo://app?vid=3da04a3a-16dd-46bd-a906-a6561bf763a8"},"vehicle_type_id":"4","last_reported":1748023994,"current_range_meters":14000,"station_id":"","pricing_plan_id":"cebpf4jnsgd1na2vs0mg"},{"bike_id":"887db284-2b25-47f9-8bf9-46d7d8b2c380","system_id":"levelo_inurba_marseille","lat":43.27321,"lon":5.39083,"is_reserved":false,"is_disabled":false,"rental_uris":{"android":"levelo://app?vid=887db284-2b25-47f9-8bf9-46d7d8b2c380","ios":"levelo://app?vid=887db284-2b25-47f9-8bf9-46d7d8b2c380"},"vehicle_type_id":"4","last_reported":1748023994,"current_range_meters":14000,"station_id":"ce4bhgp2rcd13ifvqfe0","pricing_plan_id":"cebpf4jnsgd1na2vs0mg"},{"bike_id":"eeb64c5f-dd78-4def-9a36-cbb44960556a","system_id":"levelo_inurba_marseille","lat":43.27053,"lon":5.40255,"is_reserved":false,"is_disabled":false,"rental_uris":{"android":"levelo://app?vid=eeb64c5f-dd78-4def-9a36-cbb44960556a","ios":"levelo://app?vid=eeb64c5f-dd78-4def-9a36-cbb44960556a"},"vehicle_type_id":"4","last_reported":1748023994,"current_range_meters":14000,"station_id":"ce4bhk92rcd13ifvqgc0","pricing_plan_id":"cebpf4jnsgd1na2vs0mg"},{"bike_id":"44b877dd-395a-4afc-8cfc-8878d50bff99","system_id":"levelo_inurba_marseille","lat":43.25864,"lon":5.39908,"is_reserved":false,"is_disabled":false,"rental_uris":{"android":"levelo://app?vid=44b877dd-395a-4afc-8cfc-8878d50bff99","ios":"levelo://app?vid=44b877dd-395a-4afc-8cfc-8878d50bff99"},"vehicle_type_id":"4","last_reported":1748023994,"current_range_meters":14000,"station_id":"ce4bhl92rcd13ifvqghg","pricing_plan_id":"cebpf4jnsgd1na2vs0mg"},{"bike_id":"ceff330e-b302-4e21-83c1-a76bf3ccdc41","system_id":"levelo_inurba_marseille","lat":43.22932,"lon":5.35378,"is_reserved":false,"is_disabled":false,"rental_uris":{"android":"levelo://app?vid=ceff330e-b302-4e21-83c1-a76bf3ccdc41","ios":"levelo://app?vid=ceff330e-b302-4e21-83c1-a76bf3ccdc41"},"vehicle_type_id":"4","last_reported":1748023994,"current_range_meters":14000,"station_id":"cpo3532slgdg3j2ikp40","pricing_plan_id":"cebpf4jnsgd1na2vs0mg"},{"bike_id":"fc8c72ad-ca61-42c6-ae90-f61b57e45328","system_id":"levelo_inurba_marseille","lat":43.279054,"lon":5.418609,"is_reserved":false,"is_disabled":false,"rental_uris":{"android":"levelo://app?vid=fc8c72ad-ca61-42c6-ae90-f61b57e45328","ios":"levelo://app?vid=fc8c72ad-ca61-42c6-ae90-f61b57e45328"},"vehicle_type_id":"4","last_reported":1748023994,"current_range_meters":14400,"station_id":"","pricing_plan_id":"cebpf4jnsgd1na2vs0mg"},{"bike_id":"c0a4ea02-0e5c-43bc-bdcc-ae6ef76c8e7b","system_id":"levelo_inurba_marseille","lat":43.314904,"lon":5.373045,"is_reserved":false,"is_disabled":false,"rental_uris":{"android":"levelo://app?vid=c0a4ea02-0e5c-43bc-bdcc-ae6ef76c8e7b","ios":"levelo://app?vid=c0a4ea02-0e5c-43bc-bdcc-ae6ef76c8e7b"},"vehicle_type_id":"4","last_reported":1748023994,"current_range_meters":14400,"station_id":"ce4bgt12rcd13ifvqcd0","pricing_plan_id":"cebpf4jnsgd1na2vs0mg"},{"bike_id":"749f218b-1d6a-4096-8055-3fa064ee5630","system_id":"levelo_inurba_marseille","lat":43.28621,"lon":5.3511,"is_reserved":false,"is_disabled":false,"rental_uris":{"android":"levelo://app?vid=749f218b-1d6a-4096-8055-3fa064ee5630","ios":"levelo://app?vid=749f218b-1d6a-4096-8055-3fa064ee5630"},"vehicle_type_id":"4","last_reported":1748023994,"current_range_meters":14400,"station_id":"ce4bhch2rcd13ifvqeug","pricing_plan_id":"cebpf4jnsgd1na2vs0mg"},{"bike_id":"7e1c6d2b-9db2-4dbf-8f45-2f5134846033","system_id":"levelo_inurba_marseille","lat":43.28157,"lon":5.42675,"is_reserved":false,"is_disabled":false,"rental_uris":{"android":"levelo://app?vid=7e1c6d2b-9db2-4dbf-8f45-2f5134846033","ios":"levelo://app?vid=7e1c6d2b-9db2-4dbf-8f45-2f5134846033"},"vehicle_type_id":"4","last_reported":1748023994,"current_range_meters":14400,"station_id":"ce4bhnh2rcd13ifvqgug","pricing_plan_id":"cebpf4jnsgd1na2vs0mg"},{"bike_id":"293d61e5-2bb1-407f-9e33-e203d0ecedbf","system_id":"levelo_inurba_marseille","lat":43.2799,"lon":5.40002,"is_reserved":false,"is_disabled":false,"rental_uris":{"android":"levelo://app?vid=293d61e5-2bb1-407f-9e33-e203d0ecedbf","ios":"levelo://app?vid=293d61e5-2bb1-407f-9e33-e203d0ecedbf"},"vehicle_type_id":"4","last_reported":1748023994,"current_range_meters":14400,"station_id":"ce4bho92rcd13ifvqh4g","pricing_plan_id":"cebpf4jnsgd1na2vs0mg"},{"bike_id":"b959a865-fc01-4964-9b1d-7e25b047370d","system_id":"levelo_inurba_marseille","lat":43.23184,"lon":5.35544,"is_reserved":false,"is_disabled":false,"rental_uris":{"android":"levelo://app?vid=b959a865-fc01-4964-9b1d-7e25b047370d","ios":"levelo://app?vid=b959a865-fc01-4964-9b1d-7e25b047370d"},"vehicle_type_id":"4","last_reported":1748023994,"current_range_meters":14400,"station_id":"ce4bhu92rcd13ifvqi70","pricing_plan_id":"cebpf4jnsgd1na2vs0mg"},{"bike_id":"8bf531c8-63c9-4599-a836-ffb8cfe6db01","system_id":"levelo_inurba_marseille","lat":43.24181,"lon":5.36377,"is_reserved":false,"is_disabled":false,"rental_uris":{"android":"levelo://app?vid=8bf531c8-63c9-4599-a836-ffb8cfe6db01","ios":"levelo://app?vid=8bf531c8-63c9-4599-a836-ffb8cfe6db01"},"vehicle_type_id":"4","last_reported":1748023994,"current_range_meters":14400,"station_id":"cpo36qri1sfpv3e86is0","pricing_plan_id":"cebpf4jnsgd1na2vs0mg"},{"bike_id":"75e91607-f093-41b1-947a-69b62fe724b6","system_id":"levelo_inurba_marseille","lat":43.34736,"lon":5.34449,"is_reserved":false,"is_disabled":false,"rental_uris":{"android":"levelo://app?vid=75e91607-f093-41b1-947a-69b62fe724b6","ios":"levelo://app?vid=75e91607-f093-41b1-947a-69b62fe724b6"},"vehicle_type_id":"4","last_reported":1748023994,"current_range_meters":14800,"station_id":"","pricing_plan_id":"cebpf4jnsgd1na2vs0mg"},{"bike_id":"71c515d3-c7fd-4bc7-b6c5-776cef3fe5f6","system_id":"levelo_inurba_marseille","lat":43.269,"lon":5.40267,"is_reserved":false,"is_disabled":false,"rental_uris":{"android":"levelo://app?vid=71c515d3-c7fd-4bc7-b6c5-776cef3fe5f6","ios":"levelo://app?vid=71c515d3-c7fd-4bc7-b6c5-776cef3fe5f6"},"vehicle_type_id":"4","last_reported":1748023994,"current_range_meters":14800,"station_id":"","pricing_plan_id":"cebpf4jnsgd1na2vs0mg"},{"bike_id":"29d23aa8-549b-4e0a-84f1-5154882d2f1a","system_id":"levelo_inurba_marseille","lat":43.27317,"lon":5.39076,"is_reserved":false,"is_disabled":false,"rental_uris":{"android":"levelo://app?vid=29d23aa8-549b-4e0a-84f1-5154882d2f1a","ios":"levelo://app?vid=29d23aa8-549b-4e0a-84f1-5154882d2f1a"},"vehicle_type_id":"4","last_reported":1748023994,"current_range_meters":14800,"station_id":"ce4bhgp2rcd13ifvqfe0","pricing_plan_id":"cebpf4jnsgd1na2vs0mg"},{"bike_id":"7eadeeaf-2412-471b-a191-ba0bb88a6661","system_id":"levelo_inurba_marseille","lat":43.25498,"lon":5.37648,"is_reserved":false,"is_disabled":false,"rental_uris":{"android":"levelo://app?vid=7eadeeaf-2412-471b-a191-ba0bb88a6661","ios":"levelo://app?vid=7eadeeaf-2412-471b-a191-ba0bb88a6661"},"vehicle_type_id":"4","last_reported":1748023994,"current_range_meters":14800,"station_id":"ce4bhh12rcd13ifvqff0","pricing_plan_id":"cebpf4jnsgd1na2vs0mg"},{"bike_id":"239f919b-1b74-41bf-b217-b16d7634c9a7","system_id":"levelo_inurba_marseille","lat":43.26061,"lon":5.39393,"is_reserved":false,"is_disabled":false,"rental_uris":{"android":"levelo://app?vid=239f919b-1b74-41bf-b217-b16d7634c9a7","ios":"levelo://app?vid=239f919b-1b74-41bf-b217-b16d7634c9a7"},"vehicle_type_id":"4","last_reported":1748023994,"current_range_meters":14800,"station_id":"ce4bhh92rcd13ifvqfj0","pricing_plan_id":"cebpf4jnsgd1na2vs0mg"},{"bike_id":"aff93472-a212-4307-a531-e7ce6c8941c6","system_id":"levelo_inurba_marseille","lat":43.23961,"lon":5.3663,"is_reserved":false,"is_disabled":false,"rental_uris":{"android":"levelo://app?vid=aff93472-a212-4307-a531-e7ce6c8941c6","ios":"levelo://app?vid=aff93472-a212-4307-a531-e7ce6c8941c6"},"vehicle_type_id":"4","last_reported":1748023994,"current_range_meters":14800,"station_id":"ce4bhi12rcd13ifvqfp0","pricing_plan_id":"cebpf4jnsgd1na2vs0mg"},{"bike_id":"c0b1ba3b-5a5f-4006-92f2-e0b5fde61a71","system_id":"levelo_inurba_marseille","lat":43.26911,"lon":5.4025,"is_reserved":false,"is_disabled":false,"rental_uris":{"android":"levelo://app?vid=c0b1ba3b-5a5f-4006-92f2-e0b5fde61a71","ios":"levelo://app?vid=c0b1ba3b-5a5f-4006-92f2-e0b5fde61a71"},"vehicle_type_id":"4","last_reported":1748023994,"current_range_meters":14800,"station_id":"cjm6bp8fraef2m0cb0m0","pricing_plan_id":"cebpf4jnsgd1na2vs0mg"},{"bike_id":"6b5ba00f-cb00-4786-b497-d59edaa5245e","system_id":"levelo_inurba_marseille","lat":43.291,"lon":5.38157,"is_reserved":false,"is_disabled":false,"rental_uris":{"android":"levelo://app?vid=6b5ba00f-cb00-4786-b497-d59edaa5245e","ios":"levelo://app?vid=6b5ba00f-cb00-4786-b497-d59edaa5245e"},"vehicle_type_id":"4","last_reported":1748023994,"current_range_meters":15200,"station_id":"ce4bh512rcd13ifvqe2g","pricing_plan_id":"cebpf4jnsgd1na2vs0mg"},{"bike_id":"95f97224-1616-448e-aaab-7642fd82bbb8","system_id":"levelo_inurba_marseille","lat":43.267917,"lon":5.3942,"is_reserved":false,"is_disabled":false,"rental_uris":{"android":"levelo://app?vid=95f97224-1616-448e-aaab-7642fd82bbb8","ios":"levelo://app?vid=95f97224-1616-448e-aaab-7642fd82bbb8"},"vehicle_type_id":"4","last_reported":1748023994,"current_range_meters":15200,"station_id":"ce4bhh12rcd13ifvqfg0","pricing_plan_id":"cebpf4jnsgd1na2vs0mg"},{"bike_id":"58611e3a-8bf2-4851-a45d-234440cf7ebf","system_id":"levelo_inurba_marseille","lat":43.25819,"lon":5.3945,"is_reserved":false,"is_disabled":false,"rental_uris":{"android":"levelo://app?vid=58611e3a-8bf2-4851-a45d-234440cf7ebf","ios":"levelo://app?vid=58611e3a-8bf2-4851-a45d-234440cf7ebf"},"vehicle_type_id":"4","last_reported":1748023994,"current_range_meters":15200,"station_id":"ce4bhip2rcd13ifvqft0","pricing_plan_id":"cebpf4jnsgd1na2vs0mg"},{"bike_id":"30f69e75-5381-4aa0-a638-db3441567877","system_id":"levelo_inurba_marseille","lat":43.2416,"lon":5.39727,"is_reserved":false,"is_disabled":false,"rental_uris":{"android":"levelo://app?vid=30f69e75-5381-4aa0-a638-db3441567877","ios":"levelo://app?vid=30f69e75-5381-4aa0-a638-db3441567877"},"vehicle_type_id":"4","last_reported":1748023994,"current_range_meters":15200,"station_id":"ce4bhn12rcd13ifvqgpg","pricing_plan_id":"cebpf4jnsgd1na2vs0mg"},{"bike_id":"d54dfd37-30af-43fe-9214-e8f02283bdef","system_id":"levelo_inurba_marseille","lat":43.30877,"lon":5.39659,"is_reserved":false,"is_disabled":false,"rental_uris":{"android":"levelo://app?vid=d54dfd37-30af-43fe-9214-e8f02283bdef","ios":"levelo://app?vid=d54dfd37-30af-43fe-9214-e8f02283bdef"},"vehicle_type_id":"4","last_reported":1748023994,"current_range_meters":16000,"station_id":"ce4bh012rcd13ifvqcv0","pricing_plan_id":"cebpf4jnsgd1na2vs0mg"},{"bike_id":"3a682c28-a162-4620-933d-7e933746fecf","system_id":"levelo_inurba_marseille","lat":43.22516,"lon":5.34769,"is_reserved":false,"is_disabled":false,"rental_uris":{"android":"levelo://app?vid=3a682c28-a162-4620-933d-7e933746fecf","ios":"levelo://app?vid=3a682c28-a162-4620-933d-7e933746fecf"},"vehicle_type_id":"4","last_reported":1748023994,"current_range_meters":16000,"station_id":"ce4bhn12rcd13ifvqgqg","pricing_plan_id":"cebpf4jnsgd1na2vs0mg"},{"bike_id":"e49456fc-669f-4653-a20b-0cdf8e3163cb","system_id":"levelo_inurba_marseille","lat":43.30359,"lon":5.41881,"is_reserved":false,"is_disabled":false,"rental_uris":{"android":"levelo://app?vid=e49456fc-669f-4653-a20b-0cdf8e3163cb","ios":"levelo://app?vid=e49456fc-669f-4653-a20b-0cdf8e3163cb"},"vehicle_type_id":"4","last_reported":1748023994,"current_range_meters":16000,"station_id":"ce4bhop2rcd13ifvqh7g","pricing_plan_id":"cebpf4jnsgd1na2vs0mg"},{"bike_id":"b88e2cb9-ca58-4796-8bef-450219c199dd","system_id":"levelo_inurba_marseille","lat":43.309052,"lon":5.36843,"is_reserved":false,"is_disabled":false,"rental_uris":{"android":"levelo://app?vid=b88e2cb9-ca58-4796-8bef-450219c199dd","ios":"levelo://app?vid=b88e2cb9-ca58-4796-8bef-450219c199dd"},"vehicle_type_id":"4","last_reported":1748023994,"current_range_meters":16400,"station_id":"ce4bgn92rcd13ifvqbvg","pricing_plan_id":"cebpf4jnsgd1na2vs0mg"},{"bike_id":"3faeeef2-afdd-404a-a017-e94a8a79e665","system_id":"levelo_inurba_marseille","lat":43.29184,"lon":5.35795,"is_reserved":false,"is_disabled":false,"rental_uris":{"android":"levelo://app?vid=3faeeef2-afdd-404a-a017-e94a8a79e665","ios":"levelo://app?vid=3faeeef2-afdd-404a-a017-e94a8a79e665"},"vehicle_type_id":"4","last_reported":1748023994,"current_range_meters":16400,"station_id":"ce4bhb12rcd13ifvqel0","pricing_plan_id":"cebpf4jnsgd1na2vs0mg"},{"bike_id":"41e8aa44-92d2-486b-a6d4-64aef19385db","system_id":"levelo_inurba_marseille","lat":43.25576,"lon":5.38238,"is_reserved":false,"is_disabled":false,"rental_uris":{"android":"levelo://app?vid=41e8aa44-92d2-486b-a6d4-64aef19385db","ios":"levelo://app?vid=41e8aa44-92d2-486b-a6d4-64aef19385db"},