{"last_updated":1746461608,"ttl":60,"version":"2.2","data":{"bikes":[{"bike_id":"ee0fbc1a-d449-496c-954f-c83a90254226","system_id":"levelo_inurba_marseille","lat":43.29881,"lon":5.39736,"is_reserved":false,"is_disabled":false,"rental_uris":{"android":"levelo://app?vid=ee0fbc1a-d449-496c-954f-c83a90254226","ios":"levelo://app?vid=ee0fbc1a-d449-496c-954f-c83a90254226"},"vehicle_type_id":"4","last_reported":1746461608,"current_range_meters":2800,"station_id":"ce4bh0h2rcd13ifvqd50","pricing_plan_id":"cebpf4jnsgd1na2vs0mg"},{"bike_id":"8749cfd4-edd2-48e6-8ae1-d76a65dc5fba","system_id":"levelo_inurba_marseille","lat":43.302526,"lon":5.400797,"is_reserved":false,"is_disabled":false,"rental_uris":{"android":"levelo://app?vid=8749cfd4-edd2-48e6-8ae1-d76a65dc5fba","ios":"levelo://app?vid=8749cfd4-edd2-48e6-8ae1-d76a65dc5fba"},"vehicle_type_id":"4","last_reported":1746461608,"current_range_meters":2800,"station_id":"ce4bgvh2rcd13ifvqcs0","pricing_plan_id":"cebpf4jnsgd1na2vs0mg"},{"bike_id":"3aa177ae-10a0-4bfb-adf8-474dd0717141","system_id":"levelo_inurba_marseille","lat":43.27945,"lon":5.41056,"is_reserved":false,"is_disabled":false,"rental_uris":{"android":"levelo://app?vid=3aa177ae-10a0-4bfb-adf8-474dd0717141","ios":"levelo://app?vid=3aa177ae-10a0-4bfb-adf8-474dd0717141"},"vehicle_type_id":"4","last_reported":1746461608,"current_range_meters":2800,"station_id":"ce4bhnp2rcd13ifvqh0g","pricing_plan_id":"cebpf4jnsgd1na2vs0mg"},{"bike_id":"f281db01-f2b8-404c-ab68-854318c9619d","system_id":"levelo_inurba_marseille","lat":43.29104,"lon":5.38151,"is_reserved":false,"is_disabled":false,"rental_uris":{"android":"levelo://app?vid=f281db01-f2b8-404c-ab68-854318c9619d","ios":"levelo://app?vid=f281db01-f2b8-404c-ab68-854318c9619d"},"vehicle_type_id":"4","last_reported":1746461608,"current_range_meters":2000,"station_id":"ce4bh512rcd13ifvqe2g","pricing_plan_id":"cebpf4jnsgd1na2vs0mg"},{"bike_id":"efeb58a6-6850-4113-aeef-7d4ae06aed8f","system_id":"levelo_inurba_marseille","lat":43.24389,"lon":5.3706,"is_reserved":false,"is_disabled":false,"rental_uris":{"android":"levelo://app?vid=efeb58a6-6850-4113-aeef-7d4ae06aed8f","ios":"levelo://app?vid=efeb58a6-6850-4113-aeef-7d4ae06aed8f"},"vehicle_type_id":"4","last_reported":1746461608,"current_range_meters":2800,"station_id":"ce4bhhh2rcd13ifvqfk0","pricing_plan_id":"cebpf4jnsgd1na2vs0mg"},{"bike_id":"6982404b-924c-4ee6-985e-963201f08520","system_id":"levelo_inurba_marseille","lat":43.29873,"lon":5.39733,"is_reserved":false,"is_disabled":false,"rental_uris":{"android":"levelo://app?vid=6982404b-924c-4ee6-985e-963201f08520","ios":"levelo://app?vid=6982404b-924c-4ee6-985e-963201f08520"},"vehicle_type_id":"4","last_reported":1746461608,"current_range_meters":3200,"station_id":"ce4bh0h2rcd13ifvqd50","pricing_plan_id":"cebpf4jnsgd1na2vs0mg"},{"bike_id":"70d5c9d2-78f3-4981-953f-7d878de90240","system_id":"levelo_inurba_marseille","lat":43.29889,"lon":5.3891,"is_reserved":false,"is_disabled":false,"rental_uris":{"android":"levelo://app?vid=70d5c9d2-78f3-4981-953f-7d878de90240","ios":"levelo://app?vid=70d5c9d2-78f3-4981-953f-7d878de90240"},"vehicle_type_id":"4","last_reported":1746461608,"current_range_meters":6400,"station_id":"ce4bh392rcd13ifvqdl0","pricing_plan_id":"cebpf4jnsgd1na2vs0mg"},{"bike_id":"a3dd2402-8597-4e6d-b01d-b6e708474c16","system_id":"levelo_inurba_marseille","lat":43.29971,"lon":5.38498,"is_reserved":false,"is_disabled":false,"rental_uris":{"android":"levelo://app?vid=a3dd2402-8597-4e6d-b01d-b6e708474c16","ios":"levelo://app?vid=a3dd2402-8597-4e6d-b01d-b6e708474c16"},"vehicle_type_id":"4","last_reported":1746461608,"current_range_meters":3200,"station_id":"ce4bgj92rcd13ifvqbd0","pricing_plan_id":"cebpf4jnsgd1na2vs0mg"},{"bike_id":"1f71b3b4-71c4-49b5-96eb-3545dcc6a0f7","system_id":"levelo_inurba_marseille","lat":43.21749,"lon":5.346032,"is_reserved":false,"is_disabled":false,"rental_uris":{"android":"levelo://app?vid=1f71b3b4-71c4-49b5-96eb-3545dcc6a0f7","ios":"levelo://app?vid=1f71b3b4-71c4-49b5-96eb-3545dcc6a0f7"},"vehicle_type_id":"4","last_reported":1746461608,"current_range_meters":3200,"station_id":"","pricing_plan_id":"cebpf4jnsgd1na2vs0mg"},{"bike_id":"730334d4-d4d7-4f18-8151-9ed40c290ce8","system_id":"levelo_inurba_marseille","lat":43.30142,"lon":5.3807,"is_reserved":false,"is_disabled":false,"rental_uris":{"android":"levelo://app?vid=730334d4-d4d7-4f18-8151-9ed40c290ce8","ios":"levelo://app?vid=730334d4-d4d7-4f18-8151-9ed40c290ce8"},"vehicle_type_id":"4","last_reported":1746461608,"current_range_meters":3600,"station_id":"ce4bgjp2rcd13ifvqbh0","pricing_plan_id":"cebpf4jnsgd1na2vs0mg"},{"bike_id":"a0fbfaa6-3d43-4db6-bd96-2169d75d671c","system_id":"levelo_inurba_marseille","lat":43.29518,"lon":5.39042,"is_reserved":false,"is_disabled":false,"rental_uris":{"android":"levelo://app?vid=a0fbfaa6-3d43-4db6-bd96-2169d75d671c","ios":"levelo://app?vid=a0fbfaa6-3d43-4db6-bd96-2169d75d671c"},"vehicle_type_id":"4","last_reported":1746461608,"current_range_meters":3200,"station_id":"ce4bh3p2rcd13ifvqdp0","pricing_plan_id":"cebpf4jnsgd1na2vs0mg"},{"bike_id":"beab1379-4eb1-4e23-bac8-5bfee6da15bd","system_id":"levelo_inurba_marseille","lat":43.27958,"lon":5.4105,"is_reserved":false,"is_disabled":false,"rental_uris":{"android":"levelo://app?vid=beab1379-4eb1-4e23-bac8-5bfee6da15bd","ios":"levelo://app?vid=beab1379-4eb1-4e23-bac8-5bfee6da15bd"},"vehicle_type_id":"4","last_reported":1746461608,"current_range_meters":4000,"station_id":"ce4bhnp2rcd13ifvqh0g","pricing_plan_id":"cebpf4jnsgd1na2vs0mg"},{"bike_id":"8bab82af-67e9-4a09-ad80-11d2bf3510ed","system_id":"levelo_inurba_marseille","lat":43.2846,"lon":5.35891,"is_reserved":false,"is_disabled":false,"rental_uris":{"android":"levelo://app?vid=8bab82af-67e9-4a09-ad80-11d2bf3510ed","ios":"levelo://app?vid=8bab82af-67e9-4a09-ad80-11d2bf3510ed"},"vehicle_type_id":"4","last_reported":1746461608,"current_range_meters":4400,"station_id":"ce4bhah2rcd13ifvqei0","pricing_plan_id":"cebpf4jnsgd1na2vs0mg"},{"bike_id":"9399b2f6-65eb-484f-93e7-ebbc626c4fdb","system_id":"levelo_inurba_marseille","lat":43.30803,"lon":5.38155,"is_reserved":false,"is_disabled":false,"rental_uris":{"android":"levelo://app?vid=9399b2f6-65eb-484f-93e7-ebbc626c4fdb","ios":"levelo://app?vid=9399b2f6-65eb-484f-93e7-ebbc626c4fdb"},"vehicle_type_id":"4","last_reported":1746461608,"current_range_meters":4000,"station_id":"ce4bgt12rcd13ifvqce0","pricing_plan_id":"cebpf4jnsgd1na2vs0mg"},{"bike_id":"e19f07bd-cb29-4afe-8e87-d5b28f0876c5","system_id":"levelo_inurba_marseille","lat":43.27169,"lon":5.40986,"is_reserved":false,"is_disabled":false,"rental_uris":{"android":"levelo://app?vid=e19f07bd-cb29-4afe-8e87-d5b28f0876c5","ios":"levelo://app?vid=e19f07bd-cb29-4afe-8e87-d5b28f0876c5"},"vehicle_type_id":"4","last_reported":1746461608,"current_range_meters":4400,"station_id":"ce4bhl12rcd13ifvqgf0","pricing_plan_id":"cebpf4jnsgd1na2vs0mg"},{"bike_id":"49aebb43-215c-47e3-885c-99d797b50b0f","system_id":"levelo_inurba_marseille","lat":43.27043,"lon":5.40294,"is_reserved":false,"is_disabled":false,"rental_uris":{"android":"levelo://app?vid=49aebb43-215c-47e3-885c-99d797b50b0f","ios":"levelo://app?vid=49aebb43-215c-47e3-885c-99d797b50b0f"},"vehicle_type_id":"4","last_reported":1746461608,"current_range_meters":4400,"station_id":"ce4bhk92rcd13ifvqgc0","pricing_plan_id":"cebpf4jnsgd1na2vs0mg"},{"bike_id":"51771151-d25f-436e-a460-f6bacbb02bcc","system_id":"levelo_inurba_marseille","lat":43.29807,"lon":5.38106,"is_reserved":false,"is_disabled":false,"rental_uris":{"android":"levelo://app?vid=51771151-d25f-436e-a460-f6bacbb02bcc","ios":"levelo://app?vid=51771151-d25f-436e-a460-f6bacbb02bcc"},"vehicle_type_id":"4","last_reported":1746461608,"current_range_meters":4800,"station_id":"ce4bgip2rcd13ifvqbb0","pricing_plan_id":"cebpf4jnsgd1na2vs0mg"},{"bike_id":"8092750a-26a2-468c-8ee7-7a222aeed71c","system_id":"levelo_inurba_marseille","lat":43.29521,"lon":5.39036,"is_reserved":false,"is_disabled":false,"rental_uris":{"android":"levelo://app?vid=8092750a-26a2-468c-8ee7-7a222aeed71c","ios":"levelo://app?vid=8092750a-26a2-468c-8ee7-7a222aeed71c"},"vehicle_type_id":"4","last_reported":1746461608,"current_range_meters":4800,"station_id":"ce4bh3p2rcd13ifvqdp0","pricing_plan_id":"cebpf4jnsgd1na2vs0mg"},{"bike_id":"e080a43d-a8b3-4a70-9ed0-c058c452f99f","system_id":"levelo_inurba_marseille","lat":43.30417,"lon":5.41285,"is_reserved":false,"is_disabled":false,"rental_uris":{"android":"levelo://app?vid=e080a43d-a8b3-4a70-9ed0-c058c452f99f","ios":"levelo://app?vid=e080a43d-a8b3-4a70-9ed0-c058c452f99f"},"vehicle_type_id":"4","last_reported":1746461608,"current_range_meters":5600,"station_id":"ce4bhop2rcd13ifvqh8g","pricing_plan_id":"cebpf4jnsgd1na2vs0mg"},{"bike_id":"19cc5d4a-3669-481b-add7-2079b93dcf06","system_id":"levelo_inurba_marseille","lat":43.27946,"lon":5.41046,"is_reserved":false,"is_disabled":false,"rental_uris":{"android":"levelo://app?vid=19cc5d4a-3669-481b-add7-2079b93dcf06","ios":"levelo://app?vid=19cc5d4a-3669-481b-add7-2079b93dcf06"},"vehicle_type_id":"4","last_reported":1746461608,"current_range_meters":6000,"station_id":"ce4bhnp2rcd13ifvqh0g","pricing_plan_id":"cebpf4jnsgd1na2vs0mg"},{"bike_id":"e37e53df-143e-4d0a-9dd5-0d71a8615123","system_id":"levelo_inurba_marseille","lat":43.29705,"lon":5.37716,"is_reserved":false,"is_disabled":false,"rental_uris":{"android":"levelo://app?vid=e37e53df-143e-4d0a-9dd5-0d71a8615123","ios":"levelo://app?vid=e37e53df-143e-4d0a-9dd5-0d71a8615123"},"vehicle_type_id":"4","last_reported":1746461608,"current_range_meters":6000,"station_id":"ce4bgkh2rcd13ifvqbl0","pricing_plan_id":"cebpf4jnsgd1na2vs0mg"},{"bike_id":"482344f1-460c-48ea-83dd-01b9a385e5cf","system_id":"levelo_inurba_marseille","lat":43.30504,"lon":5.36635,"is_reserved":false,"is_disabled":false,"rental_uris":{"android":"levelo://app?vid=482344f1-460c-48ea-83dd-01b9a385e5cf","ios":"levelo://app?vid=482344f1-460c-48ea-83dd-01b9a385e5cf"},"vehicle_type_id":"4","last_reported":1746461608,"current_range_meters":6000,"station_id":"","pricing_plan_id":"cebpf4jnsgd1na2vs0mg"},{"bike_id":"5e5418ca-c468-4907-ac7c-64177f397199","system_id":"levelo_inurba_marseille","lat":43.29569,"lon":5.39985,"is_reserved":false,"is_disabled":false,"rental_uris":{"android":"levelo://app?vid=5e5418ca-c468-4907-ac7c-64177f397199","ios":"levelo://app?vid=5e5418ca-c468-4907-ac7c-64177f397199"},"vehicle_type_id":"4","last_reported":1746461608,"current_range_meters":6000,"station_id":"ce4bh312rcd13ifvqdj0","pricing_plan_id":"cebpf4jnsgd1na2vs0mg"},{"bike_id":"650e0116-70ae-4a9b-9bf0-8b004d760be6","system_id":"levelo_inurba_marseille","lat":43.26214,"lon":5.37449,"is_reserved":false,"is_disabled":false,"rental_uris":{"android":"levelo://app?vid=650e0116-70ae-4a9b-9bf0-8b004d760be6","ios":"levelo://app?vid=650e0116-70ae-4a9b-9bf0-8b004d760be6"},"vehicle_type_id":"4","last_reported":1746461608,"current_range_meters":6400,"station_id":"ce4bhgp2rcd13ifvqfc0","pricing_plan_id":"cebpf4jnsgd1na2vs0mg"},{"bike_id":"b0c27a83-87fa-4fc0-8448-ea063647e201","system_id":"levelo_inurba_marseille","lat":43.3015,"lon":5.37417,"is_reserved":false,"is_disabled":false,"rental_uris":{"android":"levelo://app?vid=b0c27a83-87fa-4fc0-8448-ea063647e201","ios":"levelo://app?vid=b0c27a83-87fa-4fc0-8448-ea063647e201"},"vehicle_type_id":"4","last_reported":1746461608,"current_range_meters":6400,"station_id":"ce4bgs92rcd13ifvqcc0","pricing_plan_id":"cebpf4jnsgd1na2vs0mg"},{"bike_id":"bab18528-937c-4bc3-bbd3-bfc08a6ab475","system_id":"levelo_inurba_marseille","lat":43.336,"lon":5.41038,"is_reserved":false,"is_disabled":false,"rental_uris":{"android":"levelo://app?vid=bab18528-937c-4bc3-bbd3-bfc08a6ab475","ios":"levelo://app?vid=bab18528-937c-4bc3-bbd3-bfc08a6ab475"},"vehicle_type_id":"4","last_reported":1746461608,"current_range_meters":6000,"station_id":"ce4bhqh2rcd13ifvqhmg","pricing_plan_id":"cebpf4jnsgd1na2vs0mg"},{"bike_id":"71c0d759-4a90-4824-9694-266d196c274a","system_id":"levelo_inurba_marseille","lat":43.29887,"lon":5.38907,"is_reserved":false,"is_disabled":false,"rental_uris":{"android":"levelo://app?vid=71c0d759-4a90-4824-9694-266d196c274a","ios":"levelo://app?vid=71c0d759-4a90-4824-9694-266d196c274a"},"vehicle_type_id":"4","last_reported":1746461608,"current_range_meters":6400,"station_id":"ce4bh392rcd13ifvqdl0","pricing_plan_id":"cebpf4jnsgd1na2vs0mg"},{"bike_id":"7c461216-9558-456b-ab8b-d2bd0b66d96d","system_id":"levelo_inurba_marseille","lat":43.289933,"lon":5.366243,"is_reserved":false,"is_disabled":false,"rental_uris":{"android":"levelo://app?vid=7c461216-9558-456b-ab8b-d2bd0b66d96d","ios":"levelo://app?vid=7c461216-9558-456b-ab8b-d2bd0b66d96d"},"vehicle_type_id":"4","last_reported":1746461608,"current_range_meters":6800,"station_id":"ce4bhah2rcd13ifvqei0","pricing_plan_id":"cebpf4jnsgd1na2vs0mg"},{"bike_id":"15a6b90c-4c80-4873-913b-34b430ffecae","system_id":"levelo_inurba_marseille","lat":43.28037,"lon":5.36954,"is_reserved":false,"is_disabled":false,"rental_uris":{"android":"levelo://app?vid=15a6b90c-4c80-4873-913b-34b430ffecae","ios":"levelo://app?vid=15a6b90c-4c80-4873-913b-34b430ffecae"},"vehicle_type_id":"4","last_reported":1746461608,"current_range_meters":6800,"station_id":"ce4bha12rcd13ifvqef0","pricing_plan_id":"cebpf4jnsgd1na2vs0mg"},{"bike_id":"66b646b3-6352-44bb-9bfb-21570512e3e5","system_id":"levelo_inurba_marseille","lat":43.28096,"lon":5.40409,"is_reserved":false,"is_disabled":false,"rental_uris":{"android":"levelo://app?vid=66b646b3-6352-44bb-9bfb-21570512e3e5","ios":"levelo://app?vid=66b646b3-6352-44bb-9bfb-21570512e3e5"},"vehicle_type_id":"4","last_reported":1746461608,"current_range_meters":6800,"station_id":"","pricing_plan_id":"cebpf4jnsgd1na2vs0mg"},{"bike_id":"c9f3ac56-b4b0-44c4-92dd-4e3ce171d71a","system_id":"levelo_inurba_marseille","lat":43.32905,"lon":5.41893,"is_reserved":false,"is_disabled":false,"rental_uris":{"android":"levelo://app?vid=c9f3ac56-b4b0-44c4-92dd-4e3ce171d71a","ios":"levelo://app?vid=c9f3ac56-b4b0-44c4-92dd-4e3ce171d71a"},"vehicle_type_id":"4","last_reported":1746461608,"current_range_meters":7200,"station_id":"","pricing_plan_id":"cebpf4jnsgd1na2vs0mg"},{"bike_id":"26dd9f4d-ce9e-4365-b279-fc9c56040cc4","system_id":"levelo_inurba_marseille","lat":43.32367,"lon":5.36768,"is_reserved":false,"is_disabled":false,"rental_uris":{"android":"levelo://app?vid=26dd9f4d-ce9e-4365-b279-fc9c56040cc4","ios":"levelo://app?vid=26dd9f4d-ce9e-4365-b279-fc9c56040cc4"},"vehicle_type_id":"4","last_reported":1746461608,"current_range_meters":6800,"station_id":"ce4bhsh2rcd13ifvqi2g","pricing_plan_id":"cebpf4jnsgd1na2vs0mg"},{"bike_id":"29ad1899-be93-42f3-84fd-82b218a91657","system_id":"levelo_inurba_marseille","lat":43.30737,"lon":5.4005,"is_reserved":false,"is_disabled":false,"rental_uris":{"android":"levelo://app?vid=29ad1899-be93-42f3-84fd-82b218a91657","ios":"levelo://app?vid=29ad1899-be93-42f3-84fd-82b218a91657"},"vehicle_type_id":"4","last_reported":1746461608,"current_range_meters":6800,"station_id":"","pricing_plan_id":"cebpf4jnsgd1na2vs0mg"},{"bike_id":"dc01d085-ab4e-4fd7-b359-b3ad135594e8","system_id":"levelo_inurba_marseille","lat":43.27378,"lon":5.36263,"is_reserved":false,"is_disabled":false,"rental_uris":{"android":"levelo://app?vid=dc01d085-ab4e-4fd7-b359-b3ad135594e8","ios":"levelo://app?vid=dc01d085-ab4e-4fd7-b359-b3ad135594e8"},"vehicle_type_id":"4","last_reported":1746461608,"current_range_meters":6400,"station_id":"ce4bhbh2rcd13ifvqeo0","pricing_plan_id":"cebpf4jnsgd1na2vs0mg"},{"bike_id":"d8e07c4b-cc94-4e99-b524-1b41a18e333a","system_id":"levelo_inurba_marseille","lat":43.29029,"lon":5.38633,"is_reserved":false,"is_disabled":false,"rental_uris":{"android":"levelo://app?vid=d8e07c4b-cc94-4e99-b524-1b41a18e333a","ios":"levelo://app?vid=d8e07c4b-cc94-4e99-b524-1b41a18e333a"},"vehicle_type_id":"4","last_reported":1746461608,"current_range_meters":7200,"station_id":"ce4bh4p2rcd13ifvqe0g","pricing_plan_id":"cebpf4jnsgd1na2vs0mg"},{"bike_id":"2306010e-85bf-4d9b-a6bc-107f35580834","system_id":"levelo_inurba_marseille","lat":43.25828,"lon":5.39441,"is_reserved":false,"is_disabled":false,"rental_uris":{"android":"levelo://app?vid=2306010e-85bf-4d9b-a6bc-107f35580834","ios":"levelo://app?vid=2306010e-85bf-4d9b-a6bc-107f35580834"},"vehicle_type_id":"4","last_reported":1746461608,"current_range_meters":7200,"station_id":"ce4bhip2rcd13ifvqft0","pricing_plan_id":"cebpf4jnsgd1na2vs0mg"},{"bike_id":"a105130d-2c0b-47d7-ad9e-26b35e0360b8","system_id":"levelo_inurba_marseille","lat":43.23958,"lon":5.36643,"is_reserved":false,"is_disabled":false,"rental_uris":{"android":"levelo://app?vid=a105130d-2c0b-47d7-ad9e-26b35e0360b8","ios":"levelo://app?vid=a105130d-2c0b-47d7-ad9e-26b35e0360b8"},"vehicle_type_id":"4","last_reported":1746461608,"current_range_meters":8000,"station_id":"ce4bhi12rcd13ifvqfp0","pricing_plan_id":"cebpf4jnsgd1na2vs0mg"},{"bike_id":"a611f7d9-1159-4308-a6ea-f570defdef89","system_id":"levelo_inurba_marseille","lat":43.24656,"lon":5.38929,"is_reserved":false,"is_disabled":false,"rental_uris":{"android":"levelo://app?vid=a611f7d9-1159-4308-a6ea-f570defdef89","ios":"levelo://app?vid=a611f7d9-1159-4308-a6ea-f570defdef89"},"vehicle_type_id":"4","last_reported":1746461608,"current_range_meters":8000,"station_id":"ce4bhg12rcd13ifvqf60","pricing_plan_id":"cebpf4jnsgd1na2vs0mg"},{"bike_id":"72ce879e-d715-493f-958a-46f9c7d119d9","system_id":"levelo_inurba_marseille","lat":43.331152,"lon":5.382366,"is_reserved":false,"is_disabled":false,"rental_uris":{"android":"levelo://app?vid=72ce879e-d715-493f-958a-46f9c7d119d9","ios":"levelo://app?vid=72ce879e-d715-493f-958a-46f9c7d119d9"},"vehicle_type_id":"4","last_reported":1746461608,"current_range_meters":8000,"station_id":"","pricing_plan_id":"cebpf4jnsgd1na2vs0mg"},{"bike_id":"c7569f25-9bc2-4a7b-94d5-25bad92fcfaa","system_id":"levelo_inurba_marseille","lat":43.27932,"lon":5.38264,"is_reserved":false,"is_disabled":false,"rental_uris":{"android":"levelo://app?vid=c7569f25-9bc2-4a7b-94d5-25bad92fcfaa","ios":"levelo://app?vid=c7569f25-9bc2-4a7b-94d5-25bad92fcfaa"},"vehicle_type_id":"4","last_reported":1746461608,"current_range_meters":8000,"station_id":"","pricing_plan_id":"cebpf4jnsgd1na2vs0mg"},{"bike_id":"10d563a4-424a-4a44-88bc-065a04b5247a","system_id":"levelo_inurba_marseille","lat":43.217451,"lon":5.346033,"is_reserved":false,"is_disabled":true,"rental_uris":{"android":"levelo://app?vid=10d563a4-424a-4a44-88bc-065a04b5247a","ios":"levelo://app?vid=10d563a4-424a-4a44-88bc-065a04b5247a"},"vehicle_type_id":"4","last_reported":1746461608,"current_range_meters":8000,"station_id":"","pricing_plan_id":"cebpf4jnsgd1na2vs0mg"},{"bike_id":"f4058794-639c-4973-ab5d-8009a25ee731","system_id":"levelo_inurba_marseille","lat":43.2396,"lon":5.3664,"is_reserved":false,"is_disabled":false,"rental_uris":{"android":"levelo://app?vid=f4058794-639c-4973-ab5d-8009a25ee731","ios":"levelo://app?vid=f4058794-639c-4973-ab5d-8009a25ee731"},"vehicle_type_id":"4","last_reported":1746461608,"current_range_meters":8400,"station_id":"ce4bhi12rcd13ifvqfp0","pricing_plan_id":"cebpf4jnsgd1na2vs0mg"},{"bike_id":"fbcda70c-9b87-42a9-9250-1ab3d0ddbd5c","system_id":"levelo_inurba_marseille","lat":43.28865,"lon":5.35862,"is_reserved":false,"is_disabled":false,"rental_uris":{"android":"levelo://app?vid=fbcda70c-9b87-42a9-9250-1ab3d0ddbd5c","ios":"levelo://app?vid=fbcda70c-9b87-42a9-9250-1ab3d0ddbd5c"},"vehicle_type_id":"4","last_reported":1746461608,"current_range_meters":8400,"station_id":"ce4bhb12rcd13ifvqem0","pricing_plan_id":"cebpf4jnsgd1na2vs0mg"},{"bike_id":"de850a60-4c6f-432e-a7b3-0dad7c91a4d5","system_id":"levelo_inurba_marseille","lat":43.28719,"lon":5.36101,"is_reserved":false,"is_disabled":false,"rental_uris":{"android":"levelo://app?vid=de850a60-4c6f-432e-a7b3-0dad7c91a4d5","ios":"levelo://app?vid=de850a60-4c6f-432e-a7b3-0dad7c91a4d5"},"vehicle_type_id":"4","last_reported":1746461608,"current_range_meters":8400,"station_id":"cki0cbj6b192h4jlfktg","pricing_plan_id":"cebpf4jnsgd1na2vs0mg"},{"bike_id":"8ee20362-3749-4c20-b4fe-0bf1b088ac58","system_id":"levelo_inurba_marseille","lat":43.29972,"lon":5.38498,"is_reserved":false,"is_disabled":false,"rental_uris":{"android":"levelo://app?vid=8ee20362-3749-4c20-b4fe-0bf1b088ac58","ios":"levelo://app?vid=8ee20362-3749-4c20-b4fe-0bf1b088ac58"},"vehicle_type_id":"4","last_reported":1746461608,"current_range_meters":8400,"station_id":"ce4bgj92rcd13ifvqbd0","pricing_plan_id":"cebpf4jnsgd1na2vs0mg"},{"bike_id":"64be8125-faf5-45e7-b2be-7d266d211f7f","system_id":"levelo_inurba_marseille","lat":43.29528,"lon":5.39042,"is_reserved":false,"is_disabled":false,"rental_uris":{"android":"levelo://app?vid=64be8125-faf5-45e7-b2be-7d266d211f7f","ios":"levelo://app?vid=64be8125-faf5-45e7-b2be-7d266d211f7f"},"vehicle_type_id":"4","last_reported":1746461608,"current_range_meters":8400,"station_id":"ce4bh3p2rcd13ifvqdp0","pricing_plan_id":"cebpf4jnsgd1na2vs0mg"},{"bike_id":"105b50f5-f09b-47b3-aa16-cf4c0f888f6f","system_id":"levelo_inurba_marseille","lat":43.29531,"lon":5.39026,"is_reserved":false,"is_disabled":false,"rental_uris":{"android":"levelo://app?vid=105b50f5-f09b-47b3-aa16-cf4c0f888f6f","ios":"levelo://app?vid=105b50f5-f09b-47b3-aa16-cf4c0f888f6f"},"vehicle_type_id":"4","last_reported":1746461608,"current_range_meters":8400,"station_id":"ce4bh3p2rcd13ifvqdp0","pricing_plan_id":"cebpf4jnsgd1na2vs0mg"},{"bike_id":"bda5329c-0ca8-4429-8276-953c6ccd9961","system_id":"levelo_inurba_marseille","lat":43.27994,"lon":5.41663,"is_reserved":false,"is_disabled":false,"rental_uris":{"android":"levelo://app?vid=bda5329c-0ca8-4429-8276-953c6ccd9961","ios":"levelo://app?vid=bda5329c-0ca8-4429-8276-953c6ccd9961"},"vehicle_type_id":"4","last_reported":1746461608,"current_range_meters":8800,"station_id":"ce4bho12rcd13ifvqh1g","pricing_plan_id":"cebpf4jnsgd1na2vs0mg"},{"bike_id":"297d4434-b52a-4fd1-83a8-17e82120eac9","system_id":"levelo_inurba_marseille","lat":43.32366,"lon":5.38886,"is_reserved":false,"is_disabled":false,"rental_uris":{"android":"levelo://app?vid=297d4434-b52a-4fd1-83a8-17e82120eac9","ios":"levelo://app?vid=297d4434-b52a-4fd1-83a8-17e82120eac9"},"vehicle_type_id":"4","last_reported":1746461608,"current_range_meters":8800,"station_id":"ce4bhqp2rcd13ifvqhog","pricing_plan_id":"cebpf4jnsgd1na2vs0mg"},{"bike_id":"5c7249a3-596f-4101-8dbd-1087a1f3b438","system_id":"levelo_inurba_marseille","lat":43.231886,"lon":5.355566,"is_reserved":false,"is_disabled":false,"rental_uris":{"android":"levelo://app?vid=5c7249a3-596f-4101-8dbd-1087a1f3b438","ios":"levelo://app?vid=5c7249a3-596f-4101-8dbd-1087a1f3b438"},"vehicle_type_id":"4","last_reported":1746461608,"current_range_meters":9200,"station_id":"ce4bhu92rcd13ifvqi70","pricing_plan_id":"cebpf4jnsgd1na2vs0mg"},{"bike_id":"e9de696e-c2c9-4ef5-ab33-b5ef5defc452","system_id":"levelo_inurba_marseille","lat":43.30317,"lon":5.40451,"is_reserved":false,"is_disabled":false,"rental_uris":{"android":"levelo://app?vid=e9de696e-c2c9-4ef5-ab33-b5ef5defc452","ios":"levelo://app?vid=e9de696e-c2c9-4ef5-ab33-b5ef5defc452"},"vehicle_type_id":"4","last_reported":1746461608,"current_range_meters":7200,"station_id":"ce4bh012rcd13ifvqd10","pricing_plan_id":"cebpf4jnsgd1na2vs0mg"},{"bike_id":"8e7f12f6-93ae-49cf-8566-5aff38896d1c","system_id":"levelo_inurba_marseille","lat":43.29788,"lon":5.39349,"is_reserved":false,"is_disabled":false,"rental_uris":{"android":"levelo://app?vid=8e7f12f6-93ae-49cf-8566-5aff38896d1c","ios":"levelo://app?vid=8e7f12f6-93ae-49cf-8566-5aff38896d1c"},"vehicle_type_id":"4","last_reported":1746461608,"current_range_meters":8800,"station_id":"chh1huq6cuj3fo74tm60","pricing_plan_id":"cebpf4jnsgd1na2vs0mg"},{"bike_id":"e34798d9-aa68-4770-922c-8d96a6d8cc14","system_id":"levelo_inurba_marseille","lat":43.28936,"lon":5.3839,"is_reserved":false,"is_disabled":false,"rental_uris":{"android":"levelo://app?vid=e34798d9-aa68-4770-922c-8d96a6d8cc14","ios":"levelo://app?vid=e34798d9-aa68-4770-922c-8d96a6d8cc14"},"vehicle_type_id":"4","last_reported":1746461608,"current_range_meters":9200,"station_id":"ce4bh612rcd13ifvqe6g","pricing_plan_id":"cebpf4jnsgd1na2vs0mg"},{"bike_id":"2a675b9b-cfd5-48dd-99fd-2f1da66735de","system_id":"levelo_inurba_marseille","lat":43.281511,"lon":5.426469,"is_reserved":false,"is_disabled":false,"rental_uris":{"android":"levelo://app?vid=2a675b9b-cfd5-48dd-99fd-2f1da66735de","ios":"levelo://app?vid=2a675b9b-cfd5-48dd-99fd-2f1da66735de"},"vehicle_type_id":"4","last_reported":1746461608,"current_range_meters":8400,"station_id":"ce4bhnh2rcd13ifvqgug","pricing_plan_id":"cebpf4jnsgd1na2vs0mg"},{"bike_id":"e07dcc53-84e8-471e-9c2c-adb8d8059ddd","system_id":"levelo_inurba_marseille","lat":43.2512,"lon":5.40318,"is_reserved":false,"is_disabled":false,"rental_uris":{"android":"levelo://app?vid=e07dcc53-84e8-471e-9c2c-adb8d8059ddd","ios":"levelo://app?vid=e07dcc53-84e8-471e-9c2c-adb8d8059ddd"},"vehicle_type_id":"4","last_reported":1746461608,"current_range_meters":9200,"station_id":"ce4bhlh2rcd13ifvqgig","pricing_plan_id":"cebpf4jnsgd1na2vs0mg"},{"bike_id":"403bec27-12f0-46b4-8d75-e48a64112b44","system_id":"levelo_inurba_marseille","lat":43.24179,"lon":5.39733,"is_reserved":false,"is_disabled":false,"rental_uris":{"android":"levelo://app?vid=403bec27-12f0-46b4-8d75-e48a64112b44","ios":"levelo://app?vid=403bec27-12f0-46b4-8d75-e48a64112b44"},"vehicle_type_id":"4","last_reported":1746461608,"current_range_meters":9600,"station_id":"ce4bhn12rcd13ifvqgpg","pricing_plan_id":"cebpf4jnsgd1na2vs0mg"},{"bike_id":"d7ced594-6501-48d1-9888-8fe268de6fad","system_id":"levelo_inurba_marseille","lat":43.2422,"lon":5.39781,"is_reserved":false,"is_disabled":false,"rental_uris":{"android":"levelo://app?vid=d7ced594-6501-48d1-9888-8fe268de6fad","ios":"levelo://app?vid=d7ced594-6501-48d1-9888-8fe268de6fad"},"vehicle_type_id":"4","last_reported":1746461608,"current_range_meters":9600,"station_id":"","pricing_plan_id":"cebpf4jnsgd1na2vs0mg"},{"bike_id":"a09ebc3a-b311-4205-bf22-dfee5ae3f0c7","system_id":"levelo_inurba_marseille","lat":43.28932,"lon":5.38408,"is_reserved":false,"is_disabled":false,"rental_uris":{"android":"levelo://app?vid=a09ebc3a-b311-4205-bf22-dfee5ae3f0c7","ios":"levelo://app?vid=a09ebc3a-b311-4205-bf22-dfee5ae3f0c7"},"vehicle_type_id":"4","last_reported":1746461608,"current_range_meters":9600,"station_id":"ce4bh612rcd13ifvqe6g","pricing_plan_id":"cebpf4jnsgd1na2vs0mg"},{"bike_id":"b2513a6e-3049-432a-a4bb-c29d048eb0a5","system_id":"levelo_inurba_marseille","lat":43.297985,"lon":5.380998,"is_reserved":false,"is_disabled":false,"rental_uris":{"android":"levelo://app?vid=b2513a6e-3049-432a-a4bb-c29d048eb0a5","ios":"levelo://app?vid=b2513a6e-3049-432a-a4bb-c29d048eb0a5"},"vehicle_type_id":"4","last_reported":1746461608,"current_range_meters":9600,"station_id":"ce4bgip2rcd13ifvqbb0","pricing_plan_id":"cebpf4jnsgd1na2vs0mg"},{"bike_id":"65604157-aa36-4718-a12d-8d3ee9fae9d0","system_id":"levelo_inurba_marseille","lat":43.27845,"lon":5.39217,"is_reserved":false,"is_disabled":false,"rental_uris":{"android":"levelo://app?vid=65604157-aa36-4718-a12d-8d3ee9fae9d0","ios":"levelo://app?vid=65604157-aa36-4718-a12d-8d3ee9fae9d0"},"vehicle_type_id":"4","last_reported":1746461608,"current_range_meters":10000,"station_id":"ce4bhjp2rcd13ifvqga0","pricing_plan_id":"cebpf4jnsgd1na2vs0mg"},{"bike_id":"2eaac6a8-2197-495f-b26f-f8a53befbe22","system_id":"levelo_inurba_marseille","lat":43.26033,"lon":5.37534,"is_reserved":false,"is_disabled":false,"rental_uris":{"android":"levelo://app?vid=2eaac6a8-2197-495f-b26f-f8a53befbe22","ios":"levelo://app?vid=2eaac6a8-2197-495f-b26f-f8a53befbe22"},"vehicle_type_id":"4","last_reported":1746461608,"current_range_meters":10000,"station_id":"ce4bhgh2rcd13ifvqfa0","pricing_plan_id":"cebpf4jnsgd1na2vs0mg"},{"bike_id":"1a82a0e9-f369-4d01-ae50-ae98884bab48","system_id":"levelo_inurba_marseille","lat":43.330778,"lon":5.387075,"is_reserved":false,"is_disabled":false,"rental_uris":{"android":"levelo://app?vid=1a82a0e9-f369-4d01-ae50-ae98884bab48","ios":"levelo://app?vid=1a82a0e9-f369-4d01-ae50-ae98884bab48"},"vehicle_type_id":"4","last_reported":1746461608,"current_range_meters":10000,"station_id":"","pricing_plan_id":"cebpf4jnsgd1na2vs0mg"},{"bike_id":"f6965056-e655-4311-bc7b-140fed5bf9b6","system_id":"levelo_inurba_marseille","lat":43.241794,"lon":5.397362,"is_reserved":false,"is_disabled":false,"rental_uris":{"android":"levelo://app?vid=f6965056-e655-4311-bc7b-140fed5bf9b6","ios":"levelo://app?vid=f6965056-e655-4311-bc7b-140fed5bf9b6"},"vehicle_type_id":"4","last_reported":1746461608,"current_range_meters":10000,"station_id":"ce4bhn12rcd13ifvqgpg","pricing_plan_id":"cebpf4jnsgd1na2vs0mg"},{"bike_id":"f0773653-a3dd-42cc-bf13-ef0fa919ca17","system_id":"levelo_inurba_marseille","lat":43.300999,"lon":5.374037,"is_reserved":false,"is_disabled":false,"rental_uris":{"android":"levelo://app?vid=f0773653-a3dd-42cc-bf13-ef0fa919ca17","ios":"levelo://app?vid=f0773653-a3dd-42cc-bf13-ef0fa919ca17"},"vehicle_type_id":"4","last_reported":1746461608,"current_range_meters":10000,"station_id":"ce4bgr92rcd13ifvqc7g","pricing_plan_id":"cebpf4jnsgd1na2vs0mg"},{"bike_id":"0b8d7167-f22b-4b4a-a34c-171be1727b0f","system_id":"levelo_inurba_marseille","lat":43.27621,"lon":5.36106,"is_reserved":false,"is_disabled":false,"rental_uris":{"android":"levelo://app?vid=0b8d7167-f22b-4b4a-a34c-171be1727b0f","ios":"levelo://app?vid=0b8d7167-f22b-4b4a-a34c-171be1727b0f"},"vehicle_type_id":"4","last_reported":1746461608,"current_range_meters":10000,"station_id":"ce4bgj92rcd13ifvqbe0","pricing_plan_id":"cebpf4jnsgd1na2vs0mg"},{"bike_id":"dede376b-e480-459c-a0e1-cff0e2950c4b","system_id":"levelo_inurba_marseille","lat":43.24169,"lon":5.39736,"is_reserved":false,"is_disabled":false,"rental_uris":{"android":"levelo://app?vid=dede376b-e480-459c-a0e1-cff0e2950c4b","ios":"levelo://app?vid=dede376b-e480-459c-a0e1-cff0e2950c4b"},"vehicle_type_id":"4","last_reported":1746461608,"current_range_meters":10800,"station_id":"ce4bhn12rcd13ifvqgpg","pricing_plan_id":"cebpf4jnsgd1na2vs0mg"},{"bike_id":"9fc13afb-e947-475e-b143-9f3ee51b87b5","system_id":"levelo_inurba_marseille","lat":43.303073,"lon":5.39205,"is_reserved":false,"is_disabled":true,"rental_uris":{"android":"levelo://app?vid=9fc13afb-e947-475e-b143-9f3ee51b87b5","ios":"levelo://app?vid=9fc13afb-e947-475e-b143-9f3ee51b87b5"},"vehicle_type_id":"4","last_reported":1746461608,"current_range_meters":10800,"station_id":"ce4bgkh2rcd13ifvqbk0","pricing_plan_id":"cebpf4jnsgd1na2vs0mg"},{"bike_id":"a497742f-c244-43cc-ae61-a68c22f59bec","system_id":"levelo_inurba_marseille","lat":43.31366,"lon":5.38513,"is_reserved":false,"is_disabled":false,"rental_uris":{"android":"levelo://app?vid=a497742f-c244-43cc-ae61-a68c22f59bec","ios":"levelo://app?vid=a497742f-c244-43cc-ae61-a68c22f59bec"},"vehicle_type_id":"4","last_reported":1746461608,"current_range_meters":10800,"station_id":"ce4bgt92rcd13ifvqcf0","pricing_plan_id":"cebpf4jnsgd1na2vs0mg"},{"bike_id":"0f31d73a-9fed-4913-9472-2d3255ce399f","system_id":"levelo_inurba_marseille","lat":43.28152,"lon":5.42642,"is_reserved":false,"is_disabled":false,"rental_uris":{"android":"levelo://app?vid=0f31d73a-9fed-4913-9472-2d3255ce399f","ios":"levelo://app?vid=0f31d73a-9fed-4913-9472-2d3255ce399f"},"vehicle_type_id":"4","last_reported":1746461608,"current_range_meters":10800,"station_id":"ce4bhnh2rcd13ifvqgug","pricing_plan_id":"cebpf4jnsgd1na2vs0mg"},{"bike_id":"9926577b-51b9-401e-972e-5d824540b48d","system_id":"levelo_inurba_marseille","lat":43.25821,"lon":5.39441,"is_reserved":false,"is_disabled":false,"rental_uris":{"android":"levelo://app?vid=9926577b-51b9-401e-972e-5d824540b48d","ios":"levelo://app?vid=9926577b-51b9-401e-972e-5d824540b48d"},"vehicle_type_id":"4","last_reported":1746461608,"current_range_meters":10800,"station_id":"ce4bhip2rcd13ifvqft0","pricing_plan_id":"cebpf4jnsgd1na2vs0mg"},{"bike_id":"2fc87110-fd35-4fce-a6eb-68b1811b07c3","system_id":"levelo_inurba_marseille","lat":43.28431,"lon":5.34992,"is_reserved":false,"is_disabled":false,"rental_uris":{"android":"levelo://app?vid=2fc87110-fd35-4fce-a6eb-68b1811b07c3","ios":"levelo://app?vid=2fc87110-fd35-4fce-a6eb-68b1811b07c3"},"vehicle_type_id":"4","last_reported":1746461608,"current_range_meters":10800,"station_id":"ce4bhbh2rcd13ifvqepg","pricing_plan_id":"cebpf4jnsgd1na2vs0mg"},{"bike_id":"534e13dc-24fb-44d8-830b-7d076a5f0203","system_id":"levelo_inurba_marseille","lat":43.2678,"lon":5.394158,"is_reserved":false,"is_disabled":false,"rental_uris":{"android":"levelo://app?vid=534e13dc-24fb-44d8-830b-7d076a5f0203","ios":"levelo://app?vid=534e13dc-24fb-44d8-830b-7d076a5f0203"},"vehicle_type_id":"4","last_reported":1746461608,"current_range_meters":13600,"station_id":"ce4bhh12rcd13ifvqfg0","pricing_plan_id":"cebpf4jnsgd1na2vs0mg"},{"bike_id":"52d9f268-c7d2-492f-a210-3443164a0905","system_id":"levelo_inurba_marseille","lat":43.26213,"lon":5.37446,"is_reserved":false,"is_disabled":false,"rental_uris":{"android":"levelo://app?vid=52d9f268-c7d2-492f-a210-3443164a0905","ios":"levelo://app?vid=52d9f268-c7d2-492f-a210-3443164a0905"},"vehicle_type_id":"4","last_reported":1746461608,"current_range_meters":10800,"station_id":"ce4bhgp2rcd13ifvqfc0","pricing_plan_id":"cebpf4jnsgd1na2vs0mg"},{"bike_id":"8813436d-14ad-49cf-be07-680f2ba14ba5","system_id":"levelo_inurba_marseille","lat":43.28146,"lon":5.4263,"is_reserved":false,"is_disabled":false,"rental_uris":{"android":"levelo://app?vid=8813436d-14ad-49cf-be07-680f2ba14ba5","ios":"levelo://app?vid=8813436d-14ad-49cf-be07-680f2ba14ba5"},"vehicle_type_id":"4","last_reported":1746461608,"current_range_meters":10800,"station_id":"ce4bhnh2rcd13ifvqgug","pricing_plan_id":"cebpf4jnsgd1na2vs0mg"},{"bike_id":"b86414f3-5faa-41b3-b40b-2c402efee816","system_id":"levelo_inurba_marseille","lat":43.279272,"lon":5.395741,"is_reserved":false,"is_disabled":false,"rental_uris":{"android":"levelo://app?vid=b86414f3-5faa-41b3-b40b-2c402efee816","ios":"levelo://app?vid=b86414f3-5faa-41b3-b40b-2c402efee816"},"vehicle_type_id":"4","last_reported":1746461608,"current_range_meters":10800,"station_id":"ce4bhjp2rcd13ifvqga0","pricing_plan_id":"cebpf4jnsgd1na2vs0mg"},{"bike_id":"d1aa6e5d-6beb-440c-afb6-1d488c12e5a1","system_id":"levelo_inurba_marseille","lat":43.32082,"lon":5.36768,"is_reserved":false,"is_disabled":false,"rental_uris":{"android":"levelo://app?vid=d1aa6e5d-6beb-440c-afb6-1d488c12e5a1","ios":"levelo://app?vid=d1aa6e5d-6beb-440c-afb6-1d488c12e5a1"},"vehicle_type_id":"4","last_reported":1746461608,"current_range_meters":10800,"station_id":"ce4bhrh2rcd13ifvqhug","pricing_plan_id":"cebpf4jnsgd1na2vs0mg"},{"bike_id":"5bc5858c-e1e3-469e-b4f4-c6a88cf1ceeb","system_id":"levelo_inurba_marseille","lat":43.30327,"lon":5.40431,"is_reserved":false,"is_disabled":false,"rental_uris":{"android":"levelo://app?vid=5bc5858c-e1e3-469e-b4f4-c6a88cf1ceeb","ios":"levelo://app?vid=5bc5858c-e1e3-469e-b4f4-c6a88cf1ceeb"},"vehicle_type_id":"4","last_reported":1746461608,"current_range_meters":10800,"station_id":"ce4bh012rcd13ifvqd10","pricing_plan_id":"cebpf4jnsgd1na2vs0mg"},{"bike_id":"57335258-936f-4ad7-b2ff-7bba23ec2f21","system_id":"levelo_inurba_marseille","lat":43.31728,"lon":5.43704,"is_reserved":false,"is_disabled":false,"rental_uris":{"android":"levelo://app?vid=57335258-936f-4ad7-b2ff-7bba23ec2f21","ios":"levelo://app?vid=57335258-936f-4ad7-b2ff-7bba23ec2f21"},"vehicle_type_id":"4","last_reported":1746461608,"current_range_meters":11200,"station_id":"ce4bhp92rcd13ifvqhcg","pricing_plan_id":"cebpf4jnsgd1na2vs0mg"},{"bike_id":"979e0397-c76c-49f5-97c5-dca9f05b2d67","system_id":"levelo_inurba_marseille","lat":43.33045,"lon":5.39054,"is_reserved":false,"is_disabled":false,"rental_uris":{"android":"levelo://app?vid=979e0397-c76c-49f5-97c5-dca9f05b2d67","ios":"levelo://app?vid=979e0397-c76c-49f5-97c5-dca9f05b2d67"},"vehicle_type_id":"4","last_reported":1746461608,"current_range_meters":11600,"station_id":"ce4bhr92rcd13ifvqhrg","pricing_plan_id":"cebpf4jnsgd1na2vs0mg"},{"bike_id":"59bdb0bb-136b-4c5d-97da-a10e21770e81","system_id":"levelo_inurba_marseille","lat":43.28377,"lon":5.38642,"is_reserved":false,"is_disabled":false,"rental_uris":{"android":"levelo://app?vid=59bdb0bb-136b-4c5d-97da-a10e21770e81","ios":"levelo://app?vid=59bdb0bb-136b-4c5d-97da-a10e21770e81"},"vehicle_type_id":"4","last_reported":1746461608,"current_range_meters":12000,"station_id":"ce4bh492rcd13ifvqdvg","pricing_plan_id":"cebpf4jnsgd1na2vs0mg"},{"bike_id":"9534b655-e0a5-47e6-9de5-fc1ec31332c9","system_id":"levelo_inurba_marseille","lat":43.2887,"lon":5.35856,"is_reserved":false,"is_disabled":false,"rental_uris":{"android":"levelo://app?vid=9534b655-e0a5-47e6-9de5-fc1ec31332c9","ios":"levelo://app?vid=9534b655-e0a5-47e6-9de5-fc1ec31332c9"},"vehicle_type_id":"4","last_reported":1746461608,"current_range_meters":12000,"station_id":"ce4bhb12rcd13ifvqem0","pricing_plan_id":"cebpf4jnsgd1na2vs0mg"},{"bike_id":"6ae24835-e313-48a4-99fa-5ed9f2736fe2","system_id":"levelo_inurba_marseille","lat":43.291037,"lon":5.381358,"is_reserved":false,"is_disabled":false,"rental_uris":{"android":"levelo://app?vid=6ae24835-e313-48a4-99fa-5ed9f2736fe2","ios":"levelo://app?vid=6ae24835-e313-48a4-99fa-5ed9f2736fe2"},"vehicle_type_id":"4","last_reported":1746461608,"current_range_meters":12000,"station_id":"ce4bh512rcd13ifvqe2g","pricing_plan_id":"cebpf4jnsgd1na2vs0mg"},{"bike_id":"9c2aa1ce-6a1f-43b6-a80a-38697c469b6e","system_id":"levelo_inurba_marseille","lat":43.322333,"lon":5.412887,"is_reserved":false,"is_disabled":false,"rental_uris":{"android":"levelo://app?vid=9c2aa1ce-6a1f-43b6-a80a-38697c469b6e","ios":"levelo://app?vid=9c2aa1ce-6a1f-43b6-a80a-38697c469b6e"},"vehicle_type_id":"4","last_reported":1746461608,"current_range_meters":12400,"station_id":"","pricing_plan_id":"cebpf4jnsgd1na2vs0mg"},{"bike_id":"1a56d2e1-6609-455c-8523-959d44394069","system_id":"levelo_inurba_marseille","lat":43.30304,"lon":5.39202,"is_reserved":false,"is_disabled":true,"rental_uris":{"android":"levelo://app?vid=1a56d2e1-6609-455c-8523-959d44394069","ios":"levelo://app?vid=1a56d2e1-6609-455c-8523-959d44394069"},"vehicle_type_id":"4","last_reported":1746461608,"current_range_meters":12400,"station_id":"ce4bgkh2rcd13ifvqbk0","pricing_plan_id":"cebpf4jnsgd1na2vs0mg"},{"bike_id":"b2fc06b4-65df-40a5-8f82-a675d56f1dc7","system_id":"levelo_inurba_marseille","lat":43.26941,"lon":5.40251,"is_reserved":false,"is_disabled":false,"rental_uris":{"android":"levelo://app?vid=b2fc06b4-65df-40a5-8f82-a675d56f1dc7","ios":"levelo://app?vid=b2fc06b4-65df-40a5-8f82-a675d56f1dc7"},"vehicle_type_id":"4","last_reported":1746461608,"current_range_meters":12400,"station_id":"cjm6bp8fraef2m0cb0m0","pricing_plan_id":"cebpf4jnsgd1na2vs0mg"},{"bike_id":"62bfa9fa-531f-4d2b-9e57-eb50b2d48c8c","system_id":"levelo_inurba_marseille","lat":43.24289,"lon":5.38017,"is_reserved":false,"is_disabled":false,"rental_uris":{"android":"levelo://app?vid=62bfa9fa-531f-4d2b-9e57-eb50b2d48c8c","ios":"levelo://app?vid=62bfa9fa-531f-4d2b-9e57-eb50b2d48c8c"},"vehicle_type_id":"4","last_reported":1746461608,"current_range_meters":12400,"station_id":"","pricing_plan_id":"cebpf4jnsgd1na2vs0mg"},{"bike_id":"7d575f9a-705d-4fc3-9169-9d3051ed308c","system_id":"levelo_inurba_marseille","lat":43.28407,"lon":5.37516,"is_reserved":false,"is_disabled":false,"rental_uris":{"android":"levelo://app?vid=7d575f9a-705d-4fc3-9169-9d3051ed308c","ios":"levelo://app?vid=7d575f9a-705d-4fc3-9169-9d3051ed308c"},"vehicle_type_id":"4","last_reported":1746461608,"current_range_meters":12000,"station_id":"ce4bh412rcd13ifvqds0","pricing_plan_id":"cebpf4jnsgd1na2vs0mg"},{"bike_id":"5b8d1337-a035-4531-8ae9-843647d6f95e","system_id":"levelo_inurba_marseille","lat":43.23205,"lon":5.39977,"is_reserved":false,"is_disabled":false,"rental_uris":{"android":"levelo://app?vid=5b8d1337-a035-4531-8ae9-843647d6f95e","ios":"levelo://app?vid=5b8d1337-a035-4531-8ae9-843647d6f95e"},"vehicle_type_id":"4","last_reported":1746461608,"current_range_meters":12800,"station_id":"ce4bhn12rcd13ifvqgqg","pricing_plan_id":"cebpf4jnsgd1na2vs0mg"},{"bike_id":"9d8f73eb-df09-4699-86a7-d631e2319093","system_id":"levelo_inurba_marseille","lat":43.26265,"lon":5.37434,"is_reserved":false,"is_disabled":false,"rental_uris":{"android":"levelo://app?vid=9d8f73eb-df09-4699-86a7-d631e2319093","ios":"levelo://app?vid=9d8f73eb-df09-4699-86a7-d631e2319093"},"vehicle_type_id":"4","last_reported":1746461608,"current_range_meters":12800,"station_id":"","pricing_plan_id":"cebpf4jnsgd1na2vs0mg"},{"bike_id":"2f442284-f8ad-4c44-aac8-1c32e1acb793","system_id":"levelo_inurba_marseille","lat":43.31719,"lon":5.42396,"is_reserved":false,"is_disabled":false,"rental_uris":{"android":"levelo://app?vid=2f442284-f8ad-4c44-aac8-1c32e1acb793","ios":"levelo://app?vid=2f442284-f8ad-4c44-aac8-1c32e1acb793"},"vehicle_type_id":"4","last_reported":1746461608,"current_range_meters":12800,"station_id":"ce4bhp92rcd13ifvqhbg","pricing_plan_id":"cebpf4jnsgd1na2vs0mg"},{"bike_id":"ceb0c748-c932-475a-8a0c-4bf9a7bf3061","system_id":"levelo_inurba_marseille","lat":43.28463,"lon":5.35885,"is_reserved":false,"is_disabled":false,"rental_uris":{"android":"levelo://app?vid=ceb0c748-c932-475a-8a0c-4bf9a7bf3061","ios":"levelo://app?vid=ceb0c748-c932-475a-8a0c-4bf9a7bf3061"},"vehicle_type_id":"4","last_reported":1746461608,"current_range_meters":13600,"station_id":"ce4bhah2rcd13ifvqei0","pricing_plan_id":"cebpf4jnsgd1na2vs0mg"},{"bike_id":"0cb139c7-ebfc-4316-b1f8-0830598824b5","system_id":"levelo_inurba_marseille","lat":43.29809,"lon":5.39348,"is_reserved":false,"is_disabled":true,"rental_uris":{"android":"levelo://app?vid=0cb139c7-ebfc-4316-b1f8-0830598824b5","ios":"levelo://app?vid=0cb139c7-ebfc-4316-b1f8-0830598824b5"},"vehicle_type_id":"4","last_reported":1746461608,"current_range_meters":13600,"station_id":"chh1huq6cuj3fo74tm60","pricing_plan_id":"cebpf4jnsgd1na2vs0mg"},{"bike_id":"7baa69c3-4750-4ae2-9628-36b8bc3dfa7b","system_id":"levelo_inurba_marseille","lat":43.32363,"lon":5.36754,"is_reserved":false,"is_disabled":false,"rental_uris":{"android":"levelo://app?vid=7baa69c3-4750-4ae2-9628-36b8bc3dfa7b","ios":"levelo://app?vid=7baa69c3-4750-4ae2-9628-36b8bc3dfa7b"},"vehicle_type_id":"4","last_reported":1746461608,"current_range_meters":13600,"station_id":"ce4bhsh2rcd13ifvqi2g","pricing_plan_id":"cebpf4jnsgd1na2vs0mg"},{"bike_id":"b60c17f5-436e-489e-8f3c-790e6084ac64","system_id":"levelo_inurba_marseille","lat":43.21186,"lon":5.3508,"is_reserved":false,"is_disabled":false,"rental_uris":{"android":"levelo://app?vid=b60c17f5-436e-489e-8f3c-790e6084ac64","ios":"levelo://app?vid=b60c17f5-436e-489e-8f3c-790e6084ac64"},"vehicle_type_id":"4","last_reported":1746461608,"current_range_meters":14000,"station_id":"st_cvj6sg6p6f1abm77japg","pricing_plan_id":"cebpf4jnsgd1na2vs0mg"},{"bike_id":"10eae10a-e969-41ca-a047-335c4f02be73","system_id":"levelo_inurba_marseille","lat":43.26943,"lon":5.40263,"is_reserved":false,"is_disabled":false,"rental_uris":{"android":"levelo://app?vid=10eae10a-e969-41ca-a047-335c4f02be73","ios":"levelo://app?vid=10eae10a-e969-41ca-a047-335c4f02be73"},"vehicle_type_id":"4","last_reported":1746461608,"current_range_meters":14000,"station_id":"cjm6bp8fraef2m0cb0m0","pricing_plan_id":"cebpf4jnsgd1na2vs0mg"},{"bike_id":"0c377d9d-9a3a-47a7-9944-6039314b5e15","system_id":"levelo_inurba_marseille","lat":43.24588,"lon":5.40516,"is_reserved":false,"is_disabled":false,"rental_uris":{"android":"levelo://app?vid=0c377d9d-9a3a-47a7-9944-6039314b5e15","ios":"levelo://app?vid=0c377d9d-9a3a-47a7-9944-6039314b5e15"},"vehicle_type_id":"4","last_reported":1746461608,"current_range_meters":14000,"station_id":"","pricing_plan_id":"cebpf4jnsgd1na2vs0mg"},{"bike_id":"05a84f69-0592-442a-b098-6253d0b70e9e","system_id":"levelo_inurba_marseille","lat":43.29992,"lon":5.3724,"is_reserved":false,"is_disabled":false,"rental_uris":{"android":"levelo://app?vid=05a84f69-0592-442a-b098-6253d0b70e9e","ios":"levelo://app?vid=05a84f69-0592-442a-b098-6253d0b70e9e"},"vehicle_type_id":"4","last_reported":1746461608,"current_range_meters":14000,"station_id":"","pricing_plan_id":"cebpf4jnsgd1na2vs0mg"},{"bike_id":"f9d01418-580b-4c8a-8b6b-b97c01ed28c8","system_id":"levelo_inurba_marseille","lat":43.27847,"lon":5.39217,"is_reserved":false,"is_disabled":false,"rental_uris":{"android":"levelo://app?vid=f9d01418-580b-4c8a-8b6b-b97c01ed28c8","ios":"levelo://app?vid=f9d01418-580b-4c8a-8b6b-b97c01ed28c8"},"vehicle_type_id":"4","last_reported":1746461608,"current_range_meters":14000,"station_id":"ce4bhjp2rcd13ifvqga0","pricing_plan_id":"cebpf4jnsgd1na2vs0mg"},{"bike_id":"594e130f-4448-4fc4-b63f-ae43ac274c9b","system_id":"levelo_inurba_marseille","lat":43.30146,"lon":5.39881,"is_reserved":false,"is_disabled":false,"rental_uris":{"android":"levelo://app?vid=594e130f-4448-4fc4-b63f-ae43ac274c9b","ios":"levelo://app?vid=594e130f-4448-4fc4-b63f-ae43ac274c9b"},"vehicle_type_id":"4","last_reported":1746461608,"current_range_meters":14000,"station_id":"ce4bh0h2rcd13ifvqd40","pricing_plan_id":"cebpf4jnsgd1na2vs0mg"},{"bike_id":"637d1489-2726-4664-93c7-71f68e4a3dac","system_id":"levelo_inurba_marseille","lat":43.27614,"lon":5.36123,"is_reserved":false,"is_disabled":false,"rental_uris":{"android":"levelo://app?vid=637d1489-2726-4664-93c7-71f68e4a3dac","ios":"levelo://app?vid=637d1489-2726-4664-93c7-71f68e4a3dac"},"vehicle_type_id":"4","last_reported":1746461608,"current_range_meters":14000,"station_id":"ce4bgj92rcd13ifvqbe0","pricing_plan_id":"cebpf4jnsgd1na2vs0mg"},{"bike_id":"d801a9be-f2ff-4d84-b388-3f2552301547","system_id":"levelo_inurba_marseille","lat":43.28177,"lon":5.42649,"is_reserved":false,"is_disabled":false,"rental_uris":{"android":"levelo://app?vid=d801a9be-f2ff-4d84-b388-3f2552301547","ios":"levelo://app?vid=d801a9be-f2ff-4d84-b388-3f2552301547"},"vehicle_type_id":"4","last_reported":1746461608,"current_range_meters":14000,"station_id":"ce4bhnh2rcd13ifvqgug","pricing_plan_id":"cebpf4jnsgd1na2vs0mg"},{"bike_id":"a46b5721-597c-404e-8ddb-3ba6469f967d","system_id":"levelo_inurba_marseille","lat":43.23186,"lon":5.35581,"is_reserved":false,"is_disabled":false,"rental_uris":{"android":"levelo://app?vid=a46b5721-597c-404e-8ddb-3ba6469f967d","ios":"levelo://app?vid=a46b5721-597c-404e-8ddb-3ba6469f967d"},"vehicle_type_id":"4","last_reported":1746461608,"current_range_meters":14400,"station_id":"ce4bhu92rcd13ifvqi70","pricing_plan_id":"cebpf4jnsgd1na2vs0mg"},{"bike_id":"f59cbf3a-945c-4959-8066-0596577d9e3f","system_id":"levelo_inurba_marseille","lat":43.31755,"lon":5.3902,"is_reserved":false,"is_disabled":false,"rental_uris":{"android":"levelo://app?vid=f59cbf3a-945c-4959-8066-0596577d9e3f","ios":"levelo://app?vid=f59cbf3a-945c-4959-8066-0596577d9e3f"},"vehicle_type_id":"4","last_reported":1746461608,"current_range_meters":14400,"station_id":"ce4bhqp2rcd13ifvqhng","pricing_plan_id":"cebpf4jnsgd1na2vs0mg"},{"bike_id":"f9c3d6fb-f805-4b18-8f66-4fd739daf610","system_id":"levelo_inurba_marseille","lat":43.25084,"lon":5.39513,"is_reserved":false,"is_disabled":false,"rental_uris":{"android":"levelo://app?vid=f9c3d6fb-f805-4b18-8f66-4fd739daf610","ios":"levelo://app?vid=f9c3d6fb-f805-4b18-8f66-4fd739daf610"},"vehicle_type_id":"4","last_reported":1746461608,"current_range_meters":14400,"station_id":"ce4bhm12rcd13ifvqgkg","pricing_plan_id":"cebpf4jnsgd1na2vs0mg"},{"bike_id":"3b266a87-4180-4c0f-8685-21b55b517320","system_id":"levelo_inurba_marseille","lat":43.27996,"lon":5.40011,"is_reserved":false,"is_disabled":false,"rental_uris":{"android":"levelo://app?vid=3b266a87-4180-4c0f-8685-21b55b517320","ios":"levelo://app?vid=3b266a87-4180-4c0f-8685-21b55b517320"},"vehicle_type_id":"4","last_reported":1746461608,"current_range_meters":14800,"station_id":"ce4bho92rcd13ifvqh4g","pricing_plan_id":"cebpf4jnsgd1na2vs0mg"},{"bike_id":"5c457962-f822-4d89-80b7-425543fd871f","system_id":"levelo_inurba_marseille","lat":43.231495,"lon":5.436807,"is_reserved":false,"is_disabled":false,"rental_uris":{"android":"levelo://app?vid=5c457962-f822-4d89-80b7-425543fd871f","ios":"levelo://app?vid=5c457962-f822-4d89-80b7-425543fd871f"},"vehicle_type_id":"4","last_reported":1746461608,"current_range_meters":20400,"station_id":"ce4bhmp2rcd13ifvqgog","pricing_plan_id":"cebpf4jnsgd1na2vs0mg"},{"bike_id":"91ed8a5f-4667-439d-a00f-33e0a74cd32e","system_id":"levelo_inurba_marseille","lat":43.26568,"lon":5.39011,"is_reserved":false,"is_disabled":false,"rental_uris":{"android":"levelo://app?vid=91ed8a5f-4667-439d-a00f-33e0a74cd32e","ios":"levelo://app?vid=91ed8a5f-4667-439d-a00f-33e0a74cd32e"},"vehicle_type_id":"4","last_reported":1746461608,"current_range_meters":14800,"station_id":"ce4bhe12rcd13ifvqf30","pricing_plan_id":"cebpf4jnsgd1na2vs0mg"},{"bike_id":"311ec4e0-482e-4b83-a693-e6b86a1abb04","system_id":"levelo_inurba_marseille","lat":43.32713,"lon":5.41373,"is_reserved":false,"is_disabled":false,"rental_uris":{"android":"levelo://app?vid=311ec4e0-482e-4b83-a693-e6b86a1abb04","ios":"levelo://app?vid=311ec4e0-482e-4b83-a693-e6b86a1abb04"},"vehicle_type_id":"4","last_reported":1746461608,"current_range_meters":15200,"station_id":"","pricing_plan_id":"cebpf4jnsgd1na2vs0mg"},{"bike_id":"db607aba-0db6-423b-a818-c23224727203","system_id":"levelo_inurba_marseille","lat":43.231538,"lon":5.437006,"is_reserved":false,"is_disabled":false,"rental_uris":{"android":"levelo://app?vid=db607aba-0db6-423b-a818-c23224727203","ios":"levelo://app?vid=db607aba-0db6-423b-a818-c23224727203"},"vehicle_type_id":"4","last_reported":1746461608,"current_range_meters":15200,"station_id":"ce4bhmp2rcd13ifvqgog","pricing_plan_id":"cebpf4jnsgd1na2vs0mg"},{"bike_id":"87222d04-70cf-4d35-b30a-9565fafb55ac","system_id":"levelo_inurba_marseille","lat":43.28868,"lon":5.35874,"is_reserved":false,"is_disabled":false,"rental_uris":{"android":"levelo://app?vid=87222d04-70cf-4d35-b30a-9565fafb55ac","ios":"levelo://app?vid=87222d04-70cf-4d35-b30a-9565fafb55ac"},"vehicle_type_id":"4","last_reported":1746461608,"current_range_meters":15200,"station_id":"ce4bhb12rcd13ifvqem0","pricing_plan_id":"cebpf4jnsgd1na2vs0mg"},{"bike_id":"7095a240-7492-4f71-87d5-9e313cf4c4ac","system_id":"levelo_inurba_marseille","lat":43.29533,"lon":5.38536,"is_reserved":false,"is_disabled":false,"rental_uris":{"android":"levelo://app?vid=7095a240-7492-4f71-87d5-9e313cf4c4ac","ios":"levelo://app?vid=7095a240-7492-4f71-87d5-9e313cf4c4ac"},"vehicle_type_id":"4","last_reported":1746461608,"current_range_meters":16000,"station_id":"ce4bgih2rcd13ifvqba0","pricing_plan_id":"cebpf4jnsgd1na2vs0mg"},{"bike_id":"ed07a573-dec7-428a-b8bd-6704574ba89d","system_id":"levelo_inurba_marseille","lat":43.2781,"lon":5.40725,"is_reserved":false,"is_disabled":false,"rental_uris":{"android":"levelo://app?vid=ed07a573-dec7-428a-b8bd-6704574ba89d","ios":"levelo://app?vid=ed07a573-dec7-428a-b8bd-6704574ba89d"},"vehicle_type_id":"4","last_reported":1746461608,"current_range_meters":15200,"station_id":"ce4bhnh2rcd13ifvqgtg","pricing_plan_id":"cebpf4jnsgd1na2vs0mg"},{"bike_id":"c9592205-9409-4f74-aed1-7c4141a58caa","system_id":"levelo_inurba_marseille","lat":43.27141,"lon":5.36376,"is_reserved":false,"is_disabled":false,"rental_uris":{"android":"levelo://app?vid=c9592205-9409-4f74-aed1-7c4141a58caa","ios":"levelo://app?vid=c9592205-9409-4f74-aed1-7c4141a58caa"},"vehicle_type_id":"4","last_reported":1746461608,"current_range_meters":16000,"station_id":"","pricing_plan_id":"cebpf4jnsgd1na2vs0mg"},{"bike_id":"8dac27be-a00b-4425-aba9-9ad4ebb57a63","system_id":"levelo_inurba_marseille","lat":43.28674,"lon":5.38676,"is_reserved":false,"is_disabled":true,"rental_uris":{"android":"levelo://app?vid=8dac27be-a00b-4425-aba9-9ad4ebb57a63","ios":"levelo://app?vid=8dac27be-a00b-4425-aba9-9ad4ebb57a63"},"vehicle_type_id":"4","last_reported":1746461608,"current_range_meters":16000,"station_id":"ce4bh492rcd13ifvqdug","pricing_plan_id":"cebpf4jnsgd1na2vs0mg"},{"bike_id":"c6a1eca6-885a-4ee9-9b22-ba716ed7c625","system_id":"levelo_inurba_marseille","lat":43.28457,"lon":5.35875,"is_reserved":false,"is_disabled":false,"rental_uris":{"android":"levelo://app?vid=c6a1eca6-885a-4ee9-9b22-ba716ed7c625","ios":"levelo://app?vid=c6a1eca6-885a-4ee9-9b22-ba716ed7c625"},"vehicle_type_id":"4","last_reported":1746461608,"current_range_meters":16000,"station_id":"ce4bhah2rcd13ifvqei0","pricing_plan_id":"cebpf4jnsgd1na2vs0mg"},{"bike_id":"7e7dc147-9fb8-4df0-905e-a56344049728","system_id":"levelo_inurba_marseille","lat":43.29037,"lon":5.3862,"is_reserved":false,"is_disabled":true,"rental_uris":{"android":"levelo://app?vid=7e7dc147-9fb8-4df0-905e-a56344049728","ios":"levelo://app?vid=7e7dc147-9fb8-4df0-905e-a56344049728"},"vehicle_type_id":"4","last_reported":1746461608,"current_range_meters":16000,"station_id":"ce4bh4p2rcd13ifvqe0g","pricing_plan_id":"cebpf4jnsgd1na2vs0mg"},{"bike_id":"478d62eb-1ef2-4ac6-b4d0-e68579e469ca","system_id":"levelo_inurba_marseille","lat":43.29019,"lon":5.38128,"is_reserved":false,"is_disabled":false,"rental_uris":{"android":"levelo://app?vid=478d62eb-1ef2-4ac6-b4d0-e68579e469ca","ios":"levelo://app?vid=478d62eb-1ef2-4ac6-b4d0-e68579e469ca"},"vehicle_type_id":"4","last_reported":1746461608,"current_range_meters":16000,"station_id":"","pricing_plan_id":"cebpf4jnsgd1na2vs0mg"},{"bike_id":"6f0d4e2c-469c-4a75-a3d5-9fff64951411","system_id":"levelo_inurba_marseille","lat":43.32035,"lon":5.41553,"is_reserved":false,"is_disabled":false,"rental_uris":{"android":"levelo://app?vid=6f0d4e2c-469c-4a75-a3d5-9fff64951411","ios":"levelo://app?vid=6f0d4e2c-469c-4a75-a3d5-9fff64951411"},"vehicle_type_id":"4","last_reported":1746461608,"current_range_meters":16400,"station_id":"ce4bhq92rcd13ifvqhkg","pricing_plan_id":"cebpf4jnsgd1na2vs0mg"},{"bike_id":"45a45f69-f575-43ac-b7b8-9b5fcefad8dc","system_id":"levelo_inurba_marseille","lat":43.24399,"lon":5.37041,"is_reserved":false,"is_disabled":false,"rental_uris":{"android":"levelo://app?vid=45a45f69-f575-43ac-b7b8-9b5fcefad8dc","ios":"levelo://app?vid=45a45f69-f575-43ac-b7b8-9b5fcefad8dc"},"vehicle_type_id":"4","last_reported":1746461608,"current_range_meters":16400,"station_id":"ce4bhhh2rcd13ifvqfk0","pricing_plan_id":"cebpf4jnsgd1na2vs0mg"},{"bike_id":"94a54b10-b8cf-40d2-bad6-63a8ca46a292","system_id":"levelo_inurba_marseille","lat":43.28405,"lon":5.37509,"is_reserved":false,"is_disabled":false,"rental_uris":{"android":"levelo://app?vid=94a54b10-b8cf-40d2-bad6-63a8ca46a292","ios":"levelo://app?vid=94a54b10-b8cf-40d2-bad6-63a8ca46a292"},"vehicle_type_id":"4","last_reported":1746461608,"current_range_meters":16400,"station_id":"ce4bh412rcd13ifvqds0","pricing_plan_id":"cebpf4jnsgd1na2vs0mg"},{"bike_id":"858bed88-3c9c-4c60-b913-cfc9a1021309","system_id":"levelo_inurba_marseille","lat":43.31763,"lon":5.39037,"is_reserved":false,"is_disabled":true,"rental_uris":{"android":"levelo://app?vid=858bed88-3c9c-4c60-b913-cfc9a1021309","ios":"levelo://app?vid=858bed88-3c9c-4c60-b913-cfc9a1021309"},"vehicle_type_id":"4","last_reported":1746461608,"current_range_meters":16400,"station_id":"ce4bhqp2rcd13ifvqhng","pricing_plan_id":"cebpf4jnsgd1na2vs0mg"},{"bike_id":"7ca09d8d-51db-4057-abe2-e9c1bdbcdfac","system_id":"levelo_inurba_marseille","lat":43.22923,"lon":5.35378,"is_reserved":false,"is_disabled":true,"rental_uris":{"android":"levelo://app?vid=7ca09d8d-51db-4057-abe2-e9c1bdbcdfac","ios":"levelo://app?vid=7ca09d8d-51db-4057-abe2-e9c1bdbcdfac"},"vehicle_type_id":"4","last_reported":1746461608,"current_range_meters":16400,"station_id":"cpo3532slgdg3j2ikp40","pricing_plan_id":"cebpf4jnsgd1na2vs0mg"},{"bike_id":"99097e50-dd2e-47c3-a879-f48655baf4d9","system_id":"levelo_inurba_marseille","lat":43.245938,"lon":5.408305,"is_reserved":false,"is_disabled":false,"rental_uris":{"android":"levelo://app?vid=99097e50-dd2e-47c3-a879-f48655baf4d9","ios":"levelo://app?vid=99097e50-dd2e-47c3-a879-f48655baf4d9"},"vehicle_type_id":"4","last_reported":1746461608,"current_range_meters":16800,"station_id":"","pricing_plan_id":"cebpf4jnsgd1na2vs0mg"},{"bike_id":"602eb150-9832-4757-a64b-d9383bb9c189","system_id":"levelo_inurba_marseille","lat":43.25581,"lon":5.38251,"is_reserved":false,"is_disabled":false,"rental_uris":{"android":"levelo://app?vid=602eb150-9832-4757-a64b-d9383bb9c189","ios":"levelo://app?vid=602eb150-9832-4757-a64b-d9383bb9c189"},"vehicle_type_id":"4","last_reported":1746461608,"current_range_meters":16800,"station_id":"ce4bhih2rcd13ifvqfs0","pricing_plan_id":"cebpf4jnsgd1na2vs0mg"},{"bike_id":"3e6dd12c-b039-48d4-b0fa-03387e2ba059","system_id":"levelo_inurba_marseille","lat":43.297974,"lon":5.381073,"is_reserved":false,"is_disabled":false,"rental_uris":{"android":"levelo://app?vid=3e6dd12c-b039-48d4-b0fa-03387e2ba059","ios":"levelo://app?vid=3e6dd12c-b039-48d4-b0fa-03387e2ba059"},"vehicle_type_id":"4","last_reported":1746461608,"current_range_meters":16800,"station_id":"ce4bgip2rcd13ifvqbb0","pricing_plan_id":"cebpf4jnsgd1na2vs0mg"},{"bike_id":"5a7d2749-ecbc-4351-94f2-8339d95d4c06","system_id":"levelo_inurba_marseille","lat":43.3154,"lon":5.38035,"is_reserved":false,"is_disabled":false,"rental_uris":{"android":"levelo://app?vid=5a7d2749-ecbc-4351-94f2-8339d95d4c06","ios":"levelo://app?vid=5a7d2749-ecbc-4351-94f2-8339d95d4c06"},"vehicle_type_id":"4","last_reported":1746461608,"current_range_meters":16800,"station_id":"ce4bhsp2rcd13ifvqi50","pricing_plan_id":"cebpf4jnsgd1na2vs0mg"},{"bike_id":"d2c46af0-b2b6-47e1-b0c0-73534eb56817","system_id":"levelo_inurba_marseille","lat":43.28159,"lon":5.42642,"is_reserved":false,"is_disabled":false,"rental_uris":{"android":"levelo://app?vid=d2c46af0-b2b6-47e1-b0c0-73534eb56817","ios":"levelo://app?vid=d2c46af0-b2b6-47e1-b0c0-73534eb56817"},"vehicle_type_id":"4","last_reported":1746461608,"current_range_meters":16800,"station_id":"ce4bhnh2rcd13ifvqgug","pricing_plan_id":"cebpf4jnsgd1na2vs0mg"},{"bike_id":"3f84d55c-f7b3-443f-a8ba-1f83ba8291a2","system_id":"levelo_inurba_marseille","lat":43.21193,"lon":5.3508,"is_reserved":false,"is_disabled":false,"rental_uris":{"android":"levelo://app?vid=3f84d55c-f7b3-443f-a8ba-1f83ba8291a2","ios":"levelo://app?vid=3f84d55c-f7b3-443f-a8ba-1f83ba8291a2"},"vehicle_type_id":"4","last_reported":1746461608,"current_range_meters":16800,"station_id":"st_cvj6sg6p6f1abm77japg","pricing_plan_id":"cebpf4jnsgd1na2vs0mg"},{"bike_id":"44c2bfb7-3fdc-4727-8072-840b49e408d0","system_id":"levelo_inurba_marseille","lat":43.278128,"lon":5.407093,"is_reserved":false,"is_disabled":false,"rental_uris":{"android":"levelo://app?vid=44c2bfb7-3fdc-4727-8072-840b49e408d0","ios":"levelo://app?vid=44c2bfb7-3fdc-4727-8072-840b49e408d0"},"vehicle_type_id":"4","last_reported":1746461608,"current_range_meters":16800,"station_id":"ce4bhnh2rcd13ifvqgtg","pricing_plan_id":"cebpf4jnsgd1na2vs0mg"},{"bike_id":"e3bb4c0a-ea28-4d8b-a92a-340ecfdd5f1d","system_id":"levelo_inurba_marseille","lat":43.31036,"lon":5.37558,"is_reserved":false,"is_disabled":false,"rental_uris":{"android":"levelo://app?vid=e3bb4c0a-ea28-4d8b-a92a-340ecfdd5f1d","ios":"levelo://app?vid=e3bb4c0a-ea28-4d8b-a92a-340ecfdd5f1d"},"vehicle_type_id":"4","last_reported":1746461608,"current_range_meters":17200,"station_id":"","pricing_plan_id":"cebpf4jnsgd1na2vs0mg"},{"bike_id":"9175d517-3c9f-4a9d-9359-bc5552cd94b8","system_id":"levelo_inurba_marseille","lat":43.28618,"lon":5.35106,"is_reserved":false,"is_disabled":false,"rental_uris":{"android":"levelo://app?vid=9175d517-3c9f-4a9d-9359-bc5552cd94b8","ios":"levelo://app?vid=9175d517-3c9f-4a9d-9359-bc5552cd94b8"},"vehicle_type_id":"4","last_reported":1746461608,"current_range_meters":17200,"station_id":"ce4bhch2rcd13ifvqeug","pricing_plan_id":"cebpf4jnsgd1na2vs0mg"},{"bike_id":"bfb768d4-db43-4db8-8659-afeb33dd4edd","system_id":"levelo_inurba_marseille","lat":43.30736,"lon":5.42433,"is_reserved":false,"is_disabled":false,"rental_uris":{"android":"levelo://app?vid=bfb768d4-db43-4db8-8659-afeb33dd4edd","ios":"levelo://app?vid=bfb768d4-db43-4db8-8659-afeb33dd4edd"},"vehicle_type_id":"4","last_reported":1746461608,"current_range_meters":17200,"station_id":"st_cvj6ca6bvosntc0bfgr0","pricing_plan_id":"cebpf4jnsgd1na2vs0mg"},{"bike_id":"941c76a5-048e-45d9-b103-1ffd23165d05","system_id":"levelo_inurba_marseille","lat":43.323855,"lon":5.390193,"is_reserved":false,"is_disabled":false,"rental_uris":{"android":"levelo://app?vid=941c76a5-048e-45d9-b103-1ffd23165d05","ios":"levelo://app?vid=941c76a5-048e-45d9-b103-1ffd23165d05"},"vehicle_type_id":"4","last_reported":1746461608,"current_range_meters":17200,"station_id":"ce4bhpp2rcd13ifvqhgg","pricing_plan_id":"cebpf4jnsgd1na2vs0mg"},{"bike_id":"1ffc1428-241d-4ff5-b635-3a158222043c","system_id":"levelo_inurba_marseille","lat":43.2781,"lon":5.40709,"is_reserved":false,"is_disabled":false,"rental_uris":{"android":"levelo://app?vid=1ffc1428-241d-4ff5-b635-3a158222043c","ios":"levelo://app?vid=1ffc1428-241d-4ff5-b635-3a158222043c"},"vehicle_type_id":"4","last_reported":1746461608,"current_range_meters":17200,"station_id":"ce4bhnh2rcd13ifvqgtg","pricing_plan_id":"cebpf4jnsgd1na2vs0mg"},{"bike_id":"5d0bb337-ae79-448f-afd1-0b873f3aaa7a","system_id":"levelo_inurba_marseille","lat":43.27178,"lon":5.40999,"is_reserved":false,"is_disabled":false,"rental_uris":{"android":"levelo://app?vid=5d0bb337-ae79-448f-afd1-0b873f3aaa7a","ios":"levelo://app?vid=5d0bb337-ae79-448f-afd1-0b873f3aaa7a"},"vehicle_type_id":"4","last_reported":1746461608,"current_range_meters":16800,"station_id":"ce4bhl12rcd13ifvqgf0","pricing_plan_id":"cebpf4jnsgd1na2vs0mg"},{"bike_id":"b24b8c5b-9695-4792-a788-92897ceedd64","system_id":"levelo_inurba_marseille","lat":43.32341,"lon":5.40623,"is_reserved":false,"is_disabled":false,"rental_uris":{"android":"levelo://app?vid=b24b8c5b-9695-4792-a788-92897ceedd64","ios":"levelo://app?vid=b24b8c5b-9695-4792-a788-92897ceedd64"},"vehicle_type_id":"4","last_reported":1746461608,"current_range_meters":17600,"station_id":"ce4bhq92rcd13ifvqhjg","pricing_plan_id":"cebpf4jnsgd1na2vs0mg"},{"bike_id":"d9766e1c-c799-4d16-aa57-1d47be3d5579","system_id":"levelo_inurba_marseille","lat":43.32674,"lon":5.40458,"is_reserved":false,"is_disabled":false,"rental_uris":{"android":"levelo://app?vid=d9766e1c-c799-4d16-aa57-1d47be3d5579","ios":"levelo://app?vid=d9766e1c-c799-4d16-aa57-1d47be3d5579"},"vehicle_type_id":"4","last_reported":1746461608,"current_range_meters":17600,"station_id":"","pricing_plan_id":"cebpf4jnsgd1na2vs0mg"},{"bike_id":"37fc2467-3716-44e9-95f2-d04d8d2a1aae","system_id":"levelo_inurba_marseille","lat":43.284452,"lon":5.374311,"is_reserved":false,"is_disabled":false,"rental_uris":{"android":"levelo://app?vid=37fc2467-3716-44e9-95f2-d04d8d2a1aae","ios":"levelo://app?vid=37fc2467-3716-44e9-95f2-d04d8d2a1aae"},"vehicle_type_id":"4","last_reported":1746461608,"current_range_meters":17600,"station_id":"ce4bh412rcd13ifvqds0","pricing_plan_id":"cebpf4jnsgd1na2vs0mg"},{"bike_id":"f307db7b-c4d2-46e3-8872-ed40e1674c73","system_id":"levelo_inurba_marseille","lat":43.29973,"lon":5.38498,"is_reserved":false,"is_disabled":false,"rental_uris":{"android":"levelo://app?vid=f307db7b-c4d2-46e3-8872-ed40e1674c73","ios":"levelo://app?vid=f307db7b-c4d2-46e3-8872-ed40e1674c73"},"vehicle_type_id":"4","last_reported":1746461608,"current_range_meters":17200,"station_id":"ce4bgj92rcd13ifvqbd0","pricing_plan_id":"cebpf4jnsgd1na2vs0mg"},{"bike_id":"5987d684-ebbc-4e3b-9225-d827a0b9ff39","system_id":"levelo_inurba_marseille","lat":43.23965,"lon":5.36642,"is_reserved":false,"is_disabled":false,"rental_uris":{"android":"levelo://app?vid=5987d684-ebbc-4e3b-9225-d827a0b9ff39","ios":"levelo://app?vid=5987d684-ebbc-4e3b-9225-d827a0b9ff39"},"vehicle_type_id":"4","last_reported":1746461608,"current_range_meters":17600,"station_id":"ce4bhi12rcd13ifvqfp0","pricing_plan_id":"cebpf4jnsgd1na2vs0mg"},{"bike_id":"640a9e84-c79b-4a9b-92ce-27b449575476","system_id":"levelo_inurba_marseille","lat":43.28469,"lon":5.35899,"is_reserved":false,"is_disabled":false,"rental_uris":{"android":"levelo://app?vid=640a9e84-c79b-4a9b-92ce-27b449575476","ios":"levelo://app?vid=640a9e84-c79b-4a9b-92ce-27b449575476"},"vehicle_type_id":"4","last_reported":1746461608,"current_range_meters":17600,"station_id":"ce4bhah2rcd13ifvqei0","pricing_plan_id":"cebpf4jnsgd1na2vs0mg"},{"bike_id":"6b0520d9-46ae-476f-a51d-4d7ac411c481","system_id":"levelo_inurba_marseille","lat":43.290281,"lon":5.386509,"is_reserved":false,"is_disabled":false,"rental_uris":{"android":"levelo://app?vid=6b0520d9-46ae-476f-a51d-4d7ac411c481","ios":"levelo://app?vid=6b0520d9-46ae-476f-a51d-4d7ac411c481"},"vehicle_type_id":"4","last_reported":1746461608,"current_range_meters":17200,"station_id":"ce4bh4p2rcd13ifvqe0g","pricing_plan_id":"cebpf4jnsgd1na2vs0mg"},{"bike_id":"8614d70c-5274-4c95-bda3-d1d7ed02fdda","system_id":"levelo_inurba_marseille","lat":43.323637,"lon":5.36759,"is_reserved":false,"is_disabled":false,"rental_uris":{"android":"levelo://app?vid=8614d70c-5274-4c95-bda3-d1d7ed02fdda","ios":"levelo://app?vid=8614d70c-5274-4c95-bda3-d1d7ed02fdda"},"vehicle_type_id":"4","last_reported":1746461608,"current_range_meters":17600,"station_id":"ce4bhsh2rcd13ifvqi2g","pricing_plan_id":"cebpf4jnsgd1na2vs0mg"},{"bike_id":"d95d400a-9fb7-4ff0-b7eb-eff1fb2625a7","system_id":"levelo_inurba_marseille","lat":43.29522,"lon":5.39406,"is_reserved":false,"is_disabled":false,"rental_uris":{"android":"levelo://app?vid=d95d400a-9fb7-4ff0-b7eb-eff1fb2625a7","ios":"levelo://app?vid=d95d400a-9fb7-4ff0-b7eb-eff1fb2625a7"},"vehicle_type_id":"4","last_reported":1746461608,"current_range_meters":17600,"station_id":"ce4bh292rcd13ifvqdf0","pricing_plan_id":"cebpf4jnsgd1na2vs0mg"},{"bike_id":"03a29335-4fc6-491f-9a4d-142aa846669f","system_id":"levelo_inurba_marseille","lat":43.30134,"lon":5.3985,"is_reserved":false,"is_disabled":false,"rental_uris":{"android":"levelo://app?vid=03a29335-4fc6-491f-9a4d-142aa846669f","ios":"levelo://app?vid=03a29335-4fc6-491f-9a4d-142aa846669f"},"vehicle_type_id":"4","last_reported":1746461608,"current_range_meters":18000,"station_id":"ce4bh0h2rcd13ifvqd40","pricing_plan_id":"cebpf4jnsgd1na2vs0mg"},{"bike_id":"ff781343-5420-4962-9aa8-d7897769240e","system_id":"levelo_inurba_marseille","lat":43.30785,"lon":5.37389,"is_reserved":false,"is_disabled":false,"rental_uris":{"android":"levelo://app?vid=ff781343-5420-4962-9aa8-d7897769240e","ios":"levelo://app?vid=ff781343-5420-4962-9aa8-d7897769240e"},"vehicle_type_id":"4","last_reported":1746461608,"current_range_meters":18000,"station_id":"","pricing_plan_id":"cebpf4jnsgd1na2vs0mg"},{"bike_id":"a07db7df-d212-4a63-ba71-2fc2a43e04a0","system_id":"levelo_inurba_marseille","lat":43.3171,"lon":5.436887,"is_reserved":false,"is_disabled":false,"rental_uris":{"android":"levelo://app?vid=a07db7df-d212-4a63-ba71-2fc2a43e04a0","ios":"levelo://app?vid=a07db7df-d212-4a63-ba71-2fc2a43e04a0"},"vehicle_type_id":"4","last_reported":1746461608,"current_range_meters":18000,"station_id":"ce4bhp92rcd13ifvqhcg","pricing_plan_id":"cebpf4jnsgd1na2vs0mg"},{"bike_id":"cd1e2bd2-9a13-4361-bc87-cfb03aeeb360","system_id":"levelo_inurba_marseille","lat":43.22532,"lon":5.3485,"is_reserved":false,"is_disabled":false,"rental_uris":{"android":"levelo://app?vid=cd1e2bd2-9a13-4361-bc87-cfb03aeeb360","ios":"levelo://app?vid=cd1e2bd2-9a13-4361-bc87-cfb03aeeb360"},"vehicle_type_id":"4","last_reported":1746461608,"current_range_meters":18000,"station_id":"","pricing_plan_id":"cebpf4jnsgd1na2vs0mg"},{"bike_id":"9e4f12e7-9362-42f6-8bd4-f0ffdcaf5e5a","system_id":"levelo_inurba_marseille","lat":43.28859,"lon":5.35856,"is_reserved":false,"is_disabled":false,"rental_uris":{"android":"levelo://app?vid=9e4f12e7-9362-42f6-8bd4-f0ffdcaf5e5a","ios":"levelo://app?vid=9e4f12e7-9362-42f6-8bd4-f0ffdcaf5e5a"},"vehicle_type_id":"4","last_reported":1746461608,"current_range_meters":18800,"station_id":"ce4bhb12rcd13ifvqem0","pricing_plan_id":"cebpf4jnsgd1na2vs0mg"},{"bike_id":"054739d7-2c72-487a-b5ba-01a825f6de56","system_id":"levelo_inurba_marseille","lat":43.29709,"lon":5.37712,"is_reserved":false,"is_disabled":false,"rental_uris":{"android":"levelo://app?vid=054739d7-2c72-487a-b5ba-01a825f6de56","ios":"levelo://app?vid=054739d7-2c72-487a-b5ba-01a825f6de56"},"vehicle_type_id":"4","last_reported":1746461608,"current_range_meters":18800,"station_id":"ce4bgkh2rcd13ifvqbl0","pricing_plan_id":"cebpf4jnsgd1na2vs0mg"},{"bike_id":"2c4795d2-0fd3-4634-bfb3-1e29d9ab2adb","system_id":"levelo_inurba_marseille","lat":43.31714,"lon":5.37772,"is_reserved":false,"is_disabled":false,"rental_uris":{"android":"levelo://app?vid=2c4795d2-0fd3-4634-bfb3-1e29d9ab2adb","ios":"levelo://app?vid=2c4795d2-0fd3-4634-bfb3-1e29d9ab2adb"},"vehicle_type_id":"4","last_reported":1746461608,"current_range_meters":18800,"station_id":"ce4bgth2rcd13ifvqch0","pricing_plan_id":"cebpf4jnsgd1na2vs0mg"},{"bike_id":"ab90e9b6-0de2-4ade-b5fd-575dd5de365d","system_id":"levelo_inurba_marseille","lat":43.28155,"lon":5.42645,"is_reserved":false,"is_disabled":false,"rental_uris":{"android":"levelo://app?vid=ab90e9b6-0de2-4ade-b5fd-575dd5de365d","ios":"levelo://app?vid=ab90e9b6-0de2-4ade-b5fd-575dd5de365d"},"vehicle_type_id":"4","last_reported":1746461608,"current_range_meters":18800,"station_id":"ce4bhnh2rcd13ifvqgug","pricing_plan_id":"cebpf4jnsgd1na2vs0mg"},{"bike_id":"00ae1a4d-09ec-4b25-9150-f1c13707ed68","system_id":"levelo_inurba_marseille","lat":43.27948,"lon":5.4105,"is_reserved":false,"is_disabled":false,"rental_uris":{"android":"levelo://app?vid=00ae1a4d-09ec-4b25-9150-f1c13707ed68","ios":"levelo://app?vid=00ae1a4d-09ec-4b25-9150-f1c13707ed68"},"vehicle_type_id":"4","last_reported":1746461608,"current_range_meters":18800,"station_id":"ce4bhnp2rcd13ifvqh0g","pricing_plan_id":"cebpf4jnsgd1na2vs0mg"},{"bike_id":"4b19fff3-4887-4e5c-b988-aab2b08100e8","system_id":"levelo_inurba_marseille","lat":43.2997,"lon":5.38496,"is_reserved":false,"is_disabled":false,"rental_uris":{"android":"levelo://app?vid=4b19fff3-4887-4e5c-b988-aab2b08100e8","ios":"levelo://app?vid=4b19fff3-4887-4e5c-b988-aab2b08100e8"},"vehicle_type_id":"4","last_reported":1746461608,"current_range_meters":18800,"station_id":"ce4bgj92rcd13ifvqbd0","pricing_plan_id":"cebpf4jnsgd1na2vs0mg"},{"bike_id":"09581a75-2039-475b-b8ec-9edf5d3c8695","system_id":"levelo_inurba_marseille","lat":43.217749,"lon":5.346049,"is_reserved":false,"is_disabled":false,"rental_uris":{"android":"levelo://app?vid=09581a75-2039-475b-b8ec-9edf5d3c8695","ios":"levelo://app?vid=09581a75-2039-475b-b8ec-9edf5d3c8695"},"vehicle_type_id":"4","last_reported":1746461608,"current_range_meters":19200,"station_id":"","pricing_plan_id":"cebpf4jnsgd1na2vs0mg"},{"bike_id":"ac9b3839-2065-4743-9b90-4ccb2252e0a1","system_id":"levelo_inurba_marseille","lat":43.27565,"lon":5.38428,"is_reserved":false,"is_disabled":false,"rental_uris":{"android":"levelo://app?vid=ac9b3839-2065-4743-9b90-4ccb2252e0a1","ios":"levelo://app?vid=ac9b3839-2065-4743-9b90-4ccb2252e0a1"},"vehicle_type_id":"4","last_reported":1746461608,"current_range_meters":19200,"station_id":"ce4bhh92rcd13ifvqfi0","pricing_plan_id":"cebpf4jnsgd1na2vs0mg"},{"bike_id":"c265ddd2-2bc2-4fd9-b3a5-b83321df9338","system_id":"levelo_inurba_marseille","lat":43.25821,"lon":5.3944,"is_reserved":false,"is_disabled":false,"rental_uris":{"android":"levelo://app?vid=c265ddd2-2bc2-4fd9-b3a5-b83321df9338","ios":"levelo://app?vid=c265ddd2-2bc2-4fd9-b3a5-b83321df9338"},"vehicle_type_id":"4","last_reported":1746461608,"current_range_meters":18800,"station_id":"ce4bhip2rcd13ifvqft0","pricing_plan_id":"cebpf4jnsgd1na2vs0mg"},{"bike_id":"a327ed7c-cb3d-44b1-bb3d-7951cd226f01","system_id":"levelo_inurba_marseille","lat":43.293396,"lon":5.371296,"is_reserved":false,"is_disabled":false,"rental_uris":{"android":"levelo://app?vid=a327ed7c-cb3d-44b1-bb3d-7951cd226f01","ios":"levelo://app?vid=a327ed7c-cb3d-44b1-bb3d-7951cd226f01"},"vehicle_type_id":"4","last_reported":1746461608,"current_range_meters":19200,"station_id":"","pricing_plan_id":"cebpf4jnsgd1na2vs0mg"},{"bike_id":"6ce81efa-e8f3-477a-b7a1-a1c58c727c56","system_id":"levelo_inurba_marseille","lat":43.21184,"lon":5.35081,"is_reserved":false,"is_disabled":false,"rental_uris":{"android":"levelo://app?vid=6ce81efa-e8f3-477a-b7a1-a1c58c727c56","ios":"levelo://app?vid=6ce81efa-e8f3-477a-b7a1-a1c58c727c56"},"vehicle_type_id":"4","last_reported":1746461608,"current_range_meters":19200,"station_id":"","pricing_plan_id":"cebpf4jnsgd1na2vs0mg"},{"bike_id":"13d72c90-097d-44e3-a161-c92142027aeb","system_id":"levelo_inurba_marseille","lat":43.32104,"lon":5.36763,"is_reserved":false,"is_disabled":false,"rental_uris":{"android":"levelo://app?vid=13d72c90-097d-44e3-a161-c92142027aeb","ios":"levelo://app?vid=13d72c90-097d-44e3-a161-c92142027aeb"},"vehicle_type_id":"4","last_reported":1746461608,"current_range_meters":19200,"station_id":"ce4bhrh2rcd13ifvqhug","pricing_plan_id":"cebpf4jnsgd1na2vs0mg"},{"bike_id":"c78fd98f-a6e3-4e4b-9026-52bf090d2983","system_id":"levelo_inurba_marseille","lat":43.29498,"lon":5.37436,"is_reserved":false,"is_disabled":false,"rental_uris":{"android":"levelo://app?vid=c78fd98f-a6e3-4e4b-9026-52bf090d2983","ios":"levelo://app?vid=c78fd98f-a6e3-4e4b-9026-52bf090d2983"},"vehicle_type_id":"4","last_reported":1746461608,"current_range_meters":19200,"station_id":"","pricing_plan_id":"cebpf4jnsgd1na2vs0mg"},{"bike_id":"dbe5a552-1246-49e3-8f16-74276b3476df","system_id":"levelo_inurba_marseille","lat":43.26806,"lon":5.40274,"is_reserved":false,"is_disabled":false,"rental_uris":{"android":"levelo://app?vid=dbe5a552-1246-49e3-8f16-74276b3476df","ios":"levelo://app?vid=dbe5a552-1246-49e3-8f16-74276b3476df"},"vehicle_type_id":"4","last_reported":1746461608,"current_range_meters":19200,"station_id":"ce501612rcd8frsf0b60","pricing_plan_id":"cebpf4jnsgd1na2vs0mg"},{"bike_id":"fe9c8226-5bf2-474c-b638-af99bc77c3cb","system_id":"levelo_inurba_marseille","lat":43.29795,"lon":5.40403,"is_reserved":false,"is_disabled":false,"rental_uris":{"android":"levelo://app?vid=fe9c8226-5bf2-474c-b638-af99bc77c3cb","ios":"levelo://app?vid=fe9c8226-5bf2-474c-b638-af99bc77c3cb"},"vehicle_type_id":"4","last_reported":1746461608,"current_range_meters":19200,"station_id":"ce4bh112rcd13ifvqd90","pricing_plan_id":"cebpf4jnsgd1na2vs0mg"},{"bike_id":"246e5db3-aab4-4ec1-a746-ddd39338dea7","system_id":"levelo_inurba_marseille","lat":43.31758,"lon":5.3902,"is_reserved":false,"is_disabled":false,"rental_uris":{"android":"levelo://app?vid=246e5db3-aab4-4ec1-a746-ddd39338dea7","ios":"levelo://app?vid=246e5db3-aab4-4ec1-a746-ddd39338dea7"},"vehicle_type_id":"4","last_reported":1746461608,"current_range_meters":19600,"station_id":"ce4bhqp2rcd13ifvqhng","pricing_plan_id":"cebpf4jnsgd1na2vs0mg"},{"bike_id":"660ddddf-3a85-4e39-95b8-919d9355794a","system_id":"levelo_inurba_marseille","lat":43.3059,"lon":5.39358,"is_reserved":false,"is_disabled":false,"rental_uris":{"android":"levelo://app?vid=660ddddf-3a85-4e39-95b8-919d9355794a","ios":"levelo://app?vid=660ddddf-3a85-4e39-95b8-919d9355794a"},"vehicle_type_id":"4","last_reported":1746461608,"current_range_meters":19600,"station_id":"ce4bh0p2rcd13ifvqd80","pricing_plan_id":"cebpf4jnsgd1na2vs0mg"},{"bike_id":"89d3f377-5a64-405e-ad75-45e8469ae3f6","system_id":"levelo_inurba_marseille","lat":43.26966,"lon":5.40311,"is_reserved":false,"is_disabled":true,"rental_uris":{"android":"levelo://app?vid=89d3f377-5a64-405e-ad75-45e8469ae3f6","ios":"levelo://app?vid=89d3f377-5a64-405e-ad75-45e8469ae3f6"},"vehicle_type_id":"4","last_reported":1746461608,"current_range_meters":19600,"station_id":"cjm6bp8fraef2m0cb0m0","pricing_plan_id":"cebpf4jnsgd1na2vs0mg"},{"bike_id":"3fce1a40-fb4b-4271-8f7a-aca328acb0ce","system_id":"levelo_inurba_marseille","lat":43.301178,"lon":5.398604,"is_reserved":false,"is_disabled":false,"rental_uris":{"android":"levelo://app?vid=3fce1a40-fb4b-4271-8f7a-aca328acb0ce","ios":"levelo://app?vid=3fce1a40-fb4b-4271-8f7a-aca328acb0ce"},"vehicle_type_id":"4","last_reported":1746461608,"current_range_meters":19600,"station_id":"ce4bh0h2rcd13ifvqd40","pricing_plan_id":"cebpf4jnsgd1na2vs0mg"},{"bike_id":"833ee9d7-8262-4c3b-99e0-f024dfebbb15","system_id":"levelo_inurba_marseille","lat":43.22933,"lon":5.35378,"is_reserved":false,"is_disabled":false,"rental_uris":{"android":"levelo://app?vid=833ee9d7-8262-4c3b-99e0-f024dfebbb15","ios":"levelo://app?vid=833ee9d7-8262-4c3b-99e0-f024dfebbb15"},"vehicle_type_id":"4","last_reported":1746461608,"current_range_meters":16800,"station_id":"cpo3532slgdg3j2ikp40","pricing_plan_id":"cebpf4jnsgd1na2vs0mg"},{"bike_id":"5eb76a03-f576-47e8-aebb-ca9468ee79f2","system_id":"levelo_inurba_marseille","lat":43.2872,"lon":5.37933,"is_reserved":false,"is_disabled":false,"rental_uris":{"android":"levelo://app?vid=5eb76a03-f576-47e8-aebb-ca9468ee79f2","ios":"levelo://app?vid=5eb76a03-f576-47e8-aebb-ca9468ee79f2"},"vehicle_type_id":"4","last_reported":1746461608,"current_range_meters":20000,"station_id":"ce4bh9p2rcd13ifvqec0","pricing_plan_id":"cebpf4jnsgd1na2vs0mg"},{"bike_id":"e7eb9337-be17-49f3-b4a1-73ba858a457e","system_id":"levelo_inurba_marseille","lat":43.30593,"lon":5.3936,"is_reserved":false,"is_disabled":false,"rental_uris":{"android":"levelo://app?vid=e7eb9337-be17-49f3-b4a1-73ba858a457e","ios":"levelo://app?vid=e7eb9337-be17-49f3-b4a1-73ba858a457e"},"vehicle_type_id":"4","last_reported":1746461608,"current_range_meters":20000,"station_id":"ce4bh0p2rcd13ifvqd80","pricing_plan_id":"cebpf4jnsgd1na2vs0mg"},{"bike_id":"35646c9e-a383-478d-8c30-70871777cd49","system_id":"levelo_inurba_marseille","lat":43.31756,"lon":5.39024,"is_reserved":false,"is_disabled":false,"rental_uris":{"android":"levelo://app?vid=35646c9e-a383-478d-8c30-70871777cd49","ios":"levelo://app?vid=35646c9e-a383-478d-8c30-70871777cd49"},"vehicle_type_id":"4","last_reported":1746461608,"current_range_meters":20400,"station_id":"ce4bhqp2rcd13ifvqhng","pricing_plan_id":"cebpf4jnsgd1na2vs0mg"},{"bike_id":"d0e3660a-b6fe-4d93-a879-aa8e45d4bea1","system_id":"levelo_inurba_marseille","lat":43.29267,"lon":5.38452,"is_reserved":false,"is_disabled":false,"rental_uris":{"android":"levelo://app?vid=d0e3660a-b6fe-4d93-a879-aa8e45d4bea1","ios":"levelo://app?vid=d0e3660a-b6fe-4d93-a879-aa8e45d4bea1"},"vehicle_type_id":"4","last_reported":1746461608,"current_range_meters":20400,"station_id":"ce4bh692rcd13ifvqea0","pricing_plan_id":"cebpf4jnsgd1na2vs0mg"},{"bike_id":"e0061c6d-580c-4996-a94a-47363030ee29","system_id":"levelo_inurba_marseille","lat":43.27942,"lon":5.41053,"is_reserved":false,"is_disabled":false,"rental_uris":{"android":"levelo://app?vid=e0061c6d-580c-4996-a94a-47363030ee29","ios":"levelo://app?vid=e0061c6d-580c-4996-a94a-47363030ee29"},"vehicle_type_id":"4","last_reported":1746461608,"current_range_meters":20400,"station_id":"ce4bhnp2rcd13ifvqh0g","pricing_plan_id":"cebpf4jnsgd1na2vs0mg"},{"bike_id":"c46dbbe3-7188-41f7-8a77-ed1db6875110","system_id":"levelo_inurba_marseille","lat":43.306448,"lon":5.401047,"is_reserved":false,"is_disabled":false,"rental_uris":{"android":"levelo://app?vid=c46dbbe3-7188-41f7-8a77-ed1db6875110","ios":"levelo://app?vid=c46dbbe3-7188-41f7-8a77-ed1db6875110"},"vehicle_type_id":"4","last_reported":1746461608,"current_range_meters":20400,"station_id":"ce4bh112rcd13ifvqda0","pricing_plan_id":"cebpf4jnsgd1na2vs0mg"},{"bike_id":"a0a9e05a-f518-44a1-bd3c-6f2789f5f55f","system_id":"levelo_inurba_marseille","lat":43.29207,"lon":5.39332,"is_reserved":false,"is_disabled":false,"rental_uris":{"android":"levelo://app?vid=a0a9e05a-f518-44a1-bd3c-6f2789f5f55f","ios":"levelo://app?vid=a0a9e05a-f518-44a1-bd3c-6f2789f5f55f"},"vehicle_type_id":"4","last_reported":1746461608,"current_range_meters":20000,"station_id":"ce4bh192rcd13ifvqdd0","pricing_plan_id":"cebpf4jnsgd1na2vs0mg"},{"bike_id":"e3800583-fd60-48d2-8299-a466392d45ab","system_id":"levelo_inurba_marseille","lat":43.30946,"lon":5.39027,"is_reserved":false,"is_disabled":false,"rental_uris":{"android":"levelo://app?vid=e3800583-fd60-48d2-8299-a466392d45ab","ios":"levelo://app?vid=e3800583-fd60-48d2-8299-a466392d45ab"},"vehicle_type_id":"4","last_reported":1746461608,"current_range_meters":20800,"station_id":"ce4bgup2rcd13ifvqco0","pricing_plan_id":"cebpf4jnsgd1na2vs0mg"},{"bike_id":"553322a2-fc26-422d-aba9-074858a2ace5","system_id":"levelo_inurba_marseille","lat":43.27941,"lon":5.41051,"is_reserved":false,"is_disabled":false,"rental_uris":{"android":"levelo://app?vid=553322a2-fc26-422d-aba9-074858a2ace5","ios":"levelo://app?vid=553322a2-fc26-422d-aba9-074858a2ace5"},"vehicle_type_id":"4","last_reported":1746461608,"current_range_meters":20800,"station_id":"ce4bhnp2rcd13ifvqh0g","pricing_plan_id":"cebpf4jnsgd1na2vs0mg"},{"bike_id":"c871eee8-0da6-4377-a846-0bf7400cb3c3","system_id":"levelo_inurba_marseille","lat":43.27831,"lon":5.40712,"is_reserved":false,"is_disabled":true,"rental_uris":{"android":"levelo://app?vid=c871eee8-0da6-4377-a846-0bf7400cb3c3","ios":"levelo://app?vid=c871eee8-0da6-4377-a846-0bf7400cb3c3"},"vehicle_type_id":"4","last_reported":1746461608,"current_range_meters":20800,"station_id":"ce4bhnh2rcd13ifvqgtg","pricing_plan_id":"cebpf4jnsgd1na2vs0mg"},{"bike_id":"f93c1b35-7a0c-4793-ad0c-3f379300d4e9","system_id":"levelo_inurba_marseille","lat":43.2867,"lon":5.36356,"is_reserved":false,"is_disabled":false,"rental_uris":{"android":"levelo://app?vid=f93c1b35-7a0c-4793-ad0c-3f379300d4e9","ios":"levelo://app?vid=f93c1b35-7a0c-4793-ad0c-3f379300d4e9"},"vehicle_type_id":"4","last_reported":1746461608,"current_range_meters":20400,"station_id":"ce4bhah2rcd13ifvqej0","pricing_plan_id":"cebpf4jnsgd1na2vs0mg"},{"bike_id":"eefa5555-3ebc-4c87-9031-a9584e708cf9","system_id":"levelo_inurba_marseille","lat":43.30419,"lon":5.4129,"is_reserved":false,"is_disabled":false,"rental_uris":{"android":"levelo://app?vid=eefa5555-3ebc-4c87-9031-a9584e708cf9","ios":"levelo://app?vid=eefa5555-3ebc-4c87-9031-a9584e708cf9"},"vehicle_type_id":"4","last_reported":1746461608,"current_range_meters":21600,"station_id":"ce4bhop2rcd13ifvqh8g","pricing_plan_id":"cebpf4jnsgd1na2vs0mg"},{"bike_id":"7c8e55f8-530a-4944-8a93-636da8f610c3","system_id":"levelo_inurba_marseille","lat":43.33731,"lon":5.39229,"is_reserved":false,"is_disabled":false,"rental_uris":{"android":"levelo://app?vid=7c8e55f8-530a-4944-8a93-636da8f610c3","ios":"levelo://app?vid=7c8e55f8-530a-4944-8a93-636da8f610c3"},"vehicle_type_id":"4","last_reported":1746461608,"current_range_meters":21600,"station_id":"ce4bhr92rcd13ifvqhsg","pricing_plan_id":"cebpf4jnsgd1na2vs0mg"},{"bike_id":"df1cc047-e028-4928-9925-7a617ac630ad","system_id":"levelo_inurba_marseille","lat":43.23967,"lon":5.36626,"is_reserved":false,"is_disabled":false,"rental_uris":{"android":"levelo://app?vid=df1cc047-e028-4928-9925-7a617ac630ad","ios":"levelo://app?vid=df1cc047-e028-4928-9925-7a617ac630ad"},"vehicle_type_id":"4","last_reported":1746461608,"current_range_meters":20800,"station_id":"ce4bhi12rcd13ifvqfp0","pricing_plan_id":"cebpf4jnsgd1na2vs0mg"},{"bike_id":"0a0d9773-2c8e-4202-915e-befc3928ea8c","system_id":"levelo_inurba_marseille","lat":43.28846,"lon":5.39332,"is_reserved":false,"is_disabled":true,"rental_uris":{"android":"levelo://app?vid=0a0d9773-2c8e-4202-915e-befc3928ea8c","ios":"levelo://app?vid=0a0d9773-2c8e-4202-915e-befc3928ea8c"},"vehicle_type_id":"4","last_reported":1746461608,"current_range_meters":22000,"station_id":"ce4bh2p2rcd13ifvqdi0","pricing_plan_id":"cebpf4jnsgd1na2vs0mg"},{"bike_id":"37cb95bf-ed56-4ab4-a156-dbc654da35df","system_id":"levelo_inurba_marseille","lat":43.259307,"lon":5.40921,"is_reserved":false,"is_disabled":true,"rental_uris":{"android":"levelo://app?vid=37cb95bf-ed56-4ab4-a156-dbc654da35df","ios":"levelo://app?vid=37cb95bf-ed56-4ab4-a156-dbc654da35df"},"vehicle_type_id":"4","last_reported":1746461608,"current_range_meters":22000,"station_id":"ce4bhm92rcd13ifvqglg","pricing_plan_id":"cebpf4jnsgd1na2vs0mg"},{"bike_id":"c015b36c-05cf-444b-9cfd-64d6a33932a4","system_id":"levelo_inurba_marseille","lat":43.31711,"lon":5.37756,"is_reserved":false,"is_disabled":false,"rental_uris":{"android":"levelo://app?vid=c015b36c-05cf-444b-9cfd-64d6a33932a4","ios":"levelo://app?vid=c015b36c-05cf-444b-9cfd-64d6a33932a4"},"vehicle_type_id":"4","last_reported":1746461608,"current_range_meters":21600,"station_id":"ce4bgth2rcd13ifvqch0","pricing_plan_id":"cebpf4jnsgd1na2vs0mg"},{"bike_id":"3e283659-f42a-41b6-bcb3-8338e6ba5365","system_id":"levelo_inurba_marseille","lat":43.29975,"lon":5.38497,"is_reserved":false,"is_disabled":false,"rental_uris":{"android":"levelo://app?vid=3e283659-f42a-41b6-bcb3-8338e6ba5365","ios":"levelo://app?vid=3e283659-f42a-41b6-bcb3-8338e6ba5365"},"vehicle_type_id":"4","last_reported":1746461608,"current_range_meters":22000,"station_id":"ce4bgj92rcd13ifvqbd0","pricing_plan_id":"cebpf4jnsgd1na2vs0mg"},{"bike_id":"9e1847a2-f320-4171-9620-2a69efe4344c","system_id":"levelo_inurba_marseille","lat":43.30739,"lon":5.40047,"is_reserved":false,"is_disabled":false,"rental_uris":{"android":"levelo://app?vid=9e1847a2-f320-4171-9620-2a69efe4344c","ios":"levelo://app?vid=9e1847a2-f320-4171-9620-2a69efe4344c"},"vehicle_type_id":"4","last_reported":1746461608,"current_range_meters":22000,"station_id":"","pricing_plan_id":"cebpf4jnsgd1na2vs0mg"},{"bike_id":"ae7a57f4-cd01-40e5-8161-67ce60ccc5c9","system_id":"levelo_inurba_marseille","lat":43.23212,"lon":5.39975,"is_reserved":false,"is_disabled":false,"rental_uris":{"android":"levelo://app?vid=ae7a57f4-cd01-40e5-8161-67ce60ccc5c9","ios":"levelo://app?vid=ae7a57f4-cd01-40e5-8161-67ce60ccc5c9"},"vehicle_type_id":"4","last_reported":1746461608,"current_range_meters":22000,"station_id":"ce4bhn12rcd13ifvqgqg","pricing_plan_id":"cebpf4jnsgd1na2vs0mg"},{"bike_id":"153c71d1-2e9c-4d7e-99e3-1d2d2c1e442f","system_id":"levelo_inurba_marseille","lat":43.27983,"lon":5.41686,"is_reserved":false,"is_disabled":false,"rental_uris":{"android":"levelo://app?vid=153c71d1-2e9c-4d7e-99e3-1d2d2c1e442f","ios":"levelo://app?vid=153c71d1-2e9c-4d7e-99e3-1d2d2c1e442f"},"vehicle_type_id":"4","last_reported":1746461608,"current_range_meters":22000,"station_id":"ce4bho12rcd13ifvqh1g","pricing_plan_id":"cebpf4jnsgd1na2vs0mg"},{"bike_id":"ac700e2e-c129-4f82-a3c3-f628077933a6","system_id":"levelo_inurba_marseille","lat":43.21205,"lon":5.35109,"is_reserved":false,"is_disabled":false,"rental_uris":{"android":"levelo://app?vid=ac700e2e-c129-4f82-a3c3-f628077933a6","ios":"levelo://app?vid=ac700e2e-c129-4f82-a3c3-f628077933a6"},"vehicle_type_id":"4","last_reported":1746461608,"current_range_meters":22400,"station_id":"st_cvj6sg6p6f1abm77japg","pricing_plan_id":"cebpf4jnsgd1na2vs0mg"},{"bike_id":"845600ac-9591-4563-a120-cd38c3640667","system_id":"levelo_inurba_marseille","lat":43.28718,"lon":5.37938,"is_reserved":false,"is_disabled":false,"rental_uris":{"android":"levelo://app?vid=845600ac-9591-4563-a120-cd38c3640667","ios":"levelo://app?vid=845600ac-9591-4563-a120-cd38c3640667"},"vehicle_type_id":"4","last_reported":1746461608,"current_range_meters":22400,"station_id":"ce4bh9p2rcd13ifvqec0","pricing_plan_id":"cebpf4jnsgd1na2vs0mg"},{"bike_id":"c4124482-9de3-4929-a2f3-663f8d9541bd","system_id":"levelo_inurba_marseille","lat":43.29038,"lon":5.38651,"is_reserved":false,"is_disabled":false,"rental_uris":{"android":"levelo://app?vid=c4124482-9de3-4929-a2f3-663f8d9541bd","ios":"levelo://app?vid=c4124482-9de3-4929-a2f3-663f8d9541bd"},"vehicle_type_id":"4","last_reported":1746461608,"current_range_meters":22800,"station_id":"ce4bh4p2rcd13ifvqe0g","pricing_plan_id":"cebpf4jnsgd1na2vs0mg"},{"bike_id":"596be5a2-3e04-44de-9fa3-a346f12f4237","system_id":"levelo_inurba_marseille","lat":43.29449,"lon":5.433583,"is_reserved":false,"is_disabled":false,"rental_uris":{"android":"levelo://app?vid=596be5a2-3e04-44de-9fa3-a346f12f4237","ios":"levelo://app?vid=596be5a2-3e04-44de-9fa3-a346f12f4237"},"vehicle_type_id":"4","last_reported":1746461608,"current_range_meters":22800,"station_id":"","pricing_plan_id":"cebpf4jnsgd1na2vs0mg"},{"bike_id":"8a4b30e0-b491-4f8b-b56b-65294a62c555","system_id":"levelo_inurba_marseille","lat":43.25451,"lon":5.4188,"is_reserved":false,"is_disabled":false,"rental_uris":{"android":"levelo://app?vid=8a4b30e0-b491-4f8b-b56b-65294a62c555","ios":"levelo://app?vid=8a4b30e0-b491-4f8b-b56b-65294a62c555"},"vehicle_type_id":"4","last_reported":1746461608,"current_range_meters":22000,"station_id":"","pricing_plan_id":"cebpf4jnsgd1na2vs0mg"},{"bike_id":"ea4762e8-256b-4c73-a917-b8c3e12612ed","system_id":"levelo_inurba_marseille","lat":43.26119,"lon":5.41468,"is_reserved":false,"is_disabled":false,"rental_uris":{"android":"levelo://app?vid=ea4762e8-256b-4c73-a917-b8c3e12612ed","ios":"levelo://app?vid=ea4762e8-256b-4c73-a917-b8c3e12612ed"},"vehicle_type_id":"4","last_reported":1746461608,"current_range_meters":22800,"station_id":"","pricing_plan_id":"cebpf4jnsgd1na2vs0mg"},{"bike_id":"99b1c938-0bc4-42ba-9b47-225d974ee405","system_id":"levelo_inurba_marseille","lat":43.241871,"lon":5.397284,"is_reserved":false,"is_disabled":false,"rental_uris":{"android":"levelo://app?vid=99b1c938-0bc4-42ba-9b47-225d974ee405","ios":"levelo://app?vid=99b1c938-0bc4-42ba-9b47-225d974ee405"},"vehicle_type_id":"4","last_reported":1746461608,"current_range_meters":22800,"station_id":"ce4bhn12rcd13ifvqgpg","pricing_plan_id":"cebpf4jnsgd1na2vs0mg"},{"bike_id":"b4216838-733b-46cd-aae7-8693e0287a61","system_id":"levelo_inurba_marseille","lat":43.22962,"lon":5.35405,"is_reserved":false,"is_disabled":false,"rental_uris":{"android":"levelo://app?vid=b4216838-733b-46cd-aae7-8693e0287a61","ios":"levelo://app?vid=b4216838-733b-46cd-aae7-8693e0287a61"},"vehicle_type_id":"4","last_reported":1746461608,"current_range_meters":22800,"station_id":"cpo3532slgdg3j2ikp40","pricing_plan_id":"cebpf4jnsgd1na2vs0mg"},{"bike_id":"a0fcebb9-adb3-4214-a4cd-919fcb7c5c33","system_id":"levelo_inurba_marseille","lat":43.28617,"lon":5.35102,"is_reserved":false,"is_disabled":false,"rental_uris":{"android":"levelo://app?vid=a0fcebb9-adb3-4214-a4cd-919fcb7c5c33","ios":"levelo://app?vid=a0fcebb9-adb3-4214-a4cd-919fcb7c5c33"},"vehicle_type_id":"4","last_reported":1746461608,"current_range_meters":22800,"station_id":"ce4bhch2rcd13ifvqeug","pricing_plan_id":"cebpf4jnsgd1na2vs0mg"},{"bike_id":"235a669b-ae6f-417c-ab3c-d30974ea072a","system_id":"levelo_inurba_marseille","lat":43.29641,"lon":5.38619,"is_reserved":false,"is_disabled":false,"rental_uris":{"android":"levelo://app?vid=235a669b-ae6f-417c-ab3c-d30974ea072a","ios":"levelo://app?vid=235a669b-ae6f-417c-ab3c-d30974ea072a"},"vehicle_type_id":"4","last_reported":1746461608,"current_range_meters":22800,"station_id":"","pricing_plan_id":"cebpf4jnsgd1na2vs0mg"},{"bike_id":"8d068428-a625-4293-a56a-4f3a5c1a1209","system_id":"levelo_inurba_marseille","lat":43.29779,"lon":5.37107,"is_reserved":false,"is_disabled":false,"rental_uris":{"android":"levelo://app?vid=8d068428-a625-4293-a56a-4f3a5c1a1209","ios":"levelo://app?vid=8d068428-a625-4293-a56a-4f3a5c1a1209"},"vehicle_type_id":"4","last_reported":1746461608,"current_range_meters":22800,"station_id":"ce4bgop2rcd13ifvqc1g","pricing_plan_id":"cebpf4jnsgd1na2vs0mg"},{"bike_id":"41f644d5-9ca6-41a3-8347-e35f69b8493f","system_id":"levelo_inurba_marseille","lat":43.290069,"lon":5.356147,"is_reserved":false,"is_disabled":false,"rental_uris":{"android":"levelo://app?vid=41f644d5-9ca6-41a3-8347-e35f69b8493f","ios":"levelo://app?vid=41f644d5-9ca6-41a3-8347-e35f69b8493f"},"vehicle_type_id":"4","last_reported":1746461608,"current_range_meters":22800,"station_id":"","pricing_plan_id":"cebpf4jnsgd1na2vs0mg"},{"bike_id":"ad627575-9a20-4a0f-91d3-81e2e4699536","system_id":"levelo_inurba_marseille","lat":43.27982,"lon":5.41677,"is_reserved":false,"is_disabled":false,"rental_uris":{"android":"levelo://app?vid=ad627575-9a20-4a0f-91d3-81e2e4699536","ios":"levelo://app?vid=ad627575-9a20-4a0f-91d3-81e2e4699536"},"vehicle_type_id":"4","last_reported":1746461608,"current_range_meters":23200,"station_id":"ce4bho12rcd13ifvqh1g","pricing_plan_id":"cebpf4jnsgd1na2vs0mg"},{"bike_id":"8bc1e77c-fffe-403a-8404-d95d2ae49bd9","system_id":"levelo_inurba_marseille","lat":43.27992,"lon":5.41659,"is_reserved":false,"is_disabled":false,"rental_uris":{"android":"levelo://app?vid=8bc1e77c-fffe-403a-8404-d95d2ae49bd9","ios":"levelo://app?vid=8bc1e77c-fffe-403a-8404-d95d2ae49bd9"},"vehicle_type_id":"4","last_reported":1746461608,"current_range_meters":23200,"station_id":"ce4bho12rcd13ifvqh1g","pricing_plan_id":"cebpf4jnsgd1na2vs0mg"},{"bike_id":"8fa70930-3d89-410a-8a0d-ae58e85113d9","system_id":"levelo_inurba_marseille","lat":43.33757,"lon":5.37509,"is_reserved":false,"is_disabled":false,"rental_uris":{"android":"levelo://app?vid=8fa70930-3d89-410a-8a0d-ae58e85113d9","ios":"levelo://app?vid=8fa70930-3d89-410a-8a0d-ae58e85113d9"},"vehicle_type_id":"4","last_reported":1746461608,"current_range_meters":23200,"station_id":"","pricing_plan_id":"cebpf4jnsgd1na2vs0mg"},{"bike_id":"b4bac287-3615-423a-bca2-a11fb80cb066","system_id":"levelo_inurba_marseille","lat":43.23068,"lon":5.35492,"is_reserved":false,"is_disabled":false,"rental_uris":{"android":"levelo://app?vid=b4bac287-3615-423a-bca2-a11fb80cb066","ios":"levelo://app?vid=b4bac287-3615-423a-bca2-a11fb80cb066"},"vehicle_type_id":"4","last_reported":1746461608,"current_range_meters":23200,"station_id":"cpo3342slgdg3j2ifvpg","pricing_plan_id":"cebpf4jnsgd1na2vs0mg"},{"bike_id":"3564a709-eb27-4dd0-95a6-4b786fcf2c5c","system_id":"levelo_inurba_marseille","lat":43.27953,"lon":5.41059,"is_reserved":false,"is_disabled":false,"rental_uris":{"android":"levelo://app?vid=3564a709-eb27-4dd0-95a6-4b786fcf2c5c","ios":"levelo://app?vid=3564a709-eb27-4dd0-95a6-4b786fcf2c5c"},"vehicle_type_id":"4","last_reported":1746461608,"current_range_meters":23200,"station_id":"ce4bhnp2rcd13ifvqh0g","pricing_plan_id":"cebpf4jnsgd1na2vs0mg"},{"bike_id":"76b2e26a-d1ed-47f3-a49b-06681f98f27f","system_id":"levelo_inurba_marseille","lat":43.231979,"lon":5.355478,"is_reserved":false,"is_disabled":false,"rental_uris":{"android":"levelo://app?vid=76b2e26a-d1ed-47f3-a49b-06681f98f27f","ios":"levelo://app?vid=76b2e26a-d1ed-47f3-a49b-06681f98f27f"},"vehicle_type_id":"4","last_reported":1746461608,"current_range_meters":23200,"station_id":"ce4bhu92rcd13ifvqi70","pricing_plan_id":"cebpf4jnsgd1na2vs0mg"},{"bike_id":"2af030d3-456e-428c-b868-62e40e83db57","system_id":"levelo_inurba_marseille","lat":43.29525,"lon":5.39431,"is_reserved":false,"is_disabled":false,"rental_uris":{"android":"levelo://app?vid=2af030d3-456e-428c-b868-62e40e83db57","ios":"levelo://app?vid=2af030d3-456e-428c-b868-62e40e83db57"},"vehicle_type_id":"4","last_reported":1746461608,"current_range_meters":23200,"station_id":"ce4bh292rcd13ifvqdf0","pricing_plan_id":"cebpf4jnsgd1na2vs0mg"},{"bike_id":"2fa0b816-7ec6-4882-9376-089f3a9e406c","system_id":"levelo_inurba_marseille","lat":43.337552,"lon":5.374819,"is_reserved":false,"is_disabled":false,"rental_uris":{"android":"levelo://app?vid=2fa0b816-7ec6-4882-9376-089f3a9e406c","ios":"levelo://app?vid=2fa0b816-7ec6-4882-9376-089f3a9e406c"},"vehicle_type_id":"4","last_reported":1746461608,"current_range_meters":23200,"station_id":"","pricing_plan_id":"cebpf4jnsgd1na2vs0mg"},{"bike_id":"87be4afc-30e2-472a-b966-5bde1e1ef228","system_id":"levelo_inurba_marseille","lat":43.31758,"lon":5.39019,"is_reserved":false,"is_disabled":false,"rental_uris":{"android":"levelo://app?vid=87be4afc-30e2-472a-b966-5bde1e1ef228","ios":"levelo://app?vid=87be4afc-30e2-472a-b966-5bde1e1ef228"},"vehicle_type_id":"4","last_reported":1746461608,"current_range_meters":23200,"station_id":"ce4bhqp2rcd13ifvqhng","pricing_plan_id":"cebpf4jnsgd1na2vs0mg"},{"bike_id":"0efe27af-d3de-4396-9d19-45f0fd89c9a6","system_id":"levelo_inurba_marseille","lat":43.28467,"lon":5.35903,"is_reserved":false,"is_disabled":false,"rental_uris":{"android":"levelo://app?vid=0efe27af-d3de-4396-9d19-45f0fd89c9a6","ios":"levelo://app?vid=0efe27af-d3de-4396-9d19-45f0fd89c9a6"},"vehicle_type_id":"4","last_reported":1746461608,"current_range_meters":24000,"station_id":"ce4bhah2rcd13ifvqei0","pricing_plan_id":"cebpf4jnsgd1na2vs0mg"},{"bike_id":"858cec4a-b912-4186-84d3-05b302decbaa","system_id":"levelo_inurba_marseille","lat":43.26982,"lon":5.40292,"is_reserved":false,"is_disabled":false,"rental_uris":{"android":"levelo://app?vid=858cec4a-b912-4186-84d3-05b302decbaa","ios":"levelo://app?vid=858cec4a-b912-4186-84d3-05b302decbaa"},"vehicle_type_id":"4","last_reported":1746461608,"current_range_meters":24000,"station_id":"cjm6bp8fraef2m0cb0m0","pricing_plan_id":"cebpf4jnsgd1na2vs0mg"},{"bike_id":"1cf50891-d740-4d00-bf92-574ba35fa15e","system_id":"levelo_inurba_marseille","lat":43.308035,"lon":5.435355,"is_reserved":false,"is_disabled":false,"rental_uris":{"android":"levelo://app?vid=1cf50891-d740-4d00-bf92-574ba35fa15e","ios":"levelo://app?vid=1cf50891-d740-4d00-bf92-574ba35fa15e"},"vehicle_type_id":"4","last_reported":1746461608,"current_range_meters":23200,"station_id":"ce4bhph2rcd13ifvqheg","pricing_plan_id":"cebpf4jnsgd1na2vs0mg"},{"bike_id":"6ef3c624-14b8-4775-999d-277f5c806326","system_id":"levelo_inurba_marseille","lat":43.31227,"lon":5.3686,"is_reserved":false,"is_disabled":false,"rental_uris":{"android":"levelo://app?vid=6ef3c624-14b8-4775-999d-277f5c806326","ios":"levelo://app?vid=6ef3c624-14b8-4775-999d-277f5c806326"},"vehicle_type_id":"4","last_reported":1746461608,"current_range_meters":24000,"station_id":"ce4bgl92rcd13ifvqbq0","pricing_plan_id":"cebpf4jnsgd1na2vs0mg"},{"bike_id":"9fdac245-c1d7-4841-83b2-373db4dff634","system_id":"levelo_inurba_marseille","lat":43.26575,"lon":5.39008,"is_reserved":false,"is_disabled":false,"rental_uris":{"android":"levelo://app?vid=9fdac245-c1d7-4841-83b2-373db4dff634","ios":"levelo://app?vid=9fdac245-c1d7-4841-83b2-373db4dff634"},"vehicle_type_id":"4","last_reported":1746461608,"current_range_meters":24000,"station_id":"ce4bhe12rcd13ifvqf30","pricing_plan_id":"cebpf4jnsgd1na2vs0mg"},{"bike_id":"7e5d205e-796e-4f8e-9f81-6545682f234e","system_id":"levelo_inurba_marseille","lat":43.2872,"lon":5.36098,"is_reserved":false,"is_disabled":false,"rental_uris":{"android":"levelo://app?vid=7e5d205e-796e-4f8e-9f81-6545682f234e","ios":"levelo://app?vid=7e5d205e-796e-4f8e-9f81-6545682f234e"},"vehicle_type_id":"4","last_reported":1746461608,"current_range_meters":24000,"station_id":"cki0cbj6b192h4jlfktg","pricing_plan_id":"cebpf4jnsgd1na2vs0mg"},{"bike_id":"23b77e56-02cd-4338-917c-a93e4464a727","system_id":"levelo_inurba_marseille","lat":43.28687,"lon":5.38707,"is_reserved":false,"is_disabled":true,"rental_uris":{"android":"levelo://app?vid=23b77e56-02cd-4338-917c-a93e4464a727","ios":"levelo://app?vid=23b77e56-02cd-4338-917c-a93e4464a727"},"vehicle_type_id":"4","last_reported":1746461608,"current_range_meters":24400,"station_id":"ce4bh2p2rcd13ifvqdi0","pricing_plan_id":"cebpf4jnsgd1na2vs0mg"},{"bike_id":"fb1c0e5c-3aff-4a48-bb4e-0e94904bafc4","system_id":"levelo_inurba_marseille","lat":43.29851,"lon":5.36286,"is_reserved":false,"is_disabled":true,"rental_uris":{"android":"levelo://app?vid=fb1c0e5c-3aff-4a48-bb4e-0e94904bafc4","ios":"levelo://app?vid=fb1c0e5c-3aff-4a48-bb4e-0e94904bafc4"},"vehicle_type_id":"4","last_reported":1746461608,"current_range_meters":24400,"station_id":"ce4bgpp2rcd13ifvqc3g","pricing_plan_id":"cebpf4jnsgd1na2vs0mg"},{"bike_id":"32ba2387-e187-444a-bae1-05ca715ae69a","system_id":"levelo_inurba_marseille","lat":43.31758,"lon":5.39019,"is_reserved":false,"is_disabled":false,"rental_uris":{"android":"levelo://app?vid=32ba2387-e187-444a-bae1-05ca715ae69a","ios":"levelo://app?vid=32ba2387-e187-444a-bae1-05ca715ae69a"},"vehicle_type_id":"4","last_reported":1746461608,"current_range_meters":24400,"station_id":"ce4bhqp2rcd13ifvqhng","pricing_plan_id":"cebpf4jnsgd1na2vs0mg"},{"bike_id":"64b3fe27-1377-4de2-a7cd-4ad41a209acf","system_id":"levelo_inurba_marseille","lat":43.31721,"lon":5.43718,"is_reserved":false,"is_disabled":false,"rental_uris":{"android":"levelo://app?vid=64b3fe27-1377-4de2-a7cd-4ad41a209acf","ios":"levelo://app?vid=64b3fe27-1377-4de2-a7cd-4ad41a209acf"},"vehicle_type_id":"4","last_reported":1746461608,"current_range_meters":24800,"station_id":"ce4bhp92rcd13ifvqhcg","pricing_plan_id":"cebpf4jnsgd1na2vs0mg"},