{"last_updated":1740075152,"ttl":60,"version":"2.2","data":{"bikes":[{"bike_id":"d7952684-bdb1-4bee-a9c3-831a6aa260cb","system_id":"levelo_inurba_marseille","lat":43.26212,"lon":5.37444,"is_reserved":false,"is_disabled":false,"rental_uris":{"android":"levelo://app?vid=d7952684-bdb1-4bee-a9c3-831a6aa260cb","ios":"levelo://app?vid=d7952684-bdb1-4bee-a9c3-831a6aa260cb"},"vehicle_type_id":"4","last_reported":1740075152,"current_range_meters":2800,"station_id":"","pricing_plan_id":"cebpf4jnsgd1na2vs0mg"},{"bike_id":"5766e806-3814-49c4-8b85-db48eef13e0f","system_id":"levelo_inurba_marseille","lat":43.30289,"lon":5.39199,"is_reserved":false,"is_disabled":false,"rental_uris":{"android":"levelo://app?vid=5766e806-3814-49c4-8b85-db48eef13e0f","ios":"levelo://app?vid=5766e806-3814-49c4-8b85-db48eef13e0f"},"vehicle_type_id":"4","last_reported":1740075152,"current_range_meters":3200,"station_id":"ce4bgkh2rcd13ifvqbk0","pricing_plan_id":"cebpf4jnsgd1na2vs0mg"},{"bike_id":"41dc7842-91a2-413e-8efd-e459731cff81","system_id":"levelo_inurba_marseille","lat":43.28706,"lon":5.40006,"is_reserved":false,"is_disabled":false,"rental_uris":{"android":"levelo://app?vid=41dc7842-91a2-413e-8efd-e459731cff81","ios":"levelo://app?vid=41dc7842-91a2-413e-8efd-e459731cff81"},"vehicle_type_id":"4","last_reported":1740075152,"current_range_meters":3200,"station_id":"ce4bho92rcd13ifvqh3g","pricing_plan_id":"cebpf4jnsgd1na2vs0mg"},{"bike_id":"feef1d2a-d90b-4101-b7e2-fa0b5bcaa8d6","system_id":"levelo_inurba_marseille","lat":43.29793,"lon":5.38105,"is_reserved":false,"is_disabled":false,"rental_uris":{"android":"levelo://app?vid=feef1d2a-d90b-4101-b7e2-fa0b5bcaa8d6","ios":"levelo://app?vid=feef1d2a-d90b-4101-b7e2-fa0b5bcaa8d6"},"vehicle_type_id":"4","last_reported":1740075152,"current_range_meters":3200,"station_id":"ce4bgip2rcd13ifvqbb0","pricing_plan_id":"cebpf4jnsgd1na2vs0mg"},{"bike_id":"32558e69-4ea5-4cf4-853c-2cf409170132","system_id":"levelo_inurba_marseille","lat":43.28939,"lon":5.36398,"is_reserved":false,"is_disabled":false,"rental_uris":{"android":"levelo://app?vid=32558e69-4ea5-4cf4-853c-2cf409170132","ios":"levelo://app?vid=32558e69-4ea5-4cf4-853c-2cf409170132"},"vehicle_type_id":"4","last_reported":1740075152,"current_range_meters":3200,"station_id":"ce4bhc92rcd13ifvqetg","pricing_plan_id":"cebpf4jnsgd1na2vs0mg"},{"bike_id":"adb3d6df-7149-4295-84c9-8f4cb47f9c0e","system_id":"levelo_inurba_marseille","lat":43.2728,"lon":5.40662,"is_reserved":false,"is_disabled":true,"rental_uris":{"android":"levelo://app?vid=adb3d6df-7149-4295-84c9-8f4cb47f9c0e","ios":"levelo://app?vid=adb3d6df-7149-4295-84c9-8f4cb47f9c0e"},"vehicle_type_id":"4","last_reported":1740075152,"current_range_meters":3200,"station_id":"","pricing_plan_id":"cebpf4jnsgd1na2vs0mg"},{"bike_id":"5083d9c5-1ba7-478f-b0dd-ab359f16e35f","system_id":"levelo_inurba_marseille","lat":43.32364,"lon":5.36751,"is_reserved":false,"is_disabled":false,"rental_uris":{"android":"levelo://app?vid=5083d9c5-1ba7-478f-b0dd-ab359f16e35f","ios":"levelo://app?vid=5083d9c5-1ba7-478f-b0dd-ab359f16e35f"},"vehicle_type_id":"4","last_reported":1740075152,"current_range_meters":3600,"station_id":"ce4bhsh2rcd13ifvqi2g","pricing_plan_id":"cebpf4jnsgd1na2vs0mg"},{"bike_id":"26402195-cc5c-44fb-9785-5f3ebabfb569","system_id":"levelo_inurba_marseille","lat":43.26493,"lon":5.3954,"is_reserved":false,"is_disabled":false,"rental_uris":{"android":"levelo://app?vid=26402195-cc5c-44fb-9785-5f3ebabfb569","ios":"levelo://app?vid=26402195-cc5c-44fb-9785-5f3ebabfb569"},"vehicle_type_id":"4","last_reported":1740075152,"current_range_meters":3600,"station_id":"ce4bhi12rcd13ifvqfq0","pricing_plan_id":"cebpf4jnsgd1na2vs0mg"},{"bike_id":"c048177d-f9ab-4c30-b1ca-130af5282eb9","system_id":"levelo_inurba_marseille","lat":43.29271,"lon":5.38436,"is_reserved":false,"is_disabled":false,"rental_uris":{"android":"levelo://app?vid=c048177d-f9ab-4c30-b1ca-130af5282eb9","ios":"levelo://app?vid=c048177d-f9ab-4c30-b1ca-130af5282eb9"},"vehicle_type_id":"4","last_reported":1740075152,"current_range_meters":3600,"station_id":"","pricing_plan_id":"cebpf4jnsgd1na2vs0mg"},{"bike_id":"c61db5e1-f448-4dee-94f4-7f178d143462","system_id":"levelo_inurba_marseille","lat":43.26681,"lon":5.38267,"is_reserved":false,"is_disabled":false,"rental_uris":{"android":"levelo://app?vid=c61db5e1-f448-4dee-94f4-7f178d143462","ios":"levelo://app?vid=c61db5e1-f448-4dee-94f4-7f178d143462"},"vehicle_type_id":"4","last_reported":1740075152,"current_range_meters":3200,"station_id":"ce4bhg92rcd13ifvqf90","pricing_plan_id":"cebpf4jnsgd1na2vs0mg"},{"bike_id":"436cd58e-ab76-45d0-a2b4-c3c247a240b7","system_id":"levelo_inurba_marseille","lat":43.2621,"lon":5.37439,"is_reserved":false,"is_disabled":false,"rental_uris":{"android":"levelo://app?vid=436cd58e-ab76-45d0-a2b4-c3c247a240b7","ios":"levelo://app?vid=436cd58e-ab76-45d0-a2b4-c3c247a240b7"},"vehicle_type_id":"4","last_reported":1740075152,"current_range_meters":4400,"station_id":"ce4bhgp2rcd13ifvqfc0","pricing_plan_id":"cebpf4jnsgd1na2vs0mg"},{"bike_id":"ce54f8c0-6a8b-41cf-a4dd-c5c5753cfc6f","system_id":"levelo_inurba_marseille","lat":43.29422,"lon":5.38618,"is_reserved":false,"is_disabled":false,"rental_uris":{"android":"levelo://app?vid=ce54f8c0-6a8b-41cf-a4dd-c5c5753cfc6f","ios":"levelo://app?vid=ce54f8c0-6a8b-41cf-a4dd-c5c5753cfc6f"},"vehicle_type_id":"4","last_reported":1740075152,"current_range_meters":4400,"station_id":"ce4bh2h2rcd13ifvqdh0","pricing_plan_id":"cebpf4jnsgd1na2vs0mg"},{"bike_id":"25916844-272f-4393-8de0-04c3bdd1315a","system_id":"levelo_inurba_marseille","lat":43.31712,"lon":5.43704,"is_reserved":false,"is_disabled":false,"rental_uris":{"android":"levelo://app?vid=25916844-272f-4393-8de0-04c3bdd1315a","ios":"levelo://app?vid=25916844-272f-4393-8de0-04c3bdd1315a"},"vehicle_type_id":"4","last_reported":1740075152,"current_range_meters":4400,"station_id":"ce4bhp92rcd13ifvqhcg","pricing_plan_id":"cebpf4jnsgd1na2vs0mg"},{"bike_id":"20d6c641-f54f-49fc-a95a-ab1ca1f218b7","system_id":"levelo_inurba_marseille","lat":43.2649,"lon":5.39538,"is_reserved":false,"is_disabled":false,"rental_uris":{"android":"levelo://app?vid=20d6c641-f54f-49fc-a95a-ab1ca1f218b7","ios":"levelo://app?vid=20d6c641-f54f-49fc-a95a-ab1ca1f218b7"},"vehicle_type_id":"4","last_reported":1740075152,"current_range_meters":4800,"station_id":"ce4bhi12rcd13ifvqfq0","pricing_plan_id":"cebpf4jnsgd1na2vs0mg"},{"bike_id":"9198c6ef-bd5b-45d9-bd7b-e058d791d44b","system_id":"levelo_inurba_marseille","lat":43.24817,"lon":5.37461,"is_reserved":false,"is_disabled":true,"rental_uris":{"android":"levelo://app?vid=9198c6ef-bd5b-45d9-bd7b-e058d791d44b","ios":"levelo://app?vid=9198c6ef-bd5b-45d9-bd7b-e058d791d44b"},"vehicle_type_id":"4","last_reported":1740075152,"current_range_meters":4800,"station_id":"","pricing_plan_id":"cebpf4jnsgd1na2vs0mg"},{"bike_id":"a8dd4074-563b-47d4-a1c9-e56ba41bd3d0","system_id":"levelo_inurba_marseille","lat":43.3013,"lon":5.3985,"is_reserved":false,"is_disabled":false,"rental_uris":{"android":"levelo://app?vid=a8dd4074-563b-47d4-a1c9-e56ba41bd3d0","ios":"levelo://app?vid=a8dd4074-563b-47d4-a1c9-e56ba41bd3d0"},"vehicle_type_id":"4","last_reported":1740075152,"current_range_meters":4800,"station_id":"ce4bh0h2rcd13ifvqd40","pricing_plan_id":"cebpf4jnsgd1na2vs0mg"},{"bike_id":"4b1a49f7-7ba2-4eb8-bb75-fbebfda4e09f","system_id":"levelo_inurba_marseille","lat":43.27312,"lon":5.39112,"is_reserved":false,"is_disabled":false,"rental_uris":{"android":"levelo://app?vid=4b1a49f7-7ba2-4eb8-bb75-fbebfda4e09f","ios":"levelo://app?vid=4b1a49f7-7ba2-4eb8-bb75-fbebfda4e09f"},"vehicle_type_id":"4","last_reported":1740075152,"current_range_meters":5600,"station_id":"","pricing_plan_id":"cebpf4jnsgd1na2vs0mg"},{"bike_id":"03ec2e9f-fe3b-44e4-9988-3c39b2ef386f","system_id":"levelo_inurba_marseille","lat":43.293187,"lon":5.371467,"is_reserved":false,"is_disabled":false,"rental_uris":{"android":"levelo://app?vid=03ec2e9f-fe3b-44e4-9988-3c39b2ef386f","ios":"levelo://app?vid=03ec2e9f-fe3b-44e4-9988-3c39b2ef386f"},"vehicle_type_id":"4","last_reported":1740075152,"current_range_meters":6000,"station_id":"ce4bh192rcd13ifvqdd0","pricing_plan_id":"cebpf4jnsgd1na2vs0mg"},{"bike_id":"4a6016bf-5e1f-4b91-9024-4017e880e0f4","system_id":"levelo_inurba_marseille","lat":43.28078,"lon":5.39655,"is_reserved":false,"is_disabled":false,"rental_uris":{"android":"levelo://app?vid=4a6016bf-5e1f-4b91-9024-4017e880e0f4","ios":"levelo://app?vid=4a6016bf-5e1f-4b91-9024-4017e880e0f4"},"vehicle_type_id":"4","last_reported":1740075152,"current_range_meters":6000,"station_id":"ce4bho12rcd13ifvqh2g","pricing_plan_id":"cebpf4jnsgd1na2vs0mg"},{"bike_id":"ddd5eeb0-aa50-4c64-b5dd-3957384a8f58","system_id":"levelo_inurba_marseille","lat":43.29638,"lon":5.37143,"is_reserved":false,"is_disabled":false,"rental_uris":{"android":"levelo://app?vid=ddd5eeb0-aa50-4c64-b5dd-3957384a8f58","ios":"levelo://app?vid=ddd5eeb0-aa50-4c64-b5dd-3957384a8f58"},"vehicle_type_id":"4","last_reported":1740075152,"current_range_meters":6000,"station_id":"ce4bgnh2rcd13ifvqc0g","pricing_plan_id":"cebpf4jnsgd1na2vs0mg"},{"bike_id":"0ee14a49-7e53-444d-9126-4bff4d74d01d","system_id":"levelo_inurba_marseille","lat":43.29523,"lon":5.39029,"is_reserved":false,"is_disabled":false,"rental_uris":{"android":"levelo://app?vid=0ee14a49-7e53-444d-9126-4bff4d74d01d","ios":"levelo://app?vid=0ee14a49-7e53-444d-9126-4bff4d74d01d"},"vehicle_type_id":"4","last_reported":1740075152,"current_range_meters":6000,"station_id":"","pricing_plan_id":"cebpf4jnsgd1na2vs0mg"},{"bike_id":"39644f4c-7452-4653-8df7-9c7cef84e13d","system_id":"levelo_inurba_marseille","lat":43.25643,"lon":5.39399,"is_reserved":false,"is_disabled":true,"rental_uris":{"android":"levelo://app?vid=39644f4c-7452-4653-8df7-9c7cef84e13d","ios":"levelo://app?vid=39644f4c-7452-4653-8df7-9c7cef84e13d"},"vehicle_type_id":"4","last_reported":1740075152,"current_range_meters":6000,"station_id":"ce4bhh92rcd13ifvqfj0","pricing_plan_id":"cebpf4jnsgd1na2vs0mg"},{"bike_id":"ea2bb964-d053-4593-8f58-b0e4bb6ebe1f","system_id":"levelo_inurba_marseille","lat":43.2481,"lon":5.37461,"is_reserved":false,"is_disabled":false,"rental_uris":{"android":"levelo://app?vid=ea2bb964-d053-4593-8f58-b0e4bb6ebe1f","ios":"levelo://app?vid=ea2bb964-d053-4593-8f58-b0e4bb6ebe1f"},"vehicle_type_id":"4","last_reported":1740075152,"current_range_meters":6400,"station_id":"","pricing_plan_id":"cebpf4jnsgd1na2vs0mg"},{"bike_id":"52f424fd-9081-4951-9324-694ed161d0a1","system_id":"levelo_inurba_marseille","lat":43.2587,"lon":5.39895,"is_reserved":false,"is_disabled":false,"rental_uris":{"android":"levelo://app?vid=52f424fd-9081-4951-9324-694ed161d0a1","ios":"levelo://app?vid=52f424fd-9081-4951-9324-694ed161d0a1"},"vehicle_type_id":"4","last_reported":1740075152,"current_range_meters":6400,"station_id":"ce4bhl92rcd13ifvqghg","pricing_plan_id":"cebpf4jnsgd1na2vs0mg"},{"bike_id":"8e299bac-a8e0-4222-adbd-3a765daef603","system_id":"levelo_inurba_marseille","lat":43.24663,"lon":5.3816,"is_reserved":false,"is_disabled":false,"rental_uris":{"android":"levelo://app?vid=8e299bac-a8e0-4222-adbd-3a765daef603","ios":"levelo://app?vid=8e299bac-a8e0-4222-adbd-3a765daef603"},"vehicle_type_id":"4","last_reported":1740075152,"current_range_meters":6400,"station_id":"ce4bhih2rcd13ifvqfr0","pricing_plan_id":"cebpf4jnsgd1na2vs0mg"},{"bike_id":"09e9ec95-25e2-4b3f-b591-f9f0dfc4069e","system_id":"levelo_inurba_marseille","lat":43.31203,"lon":5.38732,"is_reserved":false,"is_disabled":false,"rental_uris":{"android":"levelo://app?vid=09e9ec95-25e2-4b3f-b591-f9f0dfc4069e","ios":"levelo://app?vid=09e9ec95-25e2-4b3f-b591-f9f0dfc4069e"},"vehicle_type_id":"4","last_reported":1740075152,"current_range_meters":6800,"station_id":"","pricing_plan_id":"cebpf4jnsgd1na2vs0mg"},{"bike_id":"6f1abdf2-15fb-4f52-a362-9fc40fcc818d","system_id":"levelo_inurba_marseille","lat":43.3022,"lon":5.39477,"is_reserved":false,"is_disabled":false,"rental_uris":{"android":"levelo://app?vid=6f1abdf2-15fb-4f52-a362-9fc40fcc818d","ios":"levelo://app?vid=6f1abdf2-15fb-4f52-a362-9fc40fcc818d"},"vehicle_type_id":"4","last_reported":1740075152,"current_range_meters":6800,"station_id":"ce4bh0p2rcd13ifvqd70","pricing_plan_id":"cebpf4jnsgd1na2vs0mg"},{"bike_id":"ab84dbbf-6c53-481f-8523-7f2e10cec44b","system_id":"levelo_inurba_marseille","lat":43.2952,"lon":5.39041,"is_reserved":false,"is_disabled":false,"rental_uris":{"android":"levelo://app?vid=ab84dbbf-6c53-481f-8523-7f2e10cec44b","ios":"levelo://app?vid=ab84dbbf-6c53-481f-8523-7f2e10cec44b"},"vehicle_type_id":"4","last_reported":1740075152,"current_range_meters":6800,"station_id":"ce4bh3p2rcd13ifvqdp0","pricing_plan_id":"cebpf4jnsgd1na2vs0mg"},{"bike_id":"816e3e7b-b107-4001-b79f-e380ada67102","system_id":"levelo_inurba_marseille","lat":43.24163,"lon":5.36398,"is_reserved":false,"is_disabled":false,"rental_uris":{"android":"levelo://app?vid=816e3e7b-b107-4001-b79f-e380ada67102","ios":"levelo://app?vid=816e3e7b-b107-4001-b79f-e380ada67102"},"vehicle_type_id":"4","last_reported":1740075152,"current_range_meters":6800,"station_id":"cpo36qri1sfpv3e86is0","pricing_plan_id":"cebpf4jnsgd1na2vs0mg"},{"bike_id":"9d589cff-b961-49f8-8f75-a4a1c3c2e10f","system_id":"levelo_inurba_marseille","lat":43.29421,"lon":5.38619,"is_reserved":false,"is_disabled":false,"rental_uris":{"android":"levelo://app?vid=9d589cff-b961-49f8-8f75-a4a1c3c2e10f","ios":"levelo://app?vid=9d589cff-b961-49f8-8f75-a4a1c3c2e10f"},"vehicle_type_id":"4","last_reported":1740075152,"current_range_meters":6800,"station_id":"ce4bghh2rcd13ifvqb60","pricing_plan_id":"cebpf4jnsgd1na2vs0mg"},{"bike_id":"f8a1eefe-5190-4327-95c3-8138f343fe57","system_id":"levelo_inurba_marseille","lat":43.31177,"lon":5.39346,"is_reserved":false,"is_disabled":false,"rental_uris":{"android":"levelo://app?vid=f8a1eefe-5190-4327-95c3-8138f343fe57","ios":"levelo://app?vid=f8a1eefe-5190-4327-95c3-8138f343fe57"},"vehicle_type_id":"4","last_reported":1740075152,"current_range_meters":6800,"station_id":"ce4bgqh2rcd13ifvqc4g","pricing_plan_id":"cebpf4jnsgd1na2vs0mg"},{"bike_id":"c184f5e7-b3f4-4413-8404-002a8a4f6bf5","system_id":"levelo_inurba_marseille","lat":43.30952,"lon":5.3903,"is_reserved":false,"is_disabled":false,"rental_uris":{"android":"levelo://app?vid=c184f5e7-b3f4-4413-8404-002a8a4f6bf5","ios":"levelo://app?vid=c184f5e7-b3f4-4413-8404-002a8a4f6bf5"},"vehicle_type_id":"4","last_reported":1740075152,"current_range_meters":6800,"station_id":"ce4bgup2rcd13ifvqco0","pricing_plan_id":"cebpf4jnsgd1na2vs0mg"},{"bike_id":"4a808a73-93a5-430e-af77-2d4dd396417c","system_id":"levelo_inurba_marseille","lat":43.29616,"lon":5.3809,"is_reserved":false,"is_disabled":false,"rental_uris":{"android":"levelo://app?vid=4a808a73-93a5-430e-af77-2d4dd396417c","ios":"levelo://app?vid=4a808a73-93a5-430e-af77-2d4dd396417c"},"vehicle_type_id":"4","last_reported":1740075152,"current_range_meters":7200,"station_id":"ce4bgl12rcd13ifvqbo0","pricing_plan_id":"cebpf4jnsgd1na2vs0mg"},{"bike_id":"093d36c4-f304-46a9-8792-5d9e19e468fc","system_id":"levelo_inurba_marseille","lat":43.29893,"lon":5.436491,"is_reserved":false,"is_disabled":false,"rental_uris":{"android":"levelo://app?vid=093d36c4-f304-46a9-8792-5d9e19e468fc","ios":"levelo://app?vid=093d36c4-f304-46a9-8792-5d9e19e468fc"},"vehicle_type_id":"4","last_reported":1740075152,"current_range_meters":7200,"station_id":"ce4bhpp2rcd13ifvqhfg","pricing_plan_id":"cebpf4jnsgd1na2vs0mg"},{"bike_id":"3fa131c8-d3bf-4fb9-b400-1daf371dcaa7","system_id":"levelo_inurba_marseille","lat":43.27215,"lon":5.40969,"is_reserved":false,"is_disabled":false,"rental_uris":{"android":"levelo://app?vid=3fa131c8-d3bf-4fb9-b400-1daf371dcaa7","ios":"levelo://app?vid=3fa131c8-d3bf-4fb9-b400-1daf371dcaa7"},"vehicle_type_id":"4","last_reported":1740075152,"current_range_meters":7200,"station_id":"ce4bhl12rcd13ifvqgf0","pricing_plan_id":"cebpf4jnsgd1na2vs0mg"},{"bike_id":"ff902a7c-aed4-4f41-9f3e-4f77b693c898","system_id":"levelo_inurba_marseille","lat":43.29241,"lon":5.38437,"is_reserved":false,"is_disabled":false,"rental_uris":{"android":"levelo://app?vid=ff902a7c-aed4-4f41-9f3e-4f77b693c898","ios":"levelo://app?vid=ff902a7c-aed4-4f41-9f3e-4f77b693c898"},"vehicle_type_id":"4","last_reported":1740075152,"current_range_meters":7200,"station_id":"ce4bh692rcd13ifvqea0","pricing_plan_id":"cebpf4jnsgd1na2vs0mg"},{"bike_id":"f027fe38-3f5d-42fa-b16a-68ca60104c09","system_id":"levelo_inurba_marseille","lat":43.24164,"lon":5.36409,"is_reserved":false,"is_disabled":false,"rental_uris":{"android":"levelo://app?vid=f027fe38-3f5d-42fa-b16a-68ca60104c09","ios":"levelo://app?vid=f027fe38-3f5d-42fa-b16a-68ca60104c09"},"vehicle_type_id":"4","last_reported":1740075152,"current_range_meters":7200,"station_id":"","pricing_plan_id":"cebpf4jnsgd1na2vs0mg"},{"bike_id":"3633587c-dafb-4b6e-b4ae-308eb791df81","system_id":"levelo_inurba_marseille","lat":43.270516,"lon":5.402615,"is_reserved":false,"is_disabled":false,"rental_uris":{"android":"levelo://app?vid=3633587c-dafb-4b6e-b4ae-308eb791df81","ios":"levelo://app?vid=3633587c-dafb-4b6e-b4ae-308eb791df81"},"vehicle_type_id":"4","last_reported":1740075152,"current_range_meters":7200,"station_id":"","pricing_plan_id":"cebpf4jnsgd1na2vs0mg"},{"bike_id":"4768c0a7-f84b-48a0-9b7d-4b82d915559f","system_id":"levelo_inurba_marseille","lat":43.24672,"lon":5.38159,"is_reserved":false,"is_disabled":false,"rental_uris":{"android":"levelo://app?vid=4768c0a7-f84b-48a0-9b7d-4b82d915559f","ios":"levelo://app?vid=4768c0a7-f84b-48a0-9b7d-4b82d915559f"},"vehicle_type_id":"4","last_reported":1740075152,"current_range_meters":7200,"station_id":"","pricing_plan_id":"cebpf4jnsgd1na2vs0mg"},{"bike_id":"cec9431c-060a-43e3-a6ae-f2d51ee12324","system_id":"levelo_inurba_marseille","lat":43.298487,"lon":5.362755,"is_reserved":false,"is_disabled":false,"rental_uris":{"android":"levelo://app?vid=cec9431c-060a-43e3-a6ae-f2d51ee12324","ios":"levelo://app?vid=cec9431c-060a-43e3-a6ae-f2d51ee12324"},"vehicle_type_id":"4","last_reported":1740075152,"current_range_meters":8000,"station_id":"ce4bgpp2rcd13ifvqc3g","pricing_plan_id":"cebpf4jnsgd1na2vs0mg"},{"bike_id":"1370f9a8-5461-4ad5-a7d4-95896db15fa7","system_id":"levelo_inurba_marseille","lat":43.31689,"lon":5.40469,"is_reserved":false,"is_disabled":false,"rental_uris":{"android":"levelo://app?vid=1370f9a8-5461-4ad5-a7d4-95896db15fa7","ios":"levelo://app?vid=1370f9a8-5461-4ad5-a7d4-95896db15fa7"},"vehicle_type_id":"4","last_reported":1740075152,"current_range_meters":8000,"station_id":"ce4bh012rcd13ifvqd00","pricing_plan_id":"cebpf4jnsgd1na2vs0mg"},{"bike_id":"72108fed-3215-41fb-b9c1-3e03b1835c07","system_id":"levelo_inurba_marseille","lat":43.29898,"lon":5.43666,"is_reserved":false,"is_disabled":false,"rental_uris":{"android":"levelo://app?vid=72108fed-3215-41fb-b9c1-3e03b1835c07","ios":"levelo://app?vid=72108fed-3215-41fb-b9c1-3e03b1835c07"},"vehicle_type_id":"4","last_reported":1740075152,"current_range_meters":8000,"station_id":"ce4bhpp2rcd13ifvqhfg","pricing_plan_id":"cebpf4jnsgd1na2vs0mg"},{"bike_id":"d5173bbe-86f4-4afc-a8e0-76d62e3a8b83","system_id":"levelo_inurba_marseille","lat":43.23966,"lon":5.36627,"is_reserved":false,"is_disabled":false,"rental_uris":{"android":"levelo://app?vid=d5173bbe-86f4-4afc-a8e0-76d62e3a8b83","ios":"levelo://app?vid=d5173bbe-86f4-4afc-a8e0-76d62e3a8b83"},"vehicle_type_id":"4","last_reported":1740075152,"current_range_meters":8000,"station_id":"ce4bhi12rcd13ifvqfp0","pricing_plan_id":"cebpf4jnsgd1na2vs0mg"},{"bike_id":"c92bcfea-31de-44df-b6ec-33835892877f","system_id":"levelo_inurba_marseille","lat":43.29625,"lon":5.37724,"is_reserved":false,"is_disabled":false,"rental_uris":{"android":"levelo://app?vid=c92bcfea-31de-44df-b6ec-33835892877f","ios":"levelo://app?vid=c92bcfea-31de-44df-b6ec-33835892877f"},"vehicle_type_id":"4","last_reported":1740075152,"current_range_meters":8000,"station_id":"ce4bgi92rcd13ifvqb90","pricing_plan_id":"cebpf4jnsgd1na2vs0mg"},{"bike_id":"63c4cf47-dbff-4d5e-a88a-080b99df99de","system_id":"levelo_inurba_marseille","lat":43.29518,"lon":5.38909,"is_reserved":false,"is_disabled":true,"rental_uris":{"android":"levelo://app?vid=63c4cf47-dbff-4d5e-a88a-080b99df99de","ios":"levelo://app?vid=63c4cf47-dbff-4d5e-a88a-080b99df99de"},"vehicle_type_id":"4","last_reported":1740075152,"current_range_meters":8000,"station_id":"","pricing_plan_id":"cebpf4jnsgd1na2vs0mg"},{"bike_id":"34d14ec0-9a1d-4d07-8158-52ff5d0c0371","system_id":"levelo_inurba_marseille","lat":43.29437,"lon":5.38042,"is_reserved":false,"is_disabled":false,"rental_uris":{"android":"levelo://app?vid=34d14ec0-9a1d-4d07-8158-52ff5d0c0371","ios":"levelo://app?vid=34d14ec0-9a1d-4d07-8158-52ff5d0c0371"},"vehicle_type_id":"4","last_reported":1740075152,"current_range_meters":8000,"station_id":"","pricing_plan_id":"cebpf4jnsgd1na2vs0mg"},{"bike_id":"c17b7898-6573-47f3-bf46-316cc5c99a8a","system_id":"levelo_inurba_marseille","lat":43.28001,"lon":5.40009,"is_reserved":false,"is_disabled":false,"rental_uris":{"android":"levelo://app?vid=c17b7898-6573-47f3-bf46-316cc5c99a8a","ios":"levelo://app?vid=c17b7898-6573-47f3-bf46-316cc5c99a8a"},"vehicle_type_id":"4","last_reported":1740075152,"current_range_meters":8000,"station_id":"","pricing_plan_id":"cebpf4jnsgd1na2vs0mg"},{"bike_id":"fc971b16-bef3-4b6d-813c-ffc8ffa48842","system_id":"levelo_inurba_marseille","lat":43.2841,"lon":5.34986,"is_reserved":false,"is_disabled":true,"rental_uris":{"android":"levelo://app?vid=fc971b16-bef3-4b6d-813c-ffc8ffa48842","ios":"levelo://app?vid=fc971b16-bef3-4b6d-813c-ffc8ffa48842"},"vehicle_type_id":"4","last_reported":1740075152,"current_range_meters":8000,"station_id":"","pricing_plan_id":"cebpf4jnsgd1na2vs0mg"},{"bike_id":"89f9669e-b5df-407f-8af1-3ae91e3f91f5","system_id":"levelo_inurba_marseille","lat":43.27948,"lon":5.41048,"is_reserved":false,"is_disabled":false,"rental_uris":{"android":"levelo://app?vid=89f9669e-b5df-407f-8af1-3ae91e3f91f5","ios":"levelo://app?vid=89f9669e-b5df-407f-8af1-3ae91e3f91f5"},"vehicle_type_id":"4","last_reported":1740075152,"current_range_meters":8000,"station_id":"ce4bhnp2rcd13ifvqh0g","pricing_plan_id":"cebpf4jnsgd1na2vs0mg"},{"bike_id":"c000902f-c5f9-4784-8f8c-254f920ace9e","system_id":"levelo_inurba_marseille","lat":43.33734,"lon":5.39186,"is_reserved":false,"is_disabled":false,"rental_uris":{"android":"levelo://app?vid=c000902f-c5f9-4784-8f8c-254f920ace9e","ios":"levelo://app?vid=c000902f-c5f9-4784-8f8c-254f920ace9e"},"vehicle_type_id":"4","last_reported":1740075152,"current_range_meters":8000,"station_id":"ce4bhr92rcd13ifvqhsg","pricing_plan_id":"cebpf4jnsgd1na2vs0mg"},{"bike_id":"ff906b17-3532-4bbb-94e7-10785b2dff42","system_id":"levelo_inurba_marseille","lat":43.28461,"lon":5.35873,"is_reserved":false,"is_disabled":false,"rental_uris":{"android":"levelo://app?vid=ff906b17-3532-4bbb-94e7-10785b2dff42","ios":"levelo://app?vid=ff906b17-3532-4bbb-94e7-10785b2dff42"},"vehicle_type_id":"4","last_reported":1740075152,"current_range_meters":8000,"station_id":"ce4bhah2rcd13ifvqei0","pricing_plan_id":"cebpf4jnsgd1na2vs0mg"},{"bike_id":"188985ae-9cba-4f2e-aa81-f928630b246b","system_id":"levelo_inurba_marseille","lat":43.29414,"lon":5.38618,"is_reserved":false,"is_disabled":false,"rental_uris":{"android":"levelo://app?vid=188985ae-9cba-4f2e-aa81-f928630b246b","ios":"levelo://app?vid=188985ae-9cba-4f2e-aa81-f928630b246b"},"vehicle_type_id":"4","last_reported":1740075152,"current_range_meters":8000,"station_id":"ce4bh2h2rcd13ifvqdh0","pricing_plan_id":"cebpf4jnsgd1na2vs0mg"},{"bike_id":"b64778c2-2434-4409-b125-e965a1fd469a","system_id":"levelo_inurba_marseille","lat":43.30279,"lon":5.36689,"is_reserved":false,"is_disabled":false,"rental_uris":{"android":"levelo://app?vid=b64778c2-2434-4409-b125-e965a1fd469a","ios":"levelo://app?vid=b64778c2-2434-4409-b125-e965a1fd469a"},"vehicle_type_id":"4","last_reported":1740075152,"current_range_meters":8000,"station_id":"ce4bgs12rcd13ifvqcag","pricing_plan_id":"cebpf4jnsgd1na2vs0mg"},{"bike_id":"5180f318-4948-4085-aaf1-5f3160b57dbe","system_id":"levelo_inurba_marseille","lat":43.276179,"lon":5.361058,"is_reserved":false,"is_disabled":false,"rental_uris":{"android":"levelo://app?vid=5180f318-4948-4085-aaf1-5f3160b57dbe","ios":"levelo://app?vid=5180f318-4948-4085-aaf1-5f3160b57dbe"},"vehicle_type_id":"4","last_reported":1740075152,"current_range_meters":8000,"station_id":"","pricing_plan_id":"cebpf4jnsgd1na2vs0mg"},{"bike_id":"4f1ee591-32fa-4c64-8ff7-e76e1c499a91","system_id":"levelo_inurba_marseille","lat":43.32085,"lon":5.3678,"is_reserved":false,"is_disabled":false,"rental_uris":{"android":"levelo://app?vid=4f1ee591-32fa-4c64-8ff7-e76e1c499a91","ios":"levelo://app?vid=4f1ee591-32fa-4c64-8ff7-e76e1c499a91"},"vehicle_type_id":"4","last_reported":1740075152,"current_range_meters":8400,"station_id":"ce4bhrh2rcd13ifvqhug","pricing_plan_id":"cebpf4jnsgd1na2vs0mg"},{"bike_id":"4f535f78-9ad5-40fe-9058-98b9b29d5657","system_id":"levelo_inurba_marseille","lat":43.28158,"lon":5.42638,"is_reserved":false,"is_disabled":false,"rental_uris":{"android":"levelo://app?vid=4f535f78-9ad5-40fe-9058-98b9b29d5657","ios":"levelo://app?vid=4f535f78-9ad5-40fe-9058-98b9b29d5657"},"vehicle_type_id":"4","last_reported":1740075152,"current_range_meters":8400,"station_id":"ce4bhnh2rcd13ifvqgug","pricing_plan_id":"cebpf4jnsgd1na2vs0mg"},{"bike_id":"a00fb5cd-e0d2-4f96-befb-5275c0df0c87","system_id":"levelo_inurba_marseille","lat":43.28006,"lon":5.41655,"is_reserved":false,"is_disabled":false,"rental_uris":{"android":"levelo://app?vid=a00fb5cd-e0d2-4f96-befb-5275c0df0c87","ios":"levelo://app?vid=a00fb5cd-e0d2-4f96-befb-5275c0df0c87"},"vehicle_type_id":"4","last_reported":1740075152,"current_range_meters":8400,"station_id":"ce4bho12rcd13ifvqh1g","pricing_plan_id":"cebpf4jnsgd1na2vs0mg"},{"bike_id":"a74ffcb3-9d32-41ff-bfd9-54afae68ed62","system_id":"levelo_inurba_marseille","lat":43.30311,"lon":5.36892,"is_reserved":false,"is_disabled":false,"rental_uris":{"android":"levelo://app?vid=a74ffcb3-9d32-41ff-bfd9-54afae68ed62","ios":"levelo://app?vid=a74ffcb3-9d32-41ff-bfd9-54afae68ed62"},"vehicle_type_id":"4","last_reported":1740075152,"current_range_meters":8400,"station_id":"ce4bh2p2rcd13ifvqdi0","pricing_plan_id":"cebpf4jnsgd1na2vs0mg"},{"bike_id":"8cbf3cfb-7324-4014-94a6-4ce8dc497f9b","system_id":"levelo_inurba_marseille","lat":43.26211,"lon":5.37438,"is_reserved":false,"is_disabled":false,"rental_uris":{"android":"levelo://app?vid=8cbf3cfb-7324-4014-94a6-4ce8dc497f9b","ios":"levelo://app?vid=8cbf3cfb-7324-4014-94a6-4ce8dc497f9b"},"vehicle_type_id":"4","last_reported":1740075152,"current_range_meters":8400,"station_id":"","pricing_plan_id":"cebpf4jnsgd1na2vs0mg"},{"bike_id":"104b15c6-bf74-407c-9a34-de8a1be58e4f","system_id":"levelo_inurba_marseille","lat":43.29216,"lon":5.37303,"is_reserved":false,"is_disabled":false,"rental_uris":{"android":"levelo://app?vid=104b15c6-bf74-407c-9a34-de8a1be58e4f","ios":"levelo://app?vid=104b15c6-bf74-407c-9a34-de8a1be58e4f"},"vehicle_type_id":"4","last_reported":1740075152,"current_range_meters":8400,"station_id":"","pricing_plan_id":"cebpf4jnsgd1na2vs0mg"},{"bike_id":"21efc340-84ba-4e1a-8305-397034e02026","system_id":"levelo_inurba_marseille","lat":43.29202,"lon":5.39311,"is_reserved":false,"is_disabled":false,"rental_uris":{"android":"levelo://app?vid=21efc340-84ba-4e1a-8305-397034e02026","ios":"levelo://app?vid=21efc340-84ba-4e1a-8305-397034e02026"},"vehicle_type_id":"4","last_reported":1740075152,"current_range_meters":8800,"station_id":"ce4bh192rcd13ifvqdd0","pricing_plan_id":"cebpf4jnsgd1na2vs0mg"},{"bike_id":"369689ea-d4e0-4644-827f-338d55fbc4a9","system_id":"levelo_inurba_marseille","lat":43.301521,"lon":5.380815,"is_reserved":false,"is_disabled":false,"rental_uris":{"android":"levelo://app?vid=369689ea-d4e0-4644-827f-338d55fbc4a9","ios":"levelo://app?vid=369689ea-d4e0-4644-827f-338d55fbc4a9"},"vehicle_type_id":"4","last_reported":1740075152,"current_range_meters":8800,"station_id":"ce4bgvp2rcd13ifvqcu0","pricing_plan_id":"cebpf4jnsgd1na2vs0mg"},{"bike_id":"2f773cca-b1c4-4ac2-bf0f-9cdb8581998e","system_id":"levelo_inurba_marseille","lat":43.30908,"lon":5.37178,"is_reserved":false,"is_disabled":false,"rental_uris":{"android":"levelo://app?vid=2f773cca-b1c4-4ac2-bf0f-9cdb8581998e","ios":"levelo://app?vid=2f773cca-b1c4-4ac2-bf0f-9cdb8581998e"},"vehicle_type_id":"4","last_reported":1740075152,"current_range_meters":8800,"station_id":"ce4bguh2rcd13ifvqckg","pricing_plan_id":"cebpf4jnsgd1na2vs0mg"},{"bike_id":"d116ea6f-f09c-4a3f-bd97-01c17f998402","system_id":"levelo_inurba_marseille","lat":43.304313,"lon":5.397405,"is_reserved":false,"is_disabled":false,"rental_uris":{"android":"levelo://app?vid=d116ea6f-f09c-4a3f-bd97-01c17f998402","ios":"levelo://app?vid=d116ea6f-f09c-4a3f-bd97-01c17f998402"},"vehicle_type_id":"4","last_reported":1740075152,"current_range_meters":8800,"station_id":"ce4bh092rcd13ifvqd20","pricing_plan_id":"cebpf4jnsgd1na2vs0mg"},{"bike_id":"26779595-c177-40e8-a988-d5570ab1009d","system_id":"levelo_inurba_marseille","lat":43.29188,"lon":5.39762,"is_reserved":false,"is_disabled":false,"rental_uris":{"android":"levelo://app?vid=26779595-c177-40e8-a988-d5570ab1009d","ios":"levelo://app?vid=26779595-c177-40e8-a988-d5570ab1009d"},"vehicle_type_id":"4","last_reported":1740075152,"current_range_meters":8800,"station_id":"","pricing_plan_id":"cebpf4jnsgd1na2vs0mg"},{"bike_id":"1a0f9af0-29e4-4c16-a76f-169504db9e23","system_id":"levelo_inurba_marseille","lat":43.29197,"lon":5.39316,"is_reserved":false,"is_disabled":false,"rental_uris":{"android":"levelo://app?vid=1a0f9af0-29e4-4c16-a76f-169504db9e23","ios":"levelo://app?vid=1a0f9af0-29e4-4c16-a76f-169504db9e23"},"vehicle_type_id":"4","last_reported":1740075152,"current_range_meters":8800,"station_id":"","pricing_plan_id":"cebpf4jnsgd1na2vs0mg"},{"bike_id":"0686e433-82b6-4ced-b364-39b66b6a0983","system_id":"levelo_inurba_marseille","lat":43.255799,"lon":5.382359,"is_reserved":false,"is_disabled":false,"rental_uris":{"android":"levelo://app?vid=0686e433-82b6-4ced-b364-39b66b6a0983","ios":"levelo://app?vid=0686e433-82b6-4ced-b364-39b66b6a0983"},"vehicle_type_id":"4","last_reported":1740075152,"current_range_meters":8800,"station_id":"ce4bhih2rcd13ifvqfs0","pricing_plan_id":"cebpf4jnsgd1na2vs0mg"},{"bike_id":"58c8f8c7-e56a-4269-968f-875c92b41028","system_id":"levelo_inurba_marseille","lat":43.25084,"lon":5.39499,"is_reserved":false,"is_disabled":false,"rental_uris":{"android":"levelo://app?vid=58c8f8c7-e56a-4269-968f-875c92b41028","ios":"levelo://app?vid=58c8f8c7-e56a-4269-968f-875c92b41028"},"vehicle_type_id":"4","last_reported":1740075152,"current_range_meters":8800,"station_id":"ce4bhm12rcd13ifvqgkg","pricing_plan_id":"cebpf4jnsgd1na2vs0mg"},{"bike_id":"5f9ede52-c720-4107-a864-980fb2608395","system_id":"levelo_inurba_marseille","lat":43.24101,"lon":5.38666,"is_reserved":false,"is_disabled":false,"rental_uris":{"android":"levelo://app?vid=5f9ede52-c720-4107-a864-980fb2608395","ios":"levelo://app?vid=5f9ede52-c720-4107-a864-980fb2608395"},"vehicle_type_id":"4","last_reported":1740075152,"current_range_meters":9200,"station_id":"","pricing_plan_id":"cebpf4jnsgd1na2vs0mg"},{"bike_id":"2ff9c241-f571-4d7b-b294-391e7b4adde1","system_id":"levelo_inurba_marseille","lat":43.27991,"lon":5.41659,"is_reserved":false,"is_disabled":false,"rental_uris":{"android":"levelo://app?vid=2ff9c241-f571-4d7b-b294-391e7b4adde1","ios":"levelo://app?vid=2ff9c241-f571-4d7b-b294-391e7b4adde1"},"vehicle_type_id":"4","last_reported":1740075152,"current_range_meters":9200,"station_id":"ce4bho12rcd13ifvqh1g","pricing_plan_id":"cebpf4jnsgd1na2vs0mg"},{"bike_id":"bc11ec41-5333-40d8-9062-93059b2da25d","system_id":"levelo_inurba_marseille","lat":43.29814,"lon":5.38102,"is_reserved":false,"is_disabled":false,"rental_uris":{"android":"levelo://app?vid=bc11ec41-5333-40d8-9062-93059b2da25d","ios":"levelo://app?vid=bc11ec41-5333-40d8-9062-93059b2da25d"},"vehicle_type_id":"4","last_reported":1740075152,"current_range_meters":9200,"station_id":"","pricing_plan_id":"cebpf4jnsgd1na2vs0mg"},{"bike_id":"77ac049b-6848-4db1-94df-a16d6879e316","system_id":"levelo_inurba_marseille","lat":43.23179,"lon":5.35589,"is_reserved":false,"is_disabled":false,"rental_uris":{"android":"levelo://app?vid=77ac049b-6848-4db1-94df-a16d6879e316","ios":"levelo://app?vid=77ac049b-6848-4db1-94df-a16d6879e316"},"vehicle_type_id":"4","last_reported":1740075152,"current_range_meters":9600,"station_id":"","pricing_plan_id":"cebpf4jnsgd1na2vs0mg"},{"bike_id":"ed56012a-438d-47c3-91d0-6b59e479a8f0","system_id":"levelo_inurba_marseille","lat":43.25107,"lon":5.39491,"is_reserved":false,"is_disabled":false,"rental_uris":{"android":"levelo://app?vid=ed56012a-438d-47c3-91d0-6b59e479a8f0","ios":"levelo://app?vid=ed56012a-438d-47c3-91d0-6b59e479a8f0"},"vehicle_type_id":"4","last_reported":1740075152,"current_range_meters":9600,"station_id":"ce4bhm12rcd13ifvqgkg","pricing_plan_id":"cebpf4jnsgd1na2vs0mg"},{"bike_id":"71b84c70-7603-4cd7-8b78-ff8616bb3280","system_id":"levelo_inurba_marseille","lat":43.297197,"lon":5.379738,"is_reserved":false,"is_disabled":false,"rental_uris":{"android":"levelo://app?vid=71b84c70-7603-4cd7-8b78-ff8616bb3280","ios":"levelo://app?vid=71b84c70-7603-4cd7-8b78-ff8616bb3280"},"vehicle_type_id":"4","last_reported":1740075152,"current_range_meters":9200,"station_id":"cki0cbj6b192h4jlfktg","pricing_plan_id":"cebpf4jnsgd1na2vs0mg"},{"bike_id":"6d3a1bc9-0168-46a0-8d06-2b755db45b0a","system_id":"levelo_inurba_marseille","lat":43.23065,"lon":5.35489,"is_reserved":false,"is_disabled":false,"rental_uris":{"android":"levelo://app?vid=6d3a1bc9-0168-46a0-8d06-2b755db45b0a","ios":"levelo://app?vid=6d3a1bc9-0168-46a0-8d06-2b755db45b0a"},"vehicle_type_id":"4","last_reported":1740075152,"current_range_meters":9600,"station_id":"cpo3342slgdg3j2ifvpg","pricing_plan_id":"cebpf4jnsgd1na2vs0mg"},{"bike_id":"d90448d0-ec8e-4614-9302-a8184ad50b9a","system_id":"levelo_inurba_marseille","lat":43.281563,"lon":5.42644,"is_reserved":false,"is_disabled":false,"rental_uris":{"android":"levelo://app?vid=d90448d0-ec8e-4614-9302-a8184ad50b9a","ios":"levelo://app?vid=d90448d0-ec8e-4614-9302-a8184ad50b9a"},"vehicle_type_id":"4","last_reported":1740075152,"current_range_meters":9600,"station_id":"ce4bhnh2rcd13ifvqgug","pricing_plan_id":"cebpf4jnsgd1na2vs0mg"},{"bike_id":"0d34eb8c-c749-410b-a515-4800435ee933","system_id":"levelo_inurba_marseille","lat":43.24164,"lon":5.36397,"is_reserved":false,"is_disabled":false,"rental_uris":{"android":"levelo://app?vid=0d34eb8c-c749-410b-a515-4800435ee933","ios":"levelo://app?vid=0d34eb8c-c749-410b-a515-4800435ee933"},"vehicle_type_id":"4","last_reported":1740075152,"current_range_meters":9600,"station_id":"cpo36qri1sfpv3e86is0","pricing_plan_id":"cebpf4jnsgd1na2vs0mg"},{"bike_id":"a924690f-5eaa-41b4-9d8f-51fce574fc50","system_id":"levelo_inurba_marseille","lat":43.27497,"lon":5.42453,"is_reserved":false,"is_disabled":false,"rental_uris":{"android":"levelo://app?vid=a924690f-5eaa-41b4-9d8f-51fce574fc50","ios":"levelo://app?vid=a924690f-5eaa-41b4-9d8f-51fce574fc50"},"vehicle_type_id":"4","last_reported":1740075152,"current_range_meters":10800,"station_id":"ce4bhn92rcd13ifvqgrg","pricing_plan_id":"cebpf4jnsgd1na2vs0mg"},{"bike_id":"f95a5649-643a-48c0-a1cd-8a1ae7759c5b","system_id":"levelo_inurba_marseille","lat":43.30662,"lon":5.40063,"is_reserved":false,"is_disabled":false,"rental_uris":{"android":"levelo://app?vid=f95a5649-643a-48c0-a1cd-8a1ae7759c5b","ios":"levelo://app?vid=f95a5649-643a-48c0-a1cd-8a1ae7759c5b"},"vehicle_type_id":"4","last_reported":1740075152,"current_range_meters":9600,"station_id":"ce4bh112rcd13ifvqda0","pricing_plan_id":"cebpf4jnsgd1na2vs0mg"},{"bike_id":"c69605a1-be6a-4b23-aab3-ee3b70fffeb3","system_id":"levelo_inurba_marseille","lat":43.27842,"lon":5.39208,"is_reserved":false,"is_disabled":false,"rental_uris":{"android":"levelo://app?vid=c69605a1-be6a-4b23-aab3-ee3b70fffeb3","ios":"levelo://app?vid=c69605a1-be6a-4b23-aab3-ee3b70fffeb3"},"vehicle_type_id":"4","last_reported":1740075152,"current_range_meters":9600,"station_id":"ce4bhjp2rcd13ifvqga0","pricing_plan_id":"cebpf4jnsgd1na2vs0mg"},{"bike_id":"ff083d96-1fe8-4388-b1fb-a058bee43b2d","system_id":"levelo_inurba_marseille","lat":43.27173,"lon":5.40998,"is_reserved":false,"is_disabled":false,"rental_uris":{"android":"levelo://app?vid=ff083d96-1fe8-4388-b1fb-a058bee43b2d","ios":"levelo://app?vid=ff083d96-1fe8-4388-b1fb-a058bee43b2d"},"vehicle_type_id":"4","last_reported":1740075152,"current_range_meters":9600,"station_id":"ce4bhl12rcd13ifvqgf0","pricing_plan_id":"cebpf4jnsgd1na2vs0mg"},{"bike_id":"23c7f17d-4517-4dd4-a3a7-dfe044723d32","system_id":"levelo_inurba_marseille","lat":43.30537,"lon":5.38426,"is_reserved":false,"is_disabled":true,"rental_uris":{"android":"levelo://app?vid=23c7f17d-4517-4dd4-a3a7-dfe044723d32","ios":"levelo://app?vid=23c7f17d-4517-4dd4-a3a7-dfe044723d32"},"vehicle_type_id":"4","last_reported":1740075152,"current_range_meters":10000,"station_id":"ce4bgg92rcd13ifvqb30","pricing_plan_id":"cebpf4jnsgd1na2vs0mg"},{"bike_id":"341bae22-75f3-4766-8fd7-413e8c4a7fee","system_id":"levelo_inurba_marseille","lat":43.26797,"lon":5.40249,"is_reserved":false,"is_disabled":false,"rental_uris":{"android":"levelo://app?vid=341bae22-75f3-4766-8fd7-413e8c4a7fee","ios":"levelo://app?vid=341bae22-75f3-4766-8fd7-413e8c4a7fee"},"vehicle_type_id":"4","last_reported":1740075152,"current_range_meters":10000,"station_id":"ce501612rcd8frsf0b60","pricing_plan_id":"cebpf4jnsgd1na2vs0mg"},{"bike_id":"34b1a107-1a0d-4750-9d8e-9984f5c36912","system_id":"levelo_inurba_marseille","lat":43.26211,"lon":5.37438,"is_reserved":false,"is_disabled":false,"rental_uris":{"android":"levelo://app?vid=34b1a107-1a0d-4750-9d8e-9984f5c36912","ios":"levelo://app?vid=34b1a107-1a0d-4750-9d8e-9984f5c36912"},"vehicle_type_id":"4","last_reported":1740075152,"current_range_meters":10000,"station_id":"ce4bhgp2rcd13ifvqfc0","pricing_plan_id":"cebpf4jnsgd1na2vs0mg"},{"bike_id":"7b19744e-f24f-4b7d-94e9-2a8fd4a78d0d","system_id":"levelo_inurba_marseille","lat":43.23199,"lon":5.35559,"is_reserved":false,"is_disabled":false,"rental_uris":{"android":"levelo://app?vid=7b19744e-f24f-4b7d-94e9-2a8fd4a78d0d","ios":"levelo://app?vid=7b19744e-f24f-4b7d-94e9-2a8fd4a78d0d"},"vehicle_type_id":"4","last_reported":1740075152,"current_range_meters":10000,"station_id":"","pricing_plan_id":"cebpf4jnsgd1na2vs0mg"},{"bike_id":"c040196e-3938-43a8-a5ce-7d280eb1a76c","system_id":"levelo_inurba_marseille","lat":43.29358,"lon":5.37852,"is_reserved":false,"is_disabled":false,"rental_uris":{"android":"levelo://app?vid=c040196e-3938-43a8-a5ce-7d280eb1a76c","ios":"levelo://app?vid=c040196e-3938-43a8-a5ce-7d280eb1a76c"},"vehicle_type_id":"4","last_reported":1740075152,"current_range_meters":10000,"station_id":"ce4bgjh2rcd13ifvqbf0","pricing_plan_id":"cebpf4jnsgd1na2vs0mg"},{"bike_id":"71339764-c3a0-4eed-ae2c-05ae4955295d","system_id":"levelo_inurba_marseille","lat":43.28153,"lon":5.42639,"is_reserved":false,"is_disabled":false,"rental_uris":{"android":"levelo://app?vid=71339764-c3a0-4eed-ae2c-05ae4955295d","ios":"levelo://app?vid=71339764-c3a0-4eed-ae2c-05ae4955295d"},"vehicle_type_id":"4","last_reported":1740075152,"current_range_meters":10800,"station_id":"ce4bhnh2rcd13ifvqgug","pricing_plan_id":"cebpf4jnsgd1na2vs0mg"},{"bike_id":"1a640d2c-9c5b-4f42-8b07-acd8b88addb6","system_id":"levelo_inurba_marseille","lat":43.30145,"lon":5.38067,"is_reserved":false,"is_disabled":false,"rental_uris":{"android":"levelo://app?vid=1a640d2c-9c5b-4f42-8b07-acd8b88addb6","ios":"levelo://app?vid=1a640d2c-9c5b-4f42-8b07-acd8b88addb6"},"vehicle_type_id":"4","last_reported":1740075152,"current_range_meters":10800,"station_id":"ce4bgjp2rcd13ifvqbh0","pricing_plan_id":"cebpf4jnsgd1na2vs0mg"},{"bike_id":"ddb941cb-a36a-4cd3-9b39-5f872e38e6e6","system_id":"levelo_inurba_marseille","lat":43.28703,"lon":5.37384,"is_reserved":false,"is_disabled":false,"rental_uris":{"android":"levelo://app?vid=ddb941cb-a36a-4cd3-9b39-5f872e38e6e6","ios":"levelo://app?vid=ddb941cb-a36a-4cd3-9b39-5f872e38e6e6"},"vehicle_type_id":"4","last_reported":1740075152,"current_range_meters":10800,"station_id":"ce4bh3p2rcd13ifvqdq0","pricing_plan_id":"cebpf4jnsgd1na2vs0mg"},{"bike_id":"4394ca8f-c38c-45be-8edd-1598da0ce4a1","system_id":"levelo_inurba_marseille","lat":43.26208,"lon":5.3744,"is_reserved":false,"is_disabled":false,"rental_uris":{"android":"levelo://app?vid=4394ca8f-c38c-45be-8edd-1598da0ce4a1","ios":"levelo://app?vid=4394ca8f-c38c-45be-8edd-1598da0ce4a1"},"vehicle_type_id":"4","last_reported":1740075152,"current_range_meters":10800,"station_id":"ce4bhgp2rcd13ifvqfc0","pricing_plan_id":"cebpf4jnsgd1na2vs0mg"},{"bike_id":"b847b97a-7601-470c-9e4f-f1c026b33701","system_id":"levelo_inurba_marseille","lat":43.28675,"lon":5.38661,"is_reserved":false,"is_disabled":false,"rental_uris":{"android":"levelo://app?vid=b847b97a-7601-470c-9e4f-f1c026b33701","ios":"levelo://app?vid=b847b97a-7601-470c-9e4f-f1c026b33701"},"vehicle_type_id":"4","last_reported":1740075152,"current_range_meters":10800,"station_id":"ce4bh492rcd13ifvqdug","pricing_plan_id":"cebpf4jnsgd1na2vs0mg"},{"bike_id":"f3849bff-8c74-4131-b0f7-3b2895e7ce5f","system_id":"levelo_inurba_marseille","lat":43.3189,"lon":5.40722,"is_reserved":false,"is_disabled":false,"rental_uris":{"android":"levelo://app?vid=f3849bff-8c74-4131-b0f7-3b2895e7ce5f","ios":"levelo://app?vid=f3849bff-8c74-4131-b0f7-3b2895e7ce5f"},"vehicle_type_id":"4","last_reported":1740075152,"current_range_meters":10800,"station_id":"","pricing_plan_id":"cebpf4jnsgd1na2vs0mg"},{"bike_id":"473b17b1-142d-4d27-b91c-3781d2e4f5c4","system_id":"levelo_inurba_marseille","lat":43.28565,"lon":5.39489,"is_reserved":false,"is_disabled":false,"rental_uris":{"android":"levelo://app?vid=473b17b1-142d-4d27-b91c-3781d2e4f5c4","ios":"levelo://app?vid=473b17b1-142d-4d27-b91c-3781d2e4f5c4"},"vehicle_type_id":"4","last_reported":1740075152,"current_range_meters":10800,"station_id":"ce4bh292rcd13ifvqdg0","pricing_plan_id":"cebpf4jnsgd1na2vs0mg"},{"bike_id":"2a1e7e6b-2821-4447-8466-b5450172360e","system_id":"levelo_inurba_marseille","lat":43.29797,"lon":5.38098,"is_reserved":false,"is_disabled":false,"rental_uris":{"android":"levelo://app?vid=2a1e7e6b-2821-4447-8466-b5450172360e","ios":"levelo://app?vid=2a1e7e6b-2821-4447-8466-b5450172360e"},"vehicle_type_id":"4","last_reported":1740075152,"current_range_meters":10800,"station_id":"ce4bgip2rcd13ifvqbb0","pricing_plan_id":"cebpf4jnsgd1na2vs0mg"},{"bike_id":"4e239ccb-0bea-4bdf-9d13-e7d83bb641bc","system_id":"levelo_inurba_marseille","lat":43.29858,"lon":5.39729,"is_reserved":false,"is_disabled":false,"rental_uris":{"android":"levelo://app?vid=4e239ccb-0bea-4bdf-9d13-e7d83bb641bc","ios":"levelo://app?vid=4e239ccb-0bea-4bdf-9d13-e7d83bb641bc"},"vehicle_type_id":"4","last_reported":1740075152,"current_range_meters":10800,"station_id":"","pricing_plan_id":"cebpf4jnsgd1na2vs0mg"},{"bike_id":"a2517ea6-a40b-4901-979b-4128336954ae","system_id":"levelo_inurba_marseille","lat":43.28154,"lon":5.42631,"is_reserved":false,"is_disabled":false,"rental_uris":{"android":"levelo://app?vid=a2517ea6-a40b-4901-979b-4128336954ae","ios":"levelo://app?vid=a2517ea6-a40b-4901-979b-4128336954ae"},"vehicle_type_id":"4","last_reported":1740075152,"current_range_meters":10800,"station_id":"ce4bhnh2rcd13ifvqgug","pricing_plan_id":"cebpf4jnsgd1na2vs0mg"},{"bike_id":"19563cee-2d40-483a-b693-f8e9015c388c","system_id":"levelo_inurba_marseille","lat":43.28156,"lon":5.42638,"is_reserved":false,"is_disabled":false,"rental_uris":{"android":"levelo://app?vid=19563cee-2d40-483a-b693-f8e9015c388c","ios":"levelo://app?vid=19563cee-2d40-483a-b693-f8e9015c388c"},"vehicle_type_id":"4","last_reported":1740075152,"current_range_meters":10800,"station_id":"ce4bhnh2rcd13ifvqgug","pricing_plan_id":"cebpf4jnsgd1na2vs0mg"},{"bike_id":"869b0bee-3ae9-40a5-8b90-97e99d7da129","system_id":"levelo_inurba_marseille","lat":43.29695,"lon":5.37693,"is_reserved":false,"is_disabled":false,"rental_uris":{"android":"levelo://app?vid=869b0bee-3ae9-40a5-8b90-97e99d7da129","ios":"levelo://app?vid=869b0bee-3ae9-40a5-8b90-97e99d7da129"},"vehicle_type_id":"4","last_reported":1740075152,"current_range_meters":10800,"station_id":"ce4bgkh2rcd13ifvqbl0","pricing_plan_id":"cebpf4jnsgd1na2vs0mg"},{"bike_id":"d8dc2332-214f-488b-8389-0e429277c9f8","system_id":"levelo_inurba_marseille","lat":43.26192,"lon":5.37441,"is_reserved":false,"is_disabled":false,"rental_uris":{"android":"levelo://app?vid=d8dc2332-214f-488b-8389-0e429277c9f8","ios":"levelo://app?vid=d8dc2332-214f-488b-8389-0e429277c9f8"},"vehicle_type_id":"4","last_reported":1740075152,"current_range_meters":11200,"station_id":"ce4bhgp2rcd13ifvqfc0","pricing_plan_id":"cebpf4jnsgd1na2vs0mg"},{"bike_id":"635050f9-a2c9-4910-8267-ff5a32e2982d","system_id":"levelo_inurba_marseille","lat":43.24802,"lon":5.37457,"is_reserved":false,"is_disabled":true,"rental_uris":{"android":"levelo://app?vid=635050f9-a2c9-4910-8267-ff5a32e2982d","ios":"levelo://app?vid=635050f9-a2c9-4910-8267-ff5a32e2982d"},"vehicle_type_id":"4","last_reported":1740075152,"current_range_meters":11200,"station_id":"","pricing_plan_id":"cebpf4jnsgd1na2vs0mg"},{"bike_id":"978bb6d5-23c4-44bf-b0ea-6ebdb61a85a0","system_id":"levelo_inurba_marseille","lat":43.29432,"lon":5.38634,"is_reserved":false,"is_disabled":false,"rental_uris":{"android":"levelo://app?vid=978bb6d5-23c4-44bf-b0ea-6ebdb61a85a0","ios":"levelo://app?vid=978bb6d5-23c4-44bf-b0ea-6ebdb61a85a0"},"vehicle_type_id":"4","last_reported":1740075152,"current_range_meters":11600,"station_id":"ce4bh2h2rcd13ifvqdh0","pricing_plan_id":"cebpf4jnsgd1na2vs0mg"},{"bike_id":"1c9e006e-f87a-431a-aaf8-e75b3c7b3dbf","system_id":"levelo_inurba_marseille","lat":43.26573,"lon":5.39034,"is_reserved":false,"is_disabled":false,"rental_uris":{"android":"levelo://app?vid=1c9e006e-f87a-431a-aaf8-e75b3c7b3dbf","ios":"levelo://app?vid=1c9e006e-f87a-431a-aaf8-e75b3c7b3dbf"},"vehicle_type_id":"4","last_reported":1740075152,"current_range_meters":11600,"station_id":"ce4bhe12rcd13ifvqf30","pricing_plan_id":"cebpf4jnsgd1na2vs0mg"},{"bike_id":"601afe4a-25bf-4b56-a5ec-02075de1ee82","system_id":"levelo_inurba_marseille","lat":43.23069,"lon":5.35496,"is_reserved":false,"is_disabled":false,"rental_uris":{"android":"levelo://app?vid=601afe4a-25bf-4b56-a5ec-02075de1ee82","ios":"levelo://app?vid=601afe4a-25bf-4b56-a5ec-02075de1ee82"},"vehicle_type_id":"4","last_reported":1740075152,"current_range_meters":11600,"station_id":"cpo3342slgdg3j2ifvpg","pricing_plan_id":"cebpf4jnsgd1na2vs0mg"},{"bike_id":"26e50135-44af-40aa-a79a-8d5cc0050d12","system_id":"levelo_inurba_marseille","lat":43.30797,"lon":5.38158,"is_reserved":false,"is_disabled":false,"rental_uris":{"android":"levelo://app?vid=26e50135-44af-40aa-a79a-8d5cc0050d12","ios":"levelo://app?vid=26e50135-44af-40aa-a79a-8d5cc0050d12"},"vehicle_type_id":"4","last_reported":1740075152,"current_range_meters":11200,"station_id":"ce4bgt12rcd13ifvqce0","pricing_plan_id":"cebpf4jnsgd1na2vs0mg"},{"bike_id":"9aef2b50-02ae-4a6d-aa26-821348658263","system_id":"levelo_inurba_marseille","lat":43.28178,"lon":5.42628,"is_reserved":false,"is_disabled":false,"rental_uris":{"android":"levelo://app?vid=9aef2b50-02ae-4a6d-aa26-821348658263","ios":"levelo://app?vid=9aef2b50-02ae-4a6d-aa26-821348658263"},"vehicle_type_id":"4","last_reported":1740075152,"current_range_meters":12000,"station_id":"ce4bhnh2rcd13ifvqgug","pricing_plan_id":"cebpf4jnsgd1na2vs0mg"},{"bike_id":"d9ed4ce9-95b4-4067-a245-f49daf56af4a","system_id":"levelo_inurba_marseille","lat":43.26807,"lon":5.40271,"is_reserved":false,"is_disabled":false,"rental_uris":{"android":"levelo://app?vid=d9ed4ce9-95b4-4067-a245-f49daf56af4a","ios":"levelo://app?vid=d9ed4ce9-95b4-4067-a245-f49daf56af4a"},"vehicle_type_id":"4","last_reported":1740075152,"current_range_meters":12000,"station_id":"ce501612rcd8frsf0b60","pricing_plan_id":"cebpf4jnsgd1na2vs0mg"},{"bike_id":"76a127d3-77c2-483d-acf4-d4cd9dcde57d","system_id":"levelo_inurba_marseille","lat":43.27382,"lon":5.36255,"is_reserved":false,"is_disabled":false,"rental_uris":{"android":"levelo://app?vid=76a127d3-77c2-483d-acf4-d4cd9dcde57d","ios":"levelo://app?vid=76a127d3-77c2-483d-acf4-d4cd9dcde57d"},"vehicle_type_id":"4","last_reported":1740075152,"current_range_meters":12000,"station_id":"ce4bhbh2rcd13ifvqeo0","pricing_plan_id":"cebpf4jnsgd1na2vs0mg"},{"bike_id":"bfa1afdd-6221-4a91-82bd-d18819a67e02","system_id":"levelo_inurba_marseille","lat":43.244238,"lon":5.370237,"is_reserved":false,"is_disabled":false,"rental_uris":{"android":"levelo://app?vid=bfa1afdd-6221-4a91-82bd-d18819a67e02","ios":"levelo://app?vid=bfa1afdd-6221-4a91-82bd-d18819a67e02"},"vehicle_type_id":"4","last_reported":1740075152,"current_range_meters":12000,"station_id":"ce4bhnp2rcd13ifvqgvg","pricing_plan_id":"cebpf4jnsgd1na2vs0mg"},{"bike_id":"e72439bb-8b6d-4bd3-a9c4-c984d973de2a","system_id":"levelo_inurba_marseille","lat":43.29888,"lon":5.38903,"is_reserved":false,"is_disabled":false,"rental_uris":{"android":"levelo://app?vid=e72439bb-8b6d-4bd3-a9c4-c984d973de2a","ios":"levelo://app?vid=e72439bb-8b6d-4bd3-a9c4-c984d973de2a"},"vehicle_type_id":"4","last_reported":1740075152,"current_range_meters":12000,"station_id":"ce4bh392rcd13ifvqdl0","pricing_plan_id":"cebpf4jnsgd1na2vs0mg"},{"bike_id":"8becd64c-893d-4a08-8876-b1598e031c70","system_id":"levelo_inurba_marseille","lat":43.27963,"lon":5.38691,"is_reserved":false,"is_disabled":true,"rental_uris":{"android":"levelo://app?vid=8becd64c-893d-4a08-8876-b1598e031c70","ios":"levelo://app?vid=8becd64c-893d-4a08-8876-b1598e031c70"},"vehicle_type_id":"4","last_reported":1740075152,"current_range_meters":12400,"station_id":"","pricing_plan_id":"cebpf4jnsgd1na2vs0mg"},{"bike_id":"29309a1e-809a-497d-a994-3575fd88ca60","system_id":"levelo_inurba_marseille","lat":43.29536,"lon":5.38547,"is_reserved":false,"is_disabled":false,"rental_uris":{"android":"levelo://app?vid=29309a1e-809a-497d-a994-3575fd88ca60","ios":"levelo://app?vid=29309a1e-809a-497d-a994-3575fd88ca60"},"vehicle_type_id":"4","last_reported":1740075152,"current_range_meters":12400,"station_id":"ce4bgih2rcd13ifvqba0","pricing_plan_id":"cebpf4jnsgd1na2vs0mg"},{"bike_id":"80045d55-1029-4653-b02e-450f310c990a","system_id":"levelo_inurba_marseille","lat":43.30955,"lon":5.39031,"is_reserved":false,"is_disabled":false,"rental_uris":{"android":"levelo://app?vid=80045d55-1029-4653-b02e-450f310c990a","ios":"levelo://app?vid=80045d55-1029-4653-b02e-450f310c990a"},"vehicle_type_id":"4","last_reported":1740075152,"current_range_meters":12400,"station_id":"ce4bgup2rcd13ifvqco0","pricing_plan_id":"cebpf4jnsgd1na2vs0mg"},{"bike_id":"9c91584d-5cc3-4e26-b744-39ed5bfada3c","system_id":"levelo_inurba_marseille","lat":43.298,"lon":5.381,"is_reserved":false,"is_disabled":false,"rental_uris":{"android":"levelo://app?vid=9c91584d-5cc3-4e26-b744-39ed5bfada3c","ios":"levelo://app?vid=9c91584d-5cc3-4e26-b744-39ed5bfada3c"},"vehicle_type_id":"4","last_reported":1740075152,"current_range_meters":12400,"station_id":"","pricing_plan_id":"cebpf4jnsgd1na2vs0mg"},{"bike_id":"46ea4779-3f47-4a8f-bd63-2203bde57210","system_id":"levelo_inurba_marseille","lat":43.28345,"lon":5.38087,"is_reserved":false,"is_disabled":false,"rental_uris":{"android":"levelo://app?vid=46ea4779-3f47-4a8f-bd63-2203bde57210","ios":"levelo://app?vid=46ea4779-3f47-4a8f-bd63-2203bde57210"},"vehicle_type_id":"4","last_reported":1740075152,"current_range_meters":12400,"station_id":"ce4bh412rcd13ifvqdr0","pricing_plan_id":"cebpf4jnsgd1na2vs0mg"},{"bike_id":"866d76c8-7b49-427f-8f16-f8a9e821347a","system_id":"levelo_inurba_marseille","lat":43.28158,"lon":5.42624,"is_reserved":false,"is_disabled":false,"rental_uris":{"android":"levelo://app?vid=866d76c8-7b49-427f-8f16-f8a9e821347a","ios":"levelo://app?vid=866d76c8-7b49-427f-8f16-f8a9e821347a"},"vehicle_type_id":"4","last_reported":1740075152,"current_range_meters":12000,"station_id":"ce4bhnh2rcd13ifvqgug","pricing_plan_id":"cebpf4jnsgd1na2vs0mg"},{"bike_id":"8c23261a-3567-4102-ae06-42639fcfa675","system_id":"levelo_inurba_marseille","lat":43.29008,"lon":5.35607,"is_reserved":false,"is_disabled":false,"rental_uris":{"android":"levelo://app?vid=8c23261a-3567-4102-ae06-42639fcfa675","ios":"levelo://app?vid=8c23261a-3567-4102-ae06-42639fcfa675"},"vehicle_type_id":"4","last_reported":1740075152,"current_range_meters":12400,"station_id":"ce4bhb92rcd13ifvqen0","pricing_plan_id":"cebpf4jnsgd1na2vs0mg"},{"bike_id":"e3bf0413-e73c-4f5e-b5df-f71a2b0c5aa3","system_id":"levelo_inurba_marseille","lat":43.28157,"lon":5.42639,"is_reserved":false,"is_disabled":false,"rental_uris":{"android":"levelo://app?vid=e3bf0413-e73c-4f5e-b5df-f71a2b0c5aa3","ios":"levelo://app?vid=e3bf0413-e73c-4f5e-b5df-f71a2b0c5aa3"},"vehicle_type_id":"4","last_reported":1740075152,"current_range_meters":12400,"station_id":"ce4bhnh2rcd13ifvqgug","pricing_plan_id":"cebpf4jnsgd1na2vs0mg"},{"bike_id":"c17d48e1-60b9-4db3-99fa-3e7c243c8c7a","system_id":"levelo_inurba_marseille","lat":43.29299,"lon":5.37454,"is_reserved":false,"is_disabled":false,"rental_uris":{"android":"levelo://app?vid=c17d48e1-60b9-4db3-99fa-3e7c243c8c7a","ios":"levelo://app?vid=c17d48e1-60b9-4db3-99fa-3e7c243c8c7a"},"vehicle_type_id":"4","last_reported":1740075152,"current_range_meters":12400,"station_id":"ce4bgi12rcd13ifvqb70","pricing_plan_id":"cebpf4jnsgd1na2vs0mg"},{"bike_id":"74038a5d-e80d-47fe-8a5a-a3b73973f272","system_id":"levelo_inurba_marseille","lat":43.29235,"lon":5.36073,"is_reserved":false,"is_disabled":false,"rental_uris":{"android":"levelo://app?vid=74038a5d-e80d-47fe-8a5a-a3b73973f272","ios":"levelo://app?vid=74038a5d-e80d-47fe-8a5a-a3b73973f272"},"vehicle_type_id":"4","last_reported":1740075152,"current_range_meters":12400,"station_id":"ce4bhbh2rcd13ifvqeqg","pricing_plan_id":"cebpf4jnsgd1na2vs0mg"},{"bike_id":"2248a686-da6b-4ef8-880e-8db6a1c23aab","system_id":"levelo_inurba_marseille","lat":43.27377,"lon":5.36246,"is_reserved":false,"is_disabled":false,"rental_uris":{"android":"levelo://app?vid=2248a686-da6b-4ef8-880e-8db6a1c23aab","ios":"levelo://app?vid=2248a686-da6b-4ef8-880e-8db6a1c23aab"},"vehicle_type_id":"4","last_reported":1740075152,"current_range_meters":12800,"station_id":"","pricing_plan_id":"cebpf4jnsgd1na2vs0mg"},{"bike_id":"db16f792-18a8-46be-80d7-00fd14eb323d","system_id":"levelo_inurba_marseille","lat":43.29796,"lon":5.40394,"is_reserved":false,"is_disabled":false,"rental_uris":{"android":"levelo://app?vid=db16f792-18a8-46be-80d7-00fd14eb323d","ios":"levelo://app?vid=db16f792-18a8-46be-80d7-00fd14eb323d"},"vehicle_type_id":"4","last_reported":1740075152,"current_range_meters":12800,"station_id":"ce4bh112rcd13ifvqd90","pricing_plan_id":"cebpf4jnsgd1na2vs0mg"},{"bike_id":"1660713d-7dd9-42e0-81d8-579e8b1bddf1","system_id":"levelo_inurba_marseille","lat":43.29801,"lon":5.38094,"is_reserved":false,"is_disabled":false,"rental_uris":{"android":"levelo://app?vid=1660713d-7dd9-42e0-81d8-579e8b1bddf1","ios":"levelo://app?vid=1660713d-7dd9-42e0-81d8-579e8b1bddf1"},"vehicle_type_id":"4","last_reported":1740075152,"current_range_meters":13600,"station_id":"ce4bgip2rcd13ifvqbb0","pricing_plan_id":"cebpf4jnsgd1na2vs0mg"},{"bike_id":"c9d71181-285e-4280-80f9-6929c6d16773","system_id":"levelo_inurba_marseille","lat":43.29195,"lon":5.39321,"is_reserved":false,"is_disabled":false,"rental_uris":{"android":"levelo://app?vid=c9d71181-285e-4280-80f9-6929c6d16773","ios":"levelo://app?vid=c9d71181-285e-4280-80f9-6929c6d16773"},"vehicle_type_id":"4","last_reported":1740075152,"current_range_meters":13600,"station_id":"ce4bh192rcd13ifvqdd0","pricing_plan_id":"cebpf4jnsgd1na2vs0mg"},{"bike_id":"97f6d55a-d8a8-4040-a560-a13f39e74ff7","system_id":"levelo_inurba_marseille","lat":43.29631,"lon":5.40599,"is_reserved":false,"is_disabled":false,"rental_uris":{"android":"levelo://app?vid=97f6d55a-d8a8-4040-a560-a13f39e74ff7","ios":"levelo://app?vid=97f6d55a-d8a8-4040-a560-a13f39e74ff7"},"vehicle_type_id":"4","last_reported":1740075152,"current_range_meters":13600,"station_id":"ce4bh0h2rcd13ifvqd60","pricing_plan_id":"cebpf4jnsgd1na2vs0mg"},{"bike_id":"149d8985-eade-45fb-8852-dcf993418135","system_id":"levelo_inurba_marseille","lat":43.29555,"lon":5.42276,"is_reserved":false,"is_disabled":false,"rental_uris":{"android":"levelo://app?vid=149d8985-eade-45fb-8852-dcf993418135","ios":"levelo://app?vid=149d8985-eade-45fb-8852-dcf993418135"},"vehicle_type_id":"4","last_reported":1740075152,"current_range_meters":13600,"station_id":"","pricing_plan_id":"cebpf4jnsgd1na2vs0mg"},{"bike_id":"e53b91c8-67fd-4f40-acea-7f7adf31cf25","system_id":"levelo_inurba_marseille","lat":43.29782,"lon":5.38125,"is_reserved":false,"is_disabled":false,"rental_uris":{"android":"levelo://app?vid=e53b91c8-67fd-4f40-acea-7f7adf31cf25","ios":"levelo://app?vid=e53b91c8-67fd-4f40-acea-7f7adf31cf25"},"vehicle_type_id":"4","last_reported":1740075152,"current_range_meters":13600,"station_id":"","pricing_plan_id":"cebpf4jnsgd1na2vs0mg"},{"bike_id":"50df017b-d245-4ca9-8ba2-fd8553e444e3","system_id":"levelo_inurba_marseille","lat":43.28081,"lon":5.39663,"is_reserved":false,"is_disabled":false,"rental_uris":{"android":"levelo://app?vid=50df017b-d245-4ca9-8ba2-fd8553e444e3","ios":"levelo://app?vid=50df017b-d245-4ca9-8ba2-fd8553e444e3"},"vehicle_type_id":"4","last_reported":1740075152,"current_range_meters":14000,"station_id":"ce4bho12rcd13ifvqh2g","pricing_plan_id":"cebpf4jnsgd1na2vs0mg"},{"bike_id":"2486da82-7ffd-4161-8efc-7239bc508ec4","system_id":"levelo_inurba_marseille","lat":43.29786,"lon":5.38095,"is_reserved":false,"is_disabled":false,"rental_uris":{"android":"levelo://app?vid=2486da82-7ffd-4161-8efc-7239bc508ec4","ios":"levelo://app?vid=2486da82-7ffd-4161-8efc-7239bc508ec4"},"vehicle_type_id":"4","last_reported":1740075152,"current_range_meters":13600,"station_id":"ce4bgip2rcd13ifvqbb0","pricing_plan_id":"cebpf4jnsgd1na2vs0mg"},{"bike_id":"0d5be857-56ac-4913-b913-59d54eb2f7f0","system_id":"levelo_inurba_marseille","lat":43.29283,"lon":5.40109,"is_reserved":false,"is_disabled":false,"rental_uris":{"android":"levelo://app?vid=0d5be857-56ac-4913-b913-59d54eb2f7f0","ios":"levelo://app?vid=0d5be857-56ac-4913-b913-59d54eb2f7f0"},"vehicle_type_id":"4","last_reported":1740075152,"current_range_meters":14000,"station_id":"ce4bh312rcd13ifvqdk0","pricing_plan_id":"cebpf4jnsgd1na2vs0mg"},{"bike_id":"4806791b-ee1b-41f0-b51b-acd58bdd592e","system_id":"levelo_inurba_marseille","lat":43.28164,"lon":5.4265,"is_reserved":false,"is_disabled":false,"rental_uris":{"android":"levelo://app?vid=4806791b-ee1b-41f0-b51b-acd58bdd592e","ios":"levelo://app?vid=4806791b-ee1b-41f0-b51b-acd58bdd592e"},"vehicle_type_id":"4","last_reported":1740075152,"current_range_meters":14000,"station_id":"ce4bhnh2rcd13ifvqgug","pricing_plan_id":"cebpf4jnsgd1na2vs0mg"},{"bike_id":"b7e342d5-b8f5-455e-bbc2-81fd94c6ffdb","system_id":"levelo_inurba_marseille","lat":43.30322,"lon":5.40432,"is_reserved":false,"is_disabled":false,"rental_uris":{"android":"levelo://app?vid=b7e342d5-b8f5-455e-bbc2-81fd94c6ffdb","ios":"levelo://app?vid=b7e342d5-b8f5-455e-bbc2-81fd94c6ffdb"},"vehicle_type_id":"4","last_reported":1740075152,"current_range_meters":14000,"station_id":"ce4bh012rcd13ifvqd10","pricing_plan_id":"cebpf4jnsgd1na2vs0mg"},{"bike_id":"3447e7b6-f8ed-4872-a45f-cf3cd80ed8ad","system_id":"levelo_inurba_marseille","lat":43.29737,"lon":5.37913,"is_reserved":false,"is_disabled":false,"rental_uris":{"android":"levelo://app?vid=3447e7b6-f8ed-4872-a45f-cf3cd80ed8ad","ios":"levelo://app?vid=3447e7b6-f8ed-4872-a45f-cf3cd80ed8ad"},"vehicle_type_id":"4","last_reported":1740075152,"current_range_meters":14000,"station_id":"ce4bguh2rcd13ifvqckg","pricing_plan_id":"cebpf4jnsgd1na2vs0mg"},{"bike_id":"f20e8ef0-9c37-42e7-ad7c-35a91175e3b8","system_id":"levelo_inurba_marseille","lat":43.28949,"lon":5.363893,"is_reserved":false,"is_disabled":false,"rental_uris":{"android":"levelo://app?vid=f20e8ef0-9c37-42e7-ad7c-35a91175e3b8","ios":"levelo://app?vid=f20e8ef0-9c37-42e7-ad7c-35a91175e3b8"},"vehicle_type_id":"4","last_reported":1740075152,"current_range_meters":14400,"station_id":"ce4bhc92rcd13ifvqetg","pricing_plan_id":"cebpf4jnsgd1na2vs0mg"},{"bike_id":"a1ba0ae9-d2a0-452e-b247-89974df4cae0","system_id":"levelo_inurba_marseille","lat":43.302765,"lon":5.405063,"is_reserved":false,"is_disabled":false,"rental_uris":{"android":"levelo://app?vid=a1ba0ae9-d2a0-452e-b247-89974df4cae0","ios":"levelo://app?vid=a1ba0ae9-d2a0-452e-b247-89974df4cae0"},"vehicle_type_id":"4","last_reported":1740075152,"current_range_meters":14400,"station_id":"ce4bh192rcd13ifvqdc0","pricing_plan_id":"cebpf4jnsgd1na2vs0mg"},{"bike_id":"9dcdd286-a213-44e7-8e38-a8b38e5da471","system_id":"levelo_inurba_marseille","lat":43.303,"lon":5.39211,"is_reserved":false,"is_disabled":false,"rental_uris":{"android":"levelo://app?vid=9dcdd286-a213-44e7-8e38-a8b38e5da471","ios":"levelo://app?vid=9dcdd286-a213-44e7-8e38-a8b38e5da471"},"vehicle_type_id":"4","last_reported":1740075152,"current_range_meters":14400,"station_id":"ce4bgkh2rcd13ifvqbk0","pricing_plan_id":"cebpf4jnsgd1na2vs0mg"},{"bike_id":"2c05b014-d74b-41e9-adb0-e2896d0c635e","system_id":"levelo_inurba_marseille","lat":43.26215,"lon":5.37437,"is_reserved":false,"is_disabled":false,"rental_uris":{"android":"levelo://app?vid=2c05b014-d74b-41e9-adb0-e2896d0c635e","ios":"levelo://app?vid=2c05b014-d74b-41e9-adb0-e2896d0c635e"},"vehicle_type_id":"4","last_reported":1740075152,"current_range_meters":14400,"station_id":"","pricing_plan_id":"cebpf4jnsgd1na2vs0mg"},{"bike_id":"2f3cc88d-4ed3-4535-99ec-d606dc8351ba","system_id":"levelo_inurba_marseille","lat":43.29897,"lon":5.39744,"is_reserved":false,"is_disabled":false,"rental_uris":{"android":"levelo://app?vid=2f3cc88d-4ed3-4535-99ec-d606dc8351ba","ios":"levelo://app?vid=2f3cc88d-4ed3-4535-99ec-d606dc8351ba"},"vehicle_type_id":"4","last_reported":1740075152,"current_range_meters":14800,"station_id":"","pricing_plan_id":"cebpf4jnsgd1na2vs0mg"},{"bike_id":"0a56f9d1-0a16-443d-8e0e-b767591ef2e6","system_id":"levelo_inurba_marseille","lat":43.26793,"lon":5.40275,"is_reserved":false,"is_disabled":false,"rental_uris":{"android":"levelo://app?vid=0a56f9d1-0a16-443d-8e0e-b767591ef2e6","ios":"levelo://app?vid=0a56f9d1-0a16-443d-8e0e-b767591ef2e6"},"vehicle_type_id":"4","last_reported":1740075152,"current_range_meters":14800,"station_id":"ce501612rcd8frsf0b60","pricing_plan_id":"cebpf4jnsgd1na2vs0mg"},{"bike_id":"ce0caea6-6d1c-48ef-b0eb-fae6199eb4e1","system_id":"levelo_inurba_marseille","lat":43.23066,"lon":5.35508,"is_reserved":false,"is_disabled":false,"rental_uris":{"android":"levelo://app?vid=ce0caea6-6d1c-48ef-b0eb-fae6199eb4e1","ios":"levelo://app?vid=ce0caea6-6d1c-48ef-b0eb-fae6199eb4e1"},"vehicle_type_id":"4","last_reported":1740075152,"current_range_meters":14800,"station_id":"cpo3342slgdg3j2ifvpg","pricing_plan_id":"cebpf4jnsgd1na2vs0mg"},{"bike_id":"00563060-1a71-4987-90eb-4b34f35b7432","system_id":"levelo_inurba_marseille","lat":43.3032,"lon":5.36891,"is_reserved":false,"is_disabled":false,"rental_uris":{"android":"levelo://app?vid=00563060-1a71-4987-90eb-4b34f35b7432","ios":"levelo://app?vid=00563060-1a71-4987-90eb-4b34f35b7432"},"vehicle_type_id":"4","last_reported":1740075152,"current_range_meters":14800,"station_id":"","pricing_plan_id":"cebpf4jnsgd1na2vs0mg"},{"bike_id":"7fd6ae63-e7b3-4553-8ba2-57f135372ad7","system_id":"levelo_inurba_marseille","lat":43.25091,"lon":5.39479,"is_reserved":false,"is_disabled":false,"rental_uris":{"android":"levelo://app?vid=7fd6ae63-e7b3-4553-8ba2-57f135372ad7","ios":"levelo://app?vid=7fd6ae63-e7b3-4553-8ba2-57f135372ad7"},"vehicle_type_id":"4","last_reported":1740075152,"current_range_meters":15200,"station_id":"ce4bhm12rcd13ifvqgkg","pricing_plan_id":"cebpf4jnsgd1na2vs0mg"},{"bike_id":"96be1cba-d396-475a-8e76-a9dce167897e","system_id":"levelo_inurba_marseille","lat":43.2707,"lon":5.4228,"is_reserved":false,"is_disabled":false,"rental_uris":{"android":"levelo://app?vid=96be1cba-d396-475a-8e76-a9dce167897e","ios":"levelo://app?vid=96be1cba-d396-475a-8e76-a9dce167897e"},"vehicle_type_id":"4","last_reported":1740075152,"current_range_meters":14800,"station_id":"ce4bhk92rcd13ifvqgb0","pricing_plan_id":"cebpf4jnsgd1na2vs0mg"},{"bike_id":"c80c6765-7847-4f7d-bb60-bf30ca1317a0","system_id":"levelo_inurba_marseille","lat":43.30712,"lon":5.39228,"is_reserved":false,"is_disabled":false,"rental_uris":{"android":"levelo://app?vid=c80c6765-7847-4f7d-bb60-bf30ca1317a0","ios":"levelo://app?vid=c80c6765-7847-4f7d-bb60-bf30ca1317a0"},"vehicle_type_id":"4","last_reported":1740075152,"current_range_meters":15200,"station_id":"","pricing_plan_id":"cebpf4jnsgd1na2vs0mg"},{"bike_id":"270393ae-3fe8-429d-bbd0-eb816f8f0f1c","system_id":"levelo_inurba_marseille","lat":43.28405,"lon":5.37509,"is_reserved":false,"is_disabled":false,"rental_uris":{"android":"levelo://app?vid=270393ae-3fe8-429d-bbd0-eb816f8f0f1c","ios":"levelo://app?vid=270393ae-3fe8-429d-bbd0-eb816f8f0f1c"},"vehicle_type_id":"4","last_reported":1740075152,"current_range_meters":15200,"station_id":"ce4bh412rcd13ifvqds0","pricing_plan_id":"cebpf4jnsgd1na2vs0mg"},{"bike_id":"6106393f-3645-48aa-b132-3d2def6b4674","system_id":"levelo_inurba_marseille","lat":43.30434,"lon":5.38086,"is_reserved":false,"is_disabled":false,"rental_uris":{"android":"levelo://app?vid=6106393f-3645-48aa-b132-3d2def6b4674","ios":"levelo://app?vid=6106393f-3645-48aa-b132-3d2def6b4674"},"vehicle_type_id":"4","last_reported":1740075152,"current_range_meters":15200,"station_id":"ce4bgv92rcd13ifvqcq0","pricing_plan_id":"cebpf4jnsgd1na2vs0mg"},{"bike_id":"f35f22ef-7a3c-465b-9c17-62662c5cd7d8","system_id":"levelo_inurba_marseille","lat":43.30534,"lon":5.38425,"is_reserved":false,"is_disabled":false,"rental_uris":{"android":"levelo://app?vid=f35f22ef-7a3c-465b-9c17-62662c5cd7d8","ios":"levelo://app?vid=f35f22ef-7a3c-465b-9c17-62662c5cd7d8"},"vehicle_type_id":"4","last_reported":1740075152,"current_range_meters":15200,"station_id":"ce4bgg92rcd13ifvqb30","pricing_plan_id":"cebpf4jnsgd1na2vs0mg"},{"bike_id":"76a1d742-84f2-439e-8b87-72eb73bf6cb6","system_id":"levelo_inurba_marseille","lat":43.26197,"lon":5.37451,"is_reserved":false,"is_disabled":false,"rental_uris":{"android":"levelo://app?vid=76a1d742-84f2-439e-8b87-72eb73bf6cb6","ios":"levelo://app?vid=76a1d742-84f2-439e-8b87-72eb73bf6cb6"},"vehicle_type_id":"4","last_reported":1740075152,"current_range_meters":15200,"station_id":"ce4bhgp2rcd13ifvqfc0","pricing_plan_id":"cebpf4jnsgd1na2vs0mg"},{"bike_id":"72fee8cd-a9b1-43e9-897b-357eb20a611b","system_id":"levelo_inurba_marseille","lat":43.23184,"lon":5.39998,"is_reserved":false,"is_disabled":false,"rental_uris":{"android":"levelo://app?vid=72fee8cd-a9b1-43e9-897b-357eb20a611b","ios":"levelo://app?vid=72fee8cd-a9b1-43e9-897b-357eb20a611b"},"vehicle_type_id":"4","last_reported":1740075152,"current_range_meters":15200,"station_id":"ce4bhn12rcd13ifvqgqg","pricing_plan_id":"cebpf4jnsgd1na2vs0mg"},{"bike_id":"a6d28000-06fb-48c6-b2c3-8c5afcf55f42","system_id":"levelo_inurba_marseille","lat":43.29299,"lon":5.37463,"is_reserved":false,"is_disabled":false,"rental_uris":{"android":"levelo://app?vid=a6d28000-06fb-48c6-b2c3-8c5afcf55f42","ios":"levelo://app?vid=a6d28000-06fb-48c6-b2c3-8c5afcf55f42"},"vehicle_type_id":"4","last_reported":1740075152,"current_range_meters":14800,"station_id":"ce4bgi12rcd13ifvqb70","pricing_plan_id":"cebpf4jnsgd1na2vs0mg"},{"bike_id":"3774a75a-f074-4684-b9d3-50abcc849c7b","system_id":"levelo_inurba_marseille","lat":43.2807,"lon":5.39641,"is_reserved":false,"is_disabled":false,"rental_uris":{"android":"levelo://app?vid=3774a75a-f074-4684-b9d3-50abcc849c7b","ios":"levelo://app?vid=3774a75a-f074-4684-b9d3-50abcc849c7b"},"vehicle_type_id":"4","last_reported":1740075152,"current_range_meters":16000,"station_id":"ce4bho12rcd13ifvqh2g","pricing_plan_id":"cebpf4jnsgd1na2vs0mg"},{"bike_id":"99dbdd3a-6928-40bb-be36-acc5fa11135a","system_id":"levelo_inurba_marseille","lat":43.28619,"lon":5.35104,"is_reserved":false,"is_disabled":false,"rental_uris":{"android":"levelo://app?vid=99dbdd3a-6928-40bb-be36-acc5fa11135a","ios":"levelo://app?vid=99dbdd3a-6928-40bb-be36-acc5fa11135a"},"vehicle_type_id":"4","last_reported":1740075152,"current_range_meters":16000,"station_id":"ce4bhch2rcd13ifvqeug","pricing_plan_id":"cebpf4jnsgd1na2vs0mg"},{"bike_id":"b057d0fa-33b6-477d-bbb3-30b06e8791c4","system_id":"levelo_inurba_marseille","lat":43.28416,"lon":5.37512,"is_reserved":false,"is_disabled":false,"rental_uris":{"android":"levelo://app?vid=b057d0fa-33b6-477d-bbb3-30b06e8791c4","ios":"levelo://app?vid=b057d0fa-33b6-477d-bbb3-30b06e8791c4"},"vehicle_type_id":"4","last_reported":1740075152,"current_range_meters":16000,"station_id":"ce4bh412rcd13ifvqds0","pricing_plan_id":"cebpf4jnsgd1na2vs0mg"},{"bike_id":"1736bdf7-065e-458a-8be8-137efe82e48a","system_id":"levelo_inurba_marseille","lat":43.33097,"lon":5.39055,"is_reserved":false,"is_disabled":false,"rental_uris":{"android":"levelo://app?vid=1736bdf7-065e-458a-8be8-137efe82e48a","ios":"levelo://app?vid=1736bdf7-065e-458a-8be8-137efe82e48a"},"vehicle_type_id":"4","last_reported":1740075152,"current_range_meters":16000,"station_id":"ce4bhqp2rcd13ifvqhog","pricing_plan_id":"cebpf4jnsgd1na2vs0mg"},{"bike_id":"448ef4bc-0a3f-4052-936b-810ccc2bed2c","system_id":"levelo_inurba_marseille","lat":43.31478,"lon":5.37312,"is_reserved":false,"is_disabled":false,"rental_uris":{"android":"levelo://app?vid=448ef4bc-0a3f-4052-936b-810ccc2bed2c","ios":"levelo://app?vid=448ef4bc-0a3f-4052-936b-810ccc2bed2c"},"vehicle_type_id":"4","last_reported":1740075152,"current_range_meters":16000,"station_id":"ce4bgt12rcd13ifvqcd0","pricing_plan_id":"cebpf4jnsgd1na2vs0mg"},{"bike_id":"5997cce3-a1b3-42c3-a1de-895e9c0110d4","system_id":"levelo_inurba_marseille","lat":43.28932,"lon":5.36636,"is_reserved":false,"is_disabled":false,"rental_uris":{"android":"levelo://app?vid=5997cce3-a1b3-42c3-a1de-895e9c0110d4","ios":"levelo://app?vid=5997cce3-a1b3-42c3-a1de-895e9c0110d4"},"vehicle_type_id":"4","last_reported":1740075152,"current_range_meters":16000,"station_id":"ce4bhap2rcd13ifvqek0","pricing_plan_id":"cebpf4jnsgd1na2vs0mg"},{"bike_id":"187b3da1-2431-4af5-ac70-cb67703298a6","system_id":"levelo_inurba_marseille","lat":43.29539,"lon":5.39398,"is_reserved":false,"is_disabled":false,"rental_uris":{"android":"levelo://app?vid=187b3da1-2431-4af5-ac70-cb67703298a6","ios":"levelo://app?vid=187b3da1-2431-4af5-ac70-cb67703298a6"},"vehicle_type_id":"4","last_reported":1740075152,"current_range_meters":16000,"station_id":"ce4bh292rcd13ifvqdf0","pricing_plan_id":"cebpf4jnsgd1na2vs0mg"},{"bike_id":"5e67d0e4-4da6-432f-84e6-74be1ce1c57d","system_id":"levelo_inurba_marseille","lat":43.28705,"lon":5.39986,"is_reserved":false,"is_disabled":false,"rental_uris":{"android":"levelo://app?vid=5e67d0e4-4da6-432f-84e6-74be1ce1c57d","ios":"levelo://app?vid=5e67d0e4-4da6-432f-84e6-74be1ce1c57d"},"vehicle_type_id":"4","last_reported":1740075152,"current_range_meters":16000,"station_id":"","pricing_plan_id":"cebpf4jnsgd1na2vs0mg"},{"bike_id":"b253065d-1074-4a51-bc2b-4e15dba86004","system_id":"levelo_inurba_marseille","lat":43.23072,"lon":5.35487,"is_reserved":false,"is_disabled":false,"rental_uris":{"android":"levelo://app?vid=b253065d-1074-4a51-bc2b-4e15dba86004","ios":"levelo://app?vid=b253065d-1074-4a51-bc2b-4e15dba86004"},"vehicle_type_id":"4","last_reported":1740075152,"current_range_meters":16000,"station_id":"cpo3342slgdg3j2ifvpg","pricing_plan_id":"cebpf4jnsgd1na2vs0mg"},{"bike_id":"ecc4e5c5-1dcd-4747-818d-87cc469291e1","system_id":"levelo_inurba_marseille","lat":43.29187,"lon":5.39306,"is_reserved":false,"is_disabled":false,"rental_uris":{"android":"levelo://app?vid=ecc4e5c5-1dcd-4747-818d-87cc469291e1","ios":"levelo://app?vid=ecc4e5c5-1dcd-4747-818d-87cc469291e1"},"vehicle_type_id":"4","last_reported":1740075152,"current_range_meters":16400,"station_id":"ce4bh192rcd13ifvqdd0","pricing_plan_id":"cebpf4jnsgd1na2vs0mg"},{"bike_id":"2c6621b6-bd4f-459c-862c-00c024792fa7","system_id":"levelo_inurba_marseille","lat":43.2862,"lon":5.35093,"is_reserved":false,"is_disabled":false,"rental_uris":{"android":"levelo://app?vid=2c6621b6-bd4f-459c-862c-00c024792fa7","ios":"levelo://app?vid=2c6621b6-bd4f-459c-862c-00c024792fa7"},"vehicle_type_id":"4","last_reported":1740075152,"current_range_meters":16400,"station_id":"ce4bhch2rcd13ifvqeug","pricing_plan_id":"cebpf4jnsgd1na2vs0mg"},{"bike_id":"5832a44b-4ee5-4db3-b7e4-0d8bd95f6433","system_id":"levelo_inurba_marseille","lat":43.29265,"lon":5.40898,"is_reserved":false,"is_disabled":false,"rental_uris":{"android":"levelo://app?vid=5832a44b-4ee5-4db3-b7e4-0d8bd95f6433","ios":"levelo://app?vid=5832a44b-4ee5-4db3-b7e4-0d8bd95f6433"},"vehicle_type_id":"4","last_reported":1740075152,"current_range_meters":16400,"station_id":"ce4bh192rcd13ifvqdc0","pricing_plan_id":"cebpf4jnsgd1na2vs0mg"},{"bike_id":"94b3215c-ea3b-4ff2-905b-12606a360285","system_id":"levelo_inurba_marseille","lat":43.29778,"lon":5.38092,"is_reserved":false,"is_disabled":false,"rental_uris":{"android":"levelo://app?vid=94b3215c-ea3b-4ff2-905b-12606a360285","ios":"levelo://app?vid=94b3215c-ea3b-4ff2-905b-12606a360285"},"vehicle_type_id":"4","last_reported":1740075152,"current_range_meters":16400,"station_id":"ce4bgip2rcd13ifvqbb0","pricing_plan_id":"cebpf4jnsgd1na2vs0mg"},{"bike_id":"cc6f2e87-35b3-47bb-8103-9bd75abaf1e9","system_id":"levelo_inurba_marseille","lat":43.24683,"lon":5.38123,"is_reserved":false,"is_disabled":false,"rental_uris":{"android":"levelo://app?vid=cc6f2e87-35b3-47bb-8103-9bd75abaf1e9","ios":"levelo://app?vid=cc6f2e87-35b3-47bb-8103-9bd75abaf1e9"},"vehicle_type_id":"4","last_reported":1740075152,"current_range_meters":16400,"station_id":"ce4bhih2rcd13ifvqfr0","pricing_plan_id":"cebpf4jnsgd1na2vs0mg"},{"bike_id":"6230cbcc-874e-4492-8a61-1b869373c80c","system_id":"levelo_inurba_marseille","lat":43.3088,"lon":5.37195,"is_reserved":false,"is_disabled":false,"rental_uris":{"android":"levelo://app?vid=6230cbcc-874e-4492-8a61-1b869373c80c","ios":"levelo://app?vid=6230cbcc-874e-4492-8a61-1b869373c80c"},"vehicle_type_id":"4","last_reported":1740075152,"current_range_meters":16400,"station_id":"ce4bguh2rcd13ifvqckg","pricing_plan_id":"cebpf4jnsgd1na2vs0mg"},{"bike_id":"87891dce-3352-4418-9015-a26c990ecd6e","system_id":"levelo_inurba_marseille","lat":43.23066,"lon":5.35484,"is_reserved":false,"is_disabled":false,"rental_uris":{"android":"levelo://app?vid=87891dce-3352-4418-9015-a26c990ecd6e","ios":"levelo://app?vid=87891dce-3352-4418-9015-a26c990ecd6e"},"vehicle_type_id":"4","last_reported":1740075152,"current_range_meters":16400,"station_id":"cpo3342slgdg3j2ifvpg","pricing_plan_id":"cebpf4jnsgd1na2vs0mg"},{"bike_id":"790b0ff7-55c5-4c35-9f2a-78c4076d7d17","system_id":"levelo_inurba_marseille","lat":43.27974,"lon":5.38494,"is_reserved":false,"is_disabled":false,"rental_uris":{"android":"levelo://app?vid=790b0ff7-55c5-4c35-9f2a-78c4076d7d17","ios":"levelo://app?vid=790b0ff7-55c5-4c35-9f2a-78c4076d7d17"},"vehicle_type_id":"4","last_reported":1740075152,"current_range_meters":16400,"station_id":"","pricing_plan_id":"cebpf4jnsgd1na2vs0mg"},{"bike_id":"5c979825-5eb1-42ff-ac54-c61e39783a0e","system_id":"levelo_inurba_marseille","lat":43.29831,"lon":5.38088,"is_reserved":false,"is_disabled":false,"rental_uris":{"android":"levelo://app?vid=5c979825-5eb1-42ff-ac54-c61e39783a0e","ios":"levelo://app?vid=5c979825-5eb1-42ff-ac54-c61e39783a0e"},"vehicle_type_id":"4","last_reported":1740075152,"current_range_meters":16400,"station_id":"ce4bgip2rcd13ifvqbb0","pricing_plan_id":"cebpf4jnsgd1na2vs0mg"},{"bike_id":"b57e9181-7c9b-4882-9c3a-cf4734683b35","system_id":"levelo_inurba_marseille","lat":43.29032,"lon":5.38647,"is_reserved":false,"is_disabled":false,"rental_uris":{"android":"levelo://app?vid=b57e9181-7c9b-4882-9c3a-cf4734683b35","ios":"levelo://app?vid=b57e9181-7c9b-4882-9c3a-cf4734683b35"},"vehicle_type_id":"4","last_reported":1740075152,"current_range_meters":16400,"station_id":"ce4bh4p2rcd13ifvqe0g","pricing_plan_id":"cebpf4jnsgd1na2vs0mg"},{"bike_id":"282a2cd4-2ba8-46b7-a10c-3ff79cd4fcd2","system_id":"levelo_inurba_marseille","lat":43.23195,"lon":5.35548,"is_reserved":false,"is_disabled":false,"rental_uris":{"android":"levelo://app?vid=282a2cd4-2ba8-46b7-a10c-3ff79cd4fcd2","ios":"levelo://app?vid=282a2cd4-2ba8-46b7-a10c-3ff79cd4fcd2"},"vehicle_type_id":"4","last_reported":1740075152,"current_range_meters":16400,"station_id":"","pricing_plan_id":"cebpf4jnsgd1na2vs0mg"},{"bike_id":"19b817e1-b268-47e2-953e-34b4241c6f49","system_id":"levelo_inurba_marseille","lat":43.29276,"lon":5.38441,"is_reserved":false,"is_disabled":false,"rental_uris":{"android":"levelo://app?vid=19b817e1-b268-47e2-953e-34b4241c6f49","ios":"levelo://app?vid=19b817e1-b268-47e2-953e-34b4241c6f49"},"vehicle_type_id":"4","last_reported":1740075152,"current_range_meters":16400,"station_id":"ce4bh692rcd13ifvqea0","pricing_plan_id":"cebpf4jnsgd1na2vs0mg"},{"bike_id":"4347ac42-d6bd-4898-bb54-db9da5fa21c6","system_id":"levelo_inurba_marseille","lat":43.26822,"lon":5.40216,"is_reserved":false,"is_disabled":false,"rental_uris":{"android":"levelo://app?vid=4347ac42-d6bd-4898-bb54-db9da5fa21c6","ios":"levelo://app?vid=4347ac42-d6bd-4898-bb54-db9da5fa21c6"},"vehicle_type_id":"4","last_reported":1740075152,"current_range_meters":16400,"station_id":"ce501612rcd8frsf0b60","pricing_plan_id":"cebpf4jnsgd1na2vs0mg"},{"bike_id":"fa00d1fd-d22e-4a2b-8677-35d44364243d","system_id":"levelo_inurba_marseille","lat":43.29417,"lon":5.38623,"is_reserved":false,"is_disabled":false,"rental_uris":{"android":"levelo://app?vid=fa00d1fd-d22e-4a2b-8677-35d44364243d","ios":"levelo://app?vid=fa00d1fd-d22e-4a2b-8677-35d44364243d"},"vehicle_type_id":"4","last_reported":1740075152,"current_range_meters":16400,"station_id":"ce4bh2h2rcd13ifvqdh0","pricing_plan_id":"cebpf4jnsgd1na2vs0mg"},{"bike_id":"4e11b30d-0226-4b04-813f-4404772688cd","system_id":"levelo_inurba_marseille","lat":43.29001,"lon":5.37143,"is_reserved":false,"is_disabled":false,"rental_uris":{"android":"levelo://app?vid=4e11b30d-0226-4b04-813f-4404772688cd","ios":"levelo://app?vid=4e11b30d-0226-4b04-813f-4404772688cd"},"vehicle_type_id":"4","last_reported":1740075152,"current_range_meters":16400,"station_id":"","pricing_plan_id":"cebpf4jnsgd1na2vs0mg"},{"bike_id":"1773ae1e-c63b-4de8-97f8-67d298e19fcc","system_id":"levelo_inurba_marseille","lat":43.28852,"lon":5.35856,"is_reserved":false,"is_disabled":false,"rental_uris":{"android":"levelo://app?vid=1773ae1e-c63b-4de8-97f8-67d298e19fcc","ios":"levelo://app?vid=1773ae1e-c63b-4de8-97f8-67d298e19fcc"},"vehicle_type_id":"4","last_reported":1740075152,"current_range_meters":16800,"station_id":"ce4bhb12rcd13ifvqem0","pricing_plan_id":"cebpf4jnsgd1na2vs0mg"},{"bike_id":"75e72810-f8b3-4e07-98df-dc02a0a244e4","system_id":"levelo_inurba_marseille","lat":43.30268,"lon":5.40033,"is_reserved":false,"is_disabled":false,"rental_uris":{"android":"levelo://app?vid=75e72810-f8b3-4e07-98df-dc02a0a244e4","ios":"levelo://app?vid=75e72810-f8b3-4e07-98df-dc02a0a244e4"},"vehicle_type_id":"4","last_reported":1740075152,"current_range_meters":16800,"station_id":"ce4bgvh2rcd13ifvqcs0","pricing_plan_id":"cebpf4jnsgd1na2vs0mg"},{"bike_id":"56a2ff80-29ee-42ff-98b1-360f08c4ab59","system_id":"levelo_inurba_marseille","lat":43.29868,"lon":5.3891,"is_reserved":false,"is_disabled":false,"rental_uris":{"android":"levelo://app?vid=56a2ff80-29ee-42ff-98b1-360f08c4ab59","ios":"levelo://app?vid=56a2ff80-29ee-42ff-98b1-360f08c4ab59"},"vehicle_type_id":"4","last_reported":1740075152,"current_range_meters":16800,"station_id":"ce4bh392rcd13ifvqdl0","pricing_plan_id":"cebpf4jnsgd1na2vs0mg"},{"bike_id":"33ff19f3-bb81-43c1-8a36-67b2bc2386f0","system_id":"levelo_inurba_marseille","lat":43.289276,"lon":5.366436,"is_reserved":false,"is_disabled":false,"rental_uris":{"android":"levelo://app?vid=33ff19f3-bb81-43c1-8a36-67b2bc2386f0","ios":"levelo://app?vid=33ff19f3-bb81-43c1-8a36-67b2bc2386f0"},"vehicle_type_id":"4","last_reported":1740075152,"current_range_meters":16400,"station_id":"ce4bhi12rcd13ifvqfo0","pricing_plan_id":"cebpf4jnsgd1na2vs0mg"},{"bike_id":"7e0da6c8-7bc9-400b-a11b-694d2fdd997b","system_id":"levelo_inurba_marseille","lat":43.25122,"lon":5.39464,"is_reserved":false,"is_disabled":false,"rental_uris":{"android":"levelo://app?vid=7e0da6c8-7bc9-400b-a11b-694d2fdd997b","ios":"levelo://app?vid=7e0da6c8-7bc9-400b-a11b-694d2fdd997b"},"vehicle_type_id":"4","last_reported":1740075152,"current_range_meters":16800,"station_id":"ce4bhm12rcd13ifvqgkg","pricing_plan_id":"cebpf4jnsgd1na2vs0mg"},{"bike_id":"3a18a060-43b3-487c-bb23-8493264d5ba4","system_id":"levelo_inurba_marseille","lat":43.2418,"lon":5.36407,"is_reserved":false,"is_disabled":true,"rental_uris":{"android":"levelo://app?vid=3a18a060-43b3-487c-bb23-8493264d5ba4","ios":"levelo://app?vid=3a18a060-43b3-487c-bb23-8493264d5ba4"},"vehicle_type_id":"4","last_reported":1740075152,"current_range_meters":17200,"station_id":"","pricing_plan_id":"cebpf4jnsgd1na2vs0mg"},{"bike_id":"33da85fe-027b-4cbe-9039-732be23d7f91","system_id":"levelo_inurba_marseille","lat":43.26956,"lon":5.38668,"is_reserved":false,"is_disabled":false,"rental_uris":{"android":"levelo://app?vid=33da85fe-027b-4cbe-9039-732be23d7f91","ios":"levelo://app?vid=33da85fe-027b-4cbe-9039-732be23d7f91"},"vehicle_type_id":"4","last_reported":1740075152,"current_range_meters":16400,"station_id":"ce4bhh92rcd13ifvqfh0","pricing_plan_id":"cebpf4jnsgd1na2vs0mg"},{"bike_id":"6e7bc9e4-4f1a-4318-93da-1bc3ecd960b8","system_id":"levelo_inurba_marseille","lat":43.26986,"lon":5.402,"is_reserved":false,"is_disabled":false,"rental_uris":{"android":"levelo://app?vid=6e7bc9e4-4f1a-4318-93da-1bc3ecd960b8","ios":"levelo://app?vid=6e7bc9e4-4f1a-4318-93da-1bc3ecd960b8"},"vehicle_type_id":"4","last_reported":1740075152,"current_range_meters":17200,"station_id":"cjm6bp8fraef2m0cb0m0","pricing_plan_id":"cebpf4jnsgd1na2vs0mg"},{"bike_id":"e02539df-3bf4-4e30-b5f5-5ccd05e5593e","system_id":"levelo_inurba_marseille","lat":43.24805,"lon":5.37453,"is_reserved":false,"is_disabled":false,"rental_uris":{"android":"levelo://app?vid=e02539df-3bf4-4e30-b5f5-5ccd05e5593e","ios":"levelo://app?vid=e02539df-3bf4-4e30-b5f5-5ccd05e5593e"},"vehicle_type_id":"4","last_reported":1740075152,"current_range_meters":17200,"station_id":"ce4bhgh2rcd13ifvqfb0","pricing_plan_id":"cebpf4jnsgd1na2vs0mg"},{"bike_id":"f800bf4a-a88e-43ea-b4b8-11875d2f53c7","system_id":"levelo_inurba_marseille","lat":43.24819,"lon":5.37452,"is_reserved":false,"is_disabled":true,"rental_uris":{"android":"levelo://app?vid=f800bf4a-a88e-43ea-b4b8-11875d2f53c7","ios":"levelo://app?vid=f800bf4a-a88e-43ea-b4b8-11875d2f53c7"},"vehicle_type_id":"4","last_reported":1740075152,"current_range_meters":17200,"station_id":"","pricing_plan_id":"cebpf4jnsgd1na2vs0mg"},{"bike_id":"9ff6ed40-4709-4842-a7fc-15228b5d1b5a","system_id":"levelo_inurba_marseille","lat":43.28101,"lon":5.3784,"is_reserved":false,"is_disabled":false,"rental_uris":{"android":"levelo://app?vid=9ff6ed40-4709-4842-a7fc-15228b5d1b5a","ios":"levelo://app?vid=9ff6ed40-4709-4842-a7fc-15228b5d1b5a"},"vehicle_type_id":"4","last_reported":1740075152,"current_range_meters":17200,"station_id":"ce4bha12rcd13ifvqee0","pricing_plan_id":"cebpf4jnsgd1na2vs0mg"},{"bike_id":"44e45a0d-80e4-4777-b789-c9ff84761c0c","system_id":"levelo_inurba_marseille","lat":43.29282,"lon":5.3943,"is_reserved":false,"is_disabled":false,"rental_uris":{"android":"levelo://app?vid=44e45a0d-80e4-4777-b789-c9ff84761c0c","ios":"levelo://app?vid=44e45a0d-80e4-4777-b789-c9ff84761c0c"},"vehicle_type_id":"4","last_reported":1740075152,"current_range_meters":17200,"station_id":"","pricing_plan_id":"cebpf4jnsgd1na2vs0mg"},{"bike_id":"6a41d4d5-6ce6-4940-8b60-f1b1f72587c0","system_id":"levelo_inurba_marseille","lat":43.23072,"lon":5.35488,"is_reserved":false,"is_disabled":false,"rental_uris":{"android":"levelo://app?vid=6a41d4d5-6ce6-4940-8b60-f1b1f72587c0","ios":"levelo://app?vid=6a41d4d5-6ce6-4940-8b60-f1b1f72587c0"},"vehicle_type_id":"4","last_reported":1740075152,"current_range_meters":17200,"station_id":"cpo3342slgdg3j2ifvpg","pricing_plan_id":"cebpf4jnsgd1na2vs0mg"},{"bike_id":"39911775-b352-437f-a831-cbaa657f922a","system_id":"levelo_inurba_marseille","lat":43.28708,"lon":5.37381,"is_reserved":false,"is_disabled":false,"rental_uris":{"android":"levelo://app?vid=39911775-b352-437f-a831-cbaa657f922a","ios":"levelo://app?vid=39911775-b352-437f-a831-cbaa657f922a"},"vehicle_type_id":"4","last_reported":1740075152,"current_range_meters":17200,"station_id":"ce4bh3p2rcd13ifvqdq0","pricing_plan_id":"cebpf4jnsgd1na2vs0mg"},{"bike_id":"ab37f0d8-0799-4c14-bfbc-dd700bb0d607","system_id":"levelo_inurba_marseille","lat":43.29279,"lon":5.3745,"is_reserved":false,"is_disabled":false,"rental_uris":{"android":"levelo://app?vid=ab37f0d8-0799-4c14-bfbc-dd700bb0d607","ios":"levelo://app?vid=ab37f0d8-0799-4c14-bfbc-dd700bb0d607"},"vehicle_type_id":"4","last_reported":1740075152,"current_range_meters":17200,"station_id":"ce4bgi12rcd13ifvqb70","pricing_plan_id":"cebpf4jnsgd1na2vs0mg"},{"bike_id":"48bd32f5-5372-4c45-b865-3dbde016939c","system_id":"levelo_inurba_marseille","lat":43.26562,"lon":5.39034,"is_reserved":false,"is_disabled":false,"rental_uris":{"android":"levelo://app?vid=48bd32f5-5372-4c45-b865-3dbde016939c","ios":"levelo://app?vid=48bd32f5-5372-4c45-b865-3dbde016939c"},"vehicle_type_id":"4","last_reported":1740075152,"current_range_meters":17600,"station_id":"ce4bhe12rcd13ifvqf30","pricing_plan_id":"cebpf4jnsgd1na2vs0mg"},{"bike_id":"12ef8137-2fe9-49ab-b515-2d8a19e68049","system_id":"levelo_inurba_marseille","lat":43.28866,"lon":5.35858,"is_reserved":false,"is_disabled":false,"rental_uris":{"android":"levelo://app?vid=12ef8137-2fe9-49ab-b515-2d8a19e68049","ios":"levelo://app?vid=12ef8137-2fe9-49ab-b515-2d8a19e68049"},"vehicle_type_id":"4","last_reported":1740075152,"current_range_meters":17600,"station_id":"ce4bhb12rcd13ifvqem0","pricing_plan_id":"cebpf4jnsgd1na2vs0mg"},{"bike_id":"99e8db59-f48c-4d67-9859-2d75762818c4","system_id":"levelo_inurba_marseille","lat":43.29607,"lon":5.38104,"is_reserved":false,"is_disabled":false,"rental_uris":{"android":"levelo://app?vid=99e8db59-f48c-4d67-9859-2d75762818c4","ios":"levelo://app?vid=99e8db59-f48c-4d67-9859-2d75762818c4"},"vehicle_type_id":"4","last_reported":1740075152,"current_range_meters":17600,"station_id":"ce4bgl12rcd13ifvqbo0","pricing_plan_id":"cebpf4jnsgd1na2vs0mg"},{"bike_id":"89fb68ec-1aa9-4c97-8b89-632e005ea687","system_id":"levelo_inurba_marseille","lat":43.337444,"lon":5.374475,"is_reserved":false,"is_disabled":true,"rental_uris":{"android":"levelo://app?vid=89fb68ec-1aa9-4c97-8b89-632e005ea687","ios":"levelo://app?vid=89fb68ec-1aa9-4c97-8b89-632e005ea687"},"vehicle_type_id":"4","last_reported":1740075152,"current_range_meters":17600,"station_id":"","pricing_plan_id":"cebpf4jnsgd1na2vs0mg"},{"bike_id":"7aab3632-37c2-497b-ab19-dde828ce2e03","system_id":"levelo_inurba_marseille","lat":43.32365,"lon":5.3888,"is_reserved":false,"is_disabled":false,"rental_uris":{"android":"levelo://app?vid=7aab3632-37c2-497b-ab19-dde828ce2e03","ios":"levelo://app?vid=7aab3632-37c2-497b-ab19-dde828ce2e03"},"vehicle_type_id":"4","last_reported":1740075152,"current_range_meters":17600,"station_id":"ce4bhqp2rcd13ifvqhog","pricing_plan_id":"cebpf4jnsgd1na2vs0mg"},{"bike_id":"e3273c49-1c18-4741-8511-75117c073e6e","system_id":"levelo_inurba_marseille","lat":43.295277,"lon":5.385442,"is_reserved":false,"is_disabled":false,"rental_uris":{"android":"levelo://app?vid=e3273c49-1c18-4741-8511-75117c073e6e","ios":"levelo://app?vid=e3273c49-1c18-4741-8511-75117c073e6e"},"vehicle_type_id":"4","last_reported":1740075152,"current_range_meters":17600,"station_id":"ce4bgh92rcd13ifvqb40","pricing_plan_id":"cebpf4jnsgd1na2vs0mg"},{"bike_id":"17d4c702-d41d-4cc4-a1f5-0350bc489990","system_id":"levelo_inurba_marseille","lat":43.28152,"lon":5.42646,"is_reserved":false,"is_disabled":false,"rental_uris":{"android":"levelo://app?vid=17d4c702-d41d-4cc4-a1f5-0350bc489990","ios":"levelo://app?vid=17d4c702-d41d-4cc4-a1f5-0350bc489990"},"vehicle_type_id":"4","last_reported":1740075152,"current_range_meters":18000,"station_id":"ce4bhnh2rcd13ifvqgug","pricing_plan_id":"cebpf4jnsgd1na2vs0mg"},{"bike_id":"d0052063-fdf7-4feb-a527-39f71f5fc82e","system_id":"levelo_inurba_marseille","lat":43.29424,"lon":5.38611,"is_reserved":false,"is_disabled":false,"rental_uris":{"android":"levelo://app?vid=d0052063-fdf7-4feb-a527-39f71f5fc82e","ios":"levelo://app?vid=d0052063-fdf7-4feb-a527-39f71f5fc82e"},"vehicle_type_id":"4","last_reported":1740075152,"current_range_meters":18000,"station_id":"","pricing_plan_id":"cebpf4jnsgd1na2vs0mg"},{"bike_id":"d5cd42a6-63a4-480c-b8df-eab7241a85a4","system_id":"levelo_inurba_marseille","lat":43.27917,"lon":5.39575,"is_reserved":false,"is_disabled":false,"rental_uris":{"android":"levelo://app?vid=d5cd42a6-63a4-480c-b8df-eab7241a85a4","ios":"levelo://app?vid=d5cd42a6-63a4-480c-b8df-eab7241a85a4"},"vehicle_type_id":"4","last_reported":1740075152,"current_range_meters":18000,"station_id":"ce4bhf92rcd13ifvqf40","pricing_plan_id":"cebpf4jnsgd1na2vs0mg"},{"bike_id":"61302aa8-ef8c-41fc-8176-7e64d05374d5","system_id":"levelo_inurba_marseille","lat":43.29006,"lon":5.38626,"is_reserved":false,"is_disabled":false,"rental_uris":{"android":"levelo://app?vid=61302aa8-ef8c-41fc-8176-7e64d05374d5","ios":"levelo://app?vid=61302aa8-ef8c-41fc-8176-7e64d05374d5"},"vehicle_type_id":"4","last_reported":1740075152,"current_range_meters":18000,"station_id":"ce4bh4p2rcd13ifvqe0g","pricing_plan_id":"cebpf4jnsgd1na2vs0mg"},{"bike_id":"2adc5cea-c5b1-4244-93fa-680922a7766b","system_id":"levelo_inurba_marseille","lat":43.291992,"lon":5.393255,"is_reserved":false,"is_disabled":false,"rental_uris":{"android":"levelo://app?vid=2adc5cea-c5b1-4244-93fa-680922a7766b","ios":"levelo://app?vid=2adc5cea-c5b1-4244-93fa-680922a7766b"},"vehicle_type_id":"4","last_reported":1740075152,"current_range_meters":18000,"station_id":"ce4bh192rcd13ifvqdd0","pricing_plan_id":"cebpf4jnsgd1na2vs0mg"},{"bike_id":"7410656e-9c61-4333-a8a9-69307f7b5b1d","system_id":"levelo_inurba_marseille","lat":43.292842,"lon":5.401964,"is_reserved":false,"is_disabled":false,"rental_uris":{"android":"levelo://app?vid=7410656e-9c61-4333-a8a9-69307f7b5b1d","ios":"levelo://app?vid=7410656e-9c61-4333-a8a9-69307f7b5b1d"},"vehicle_type_id":"4","last_reported":1740075152,"current_range_meters":18000,"station_id":"ce4bh092rcd13ifvqd30","pricing_plan_id":"cebpf4jnsgd1na2vs0mg"},{"bike_id":"df5ae48a-c324-4b45-93b7-11b77bf7c6f8","system_id":"levelo_inurba_marseille","lat":43.2439,"lon":5.37063,"is_reserved":false,"is_disabled":false,"rental_uris":{"android":"levelo://app?vid=df5ae48a-c324-4b45-93b7-11b77bf7c6f8","ios":"levelo://app?vid=df5ae48a-c324-4b45-93b7-11b77bf7c6f8"},"vehicle_type_id":"4","last_reported":1740075152,"current_range_meters":18000,"station_id":"ce4bhhh2rcd13ifvqfk0","pricing_plan_id":"cebpf4jnsgd1na2vs0mg"},{"bike_id":"a090cefe-6a97-488b-bc7f-442e05ca9c43","system_id":"levelo_inurba_marseille","lat":43.29908,"lon":5.39755,"is_reserved":false,"is_disabled":false,"rental_uris":{"android":"levelo://app?vid=a090cefe-6a97-488b-bc7f-442e05ca9c43","ios":"levelo://app?vid=a090cefe-6a97-488b-bc7f-442e05ca9c43"},"vehicle_type_id":"4","last_reported":1740075152,"current_range_meters":18000,"station_id":"ce4bh0h2rcd13ifvqd50","pricing_plan_id":"cebpf4jnsgd1na2vs0mg"},{"bike_id":"f4475fe1-635f-4856-bd60-7b2585c8361d","system_id":"levelo_inurba_marseille","lat":43.27997,"lon":5.41658,"is_reserved":false,"is_disabled":false,"rental_uris":{"android":"levelo://app?vid=f4475fe1-635f-4856-bd60-7b2585c8361d","ios":"levelo://app?vid=f4475fe1-635f-4856-bd60-7b2585c8361d"},"vehicle_type_id":"4","last_reported":1740075152,"current_range_meters":18000,"station_id":"ce4bho12rcd13ifvqh1g","pricing_plan_id":"cebpf4jnsgd1na2vs0mg"},{"bike_id":"59b59c12-db6e-4917-8115-03bf8cf627f6","system_id":"levelo_inurba_marseille","lat":43.27997,"lon":5.41655,"is_reserved":false,"is_disabled":false,"rental_uris":{"android":"levelo://app?vid=59b59c12-db6e-4917-8115-03bf8cf627f6","ios":"levelo://app?vid=59b59c12-db6e-4917-8115-03bf8cf627f6"},"vehicle_type_id":"4","last_reported":1740075152,"current_range_meters":18000,"station_id":"ce4bho12rcd13ifvqh1g","pricing_plan_id":"cebpf4jnsgd1na2vs0mg"},{"bike_id":"6a6be621-8d80-4e4e-92dc-6b1bf1433232","system_id":"levelo_inurba_marseille","lat":43.26931,"lon":5.38917,"is_reserved":false,"is_disabled":false,"rental_uris":{"android":"levelo://app?vid=6a6be621-8d80-4e4e-92dc-6b1bf1433232","ios":"levelo://app?vid=6a6be621-8d80-4e4e-92dc-6b1bf1433232"},"vehicle_type_id":"4","last_reported":1740075152,"current_range_meters":18800,"station_id":"ce4bhhh2rcd13ifvqfl0","pricing_plan_id":"cebpf4jnsgd1na2vs0mg"},{"bike_id":"6f94a753-5725-40cb-bb19-7452eb5d8b1a","system_id":"levelo_inurba_marseille","lat":43.30214,"lon":5.39465,"is_reserved":false,"is_disabled":false,"rental_uris":{"android":"levelo://app?vid=6f94a753-5725-40cb-bb19-7452eb5d8b1a","ios":"levelo://app?vid=6f94a753-5725-40cb-bb19-7452eb5d8b1a"},"vehicle_type_id":"4","last_reported":1740075152,"current_range_meters":18800,"station_id":"ce4bh0p2rcd13ifvqd70","pricing_plan_id":"cebpf4jnsgd1na2vs0mg"},{"bike_id":"ebe8f273-5739-4753-ba61-e13e57e5e3ea","system_id":"levelo_inurba_marseille","lat":43.265747,"lon":5.390208,"is_reserved":false,"is_disabled":true,"rental_uris":{"android":"levelo://app?vid=ebe8f273-5739-4753-ba61-e13e57e5e3ea","ios":"levelo://app?vid=ebe8f273-5739-4753-ba61-e13e57e5e3ea"},"vehicle_type_id":"4","last_reported":1740075152,"current_range_meters":18800,"station_id":"","pricing_plan_id":"cebpf4jnsgd1na2vs0mg"},{"bike_id":"5dd6b8b1-057d-4c1d-861e-f25327f17091","system_id":"levelo_inurba_marseille","lat":43.2653,"lon":5.39526,"is_reserved":false,"is_disabled":false,"rental_uris":{"android":"levelo://app?vid=5dd6b8b1-057d-4c1d-861e-f25327f17091","ios":"levelo://app?vid=5dd6b8b1-057d-4c1d-861e-f25327f17091"},"vehicle_type_id":"4","last_reported":1740075152,"current_range_meters":18800,"station_id":"","pricing_plan_id":"cebpf4jnsgd1na2vs0mg"},{"bike_id":"9c89e956-4fce-4dcc-b1fe-489c2104a1b9","system_id":"levelo_inurba_marseille","lat":43.30658,"lon":5.40074,"is_reserved":false,"is_disabled":false,"rental_uris":{"android":"levelo://app?vid=9c89e956-4fce-4dcc-b1fe-489c2104a1b9","ios":"levelo://app?vid=9c89e956-4fce-4dcc-b1fe-489c2104a1b9"},"vehicle_type_id":"4","last_reported":1740075152,"current_range_meters":18800,"station_id":"ce4bh112rcd13ifvqda0","pricing_plan_id":"cebpf4jnsgd1na2vs0mg"},{"bike_id":"30c0a501-05f1-4ada-a5b7-e33b630bcd0e","system_id":"levelo_inurba_marseille","lat":43.29646,"lon":5.37769,"is_reserved":false,"is_disabled":false,"rental_uris":{"android":"levelo://app?vid=30c0a501-05f1-4ada-a5b7-e33b630bcd0e","ios":"levelo://app?vid=30c0a501-05f1-4ada-a5b7-e33b630bcd0e"},"vehicle_type_id":"4","last_reported":1740075152,"current_range_meters":18800,"station_id":"ce4bgi92rcd13ifvqb90","pricing_plan_id":"cebpf4jnsgd1na2vs0mg"},{"bike_id":"5eed0ce0-9e7c-40f1-9590-7726430ef7f6","system_id":"levelo_inurba_marseille","lat":43.2954,"lon":5.38535,"is_reserved":false,"is_disabled":false,"rental_uris":{"android":"levelo://app?vid=5eed0ce0-9e7c-40f1-9590-7726430ef7f6","ios":"levelo://app?vid=5eed0ce0-9e7c-40f1-9590-7726430ef7f6"},"vehicle_type_id":"4","last_reported":1740075152,"current_range_meters":18800,"station_id":"ce4bgih2rcd13ifvqba0","pricing_plan_id":"cebpf4jnsgd1na2vs0mg"},{"bike_id":"89ed8df0-ea17-4497-b88f-741f9f276e88","system_id":"levelo_inurba_marseille","lat":43.2796,"lon":5.38724,"is_reserved":false,"is_disabled":false,"rental_uris":{"android":"levelo://app?vid=89ed8df0-ea17-4497-b88f-741f9f276e88","ios":"levelo://app?vid=89ed8df0-ea17-4497-b88f-741f9f276e88"},"vehicle_type_id":"4","last_reported":1740075152,"current_range_meters":18800,"station_id":"ce4bhg12rcd13ifvqf80","pricing_plan_id":"cebpf4jnsgd1na2vs0mg"},{"bike_id":"75b5f4fb-0c49-422f-9831-059225f51683","system_id":"levelo_inurba_marseille","lat":43.29618,"lon":5.3771,"is_reserved":false,"is_disabled":false,"rental_uris":{"android":"levelo://app?vid=75b5f4fb-0c49-422f-9831-059225f51683","ios":"levelo://app?vid=75b5f4fb-0c49-422f-9831-059225f51683"},"vehicle_type_id":"4","last_reported":1740075152,"current_range_meters":18800,"station_id":"","pricing_plan_id":"cebpf4jnsgd1na2vs0mg"},{"bike_id":"ec749dba-20a0-487e-b0a0-b5633871852e","system_id":"levelo_inurba_marseille","lat":43.28349,"lon":5.381,"is_reserved":false,"is_disabled":false,"rental_uris":{"android":"levelo://app?vid=ec749dba-20a0-487e-b0a0-b5633871852e","ios":"levelo://app?vid=ec749dba-20a0-487e-b0a0-b5633871852e"},"vehicle_type_id":"4","last_reported":1740075152,"current_range_meters":19200,"station_id":"ce4bh412rcd13ifvqdr0","pricing_plan_id":"cebpf4jnsgd1na2vs0mg"},{"bike_id":"c52fbed6-bdb8-4f25-8719-fd63022f66d9","system_id":"levelo_inurba_marseille","lat":43.29023,"lon":5.38639,"is_reserved":false,"is_disabled":false,"rental_uris":{"android":"levelo://app?vid=c52fbed6-bdb8-4f25-8719-fd63022f66d9","ios":"levelo://app?vid=c52fbed6-bdb8-4f25-8719-fd63022f66d9"},"vehicle_type_id":"4","last_reported":1740075152,"current_range_meters":19200,"station_id":"ce4bh4p2rcd13ifvqe0g","pricing_plan_id":"cebpf4jnsgd1na2vs0mg"},{"bike_id":"f346fea9-fb5b-4010-a339-5c94b4574474","system_id":"levelo_inurba_marseille","lat":43.29958,"lon":5.41318,"is_reserved":false,"is_disabled":false,"rental_uris":{"android":"levelo://app?vid=f346fea9-fb5b-4010-a339-5c94b4574474","ios":"levelo://app?vid=f346fea9-fb5b-4010-a339-5c94b4574474"},"vehicle_type_id":"4","last_reported":1740075152,"current_range_meters":19200,"station_id":"ce4bhjp2rcd13ifvqg90","pricing_plan_id":"cebpf4jnsgd1na2vs0mg"},{"bike_id":"15645e3d-5dd6-4bfa-9b38-2475ddfc1093","system_id":"levelo_inurba_marseille","lat":43.27829,"lon":5.40717,"is_reserved":false,"is_disabled":false,"rental_uris":{"android":"levelo://app?vid=15645e3d-5dd6-4bfa-9b38-2475ddfc1093","ios":"levelo://app?vid=15645e3d-5dd6-4bfa-9b38-2475ddfc1093"},"vehicle_type_id":"4","last_reported":1740075152,"current_range_meters":19200,"station_id":"ce4bhnh2rcd13ifvqgtg","pricing_plan_id":"cebpf4jnsgd1na2vs0mg"},{"bike_id":"958fae96-519b-4f7e-80d0-1d9be06fbb3a","system_id":"levelo_inurba_marseille","lat":43.23964,"lon":5.36628,"is_reserved":false,"is_disabled":false,"rental_uris":{"android":"levelo://app?vid=958fae96-519b-4f7e-80d0-1d9be06fbb3a","ios":"levelo://app?vid=958fae96-519b-4f7e-80d0-1d9be06fbb3a"},"vehicle_type_id":"4","last_reported":1740075152,"current_range_meters":19200,"station_id":"ce4bhi12rcd13ifvqfp0","pricing_plan_id":"cebpf4jnsgd1na2vs0mg"},{"bike_id":"0720f109-0db6-41c1-948d-6ffec3318021","system_id":"levelo_inurba_marseille","lat":43.29423,"lon":5.38625,"is_reserved":false,"is_disabled":false,"rental_uris":{"android":"levelo://app?vid=0720f109-0db6-41c1-948d-6ffec3318021","ios":"levelo://app?vid=0720f109-0db6-41c1-948d-6ffec3318021"},"vehicle_type_id":"4","last_reported":1740075152,"current_range_meters":19200,"station_id":"ce4bh2h2rcd13ifvqdh0","pricing_plan_id":"cebpf4jnsgd1na2vs0mg"},{"bike_id":"5dd11298-afbd-4bba-a3a5-d85aa9352cdc","system_id":"levelo_inurba_marseille","lat":43.29531,"lon":5.38544,"is_reserved":false,"is_disabled":false,"rental_uris":{"android":"levelo://app?vid=5dd11298-afbd-4bba-a3a5-d85aa9352cdc","ios":"levelo://app?vid=5dd11298-afbd-4bba-a3a5-d85aa9352cdc"},"vehicle_type_id":"4","last_reported":1740075152,"current_range_meters":19200,"station_id":"ce4bgih2rcd13ifvqba0","pricing_plan_id":"cebpf4jnsgd1na2vs0mg"},{"bike_id":"3daa770b-5216-455c-9dda-7849b1581511","system_id":"levelo_inurba_marseille","lat":43.28415,"lon":5.34986,"is_reserved":false,"is_disabled":false,"rental_uris":{"android":"levelo://app?vid=3daa770b-5216-455c-9dda-7849b1581511","ios":"levelo://app?vid=3daa770b-5216-455c-9dda-7849b1581511"},