{"last_updated":1770904936,"ttl":60,"version":"2.2","data":{"bikes":[{"bike_id":"4659f5f2-43a6-4213-b84f-184d5dec64b3","system_id":"levelo_inurba_marseille","lat":43.33548,"lon":5.37471,"is_reserved":false,"is_disabled":false,"rental_uris":{"android":"levelo://app?vid=4659f5f2-43a6-4213-b84f-184d5dec64b3","ios":"levelo://app?vid=4659f5f2-43a6-4213-b84f-184d5dec64b3"},"vehicle_type_id":"4","last_reported":1770904937,"current_range_meters":2800,"station_id":"st_d46tts09ee8s73dlu43g","pricing_plan_id":"cebpf4jnsgd1na2vs0mg"},{"bike_id":"bdde70ef-70ce-4d41-a03b-1cac73853d63","system_id":"levelo_inurba_marseille","lat":43.24169,"lon":5.3639,"is_reserved":false,"is_disabled":false,"rental_uris":{"android":"levelo://app?vid=bdde70ef-70ce-4d41-a03b-1cac73853d63","ios":"levelo://app?vid=bdde70ef-70ce-4d41-a03b-1cac73853d63"},"vehicle_type_id":"4","last_reported":1770904937,"current_range_meters":2800,"station_id":"cpo36qri1sfpv3e86is0","pricing_plan_id":"cebpf4jnsgd1na2vs0mg"},{"bike_id":"a05b422a-95a3-4880-a8be-5840943a5bab","system_id":"levelo_inurba_marseille","lat":43.22552,"lon":5.4163,"is_reserved":false,"is_disabled":false,"rental_uris":{"android":"levelo://app?vid=a05b422a-95a3-4880-a8be-5840943a5bab","ios":"levelo://app?vid=a05b422a-95a3-4880-a8be-5840943a5bab"},"vehicle_type_id":"4","last_reported":1770904937,"current_range_meters":2800,"station_id":"st_d2o4gvlbi1j2169b742g","pricing_plan_id":"cebpf4jnsgd1na2vs0mg"},{"bike_id":"238249fa-46de-416c-b2d1-b229a6220ad5","system_id":"levelo_inurba_marseille","lat":43.26615,"lon":5.39096,"is_reserved":false,"is_disabled":false,"rental_uris":{"android":"levelo://app?vid=238249fa-46de-416c-b2d1-b229a6220ad5","ios":"levelo://app?vid=238249fa-46de-416c-b2d1-b229a6220ad5"},"vehicle_type_id":"4","last_reported":1770904937,"current_range_meters":2800,"station_id":"","pricing_plan_id":"cebpf4jnsgd1na2vs0mg"},{"bike_id":"6fc88da1-9617-45bd-b432-e074238b783a","system_id":"levelo_inurba_marseille","lat":43.27991,"lon":5.40015,"is_reserved":false,"is_disabled":true,"rental_uris":{"android":"levelo://app?vid=6fc88da1-9617-45bd-b432-e074238b783a","ios":"levelo://app?vid=6fc88da1-9617-45bd-b432-e074238b783a"},"vehicle_type_id":"4","last_reported":1770904937,"current_range_meters":2800,"station_id":"ce4bho92rcd13ifvqh4g","pricing_plan_id":"cebpf4jnsgd1na2vs0mg"},{"bike_id":"d5bcfa95-d15b-4ca9-9d52-765d9a60bf33","system_id":"levelo_inurba_marseille","lat":43.27836,"lon":5.39198,"is_reserved":false,"is_disabled":false,"rental_uris":{"android":"levelo://app?vid=d5bcfa95-d15b-4ca9-9d52-765d9a60bf33","ios":"levelo://app?vid=d5bcfa95-d15b-4ca9-9d52-765d9a60bf33"},"vehicle_type_id":"4","last_reported":1770904937,"current_range_meters":2800,"station_id":"ce4bhjp2rcd13ifvqga0","pricing_plan_id":"cebpf4jnsgd1na2vs0mg"},{"bike_id":"fe86c9ba-789d-48cb-b139-57215407552e","system_id":"levelo_inurba_marseille","lat":43.337479,"lon":5.37453,"is_reserved":false,"is_disabled":false,"rental_uris":{"android":"levelo://app?vid=fe86c9ba-789d-48cb-b139-57215407552e","ios":"levelo://app?vid=fe86c9ba-789d-48cb-b139-57215407552e"},"vehicle_type_id":"4","last_reported":1770904937,"current_range_meters":3200,"station_id":"","pricing_plan_id":"cebpf4jnsgd1na2vs0mg"},{"bike_id":"1c25c23b-1be3-42bc-a700-3fb39ab7c4df","system_id":"levelo_inurba_marseille","lat":43.28675,"lon":5.38671,"is_reserved":false,"is_disabled":false,"rental_uris":{"android":"levelo://app?vid=1c25c23b-1be3-42bc-a700-3fb39ab7c4df","ios":"levelo://app?vid=1c25c23b-1be3-42bc-a700-3fb39ab7c4df"},"vehicle_type_id":"4","last_reported":1770904937,"current_range_meters":3200,"station_id":"ce4bh492rcd13ifvqdug","pricing_plan_id":"cebpf4jnsgd1na2vs0mg"},{"bike_id":"04d8ad54-4294-413c-bc0f-d75e1f7c6398","system_id":"levelo_inurba_marseille","lat":43.29007,"lon":5.35613,"is_reserved":false,"is_disabled":false,"rental_uris":{"android":"levelo://app?vid=04d8ad54-4294-413c-bc0f-d75e1f7c6398","ios":"levelo://app?vid=04d8ad54-4294-413c-bc0f-d75e1f7c6398"},"vehicle_type_id":"4","last_reported":1770904937,"current_range_meters":3200,"station_id":"ce4bhb92rcd13ifvqen0","pricing_plan_id":"cebpf4jnsgd1na2vs0mg"},{"bike_id":"9b586055-3525-4e43-ae53-8d6c2fff45ed","system_id":"levelo_inurba_marseille","lat":43.24167,"lon":5.36415,"is_reserved":false,"is_disabled":false,"rental_uris":{"android":"levelo://app?vid=9b586055-3525-4e43-ae53-8d6c2fff45ed","ios":"levelo://app?vid=9b586055-3525-4e43-ae53-8d6c2fff45ed"},"vehicle_type_id":"4","last_reported":1770904937,"current_range_meters":3200,"station_id":"cpo36qri1sfpv3e86is0","pricing_plan_id":"cebpf4jnsgd1na2vs0mg"},{"bike_id":"1e5abb06-7d39-469e-8357-da7d5526735f","system_id":"levelo_inurba_marseille","lat":43.250874,"lon":5.39526,"is_reserved":false,"is_disabled":false,"rental_uris":{"android":"levelo://app?vid=1e5abb06-7d39-469e-8357-da7d5526735f","ios":"levelo://app?vid=1e5abb06-7d39-469e-8357-da7d5526735f"},"vehicle_type_id":"4","last_reported":1770904937,"current_range_meters":3200,"station_id":"ce4bhm12rcd13ifvqgkg","pricing_plan_id":"cebpf4jnsgd1na2vs0mg"},{"bike_id":"08db55f9-a0dc-421d-97f0-0787336c9706","system_id":"levelo_inurba_marseille","lat":43.3106,"lon":5.38355,"is_reserved":false,"is_disabled":true,"rental_uris":{"android":"levelo://app?vid=08db55f9-a0dc-421d-97f0-0787336c9706","ios":"levelo://app?vid=08db55f9-a0dc-421d-97f0-0787336c9706"},"vehicle_type_id":"4","last_reported":1770904937,"current_range_meters":3600,"station_id":"ce4bgv92rcd13ifvqcr0","pricing_plan_id":"cebpf4jnsgd1na2vs0mg"},{"bike_id":"ab7260d3-0b60-4920-bd6e-553838fbba97","system_id":"levelo_inurba_marseille","lat":43.3047,"lon":5.40211,"is_reserved":false,"is_disabled":false,"rental_uris":{"android":"levelo://app?vid=ab7260d3-0b60-4920-bd6e-553838fbba97","ios":"levelo://app?vid=ab7260d3-0b60-4920-bd6e-553838fbba97"},"vehicle_type_id":"4","last_reported":1770904937,"current_range_meters":3600,"station_id":"","pricing_plan_id":"cebpf4jnsgd1na2vs0mg"},{"bike_id":"44c6aa93-1f46-4cbd-a298-6cd74e811e92","system_id":"levelo_inurba_marseille","lat":43.21727,"lon":5.34647,"is_reserved":false,"is_disabled":false,"rental_uris":{"android":"levelo://app?vid=44c6aa93-1f46-4cbd-a298-6cd74e811e92","ios":"levelo://app?vid=44c6aa93-1f46-4cbd-a298-6cd74e811e92"},"vehicle_type_id":"4","last_reported":1770904937,"current_range_meters":3600,"station_id":"st_cvj6r9ubvosntc0bgbag","pricing_plan_id":"cebpf4jnsgd1na2vs0mg"},{"bike_id":"698f2968-199f-46b5-8b34-18c17b86966d","system_id":"levelo_inurba_marseille","lat":43.28605,"lon":5.35106,"is_reserved":false,"is_disabled":false,"rental_uris":{"android":"levelo://app?vid=698f2968-199f-46b5-8b34-18c17b86966d","ios":"levelo://app?vid=698f2968-199f-46b5-8b34-18c17b86966d"},"vehicle_type_id":"4","last_reported":1770904937,"current_range_meters":3600,"station_id":"ce4bhch2rcd13ifvqeug","pricing_plan_id":"cebpf4jnsgd1na2vs0mg"},{"bike_id":"ae861497-9a22-4231-afa9-8238d5c5713c","system_id":"levelo_inurba_marseille","lat":43.24162,"lon":5.36398,"is_reserved":false,"is_disabled":false,"rental_uris":{"android":"levelo://app?vid=ae861497-9a22-4231-afa9-8238d5c5713c","ios":"levelo://app?vid=ae861497-9a22-4231-afa9-8238d5c5713c"},"vehicle_type_id":"4","last_reported":1770904937,"current_range_meters":3600,"station_id":"cpo36qri1sfpv3e86is0","pricing_plan_id":"cebpf4jnsgd1na2vs0mg"},{"bike_id":"524709d5-62c8-408e-83c9-a2462b7f82a0","system_id":"levelo_inurba_marseille","lat":43.28712,"lon":5.38662,"is_reserved":false,"is_disabled":false,"rental_uris":{"android":"levelo://app?vid=524709d5-62c8-408e-83c9-a2462b7f82a0","ios":"levelo://app?vid=524709d5-62c8-408e-83c9-a2462b7f82a0"},"vehicle_type_id":"4","last_reported":1770904937,"current_range_meters":3600,"station_id":"ce4bh492rcd13ifvqdug","pricing_plan_id":"cebpf4jnsgd1na2vs0mg"},{"bike_id":"6efe5f0a-6c4f-403e-907f-5428484845d2","system_id":"levelo_inurba_marseille","lat":43.31693,"lon":5.4039,"is_reserved":false,"is_disabled":false,"rental_uris":{"android":"levelo://app?vid=6efe5f0a-6c4f-403e-907f-5428484845d2","ios":"levelo://app?vid=6efe5f0a-6c4f-403e-907f-5428484845d2"},"vehicle_type_id":"4","last_reported":1770904937,"current_range_meters":3600,"station_id":"","pricing_plan_id":"cebpf4jnsgd1na2vs0mg"},{"bike_id":"b3d06119-f0a6-4191-b374-93d7a840140e","system_id":"levelo_inurba_marseille","lat":43.281635,"lon":5.4264,"is_reserved":false,"is_disabled":true,"rental_uris":{"android":"levelo://app?vid=b3d06119-f0a6-4191-b374-93d7a840140e","ios":"levelo://app?vid=b3d06119-f0a6-4191-b374-93d7a840140e"},"vehicle_type_id":"4","last_reported":1770904937,"current_range_meters":3600,"station_id":"ce4bhnh2rcd13ifvqgug","pricing_plan_id":"cebpf4jnsgd1na2vs0mg"},{"bike_id":"cdb5c25c-a15a-4142-a44d-9f93b3d885b7","system_id":"levelo_inurba_marseille","lat":43.28899,"lon":5.4315,"is_reserved":false,"is_disabled":true,"rental_uris":{"android":"levelo://app?vid=cdb5c25c-a15a-4142-a44d-9f93b3d885b7","ios":"levelo://app?vid=cdb5c25c-a15a-4142-a44d-9f93b3d885b7"},"vehicle_type_id":"4","last_reported":1770904937,"current_range_meters":3600,"station_id":"","pricing_plan_id":"cebpf4jnsgd1na2vs0mg"},{"bike_id":"e4f5d6b4-5214-4f51-adc4-9a51cc1f0b62","system_id":"levelo_inurba_marseille","lat":43.292516,"lon":5.409101,"is_reserved":false,"is_disabled":true,"rental_uris":{"android":"levelo://app?vid=e4f5d6b4-5214-4f51-adc4-9a51cc1f0b62","ios":"levelo://app?vid=e4f5d6b4-5214-4f51-adc4-9a51cc1f0b62"},"vehicle_type_id":"4","last_reported":1770904937,"current_range_meters":3600,"station_id":"ce4bh192rcd13ifvqdc0","pricing_plan_id":"cebpf4jnsgd1na2vs0mg"},{"bike_id":"c9287d06-9897-4e48-8ee4-db42c95cca5e","system_id":"levelo_inurba_marseille","lat":43.25501,"lon":5.37633,"is_reserved":false,"is_disabled":false,"rental_uris":{"android":"levelo://app?vid=c9287d06-9897-4e48-8ee4-db42c95cca5e","ios":"levelo://app?vid=c9287d06-9897-4e48-8ee4-db42c95cca5e"},"vehicle_type_id":"4","last_reported":1770904937,"current_range_meters":3600,"station_id":"ce4bhh12rcd13ifvqff0","pricing_plan_id":"cebpf4jnsgd1na2vs0mg"},{"bike_id":"fdb6fd9a-5075-4d4b-8093-efef6ec48f61","system_id":"levelo_inurba_marseille","lat":43.282112,"lon":5.39078,"is_reserved":false,"is_disabled":false,"rental_uris":{"android":"levelo://app?vid=fdb6fd9a-5075-4d4b-8093-efef6ec48f61","ios":"levelo://app?vid=fdb6fd9a-5075-4d4b-8093-efef6ec48f61"},"vehicle_type_id":"4","last_reported":1770904937,"current_range_meters":4000,"station_id":"ce4bhn92rcd13ifvqgsg","pricing_plan_id":"cebpf4jnsgd1na2vs0mg"},{"bike_id":"1a0d99f0-ee74-4956-bad4-992b0789ccc7","system_id":"levelo_inurba_marseille","lat":43.21206,"lon":5.3512,"is_reserved":false,"is_disabled":false,"rental_uris":{"android":"levelo://app?vid=1a0d99f0-ee74-4956-bad4-992b0789ccc7","ios":"levelo://app?vid=1a0d99f0-ee74-4956-bad4-992b0789ccc7"},"vehicle_type_id":"4","last_reported":1770904937,"current_range_meters":4000,"station_id":"st_cvj6sg6p6f1abm77japg","pricing_plan_id":"cebpf4jnsgd1na2vs0mg"},{"bike_id":"9b7de680-e656-45c2-b846-8bd381e9ca89","system_id":"levelo_inurba_marseille","lat":43.30428,"lon":5.40719,"is_reserved":false,"is_disabled":false,"rental_uris":{"android":"levelo://app?vid=9b7de680-e656-45c2-b846-8bd381e9ca89","ios":"levelo://app?vid=9b7de680-e656-45c2-b846-8bd381e9ca89"},"vehicle_type_id":"4","last_reported":1770904937,"current_range_meters":4000,"station_id":"","pricing_plan_id":"cebpf4jnsgd1na2vs0mg"},{"bike_id":"ed5f093d-1aa3-4ff9-ab82-20bb031f1bc6","system_id":"levelo_inurba_marseille","lat":43.28538,"lon":5.44082,"is_reserved":false,"is_disabled":false,"rental_uris":{"android":"levelo://app?vid=ed5f093d-1aa3-4ff9-ab82-20bb031f1bc6","ios":"levelo://app?vid=ed5f093d-1aa3-4ff9-ab82-20bb031f1bc6"},"vehicle_type_id":"4","last_reported":1770904937,"current_range_meters":4000,"station_id":"","pricing_plan_id":"cebpf4jnsgd1na2vs0mg"},{"bike_id":"d16e8676-bb91-42bf-b68a-481193eb39f4","system_id":"levelo_inurba_marseille","lat":43.24668,"lon":5.38116,"is_reserved":false,"is_disabled":false,"rental_uris":{"android":"levelo://app?vid=d16e8676-bb91-42bf-b68a-481193eb39f4","ios":"levelo://app?vid=d16e8676-bb91-42bf-b68a-481193eb39f4"},"vehicle_type_id":"4","last_reported":1770904937,"current_range_meters":4000,"station_id":"ce4bhih2rcd13ifvqfr0","pricing_plan_id":"cebpf4jnsgd1na2vs0mg"},{"bike_id":"0079d939-22bf-4727-96d8-2fe94825e5ef","system_id":"levelo_inurba_marseille","lat":43.276188,"lon":5.361028,"is_reserved":false,"is_disabled":false,"rental_uris":{"android":"levelo://app?vid=0079d939-22bf-4727-96d8-2fe94825e5ef","ios":"levelo://app?vid=0079d939-22bf-4727-96d8-2fe94825e5ef"},"vehicle_type_id":"4","last_reported":1770904937,"current_range_meters":4000,"station_id":"ce4bgj92rcd13ifvqbe0","pricing_plan_id":"cebpf4jnsgd1na2vs0mg"},{"bike_id":"4637e738-544e-4318-a378-1dbd550510c3","system_id":"levelo_inurba_marseille","lat":43.24078,"lon":5.37752,"is_reserved":false,"is_disabled":false,"rental_uris":{"android":"levelo://app?vid=4637e738-544e-4318-a378-1dbd550510c3","ios":"levelo://app?vid=4637e738-544e-4318-a378-1dbd550510c3"},"vehicle_type_id":"4","last_reported":1770904937,"current_range_meters":4000,"station_id":"ce4bhnp2rcd13ifvqgvg","pricing_plan_id":"cebpf4jnsgd1na2vs0mg"},{"bike_id":"df9e5f42-90b9-401d-8180-05632704815b","system_id":"levelo_inurba_marseille","lat":43.337444,"lon":5.374475,"is_reserved":false,"is_disabled":false,"rental_uris":{"android":"levelo://app?vid=df9e5f42-90b9-401d-8180-05632704815b","ios":"levelo://app?vid=df9e5f42-90b9-401d-8180-05632704815b"},"vehicle_type_id":"4","last_reported":1770904937,"current_range_meters":4000,"station_id":"ce4bgt12rcd13ifvqce0","pricing_plan_id":"cebpf4jnsgd1na2vs0mg"},{"bike_id":"0811d14f-8e1e-47a9-b3d6-531712102d12","system_id":"levelo_inurba_marseille","lat":43.2798,"lon":5.38726,"is_reserved":false,"is_disabled":false,"rental_uris":{"android":"levelo://app?vid=0811d14f-8e1e-47a9-b3d6-531712102d12","ios":"levelo://app?vid=0811d14f-8e1e-47a9-b3d6-531712102d12"},"vehicle_type_id":"4","last_reported":1770904937,"current_range_meters":4000,"station_id":"ce4bhg12rcd13ifvqf80","pricing_plan_id":"cebpf4jnsgd1na2vs0mg"},{"bike_id":"0d60f49b-2168-485f-9c8c-8bf326d0ba55","system_id":"levelo_inurba_marseille","lat":43.24512,"lon":5.42439,"is_reserved":false,"is_disabled":false,"rental_uris":{"android":"levelo://app?vid=0d60f49b-2168-485f-9c8c-8bf326d0ba55","ios":"levelo://app?vid=0d60f49b-2168-485f-9c8c-8bf326d0ba55"},"vehicle_type_id":"4","last_reported":1770904937,"current_range_meters":4400,"station_id":"","pricing_plan_id":"cebpf4jnsgd1na2vs0mg"},{"bike_id":"9e3bc487-b0e5-43b2-98b8-caa6f87f206e","system_id":"levelo_inurba_marseille","lat":43.31722,"lon":5.37767,"is_reserved":false,"is_disabled":false,"rental_uris":{"android":"levelo://app?vid=9e3bc487-b0e5-43b2-98b8-caa6f87f206e","ios":"levelo://app?vid=9e3bc487-b0e5-43b2-98b8-caa6f87f206e"},"vehicle_type_id":"4","last_reported":1770904937,"current_range_meters":4400,"station_id":"ce4bgth2rcd13ifvqch0","pricing_plan_id":"cebpf4jnsgd1na2vs0mg"},{"bike_id":"ac9a885a-fe7d-4871-905c-95e91acf3aa8","system_id":"levelo_inurba_marseille","lat":43.22559,"lon":5.41618,"is_reserved":false,"is_disabled":false,"rental_uris":{"android":"levelo://app?vid=ac9a885a-fe7d-4871-905c-95e91acf3aa8","ios":"levelo://app?vid=ac9a885a-fe7d-4871-905c-95e91acf3aa8"},"vehicle_type_id":"4","last_reported":1770904937,"current_range_meters":4400,"station_id":"st_d2o4gvlbi1j2169b742g","pricing_plan_id":"cebpf4jnsgd1na2vs0mg"},{"bike_id":"babdcd4a-655b-4e95-88f5-77a8529739da","system_id":"levelo_inurba_marseille","lat":43.22559,"lon":5.41633,"is_reserved":false,"is_disabled":false,"rental_uris":{"android":"levelo://app?vid=babdcd4a-655b-4e95-88f5-77a8529739da","ios":"levelo://app?vid=babdcd4a-655b-4e95-88f5-77a8529739da"},"vehicle_type_id":"4","last_reported":1770904937,"current_range_meters":4400,"station_id":"st_d2o4gvlbi1j2169b742g","pricing_plan_id":"cebpf4jnsgd1na2vs0mg"},{"bike_id":"cc43a2a6-4df1-46ee-89a5-e5908a5338ed","system_id":"levelo_inurba_marseille","lat":43.28464,"lon":5.48403,"is_reserved":false,"is_disabled":false,"rental_uris":{"android":"levelo://app?vid=cc43a2a6-4df1-46ee-89a5-e5908a5338ed","ios":"levelo://app?vid=cc43a2a6-4df1-46ee-89a5-e5908a5338ed"},"vehicle_type_id":"4","last_reported":1770904937,"current_range_meters":4400,"station_id":"st_d3svhcjqgbts73a3dn0g","pricing_plan_id":"cebpf4jnsgd1na2vs0mg"},{"bike_id":"03c22168-23b9-4a4c-a686-068379a03132","system_id":"levelo_inurba_marseille","lat":43.31365,"lon":5.36711,"is_reserved":false,"is_disabled":false,"rental_uris":{"android":"levelo://app?vid=03c22168-23b9-4a4c-a686-068379a03132","ios":"levelo://app?vid=03c22168-23b9-4a4c-a686-068379a03132"},"vehicle_type_id":"4","last_reported":1770904937,"current_range_meters":4400,"station_id":"ce4bgr92rcd13ifvqc6g","pricing_plan_id":"cebpf4jnsgd1na2vs0mg"},{"bike_id":"5d8b11ac-fc32-4f8c-a9cf-b8bd6a3bf877","system_id":"levelo_inurba_marseille","lat":43.28621,"lon":5.3511,"is_reserved":false,"is_disabled":false,"rental_uris":{"android":"levelo://app?vid=5d8b11ac-fc32-4f8c-a9cf-b8bd6a3bf877","ios":"levelo://app?vid=5d8b11ac-fc32-4f8c-a9cf-b8bd6a3bf877"},"vehicle_type_id":"4","last_reported":1770904937,"current_range_meters":4800,"station_id":"ce4bhch2rcd13ifvqeug","pricing_plan_id":"cebpf4jnsgd1na2vs0mg"},{"bike_id":"a6b19e3a-384c-4c3d-8edb-57eaf22262fe","system_id":"levelo_inurba_marseille","lat":43.33603,"lon":5.41021,"is_reserved":false,"is_disabled":false,"rental_uris":{"android":"levelo://app?vid=a6b19e3a-384c-4c3d-8edb-57eaf22262fe","ios":"levelo://app?vid=a6b19e3a-384c-4c3d-8edb-57eaf22262fe"},"vehicle_type_id":"4","last_reported":1770904937,"current_range_meters":4800,"station_id":"ce4bhqh2rcd13ifvqhmg","pricing_plan_id":"cebpf4jnsgd1na2vs0mg"},{"bike_id":"e0fbe2f8-ab68-4aab-bf94-e8456ef6a8aa","system_id":"levelo_inurba_marseille","lat":43.29282,"lon":5.40127,"is_reserved":false,"is_disabled":false,"rental_uris":{"android":"levelo://app?vid=e0fbe2f8-ab68-4aab-bf94-e8456ef6a8aa","ios":"levelo://app?vid=e0fbe2f8-ab68-4aab-bf94-e8456ef6a8aa"},"vehicle_type_id":"4","last_reported":1770904937,"current_range_meters":4800,"station_id":"ce4bh312rcd13ifvqdk0","pricing_plan_id":"cebpf4jnsgd1na2vs0mg"},{"bike_id":"8eacced8-272b-41d9-9397-61b329ca6fac","system_id":"levelo_inurba_marseille","lat":43.259,"lon":5.40903,"is_reserved":false,"is_disabled":false,"rental_uris":{"android":"levelo://app?vid=8eacced8-272b-41d9-9397-61b329ca6fac","ios":"levelo://app?vid=8eacced8-272b-41d9-9397-61b329ca6fac"},"vehicle_type_id":"4","last_reported":1770904937,"current_range_meters":4800,"station_id":"ce4bhm92rcd13ifvqglg","pricing_plan_id":"cebpf4jnsgd1na2vs0mg"},{"bike_id":"6cc56c39-8951-4d3b-9166-91627860fa0f","system_id":"levelo_inurba_marseille","lat":43.25956,"lon":5.38744,"is_reserved":false,"is_disabled":false,"rental_uris":{"android":"levelo://app?vid=6cc56c39-8951-4d3b-9166-91627860fa0f","ios":"levelo://app?vid=6cc56c39-8951-4d3b-9166-91627860fa0f"},"vehicle_type_id":"4","last_reported":1770904937,"current_range_meters":4800,"station_id":"","pricing_plan_id":"cebpf4jnsgd1na2vs0mg"},{"bike_id":"fdcca747-1f0c-4265-9d25-6a349973ec5d","system_id":"levelo_inurba_marseille","lat":43.33145,"lon":5.37746,"is_reserved":false,"is_disabled":false,"rental_uris":{"android":"levelo://app?vid=fdcca747-1f0c-4265-9d25-6a349973ec5d","ios":"levelo://app?vid=fdcca747-1f0c-4265-9d25-6a349973ec5d"},"vehicle_type_id":"4","last_reported":1770904937,"current_range_meters":5600,"station_id":"st_d46cu089ee8s73dldbu0","pricing_plan_id":"cebpf4jnsgd1na2vs0mg"},{"bike_id":"985365e5-25b7-4b1d-a69b-6c0c41504c5f","system_id":"levelo_inurba_marseille","lat":43.27322,"lon":5.39091,"is_reserved":false,"is_disabled":false,"rental_uris":{"android":"levelo://app?vid=985365e5-25b7-4b1d-a69b-6c0c41504c5f","ios":"levelo://app?vid=985365e5-25b7-4b1d-a69b-6c0c41504c5f"},"vehicle_type_id":"4","last_reported":1770904937,"current_range_meters":5600,"station_id":"ce4bhgp2rcd13ifvqfe0","pricing_plan_id":"cebpf4jnsgd1na2vs0mg"},{"bike_id":"5fda65b6-7f98-4bf6-b2de-a2c95ed917cc","system_id":"levelo_inurba_marseille","lat":43.25479,"lon":5.38439,"is_reserved":false,"is_disabled":false,"rental_uris":{"android":"levelo://app?vid=5fda65b6-7f98-4bf6-b2de-a2c95ed917cc","ios":"levelo://app?vid=5fda65b6-7f98-4bf6-b2de-a2c95ed917cc"},"vehicle_type_id":"4","last_reported":1770904937,"current_range_meters":5600,"station_id":"","pricing_plan_id":"cebpf4jnsgd1na2vs0mg"},{"bike_id":"1eab5fb7-9337-43ee-91d2-e864b1a6d134","system_id":"levelo_inurba_marseille","lat":43.23147,"lon":5.43723,"is_reserved":false,"is_disabled":false,"rental_uris":{"android":"levelo://app?vid=1eab5fb7-9337-43ee-91d2-e864b1a6d134","ios":"levelo://app?vid=1eab5fb7-9337-43ee-91d2-e864b1a6d134"},"vehicle_type_id":"4","last_reported":1770904937,"current_range_meters":5600,"station_id":"ce4bhmp2rcd13ifvqgog","pricing_plan_id":"cebpf4jnsgd1na2vs0mg"},{"bike_id":"a64f1051-a316-44ad-9fb5-5f1868af907b","system_id":"levelo_inurba_marseille","lat":43.2582,"lon":5.41042,"is_reserved":false,"is_disabled":false,"rental_uris":{"android":"levelo://app?vid=a64f1051-a316-44ad-9fb5-5f1868af907b","ios":"levelo://app?vid=a64f1051-a316-44ad-9fb5-5f1868af907b"},"vehicle_type_id":"4","last_reported":1770904937,"current_range_meters":5600,"station_id":"ce4bhm92rcd13ifvqglg","pricing_plan_id":"cebpf4jnsgd1na2vs0mg"},{"bike_id":"9c4fa197-e784-47a1-9a3e-1e64aa186f14","system_id":"levelo_inurba_marseille","lat":43.25942,"lon":5.40907,"is_reserved":false,"is_disabled":false,"rental_uris":{"android":"levelo://app?vid=9c4fa197-e784-47a1-9a3e-1e64aa186f14","ios":"levelo://app?vid=9c4fa197-e784-47a1-9a3e-1e64aa186f14"},"vehicle_type_id":"4","last_reported":1770904937,"current_range_meters":6000,"station_id":"ce4bhm92rcd13ifvqglg","pricing_plan_id":"cebpf4jnsgd1na2vs0mg"},{"bike_id":"d997c6b7-acb1-4efa-ae35-2d8c161e2e69","system_id":"levelo_inurba_marseille","lat":43.23166,"lon":5.35576,"is_reserved":false,"is_disabled":false,"rental_uris":{"android":"levelo://app?vid=d997c6b7-acb1-4efa-ae35-2d8c161e2e69","ios":"levelo://app?vid=d997c6b7-acb1-4efa-ae35-2d8c161e2e69"},"vehicle_type_id":"4","last_reported":1770904937,"current_range_meters":6000,"station_id":"ce4bhu92rcd13ifvqi70","pricing_plan_id":"cebpf4jnsgd1na2vs0mg"},{"bike_id":"eb9d66ff-a612-4121-8b67-1d84deda7e3a","system_id":"levelo_inurba_marseille","lat":43.3313,"lon":5.377304,"is_reserved":false,"is_disabled":false,"rental_uris":{"android":"levelo://app?vid=eb9d66ff-a612-4121-8b67-1d84deda7e3a","ios":"levelo://app?vid=eb9d66ff-a612-4121-8b67-1d84deda7e3a"},"vehicle_type_id":"4","last_reported":1770904937,"current_range_meters":6000,"station_id":"st_d46cu089ee8s73dldbu0","pricing_plan_id":"cebpf4jnsgd1na2vs0mg"},{"bike_id":"6a1cfcbe-e32a-439e-a968-714a4b55e721","system_id":"levelo_inurba_marseille","lat":43.28099,"lon":5.37831,"is_reserved":false,"is_disabled":true,"rental_uris":{"android":"levelo://app?vid=6a1cfcbe-e32a-439e-a968-714a4b55e721","ios":"levelo://app?vid=6a1cfcbe-e32a-439e-a968-714a4b55e721"},"vehicle_type_id":"4","last_reported":1770904937,"current_range_meters":6000,"station_id":"ce4bha12rcd13ifvqee0","pricing_plan_id":"cebpf4jnsgd1na2vs0mg"},{"bike_id":"b32b0732-e4d0-4f51-ba0c-c2f5e5ffe7be","system_id":"levelo_inurba_marseille","lat":43.28334,"lon":5.3818,"is_reserved":false,"is_disabled":false,"rental_uris":{"android":"levelo://app?vid=b32b0732-e4d0-4f51-ba0c-c2f5e5ffe7be","ios":"levelo://app?vid=b32b0732-e4d0-4f51-ba0c-c2f5e5ffe7be"},"vehicle_type_id":"4","last_reported":1770904937,"current_range_meters":6400,"station_id":"","pricing_plan_id":"cebpf4jnsgd1na2vs0mg"},{"bike_id":"9df34885-ac04-43a6-b4c2-df2cea230626","system_id":"levelo_inurba_marseille","lat":43.312325,"lon":5.368575,"is_reserved":false,"is_disabled":false,"rental_uris":{"android":"levelo://app?vid=9df34885-ac04-43a6-b4c2-df2cea230626","ios":"levelo://app?vid=9df34885-ac04-43a6-b4c2-df2cea230626"},"vehicle_type_id":"4","last_reported":1770904937,"current_range_meters":6400,"station_id":"ce4bgl92rcd13ifvqbq0","pricing_plan_id":"cebpf4jnsgd1na2vs0mg"},{"bike_id":"6673ac44-296d-4959-9b90-4bd46007de83","system_id":"levelo_inurba_marseille","lat":43.24417,"lon":5.3703,"is_reserved":false,"is_disabled":false,"rental_uris":{"android":"levelo://app?vid=6673ac44-296d-4959-9b90-4bd46007de83","ios":"levelo://app?vid=6673ac44-296d-4959-9b90-4bd46007de83"},"vehicle_type_id":"4","last_reported":1770904937,"current_range_meters":6400,"station_id":"ce4bhhh2rcd13ifvqfk0","pricing_plan_id":"cebpf4jnsgd1na2vs0mg"},{"bike_id":"406b8143-680c-411e-8da6-8818c609b259","system_id":"levelo_inurba_marseille","lat":43.22932,"lon":5.35379,"is_reserved":false,"is_disabled":false,"rental_uris":{"android":"levelo://app?vid=406b8143-680c-411e-8da6-8818c609b259","ios":"levelo://app?vid=406b8143-680c-411e-8da6-8818c609b259"},"vehicle_type_id":"4","last_reported":1770904937,"current_range_meters":6400,"station_id":"cpo3532slgdg3j2ikp40","pricing_plan_id":"cebpf4jnsgd1na2vs0mg"},{"bike_id":"90237c2e-706a-4da7-9fce-cbc541d555c0","system_id":"levelo_inurba_marseille","lat":43.30818,"lon":5.36901,"is_reserved":false,"is_disabled":false,"rental_uris":{"android":"levelo://app?vid=90237c2e-706a-4da7-9fce-cbc541d555c0","ios":"levelo://app?vid=90237c2e-706a-4da7-9fce-cbc541d555c0"},"vehicle_type_id":"4","last_reported":1770904937,"current_range_meters":6400,"station_id":"","pricing_plan_id":"cebpf4jnsgd1na2vs0mg"},{"bike_id":"06edbac2-a66d-4487-8584-2623990a847b","system_id":"levelo_inurba_marseille","lat":43.26029,"lon":5.37558,"is_reserved":false,"is_disabled":false,"rental_uris":{"android":"levelo://app?vid=06edbac2-a66d-4487-8584-2623990a847b","ios":"levelo://app?vid=06edbac2-a66d-4487-8584-2623990a847b"},"vehicle_type_id":"4","last_reported":1770904937,"current_range_meters":6400,"station_id":"ce4bhgh2rcd13ifvqfa0","pricing_plan_id":"cebpf4jnsgd1na2vs0mg"},{"bike_id":"f234b1b6-f9fa-4abf-bb7d-a420451ac75a","system_id":"levelo_inurba_marseille","lat":43.3045,"lon":5.38873,"is_reserved":false,"is_disabled":false,"rental_uris":{"android":"levelo://app?vid=f234b1b6-f9fa-4abf-bb7d-a420451ac75a","ios":"levelo://app?vid=f234b1b6-f9fa-4abf-bb7d-a420451ac75a"},"vehicle_type_id":"4","last_reported":1770904937,"current_range_meters":6400,"station_id":"ce4bgk12rcd13ifvqbi0","pricing_plan_id":"cebpf4jnsgd1na2vs0mg"},{"bike_id":"418169e7-f744-41ff-a960-ea7a0d6af98f","system_id":"levelo_inurba_marseille","lat":43.29025,"lon":5.38138,"is_reserved":false,"is_disabled":false,"rental_uris":{"android":"levelo://app?vid=418169e7-f744-41ff-a960-ea7a0d6af98f","ios":"levelo://app?vid=418169e7-f744-41ff-a960-ea7a0d6af98f"},"vehicle_type_id":"4","last_reported":1770904937,"current_range_meters":6400,"station_id":"ce4bh4p2rcd13ifvqe1g","pricing_plan_id":"cebpf4jnsgd1na2vs0mg"},{"bike_id":"4eea8287-5744-4826-aede-ff10343e7484","system_id":"levelo_inurba_marseille","lat":43.29944,"lon":5.36551,"is_reserved":false,"is_disabled":false,"rental_uris":{"android":"levelo://app?vid=4eea8287-5744-4826-aede-ff10343e7484","ios":"levelo://app?vid=4eea8287-5744-4826-aede-ff10343e7484"},"vehicle_type_id":"4","last_reported":1770904937,"current_range_meters":6400,"station_id":"ce4bgm92rcd13ifvqbr0","pricing_plan_id":"cebpf4jnsgd1na2vs0mg"},{"bike_id":"6f1e8cc9-154c-4588-94d1-58430d4c4b67","system_id":"levelo_inurba_marseille","lat":43.27971,"lon":5.38739,"is_reserved":false,"is_disabled":false,"rental_uris":{"android":"levelo://app?vid=6f1e8cc9-154c-4588-94d1-58430d4c4b67","ios":"levelo://app?vid=6f1e8cc9-154c-4588-94d1-58430d4c4b67"},"vehicle_type_id":"4","last_reported":1770904937,"current_range_meters":6400,"station_id":"ce4bhg12rcd13ifvqf80","pricing_plan_id":"cebpf4jnsgd1na2vs0mg"},{"bike_id":"36c518eb-1a27-476b-bf5a-c42d77a8b635","system_id":"levelo_inurba_marseille","lat":43.31887,"lon":5.40711,"is_reserved":false,"is_disabled":false,"rental_uris":{"android":"levelo://app?vid=36c518eb-1a27-476b-bf5a-c42d77a8b635","ios":"levelo://app?vid=36c518eb-1a27-476b-bf5a-c42d77a8b635"},"vehicle_type_id":"4","last_reported":1770904937,"current_range_meters":6800,"station_id":"ce4bhq12rcd13ifvqhig","pricing_plan_id":"cebpf4jnsgd1na2vs0mg"},{"bike_id":"eb153995-5d33-4b1d-a5c0-ee8cc4302ea8","system_id":"levelo_inurba_marseille","lat":43.26619,"lon":5.39053,"is_reserved":false,"is_disabled":false,"rental_uris":{"android":"levelo://app?vid=eb153995-5d33-4b1d-a5c0-ee8cc4302ea8","ios":"levelo://app?vid=eb153995-5d33-4b1d-a5c0-ee8cc4302ea8"},"vehicle_type_id":"4","last_reported":1770904937,"current_range_meters":6800,"station_id":"","pricing_plan_id":"cebpf4jnsgd1na2vs0mg"},{"bike_id":"adedccca-d77d-4967-91ed-2661b5b510ba","system_id":"levelo_inurba_marseille","lat":43.225615,"lon":5.416348,"is_reserved":false,"is_disabled":false,"rental_uris":{"android":"levelo://app?vid=adedccca-d77d-4967-91ed-2661b5b510ba","ios":"levelo://app?vid=adedccca-d77d-4967-91ed-2661b5b510ba"},"vehicle_type_id":"4","last_reported":1770904937,"current_range_meters":6800,"station_id":"st_d2o4gvlbi1j2169b742g","pricing_plan_id":"cebpf4jnsgd1na2vs0mg"},{"bike_id":"c4d52c50-a89f-445e-af8c-f5d7fd1b3a38","system_id":"levelo_inurba_marseille","lat":43.29935,"lon":5.36549,"is_reserved":false,"is_disabled":false,"rental_uris":{"android":"levelo://app?vid=c4d52c50-a89f-445e-af8c-f5d7fd1b3a38","ios":"levelo://app?vid=c4d52c50-a89f-445e-af8c-f5d7fd1b3a38"},"vehicle_type_id":"4","last_reported":1770904937,"current_range_meters":6800,"station_id":"ce4bgm92rcd13ifvqbr0","pricing_plan_id":"cebpf4jnsgd1na2vs0mg"},{"bike_id":"1666b265-643d-41e7-bcc3-6167a6d49f91","system_id":"levelo_inurba_marseille","lat":43.22533,"lon":5.34847,"is_reserved":false,"is_disabled":false,"rental_uris":{"android":"levelo://app?vid=1666b265-643d-41e7-bcc3-6167a6d49f91","ios":"levelo://app?vid=1666b265-643d-41e7-bcc3-6167a6d49f91"},"vehicle_type_id":"4","last_reported":1770904937,"current_range_meters":7200,"station_id":"","pricing_plan_id":"cebpf4jnsgd1na2vs0mg"},{"bike_id":"d07b094d-78cf-4eb9-8c85-adeaec03690d","system_id":"levelo_inurba_marseille","lat":43.304766,"lon":5.379001,"is_reserved":false,"is_disabled":false,"rental_uris":{"android":"levelo://app?vid=d07b094d-78cf-4eb9-8c85-adeaec03690d","ios":"levelo://app?vid=d07b094d-78cf-4eb9-8c85-adeaec03690d"},"vehicle_type_id":"4","last_reported":1770904937,"current_range_meters":7200,"station_id":"ce4bgup2rcd13ifvqcn0","pricing_plan_id":"cebpf4jnsgd1na2vs0mg"},{"bike_id":"020da6c4-9bc9-4c81-9b53-4d04c01f110f","system_id":"levelo_inurba_marseille","lat":43.303,"lon":5.39221,"is_reserved":false,"is_disabled":false,"rental_uris":{"android":"levelo://app?vid=020da6c4-9bc9-4c81-9b53-4d04c01f110f","ios":"levelo://app?vid=020da6c4-9bc9-4c81-9b53-4d04c01f110f"},"vehicle_type_id":"4","last_reported":1770904937,"current_range_meters":7200,"station_id":"ce4bgkh2rcd13ifvqbk0","pricing_plan_id":"cebpf4jnsgd1na2vs0mg"},{"bike_id":"46bd018f-3ddc-47ce-9b3f-33f22f379846","system_id":"levelo_inurba_marseille","lat":43.30527,"lon":5.38426,"is_reserved":false,"is_disabled":false,"rental_uris":{"android":"levelo://app?vid=46bd018f-3ddc-47ce-9b3f-33f22f379846","ios":"levelo://app?vid=46bd018f-3ddc-47ce-9b3f-33f22f379846"},"vehicle_type_id":"4","last_reported":1770904937,"current_range_meters":7200,"station_id":"ce4bgg92rcd13ifvqb30","pricing_plan_id":"cebpf4jnsgd1na2vs0mg"},{"bike_id":"dddd8dae-2150-40e8-9b96-7bf9dacad978","system_id":"levelo_inurba_marseille","lat":43.29896,"lon":5.43657,"is_reserved":false,"is_disabled":false,"rental_uris":{"android":"levelo://app?vid=dddd8dae-2150-40e8-9b96-7bf9dacad978","ios":"levelo://app?vid=dddd8dae-2150-40e8-9b96-7bf9dacad978"},"vehicle_type_id":"4","last_reported":1770904937,"current_range_meters":7200,"station_id":"ce4bhpp2rcd13ifvqhfg","pricing_plan_id":"cebpf4jnsgd1na2vs0mg"},{"bike_id":"46939c8e-825e-45ec-ac05-85d9fb0a4528","system_id":"levelo_inurba_marseille","lat":43.312195,"lon":5.368533,"is_reserved":false,"is_disabled":false,"rental_uris":{"android":"levelo://app?vid=46939c8e-825e-45ec-ac05-85d9fb0a4528","ios":"levelo://app?vid=46939c8e-825e-45ec-ac05-85d9fb0a4528"},"vehicle_type_id":"4","last_reported":1770904937,"current_range_meters":7200,"station_id":"ce4bgl92rcd13ifvqbq0","pricing_plan_id":"cebpf4jnsgd1na2vs0mg"},{"bike_id":"94d87ba7-794c-4aaf-9043-c7b43bacc2b5","system_id":"levelo_inurba_marseille","lat":43.25812,"lon":5.394443,"is_reserved":false,"is_disabled":false,"rental_uris":{"android":"levelo://app?vid=94d87ba7-794c-4aaf-9043-c7b43bacc2b5","ios":"levelo://app?vid=94d87ba7-794c-4aaf-9043-c7b43bacc2b5"},"vehicle_type_id":"4","last_reported":1770904937,"current_range_meters":7200,"station_id":"ce4bhip2rcd13ifvqft0","pricing_plan_id":"cebpf4jnsgd1na2vs0mg"},{"bike_id":"6f36e1ce-a732-4813-9d77-efe6e46c862d","system_id":"levelo_inurba_marseille","lat":43.28619,"lon":5.35102,"is_reserved":false,"is_disabled":false,"rental_uris":{"android":"levelo://app?vid=6f36e1ce-a732-4813-9d77-efe6e46c862d","ios":"levelo://app?vid=6f36e1ce-a732-4813-9d77-efe6e46c862d"},"vehicle_type_id":"4","last_reported":1770904937,"current_range_meters":7200,"station_id":"ce4bhch2rcd13ifvqeug","pricing_plan_id":"cebpf4jnsgd1na2vs0mg"},{"bike_id":"e3cf6614-2704-4576-bed8-2c5b3c7e0a02","system_id":"levelo_inurba_marseille","lat":43.27988,"lon":5.4165,"is_reserved":false,"is_disabled":false,"rental_uris":{"android":"levelo://app?vid=e3cf6614-2704-4576-bed8-2c5b3c7e0a02","ios":"levelo://app?vid=e3cf6614-2704-4576-bed8-2c5b3c7e0a02"},"vehicle_type_id":"4","last_reported":1770904937,"current_range_meters":7200,"station_id":"ce4bho12rcd13ifvqh1g","pricing_plan_id":"cebpf4jnsgd1na2vs0mg"},{"bike_id":"989b5b08-d948-4be9-bc29-7318c8ff2142","system_id":"levelo_inurba_marseille","lat":43.24665,"lon":5.43136,"is_reserved":false,"is_disabled":false,"rental_uris":{"android":"levelo://app?vid=989b5b08-d948-4be9-bc29-7318c8ff2142","ios":"levelo://app?vid=989b5b08-d948-4be9-bc29-7318c8ff2142"},"vehicle_type_id":"4","last_reported":1770904937,"current_range_meters":7200,"station_id":"st_d2m6c4gdas8pm72e190g","pricing_plan_id":"cebpf4jnsgd1na2vs0mg"},{"bike_id":"e8a27b94-fdd9-41cc-9ff1-c9c44c2688bf","system_id":"levelo_inurba_marseille","lat":43.27318,"lon":5.39071,"is_reserved":false,"is_disabled":false,"rental_uris":{"android":"levelo://app?vid=e8a27b94-fdd9-41cc-9ff1-c9c44c2688bf","ios":"levelo://app?vid=e8a27b94-fdd9-41cc-9ff1-c9c44c2688bf"},"vehicle_type_id":"4","last_reported":1770904937,"current_range_meters":7200,"station_id":"ce4bhgp2rcd13ifvqfe0","pricing_plan_id":"cebpf4jnsgd1na2vs0mg"},{"bike_id":"5f6ae4c8-a7cd-4f3b-9adf-671bbd618c70","system_id":"levelo_inurba_marseille","lat":43.25576,"lon":5.38226,"is_reserved":false,"is_disabled":false,"rental_uris":{"android":"levelo://app?vid=5f6ae4c8-a7cd-4f3b-9adf-671bbd618c70","ios":"levelo://app?vid=5f6ae4c8-a7cd-4f3b-9adf-671bbd618c70"},"vehicle_type_id":"4","last_reported":1770904937,"current_range_meters":8000,"station_id":"ce4bhih2rcd13ifvqfs0","pricing_plan_id":"cebpf4jnsgd1na2vs0mg"},{"bike_id":"52c5007b-88c9-4d1c-9fe2-488c4cdcfbef","system_id":"levelo_inurba_marseille","lat":43.25868,"lon":5.39888,"is_reserved":false,"is_disabled":false,"rental_uris":{"android":"levelo://app?vid=52c5007b-88c9-4d1c-9fe2-488c4cdcfbef","ios":"levelo://app?vid=52c5007b-88c9-4d1c-9fe2-488c4cdcfbef"},"vehicle_type_id":"4","last_reported":1770904937,"current_range_meters":8000,"station_id":"ce4bhl92rcd13ifvqghg","pricing_plan_id":"cebpf4jnsgd1na2vs0mg"},{"bike_id":"2e5550f9-f008-4237-8bd6-122cbd7ea3cb","system_id":"levelo_inurba_marseille","lat":43.26363,"lon":5.41076,"is_reserved":false,"is_disabled":false,"rental_uris":{"android":"levelo://app?vid=2e5550f9-f008-4237-8bd6-122cbd7ea3cb","ios":"levelo://app?vid=2e5550f9-f008-4237-8bd6-122cbd7ea3cb"},"vehicle_type_id":"4","last_reported":1770904937,"current_range_meters":8000,"station_id":"st_d4e5ca6na9uc73bfl5fg","pricing_plan_id":"cebpf4jnsgd1na2vs0mg"},{"bike_id":"73fe0a64-90ed-437f-951d-b3456d0dea0b","system_id":"levelo_inurba_marseille","lat":43.29859,"lon":5.3629,"is_reserved":false,"is_disabled":false,"rental_uris":{"android":"levelo://app?vid=73fe0a64-90ed-437f-951d-b3456d0dea0b","ios":"levelo://app?vid=73fe0a64-90ed-437f-951d-b3456d0dea0b"},"vehicle_type_id":"4","last_reported":1770904937,"current_range_meters":8000,"station_id":"ce4bgpp2rcd13ifvqc3g","pricing_plan_id":"cebpf4jnsgd1na2vs0mg"},{"bike_id":"e44df137-3a9f-4865-a2d3-769a6f5bfc14","system_id":"levelo_inurba_marseille","lat":43.30915,"lon":5.36849,"is_reserved":false,"is_disabled":false,"rental_uris":{"android":"levelo://app?vid=e44df137-3a9f-4865-a2d3-769a6f5bfc14","ios":"levelo://app?vid=e44df137-3a9f-4865-a2d3-769a6f5bfc14"},"vehicle_type_id":"4","last_reported":1770904937,"current_range_meters":8000,"station_id":"ce4bgn92rcd13ifvqbvg","pricing_plan_id":"cebpf4jnsgd1na2vs0mg"},{"bike_id":"a95bcbb6-9652-453d-a5aa-66a13cd5401c","system_id":"levelo_inurba_marseille","lat":43.2593,"lon":5.40897,"is_reserved":false,"is_disabled":false,"rental_uris":{"android":"levelo://app?vid=a95bcbb6-9652-453d-a5aa-66a13cd5401c","ios":"levelo://app?vid=a95bcbb6-9652-453d-a5aa-66a13cd5401c"},"vehicle_type_id":"4","last_reported":1770904937,"current_range_meters":8000,"station_id":"ce4bhm92rcd13ifvqglg","pricing_plan_id":"cebpf4jnsgd1na2vs0mg"},{"bike_id":"661c1ad9-8e78-490b-aa77-0dd317a910f6","system_id":"levelo_inurba_marseille","lat":43.27204,"lon":5.39188,"is_reserved":false,"is_disabled":true,"rental_uris":{"android":"levelo://app?vid=661c1ad9-8e78-490b-aa77-0dd317a910f6","ios":"levelo://app?vid=661c1ad9-8e78-490b-aa77-0dd317a910f6"},"vehicle_type_id":"4","last_reported":1770904937,"current_range_meters":8000,"station_id":"ce4bhhp2rcd13ifvqfm0","pricing_plan_id":"cebpf4jnsgd1na2vs0mg"},{"bike_id":"d98f09ff-8b59-4519-baee-c61bc86adc1e","system_id":"levelo_inurba_marseille","lat":43.29491,"lon":5.43297,"is_reserved":false,"is_disabled":false,"rental_uris":{"android":"levelo://app?vid=d98f09ff-8b59-4519-baee-c61bc86adc1e","ios":"levelo://app?vid=d98f09ff-8b59-4519-baee-c61bc86adc1e"},"vehicle_type_id":"4","last_reported":1770904937,"current_range_meters":8000,"station_id":"st_d3j5ugp08ojc73fj9d10","pricing_plan_id":"cebpf4jnsgd1na2vs0mg"},{"bike_id":"ce4c0a1b-dffb-4d93-adb1-60514c31efeb","system_id":"levelo_inurba_marseille","lat":43.27061,"lon":5.38315,"is_reserved":false,"is_disabled":false,"rental_uris":{"android":"levelo://app?vid=ce4c0a1b-dffb-4d93-adb1-60514c31efeb","ios":"levelo://app?vid=ce4c0a1b-dffb-4d93-adb1-60514c31efeb"},"vehicle_type_id":"4","last_reported":1770904937,"current_range_meters":8000,"station_id":"st_d3n2fo6cfp8s73cte1j0","pricing_plan_id":"cebpf4jnsgd1na2vs0mg"},{"bike_id":"1dbb69cb-8222-4e8a-9ca2-6df7c935fc4f","system_id":"levelo_inurba_marseille","lat":43.24677,"lon":5.37404,"is_reserved":false,"is_disabled":false,"rental_uris":{"android":"levelo://app?vid=1dbb69cb-8222-4e8a-9ca2-6df7c935fc4f","ios":"levelo://app?vid=1dbb69cb-8222-4e8a-9ca2-6df7c935fc4f"},"vehicle_type_id":"4","last_reported":1770904937,"current_range_meters":8000,"station_id":"ce4bhgh2rcd13ifvqfb0","pricing_plan_id":"cebpf4jnsgd1na2vs0mg"},{"bike_id":"cb9be5fc-0f8f-4012-b222-62b158765b42","system_id":"levelo_inurba_marseille","lat":43.22942,"lon":5.35369,"is_reserved":false,"is_disabled":false,"rental_uris":{"android":"levelo://app?vid=cb9be5fc-0f8f-4012-b222-62b158765b42","ios":"levelo://app?vid=cb9be5fc-0f8f-4012-b222-62b158765b42"},"vehicle_type_id":"4","last_reported":1770904937,"current_range_meters":8000,"station_id":"cpo3532slgdg3j2ikp40","pricing_plan_id":"cebpf4jnsgd1na2vs0mg"},{"bike_id":"864cec40-0ff3-4697-9da2-81d63157f80b","system_id":"levelo_inurba_marseille","lat":43.29743,"lon":5.42765,"is_reserved":false,"is_disabled":false,"rental_uris":{"android":"levelo://app?vid=864cec40-0ff3-4697-9da2-81d63157f80b","ios":"levelo://app?vid=864cec40-0ff3-4697-9da2-81d63157f80b"},"vehicle_type_id":"4","last_reported":1770904937,"current_range_meters":8000,"station_id":"st_d3md5207bmas73dh9klg","pricing_plan_id":"cebpf4jnsgd1na2vs0mg"},{"bike_id":"5bfd9b04-e830-467a-a45a-a9f31c404067","system_id":"levelo_inurba_marseille","lat":43.30139,"lon":5.38778,"is_reserved":false,"is_disabled":false,"rental_uris":{"android":"levelo://app?vid=5bfd9b04-e830-467a-a45a-a9f31c404067","ios":"levelo://app?vid=5bfd9b04-e830-467a-a45a-a9f31c404067"},"vehicle_type_id":"4","last_reported":1770904937,"current_range_meters":8400,"station_id":"ce4bghh2rcd13ifvqb60","pricing_plan_id":"cebpf4jnsgd1na2vs0mg"},{"bike_id":"f06d538b-97fe-4530-9d3d-a633bac60e6e","system_id":"levelo_inurba_marseille","lat":43.26933,"lon":5.40254,"is_reserved":false,"is_disabled":false,"rental_uris":{"android":"levelo://app?vid=f06d538b-97fe-4530-9d3d-a633bac60e6e","ios":"levelo://app?vid=f06d538b-97fe-4530-9d3d-a633bac60e6e"},"vehicle_type_id":"4","last_reported":1770904937,"current_range_meters":8400,"station_id":"cjm6bp8fraef2m0cb0m0","pricing_plan_id":"cebpf4jnsgd1na2vs0mg"},{"bike_id":"4307a57a-99ed-4a09-a634-c820d1d60b65","system_id":"levelo_inurba_marseille","lat":43.29778,"lon":5.37076,"is_reserved":false,"is_disabled":false,"rental_uris":{"android":"levelo://app?vid=4307a57a-99ed-4a09-a634-c820d1d60b65","ios":"levelo://app?vid=4307a57a-99ed-4a09-a634-c820d1d60b65"},"vehicle_type_id":"4","last_reported":1770904937,"current_range_meters":8400,"station_id":"ce4bgop2rcd13ifvqc1g","pricing_plan_id":"cebpf4jnsgd1na2vs0mg"},{"bike_id":"4e0f9367-7bac-4416-a504-19f0c84a5aa3","system_id":"levelo_inurba_marseille","lat":43.28162,"lon":5.42639,"is_reserved":false,"is_disabled":false,"rental_uris":{"android":"levelo://app?vid=4e0f9367-7bac-4416-a504-19f0c84a5aa3","ios":"levelo://app?vid=4e0f9367-7bac-4416-a504-19f0c84a5aa3"},"vehicle_type_id":"4","last_reported":1770904937,"current_range_meters":8400,"station_id":"ce4bhnh2rcd13ifvqgug","pricing_plan_id":"cebpf4jnsgd1na2vs0mg"},{"bike_id":"e6368be2-7e62-4f22-9ec0-c26a8ba4b8e5","system_id":"levelo_inurba_marseille","lat":43.29218,"lon":5.36071,"is_reserved":false,"is_disabled":false,"rental_uris":{"android":"levelo://app?vid=e6368be2-7e62-4f22-9ec0-c26a8ba4b8e5","ios":"levelo://app?vid=e6368be2-7e62-4f22-9ec0-c26a8ba4b8e5"},"vehicle_type_id":"4","last_reported":1770904937,"current_range_meters":8400,"station_id":"ce4bhbh2rcd13ifvqeqg","pricing_plan_id":"cebpf4jnsgd1na2vs0mg"},{"bike_id":"3ad331d6-b4d1-49c7-b940-96959fff84a3","system_id":"levelo_inurba_marseille","lat":43.286106,"lon":5.351049,"is_reserved":false,"is_disabled":false,"rental_uris":{"android":"levelo://app?vid=3ad331d6-b4d1-49c7-b940-96959fff84a3","ios":"levelo://app?vid=3ad331d6-b4d1-49c7-b940-96959fff84a3"},"vehicle_type_id":"4","last_reported":1770904937,"current_range_meters":8400,"station_id":"ce4bhch2rcd13ifvqeug","pricing_plan_id":"cebpf4jnsgd1na2vs0mg"},{"bike_id":"9faee6f2-457c-410c-b197-c5102d1e22ad","system_id":"levelo_inurba_marseille","lat":43.23188,"lon":5.39992,"is_reserved":false,"is_disabled":false,"rental_uris":{"android":"levelo://app?vid=9faee6f2-457c-410c-b197-c5102d1e22ad","ios":"levelo://app?vid=9faee6f2-457c-410c-b197-c5102d1e22ad"},"vehicle_type_id":"4","last_reported":1770904937,"current_range_meters":8400,"station_id":"ce4bhn12rcd13ifvqgqg","pricing_plan_id":"cebpf4jnsgd1na2vs0mg"},{"bike_id":"6d146b90-da11-4bbb-b527-7da7e2561db2","system_id":"levelo_inurba_marseille","lat":43.284813,"lon":5.484004,"is_reserved":false,"is_disabled":false,"rental_uris":{"android":"levelo://app?vid=6d146b90-da11-4bbb-b527-7da7e2561db2","ios":"levelo://app?vid=6d146b90-da11-4bbb-b527-7da7e2561db2"},"vehicle_type_id":"4","last_reported":1770904937,"current_range_meters":8400,"station_id":"st_d3svhcjqgbts73a3dn0g","pricing_plan_id":"cebpf4jnsgd1na2vs0mg"},{"bike_id":"44b82be7-a2b9-42f1-8560-17e8ec787592","system_id":"levelo_inurba_marseille","lat":43.30939,"lon":5.36867,"is_reserved":false,"is_disabled":false,"rental_uris":{"android":"levelo://app?vid=44b82be7-a2b9-42f1-8560-17e8ec787592","ios":"levelo://app?vid=44b82be7-a2b9-42f1-8560-17e8ec787592"},"vehicle_type_id":"4","last_reported":1770904937,"current_range_meters":8400,"station_id":"ce4bgn92rcd13ifvqbvg","pricing_plan_id":"cebpf4jnsgd1na2vs0mg"},{"bike_id":"8f3a9ea3-3d5f-4beb-8e6c-40222b0c90d4","system_id":"levelo_inurba_marseille","lat":43.2838,"lon":5.35346,"is_reserved":false,"is_disabled":false,"rental_uris":{"android":"levelo://app?vid=8f3a9ea3-3d5f-4beb-8e6c-40222b0c90d4","ios":"levelo://app?vid=8f3a9ea3-3d5f-4beb-8e6c-40222b0c90d4"},"vehicle_type_id":"4","last_reported":1770904937,"current_range_meters":8400,"station_id":"","pricing_plan_id":"cebpf4jnsgd1na2vs0mg"},{"bike_id":"e61f8348-ac76-4cea-92f8-334c0273949b","system_id":"levelo_inurba_marseille","lat":43.24665,"lon":5.43112,"is_reserved":false,"is_disabled":false,"rental_uris":{"android":"levelo://app?vid=e61f8348-ac76-4cea-92f8-334c0273949b","ios":"levelo://app?vid=e61f8348-ac76-4cea-92f8-334c0273949b"},"vehicle_type_id":"4","last_reported":1770904937,"current_range_meters":8400,"station_id":"st_d2m6c4gdas8pm72e190g","pricing_plan_id":"cebpf4jnsgd1na2vs0mg"},{"bike_id":"52d294a6-dfc4-49e2-9128-2096407aa892","system_id":"levelo_inurba_marseille","lat":43.30162,"lon":5.37402,"is_reserved":false,"is_disabled":false,"rental_uris":{"android":"levelo://app?vid=52d294a6-dfc4-49e2-9128-2096407aa892","ios":"levelo://app?vid=52d294a6-dfc4-49e2-9128-2096407aa892"},"vehicle_type_id":"4","last_reported":1770904937,"current_range_meters":8400,"station_id":"ce4bgs92rcd13ifvqcc0","pricing_plan_id":"cebpf4jnsgd1na2vs0mg"},{"bike_id":"e445083d-45a8-4d25-90af-ae9e33eb6abe","system_id":"levelo_inurba_marseille","lat":43.30542,"lon":5.38441,"is_reserved":false,"is_disabled":false,"rental_uris":{"android":"levelo://app?vid=e445083d-45a8-4d25-90af-ae9e33eb6abe","ios":"levelo://app?vid=e445083d-45a8-4d25-90af-ae9e33eb6abe"},"vehicle_type_id":"4","last_reported":1770904937,"current_range_meters":8400,"station_id":"ce4bgg92rcd13ifvqb30","pricing_plan_id":"cebpf4jnsgd1na2vs0mg"},{"bike_id":"c8d9299e-1f02-414d-a701-2a89449ca9df","system_id":"levelo_inurba_marseille","lat":43.29051,"lon":5.39957,"is_reserved":false,"is_disabled":false,"rental_uris":{"android":"levelo://app?vid=c8d9299e-1f02-414d-a701-2a89449ca9df","ios":"levelo://app?vid=c8d9299e-1f02-414d-a701-2a89449ca9df"},"vehicle_type_id":"4","last_reported":1770904937,"current_range_meters":8400,"station_id":"ce4bh392rcd13ifvqdm0","pricing_plan_id":"cebpf4jnsgd1na2vs0mg"},{"bike_id":"4d24baad-aeee-4790-a2cb-802ce0e52bed","system_id":"levelo_inurba_marseille","lat":43.284416,"lon":5.392093,"is_reserved":false,"is_disabled":false,"rental_uris":{"android":"levelo://app?vid=4d24baad-aeee-4790-a2cb-802ce0e52bed","ios":"levelo://app?vid=4d24baad-aeee-4790-a2cb-802ce0e52bed"},"vehicle_type_id":"4","last_reported":1770904937,"current_range_meters":8400,"station_id":"ce4bhoh2rcd13ifvqh5g","pricing_plan_id":"cebpf4jnsgd1na2vs0mg"},{"bike_id":"8b9dda30-a538-4c56-8057-4354e193017c","system_id":"levelo_inurba_marseille","lat":43.29237,"lon":5.36058,"is_reserved":false,"is_disabled":false,"rental_uris":{"android":"levelo://app?vid=8b9dda30-a538-4c56-8057-4354e193017c","ios":"levelo://app?vid=8b9dda30-a538-4c56-8057-4354e193017c"},"vehicle_type_id":"4","last_reported":1770904937,"current_range_meters":8400,"station_id":"ce4bhbh2rcd13ifvqeqg","pricing_plan_id":"cebpf4jnsgd1na2vs0mg"},{"bike_id":"b2f261b6-72c2-4f8f-bb29-2e5cbf8c49b6","system_id":"levelo_inurba_marseille","lat":43.25739,"lon":5.41093,"is_reserved":false,"is_disabled":false,"rental_uris":{"android":"levelo://app?vid=b2f261b6-72c2-4f8f-bb29-2e5cbf8c49b6","ios":"levelo://app?vid=b2f261b6-72c2-4f8f-bb29-2e5cbf8c49b6"},"vehicle_type_id":"4","last_reported":1770904937,"current_range_meters":8400,"station_id":"ce4bhkp2rcd13ifvqgd0","pricing_plan_id":"cebpf4jnsgd1na2vs0mg"},{"bike_id":"f04ce5ff-c28a-4999-b3c5-16397cf9941b","system_id":"levelo_inurba_marseille","lat":43.27939,"lon":5.41048,"is_reserved":false,"is_disabled":false,"rental_uris":{"android":"levelo://app?vid=f04ce5ff-c28a-4999-b3c5-16397cf9941b","ios":"levelo://app?vid=f04ce5ff-c28a-4999-b3c5-16397cf9941b"},"vehicle_type_id":"4","last_reported":1770904937,"current_range_meters":8400,"station_id":"ce4bhnp2rcd13ifvqh0g","pricing_plan_id":"cebpf4jnsgd1na2vs0mg"},{"bike_id":"31ec33af-4b5b-47df-a935-7478bd3c999f","system_id":"levelo_inurba_marseille","lat":43.253394,"lon":5.421736,"is_reserved":false,"is_disabled":false,"rental_uris":{"android":"levelo://app?vid=31ec33af-4b5b-47df-a935-7478bd3c999f","ios":"levelo://app?vid=31ec33af-4b5b-47df-a935-7478bd3c999f"},"vehicle_type_id":"4","last_reported":1770904937,"current_range_meters":8400,"station_id":"st_d2m65c5bi1j21697t3ng","pricing_plan_id":"cebpf4jnsgd1na2vs0mg"},{"bike_id":"46795c32-d155-4823-a0f3-872b06d1e11d","system_id":"levelo_inurba_marseille","lat":43.21775,"lon":5.34587,"is_reserved":false,"is_disabled":false,"rental_uris":{"android":"levelo://app?vid=46795c32-d155-4823-a0f3-872b06d1e11d","ios":"levelo://app?vid=46795c32-d155-4823-a0f3-872b06d1e11d"},"vehicle_type_id":"4","last_reported":1770904937,"current_range_meters":8400,"station_id":"","pricing_plan_id":"cebpf4jnsgd1na2vs0mg"},{"bike_id":"cd2ea776-4312-4cb7-8563-066b16a10c75","system_id":"levelo_inurba_marseille","lat":43.23186,"lon":5.39988,"is_reserved":false,"is_disabled":false,"rental_uris":{"android":"levelo://app?vid=cd2ea776-4312-4cb7-8563-066b16a10c75","ios":"levelo://app?vid=cd2ea776-4312-4cb7-8563-066b16a10c75"},"vehicle_type_id":"4","last_reported":1770904937,"current_range_meters":8400,"station_id":"ce4bhn12rcd13ifvqgqg","pricing_plan_id":"cebpf4jnsgd1na2vs0mg"},{"bike_id":"f00baa5f-cba2-411f-a887-5a0ac953db29","system_id":"levelo_inurba_marseille","lat":43.24079,"lon":5.37759,"is_reserved":false,"is_disabled":false,"rental_uris":{"android":"levelo://app?vid=f00baa5f-cba2-411f-a887-5a0ac953db29","ios":"levelo://app?vid=f00baa5f-cba2-411f-a887-5a0ac953db29"},"vehicle_type_id":"4","last_reported":1770904937,"current_range_meters":8400,"station_id":"ce4bhnp2rcd13ifvqgvg","pricing_plan_id":"cebpf4jnsgd1na2vs0mg"},{"bike_id":"fc6cb79d-2805-4d8d-bae0-53c7c1641f3e","system_id":"levelo_inurba_marseille","lat":43.29743,"lon":5.37678,"is_reserved":false,"is_disabled":false,"rental_uris":{"android":"levelo://app?vid=fc6cb79d-2805-4d8d-bae0-53c7c1641f3e","ios":"levelo://app?vid=fc6cb79d-2805-4d8d-bae0-53c7c1641f3e"},"vehicle_type_id":"4","last_reported":1770904937,"current_range_meters":8400,"station_id":"ce4bgkh2rcd13ifvqbl0","pricing_plan_id":"cebpf4jnsgd1na2vs0mg"},{"bike_id":"85ca329a-9c55-4be1-b2da-c3d917ed6363","system_id":"levelo_inurba_marseille","lat":43.24546,"lon":5.39523,"is_reserved":false,"is_disabled":false,"rental_uris":{"android":"levelo://app?vid=85ca329a-9c55-4be1-b2da-c3d917ed6363","ios":"levelo://app?vid=85ca329a-9c55-4be1-b2da-c3d917ed6363"},"vehicle_type_id":"4","last_reported":1770904937,"current_range_meters":8800,"station_id":"ce4bhlp2rcd13ifvqgjg","pricing_plan_id":"cebpf4jnsgd1na2vs0mg"},{"bike_id":"558b0286-85fc-49cb-b13d-aa40847d1ce9","system_id":"levelo_inurba_marseille","lat":43.25002,"lon":5.3893,"is_reserved":false,"is_disabled":false,"rental_uris":{"android":"levelo://app?vid=558b0286-85fc-49cb-b13d-aa40847d1ce9","ios":"levelo://app?vid=558b0286-85fc-49cb-b13d-aa40847d1ce9"},"vehicle_type_id":"4","last_reported":1770904937,"current_range_meters":8800,"station_id":"ce4bhgp2rcd13ifvqfd0","pricing_plan_id":"cebpf4jnsgd1na2vs0mg"},{"bike_id":"5ff157dc-e3aa-4305-ad39-dfa58cf64b9c","system_id":"levelo_inurba_marseille","lat":43.240797,"lon":5.377306,"is_reserved":false,"is_disabled":false,"rental_uris":{"android":"levelo://app?vid=5ff157dc-e3aa-4305-ad39-dfa58cf64b9c","ios":"levelo://app?vid=5ff157dc-e3aa-4305-ad39-dfa58cf64b9c"},"vehicle_type_id":"4","last_reported":1770904937,"current_range_meters":8800,"station_id":"ce4bhnp2rcd13ifvqgvg","pricing_plan_id":"cebpf4jnsgd1na2vs0mg"},{"bike_id":"09ad556f-b6d8-43a2-9c08-0649a70ab239","system_id":"levelo_inurba_marseille","lat":43.29616,"lon":5.37733,"is_reserved":false,"is_disabled":false,"rental_uris":{"android":"levelo://app?vid=09ad556f-b6d8-43a2-9c08-0649a70ab239","ios":"levelo://app?vid=09ad556f-b6d8-43a2-9c08-0649a70ab239"},"vehicle_type_id":"4","last_reported":1770904937,"current_range_meters":8800,"station_id":"ce4bgi92rcd13ifvqb90","pricing_plan_id":"cebpf4jnsgd1na2vs0mg"},{"bike_id":"bb6faa0c-4182-45af-b174-e42f3eae8837","system_id":"levelo_inurba_marseille","lat":43.24671,"lon":5.38875,"is_reserved":false,"is_disabled":false,"rental_uris":{"android":"levelo://app?vid=bb6faa0c-4182-45af-b174-e42f3eae8837","ios":"levelo://app?vid=bb6faa0c-4182-45af-b174-e42f3eae8837"},"vehicle_type_id":"4","last_reported":1770904937,"current_range_meters":8800,"station_id":"ce4bhg12rcd13ifvqf60","pricing_plan_id":"cebpf4jnsgd1na2vs0mg"},{"bike_id":"6f992222-ec7a-488c-a1d3-988179372f4d","system_id":"levelo_inurba_marseille","lat":43.21738,"lon":5.34602,"is_reserved":false,"is_disabled":false,"rental_uris":{"android":"levelo://app?vid=6f992222-ec7a-488c-a1d3-988179372f4d","ios":"levelo://app?vid=6f992222-ec7a-488c-a1d3-988179372f4d"},"vehicle_type_id":"4","last_reported":1770904937,"current_range_meters":8800,"station_id":"st_cvj6r9ubvosntc0bgbag","pricing_plan_id":"cebpf4jnsgd1na2vs0mg"},{"bike_id":"e0a99c59-b2ab-407c-8f36-dd4b7764ede6","system_id":"levelo_inurba_marseille","lat":43.29042,"lon":5.39941,"is_reserved":false,"is_disabled":false,"rental_uris":{"android":"levelo://app?vid=e0a99c59-b2ab-407c-8f36-dd4b7764ede6","ios":"levelo://app?vid=e0a99c59-b2ab-407c-8f36-dd4b7764ede6"},"vehicle_type_id":"4","last_reported":1770904937,"current_range_meters":8800,"station_id":"ce4bh392rcd13ifvqdm0","pricing_plan_id":"cebpf4jnsgd1na2vs0mg"},{"bike_id":"4de5fcdf-dfd0-4abe-b848-8a10e2b67739","system_id":"levelo_inurba_marseille","lat":43.297507,"lon":5.376837,"is_reserved":false,"is_disabled":false,"rental_uris":{"android":"levelo://app?vid=4de5fcdf-dfd0-4abe-b848-8a10e2b67739","ios":"levelo://app?vid=4de5fcdf-dfd0-4abe-b848-8a10e2b67739"},"vehicle_type_id":"4","last_reported":1770904937,"current_range_meters":8800,"station_id":"ce4bgkh2rcd13ifvqbl0","pricing_plan_id":"cebpf4jnsgd1na2vs0mg"},{"bike_id":"48ef2e5e-395e-487a-9e41-360aad012a1f","system_id":"levelo_inurba_marseille","lat":43.26224,"lon":5.37434,"is_reserved":false,"is_disabled":false,"rental_uris":{"android":"levelo://app?vid=48ef2e5e-395e-487a-9e41-360aad012a1f","ios":"levelo://app?vid=48ef2e5e-395e-487a-9e41-360aad012a1f"},"vehicle_type_id":"4","last_reported":1770904937,"current_range_meters":8800,"station_id":"","pricing_plan_id":"cebpf4jnsgd1na2vs0mg"},{"bike_id":"40452636-8d5c-4483-9aa3-a6ea0d66c3ee","system_id":"levelo_inurba_marseille","lat":43.31059,"lon":5.39332,"is_reserved":false,"is_disabled":false,"rental_uris":{"android":"levelo://app?vid=40452636-8d5c-4483-9aa3-a6ea0d66c3ee","ios":"levelo://app?vid=40452636-8d5c-4483-9aa3-a6ea0d66c3ee"},"vehicle_type_id":"4","last_reported":1770904937,"current_range_meters":8800,"station_id":"","pricing_plan_id":"cebpf4jnsgd1na2vs0mg"},{"bike_id":"b5cfe035-0ac5-4157-91b6-fb5d92305462","system_id":"levelo_inurba_marseille","lat":43.28153,"lon":5.4264,"is_reserved":false,"is_disabled":false,"rental_uris":{"android":"levelo://app?vid=b5cfe035-0ac5-4157-91b6-fb5d92305462","ios":"levelo://app?vid=b5cfe035-0ac5-4157-91b6-fb5d92305462"},"vehicle_type_id":"4","last_reported":1770904937,"current_range_meters":8800,"station_id":"ce4bhnh2rcd13ifvqgug","pricing_plan_id":"cebpf4jnsgd1na2vs0mg"},{"bike_id":"74ef1453-4c91-43ca-9aa1-858618468a37","system_id":"levelo_inurba_marseille","lat":43.30532,"lon":5.36698,"is_reserved":false,"is_disabled":false,"rental_uris":{"android":"levelo://app?vid=74ef1453-4c91-43ca-9aa1-858618468a37","ios":"levelo://app?vid=74ef1453-4c91-43ca-9aa1-858618468a37"},"vehicle_type_id":"4","last_reported":1770904937,"current_range_meters":8800,"station_id":"ce4bgrp2rcd13ifvqc9g","pricing_plan_id":"cebpf4jnsgd1na2vs0mg"},{"bike_id":"d133da66-969f-43a3-811d-2c8fd3e12789","system_id":"levelo_inurba_marseille","lat":43.288592,"lon":5.425182,"is_reserved":false,"is_disabled":false,"rental_uris":{"android":"levelo://app?vid=d133da66-969f-43a3-811d-2c8fd3e12789","ios":"levelo://app?vid=d133da66-969f-43a3-811d-2c8fd3e12789"},"vehicle_type_id":"4","last_reported":1770904937,"current_range_meters":8800,"station_id":"st_d3b462108ojc7389ooeg","pricing_plan_id":"cebpf4jnsgd1na2vs0mg"},{"bike_id":"f80d80b1-fd6c-49d0-a946-3b95b1b8c004","system_id":"levelo_inurba_marseille","lat":43.29041,"lon":5.39945,"is_reserved":false,"is_disabled":false,"rental_uris":{"android":"levelo://app?vid=f80d80b1-fd6c-49d0-a946-3b95b1b8c004","ios":"levelo://app?vid=f80d80b1-fd6c-49d0-a946-3b95b1b8c004"},"vehicle_type_id":"4","last_reported":1770904937,"current_range_meters":8800,"station_id":"ce4bh392rcd13ifvqdm0","pricing_plan_id":"cebpf4jnsgd1na2vs0mg"},{"bike_id":"7b37adcb-6ffe-4fa3-9609-a6a4a944a1cf","system_id":"levelo_inurba_marseille","lat":43.3055,"lon":5.36678,"is_reserved":false,"is_disabled":false,"rental_uris":{"android":"levelo://app?vid=7b37adcb-6ffe-4fa3-9609-a6a4a944a1cf","ios":"levelo://app?vid=7b37adcb-6ffe-4fa3-9609-a6a4a944a1cf"},"vehicle_type_id":"4","last_reported":1770904937,"current_range_meters":8800,"station_id":"ce4bgrp2rcd13ifvqc9g","pricing_plan_id":"cebpf4jnsgd1na2vs0mg"},{"bike_id":"05797971-b1fa-4e10-9a08-cd7f223bbe55","system_id":"levelo_inurba_marseille","lat":43.21755,"lon":5.34582,"is_reserved":false,"is_disabled":false,"rental_uris":{"android":"levelo://app?vid=05797971-b1fa-4e10-9a08-cd7f223bbe55","ios":"levelo://app?vid=05797971-b1fa-4e10-9a08-cd7f223bbe55"},"vehicle_type_id":"4","last_reported":1770904937,"current_range_meters":8800,"station_id":"st_cvj6r9ubvosntc0bgbag","pricing_plan_id":"cebpf4jnsgd1na2vs0mg"},{"bike_id":"f5dfc69a-605e-4870-9f15-288a758bb79e","system_id":"levelo_inurba_marseille","lat":43.29765,"lon":5.42791,"is_reserved":false,"is_disabled":false,"rental_uris":{"android":"levelo://app?vid=f5dfc69a-605e-4870-9f15-288a758bb79e","ios":"levelo://app?vid=f5dfc69a-605e-4870-9f15-288a758bb79e"},"vehicle_type_id":"4","last_reported":1770904937,"current_range_meters":8800,"station_id":"st_d3md5207bmas73dh9klg","pricing_plan_id":"cebpf4jnsgd1na2vs0mg"},{"bike_id":"e6803627-acaa-4970-9ece-cd2f35ecf017","system_id":"levelo_inurba_marseille","lat":43.26643,"lon":5.38301,"is_reserved":false,"is_disabled":false,"rental_uris":{"android":"levelo://app?vid=e6803627-acaa-4970-9ece-cd2f35ecf017","ios":"levelo://app?vid=e6803627-acaa-4970-9ece-cd2f35ecf017"},"vehicle_type_id":"4","last_reported":1770904937,"current_range_meters":8800,"station_id":"ce4bhg92rcd13ifvqf90","pricing_plan_id":"cebpf4jnsgd1na2vs0mg"},{"bike_id":"f5e82031-62e2-40e2-8c7c-5edec33c9e91","system_id":"levelo_inurba_marseille","lat":43.26224,"lon":5.40448,"is_reserved":false,"is_disabled":false,"rental_uris":{"android":"levelo://app?vid=f5e82031-62e2-40e2-8c7c-5edec33c9e91","ios":"levelo://app?vid=f5e82031-62e2-40e2-8c7c-5edec33c9e91"},"vehicle_type_id":"4","last_reported":1770904937,"current_range_meters":8800,"station_id":"ce4bhmh2rcd13ifvqgmg","pricing_plan_id":"cebpf4jnsgd1na2vs0mg"},{"bike_id":"2cdaaecc-f3f1-45ea-a338-8e3592ee7872","system_id":"levelo_inurba_marseille","lat":43.319941,"lon":5.381658,"is_reserved":false,"is_disabled":false,"rental_uris":{"android":"levelo://app?vid=2cdaaecc-f3f1-45ea-a338-8e3592ee7872","ios":"levelo://app?vid=2cdaaecc-f3f1-45ea-a338-8e3592ee7872"},"vehicle_type_id":"4","last_reported":1770904937,"current_range_meters":8800,"station_id":"ce4bhbh2rcd13ifvqeqg","pricing_plan_id":"cebpf4jnsgd1na2vs0mg"},{"bike_id":"a0f00b77-3668-4cb1-9cb3-dbbe136dba2b","system_id":"levelo_inurba_marseille","lat":43.25584,"lon":5.3822,"is_reserved":false,"is_disabled":false,"rental_uris":{"android":"levelo://app?vid=a0f00b77-3668-4cb1-9cb3-dbbe136dba2b","ios":"levelo://app?vid=a0f00b77-3668-4cb1-9cb3-dbbe136dba2b"},"vehicle_type_id":"4","last_reported":1770904937,"current_range_meters":8800,"station_id":"ce4bhih2rcd13ifvqfs0","pricing_plan_id":"cebpf4jnsgd1na2vs0mg"},{"bike_id":"724e6ba2-5add-48b3-8905-c2449a8ae864","system_id":"levelo_inurba_marseille","lat":43.29778,"lon":5.37083,"is_reserved":false,"is_disabled":false,"rental_uris":{"android":"levelo://app?vid=724e6ba2-5add-48b3-8905-c2449a8ae864","ios":"levelo://app?vid=724e6ba2-5add-48b3-8905-c2449a8ae864"},"vehicle_type_id":"4","last_reported":1770904937,"current_range_meters":8800,"station_id":"ce4bgop2rcd13ifvqc1g","pricing_plan_id":"cebpf4jnsgd1na2vs0mg"},{"bike_id":"107ddb99-edbe-400c-935b-2ceba13046dc","system_id":"levelo_inurba_marseille","lat":43.33161,"lon":5.376814,"is_reserved":false,"is_disabled":false,"rental_uris":{"android":"levelo://app?vid=107ddb99-edbe-400c-935b-2ceba13046dc","ios":"levelo://app?vid=107ddb99-edbe-400c-935b-2ceba13046dc"},"vehicle_type_id":"4","last_reported":1770904937,"current_range_meters":8800,"station_id":"st_d46cu089ee8s73dldbu0","pricing_plan_id":"cebpf4jnsgd1na2vs0mg"},{"bike_id":"2757d14a-f7ce-4630-bcfa-0ce1c579b2cd","system_id":"levelo_inurba_marseille","lat":43.31333,"lon":5.39695,"is_reserved":false,"is_disabled":false,"rental_uris":{"android":"levelo://app?vid=2757d14a-f7ce-4630-bcfa-0ce1c579b2cd","ios":"levelo://app?vid=2757d14a-f7ce-4630-bcfa-0ce1c579b2cd"},"vehicle_type_id":"4","last_reported":1770904937,"current_range_meters":8800,"station_id":"ce4bgvp2rcd13ifvqcu0","pricing_plan_id":"cebpf4jnsgd1na2vs0mg"},{"bike_id":"2da32715-91d7-4dc2-bd96-0baee08ab0c9","system_id":"levelo_inurba_marseille","lat":43.24175,"lon":5.39722,"is_reserved":false,"is_disabled":false,"rental_uris":{"android":"levelo://app?vid=2da32715-91d7-4dc2-bd96-0baee08ab0c9","ios":"levelo://app?vid=2da32715-91d7-4dc2-bd96-0baee08ab0c9"},"vehicle_type_id":"4","last_reported":1770904937,"current_range_meters":8800,"station_id":"ce4bhn12rcd13ifvqgpg","pricing_plan_id":"cebpf4jnsgd1na2vs0mg"},{"bike_id":"ab2b49aa-7574-41ea-aafd-20e44f598b0a","system_id":"levelo_inurba_marseille","lat":43.33174,"lon":5.37684,"is_reserved":false,"is_disabled":false,"rental_uris":{"android":"levelo://app?vid=ab2b49aa-7574-41ea-aafd-20e44f598b0a","ios":"levelo://app?vid=ab2b49aa-7574-41ea-aafd-20e44f598b0a"},"vehicle_type_id":"4","last_reported":1770904937,"current_range_meters":8800,"station_id":"st_d46cu089ee8s73dldbu0","pricing_plan_id":"cebpf4jnsgd1na2vs0mg"},{"bike_id":"2966434a-921f-4f6a-8543-92544bd2c40c","system_id":"levelo_inurba_marseille","lat":43.29842,"lon":5.36262,"is_reserved":false,"is_disabled":false,"rental_uris":{"android":"levelo://app?vid=2966434a-921f-4f6a-8543-92544bd2c40c","ios":"levelo://app?vid=2966434a-921f-4f6a-8543-92544bd2c40c"},"vehicle_type_id":"4","last_reported":1770904937,"current_range_meters":8800,"station_id":"ce4bgpp2rcd13ifvqc3g","pricing_plan_id":"cebpf4jnsgd1na2vs0mg"},{"bike_id":"51ad0198-092e-4860-b994-3420575955f1","system_id":"levelo_inurba_marseille","lat":43.22527,"lon":5.34833,"is_reserved":false,"is_disabled":false,"rental_uris":{"android":"levelo://app?vid=51ad0198-092e-4860-b994-3420575955f1","ios":"levelo://app?vid=51ad0198-092e-4860-b994-3420575955f1"},"vehicle_type_id":"4","last_reported":1770904937,"current_range_meters":9200,"station_id":"st_cvj5dfep6f1abm77gieg","pricing_plan_id":"cebpf4jnsgd1na2vs0mg"},{"bike_id":"9e49c384-30c1-4f45-a8df-9663175b8696","system_id":"levelo_inurba_marseille","lat":43.2447,"lon":5.42535,"is_reserved":false,"is_disabled":false,"rental_uris":{"android":"levelo://app?vid=9e49c384-30c1-4f45-a8df-9663175b8696","ios":"levelo://app?vid=9e49c384-30c1-4f45-a8df-9663175b8696"},"vehicle_type_id":"4","last_reported":1770904937,"current_range_meters":9200,"station_id":"st_d4a3vfp97mjs738cd8kg","pricing_plan_id":"cebpf4jnsgd1na2vs0mg"},{"bike_id":"5dc1f038-6854-4034-9cea-d2dde6f4213a","system_id":"levelo_inurba_marseille","lat":43.29284,"lon":5.37644,"is_reserved":false,"is_disabled":false,"rental_uris":{"android":"levelo://app?vid=5dc1f038-6854-4034-9cea-d2dde6f4213a","ios":"levelo://app?vid=5dc1f038-6854-4034-9cea-d2dde6f4213a"},"vehicle_type_id":"4","last_reported":1770904937,"current_range_meters":9200,"station_id":"ce4bgi12rcd13ifvqb80","pricing_plan_id":"cebpf4jnsgd1na2vs0mg"},{"bike_id":"94a3728b-5c23-4ca2-9639-f5f13b25c1b4","system_id":"levelo_inurba_marseille","lat":43.29744,"lon":5.37683,"is_reserved":false,"is_disabled":false,"rental_uris":{"android":"levelo://app?vid=94a3728b-5c23-4ca2-9639-f5f13b25c1b4","ios":"levelo://app?vid=94a3728b-5c23-4ca2-9639-f5f13b25c1b4"},"vehicle_type_id":"4","last_reported":1770904937,"current_range_meters":9200,"station_id":"ce4bgkh2rcd13ifvqbl0","pricing_plan_id":"cebpf4jnsgd1na2vs0mg"},{"bike_id":"dc0bbbef-469e-4852-b275-445893c3bbfc","system_id":"levelo_inurba_marseille","lat":43.31211,"lon":5.3685,"is_reserved":false,"is_disabled":false,"rental_uris":{"android":"levelo://app?vid=dc0bbbef-469e-4852-b275-445893c3bbfc","ios":"levelo://app?vid=dc0bbbef-469e-4852-b275-445893c3bbfc"},"vehicle_type_id":"4","last_reported":1770904937,"current_range_meters":9200,"station_id":"ce4bgl92rcd13ifvqbq0","pricing_plan_id":"cebpf4jnsgd1na2vs0mg"},{"bike_id":"4c984fe9-1849-4de8-b436-006adff2dd9f","system_id":"levelo_inurba_marseille","lat":43.29799,"lon":5.38074,"is_reserved":false,"is_disabled":false,"rental_uris":{"android":"levelo://app?vid=4c984fe9-1849-4de8-b436-006adff2dd9f","ios":"levelo://app?vid=4c984fe9-1849-4de8-b436-006adff2dd9f"},"vehicle_type_id":"4","last_reported":1770904937,"current_range_meters":9200,"station_id":"ce4bgip2rcd13ifvqbb0","pricing_plan_id":"cebpf4jnsgd1na2vs0mg"},{"bike_id":"c0d21250-70f7-405b-91f7-061919265b15","system_id":"levelo_inurba_marseille","lat":43.337444,"lon":5.374475,"is_reserved":false,"is_disabled":false,"rental_uris":{"android":"levelo://app?vid=c0d21250-70f7-405b-91f7-061919265b15","ios":"levelo://app?vid=c0d21250-70f7-405b-91f7-061919265b15"},"vehicle_type_id":"4","last_reported":1770904937,"current_range_meters":9200,"station_id":"","pricing_plan_id":"cebpf4jnsgd1na2vs0mg"},{"bike_id":"f28ee724-6771-4020-9ab3-7deb12288357","system_id":"levelo_inurba_marseille","lat":43.31046,"lon":5.37159,"is_reserved":false,"is_disabled":false,"rental_uris":{"android":"levelo://app?vid=f28ee724-6771-4020-9ab3-7deb12288357","ios":"levelo://app?vid=f28ee724-6771-4020-9ab3-7deb12288357"},"vehicle_type_id":"4","last_reported":1770904937,"current_range_meters":9200,"station_id":"st_d4kl2rp97mjs73e7tdfg","pricing_plan_id":"cebpf4jnsgd1na2vs0mg"},{"bike_id":"3b411d06-3797-4c41-b820-5c0051884bfe","system_id":"levelo_inurba_marseille","lat":43.255104,"lon":5.376589,"is_reserved":false,"is_disabled":false,"rental_uris":{"android":"levelo://app?vid=3b411d06-3797-4c41-b820-5c0051884bfe","ios":"levelo://app?vid=3b411d06-3797-4c41-b820-5c0051884bfe"},"vehicle_type_id":"4","last_reported":1770904937,"current_range_meters":9200,"station_id":"ce4bhh12rcd13ifvqff0","pricing_plan_id":"cebpf4jnsgd1na2vs0mg"},{"bike_id":"1d2595e7-24ec-4837-ac2e-333261d8dae0","system_id":"levelo_inurba_marseille","lat":43.22555,"lon":5.41631,"is_reserved":false,"is_disabled":false,"rental_uris":{"android":"levelo://app?vid=1d2595e7-24ec-4837-ac2e-333261d8dae0","ios":"levelo://app?vid=1d2595e7-24ec-4837-ac2e-333261d8dae0"},"vehicle_type_id":"4","last_reported":1770904937,"current_range_meters":9200,"station_id":"st_d2o4gvlbi1j2169b742g","pricing_plan_id":"cebpf4jnsgd1na2vs0mg"},{"bike_id":"76ea5260-ff82-43e8-a377-4f3ddffee2c7","system_id":"levelo_inurba_marseille","lat":43.29714,"lon":5.42776,"is_reserved":false,"is_disabled":false,"rental_uris":{"android":"levelo://app?vid=76ea5260-ff82-43e8-a377-4f3ddffee2c7","ios":"levelo://app?vid=76ea5260-ff82-43e8-a377-4f3ddffee2c7"},"vehicle_type_id":"4","last_reported":1770904937,"current_range_meters":9200,"station_id":"st_d3md5207bmas73dh9klg","pricing_plan_id":"cebpf4jnsgd1na2vs0mg"},{"bike_id":"cf4cb214-add7-4259-9037-63a9e2c59cab","system_id":"levelo_inurba_marseille","lat":43.3033,"lon":5.36894,"is_reserved":false,"is_disabled":false,"rental_uris":{"android":"levelo://app?vid=cf4cb214-add7-4259-9037-63a9e2c59cab","ios":"levelo://app?vid=cf4cb214-add7-4259-9037-63a9e2c59cab"},"vehicle_type_id":"4","last_reported":1770904937,"current_range_meters":9200,"station_id":"ce4bgqh2rcd13ifvqc5g","pricing_plan_id":"cebpf4jnsgd1na2vs0mg"},{"bike_id":"93cc1b01-8d09-4162-95ee-93c6b99b4145","system_id":"levelo_inurba_marseille","lat":43.26216,"lon":5.3744,"is_reserved":false,"is_disabled":false,"rental_uris":{"android":"levelo://app?vid=93cc1b01-8d09-4162-95ee-93c6b99b4145","ios":"levelo://app?vid=93cc1b01-8d09-4162-95ee-93c6b99b4145"},"vehicle_type_id":"4","last_reported":1770904937,"current_range_meters":9200,"station_id":"ce4bhgp2rcd13ifvqfc0","pricing_plan_id":"cebpf4jnsgd1na2vs0mg"},{"bike_id":"c8c870e0-b402-478d-ad4e-befdf9f3a602","system_id":"levelo_inurba_marseille","lat":43.246602,"lon":5.38178,"is_reserved":false,"is_disabled":false,"rental_uris":{"android":"levelo://app?vid=c8c870e0-b402-478d-ad4e-befdf9f3a602","ios":"levelo://app?vid=c8c870e0-b402-478d-ad4e-befdf9f3a602"},"vehicle_type_id":"4","last_reported":1770904937,"current_range_meters":9200,"station_id":"ce4bhih2rcd13ifvqfr0","pricing_plan_id":"cebpf4jnsgd1na2vs0mg"},{"bike_id":"1d262795-ca7c-4031-9a1c-1befe1b2e85b","system_id":"levelo_inurba_marseille","lat":43.269429,"lon":5.386429,"is_reserved":false,"is_disabled":false,"rental_uris":{"android":"levelo://app?vid=1d262795-ca7c-4031-9a1c-1befe1b2e85b","ios":"levelo://app?vid=1d262795-ca7c-4031-9a1c-1befe1b2e85b"},"vehicle_type_id":"4","last_reported":1770904937,"current_range_meters":9600,"station_id":"ce4bhh92rcd13ifvqfh0","pricing_plan_id":"cebpf4jnsgd1na2vs0mg"},{"bike_id":"bc757259-3231-42fc-84f1-e4b3f0804f84","system_id":"levelo_inurba_marseille","lat":43.25932,"lon":5.40891,"is_reserved":false,"is_disabled":false,"rental_uris":{"android":"levelo://app?vid=bc757259-3231-42fc-84f1-e4b3f0804f84","ios":"levelo://app?vid=bc757259-3231-42fc-84f1-e4b3f0804f84"},"vehicle_type_id":"4","last_reported":1770904937,"current_range_meters":9600,"station_id":"ce4bhm92rcd13ifvqglg","pricing_plan_id":"cebpf4jnsgd1na2vs0mg"},{"bike_id":"1ce107f6-c827-4fd0-952b-5454d05e9916","system_id":"levelo_inurba_marseille","lat":43.29627,"lon":5.377,"is_reserved":false,"is_disabled":false,"rental_uris":{"android":"levelo://app?vid=1ce107f6-c827-4fd0-952b-5454d05e9916","ios":"levelo://app?vid=1ce107f6-c827-4fd0-952b-5454d05e9916"},"vehicle_type_id":"4","last_reported":1770904937,"current_range_meters":9600,"station_id":"ce4bgi92rcd13ifvqb90","pricing_plan_id":"cebpf4jnsgd1na2vs0mg"},{"bike_id":"806dba28-6b5b-471d-afa9-5e9335f17ebb","system_id":"levelo_inurba_marseille","lat":43.29266,"lon":5.4092,"is_reserved":false,"is_disabled":true,"rental_uris":{"android":"levelo://app?vid=806dba28-6b5b-471d-afa9-5e9335f17ebb","ios":"levelo://app?vid=806dba28-6b5b-471d-afa9-5e9335f17ebb"},"vehicle_type_id":"4","last_reported":1770904937,"current_range_meters":9600,"station_id":"ce4bh192rcd13ifvqdc0","pricing_plan_id":"cebpf4jnsgd1na2vs0mg"},{"bike_id":"c059536b-8667-4952-ae20-1798f49ea3e4","system_id":"levelo_inurba_marseille","lat":43.27944,"lon":5.38738,"is_reserved":false,"is_disabled":false,"rental_uris":{"android":"levelo://app?vid=c059536b-8667-4952-ae20-1798f49ea3e4","ios":"levelo://app?vid=c059536b-8667-4952-ae20-1798f49ea3e4"},"vehicle_type_id":"4","last_reported":1770904937,"current_range_meters":9600,"station_id":"ce4bhg12rcd13ifvqf80","pricing_plan_id":"cebpf4jnsgd1na2vs0mg"},{"bike_id":"4fabe8f2-3686-4595-b208-5b1849f1d59a","system_id":"levelo_inurba_marseille","lat":43.2176,"lon":5.34597,"is_reserved":false,"is_disabled":false,"rental_uris":{"android":"levelo://app?vid=4fabe8f2-3686-4595-b208-5b1849f1d59a","ios":"levelo://app?vid=4fabe8f2-3686-4595-b208-5b1849f1d59a"},"vehicle_type_id":"4","last_reported":1770904937,"current_range_meters":9600,"station_id":"st_cvj6r9ubvosntc0bgbag","pricing_plan_id":"cebpf4jnsgd1na2vs0mg"},{"bike_id":"1666a0e7-ccfb-4a46-816c-bd1b996f577e","system_id":"levelo_inurba_marseille","lat":43.28599,"lon":5.38384,"is_reserved":false,"is_disabled":false,"rental_uris":{"android":"levelo://app?vid=1666a0e7-ccfb-4a46-816c-bd1b996f577e","ios":"levelo://app?vid=1666a0e7-ccfb-4a46-816c-bd1b996f577e"},"vehicle_type_id":"4","last_reported":1770904937,"current_range_meters":9600,"station_id":"","pricing_plan_id":"cebpf4jnsgd1na2vs0mg"},{"bike_id":"3ded093a-c8f0-4adf-8562-526a41fc8cae","system_id":"levelo_inurba_marseille","lat":43.29622,"lon":5.3717,"is_reserved":false,"is_disabled":false,"rental_uris":{"android":"levelo://app?vid=3ded093a-c8f0-4adf-8562-526a41fc8cae","ios":"levelo://app?vid=3ded093a-c8f0-4adf-8562-526a41fc8cae"},"vehicle_type_id":"4","last_reported":1770904937,"current_range_meters":9600,"station_id":"ce4bgnh2rcd13ifvqc0g","pricing_plan_id":"cebpf4jnsgd1na2vs0mg"},{"bike_id":"5e6b363c-3285-4065-aa55-8f6ad4524674","system_id":"levelo_inurba_marseille","lat":43.21203,"lon":5.35072,"is_reserved":false,"is_disabled":false,"rental_uris":{"android":"levelo://app?vid=5e6b363c-3285-4065-aa55-8f6ad4524674","ios":"levelo://app?vid=5e6b363c-3285-4065-aa55-8f6ad4524674"},"vehicle_type_id":"4","last_reported":1770904937,"current_range_meters":9600,"station_id":"st_cvj6sg6p6f1abm77japg","pricing_plan_id":"cebpf4jnsgd1na2vs0mg"},{"bike_id":"7578ca6a-41b9-4d16-80d9-987a7c1630a9","system_id":"levelo_inurba_marseille","lat":43.24659,"lon":5.38882,"is_reserved":false,"is_disabled":false,"rental_uris":{"android":"levelo://app?vid=7578ca6a-41b9-4d16-80d9-987a7c1630a9","ios":"levelo://app?vid=7578ca6a-41b9-4d16-80d9-987a7c1630a9"},"vehicle_type_id":"4","last_reported":1770904937,"current_range_meters":9600,"station_id":"ce4bhg12rcd13ifvqf60","pricing_plan_id":"cebpf4jnsgd1na2vs0mg"},{"bike_id":"86845f83-82dc-4c86-a881-3f557d2b5ecb","system_id":"levelo_inurba_marseille","lat":43.31276,"lon":5.37757,"is_reserved":false,"is_disabled":false,"rental_uris":{"android":"levelo://app?vid=86845f83-82dc-4c86-a881-3f557d2b5ecb","ios":"levelo://app?vid=86845f83-82dc-4c86-a881-3f557d2b5ecb"},"vehicle_type_id":"4","last_reported":1770904937,"current_range_meters":9600,"station_id":"","pricing_plan_id":"cebpf4jnsgd1na2vs0mg"},{"bike_id":"4c7ae58a-1681-4146-b5ee-d0af7898bf6f","system_id":"levelo_inurba_marseille","lat":43.27319,"lon":5.39126,"is_reserved":false,"is_disabled":false,"rental_uris":{"android":"levelo://app?vid=4c7ae58a-1681-4146-b5ee-d0af7898bf6f","ios":"levelo://app?vid=4c7ae58a-1681-4146-b5ee-d0af7898bf6f"},"vehicle_type_id":"4","last_reported":1770904937,"current_range_meters":9600,"station_id":"ce4bhgp2rcd13ifvqfe0","pricing_plan_id":"cebpf4jnsgd1na2vs0mg"},{"bike_id":"300bd048-5059-4d92-acd1-4068b19629fb","system_id":"levelo_inurba_marseille","lat":43.26855,"lon":5.40678,"is_reserved":false,"is_disabled":false,"rental_uris":{"android":"levelo://app?vid=300bd048-5059-4d92-acd1-4068b19629fb","ios":"levelo://app?vid=300bd048-5059-4d92-acd1-4068b19629fb"},"vehicle_type_id":"4","last_reported":1770904937,"current_range_meters":9600,"station_id":"","pricing_plan_id":"cebpf4jnsgd1na2vs0mg"},{"bike_id":"ba7d5086-526f-401d-b86d-eb9414a58cb1","system_id":"levelo_inurba_marseille","lat":43.25944,"lon":5.40914,"is_reserved":false,"is_disabled":false,"rental_uris":{"android":"levelo://app?vid=ba7d5086-526f-401d-b86d-eb9414a58cb1","ios":"levelo://app?vid=ba7d5086-526f-401d-b86d-eb9414a58cb1"},"vehicle_type_id":"4","last_reported":1770904937,"current_range_meters":9600,"station_id":"ce4bhm92rcd13ifvqglg","pricing_plan_id":"cebpf4jnsgd1na2vs0mg"},{"bike_id":"89dc407d-ca98-4662-aa6a-0e3472bfc645","system_id":"levelo_inurba_marseille","lat":43.29945,"lon":5.3857,"is_reserved":false,"is_disabled":false,"rental_uris":{"android":"levelo://app?vid=89dc407d-ca98-4662-aa6a-0e3472bfc645","ios":"levelo://app?vid=89dc407d-ca98-4662-aa6a-0e3472bfc645"},"vehicle_type_id":"4","last_reported":1770904937,"current_range_meters":9600,"station_id":"","pricing_plan_id":"cebpf4jnsgd1na2vs0mg"},{"bike_id":"38135c96-ade4-45b4-91a7-00b8377b3ac9","system_id":"levelo_inurba_marseille","lat":43.3372,"lon":5.39173,"is_reserved":false,"is_disabled":false,"rental_uris":{"android":"levelo://app?vid=38135c96-ade4-45b4-91a7-00b8377b3ac9","ios":"levelo://app?vid=38135c96-ade4-45b4-91a7-00b8377b3ac9"},"vehicle_type_id":"4","last_reported":1770904937,"current_range_meters":10000,"station_id":"ce4bhr92rcd13ifvqhsg","pricing_plan_id":"cebpf4jnsgd1na2vs0mg"},{"bike_id":"03bdebf5-220a-47b3-9ab4-45874e4939c0","system_id":"levelo_inurba_marseille","lat":43.28686,"lon":5.37925,"is_reserved":false,"is_disabled":false,"rental_uris":{"android":"levelo://app?vid=03bdebf5-220a-47b3-9ab4-45874e4939c0","ios":"levelo://app?vid=03bdebf5-220a-47b3-9ab4-45874e4939c0"},"vehicle_type_id":"4","last_reported":1770904937,"current_range_meters":10000,"station_id":"ce4bh9p2rcd13ifvqec0","pricing_plan_id":"cebpf4jnsgd1na2vs0mg"},{"bike_id":"014613de-69aa-4aca-9291-67750cce2e69","system_id":"levelo_inurba_marseille","lat":43.28488,"lon":5.483983,"is_reserved":false,"is_disabled":false,"rental_uris":{"android":"levelo://app?vid=014613de-69aa-4aca-9291-67750cce2e69","ios":"levelo://app?vid=014613de-69aa-4aca-9291-67750cce2e69"},"vehicle_type_id":"4","last_reported":1770904937,"current_range_meters":10000,"station_id":"","pricing_plan_id":"cebpf4jnsgd1na2vs0mg"},{"bike_id":"089f988d-8ddf-43ed-85ac-d7b3775a509c","system_id":"levelo_inurba_marseille","lat":43.24175,"lon":5.39725,"is_reserved":false,"is_disabled":false,"rental_uris":{"android":"levelo://app?vid=089f988d-8ddf-43ed-85ac-d7b3775a509c","ios":"levelo://app?vid=089f988d-8ddf-43ed-85ac-d7b3775a509c"},"vehicle_type_id":"4","last_reported":1770904937,"current_range_meters":10000,"station_id":"ce4bhn12rcd13ifvqgpg","pricing_plan_id":"cebpf4jnsgd1na2vs0mg"},{"bike_id":"65aac124-f4af-40a9-969f-9b86b76af09b","system_id":"levelo_inurba_marseille","lat":43.29448,"lon":5.395761,"is_reserved":false,"is_disabled":false,"rental_uris":{"android":"levelo://app?vid=65aac124-f4af-40a9-969f-9b86b76af09b","ios":"levelo://app?vid=65aac124-f4af-40a9-969f-9b86b76af09b"},"vehicle_type_id":"4","last_reported":1770904937,"current_range_meters":10000,"station_id":"","pricing_plan_id":"cebpf4jnsgd1na2vs0mg"},{"bike_id":"cb2bcb24-1c3f-4f48-a6ce-4caf16fce4cb","system_id":"levelo_inurba_marseille","lat":43.31727,"lon":5.40415,"is_reserved":false,"is_disabled":false,"rental_uris":{"android":"levelo://app?vid=cb2bcb24-1c3f-4f48-a6ce-4caf16fce4cb","ios":"levelo://app?vid=cb2bcb24-1c3f-4f48-a6ce-4caf16fce4cb"},"vehicle_type_id":"4","last_reported":1770904937,"current_range_meters":10000,"station_id":"ce4bh012rcd13ifvqd00","pricing_plan_id":"cebpf4jnsgd1na2vs0mg"},{"bike_id":"bbf76c20-722d-4091-93ed-579710f24304","system_id":"levelo_inurba_marseille","lat":43.2436,"lon":5.371,"is_reserved":false,"is_disabled":false,"rental_uris":{"android":"levelo://app?vid=bbf76c20-722d-4091-93ed-579710f24304","ios":"levelo://app?vid=bbf76c20-722d-4091-93ed-579710f24304"},"vehicle_type_id":"4","last_reported":1770904937,"current_range_meters":10000,"station_id":"ce4bhhh2rcd13ifvqfk0","pricing_plan_id":"cebpf4jnsgd1na2vs0mg"},{"bike_id":"acc4afec-e80f-436d-a4cf-d6122baf0d20","system_id":"levelo_inurba_marseille","lat":43.27231,"lon":5.40928,"is_reserved":false,"is_disabled":false,"rental_uris":{"android":"levelo://app?vid=acc4afec-e80f-436d-a4cf-d6122baf0d20","ios":"levelo://app?vid=acc4afec-e80f-436d-a4cf-d6122baf0d20"},"vehicle_type_id":"4","last_reported":1770904937,"current_range_meters":10000,"station_id":"","pricing_plan_id":"cebpf4jnsgd1na2vs0mg"},{"bike_id":"d8c153e5-14a7-48cd-ba75-ef3b0368173f","system_id":"levelo_inurba_marseille","lat":43.231854,"lon":5.399994,"is_reserved":false,"is_disabled":false,"rental_uris":{"android":"levelo://app?vid=d8c153e5-14a7-48cd-ba75-ef3b0368173f","ios":"levelo://app?vid=d8c153e5-14a7-48cd-ba75-ef3b0368173f"},"vehicle_type_id":"4","last_reported":1770904937,"current_range_meters":10000,"station_id":"ce4bhn12rcd13ifvqgqg","pricing_plan_id":"cebpf4jnsgd1na2vs0mg"},{"bike_id":"171b62e2-ba7e-4159-8190-27c62681b21e","system_id":"levelo_inurba_marseille","lat":43.2708,"lon":5.42265,"is_reserved":false,"is_disabled":false,"rental_uris":{"android":"levelo://app?vid=171b62e2-ba7e-4159-8190-27c62681b21e","ios":"levelo://app?vid=171b62e2-ba7e-4159-8190-27c62681b21e"},"vehicle_type_id":"4","last_reported":1770904937,"current_range_meters":10000,"station_id":"ce4bhk92rcd13ifvqgb0","pricing_plan_id":"cebpf4jnsgd1na2vs0mg"},{"bike_id":"998f7130-c295-4159-974f-c8a3e9bdef38","system_id":"levelo_inurba_marseille","lat":43.23163,"lon":5.43688,"is_reserved":false,"is_disabled":false,"rental_uris":{"android":"levelo://app?vid=998f7130-c295-4159-974f-c8a3e9bdef38","ios":"levelo://app?vid=998f7130-c295-4159-974f-c8a3e9bdef38"},"vehicle_type_id":"4","last_reported":1770904937,"current_range_meters":10000,"station_id":"ce4bhmp2rcd13ifvqgog","pricing_plan_id":"cebpf4jnsgd1na2vs0mg"},{"bike_id":"51572d82-5e22-4291-b0fa-25a56dd1cc59","system_id":"levelo_inurba_marseille","lat":43.26207,"lon":5.37447,"is_reserved":false,"is_disabled":false,"rental_uris":{"android":"levelo://app?vid=51572d82-5e22-4291-b0fa-25a56dd1cc59","ios":"levelo://app?vid=51572d82-5e22-4291-b0fa-25a56dd1cc59"},"vehicle_type_id":"4","last_reported":1770904937,"current_range_meters":10000,"station_id":"ce4bhgp2rcd13ifvqfc0","pricing_plan_id":"cebpf4jnsgd1na2vs0mg"},{"bike_id":"23edf86f-0d3b-4592-835d-eabf2ed9286d","system_id":"levelo_inurba_marseille","lat":43.30169,"lon":5.3739,"is_reserved":false,"is_disabled":false,"rental_uris":{"android":"levelo://app?vid=23edf86f-0d3b-4592-835d-eabf2ed9286d","ios":"levelo://app?vid=23edf86f-0d3b-4592-835d-eabf2ed9286d"},"vehicle_type_id":"4","last_reported":1770904937,"current_range_meters":10000,"station_id":"ce4bgs92rcd13ifvqcc0","pricing_plan_id":"cebpf4jnsgd1na2vs0mg"},{"bike_id":"8b6c6055-11c8-47ef-a755-295c17d6052d","system_id":"levelo_inurba_marseille","lat":43.28175,"lon":5.42632,"is_reserved":false,"is_disabled":false,"rental_uris":{"android":"levelo://app?vid=8b6c6055-11c8-47ef-a755-295c17d6052d","ios":"levelo://app?vid=8b6c6055-11c8-47ef-a755-295c17d6052d"},"vehicle_type_id":"4","last_reported":1770904937,"current_range_meters":10000,"station_id":"ce4bhnh2rcd13ifvqgug","pricing_plan_id":"cebpf4jnsgd1na2vs0mg"},{"bike_id":"0270cee7-d38d-40e7-8096-229f09bfe278","system_id":"levelo_inurba_marseille","lat":43.25001,"lon":5.38923,"is_reserved":false,"is_disabled":false,"rental_uris":{"android":"levelo://app?vid=0270cee7-d38d-40e7-8096-229f09bfe278","ios":"levelo://app?vid=0270cee7-d38d-40e7-8096-229f09bfe278"},"vehicle_type_id":"4","last_reported":1770904937,"current_range_meters":10000,"station_id":"ce4bhgp2rcd13ifvqfd0","pricing_plan_id":"cebpf4jnsgd1na2vs0mg"},{"bike_id":"df373b99-2df4-45ca-b1f3-0caae337f4bd","system_id":"levelo_inurba_marseille","lat":43.24465,"lon":5.42527,"is_reserved":false,"is_disabled":false,"rental_uris":{"android":"levelo://app?vid=df373b99-2df4-45ca-b1f3-0caae337f4bd","ios":"levelo://app?vid=df373b99-2df4-45ca-b1f3-0caae337f4bd"},"vehicle_type_id":"4","last_reported":1770904937,"current_range_meters":10000,"station_id":"st_d4a3vfp97mjs738cd8kg","pricing_plan_id":"cebpf4jnsgd1na2vs0mg"},{"bike_id":"7b0d4d51-03c0-4095-b779-7a9f189c6808","system_id":"levelo_inurba_marseille","lat":43.283311,"lon":5.381085,"is_reserved":false,"is_disabled":false,"rental_uris":{"android":"levelo://app?vid=7b0d4d51-03c0-4095-b779-7a9f189c6808","ios":"levelo://app?vid=7b0d4d51-03c0-4095-b779-7a9f189c6808"},"vehicle_type_id":"4","last_reported":1770904937,"current_range_meters":10000,"station_id":"ce4bh412rcd13ifvqdr0","pricing_plan_id":"cebpf4jnsgd1na2vs0mg"},{"bike_id":"4629b7a1-2122-46cc-8107-bd6f1cb8ca3d","system_id":"levelo_inurba_marseille","lat":43.26958,"lon":5.3863,"is_reserved":false,"is_disabled":false,"rental_uris":{"android":"levelo://app?vid=4629b7a1-2122-46cc-8107-bd6f1cb8ca3d","ios":"levelo://app?vid=4629b7a1-2122-46cc-8107-bd6f1cb8ca3d"},"vehicle_type_id":"4","last_reported":1770904937,"current_range_meters":10000,"station_id":"ce4bhh92rcd13ifvqfh0","pricing_plan_id":"cebpf4jnsgd1na2vs0mg"},{"bike_id":"7ebaa038-f7e8-4cf9-aac2-b18fb424d74a","system_id":"levelo_inurba_marseille","lat":43.27635,"lon":5.39555,"is_reserved":false,"is_disabled":false,"rental_uris":{"android":"levelo://app?vid=7ebaa038-f7e8-4cf9-aac2-b18fb424d74a","ios":"levelo://app?vid=7ebaa038-f7e8-4cf9-aac2-b18fb424d74a"},"vehicle_type_id":"4","last_reported":1770904937,"current_range_meters":10000,"station_id":"","pricing_plan_id":"cebpf4jnsgd1na2vs0mg"},{"bike_id":"5effb89f-1d70-4615-a4b6-1dc3bfffaecb","system_id":"levelo_inurba_marseille","lat":43.29252,"lon":5.35983,"is_reserved":false,"is_disabled":false,"rental_uris":{"android":"levelo://app?vid=5effb89f-1d70-4615-a4b6-1dc3bfffaecb","ios":"levelo://app?vid=5effb89f-1d70-4615-a4b6-1dc3bfffaecb"},"vehicle_type_id":"4","last_reported":1770904937,"current_range_meters":10000,"station_id":"","pricing_plan_id":"cebpf4jnsgd1na2vs0mg"},{"bike_id":"13028dd4-e894-442e-bf4d-7d6a0f35c6cc","system_id":"levelo_inurba_marseille","lat":43.24086,"lon":5.37744,"is_reserved":false,"is_disabled":false,"rental_uris":{"android":"levelo://app?vid=13028dd4-e894-442e-bf4d-7d6a0f35c6cc","ios":"levelo://app?vid=13028dd4-e894-442e-bf4d-7d6a0f35c6cc"},"vehicle_type_id":"4","last_reported":1770904937,"current_range_meters":10000,"station_id":"ce4bhnp2rcd13ifvqgvg","pricing_plan_id":"cebpf4jnsgd1na2vs0mg"},{"bike_id":"cae3340b-dabf-42ee-b29f-fab64d3e6b2c","system_id":"levelo_inurba_marseille","lat":43.24064,"lon":5.37758,"is_reserved":false,"is_disabled":false,"rental_uris":{"android":"levelo://app?vid=cae3340b-dabf-42ee-b29f-fab64d3e6b2c","ios":"levelo://app?vid=cae3340b-dabf-42ee-b29f-fab64d3e6b2c"},"vehicle_type_id":"4","last_reported":1770904937,"current_range_meters":10800,"station_id":"ce4bhnp2rcd13ifvqgvg","pricing_plan_id":"cebpf4jnsgd1na2vs0mg"},{"bike_id":"e29024b3-288c-4d8b-ba32-8553041a7294","system_id":"levelo_inurba_marseille","lat":43.25917,"lon":5.40882,"is_reserved":false,"is_disabled":false,"rental_uris":{"android":"levelo://app?vid=e29024b3-288c-4d8b-ba32-8553041a7294","ios":"levelo://app?vid=e29024b3-288c-4d8b-ba32-8553041a7294"},"vehicle_type_id":"4","last_reported":1770904937,"current_range_meters":10800,"station_id":"ce4bhm92rcd13ifvqglg","pricing_plan_id":"cebpf4jnsgd1na2vs0mg"},{"bike_id":"c17a21f9-cca5-4f41-8121-c291aa00ad89","system_id":"levelo_inurba_marseille","lat":43.30488,"lon":5.37908,"is_reserved":false,"is_disabled":false,"rental_uris":{"android":"levelo://app?vid=c17a21f9-cca5-4f41-8121-c291aa00ad89","ios":"levelo://app?vid=c17a21f9-cca5-4f41-8121-c291aa00ad89"},"vehicle_type_id":"4","last_reported":1770904937,"current_range_meters":10800,"station_id":"ce4bgup2rcd13ifvqcn0","pricing_plan_id":"cebpf4jnsgd1na2vs0mg"},{"bike_id":"1553a87a-c070-44ad-8771-3bf3220a47ca","system_id":"levelo_inurba_marseille","lat":43.27059,"lon":5.38294,"is_reserved":false,"is_disabled":false,"rental_uris":{"android":"levelo://app?vid=1553a87a-c070-44ad-8771-3bf3220a47ca","ios":"levelo://app?vid=1553a87a-c070-44ad-8771-3bf3220a47ca"},"vehicle_type_id":"4","last_reported":1770904937,"current_range_meters":10800,"station_id":"st_d3n2fo6cfp8s73cte1j0","pricing_plan_id":"cebpf4jnsgd1na2vs0mg"},{"bike_id":"b39ba1aa-7b31-4368-898e-d2ae177a7edd","system_id":"levelo_inurba_marseille","lat":43.26576,"lon":5.37292,"is_reserved":false,"is_disabled":false,"rental_uris":{"android":"levelo://app?vid=b39ba1aa-7b31-4368-898e-d2ae177a7edd","ios":"levelo://app?vid=b39ba1aa-7b31-4368-898e-d2ae177a7edd"},"vehicle_type_id":"4","last_reported":1770904937,"current_range_meters":10800,"station_id":"ce4bhg12rcd13ifvqf70","pricing_plan_id":"cebpf4jnsgd1na2vs0mg"},{"bike_id":"24beb69c-3a8c-4d35-9631-070c88397c48","system_id":"levelo_inurba_marseille","lat":43.31368,"lon":5.36716,"is_reserved":false,"is_disabled":false,"rental_uris":{"android":"levelo://app?vid=24beb69c-3a8c-4d35-9631-070c88397c48","ios":"levelo://app?vid=24beb69c-3a8c-4d35-9631-070c88397c48"},"vehicle_type_id":"4","last_reported":1770904937,"current_range_meters":10800,"station_id":"ce4bgr92rcd13ifvqc6g","pricing_plan_id":"cebpf4jnsgd1na2vs0mg"},{"bike_id":"a48f35fb-00c9-4d62-a56d-cc9d86bcfa41","system_id":"levelo_inurba_marseille","lat":43.31888,"lon":5.407267,"is_reserved":false,"is_disabled":false,"rental_uris":{"android":"levelo://app?vid=a48f35fb-00c9-4d62-a56d-cc9d86bcfa41","ios":"levelo://app?vid=a48f35fb-00c9-4d62-a56d-cc9d86bcfa41"},"vehicle_type_id":"4","last_reported":1770904937,"current_range_meters":10800,"station_id":"ce4bhq12rcd13ifvqhig","pricing_plan_id":"cebpf4jnsgd1na2vs0mg"},{"bike_id":"f0285f39-80ee-4746-8dc7-df90c61da725","system_id":"levelo_inurba_marseille","lat":43.28855,"lon":5.39329,"is_reserved":false,"is_disabled":false,"rental_uris":{"android":"levelo://app?vid=f0285f39-80ee-4746-8dc7-df90c61da725","ios":"levelo://app?vid=f0285f39-80ee-4746-8dc7-df90c61da725"},"vehicle_type_id":"4","last_reported":1770904937,"current_range_meters":10800,"station_id":"ce4bh2p2rcd13ifvqdi0","pricing_plan_id":"cebpf4jnsgd1na2vs0mg"},{"bike_id":"1464a276-2a71-418b-8b43-04db2a004f32","system_id":"levelo_inurba_marseille","lat":43.251083,"lon":5.40321,"is_reserved":false,"is_disabled":false,"rental_uris":{"android":"levelo://app?vid=1464a276-2a71-418b-8b43-04db2a004f32","ios":"levelo://app?vid=1464a276-2a71-418b-8b43-04db2a004f32"},"vehicle_type_id":"4","last_reported":1770904937,"current_range_meters":10800,"station_id":"ce4bhlh2rcd13ifvqgig","pricing_plan_id":"cebpf4jnsgd1na2vs0mg"},{"bike_id":"b7b725dd-95c0-4b45-83e5-a4b99d1a8803","system_id":"levelo_inurba_marseille","lat":43.305781,"lon":5.390186,"is_reserved":false,"is_disabled":false,"rental_uris":{"android":"levelo://app?vid=b7b725dd-95c0-4b45-83e5-a4b99d1a8803","ios":"levelo://app?vid=b7b725dd-95c0-4b45-83e5-a4b99d1a8803"},"vehicle_type_id":"4","last_reported":1770904937,"current_range_meters":10800,"station_id":"ce4bhgp2rcd13ifvqfd0","pricing_plan_id":"cebpf4jnsgd1na2vs0mg"},{"bike_id":"af54d2f5-99fe-4d8f-a610-998580f1e210","system_id":"levelo_inurba_marseille","lat":43.24954,"lon":5.40483,"is_reserved":false,"is_disabled":false,"rental_uris":{"android":"levelo://app?vid=af54d2f5-99fe-4d8f-a610-998580f1e210","ios":"levelo://app?vid=af54d2f5-99fe-4d8f-a610-998580f1e210"},"vehicle_type_id":"4","last_reported":1770904937,"current_range_meters":10800,"station_id":"st_d2ngiaodas8pm72gd1h0","pricing_plan_id":"cebpf4jnsgd1na2vs0mg"},{"bike_id":"083585e0-2ab2-45fd-b076-9ccee29ca430","system_id":"levelo_inurba_marseille","lat":43.23153,"lon":5.43706,"is_reserved":false,"is_disabled":false,"rental_uris":{"android":"levelo://app?vid=083585e0-2ab2-45fd-b076-9ccee29ca430","ios":"levelo://app?vid=083585e0-2ab2-45fd-b076-9ccee29ca430"},"vehicle_type_id":"4","last_reported":1770904937,"current_range_meters":10800,"station_id":"ce4bhmp2rcd13ifvqgog","pricing_plan_id":"cebpf4jnsgd1na2vs0mg"},{"bike_id":"4ede8e62-f74c-4d80-ae1a-099ae2a573f3","system_id":"levelo_inurba_marseille","lat":43.23186,"lon":5.39984,"is_reserved":false,"is_disabled":false,"rental_uris":{"android":"levelo://app?vid=4ede8e62-f74c-4d80-ae1a-099ae2a573f3","ios":"levelo://app?vid=4ede8e62-f74c-4d80-ae1a-099ae2a573f3"},"vehicle_type_id":"4","last_reported":1770904937,"current_range_meters":10800,"station_id":"ce4bhn12rcd13ifvqgqg","pricing_plan_id":"cebpf4jnsgd1na2vs0mg"},{"bike_id":"bcad26e7-801b-45a3-9a6f-b11851106eac","system_id":"levelo_inurba_marseille","lat":43.28589,"lon":5.38349,"is_reserved":false,"is_disabled":false,"rental_uris":{"android":"levelo://app?vid=bcad26e7-801b-45a3-9a6f-b11851106eac","ios":"levelo://app?vid=bcad26e7-801b-45a3-9a6f-b11851106eac"},"vehicle_type_id":"4","last_reported":1770904937,"current_range_meters":11200,"station_id":"","pricing_plan_id":"cebpf4jnsgd1na2vs0mg"},{"bike_id":"9c4c1e7a-1b62-44f2-90e2-1ab3714cbf42","system_id":"levelo_inurba_marseille","lat":43.31029,"lon":5.37173,"is_reserved":false,"is_disabled":false,"rental_uris":{"android":"levelo://app?vid=9c4c1e7a-1b62-44f2-90e2-1ab3714cbf42","ios":"levelo://app?vid=9c4c1e7a-1b62-44f2-90e2-1ab3714cbf42"},"vehicle_type_id":"4","last_reported":1770904937,"current_range_meters":11200,"station_id":"st_d4kl2rp97mjs73e7tdfg","pricing_plan_id":"cebpf4jnsgd1na2vs0mg"},{"bike_id":"8de9ee52-f5fb-42cf-b6a8-234286263ee8","system_id":"levelo_inurba_marseille","lat":43.30483,"lon":5.37901,"is_reserved":false,"is_disabled":false,"rental_uris":{"android":"levelo://app?vid=8de9ee52-f5fb-42cf-b6a8-234286263ee8","ios":"levelo://app?vid=8de9ee52-f5fb-42cf-b6a8-234286263ee8"},"vehicle_type_id":"4","last_reported":1770904937,"current_range_meters":11200,"station_id":"","pricing_plan_id":"cebpf4jnsgd1na2vs0mg"},{"bike_id":"3e0818c0-4a68-4f37-b1c2-96b4a204dd0b","system_id":"levelo_inurba_marseille","lat":43.33725,"lon":5.374793,"is_reserved":false,"is_disabled":false,"rental_uris":{"android":"levelo://app?vid=3e0818c0-4a68-4f37-b1c2-96b4a204dd0b","ios":"levelo://app?vid=3e0818c0-4a68-4f37-b1c2-96b4a204dd0b"},"vehicle_type_id":"4","last_reported":1770904937,"current_range_meters":11200,"station_id":"","pricing_plan_id":"cebpf4jnsgd1na2vs0mg"},{"bike_id":"8e0642e5-765d-419c-9ff5-751012c40134","system_id":"levelo_inurba_marseille","lat":43.3154,"lon":5.38015,"is_reserved":false,"is_disabled":true,"rental_uris":{"android":"levelo://app?vid=8e0642e5-765d-419c-9ff5-751012c40134","ios":"levelo://app?vid=8e0642e5-765d-419c-9ff5-751012c40134"},"vehicle_type_id":"4","last_reported":1770904937,"current_range_meters":11200,"station_id":"ce4bhsp2rcd13ifvqi50","pricing_plan_id":"cebpf4jnsgd1na2vs0mg"},{"bike_id":"6121a872-5ed0-4bc7-9a20-141249c9aa55","system_id":"levelo_inurba_marseille","lat":43.24081,"lon":5.37738,"is_reserved":false,"is_disabled":false,"rental_uris":{"android":"levelo://app?vid=6121a872-5ed0-4bc7-9a20-141249c9aa55","ios":"levelo://app?vid=6121a872-5ed0-4bc7-9a20-141249c9aa55"},"vehicle_type_id":"4","last_reported":1770904937,"current_range_meters":11200,"station_id":"ce4bhnp2rcd13ifvqgvg","pricing_plan_id":"cebpf4jnsgd1na2vs0mg"},{"bike_id":"8c60d5ae-062c-413c-b8b5-655786fb316a","system_id":"levelo_inurba_marseille","lat":43.26207,"lon":5.37939,"is_reserved":false,"is_disabled":false,"rental_uris":{"android":"levelo://app?vid=8c60d5ae-062c-413c-b8b5-655786fb316a","ios":"levelo://app?vid=8c60d5ae-062c-413c-b8b5-655786fb316a"},"vehicle_type_id":"4","last_reported":1770904937,"current_range_meters":11200,"station_id":"ce4bhjp2rcd13ifvqg90","pricing_plan_id":"cebpf4jnsgd1na2vs0mg"},{"bike_id":"69da07ac-31c5-4d95-a3dd-27442b17141c","system_id":"levelo_inurba_marseille","lat":43.2316,"lon":5.43705,"is_reserved":false,"is_disabled":false,"rental_uris":{"android":"levelo://app?vid=69da07ac-31c5-4d95-a3dd-27442b17141c","ios":"levelo://app?vid=69da07ac-31c5-4d95-a3dd-27442b17141c"},"vehicle_type_id":"4","last_reported":1770904937,"current_range_meters":11200,"station_id":"ce4bhmp2rcd13ifvqgog","pricing_plan_id":"cebpf4jnsgd1na2vs0mg"},{"bike_id":"fe04cb6b-82b1-4f84-99c1-f8e50b374392","system_id":"levelo_inurba_marseille","lat":43.26186,"lon":5.37472,"is_reserved":false,"is_disabled":false,"rental_uris":{"android":"levelo://app?vid=fe04cb6b-82b1-4f84-99c1-f8e50b374392","ios":"levelo://app?vid=fe04cb6b-82b1-4f84-99c1-f8e50b374392"},"vehicle_type_id":"4","last_reported":1770904937,"current_range_meters":11200,"station_id":"ce4bhgp2rcd13ifvqfc0","pricing_plan_id":"cebpf4jnsgd1na2vs0mg"},{"bike_id":"b52d20c4-aec1-47ab-b0a8-a26d6b63f7dc","system_id":"levelo_inurba_marseille","lat":43.25731,"lon":5.41097,"is_reserved":false,"is_disabled":false,"rental_uris":{"android":"levelo://app?vid=b52d20c4-aec1-47ab-b0a8-a26d6b63f7dc","ios":"levelo://app?vid=b52d20c4-aec1-47ab-b0a8-a26d6b63f7dc"},"vehicle_type_id":"4","last_reported":1770904937,"current_range_meters":11200,"station_id":"ce4bhkp2rcd13ifvqgd0","pricing_plan_id":"cebpf4jnsgd1na2vs0mg"},{"bike_id":"481af2c1-cc29-4b4a-8874-d8a4ab66d08d","system_id":"levelo_inurba_marseille","lat":43.31844,"lon":5.38442,"is_reserved":false,"is_disabled":false,"rental_uris":{"android":"levelo://app?vid=481af2c1-cc29-4b4a-8874-d8a4ab66d08d","ios":"levelo://app?vid=481af2c1-cc29-4b4a-8874-d8a4ab66d08d"},"vehicle_type_id":"4","last_reported":1770904937,"current_range_meters":11200,"station_id":"","pricing_plan_id":"cebpf4jnsgd1na2vs0mg"},{"bike_id":"8a77d699-be23-425b-8b0c-2038339ba6a7","system_id":"levelo_inurba_marseille","lat":43.26061,"lon":5.39397,"is_reserved":false,"is_disabled":false,"rental_uris":{"android":"levelo://app?vid=8a77d699-be23-425b-8b0c-2038339ba6a7","ios":"levelo://app?vid=8a77d699-be23-425b-8b0c-2038339ba6a7"},"vehicle_type_id":"4","last_reported":1770904937,"current_range_meters":11200,"station_id":"ce4bhh92rcd13ifvqfj0","pricing_plan_id":"cebpf4jnsgd1na2vs0mg"},{"bike_id":"2ddb74e5-6790-45b0-ae81-55d53893d2bd","system_id":"levelo_inurba_marseille","lat":43.26366,"lon":5.41071,"is_reserved":false,"is_disabled":false,"rental_uris":{"android":"levelo://app?vid=2ddb74e5-6790-45b0-ae81-55d53893d2bd","ios":"levelo://app?vid=2ddb74e5-6790-45b0-ae81-55d53893d2bd"},"vehicle_type_id":"4","last_reported":1770904937,"current_range_meters":11200,"station_id":"st_d4e5ca6na9uc73bfl5fg","pricing_plan_id":"cebpf4jnsgd1na2vs0mg"},{"bike_id":"58ed2ab1-f926-4351-9230-b54e329678c0","system_id":"levelo_inurba_marseille","lat":43.31909,"lon":5.40065,"is_reserved":false,"is_disabled":false,"rental_uris":{"android":"levelo://app?vid=58ed2ab1-f926-4351-9230-b54e329678c0","ios":"levelo://app?vid=58ed2ab1-f926-4351-9230-b54e329678c0"},"vehicle_type_id":"4","last_reported":1770904937,"current_range_meters":11200,"station_id":"","pricing_plan_id":"cebpf4jnsgd1na2vs0mg"},{"bike_id":"2604129a-474b-41d1-9d1a-972f3e9a5a95","system_id":"levelo_inurba_marseille","lat":43.29451,"lon":5.39752,"is_reserved":false,"is_disabled":true,"rental_uris":{"android":"levelo://app?vid=2604129a-474b-41d1-9d1a-972f3e9a5a95","ios":"levelo://app?vid=2604129a-474b-41d1-9d1a-972f3e9a5a95"},"vehicle_type_id":"4","last_reported":1770904937,"current_range_meters":11200,"station_id":"ce4bh3h2rcd13ifvqdo0","pricing_plan_id":"cebpf4jnsgd1na2vs0mg"},{"bike_id":"cda7d6c8-90ff-4c0c-aa9e-d7b16914d690","system_id":"levelo_inurba_marseille","lat":43.27375,"lon":5.36254,"is_reserved":false,"is_disabled":false,"rental_uris":{"android":"levelo://app?vid=cda7d6c8-90ff-4c0c-aa9e-d7b16914d690","ios":"levelo://app?vid=cda7d6c8-90ff-4c0c-aa9e-d7b16914d690"},"vehicle_type_id":"4","last_reported":1770904937,"current_range_meters":11200,"station_id":"ce4bhbh2rcd13ifvqeo0","pricing_plan_id":"cebpf4jnsgd1na2vs0mg"},{"bike_id":"d4635afa-c5d3-40e5-8cc8-e785876b58af","system_id":"levelo_inurba_marseille","lat":43.30135,"lon":5.39864,"is_reserved":false,"is_disabled":false,"rental_uris":{"android":"levelo://app?vid=d4635afa-c5d3-40e5-8cc8-e785876b58af","ios":"levelo://app?vid=d4635afa-c5d3-40e5-8cc8-e785876b58af"},"vehicle_type_id":"4","last_reported":1770904937,"current_range_meters":11200,"station_id":"ce4bh0h2rcd13ifvqd40","pricing_plan_id":"cebpf4jnsgd1na2vs0mg"},{"bike_id":"7c1b7dac-8089-4fc3-8752-ab305c470f07","system_id":"levelo_inurba_marseille","lat":43.2799,"lon":5.41658,"is_reserved":false,"is_disabled":false,"rental_uris":{"android":"levelo://app?vid=7c1b7dac-8089-4fc3-8752-ab305c470f07","ios":"levelo://app?vid=7c1b7dac-8089-4fc3-8752-ab305c470f07"},"vehicle_type_id":"4","last_reported":1770904937,"current_range_meters":11200,"station_id":"ce4bho12rcd13ifvqh1g","pricing_plan_id":"cebpf4jnsgd1na2vs0mg"},{"bike_id":"5ffbef23-becc-43a6-acce-a42fb6600943","system_id":"levelo_inurba_marseille","lat":43.28355,"lon":5.38108,"is_reserved":false,"is_disabled":false,"rental_uris":{"android":"levelo://app?vid=5ffbef23-becc-43a6-acce-a42fb6600943","ios":"levelo://app?vid=5ffbef23-becc-43a6-acce-a42fb6600943"},"vehicle_type_id":"4","last_reported":1770904937,"current_range_meters":11600,"station_id":"ce4bh412rcd13ifvqdr0","pricing_plan_id":"cebpf4jnsgd1na2vs0mg"},