{"last_updated":1740168597,"ttl":60,"version":"2.2","data":{"bikes":[{"bike_id":"29c7e683-2c72-4394-a229-402af2a18476","system_id":"levelo_inurba_marseille","lat":43.2721,"lon":5.3918,"is_reserved":false,"is_disabled":true,"rental_uris":{"android":"levelo://app?vid=29c7e683-2c72-4394-a229-402af2a18476","ios":"levelo://app?vid=29c7e683-2c72-4394-a229-402af2a18476"},"vehicle_type_id":"4","last_reported":1740168597,"current_range_meters":2800,"station_id":"ce4bhhp2rcd13ifvqfm0","pricing_plan_id":"cebpf4jnsgd1na2vs0mg"},{"bike_id":"4dc89e56-955c-40e6-8d13-dd353ec8d472","system_id":"levelo_inurba_marseille","lat":43.28668,"lon":5.38644,"is_reserved":false,"is_disabled":false,"rental_uris":{"android":"levelo://app?vid=4dc89e56-955c-40e6-8d13-dd353ec8d472","ios":"levelo://app?vid=4dc89e56-955c-40e6-8d13-dd353ec8d472"},"vehicle_type_id":"4","last_reported":1740168597,"current_range_meters":2800,"station_id":"ce4bh492rcd13ifvqdug","pricing_plan_id":"cebpf4jnsgd1na2vs0mg"},{"bike_id":"59706855-db7b-41b6-bf99-b2ab94560039","system_id":"levelo_inurba_marseille","lat":43.28658,"lon":5.38663,"is_reserved":false,"is_disabled":false,"rental_uris":{"android":"levelo://app?vid=59706855-db7b-41b6-bf99-b2ab94560039","ios":"levelo://app?vid=59706855-db7b-41b6-bf99-b2ab94560039"},"vehicle_type_id":"4","last_reported":1740168597,"current_range_meters":3600,"station_id":"ce4bh492rcd13ifvqdug","pricing_plan_id":"cebpf4jnsgd1na2vs0mg"},{"bike_id":"034fa367-10fb-40ee-9a84-b157455e33ef","system_id":"levelo_inurba_marseille","lat":43.28696,"lon":5.37373,"is_reserved":false,"is_disabled":false,"rental_uris":{"android":"levelo://app?vid=034fa367-10fb-40ee-9a84-b157455e33ef","ios":"levelo://app?vid=034fa367-10fb-40ee-9a84-b157455e33ef"},"vehicle_type_id":"4","last_reported":1740168597,"current_range_meters":3600,"station_id":"ce4bh3p2rcd13ifvqdq0","pricing_plan_id":"cebpf4jnsgd1na2vs0mg"},{"bike_id":"c0d6c131-aacf-4529-aad8-041fd8310aae","system_id":"levelo_inurba_marseille","lat":43.29131,"lon":5.3753,"is_reserved":false,"is_disabled":false,"rental_uris":{"android":"levelo://app?vid=c0d6c131-aacf-4529-aad8-041fd8310aae","ios":"levelo://app?vid=c0d6c131-aacf-4529-aad8-041fd8310aae"},"vehicle_type_id":"4","last_reported":1740168597,"current_range_meters":3600,"station_id":"","pricing_plan_id":"cebpf4jnsgd1na2vs0mg"},{"bike_id":"03edd3dc-a746-4f71-8f34-9a6ae6b8d503","system_id":"levelo_inurba_marseille","lat":43.27607,"lon":5.36106,"is_reserved":false,"is_disabled":false,"rental_uris":{"android":"levelo://app?vid=03edd3dc-a746-4f71-8f34-9a6ae6b8d503","ios":"levelo://app?vid=03edd3dc-a746-4f71-8f34-9a6ae6b8d503"},"vehicle_type_id":"4","last_reported":1740168597,"current_range_meters":4000,"station_id":"ce4bgj92rcd13ifvqbe0","pricing_plan_id":"cebpf4jnsgd1na2vs0mg"},{"bike_id":"6f4e1524-4b8c-4c11-8ada-c33a2e79163c","system_id":"levelo_inurba_marseille","lat":43.27947,"lon":5.41044,"is_reserved":false,"is_disabled":true,"rental_uris":{"android":"levelo://app?vid=6f4e1524-4b8c-4c11-8ada-c33a2e79163c","ios":"levelo://app?vid=6f4e1524-4b8c-4c11-8ada-c33a2e79163c"},"vehicle_type_id":"4","last_reported":1740168597,"current_range_meters":4000,"station_id":"ce4bhnp2rcd13ifvqh0g","pricing_plan_id":"cebpf4jnsgd1na2vs0mg"},{"bike_id":"7f210161-0afc-456c-91d6-f90c66bc0ab3","system_id":"levelo_inurba_marseille","lat":43.29905,"lon":5.43662,"is_reserved":false,"is_disabled":false,"rental_uris":{"android":"levelo://app?vid=7f210161-0afc-456c-91d6-f90c66bc0ab3","ios":"levelo://app?vid=7f210161-0afc-456c-91d6-f90c66bc0ab3"},"vehicle_type_id":"4","last_reported":1740168597,"current_range_meters":4400,"station_id":"ce4bhpp2rcd13ifvqhfg","pricing_plan_id":"cebpf4jnsgd1na2vs0mg"},{"bike_id":"9f601027-2c15-49c8-a617-292eb6a7fe34","system_id":"levelo_inurba_marseille","lat":43.30314,"lon":5.369,"is_reserved":false,"is_disabled":false,"rental_uris":{"android":"levelo://app?vid=9f601027-2c15-49c8-a617-292eb6a7fe34","ios":"levelo://app?vid=9f601027-2c15-49c8-a617-292eb6a7fe34"},"vehicle_type_id":"4","last_reported":1740168597,"current_range_meters":4800,"station_id":"ce4bgqh2rcd13ifvqc5g","pricing_plan_id":"cebpf4jnsgd1na2vs0mg"},{"bike_id":"2b79b3a7-5b74-49f4-bb58-5d5397f748f9","system_id":"levelo_inurba_marseille","lat":43.25006,"lon":5.38912,"is_reserved":false,"is_disabled":true,"rental_uris":{"android":"levelo://app?vid=2b79b3a7-5b74-49f4-bb58-5d5397f748f9","ios":"levelo://app?vid=2b79b3a7-5b74-49f4-bb58-5d5397f748f9"},"vehicle_type_id":"4","last_reported":1740168597,"current_range_meters":5600,"station_id":"ce4bhgp2rcd13ifvqfd0","pricing_plan_id":"cebpf4jnsgd1na2vs0mg"},{"bike_id":"cfb05cb1-bdaf-4628-af25-de48d634065f","system_id":"levelo_inurba_marseille","lat":43.29225,"lon":5.36053,"is_reserved":false,"is_disabled":false,"rental_uris":{"android":"levelo://app?vid=cfb05cb1-bdaf-4628-af25-de48d634065f","ios":"levelo://app?vid=cfb05cb1-bdaf-4628-af25-de48d634065f"},"vehicle_type_id":"4","last_reported":1740168597,"current_range_meters":5600,"station_id":"ce4bhbh2rcd13ifvqeqg","pricing_plan_id":"cebpf4jnsgd1na2vs0mg"},{"bike_id":"43de4b58-4e9d-469e-a9cd-b093e47ed6d1","system_id":"levelo_inurba_marseille","lat":43.31167,"lon":5.38726,"is_reserved":false,"is_disabled":false,"rental_uris":{"android":"levelo://app?vid=43de4b58-4e9d-469e-a9cd-b093e47ed6d1","ios":"levelo://app?vid=43de4b58-4e9d-469e-a9cd-b093e47ed6d1"},"vehicle_type_id":"4","last_reported":1740168597,"current_range_meters":5600,"station_id":"ce4bgv12rcd13ifvqcp0","pricing_plan_id":"cebpf4jnsgd1na2vs0mg"},{"bike_id":"05e5dd53-957d-49a8-890a-2a5c7b997bb8","system_id":"levelo_inurba_marseille","lat":43.29558,"lon":5.37516,"is_reserved":false,"is_disabled":false,"rental_uris":{"android":"levelo://app?vid=05e5dd53-957d-49a8-890a-2a5c7b997bb8","ios":"levelo://app?vid=05e5dd53-957d-49a8-890a-2a5c7b997bb8"},"vehicle_type_id":"4","last_reported":1740168597,"current_range_meters":5600,"station_id":"ce4bgh92rcd13ifvqb50","pricing_plan_id":"cebpf4jnsgd1na2vs0mg"},{"bike_id":"4745e003-04b8-4d3e-a4f8-0e158b0b8760","system_id":"levelo_inurba_marseille","lat":43.2926,"lon":5.38436,"is_reserved":false,"is_disabled":false,"rental_uris":{"android":"levelo://app?vid=4745e003-04b8-4d3e-a4f8-0e158b0b8760","ios":"levelo://app?vid=4745e003-04b8-4d3e-a4f8-0e158b0b8760"},"vehicle_type_id":"4","last_reported":1740168597,"current_range_meters":6000,"station_id":"ce4bh692rcd13ifvqea0","pricing_plan_id":"cebpf4jnsgd1na2vs0mg"},{"bike_id":"91a32b23-43a1-4f43-9545-79e0570e1427","system_id":"levelo_inurba_marseille","lat":43.29789,"lon":5.38105,"is_reserved":false,"is_disabled":false,"rental_uris":{"android":"levelo://app?vid=91a32b23-43a1-4f43-9545-79e0570e1427","ios":"levelo://app?vid=91a32b23-43a1-4f43-9545-79e0570e1427"},"vehicle_type_id":"4","last_reported":1740168597,"current_range_meters":6000,"station_id":"ce4bgip2rcd13ifvqbb0","pricing_plan_id":"cebpf4jnsgd1na2vs0mg"},{"bike_id":"419b4ccf-9337-4dc9-9409-111b92134d45","system_id":"levelo_inurba_marseille","lat":43.26203,"lon":5.37439,"is_reserved":false,"is_disabled":true,"rental_uris":{"android":"levelo://app?vid=419b4ccf-9337-4dc9-9409-111b92134d45","ios":"levelo://app?vid=419b4ccf-9337-4dc9-9409-111b92134d45"},"vehicle_type_id":"4","last_reported":1740168597,"current_range_meters":6400,"station_id":"ce4bhgp2rcd13ifvqfc0","pricing_plan_id":"cebpf4jnsgd1na2vs0mg"},{"bike_id":"f2e875ec-9190-410a-a85c-5edb4e52cc96","system_id":"levelo_inurba_marseille","lat":43.30214,"lon":5.3947,"is_reserved":false,"is_disabled":false,"rental_uris":{"android":"levelo://app?vid=f2e875ec-9190-410a-a85c-5edb4e52cc96","ios":"levelo://app?vid=f2e875ec-9190-410a-a85c-5edb4e52cc96"},"vehicle_type_id":"4","last_reported":1740168597,"current_range_meters":6400,"station_id":"ce4bh0p2rcd13ifvqd70","pricing_plan_id":"cebpf4jnsgd1na2vs0mg"},{"bike_id":"c96c3d3b-9528-4c97-971b-3e11a7e1ad2c","system_id":"levelo_inurba_marseille","lat":43.309322,"lon":5.401458,"is_reserved":false,"is_disabled":false,"rental_uris":{"android":"levelo://app?vid=c96c3d3b-9528-4c97-971b-3e11a7e1ad2c","ios":"levelo://app?vid=c96c3d3b-9528-4c97-971b-3e11a7e1ad2c"},"vehicle_type_id":"4","last_reported":1740168597,"current_range_meters":6400,"station_id":"ce4bgvp2rcd13ifvqct0","pricing_plan_id":"cebpf4jnsgd1na2vs0mg"},{"bike_id":"2d55383c-3ad7-455d-a594-e1065d30a83b","system_id":"levelo_inurba_marseille","lat":43.29979,"lon":5.37178,"is_reserved":false,"is_disabled":false,"rental_uris":{"android":"levelo://app?vid=2d55383c-3ad7-455d-a594-e1065d30a83b","ios":"levelo://app?vid=2d55383c-3ad7-455d-a594-e1065d30a83b"},"vehicle_type_id":"4","last_reported":1740168597,"current_range_meters":6400,"station_id":"ce4bgr92rcd13ifvqc7g","pricing_plan_id":"cebpf4jnsgd1na2vs0mg"},{"bike_id":"5b573d00-5543-46c3-b172-b0387d649830","system_id":"levelo_inurba_marseille","lat":43.280523,"lon":5.409187,"is_reserved":false,"is_disabled":false,"rental_uris":{"android":"levelo://app?vid=5b573d00-5543-46c3-b172-b0387d649830","ios":"levelo://app?vid=5b573d00-5543-46c3-b172-b0387d649830"},"vehicle_type_id":"4","last_reported":1740168597,"current_range_meters":6800,"station_id":"","pricing_plan_id":"cebpf4jnsgd1na2vs0mg"},{"bike_id":"87590419-9431-46cd-a562-7648976d855a","system_id":"levelo_inurba_marseille","lat":43.2791,"lon":5.41206,"is_reserved":false,"is_disabled":false,"rental_uris":{"android":"levelo://app?vid=87590419-9431-46cd-a562-7648976d855a","ios":"levelo://app?vid=87590419-9431-46cd-a562-7648976d855a"},"vehicle_type_id":"4","last_reported":1740168597,"current_range_meters":6800,"station_id":"","pricing_plan_id":"cebpf4jnsgd1na2vs0mg"},{"bike_id":"6b6e1059-5264-45b9-9cb9-d24cf5205f2a","system_id":"levelo_inurba_marseille","lat":43.23971,"lon":5.36647,"is_reserved":false,"is_disabled":true,"rental_uris":{"android":"levelo://app?vid=6b6e1059-5264-45b9-9cb9-d24cf5205f2a","ios":"levelo://app?vid=6b6e1059-5264-45b9-9cb9-d24cf5205f2a"},"vehicle_type_id":"4","last_reported":1740168597,"current_range_meters":7200,"station_id":"","pricing_plan_id":"cebpf4jnsgd1na2vs0mg"},{"bike_id":"4c87352b-e4ee-4aa9-b24f-9d6ccdea13e6","system_id":"levelo_inurba_marseille","lat":43.25087,"lon":5.39542,"is_reserved":false,"is_disabled":false,"rental_uris":{"android":"levelo://app?vid=4c87352b-e4ee-4aa9-b24f-9d6ccdea13e6","ios":"levelo://app?vid=4c87352b-e4ee-4aa9-b24f-9d6ccdea13e6"},"vehicle_type_id":"4","last_reported":1740168597,"current_range_meters":7200,"station_id":"ce4bhm12rcd13ifvqgkg","pricing_plan_id":"cebpf4jnsgd1na2vs0mg"},{"bike_id":"a7dfd326-3311-4a0d-a612-63a54a09e838","system_id":"levelo_inurba_marseille","lat":43.27621,"lon":5.36109,"is_reserved":false,"is_disabled":false,"rental_uris":{"android":"levelo://app?vid=a7dfd326-3311-4a0d-a612-63a54a09e838","ios":"levelo://app?vid=a7dfd326-3311-4a0d-a612-63a54a09e838"},"vehicle_type_id":"4","last_reported":1740168597,"current_range_meters":7200,"station_id":"ce4bgj92rcd13ifvqbe0","pricing_plan_id":"cebpf4jnsgd1na2vs0mg"},{"bike_id":"6f15ee57-06b3-4183-bd90-a4402692db00","system_id":"levelo_inurba_marseille","lat":43.29549,"lon":5.37539,"is_reserved":false,"is_disabled":false,"rental_uris":{"android":"levelo://app?vid=6f15ee57-06b3-4183-bd90-a4402692db00","ios":"levelo://app?vid=6f15ee57-06b3-4183-bd90-a4402692db00"},"vehicle_type_id":"4","last_reported":1740168597,"current_range_meters":7200,"station_id":"ce4bgh92rcd13ifvqb50","pricing_plan_id":"cebpf4jnsgd1na2vs0mg"},{"bike_id":"a5d0fbf1-d7e0-4f56-bd8e-14931e9d7bdf","system_id":"levelo_inurba_marseille","lat":43.25695,"lon":5.39781,"is_reserved":false,"is_disabled":false,"rental_uris":{"android":"levelo://app?vid=a5d0fbf1-d7e0-4f56-bd8e-14931e9d7bdf","ios":"levelo://app?vid=a5d0fbf1-d7e0-4f56-bd8e-14931e9d7bdf"},"vehicle_type_id":"4","last_reported":1740168597,"current_range_meters":7200,"station_id":"","pricing_plan_id":"cebpf4jnsgd1na2vs0mg"},{"bike_id":"d57f1921-eb24-495f-b476-f059777c7fda","system_id":"levelo_inurba_marseille","lat":43.29525,"lon":5.39394,"is_reserved":false,"is_disabled":false,"rental_uris":{"android":"levelo://app?vid=d57f1921-eb24-495f-b476-f059777c7fda","ios":"levelo://app?vid=d57f1921-eb24-495f-b476-f059777c7fda"},"vehicle_type_id":"4","last_reported":1740168597,"current_range_meters":7200,"station_id":"ce4bh292rcd13ifvqdf0","pricing_plan_id":"cebpf4jnsgd1na2vs0mg"},{"bike_id":"cc6ed50d-9374-4d26-9fdf-d402e7c687e6","system_id":"levelo_inurba_marseille","lat":43.29602,"lon":5.381,"is_reserved":false,"is_disabled":false,"rental_uris":{"android":"levelo://app?vid=cc6ed50d-9374-4d26-9fdf-d402e7c687e6","ios":"levelo://app?vid=cc6ed50d-9374-4d26-9fdf-d402e7c687e6"},"vehicle_type_id":"4","last_reported":1740168597,"current_range_meters":7200,"station_id":"ce4bgl12rcd13ifvqbo0","pricing_plan_id":"cebpf4jnsgd1na2vs0mg"},{"bike_id":"5589ac99-fb3f-4323-960e-e2a8479a6549","system_id":"levelo_inurba_marseille","lat":43.29527,"lon":5.38538,"is_reserved":false,"is_disabled":false,"rental_uris":{"android":"levelo://app?vid=5589ac99-fb3f-4323-960e-e2a8479a6549","ios":"levelo://app?vid=5589ac99-fb3f-4323-960e-e2a8479a6549"},"vehicle_type_id":"4","last_reported":1740168597,"current_range_meters":7200,"station_id":"ce4bgih2rcd13ifvqba0","pricing_plan_id":"cebpf4jnsgd1na2vs0mg"},{"bike_id":"8c4c9458-3df5-4e73-9e61-7a736f2797b2","system_id":"levelo_inurba_marseille","lat":43.33022,"lon":5.39056,"is_reserved":false,"is_disabled":false,"rental_uris":{"android":"levelo://app?vid=8c4c9458-3df5-4e73-9e61-7a736f2797b2","ios":"levelo://app?vid=8c4c9458-3df5-4e73-9e61-7a736f2797b2"},"vehicle_type_id":"4","last_reported":1740168597,"current_range_meters":8000,"station_id":"ce4bhr92rcd13ifvqhrg","pricing_plan_id":"cebpf4jnsgd1na2vs0mg"},{"bike_id":"b45ab281-2ffb-4786-bbfb-31f4db8658f9","system_id":"levelo_inurba_marseille","lat":43.26573,"lon":5.39039,"is_reserved":false,"is_disabled":false,"rental_uris":{"android":"levelo://app?vid=b45ab281-2ffb-4786-bbfb-31f4db8658f9","ios":"levelo://app?vid=b45ab281-2ffb-4786-bbfb-31f4db8658f9"},"vehicle_type_id":"4","last_reported":1740168597,"current_range_meters":8000,"station_id":"ce4bhe12rcd13ifvqf30","pricing_plan_id":"cebpf4jnsgd1na2vs0mg"},{"bike_id":"42ba6054-5ecd-436d-8491-ad7f8768c0c0","system_id":"levelo_inurba_marseille","lat":43.29559,"lon":5.37529,"is_reserved":false,"is_disabled":false,"rental_uris":{"android":"levelo://app?vid=42ba6054-5ecd-436d-8491-ad7f8768c0c0","ios":"levelo://app?vid=42ba6054-5ecd-436d-8491-ad7f8768c0c0"},"vehicle_type_id":"4","last_reported":1740168597,"current_range_meters":8000,"station_id":"ce4bgh92rcd13ifvqb50","pricing_plan_id":"cebpf4jnsgd1na2vs0mg"},{"bike_id":"fc0349de-a96b-4e9e-88b6-f49bf89d84ae","system_id":"levelo_inurba_marseille","lat":43.27993,"lon":5.40035,"is_reserved":false,"is_disabled":false,"rental_uris":{"android":"levelo://app?vid=fc0349de-a96b-4e9e-88b6-f49bf89d84ae","ios":"levelo://app?vid=fc0349de-a96b-4e9e-88b6-f49bf89d84ae"},"vehicle_type_id":"4","last_reported":1740168597,"current_range_meters":8000,"station_id":"ce4bho92rcd13ifvqh4g","pricing_plan_id":"cebpf4jnsgd1na2vs0mg"},{"bike_id":"f75ece54-414d-4d3e-9198-c4a6ae7eb90d","system_id":"levelo_inurba_marseille","lat":43.24995,"lon":5.38906,"is_reserved":false,"is_disabled":false,"rental_uris":{"android":"levelo://app?vid=f75ece54-414d-4d3e-9198-c4a6ae7eb90d","ios":"levelo://app?vid=f75ece54-414d-4d3e-9198-c4a6ae7eb90d"},"vehicle_type_id":"4","last_reported":1740168597,"current_range_meters":8400,"station_id":"ce4bhgp2rcd13ifvqfd0","pricing_plan_id":"cebpf4jnsgd1na2vs0mg"},{"bike_id":"3e2b463d-daf2-4788-a82c-f0d23a1c3c8f","system_id":"levelo_inurba_marseille","lat":43.251088,"lon":5.403204,"is_reserved":false,"is_disabled":false,"rental_uris":{"android":"levelo://app?vid=3e2b463d-daf2-4788-a82c-f0d23a1c3c8f","ios":"levelo://app?vid=3e2b463d-daf2-4788-a82c-f0d23a1c3c8f"},"vehicle_type_id":"4","last_reported":1740168597,"current_range_meters":8400,"station_id":"ce4bhl92rcd13ifvqghg","pricing_plan_id":"cebpf4jnsgd1na2vs0mg"},{"bike_id":"0584e728-54f2-4eca-887e-fe95607e016b","system_id":"levelo_inurba_marseille","lat":43.28273,"lon":5.35074,"is_reserved":false,"is_disabled":false,"rental_uris":{"android":"levelo://app?vid=0584e728-54f2-4eca-887e-fe95607e016b","ios":"levelo://app?vid=0584e728-54f2-4eca-887e-fe95607e016b"},"vehicle_type_id":"4","last_reported":1740168597,"current_range_meters":8400,"station_id":"ce4bhbp2rcd13ifvqerg","pricing_plan_id":"cebpf4jnsgd1na2vs0mg"},{"bike_id":"5a844aa4-cccf-468d-9573-3c30b3f92dac","system_id":"levelo_inurba_marseille","lat":43.30139,"lon":5.38783,"is_reserved":false,"is_disabled":false,"rental_uris":{"android":"levelo://app?vid=5a844aa4-cccf-468d-9573-3c30b3f92dac","ios":"levelo://app?vid=5a844aa4-cccf-468d-9573-3c30b3f92dac"},"vehicle_type_id":"4","last_reported":1740168597,"current_range_meters":8400,"station_id":"ce4bghh2rcd13ifvqb60","pricing_plan_id":"cebpf4jnsgd1na2vs0mg"},{"bike_id":"40784db3-47a7-42a7-bfcb-873821884954","system_id":"levelo_inurba_marseille","lat":43.28145,"lon":5.42629,"is_reserved":false,"is_disabled":false,"rental_uris":{"android":"levelo://app?vid=40784db3-47a7-42a7-bfcb-873821884954","ios":"levelo://app?vid=40784db3-47a7-42a7-bfcb-873821884954"},"vehicle_type_id":"4","last_reported":1740168597,"current_range_meters":8400,"station_id":"ce4bhnh2rcd13ifvqgug","pricing_plan_id":"cebpf4jnsgd1na2vs0mg"},{"bike_id":"8d0d14c1-2594-4225-b627-328aeee6e3df","system_id":"levelo_inurba_marseille","lat":43.29534,"lon":5.39026,"is_reserved":false,"is_disabled":false,"rental_uris":{"android":"levelo://app?vid=8d0d14c1-2594-4225-b627-328aeee6e3df","ios":"levelo://app?vid=8d0d14c1-2594-4225-b627-328aeee6e3df"},"vehicle_type_id":"4","last_reported":1740168597,"current_range_meters":8400,"station_id":"ce4bh3p2rcd13ifvqdp0","pricing_plan_id":"cebpf4jnsgd1na2vs0mg"},{"bike_id":"74b2e481-4361-458c-ad0a-b428889a0aeb","system_id":"levelo_inurba_marseille","lat":43.28566,"lon":5.39497,"is_reserved":false,"is_disabled":false,"rental_uris":{"android":"levelo://app?vid=74b2e481-4361-458c-ad0a-b428889a0aeb","ios":"levelo://app?vid=74b2e481-4361-458c-ad0a-b428889a0aeb"},"vehicle_type_id":"4","last_reported":1740168597,"current_range_meters":8400,"station_id":"ce4bh292rcd13ifvqdg0","pricing_plan_id":"cebpf4jnsgd1na2vs0mg"},{"bike_id":"e080c45a-a05d-4297-8995-86678422b056","system_id":"levelo_inurba_marseille","lat":43.34435,"lon":5.38088,"is_reserved":false,"is_disabled":false,"rental_uris":{"android":"levelo://app?vid=e080c45a-a05d-4297-8995-86678422b056","ios":"levelo://app?vid=e080c45a-a05d-4297-8995-86678422b056"},"vehicle_type_id":"4","last_reported":1740168597,"current_range_meters":8400,"station_id":"","pricing_plan_id":"cebpf4jnsgd1na2vs0mg"},{"bike_id":"e2124d37-d1a5-4d4d-8c06-fda2ba0b4397","system_id":"levelo_inurba_marseille","lat":43.29248,"lon":5.42677,"is_reserved":false,"is_disabled":false,"rental_uris":{"android":"levelo://app?vid=e2124d37-d1a5-4d4d-8c06-fda2ba0b4397","ios":"levelo://app?vid=e2124d37-d1a5-4d4d-8c06-fda2ba0b4397"},"vehicle_type_id":"4","last_reported":1740168597,"current_range_meters":8800,"station_id":"","pricing_plan_id":"cebpf4jnsgd1na2vs0mg"},{"bike_id":"4bea683f-9404-4f77-9220-6fed7a623011","system_id":"levelo_inurba_marseille","lat":43.28441,"lon":5.39193,"is_reserved":false,"is_disabled":false,"rental_uris":{"android":"levelo://app?vid=4bea683f-9404-4f77-9220-6fed7a623011","ios":"levelo://app?vid=4bea683f-9404-4f77-9220-6fed7a623011"},"vehicle_type_id":"4","last_reported":1740168597,"current_range_meters":8800,"station_id":"ce4bhoh2rcd13ifvqh5g","pricing_plan_id":"cebpf4jnsgd1na2vs0mg"},{"bike_id":"a7e57524-7096-4476-8d9d-8e8806b1c3d0","system_id":"levelo_inurba_marseille","lat":43.23155,"lon":5.437,"is_reserved":false,"is_disabled":true,"rental_uris":{"android":"levelo://app?vid=a7e57524-7096-4476-8d9d-8e8806b1c3d0","ios":"levelo://app?vid=a7e57524-7096-4476-8d9d-8e8806b1c3d0"},"vehicle_type_id":"4","last_reported":1740168597,"current_range_meters":8800,"station_id":"ce4bhmp2rcd13ifvqgog","pricing_plan_id":"cebpf4jnsgd1na2vs0mg"},{"bike_id":"4249a367-a50b-4ee7-8148-1ad704c9fa4e","system_id":"levelo_inurba_marseille","lat":43.27999,"lon":5.41651,"is_reserved":false,"is_disabled":false,"rental_uris":{"android":"levelo://app?vid=4249a367-a50b-4ee7-8148-1ad704c9fa4e","ios":"levelo://app?vid=4249a367-a50b-4ee7-8148-1ad704c9fa4e"},"vehicle_type_id":"4","last_reported":1740168597,"current_range_meters":8800,"station_id":"ce4bho12rcd13ifvqh1g","pricing_plan_id":"cebpf4jnsgd1na2vs0mg"},{"bike_id":"7b9eaf6e-4489-4224-b436-ef6be4484e51","system_id":"levelo_inurba_marseille","lat":43.24807,"lon":5.37457,"is_reserved":false,"is_disabled":false,"rental_uris":{"android":"levelo://app?vid=7b9eaf6e-4489-4224-b436-ef6be4484e51","ios":"levelo://app?vid=7b9eaf6e-4489-4224-b436-ef6be4484e51"},"vehicle_type_id":"4","last_reported":1740168597,"current_range_meters":8800,"station_id":"ce4bhgh2rcd13ifvqfb0","pricing_plan_id":"cebpf4jnsgd1na2vs0mg"},{"bike_id":"849d245a-be14-47ff-9742-f234bf067745","system_id":"levelo_inurba_marseille","lat":43.29751,"lon":5.3791,"is_reserved":false,"is_disabled":false,"rental_uris":{"android":"levelo://app?vid=849d245a-be14-47ff-9742-f234bf067745","ios":"levelo://app?vid=849d245a-be14-47ff-9742-f234bf067745"},"vehicle_type_id":"4","last_reported":1740168597,"current_range_meters":8800,"station_id":"ce4bguh2rcd13ifvqckg","pricing_plan_id":"cebpf4jnsgd1na2vs0mg"},{"bike_id":"f044bd2a-cae7-42fe-98b3-82fccf9b1c54","system_id":"levelo_inurba_marseille","lat":43.29207,"lon":5.39313,"is_reserved":false,"is_disabled":false,"rental_uris":{"android":"levelo://app?vid=f044bd2a-cae7-42fe-98b3-82fccf9b1c54","ios":"levelo://app?vid=f044bd2a-cae7-42fe-98b3-82fccf9b1c54"},"vehicle_type_id":"4","last_reported":1740168597,"current_range_meters":9200,"station_id":"ce4bh192rcd13ifvqdd0","pricing_plan_id":"cebpf4jnsgd1na2vs0mg"},{"bike_id":"4fa8bf46-90e7-42f5-bd69-8132a897f84f","system_id":"levelo_inurba_marseille","lat":43.31535,"lon":5.38931,"is_reserved":false,"is_disabled":false,"rental_uris":{"android":"levelo://app?vid=4fa8bf46-90e7-42f5-bd69-8132a897f84f","ios":"levelo://app?vid=4fa8bf46-90e7-42f5-bd69-8132a897f84f"},"vehicle_type_id":"4","last_reported":1740168597,"current_range_meters":9200,"station_id":"","pricing_plan_id":"cebpf4jnsgd1na2vs0mg"},{"bike_id":"c3007e51-dbee-4475-9cf6-19fd600d8168","system_id":"levelo_inurba_marseille","lat":43.27835,"lon":5.39211,"is_reserved":false,"is_disabled":false,"rental_uris":{"android":"levelo://app?vid=c3007e51-dbee-4475-9cf6-19fd600d8168","ios":"levelo://app?vid=c3007e51-dbee-4475-9cf6-19fd600d8168"},"vehicle_type_id":"4","last_reported":1740168597,"current_range_meters":9200,"station_id":"ce4bhjp2rcd13ifvqga0","pricing_plan_id":"cebpf4jnsgd1na2vs0mg"},{"bike_id":"d0109f8e-c695-44b8-83b5-050518c2c6c9","system_id":"levelo_inurba_marseille","lat":43.23067,"lon":5.35487,"is_reserved":false,"is_disabled":false,"rental_uris":{"android":"levelo://app?vid=d0109f8e-c695-44b8-83b5-050518c2c6c9","ios":"levelo://app?vid=d0109f8e-c695-44b8-83b5-050518c2c6c9"},"vehicle_type_id":"4","last_reported":1740168597,"current_range_meters":9200,"station_id":"cpo3342slgdg3j2ifvpg","pricing_plan_id":"cebpf4jnsgd1na2vs0mg"},{"bike_id":"aa944a12-a64d-4d28-8602-d22ca4e0d839","system_id":"levelo_inurba_marseille","lat":43.29532,"lon":5.38546,"is_reserved":false,"is_disabled":false,"rental_uris":{"android":"levelo://app?vid=aa944a12-a64d-4d28-8602-d22ca4e0d839","ios":"levelo://app?vid=aa944a12-a64d-4d28-8602-d22ca4e0d839"},"vehicle_type_id":"4","last_reported":1740168597,"current_range_meters":9200,"station_id":"ce4bgih2rcd13ifvqba0","pricing_plan_id":"cebpf4jnsgd1na2vs0mg"},{"bike_id":"e2605be6-729f-4263-a772-380592b3879d","system_id":"levelo_inurba_marseille","lat":43.3047,"lon":5.38083,"is_reserved":false,"is_disabled":false,"rental_uris":{"android":"levelo://app?vid=e2605be6-729f-4263-a772-380592b3879d","ios":"levelo://app?vid=e2605be6-729f-4263-a772-380592b3879d"},"vehicle_type_id":"4","last_reported":1740168597,"current_range_meters":9200,"station_id":"","pricing_plan_id":"cebpf4jnsgd1na2vs0mg"},{"bike_id":"e35e542f-775a-4612-aea3-19572be52e08","system_id":"levelo_inurba_marseille","lat":43.27378,"lon":5.3626,"is_reserved":false,"is_disabled":false,"rental_uris":{"android":"levelo://app?vid=e35e542f-775a-4612-aea3-19572be52e08","ios":"levelo://app?vid=e35e542f-775a-4612-aea3-19572be52e08"},"vehicle_type_id":"4","last_reported":1740168597,"current_range_meters":9600,"station_id":"ce4bhbh2rcd13ifvqeo0","pricing_plan_id":"cebpf4jnsgd1na2vs0mg"},{"bike_id":"5c1c3b63-b8e7-4bb0-9eef-e9206534f83e","system_id":"levelo_inurba_marseille","lat":43.32078,"lon":5.41577,"is_reserved":false,"is_disabled":false,"rental_uris":{"android":"levelo://app?vid=5c1c3b63-b8e7-4bb0-9eef-e9206534f83e","ios":"levelo://app?vid=5c1c3b63-b8e7-4bb0-9eef-e9206534f83e"},"vehicle_type_id":"4","last_reported":1740168597,"current_range_meters":9600,"station_id":"ce4bhq92rcd13ifvqhkg","pricing_plan_id":"cebpf4jnsgd1na2vs0mg"},{"bike_id":"47ad7c30-34cc-434c-9d7d-27d0d397ecd8","system_id":"levelo_inurba_marseille","lat":43.27836,"lon":5.4067,"is_reserved":false,"is_disabled":false,"rental_uris":{"android":"levelo://app?vid=47ad7c30-34cc-434c-9d7d-27d0d397ecd8","ios":"levelo://app?vid=47ad7c30-34cc-434c-9d7d-27d0d397ecd8"},"vehicle_type_id":"4","last_reported":1740168597,"current_range_meters":9600,"station_id":"ce4bhnh2rcd13ifvqgtg","pricing_plan_id":"cebpf4jnsgd1na2vs0mg"},{"bike_id":"37997c59-d0f6-4e17-844d-6b689b8d69d8","system_id":"levelo_inurba_marseille","lat":43.29421,"lon":5.38629,"is_reserved":false,"is_disabled":false,"rental_uris":{"android":"levelo://app?vid=37997c59-d0f6-4e17-844d-6b689b8d69d8","ios":"levelo://app?vid=37997c59-d0f6-4e17-844d-6b689b8d69d8"},"vehicle_type_id":"4","last_reported":1740168597,"current_range_meters":9600,"station_id":"ce4bh2h2rcd13ifvqdh0","pricing_plan_id":"cebpf4jnsgd1na2vs0mg"},{"bike_id":"f8e5b21a-9f55-4706-8016-3f41c2e6ca08","system_id":"levelo_inurba_marseille","lat":43.28485,"lon":5.38425,"is_reserved":false,"is_disabled":false,"rental_uris":{"android":"levelo://app?vid=f8e5b21a-9f55-4706-8016-3f41c2e6ca08","ios":"levelo://app?vid=f8e5b21a-9f55-4706-8016-3f41c2e6ca08"},"vehicle_type_id":"4","last_reported":1740168597,"current_range_meters":9600,"station_id":"ce4bh512rcd13ifvqe3g","pricing_plan_id":"cebpf4jnsgd1na2vs0mg"},{"bike_id":"f3feea2e-5bf7-41f6-a6d2-c494ec11d6a2","system_id":"levelo_inurba_marseille","lat":43.230658,"lon":5.354909,"is_reserved":false,"is_disabled":false,"rental_uris":{"android":"levelo://app?vid=f3feea2e-5bf7-41f6-a6d2-c494ec11d6a2","ios":"levelo://app?vid=f3feea2e-5bf7-41f6-a6d2-c494ec11d6a2"},"vehicle_type_id":"4","last_reported":1740168597,"current_range_meters":9600,"station_id":"cpo3342slgdg3j2ifvpg","pricing_plan_id":"cebpf4jnsgd1na2vs0mg"},{"bike_id":"b1c80ef2-1886-4719-a907-a5cd4fa9c85e","system_id":"levelo_inurba_marseille","lat":43.29418,"lon":5.38629,"is_reserved":false,"is_disabled":false,"rental_uris":{"android":"levelo://app?vid=b1c80ef2-1886-4719-a907-a5cd4fa9c85e","ios":"levelo://app?vid=b1c80ef2-1886-4719-a907-a5cd4fa9c85e"},"vehicle_type_id":"4","last_reported":1740168597,"current_range_meters":10000,"station_id":"ce4bh2h2rcd13ifvqdh0","pricing_plan_id":"cebpf4jnsgd1na2vs0mg"},{"bike_id":"84c075d3-179e-4f3d-8887-25bb9583ca9b","system_id":"levelo_inurba_marseille","lat":43.29439,"lon":5.38608,"is_reserved":false,"is_disabled":false,"rental_uris":{"android":"levelo://app?vid=84c075d3-179e-4f3d-8887-25bb9583ca9b","ios":"levelo://app?vid=84c075d3-179e-4f3d-8887-25bb9583ca9b"},"vehicle_type_id":"4","last_reported":1740168597,"current_range_meters":10000,"station_id":"ce4bh2h2rcd13ifvqdh0","pricing_plan_id":"cebpf4jnsgd1na2vs0mg"},{"bike_id":"88a29a45-9aa8-469d-8fb3-b64b8c1acc2b","system_id":"levelo_inurba_marseille","lat":43.27901,"lon":5.38011,"is_reserved":false,"is_disabled":false,"rental_uris":{"android":"levelo://app?vid=88a29a45-9aa8-469d-8fb3-b64b8c1acc2b","ios":"levelo://app?vid=88a29a45-9aa8-469d-8fb3-b64b8c1acc2b"},"vehicle_type_id":"4","last_reported":1740168597,"current_range_meters":10000,"station_id":"","pricing_plan_id":"cebpf4jnsgd1na2vs0mg"},{"bike_id":"a6556200-7082-4a45-9dfc-37d3801d71f2","system_id":"levelo_inurba_marseille","lat":43.292,"lon":5.39318,"is_reserved":false,"is_disabled":false,"rental_uris":{"android":"levelo://app?vid=a6556200-7082-4a45-9dfc-37d3801d71f2","ios":"levelo://app?vid=a6556200-7082-4a45-9dfc-37d3801d71f2"},"vehicle_type_id":"4","last_reported":1740168597,"current_range_meters":10000,"station_id":"ce4bh192rcd13ifvqdd0","pricing_plan_id":"cebpf4jnsgd1na2vs0mg"},{"bike_id":"ff72b3d6-f08b-4cec-82b6-3f5bf8bd662b","system_id":"levelo_inurba_marseille","lat":43.28134,"lon":5.42677,"is_reserved":false,"is_disabled":false,"rental_uris":{"android":"levelo://app?vid=ff72b3d6-f08b-4cec-82b6-3f5bf8bd662b","ios":"levelo://app?vid=ff72b3d6-f08b-4cec-82b6-3f5bf8bd662b"},"vehicle_type_id":"4","last_reported":1740168597,"current_range_meters":10000,"station_id":"ce4bhnh2rcd13ifvqgug","pricing_plan_id":"cebpf4jnsgd1na2vs0mg"},{"bike_id":"85e1a65a-bbbe-4c67-a7e7-d87e622bfa15","system_id":"levelo_inurba_marseille","lat":43.29956,"lon":5.38529,"is_reserved":false,"is_disabled":false,"rental_uris":{"android":"levelo://app?vid=85e1a65a-bbbe-4c67-a7e7-d87e622bfa15","ios":"levelo://app?vid=85e1a65a-bbbe-4c67-a7e7-d87e622bfa15"},"vehicle_type_id":"4","last_reported":1740168597,"current_range_meters":10000,"station_id":"ce4bgj92rcd13ifvqbd0","pricing_plan_id":"cebpf4jnsgd1na2vs0mg"},{"bike_id":"2b8d73ad-5137-4320-bf7a-9fcaea6cd84f","system_id":"levelo_inurba_marseille","lat":43.2799,"lon":5.4002,"is_reserved":false,"is_disabled":false,"rental_uris":{"android":"levelo://app?vid=2b8d73ad-5137-4320-bf7a-9fcaea6cd84f","ios":"levelo://app?vid=2b8d73ad-5137-4320-bf7a-9fcaea6cd84f"},"vehicle_type_id":"4","last_reported":1740168597,"current_range_meters":10000,"station_id":"ce4bho92rcd13ifvqh4g","pricing_plan_id":"cebpf4jnsgd1na2vs0mg"},{"bike_id":"53b97ee1-c4a2-4bbc-9702-d2b3a813e357","system_id":"levelo_inurba_marseille","lat":43.30132,"lon":5.38816,"is_reserved":false,"is_disabled":false,"rental_uris":{"android":"levelo://app?vid=53b97ee1-c4a2-4bbc-9702-d2b3a813e357","ios":"levelo://app?vid=53b97ee1-c4a2-4bbc-9702-d2b3a813e357"},"vehicle_type_id":"4","last_reported":1740168597,"current_range_meters":10000,"station_id":"ce4bghh2rcd13ifvqb60","pricing_plan_id":"cebpf4jnsgd1na2vs0mg"},{"bike_id":"d414c500-f227-4efb-aabd-f7246cca81bc","system_id":"levelo_inurba_marseille","lat":43.230618,"lon":5.354928,"is_reserved":false,"is_disabled":false,"rental_uris":{"android":"levelo://app?vid=d414c500-f227-4efb-aabd-f7246cca81bc","ios":"levelo://app?vid=d414c500-f227-4efb-aabd-f7246cca81bc"},"vehicle_type_id":"4","last_reported":1740168597,"current_range_meters":10000,"station_id":"cpo3342slgdg3j2ifvpg","pricing_plan_id":"cebpf4jnsgd1na2vs0mg"},{"bike_id":"40ae0c6e-a4e8-416e-a3b2-1e10539d591a","system_id":"levelo_inurba_marseille","lat":43.28413,"lon":5.34982,"is_reserved":false,"is_disabled":false,"rental_uris":{"android":"levelo://app?vid=40ae0c6e-a4e8-416e-a3b2-1e10539d591a","ios":"levelo://app?vid=40ae0c6e-a4e8-416e-a3b2-1e10539d591a"},"vehicle_type_id":"4","last_reported":1740168597,"current_range_meters":10000,"station_id":"ce4bhbh2rcd13ifvqepg","pricing_plan_id":"cebpf4jnsgd1na2vs0mg"},{"bike_id":"12517b09-e056-425c-95fc-8e6ffba53bc2","system_id":"levelo_inurba_marseille","lat":43.27829,"lon":5.392,"is_reserved":false,"is_disabled":false,"rental_uris":{"android":"levelo://app?vid=12517b09-e056-425c-95fc-8e6ffba53bc2","ios":"levelo://app?vid=12517b09-e056-425c-95fc-8e6ffba53bc2"},"vehicle_type_id":"4","last_reported":1740168597,"current_range_meters":10000,"station_id":"ce4bhjp2rcd13ifvqga0","pricing_plan_id":"cebpf4jnsgd1na2vs0mg"},{"bike_id":"23cbb8c6-032e-4c12-bd5c-f753c88faae9","system_id":"levelo_inurba_marseille","lat":43.30921,"lon":5.40189,"is_reserved":false,"is_disabled":false,"rental_uris":{"android":"levelo://app?vid=23cbb8c6-032e-4c12-bd5c-f753c88faae9","ios":"levelo://app?vid=23cbb8c6-032e-4c12-bd5c-f753c88faae9"},"vehicle_type_id":"4","last_reported":1740168597,"current_range_meters":10800,"station_id":"ce4bgvp2rcd13ifvqct0","pricing_plan_id":"cebpf4jnsgd1na2vs0mg"},{"bike_id":"8198dc47-ae3a-498b-82d2-dc151349a0c0","system_id":"levelo_inurba_marseille","lat":43.28003,"lon":5.40011,"is_reserved":false,"is_disabled":false,"rental_uris":{"android":"levelo://app?vid=8198dc47-ae3a-498b-82d2-dc151349a0c0","ios":"levelo://app?vid=8198dc47-ae3a-498b-82d2-dc151349a0c0"},"vehicle_type_id":"4","last_reported":1740168597,"current_range_meters":10800,"station_id":"ce4bho92rcd13ifvqh4g","pricing_plan_id":"cebpf4jnsgd1na2vs0mg"},{"bike_id":"40437a03-f1c2-4b65-91e5-8f95ddce7f7b","system_id":"levelo_inurba_marseille","lat":43.29415,"lon":5.38623,"is_reserved":false,"is_disabled":false,"rental_uris":{"android":"levelo://app?vid=40437a03-f1c2-4b65-91e5-8f95ddce7f7b","ios":"levelo://app?vid=40437a03-f1c2-4b65-91e5-8f95ddce7f7b"},"vehicle_type_id":"4","last_reported":1740168597,"current_range_meters":10800,"station_id":"ce4bh2h2rcd13ifvqdh0","pricing_plan_id":"cebpf4jnsgd1na2vs0mg"},{"bike_id":"943382b3-3ac2-40b7-baae-7ca1aec3b930","system_id":"levelo_inurba_marseille","lat":43.28168,"lon":5.4263,"is_reserved":false,"is_disabled":false,"rental_uris":{"android":"levelo://app?vid=943382b3-3ac2-40b7-baae-7ca1aec3b930","ios":"levelo://app?vid=943382b3-3ac2-40b7-baae-7ca1aec3b930"},"vehicle_type_id":"4","last_reported":1740168597,"current_range_meters":10800,"station_id":"ce4bhnh2rcd13ifvqgug","pricing_plan_id":"cebpf4jnsgd1na2vs0mg"},{"bike_id":"7a811fd9-b132-4914-a795-bbd931482c71","system_id":"levelo_inurba_marseille","lat":43.29539,"lon":5.38561,"is_reserved":false,"is_disabled":true,"rental_uris":{"android":"levelo://app?vid=7a811fd9-b132-4914-a795-bbd931482c71","ios":"levelo://app?vid=7a811fd9-b132-4914-a795-bbd931482c71"},"vehicle_type_id":"4","last_reported":1740168597,"current_range_meters":11200,"station_id":"ce4bgih2rcd13ifvqba0","pricing_plan_id":"cebpf4jnsgd1na2vs0mg"},{"bike_id":"fbdb5bd4-d8df-4cf1-88b9-88590ac3fee1","system_id":"levelo_inurba_marseille","lat":43.24803,"lon":5.37452,"is_reserved":false,"is_disabled":false,"rental_uris":{"android":"levelo://app?vid=fbdb5bd4-d8df-4cf1-88b9-88590ac3fee1","ios":"levelo://app?vid=fbdb5bd4-d8df-4cf1-88b9-88590ac3fee1"},"vehicle_type_id":"4","last_reported":1740168597,"current_range_meters":11200,"station_id":"ce4bhgh2rcd13ifvqfb0","pricing_plan_id":"cebpf4jnsgd1na2vs0mg"},{"bike_id":"5348d5dc-5dca-4978-b167-cd7e8ce45433","system_id":"levelo_inurba_marseille","lat":43.30533,"lon":5.36517,"is_reserved":false,"is_disabled":true,"rental_uris":{"android":"levelo://app?vid=5348d5dc-5dca-4978-b167-cd7e8ce45433","ios":"levelo://app?vid=5348d5dc-5dca-4978-b167-cd7e8ce45433"},"vehicle_type_id":"4","last_reported":1740168597,"current_range_meters":11200,"station_id":"ce4bgs12rcd13ifvqcag","pricing_plan_id":"cebpf4jnsgd1na2vs0mg"},{"bike_id":"ccc6a18a-15f3-4348-92d3-6f05617d580e","system_id":"levelo_inurba_marseille","lat":43.29416,"lon":5.386,"is_reserved":false,"is_disabled":false,"rental_uris":{"android":"levelo://app?vid=ccc6a18a-15f3-4348-92d3-6f05617d580e","ios":"levelo://app?vid=ccc6a18a-15f3-4348-92d3-6f05617d580e"},"vehicle_type_id":"4","last_reported":1740168597,"current_range_meters":11200,"station_id":"ce4bh2h2rcd13ifvqdh0","pricing_plan_id":"cebpf4jnsgd1na2vs0mg"},{"bike_id":"a62d91f9-38eb-45f0-95bf-64d3ac6c6a8a","system_id":"levelo_inurba_marseille","lat":43.29788,"lon":5.39342,"is_reserved":false,"is_disabled":false,"rental_uris":{"android":"levelo://app?vid=a62d91f9-38eb-45f0-95bf-64d3ac6c6a8a","ios":"levelo://app?vid=a62d91f9-38eb-45f0-95bf-64d3ac6c6a8a"},"vehicle_type_id":"4","last_reported":1740168597,"current_range_meters":11200,"station_id":"chh1huq6cuj3fo74tm60","pricing_plan_id":"cebpf4jnsgd1na2vs0mg"},{"bike_id":"cf955375-6efc-4c58-b72f-488429c9e00a","system_id":"levelo_inurba_marseille","lat":43.29421,"lon":5.38634,"is_reserved":false,"is_disabled":false,"rental_uris":{"android":"levelo://app?vid=cf955375-6efc-4c58-b72f-488429c9e00a","ios":"levelo://app?vid=cf955375-6efc-4c58-b72f-488429c9e00a"},"vehicle_type_id":"4","last_reported":1740168597,"current_range_meters":11200,"station_id":"ce4bh2h2rcd13ifvqdh0","pricing_plan_id":"cebpf4jnsgd1na2vs0mg"},{"bike_id":"96cdc694-1c9c-4cda-b45c-2b04682fafe2","system_id":"levelo_inurba_marseille","lat":43.2941,"lon":5.386,"is_reserved":false,"is_disabled":false,"rental_uris":{"android":"levelo://app?vid=96cdc694-1c9c-4cda-b45c-2b04682fafe2","ios":"levelo://app?vid=96cdc694-1c9c-4cda-b45c-2b04682fafe2"},"vehicle_type_id":"4","last_reported":1740168597,"current_range_meters":11200,"station_id":"ce4bh2h2rcd13ifvqdh0","pricing_plan_id":"cebpf4jnsgd1na2vs0mg"},{"bike_id":"963ebe67-76df-4c85-98f2-f6628514bca4","system_id":"levelo_inurba_marseille","lat":43.26943,"lon":5.38643,"is_reserved":false,"is_disabled":false,"rental_uris":{"android":"levelo://app?vid=963ebe67-76df-4c85-98f2-f6628514bca4","ios":"levelo://app?vid=963ebe67-76df-4c85-98f2-f6628514bca4"},"vehicle_type_id":"4","last_reported":1740168597,"current_range_meters":11600,"station_id":"ce4bhh92rcd13ifvqfh0","pricing_plan_id":"cebpf4jnsgd1na2vs0mg"},{"bike_id":"ab1a6583-633d-405d-bd4a-1fdedc00f747","system_id":"levelo_inurba_marseille","lat":43.330214,"lon":5.390446,"is_reserved":false,"is_disabled":false,"rental_uris":{"android":"levelo://app?vid=ab1a6583-633d-405d-bd4a-1fdedc00f747","ios":"levelo://app?vid=ab1a6583-633d-405d-bd4a-1fdedc00f747"},"vehicle_type_id":"4","last_reported":1740168597,"current_range_meters":11600,"station_id":"ce4bhr92rcd13ifvqhrg","pricing_plan_id":"cebpf4jnsgd1na2vs0mg"},{"bike_id":"c04b81b6-1d78-49d2-a77e-38338694652c","system_id":"levelo_inurba_marseille","lat":43.23619,"lon":5.40983,"is_reserved":false,"is_disabled":false,"rental_uris":{"android":"levelo://app?vid=c04b81b6-1d78-49d2-a77e-38338694652c","ios":"levelo://app?vid=c04b81b6-1d78-49d2-a77e-38338694652c"},"vehicle_type_id":"4","last_reported":1740168597,"current_range_meters":11600,"station_id":"","pricing_plan_id":"cebpf4jnsgd1na2vs0mg"},{"bike_id":"2afb22c7-7048-4615-a3b7-71b0be04e579","system_id":"levelo_inurba_marseille","lat":43.23184,"lon":5.3557,"is_reserved":false,"is_disabled":false,"rental_uris":{"android":"levelo://app?vid=2afb22c7-7048-4615-a3b7-71b0be04e579","ios":"levelo://app?vid=2afb22c7-7048-4615-a3b7-71b0be04e579"},"vehicle_type_id":"4","last_reported":1740168597,"current_range_meters":11600,"station_id":"","pricing_plan_id":"cebpf4jnsgd1na2vs0mg"},{"bike_id":"dd3500a7-2aa4-49e8-97c7-f1595af3c323","system_id":"levelo_inurba_marseille","lat":43.26065,"lon":5.39374,"is_reserved":false,"is_disabled":false,"rental_uris":{"android":"levelo://app?vid=dd3500a7-2aa4-49e8-97c7-f1595af3c323","ios":"levelo://app?vid=dd3500a7-2aa4-49e8-97c7-f1595af3c323"},"vehicle_type_id":"4","last_reported":1740168597,"current_range_meters":11600,"station_id":"ce4bhh92rcd13ifvqfj0","pricing_plan_id":"cebpf4jnsgd1na2vs0mg"},{"bike_id":"417001bc-e8ee-4b24-9108-f07a293bf8c3","system_id":"levelo_inurba_marseille","lat":43.29703,"lon":5.37735,"is_reserved":false,"is_disabled":true,"rental_uris":{"android":"levelo://app?vid=417001bc-e8ee-4b24-9108-f07a293bf8c3","ios":"levelo://app?vid=417001bc-e8ee-4b24-9108-f07a293bf8c3"},"vehicle_type_id":"4","last_reported":1740168597,"current_range_meters":12000,"station_id":"ce4bgkh2rcd13ifvqbl0","pricing_plan_id":"cebpf4jnsgd1na2vs0mg"},{"bike_id":"9fae7a6f-9143-496a-a0fa-fc12bac20457","system_id":"levelo_inurba_marseille","lat":43.2997,"lon":5.38501,"is_reserved":false,"is_disabled":false,"rental_uris":{"android":"levelo://app?vid=9fae7a6f-9143-496a-a0fa-fc12bac20457","ios":"levelo://app?vid=9fae7a6f-9143-496a-a0fa-fc12bac20457"},"vehicle_type_id":"4","last_reported":1740168597,"current_range_meters":12000,"station_id":"ce4bgj92rcd13ifvqbd0","pricing_plan_id":"cebpf4jnsgd1na2vs0mg"},{"bike_id":"31d0d669-dda8-4b16-b753-834b065be4af","system_id":"levelo_inurba_marseille","lat":43.30277,"lon":5.36879,"is_reserved":false,"is_disabled":false,"rental_uris":{"android":"levelo://app?vid=31d0d669-dda8-4b16-b753-834b065be4af","ios":"levelo://app?vid=31d0d669-dda8-4b16-b753-834b065be4af"},"vehicle_type_id":"4","last_reported":1740168597,"current_range_meters":12000,"station_id":"ce4bgqh2rcd13ifvqc5g","pricing_plan_id":"cebpf4jnsgd1na2vs0mg"},{"bike_id":"e501be99-a171-4e91-9e5b-ac547e4c06f2","system_id":"levelo_inurba_marseille","lat":43.23207,"lon":5.35547,"is_reserved":false,"is_disabled":false,"rental_uris":{"android":"levelo://app?vid=e501be99-a171-4e91-9e5b-ac547e4c06f2","ios":"levelo://app?vid=e501be99-a171-4e91-9e5b-ac547e4c06f2"},"vehicle_type_id":"4","last_reported":1740168597,"current_range_meters":12000,"station_id":"ce4bhu92rcd13ifvqi70","pricing_plan_id":"cebpf4jnsgd1na2vs0mg"},{"bike_id":"4668300d-2783-4785-9860-f7aa2cf6af65","system_id":"levelo_inurba_marseille","lat":43.29597,"lon":5.38105,"is_reserved":false,"is_disabled":false,"rental_uris":{"android":"levelo://app?vid=4668300d-2783-4785-9860-f7aa2cf6af65","ios":"levelo://app?vid=4668300d-2783-4785-9860-f7aa2cf6af65"},"vehicle_type_id":"4","last_reported":1740168597,"current_range_meters":12000,"station_id":"ce4bgl12rcd13ifvqbo0","pricing_plan_id":"cebpf4jnsgd1na2vs0mg"},{"bike_id":"f011d7fb-e58c-4279-9a9e-da031e7287d4","system_id":"levelo_inurba_marseille","lat":43.29423,"lon":5.3861,"is_reserved":false,"is_disabled":false,"rental_uris":{"android":"levelo://app?vid=f011d7fb-e58c-4279-9a9e-da031e7287d4","ios":"levelo://app?vid=f011d7fb-e58c-4279-9a9e-da031e7287d4"},"vehicle_type_id":"4","last_reported":1740168597,"current_range_meters":12400,"station_id":"ce4bh2h2rcd13ifvqdh0","pricing_plan_id":"cebpf4jnsgd1na2vs0mg"},{"bike_id":"a404738f-d592-4923-bb7f-8cad6bf8fec4","system_id":"levelo_inurba_marseille","lat":43.27949,"lon":5.38495,"is_reserved":false,"is_disabled":false,"rental_uris":{"android":"levelo://app?vid=a404738f-d592-4923-bb7f-8cad6bf8fec4","ios":"levelo://app?vid=a404738f-d592-4923-bb7f-8cad6bf8fec4"},"vehicle_type_id":"4","last_reported":1740168597,"current_range_meters":12400,"station_id":"","pricing_plan_id":"cebpf4jnsgd1na2vs0mg"},{"bike_id":"3c8aac07-80ad-4986-a150-17fd9f678e45","system_id":"levelo_inurba_marseille","lat":43.2418,"lon":5.3973,"is_reserved":false,"is_disabled":false,"rental_uris":{"android":"levelo://app?vid=3c8aac07-80ad-4986-a150-17fd9f678e45","ios":"levelo://app?vid=3c8aac07-80ad-4986-a150-17fd9f678e45"},"vehicle_type_id":"4","last_reported":1740168597,"current_range_meters":12400,"station_id":"ce4bhn12rcd13ifvqgpg","pricing_plan_id":"cebpf4jnsgd1na2vs0mg"},{"bike_id":"f673e2f4-4a43-42a6-8136-fc7d172e97ac","system_id":"levelo_inurba_marseille","lat":43.29779,"lon":5.39345,"is_reserved":false,"is_disabled":false,"rental_uris":{"android":"levelo://app?vid=f673e2f4-4a43-42a6-8136-fc7d172e97ac","ios":"levelo://app?vid=f673e2f4-4a43-42a6-8136-fc7d172e97ac"},"vehicle_type_id":"4","last_reported":1740168597,"current_range_meters":12400,"station_id":"chh1huq6cuj3fo74tm60","pricing_plan_id":"cebpf4jnsgd1na2vs0mg"},{"bike_id":"69de3434-1c40-4cb6-a0e9-8c4ad3e1a4df","system_id":"levelo_inurba_marseille","lat":43.295276,"lon":5.390532,"is_reserved":false,"is_disabled":false,"rental_uris":{"android":"levelo://app?vid=69de3434-1c40-4cb6-a0e9-8c4ad3e1a4df","ios":"levelo://app?vid=69de3434-1c40-4cb6-a0e9-8c4ad3e1a4df"},"vehicle_type_id":"4","last_reported":1740168597,"current_range_meters":12400,"station_id":"ce4bh3p2rcd13ifvqdp0","pricing_plan_id":"cebpf4jnsgd1na2vs0mg"},{"bike_id":"db862aa0-6d5c-4557-b8a1-8d27f720ed6e","system_id":"levelo_inurba_marseille","lat":43.27995,"lon":5.40016,"is_reserved":false,"is_disabled":false,"rental_uris":{"android":"levelo://app?vid=db862aa0-6d5c-4557-b8a1-8d27f720ed6e","ios":"levelo://app?vid=db862aa0-6d5c-4557-b8a1-8d27f720ed6e"},"vehicle_type_id":"4","last_reported":1740168597,"current_range_meters":12800,"station_id":"ce4bho92rcd13ifvqh4g","pricing_plan_id":"cebpf4jnsgd1na2vs0mg"},{"bike_id":"78ccc1b5-e05d-4c30-bc5b-473f9d97e2cd","system_id":"levelo_inurba_marseille","lat":43.30105,"lon":5.37825,"is_reserved":false,"is_disabled":false,"rental_uris":{"android":"levelo://app?vid=78ccc1b5-e05d-4c30-bc5b-473f9d97e2cd","ios":"levelo://app?vid=78ccc1b5-e05d-4c30-bc5b-473f9d97e2cd"},"vehicle_type_id":"4","last_reported":1740168597,"current_range_meters":12800,"station_id":"","pricing_plan_id":"cebpf4jnsgd1na2vs0mg"},{"bike_id":"ed82fb5d-90ce-4428-bd14-b9a920cf65c5","system_id":"levelo_inurba_marseille","lat":43.26191,"lon":5.37456,"is_reserved":false,"is_disabled":false,"rental_uris":{"android":"levelo://app?vid=ed82fb5d-90ce-4428-bd14-b9a920cf65c5","ios":"levelo://app?vid=ed82fb5d-90ce-4428-bd14-b9a920cf65c5"},"vehicle_type_id":"4","last_reported":1740168597,"current_range_meters":12800,"station_id":"ce4bhgp2rcd13ifvqfc0","pricing_plan_id":"cebpf4jnsgd1na2vs0mg"},{"bike_id":"116a0bf3-0cf0-45ef-a91d-8a20056a58c4","system_id":"levelo_inurba_marseille","lat":43.2954,"lon":5.38548,"is_reserved":false,"is_disabled":false,"rental_uris":{"android":"levelo://app?vid=116a0bf3-0cf0-45ef-a91d-8a20056a58c4","ios":"levelo://app?vid=116a0bf3-0cf0-45ef-a91d-8a20056a58c4"},"vehicle_type_id":"4","last_reported":1740168597,"current_range_meters":12800,"station_id":"ce4bgih2rcd13ifvqba0","pricing_plan_id":"cebpf4jnsgd1na2vs0mg"},{"bike_id":"d93b56e8-81a2-4df1-b772-ccfe1aba8adb","system_id":"levelo_inurba_marseille","lat":43.29455,"lon":5.39071,"is_reserved":false,"is_disabled":false,"rental_uris":{"android":"levelo://app?vid=d93b56e8-81a2-4df1-b772-ccfe1aba8adb","ios":"levelo://app?vid=d93b56e8-81a2-4df1-b772-ccfe1aba8adb"},"vehicle_type_id":"4","last_reported":1740168597,"current_range_meters":12800,"station_id":"","pricing_plan_id":"cebpf4jnsgd1na2vs0mg"},{"bike_id":"7c8f3d05-5401-4545-847e-9fcee9ea83d5","system_id":"levelo_inurba_marseille","lat":43.26567,"lon":5.39869,"is_reserved":false,"is_disabled":false,"rental_uris":{"android":"levelo://app?vid=7c8f3d05-5401-4545-847e-9fcee9ea83d5","ios":"levelo://app?vid=7c8f3d05-5401-4545-847e-9fcee9ea83d5"},"vehicle_type_id":"4","last_reported":1740168597,"current_range_meters":12800,"station_id":"","pricing_plan_id":"cebpf4jnsgd1na2vs0mg"},{"bike_id":"efd9f2f1-7b10-4189-aa91-1f4ab21cf36a","system_id":"levelo_inurba_marseille","lat":43.24178,"lon":5.3973,"is_reserved":false,"is_disabled":false,"rental_uris":{"android":"levelo://app?vid=efd9f2f1-7b10-4189-aa91-1f4ab21cf36a","ios":"levelo://app?vid=efd9f2f1-7b10-4189-aa91-1f4ab21cf36a"},"vehicle_type_id":"4","last_reported":1740168597,"current_range_meters":12800,"station_id":"ce4bhn12rcd13ifvqgpg","pricing_plan_id":"cebpf4jnsgd1na2vs0mg"},{"bike_id":"0cd7b73c-88ff-4b14-87d9-afbc02d2c887","system_id":"levelo_inurba_marseille","lat":43.31269,"lon":5.40167,"is_reserved":false,"is_disabled":false,"rental_uris":{"android":"levelo://app?vid=0cd7b73c-88ff-4b14-87d9-afbc02d2c887","ios":"levelo://app?vid=0cd7b73c-88ff-4b14-87d9-afbc02d2c887"},"vehicle_type_id":"4","last_reported":1740168597,"current_range_meters":12800,"station_id":"ce4bh092rcd13ifvqd30","pricing_plan_id":"cebpf4jnsgd1na2vs0mg"},{"bike_id":"6c2ab6e6-2d04-4225-b04d-1f709ec68055","system_id":"levelo_inurba_marseille","lat":43.22944,"lon":5.35386,"is_reserved":false,"is_disabled":false,"rental_uris":{"android":"levelo://app?vid=6c2ab6e6-2d04-4225-b04d-1f709ec68055","ios":"levelo://app?vid=6c2ab6e6-2d04-4225-b04d-1f709ec68055"},"vehicle_type_id":"4","last_reported":1740168597,"current_range_meters":12800,"station_id":"cpo3532slgdg3j2ikp40","pricing_plan_id":"cebpf4jnsgd1na2vs0mg"},{"bike_id":"54b45f3b-f685-44dd-8b79-1a758bf759d2","system_id":"levelo_inurba_marseille","lat":43.337444,"lon":5.374475,"is_reserved":false,"is_disabled":true,"rental_uris":{"android":"levelo://app?vid=54b45f3b-f685-44dd-8b79-1a758bf759d2","ios":"levelo://app?vid=54b45f3b-f685-44dd-8b79-1a758bf759d2"},"vehicle_type_id":"4","last_reported":1740168597,"current_range_meters":12800,"station_id":"","pricing_plan_id":"cebpf4jnsgd1na2vs0mg"},{"bike_id":"d4a44027-ad6e-4e68-b8f9-92ceb3264b38","system_id":"levelo_inurba_marseille","lat":43.29517,"lon":5.39048,"is_reserved":false,"is_disabled":false,"rental_uris":{"android":"levelo://app?vid=d4a44027-ad6e-4e68-b8f9-92ceb3264b38","ios":"levelo://app?vid=d4a44027-ad6e-4e68-b8f9-92ceb3264b38"},"vehicle_type_id":"4","last_reported":1740168597,"current_range_meters":12800,"station_id":"ce4bh3p2rcd13ifvqdp0","pricing_plan_id":"cebpf4jnsgd1na2vs0mg"},{"bike_id":"b985ad1f-1942-453b-b5eb-7462cafd1e31","system_id":"levelo_inurba_marseille","lat":43.23186,"lon":5.35558,"is_reserved":false,"is_disabled":false,"rental_uris":{"android":"levelo://app?vid=b985ad1f-1942-453b-b5eb-7462cafd1e31","ios":"levelo://app?vid=b985ad1f-1942-453b-b5eb-7462cafd1e31"},"vehicle_type_id":"4","last_reported":1740168597,"current_range_meters":12800,"station_id":"ce4bhu92rcd13ifvqi70","pricing_plan_id":"cebpf4jnsgd1na2vs0mg"},{"bike_id":"aa6b079d-ac76-4c64-aa3c-29b3f6dad2e1","system_id":"levelo_inurba_marseille","lat":43.28158,"lon":5.42634,"is_reserved":false,"is_disabled":false,"rental_uris":{"android":"levelo://app?vid=aa6b079d-ac76-4c64-aa3c-29b3f6dad2e1","ios":"levelo://app?vid=aa6b079d-ac76-4c64-aa3c-29b3f6dad2e1"},"vehicle_type_id":"4","last_reported":1740168597,"current_range_meters":13600,"station_id":"ce4bhnh2rcd13ifvqgug","pricing_plan_id":"cebpf4jnsgd1na2vs0mg"},{"bike_id":"3372843d-d9b8-48e7-a75e-62d9bb27ba4f","system_id":"levelo_inurba_marseille","lat":43.27923,"lon":5.39583,"is_reserved":false,"is_disabled":false,"rental_uris":{"android":"levelo://app?vid=3372843d-d9b8-48e7-a75e-62d9bb27ba4f","ios":"levelo://app?vid=3372843d-d9b8-48e7-a75e-62d9bb27ba4f"},"vehicle_type_id":"4","last_reported":1740168597,"current_range_meters":13600,"station_id":"ce4bhf92rcd13ifvqf40","pricing_plan_id":"cebpf4jnsgd1na2vs0mg"},{"bike_id":"089b421a-1c36-49ca-a690-f002c1cadcb6","system_id":"levelo_inurba_marseille","lat":43.241728,"lon":5.364002,"is_reserved":false,"is_disabled":false,"rental_uris":{"android":"levelo://app?vid=089b421a-1c36-49ca-a690-f002c1cadcb6","ios":"levelo://app?vid=089b421a-1c36-49ca-a690-f002c1cadcb6"},"vehicle_type_id":"4","last_reported":1740168597,"current_range_meters":13600,"station_id":"cpo36qri1sfpv3e86is0","pricing_plan_id":"cebpf4jnsgd1na2vs0mg"},{"bike_id":"20c03868-5bd2-4011-baaf-a537d64ad403","system_id":"levelo_inurba_marseille","lat":43.29533,"lon":5.38534,"is_reserved":false,"is_disabled":false,"rental_uris":{"android":"levelo://app?vid=20c03868-5bd2-4011-baaf-a537d64ad403","ios":"levelo://app?vid=20c03868-5bd2-4011-baaf-a537d64ad403"},"vehicle_type_id":"4","last_reported":1740168597,"current_range_meters":13600,"station_id":"ce4bgih2rcd13ifvqba0","pricing_plan_id":"cebpf4jnsgd1na2vs0mg"},{"bike_id":"65b6ea50-ddb2-44f6-8dec-7df9b03b82a9","system_id":"levelo_inurba_marseille","lat":43.30881,"lon":5.40032,"is_reserved":false,"is_disabled":false,"rental_uris":{"android":"levelo://app?vid=65b6ea50-ddb2-44f6-8dec-7df9b03b82a9","ios":"levelo://app?vid=65b6ea50-ddb2-44f6-8dec-7df9b03b82a9"},"vehicle_type_id":"4","last_reported":1740168597,"current_range_meters":13600,"station_id":"","pricing_plan_id":"cebpf4jnsgd1na2vs0mg"},{"bike_id":"6999aa56-7f49-45bc-97ed-7a0062de14ec","system_id":"levelo_inurba_marseille","lat":43.290807,"lon":5.371739,"is_reserved":false,"is_disabled":false,"rental_uris":{"android":"levelo://app?vid=6999aa56-7f49-45bc-97ed-7a0062de14ec","ios":"levelo://app?vid=6999aa56-7f49-45bc-97ed-7a0062de14ec"},"vehicle_type_id":"4","last_reported":1740168597,"current_range_meters":13600,"station_id":"ce4bh5p2rcd13ifvqe4g","pricing_plan_id":"cebpf4jnsgd1na2vs0mg"},{"bike_id":"4891d176-5195-468c-a008-6690561061d5","system_id":"levelo_inurba_marseille","lat":43.29261,"lon":5.38438,"is_reserved":false,"is_disabled":false,"rental_uris":{"android":"levelo://app?vid=4891d176-5195-468c-a008-6690561061d5","ios":"levelo://app?vid=4891d176-5195-468c-a008-6690561061d5"},"vehicle_type_id":"4","last_reported":1740168597,"current_range_meters":13600,"station_id":"ce4bh692rcd13ifvqea0","pricing_plan_id":"cebpf4jnsgd1na2vs0mg"},{"bike_id":"ba641428-d176-472a-a372-e4beaee42889","system_id":"levelo_inurba_marseille","lat":43.24806,"lon":5.37455,"is_reserved":false,"is_disabled":false,"rental_uris":{"android":"levelo://app?vid=ba641428-d176-472a-a372-e4beaee42889","ios":"levelo://app?vid=ba641428-d176-472a-a372-e4beaee42889"},"vehicle_type_id":"4","last_reported":1740168597,"current_range_meters":13600,"station_id":"ce4bhgh2rcd13ifvqfb0","pricing_plan_id":"cebpf4jnsgd1na2vs0mg"},{"bike_id":"06d8c8ef-791d-40de-8e1b-f55dcb9c7a0c","system_id":"levelo_inurba_marseille","lat":43.27377,"lon":5.36271,"is_reserved":false,"is_disabled":false,"rental_uris":{"android":"levelo://app?vid=06d8c8ef-791d-40de-8e1b-f55dcb9c7a0c","ios":"levelo://app?vid=06d8c8ef-791d-40de-8e1b-f55dcb9c7a0c"},"vehicle_type_id":"4","last_reported":1740168597,"current_range_meters":13600,"station_id":"ce4bhbh2rcd13ifvqeo0","pricing_plan_id":"cebpf4jnsgd1na2vs0mg"},{"bike_id":"c88a28e7-77d6-44e0-a79d-8f6ca388d896","system_id":"levelo_inurba_marseille","lat":43.29277,"lon":5.38429,"is_reserved":false,"is_disabled":false,"rental_uris":{"android":"levelo://app?vid=c88a28e7-77d6-44e0-a79d-8f6ca388d896","ios":"levelo://app?vid=c88a28e7-77d6-44e0-a79d-8f6ca388d896"},"vehicle_type_id":"4","last_reported":1740168597,"current_range_meters":14000,"station_id":"ce4bh692rcd13ifvqea0","pricing_plan_id":"cebpf4jnsgd1na2vs0mg"},{"bike_id":"5b480cc3-4d68-49c0-a9df-95966150c84b","system_id":"levelo_inurba_marseille","lat":43.2811,"lon":5.37836,"is_reserved":false,"is_disabled":false,"rental_uris":{"android":"levelo://app?vid=5b480cc3-4d68-49c0-a9df-95966150c84b","ios":"levelo://app?vid=5b480cc3-4d68-49c0-a9df-95966150c84b"},"vehicle_type_id":"4","last_reported":1740168597,"current_range_meters":14000,"station_id":"ce4bha12rcd13ifvqee0","pricing_plan_id":"cebpf4jnsgd1na2vs0mg"},{"bike_id":"1b7ac129-ecd5-4ebe-ac49-f8a6cd5fd7db","system_id":"levelo_inurba_marseille","lat":43.24979,"lon":5.38962,"is_reserved":false,"is_disabled":false,"rental_uris":{"android":"levelo://app?vid=1b7ac129-ecd5-4ebe-ac49-f8a6cd5fd7db","ios":"levelo://app?vid=1b7ac129-ecd5-4ebe-ac49-f8a6cd5fd7db"},"vehicle_type_id":"4","last_reported":1740168597,"current_range_meters":14000,"station_id":"ce4bhgp2rcd13ifvqfd0","pricing_plan_id":"cebpf4jnsgd1na2vs0mg"},{"bike_id":"c73c736f-38fb-4665-be7e-28fc5f3d431c","system_id":"levelo_inurba_marseille","lat":43.284685,"lon":5.384172,"is_reserved":false,"is_disabled":false,"rental_uris":{"android":"levelo://app?vid=c73c736f-38fb-4665-be7e-28fc5f3d431c","ios":"levelo://app?vid=c73c736f-38fb-4665-be7e-28fc5f3d431c"},"vehicle_type_id":"4","last_reported":1740168597,"current_range_meters":14000,"station_id":"ce4bh512rcd13ifvqe3g","pricing_plan_id":"cebpf4jnsgd1na2vs0mg"},{"bike_id":"3b9eacfa-d75a-48b2-a386-7b0c83515304","system_id":"levelo_inurba_marseille","lat":43.29426,"lon":5.38665,"is_reserved":false,"is_disabled":false,"rental_uris":{"android":"levelo://app?vid=3b9eacfa-d75a-48b2-a386-7b0c83515304","ios":"levelo://app?vid=3b9eacfa-d75a-48b2-a386-7b0c83515304"},"vehicle_type_id":"4","last_reported":1740168597,"current_range_meters":14000,"station_id":"ce4bh2h2rcd13ifvqdh0","pricing_plan_id":"cebpf4jnsgd1na2vs0mg"},{"bike_id":"c97287dd-9a62-4a9a-86f4-5450e95abb79","system_id":"levelo_inurba_marseille","lat":43.29258,"lon":5.3844,"is_reserved":false,"is_disabled":false,"rental_uris":{"android":"levelo://app?vid=c97287dd-9a62-4a9a-86f4-5450e95abb79","ios":"levelo://app?vid=c97287dd-9a62-4a9a-86f4-5450e95abb79"},"vehicle_type_id":"4","last_reported":1740168597,"current_range_meters":14000,"station_id":"ce4bh692rcd13ifvqea0","pricing_plan_id":"cebpf4jnsgd1na2vs0mg"},{"bike_id":"c6d53317-5289-4fc6-ae4e-168b4ba63e80","system_id":"levelo_inurba_marseille","lat":43.30211,"lon":5.39465,"is_reserved":false,"is_disabled":false,"rental_uris":{"android":"levelo://app?vid=c6d53317-5289-4fc6-ae4e-168b4ba63e80","ios":"levelo://app?vid=c6d53317-5289-4fc6-ae4e-168b4ba63e80"},"vehicle_type_id":"4","last_reported":1740168597,"current_range_meters":14000,"station_id":"ce4bh0p2rcd13ifvqd70","pricing_plan_id":"cebpf4jnsgd1na2vs0mg"},{"bike_id":"d312ce1d-aae9-4c62-a1e8-38c15d95735a","system_id":"levelo_inurba_marseille","lat":43.22929,"lon":5.35377,"is_reserved":false,"is_disabled":false,"rental_uris":{"android":"levelo://app?vid=d312ce1d-aae9-4c62-a1e8-38c15d95735a","ios":"levelo://app?vid=d312ce1d-aae9-4c62-a1e8-38c15d95735a"},"vehicle_type_id":"4","last_reported":1740168597,"current_range_meters":14400,"station_id":"cpo3532slgdg3j2ikp40","pricing_plan_id":"cebpf4jnsgd1na2vs0mg"},{"bike_id":"35331f57-b06c-41f1-8224-4eb3668702eb","system_id":"levelo_inurba_marseille","lat":43.23046,"lon":5.35492,"is_reserved":false,"is_disabled":false,"rental_uris":{"android":"levelo://app?vid=35331f57-b06c-41f1-8224-4eb3668702eb","ios":"levelo://app?vid=35331f57-b06c-41f1-8224-4eb3668702eb"},"vehicle_type_id":"4","last_reported":1740168597,"current_range_meters":14400,"station_id":"cpo3342slgdg3j2ifvpg","pricing_plan_id":"cebpf4jnsgd1na2vs0mg"},{"bike_id":"742bc5a2-3444-4e4e-844a-5248e8280f90","system_id":"levelo_inurba_marseille","lat":43.25124,"lon":5.39041,"is_reserved":false,"is_disabled":false,"rental_uris":{"android":"levelo://app?vid=742bc5a2-3444-4e4e-844a-5248e8280f90","ios":"levelo://app?vid=742bc5a2-3444-4e4e-844a-5248e8280f90"},"vehicle_type_id":"4","last_reported":1740168597,"current_range_meters":14400,"station_id":"","pricing_plan_id":"cebpf4jnsgd1na2vs0mg"},{"bike_id":"699594a6-5e86-4084-9c66-74dc431a8fb3","system_id":"levelo_inurba_marseille","lat":43.30889,"lon":5.39596,"is_reserved":false,"is_disabled":false,"rental_uris":{"android":"levelo://app?vid=699594a6-5e86-4084-9c66-74dc431a8fb3","ios":"levelo://app?vid=699594a6-5e86-4084-9c66-74dc431a8fb3"},"vehicle_type_id":"4","last_reported":1740168597,"current_range_meters":14800,"station_id":"ce4bh012rcd13ifvqcv0","pricing_plan_id":"cebpf4jnsgd1na2vs0mg"},{"bike_id":"69f6c7fb-e991-4330-95b2-a58173874fa5","system_id":"levelo_inurba_marseille","lat":43.27989,"lon":5.41652,"is_reserved":false,"is_disabled":false,"rental_uris":{"android":"levelo://app?vid=69f6c7fb-e991-4330-95b2-a58173874fa5","ios":"levelo://app?vid=69f6c7fb-e991-4330-95b2-a58173874fa5"},"vehicle_type_id":"4","last_reported":1740168597,"current_range_meters":14800,"station_id":"ce4bho12rcd13ifvqh1g","pricing_plan_id":"cebpf4jnsgd1na2vs0mg"},{"bike_id":"5a3dfd2e-78bd-443f-8d07-af2bc7c82048","system_id":"levelo_inurba_marseille","lat":43.28702,"lon":5.37382,"is_reserved":false,"is_disabled":false,"rental_uris":{"android":"levelo://app?vid=5a3dfd2e-78bd-443f-8d07-af2bc7c82048","ios":"levelo://app?vid=5a3dfd2e-78bd-443f-8d07-af2bc7c82048"},"vehicle_type_id":"4","last_reported":1740168597,"current_range_meters":14800,"station_id":"ce4bh3p2rcd13ifvqdq0","pricing_plan_id":"cebpf4jnsgd1na2vs0mg"},{"bike_id":"38ee46bc-e4a0-4a67-a6e6-544f83e31943","system_id":"levelo_inurba_marseille","lat":43.27949,"lon":5.41046,"is_reserved":false,"is_disabled":false,"rental_uris":{"android":"levelo://app?vid=38ee46bc-e4a0-4a67-a6e6-544f83e31943","ios":"levelo://app?vid=38ee46bc-e4a0-4a67-a6e6-544f83e31943"},"vehicle_type_id":"4","last_reported":1740168597,"current_range_meters":14800,"station_id":"ce4bhnp2rcd13ifvqh0g","pricing_plan_id":"cebpf4jnsgd1na2vs0mg"},{"bike_id":"ad675d28-1269-4fc9-809d-07eb510922ee","system_id":"levelo_inurba_marseille","lat":43.29536,"lon":5.38545,"is_reserved":false,"is_disabled":false,"rental_uris":{"android":"levelo://app?vid=ad675d28-1269-4fc9-809d-07eb510922ee","ios":"levelo://app?vid=ad675d28-1269-4fc9-809d-07eb510922ee"},"vehicle_type_id":"4","last_reported":1740168597,"current_range_meters":15200,"station_id":"ce4bgih2rcd13ifvqba0","pricing_plan_id":"cebpf4jnsgd1na2vs0mg"},{"bike_id":"e1f8f446-2e59-4ab0-9e4f-c14d8fa20d26","system_id":"levelo_inurba_marseille","lat":43.26568,"lon":5.39001,"is_reserved":false,"is_disabled":false,"rental_uris":{"android":"levelo://app?vid=e1f8f446-2e59-4ab0-9e4f-c14d8fa20d26","ios":"levelo://app?vid=e1f8f446-2e59-4ab0-9e4f-c14d8fa20d26"},"vehicle_type_id":"4","last_reported":1740168597,"current_range_meters":15200,"station_id":"ce4bhe12rcd13ifvqf30","pricing_plan_id":"cebpf4jnsgd1na2vs0mg"},{"bike_id":"6b4fcdbb-2403-4441-965e-35208bfd825c","system_id":"levelo_inurba_marseille","lat":43.29419,"lon":5.38621,"is_reserved":false,"is_disabled":false,"rental_uris":{"android":"levelo://app?vid=6b4fcdbb-2403-4441-965e-35208bfd825c","ios":"levelo://app?vid=6b4fcdbb-2403-4441-965e-35208bfd825c"},"vehicle_type_id":"4","last_reported":1740168597,"current_range_meters":15200,"station_id":"ce4bh2h2rcd13ifvqdh0","pricing_plan_id":"cebpf4jnsgd1na2vs0mg"},{"bike_id":"fe28d101-9308-4dd1-a12d-1ed12ca54da1","system_id":"levelo_inurba_marseille","lat":43.2953,"lon":5.39033,"is_reserved":false,"is_disabled":false,"rental_uris":{"android":"levelo://app?vid=fe28d101-9308-4dd1-a12d-1ed12ca54da1","ios":"levelo://app?vid=fe28d101-9308-4dd1-a12d-1ed12ca54da1"},"vehicle_type_id":"4","last_reported":1740168597,"current_range_meters":16000,"station_id":"ce4bh3p2rcd13ifvqdp0","pricing_plan_id":"cebpf4jnsgd1na2vs0mg"},{"bike_id":"2d3cef83-fd1d-4e81-80ba-36de4a9061f2","system_id":"levelo_inurba_marseille","lat":43.29528,"lon":5.38542,"is_reserved":false,"is_disabled":false,"rental_uris":{"android":"levelo://app?vid=2d3cef83-fd1d-4e81-80ba-36de4a9061f2","ios":"levelo://app?vid=2d3cef83-fd1d-4e81-80ba-36de4a9061f2"},"vehicle_type_id":"4","last_reported":1740168597,"current_range_meters":16000,"station_id":"ce4bgih2rcd13ifvqba0","pricing_plan_id":"cebpf4jnsgd1na2vs0mg"},{"bike_id":"06ccdfa6-362b-43ac-9056-66fe9938d845","system_id":"levelo_inurba_marseille","lat":43.27621,"lon":5.36104,"is_reserved":false,"is_disabled":false,"rental_uris":{"android":"levelo://app?vid=06ccdfa6-362b-43ac-9056-66fe9938d845","ios":"levelo://app?vid=06ccdfa6-362b-43ac-9056-66fe9938d845"},"vehicle_type_id":"4","last_reported":1740168597,"current_range_meters":16000,"station_id":"ce4bgj92rcd13ifvqbe0","pricing_plan_id":"cebpf4jnsgd1na2vs0mg"},{"bike_id":"035da111-010a-4a2d-ab5f-13d5a093c9e6","system_id":"levelo_inurba_marseille","lat":43.29533,"lon":5.38542,"is_reserved":false,"is_disabled":false,"rental_uris":{"android":"levelo://app?vid=035da111-010a-4a2d-ab5f-13d5a093c9e6","ios":"levelo://app?vid=035da111-010a-4a2d-ab5f-13d5a093c9e6"},"vehicle_type_id":"4","last_reported":1740168597,"current_range_meters":16000,"station_id":"ce4bgih2rcd13ifvqba0","pricing_plan_id":"cebpf4jnsgd1na2vs0mg"},{"bike_id":"ccd4bbeb-d7a9-4764-9317-1a91869468dd","system_id":"levelo_inurba_marseille","lat":43.29252,"lon":5.38471,"is_reserved":false,"is_disabled":false,"rental_uris":{"android":"levelo://app?vid=ccd4bbeb-d7a9-4764-9317-1a91869468dd","ios":"levelo://app?vid=ccd4bbeb-d7a9-4764-9317-1a91869468dd"},"vehicle_type_id":"4","last_reported":1740168597,"current_range_meters":16000,"station_id":"ce4bh692rcd13ifvqea0","pricing_plan_id":"cebpf4jnsgd1na2vs0mg"},{"bike_id":"202bca41-2a93-41cc-b36a-503a76150837","system_id":"levelo_inurba_marseille","lat":43.29602,"lon":5.38102,"is_reserved":false,"is_disabled":false,"rental_uris":{"android":"levelo://app?vid=202bca41-2a93-41cc-b36a-503a76150837","ios":"levelo://app?vid=202bca41-2a93-41cc-b36a-503a76150837"},"vehicle_type_id":"4","last_reported":1740168597,"current_range_meters":16400,"station_id":"ce4bgl12rcd13ifvqbo0","pricing_plan_id":"cebpf4jnsgd1na2vs0mg"},{"bike_id":"1951b280-e8ac-4fa5-a3ef-806580107c2a","system_id":"levelo_inurba_marseille","lat":43.28141,"lon":5.42673,"is_reserved":false,"is_disabled":false,"rental_uris":{"android":"levelo://app?vid=1951b280-e8ac-4fa5-a3ef-806580107c2a","ios":"levelo://app?vid=1951b280-e8ac-4fa5-a3ef-806580107c2a"},"vehicle_type_id":"4","last_reported":1740168597,"current_range_meters":16400,"station_id":"ce4bhnh2rcd13ifvqgug","pricing_plan_id":"cebpf4jnsgd1na2vs0mg"},{"bike_id":"22e61c3e-becc-4fed-b153-4be95fb2bd0f","system_id":"levelo_inurba_marseille","lat":43.2842,"lon":5.34969,"is_reserved":false,"is_disabled":false,"rental_uris":{"android":"levelo://app?vid=22e61c3e-becc-4fed-b153-4be95fb2bd0f","ios":"levelo://app?vid=22e61c3e-becc-4fed-b153-4be95fb2bd0f"},"vehicle_type_id":"4","last_reported":1740168597,"current_range_meters":16400,"station_id":"ce4bhbh2rcd13ifvqepg","pricing_plan_id":"cebpf4jnsgd1na2vs0mg"},{"bike_id":"0b35ef10-1d1d-4e8a-949e-c3122c5e3874","system_id":"levelo_inurba_marseille","lat":43.23957,"lon":5.36627,"is_reserved":false,"is_disabled":false,"rental_uris":{"android":"levelo://app?vid=0b35ef10-1d1d-4e8a-949e-c3122c5e3874","ios":"levelo://app?vid=0b35ef10-1d1d-4e8a-949e-c3122c5e3874"},"vehicle_type_id":"4","last_reported":1740168597,"current_range_meters":16400,"station_id":"ce4bhi12rcd13ifvqfp0","pricing_plan_id":"cebpf4jnsgd1na2vs0mg"},{"bike_id":"0bdabe92-c305-4105-81fa-e1d30bbde750","system_id":"levelo_inurba_marseille","lat":43.325294,"lon":5.414309,"is_reserved":false,"is_disabled":false,"rental_uris":{"android":"levelo://app?vid=0bdabe92-c305-4105-81fa-e1d30bbde750","ios":"levelo://app?vid=0bdabe92-c305-4105-81fa-e1d30bbde750"},"vehicle_type_id":"4","last_reported":1740168597,"current_range_meters":16400,"station_id":"ce4bhq12rcd13ifvqhhg","pricing_plan_id":"cebpf4jnsgd1na2vs0mg"},{"bike_id":"d77ea98d-3aac-4602-a4a3-955cbd6114a3","system_id":"levelo_inurba_marseille","lat":43.29422,"lon":5.38626,"is_reserved":false,"is_disabled":false,"rental_uris":{"android":"levelo://app?vid=d77ea98d-3aac-4602-a4a3-955cbd6114a3","ios":"levelo://app?vid=d77ea98d-3aac-4602-a4a3-955cbd6114a3"},"vehicle_type_id":"4","last_reported":1740168597,"current_range_meters":16400,"station_id":"ce4bh2h2rcd13ifvqdh0","pricing_plan_id":"cebpf4jnsgd1na2vs0mg"},{"bike_id":"32f087f3-f7d2-4c83-9204-b0ed66999b0f","system_id":"levelo_inurba_marseille","lat":43.27978,"lon":5.38745,"is_reserved":false,"is_disabled":false,"rental_uris":{"android":"levelo://app?vid=32f087f3-f7d2-4c83-9204-b0ed66999b0f","ios":"levelo://app?vid=32f087f3-f7d2-4c83-9204-b0ed66999b0f"},"vehicle_type_id":"4","last_reported":1740168597,"current_range_meters":16400,"station_id":"ce4bhg12rcd13ifvqf80","pricing_plan_id":"cebpf4jnsgd1na2vs0mg"},{"bike_id":"19a72748-0302-41c8-bac8-dfd22fdaab73","system_id":"levelo_inurba_marseille","lat":43.29809,"lon":5.38095,"is_reserved":false,"is_disabled":false,"rental_uris":{"android":"levelo://app?vid=19a72748-0302-41c8-bac8-dfd22fdaab73","ios":"levelo://app?vid=19a72748-0302-41c8-bac8-dfd22fdaab73"},"vehicle_type_id":"4","last_reported":1740168597,"current_range_meters":16400,"station_id":"ce4bgip2rcd13ifvqbb0","pricing_plan_id":"cebpf4jnsgd1na2vs0mg"},{"bike_id":"2f365603-98e9-4ca7-9acd-f34a233627a9","system_id":"levelo_inurba_marseille","lat":43.29798,"lon":5.38101,"is_reserved":false,"is_disabled":false,"rental_uris":{"android":"levelo://app?vid=2f365603-98e9-4ca7-9acd-f34a233627a9","ios":"levelo://app?vid=2f365603-98e9-4ca7-9acd-f34a233627a9"},"vehicle_type_id":"4","last_reported":1740168597,"current_range_meters":16400,"station_id":"ce4bgip2rcd13ifvqbb0","pricing_plan_id":"cebpf4jnsgd1na2vs0mg"},{"bike_id":"37043282-0a1e-4ddc-816a-9da08dba219b","system_id":"levelo_inurba_marseille","lat":43.27981,"lon":5.40028,"is_reserved":false,"is_disabled":false,"rental_uris":{"android":"levelo://app?vid=37043282-0a1e-4ddc-816a-9da08dba219b","ios":"levelo://app?vid=37043282-0a1e-4ddc-816a-9da08dba219b"},"vehicle_type_id":"4","last_reported":1740168597,"current_range_meters":16800,"station_id":"ce4bho92rcd13ifvqh4g","pricing_plan_id":"cebpf4jnsgd1na2vs0mg"},{"bike_id":"6d55743c-7b68-4f36-8dc0-5a6ceb42ec5a","system_id":"levelo_inurba_marseille","lat":43.29417,"lon":5.38624,"is_reserved":false,"is_disabled":false,"rental_uris":{"android":"levelo://app?vid=6d55743c-7b68-4f36-8dc0-5a6ceb42ec5a","ios":"levelo://app?vid=6d55743c-7b68-4f36-8dc0-5a6ceb42ec5a"},"vehicle_type_id":"4","last_reported":1740168597,"current_range_meters":16800,"station_id":"ce4bh2h2rcd13ifvqdh0","pricing_plan_id":"cebpf4jnsgd1na2vs0mg"},{"bike_id":"3d94a901-bcce-4152-95cd-cc20a752f962","system_id":"levelo_inurba_marseille","lat":43.31173,"lon":5.38717,"is_reserved":false,"is_disabled":false,"rental_uris":{"android":"levelo://app?vid=3d94a901-bcce-4152-95cd-cc20a752f962","ios":"levelo://app?vid=3d94a901-bcce-4152-95cd-cc20a752f962"},"vehicle_type_id":"4","last_reported":1740168597,"current_range_meters":16800,"station_id":"ce4bgv12rcd13ifvqcp0","pricing_plan_id":"cebpf4jnsgd1na2vs0mg"},{"bike_id":"2438116c-0eac-4745-af80-c56857c3119c","system_id":"levelo_inurba_marseille","lat":43.24787,"lon":5.37471,"is_reserved":false,"is_disabled":false,"rental_uris":{"android":"levelo://app?vid=2438116c-0eac-4745-af80-c56857c3119c","ios":"levelo://app?vid=2438116c-0eac-4745-af80-c56857c3119c"},"vehicle_type_id":"4","last_reported":1740168597,"current_range_meters":16800,"station_id":"ce4bhgh2rcd13ifvqfb0","pricing_plan_id":"cebpf4jnsgd1na2vs0mg"},{"bike_id":"06b5b92e-20c2-4581-8ccf-06307578ea44","system_id":"levelo_inurba_marseille","lat":43.27178,"lon":5.40986,"is_reserved":false,"is_disabled":false,"rental_uris":{"android":"levelo://app?vid=06b5b92e-20c2-4581-8ccf-06307578ea44","ios":"levelo://app?vid=06b5b92e-20c2-4581-8ccf-06307578ea44"},"vehicle_type_id":"4","last_reported":1740168597,"current_range_meters":16800,"station_id":"ce4bhl12rcd13ifvqgf0","pricing_plan_id":"cebpf4jnsgd1na2vs0mg"},{"bike_id":"6945e92c-d214-4351-8199-1abf291add29","system_id":"levelo_inurba_marseille","lat":43.28258,"lon":5.35076,"is_reserved":false,"is_disabled":false,"rental_uris":{"android":"levelo://app?vid=6945e92c-d214-4351-8199-1abf291add29","ios":"levelo://app?vid=6945e92c-d214-4351-8199-1abf291add29"},"vehicle_type_id":"4","last_reported":1740168597,"current_range_meters":16800,"station_id":"ce4bhbp2rcd13ifvqerg","pricing_plan_id":"cebpf4jnsgd1na2vs0mg"},{"bike_id":"088e53e6-014f-48a3-99dd-584104b56def","system_id":"levelo_inurba_marseille","lat":43.29418,"lon":5.38616,"is_reserved":false,"is_disabled":false,"rental_uris":{"android":"levelo://app?vid=088e53e6-014f-48a3-99dd-584104b56def","ios":"levelo://app?vid=088e53e6-014f-48a3-99dd-584104b56def"},"vehicle_type_id":"4","last_reported":1740168597,"current_range_meters":16800,"station_id":"ce4bh2h2rcd13ifvqdh0","pricing_plan_id":"cebpf4jnsgd1na2vs0mg"},{"bike_id":"f6187fe6-eea8-4b9f-b21e-fe1f90f724e0","system_id":"levelo_inurba_marseille","lat":43.295256,"lon":5.390325,"is_reserved":false,"is_disabled":false,"rental_uris":{"android":"levelo://app?vid=f6187fe6-eea8-4b9f-b21e-fe1f90f724e0","ios":"levelo://app?vid=f6187fe6-eea8-4b9f-b21e-fe1f90f724e0"},"vehicle_type_id":"4","last_reported":1740168597,"current_range_meters":17200,"station_id":"ce4bh492rcd13ifvqdug","pricing_plan_id":"cebpf4jnsgd1na2vs0mg"},{"bike_id":"1b0d6542-f74d-4dd5-b78b-1cd1115ff80b","system_id":"levelo_inurba_marseille","lat":43.30601,"lon":5.37416,"is_reserved":false,"is_disabled":false,"rental_uris":{"android":"levelo://app?vid=1b0d6542-f74d-4dd5-b78b-1cd1115ff80b","ios":"levelo://app?vid=1b0d6542-f74d-4dd5-b78b-1cd1115ff80b"},"vehicle_type_id":"4","last_reported":1740168597,"current_range_meters":17200,"station_id":"","pricing_plan_id":"cebpf4jnsgd1na2vs0mg"},{"bike_id":"519c0d90-c598-4074-9c80-d5e1565ff705","system_id":"levelo_inurba_marseille","lat":43.23064,"lon":5.35483,"is_reserved":false,"is_disabled":false,"rental_uris":{"android":"levelo://app?vid=519c0d90-c598-4074-9c80-d5e1565ff705","ios":"levelo://app?vid=519c0d90-c598-4074-9c80-d5e1565ff705"},"vehicle_type_id":"4","last_reported":1740168597,"current_range_meters":17200,"station_id":"cpo3342slgdg3j2ifvpg","pricing_plan_id":"cebpf4jnsgd1na2vs0mg"},{"bike_id":"1deaa002-5243-48d8-8779-82891264a102","system_id":"levelo_inurba_marseille","lat":43.24821,"lon":5.3748,"is_reserved":false,"is_disabled":false,"rental_uris":{"android":"levelo://app?vid=1deaa002-5243-48d8-8779-82891264a102","ios":"levelo://app?vid=1deaa002-5243-48d8-8779-82891264a102"},"vehicle_type_id":"4","last_reported":1740168597,"current_range_meters":17200,"station_id":"ce4bhgh2rcd13ifvqfb0","pricing_plan_id":"cebpf4jnsgd1na2vs0mg"},{"bike_id":"62b11dbd-9d62-4b23-8886-677f6ae1da49","system_id":"levelo_inurba_marseille","lat":43.28471,"lon":5.3842,"is_reserved":false,"is_disabled":false,"rental_uris":{"android":"levelo://app?vid=62b11dbd-9d62-4b23-8886-677f6ae1da49","ios":"levelo://app?vid=62b11dbd-9d62-4b23-8886-677f6ae1da49"},"vehicle_type_id":"4","last_reported":1740168597,"current_range_meters":17200,"station_id":"ce4bh512rcd13ifvqe3g","pricing_plan_id":"cebpf4jnsgd1na2vs0mg"},{"bike_id":"fb40b058-b8da-4d8d-8620-f5820c02f729","system_id":"levelo_inurba_marseille","lat":43.29417,"lon":5.38612,"is_reserved":false,"is_disabled":false,"rental_uris":{"android":"levelo://app?vid=fb40b058-b8da-4d8d-8620-f5820c02f729","ios":"levelo://app?vid=fb40b058-b8da-4d8d-8620-f5820c02f729"},"vehicle_type_id":"4","last_reported":1740168597,"current_range_meters":17200,"station_id":"ce4bh2h2rcd13ifvqdh0","pricing_plan_id":"cebpf4jnsgd1na2vs0mg"},{"bike_id":"699e133f-f341-47bf-a6b2-f5d34b334f20","system_id":"levelo_inurba_marseille","lat":43.3013,"lon":5.38782,"is_reserved":false,"is_disabled":false,"rental_uris":{"android":"levelo://app?vid=699e133f-f341-47bf-a6b2-f5d34b334f20","ios":"levelo://app?vid=699e133f-f341-47bf-a6b2-f5d34b334f20"},"vehicle_type_id":"4","last_reported":1740168597,"current_range_meters":17200,"station_id":"ce4bghh2rcd13ifvqb60","pricing_plan_id":"cebpf4jnsgd1na2vs0mg"},{"bike_id":"ecb792ba-e590-4d62-97cc-1e9b429064df","system_id":"levelo_inurba_marseille","lat":43.25002,"lon":5.38908,"is_reserved":false,"is_disabled":false,"rental_uris":{"android":"levelo://app?vid=ecb792ba-e590-4d62-97cc-1e9b429064df","ios":"levelo://app?vid=ecb792ba-e590-4d62-97cc-1e9b429064df"},"vehicle_type_id":"4","last_reported":1740168597,"current_range_meters":17600,"station_id":"ce4bhgp2rcd13ifvqfd0","pricing_plan_id":"cebpf4jnsgd1na2vs0mg"},{"bike_id":"d5566d2e-78e8-488f-b3e7-c9c338cd491f","system_id":"levelo_inurba_marseille","lat":43.27489,"lon":5.42464,"is_reserved":false,"is_disabled":false,"rental_uris":{"android":"levelo://app?vid=d5566d2e-78e8-488f-b3e7-c9c338cd491f","ios":"levelo://app?vid=d5566d2e-78e8-488f-b3e7-c9c338cd491f"},"vehicle_type_id":"4","last_reported":1740168597,"current_range_meters":17600,"station_id":"ce4bhn92rcd13ifvqgrg","pricing_plan_id":"cebpf4jnsgd1na2vs0mg"},{"bike_id":"b6ec5beb-f4a4-46cf-babb-7471e4175390","system_id":"levelo_inurba_marseille","lat":43.2885,"lon":5.39314,"is_reserved":false,"is_disabled":false,"rental_uris":{"android":"levelo://app?vid=b6ec5beb-f4a4-46cf-babb-7471e4175390","ios":"levelo://app?vid=b6ec5beb-f4a4-46cf-babb-7471e4175390"},"vehicle_type_id":"4","last_reported":1740168597,"current_range_meters":17600,"station_id":"ce4bh2p2rcd13ifvqdi0","pricing_plan_id":"cebpf4jnsgd1na2vs0mg"},{"bike_id":"5b992fdd-bf60-412c-9094-5cb2594f4df5","system_id":"levelo_inurba_marseille","lat":43.29187,"lon":5.39349,"is_reserved":false,"is_disabled":false,"rental_uris":{"android":"levelo://app?vid=5b992fdd-bf60-412c-9094-5cb2594f4df5","ios":"levelo://app?vid=5b992fdd-bf60-412c-9094-5cb2594f4df5"},"vehicle_type_id":"4","last_reported":1740168597,"current_range_meters":17600,"station_id":"ce4bh192rcd13ifvqdd0","pricing_plan_id":"cebpf4jnsgd1na2vs0mg"},{"bike_id":"eaa9e310-fd6d-4926-b9af-58b62f503355","system_id":"levelo_inurba_marseille","lat":43.26803,"lon":5.40268,"is_reserved":false,"is_disabled":false,"rental_uris":{"android":"levelo://app?vid=eaa9e310-fd6d-4926-b9af-58b62f503355","ios":"levelo://app?vid=eaa9e310-fd6d-4926-b9af-58b62f503355"},"vehicle_type_id":"4","last_reported":1740168597,"current_range_meters":17600,"station_id":"ce501612rcd8frsf0b60","pricing_plan_id":"cebpf4jnsgd1na2vs0mg"},{"bike_id":"a65b3ed5-6db5-4095-9034-9f6615f65a08","system_id":"levelo_inurba_marseille","lat":43.29601,"lon":5.38092,"is_reserved":false,"is_disabled":false,"rental_uris":{"android":"levelo://app?vid=a65b3ed5-6db5-4095-9034-9f6615f65a08","ios":"levelo://app?vid=a65b3ed5-6db5-4095-9034-9f6615f65a08"},"vehicle_type_id":"4","last_reported":1740168597,"current_range_meters":17600,"station_id":"ce4bgl12rcd13ifvqbo0","pricing_plan_id":"cebpf4jnsgd1na2vs0mg"},{"bike_id":"005e5eb8-39b1-40fe-bf10-36f6bd3cba88","system_id":"levelo_inurba_marseille","lat":43.28392,"lon":5.38653,"is_reserved":false,"is_disabled":false,"rental_uris":{"android":"levelo://app?vid=005e5eb8-39b1-40fe-bf10-36f6bd3cba88","ios":"levelo://app?vid=005e5eb8-39b1-40fe-bf10-36f6bd3cba88"},"vehicle_type_id":"4","last_reported":1740168597,"current_range_meters":17600,"station_id":"ce4bh492rcd13ifvqdvg","pricing_plan_id":"cebpf4jnsgd1na2vs0mg"},{"bike_id":"273c6419-dee4-4627-9d53-0902edadbc9c","system_id":"levelo_inurba_marseille","lat":43.2799,"lon":5.39585,"is_reserved":false,"is_disabled":false,"rental_uris":{"android":"levelo://app?vid=273c6419-dee4-4627-9d53-0902edadbc9c","ios":"levelo://app?vid=273c6419-dee4-4627-9d53-0902edadbc9c"},"vehicle_type_id":"4","last_reported":1740168597,"current_range_meters":17600,"station_id":"","pricing_plan_id":"cebpf4jnsgd1na2vs0mg"},{"bike_id":"dab960d9-1ede-46dd-ade3-a5360c9021cf","system_id":"levelo_inurba_marseille","lat":43.23186,"lon":5.35567,"is_reserved":false,"is_disabled":false,"rental_uris":{"android":"levelo://app?vid=dab960d9-1ede-46dd-ade3-a5360c9021cf","ios":"levelo://app?vid=dab960d9-1ede-46dd-ade3-a5360c9021cf"},"vehicle_type_id":"4","last_reported":1740168597,"current_range_meters":17600,"station_id":"ce4bhu92rcd13ifvqi70","pricing_plan_id":"cebpf4jnsgd1na2vs0mg"},{"bike_id":"922df92c-fd39-40af-8aa9-b71854f73f69","system_id":"levelo_inurba_marseille","lat":43.33725,"lon":5.39185,"is_reserved":false,"is_disabled":false,"rental_uris":{"android":"levelo://app?vid=922df92c-fd39-40af-8aa9-b71854f73f69","ios":"levelo://app?vid=922df92c-fd39-40af-8aa9-b71854f73f69"},"vehicle_type_id":"4","last_reported":1740168597,"current_range_meters":17600,"station_id":"ce4bhr92rcd13ifvqhsg","pricing_plan_id":"cebpf4jnsgd1na2vs0mg"},{"bike_id":"b148a809-0ec9-410c-89c1-b17610a0796c","system_id":"levelo_inurba_marseille","lat":43.26489,"lon":5.39552,"is_reserved":false,"is_disabled":false,"rental_uris":{"android":"levelo://app?vid=b148a809-0ec9-410c-89c1-b17610a0796c","ios":"levelo://app?vid=b148a809-0ec9-410c-89c1-b17610a0796c"},"vehicle_type_id":"4","last_reported":1740168597,"current_range_meters":17600,"station_id":"ce4bhi12rcd13ifvqfq0","pricing_plan_id":"cebpf4jnsgd1na2vs0mg"},{"bike_id":"1b5b87c8-f96f-4740-8b60-bcc62c6e3f59","system_id":"levelo_inurba_marseille","lat":43.31401,"lon":5.38435,"is_reserved":false,"is_disabled":false,"rental_uris":{"android":"levelo://app?vid=1b5b87c8-f96f-4740-8b60-bcc62c6e3f59","ios":"levelo://app?vid=1b5b87c8-f96f-4740-8b60-bcc62c6e3f59"},"vehicle_type_id":"4","last_reported":1740168597,"current_range_meters":17600,"station_id":"","pricing_plan_id":"cebpf4jnsgd1na2vs0mg"},{"bike_id":"36822bbb-b756-4fd8-a073-1812d049332f","system_id":"levelo_inurba_marseille","lat":43.28723,"lon":5.37929,"is_reserved":false,"is_disabled":false,"rental_uris":{"android":"levelo://app?vid=36822bbb-b756-4fd8-a073-1812d049332f","ios":"levelo://app?vid=36822bbb-b756-4fd8-a073-1812d049332f"},"vehicle_type_id":"4","last_reported":1740168597,"current_range_meters":17600,"station_id":"ce4bh9p2rcd13ifvqec0","pricing_plan_id":"cebpf4jnsgd1na2vs0mg"},{"bike_id":"eb354cf3-daf0-4f07-9e6f-1eb2682396af","system_id":"levelo_inurba_marseille","lat":43.27988,"lon":5.40016,"is_reserved":false,"is_disabled":false,"rental_uris":{"android":"levelo://app?vid=eb354cf3-daf0-4f07-9e6f-1eb2682396af","ios":"levelo://app?vid=eb354cf3-daf0-4f07-9e6f-1eb2682396af"},"vehicle_type_id":"4","last_reported":1740168597,"current_range_meters":17600,"station_id":"ce4bho92rcd13ifvqh4g","pricing_plan_id":"cebpf4jnsgd1na2vs0mg"},{"bike_id":"d11be0c5-7c44-446b-87dc-96d0fa4aded0","system_id":"levelo_inurba_marseille","lat":43.2799,"lon":5.4003,"is_reserved":false,"is_disabled":false,"rental_uris":{"android":"levelo://app?vid=d11be0c5-7c44-446b-87dc-96d0fa4aded0","ios":"levelo://app?vid=d11be0c5-7c44-446b-87dc-96d0fa4aded0"},"vehicle_type_id":"4","last_reported":1740168597,"current_range_meters":17600,"station_id":"ce4bho92rcd13ifvqh4g","pricing_plan_id":"cebpf4jnsgd1na2vs0mg"},{"bike_id":"ce5f586c-8096-48a5-8143-bce662e5979a","system_id":"levelo_inurba_marseille","lat":43.29208,"lon":5.38496,"is_reserved":false,"is_disabled":false,"rental_uris":{"android":"levelo://app?vid=ce5f586c-8096-48a5-8143-bce662e5979a","ios":"levelo://app?vid=ce5f586c-8096-48a5-8143-bce662e5979a"},"vehicle_type_id":"4","last_reported":1740168597,"current_range_meters":17600,"station_id":"","pricing_plan_id":"cebpf4jnsgd1na2vs0mg"},{"bike_id":"3fb04020-de1f-4ef5-95c9-148dfd37708a","system_id":"levelo_inurba_marseille","lat":43.31259,"lon":5.4017,"is_reserved":false,"is_disabled":false,"rental_uris":{"android":"levelo://app?vid=3fb04020-de1f-4ef5-95c9-148dfd37708a","ios":"levelo://app?vid=3fb04020-de1f-4ef5-95c9-148dfd37708a"},"vehicle_type_id":"4","last_reported":1740168597,"current_range_meters":17200,"station_id":"ce4bh092rcd13ifvqd30","pricing_plan_id":"cebpf4jnsgd1na2vs0mg"},{"bike_id":"1f7411cd-9379-4bab-a8bc-411b928d8602","system_id":"levelo_inurba_marseille","lat":43.27483,"lon":5.42471,"is_reserved":false,"is_disabled":false,"rental_uris":{"android":"levelo://app?vid=1f7411cd-9379-4bab-a8bc-411b928d8602","ios":"levelo://app?vid=1f7411cd-9379-4bab-a8bc-411b928d8602"},"vehicle_type_id":"4","last_reported":1740168597,"current_range_meters":18000,"station_id":"ce4bhn92rcd13ifvqgrg","pricing_plan_id":"cebpf4jnsgd1na2vs0mg"},{"bike_id":"467a0ac7-872c-4bb6-8ee3-3c6f458a51d9","system_id":"levelo_inurba_marseille","lat":43.27872,"lon":5.41257,"is_reserved":false,"is_disabled":false,"rental_uris":{"android":"levelo://app?vid=467a0ac7-872c-4bb6-8ee3-3c6f458a51d9","ios":"levelo://app?vid=467a0ac7-872c-4bb6-8ee3-3c6f458a51d9"},"vehicle_type_id":"4","last_reported":1740168597,"current_range_meters":18000,"station_id":"","pricing_plan_id":"cebpf4jnsgd1na2vs0mg"},{"bike_id":"6897935d-90c4-4aaa-81bd-a334d1112cb3","system_id":"levelo_inurba_marseille","lat":43.24665,"lon":5.38176,"is_reserved":false,"is_disabled":false,"rental_uris":{"android":"levelo://app?vid=6897935d-90c4-4aaa-81bd-a334d1112cb3","ios":"levelo://app?vid=6897935d-90c4-4aaa-81bd-a334d1112cb3"},"vehicle_type_id":"4","last_reported":1740168597,"current_range_meters":18000,"station_id":"ce4bhih2rcd13ifvqfr0","pricing_plan_id":"cebpf4jnsgd1na2vs0mg"},{"bike_id":"c2a249cc-1213-47e6-83c0-90a96fbf7048","system_id":"levelo_inurba_marseille","lat":43.27832,"lon":5.40722,"is_reserved":false,"is_disabled":true,"rental_uris":{"android":"levelo://app?vid=c2a249cc-1213-47e6-83c0-90a96fbf7048","ios":"levelo://app?vid=c2a249cc-1213-47e6-83c0-90a96fbf7048"},"vehicle_type_id":"4","last_reported":1740168597,"current_range_meters":18000,"station_id":"ce4bhnh2rcd13ifvqgtg","pricing_plan_id":"cebpf4jnsgd1na2vs0mg"},{"bike_id":"af6517b5-8e86-4356-ae57-fbef39282085","system_id":"levelo_inurba_marseille","lat":43.31363,"lon":5.38502,"is_reserved":false,"is_disabled":false,"rental_uris":{"android":"levelo://app?vid=af6517b5-8e86-4356-ae57-fbef39282085","ios":"levelo://app?vid=af6517b5-8e86-4356-ae57-fbef39282085"},"vehicle_type_id":"4","last_reported":1740168597,"current_range_meters":18000,"station_id":"ce4bgt92rcd13ifvqcf0","pricing_plan_id":"cebpf4jnsgd1na2vs0mg"},{"bike_id":"725861b6-aaa7-4c06-b816-d197237ddf32","system_id":"levelo_inurba_marseille","lat":43.287043,"lon":5.379363,"is_reserved":false,"is_disabled":false,"rental_uris":{"android":"levelo://app?vid=725861b6-aaa7-4c06-b816-d197237ddf32","ios":"levelo://app?vid=725861b6-aaa7-4c06-b816-d197237ddf32"},"vehicle_type_id":"4","last_reported":1740168597,"current_range_meters":18000,"station_id":"ce4bh9p2rcd13ifvqec0","pricing_plan_id":"cebpf4jnsgd1na2vs0mg"},{"bike_id":"6a8b1bfa-a1fe-446a-b9c7-1745ca0074a2","system_id":"levelo_inurba_marseille","lat":43.29259,"lon":5.38428,"is_reserved":false,"is_disabled":false,"rental_uris":{"android":"levelo://app?vid=6a8b1bfa-a1fe-446a-b9c7-1745ca0074a2","ios":"levelo://app?vid=6a8b1bfa-a1fe-446a-b9c7-1745ca0074a2"},"vehicle_type_id":"4","last_reported":1740168597,"current_range_meters":18000,"station_id":"ce4bh692rcd13ifvqea0","pricing_plan_id":"cebpf4jnsgd1na2vs0mg"},{"bike_id":"8b52c24a-60e9-4f95-8f6d-a404db75239c","system_id":"levelo_inurba_marseille","lat":43.2738,"lon":5.36253,"is_reserved":false,"is_disabled":false,"rental_uris":{"android":"levelo://app?vid=8b52c24a-60e9-4f95-8f6d-a404db75239c","ios":"levelo://app?vid=8b52c24a-60e9-4f95-8f6d-a404db75239c"},"vehicle_type_id":"4","last_reported":1740168597,"current_range_meters":18000,"station_id":"ce4bhbh2rcd13ifvqeo0","pricing_plan_id":"cebpf4jnsgd1na2vs0mg"},{"bike_id":"6d270d87-f2a6-4963-a1fe-bd8fe2f00db4","system_id":"levelo_inurba_marseille","lat":43.2977,"lon":5.3709,"is_reserved":false,"is_disabled":false,"rental_uris":{"android":"levelo://app?vid=6d270d87-f2a6-4963-a1fe-bd8fe2f00db4","ios":"levelo://app?vid=6d270d87-f2a6-4963-a1fe-bd8fe2f00db4"},"vehicle_type_id":"4","last_reported":1740168597,"current_range_meters":18000,"station_id":"ce4bgop2rcd13ifvqc1g","pricing_plan_id":"cebpf4jnsgd1na2vs0mg"},{"bike_id":"a064b6c0-f0cd-4526-a12c-21a2fd0486aa","system_id":"levelo_inurba_marseille","lat":43.2954,"lon":5.38543,"is_reserved":false,"is_disabled":false,"rental_uris":{"android":"levelo://app?vid=a064b6c0-f0cd-4526-a12c-21a2fd0486aa","ios":"levelo://app?vid=a064b6c0-f0cd-4526-a12c-21a2fd0486aa"},"vehicle_type_id":"4","last_reported":1740168597,"current_range_meters":18000,"station_id":"ce4bgih2rcd13ifvqba0","pricing_plan_id":"cebpf4jnsgd1na2vs0mg"},{"bike_id":"96b9f7c0-cd3c-40d1-bc41-8a82bed04cc8","system_id":"levelo_inurba_marseille","lat":43.2927,"lon":5.36845,"is_reserved":false,"is_disabled":true,"rental_uris":{"android":"levelo://app?vid=96b9f7c0-cd3c-40d1-bc41-8a82bed04cc8","ios":"levelo://app?vid=96b9f7c0-cd3c-40d1-bc41-8a82bed04cc8"},"vehicle_type_id":"4","last_reported":1740168597,"current_range_meters":18000,"station_id":"ce4bhbp2rcd13ifvqesg","pricing_plan_id":"cebpf4jnsgd1na2vs0mg"},{"bike_id":"ff49b8bb-82c8-4782-bb98-ae74ae771eef","system_id":"levelo_inurba_marseille","lat":43.29596,"lon":5.38092,"is_reserved":false,"is_disabled":false,"rental_uris":{"android":"levelo://app?vid=ff49b8bb-82c8-4782-bb98-ae74ae771eef","ios":"levelo://app?vid=ff49b8bb-82c8-4782-bb98-ae74ae771eef"},"vehicle_type_id":"4","last_reported":1740168597,"current_range_meters":18000,"station_id":"ce4bgl12rcd13ifvqbo0","pricing_plan_id":"cebpf4jnsgd1na2vs0mg"},{"bike_id":"a9a1f911-b44c-4934-b9bf-76ded3aa2ced","system_id":"levelo_inurba_marseille","lat":43.28103,"lon":5.37826,"is_reserved":false,"is_disabled":false,"rental_uris":{"android":"levelo://app?vid=a9a1f911-b44c-4934-b9bf-76ded3aa2ced","ios":"levelo://app?vid=a9a1f911-b44c-4934-b9bf-76ded3aa2ced"},"vehicle_type_id":"4","last_reported":1740168597,"current_range_meters":18000,"station_id":"ce4bhoh2rcd13ifvqh5g","pricing_plan_id":"cebpf4jnsgd1na2vs0mg"},{"bike_id":"650348ee-9b72-44ce-aedd-b7ed3739c621","system_id":"levelo_inurba_marseille","lat":43.29515,"lon":5.39052,"is_reserved":false,"is_disabled":false,"rental_uris":{"android":"levelo://app?vid=650348ee-9b72-44ce-aedd-b7ed3739c621","ios":"levelo://app?vid=650348ee-9b72-44ce-aedd-b7ed3739c621"},"vehicle_type_id":"4","last_reported":1740168597,"current_range_meters":18000,"station_id":"ce4bh3p2rcd13ifvqdp0","pricing_plan_id":"cebpf4jnsgd1na2vs0mg"},{"bike_id":"324beb06-ad7d-4e0b-989a-7865fd9aec9b","system_id":"levelo_inurba_marseille","lat":43.33015,"lon":5.39036,"is_reserved":false,"is_disabled":false,"rental_uris":{"android":"levelo://app?vid=324beb06-ad7d-4e0b-989a-7865fd9aec9b","ios":"levelo://app?vid=324beb06-ad7d-4e0b-989a-7865fd9aec9b"},"vehicle_type_id":"4","last_reported":1740168597,"current_range_meters":18000,"station_id":"ce4bhr92rcd13ifvqhrg","pricing_plan_id":"cebpf4jnsgd1na2vs0mg"},{"bike_id":"398eb922-fb04-4a72-9fe3-c229955ac278","system_id":"levelo_inurba_marseille","lat":43.25578,"lon":5.38245,"is_reserved":false,"is_disabled":false,"rental_uris":{"android":"levelo://app?vid=398eb922-fb04-4a72-9fe3-c229955ac278","ios":"levelo://app?vid=398eb922-fb04-4a72-9fe3-c229955ac278"},"vehicle_type_id":"4","last_reported":1740168597,"current_range_meters":18000,"station_id":"ce4bhih2rcd13ifvqfs0","pricing_plan_id":"cebpf4jnsgd1na2vs0mg"},{"bike_id":"15221624-bfaa-49ba-a580-c66a7116bc16","system_id":"levelo_inurba_marseille","lat":43.317554,"lon":5.39017,"is_reserved":false,"is_disabled":false,"rental_uris":{"android":"levelo://app?vid=15221624-bfaa-49ba-a580-c66a7116bc16","ios":"levelo://app?vid=15221624-bfaa-49ba-a580-c66a7116bc16"},"vehicle_type_id":"4","last_reported":1740168597,"current_range_meters":18800,"station_id":"ce4bhqp2rcd13ifvqhng","pricing_plan_id":"cebpf4jnsgd1na2vs0mg"},{"bike_id":"f75b7c43-b1e9-419b-9e88-97af31d30220","system_id":"levelo_inurba_marseille","lat":43.23946,"lon":5.36676,"is_reserved":false,"is_disabled":false,"rental_uris":{"android":"levelo://app?vid=f75b7c43-b1e9-419b-9e88-97af31d30220","ios":"levelo://app?vid=f75b7c43-b1e9-419b-9e88-97af31d30220"},"vehicle_type_id":"4","last_reported":1740168597,"current_range_meters":18800,"station_id":"ce4bhi12rcd13ifvqfp0","pricing_plan_id":"cebpf4jnsgd1na2vs0mg"},{"bike_id":"8c20ab15-f04e-4e58-be71-0abf1d05d250","system_id":"levelo_inurba_marseille","lat":43.23948,"lon":5.36657,"is_reserved":false,"is_disabled":false,"rental_uris":{"android":"levelo://app?vid=8c20ab15-f04e-4e58-be71-0abf1d05d250","ios":"levelo://app?vid=8c20ab15-f04e-4e58-be71-0abf1d05d250"},"vehicle_type_id":"4","last_reported":1740168597,"current_range_meters":18800,"station_id":"ce4bhi12rcd13ifvqfp0","pricing_plan_id":"cebpf4jnsgd1na2vs0mg"},{"bike_id":"b6fd572c-83f0-4ec2-a4a8-936f62e444c3","system_id":"levelo_inurba_marseille","lat":43.29794,"lon":5.3809,"is_reserved":false,"is_disabled":false,"rental_uris":{"android":"levelo://app?vid=b6fd572c-83f0-4ec2-a4a8-936f62e444c3","ios":"levelo://app?vid=b6fd572c-83f0-4ec2-a4a8-936f62e444c3"},"vehicle_type_id":"4","last_reported":1740168597,"current_range_meters":18800,"station_id":"ce4bgip2rcd13ifvqbb0","pricing_plan_id":"cebpf4jnsgd1na2vs0mg"},{"bike_id":"2c3682c1-aab7-4959-9566-bee38b634de2","system_id":"levelo_inurba_marseille","lat":43.29419,"lon":5.38603,"is_reserved":false,"is_disabled":false,"rental_uris":{"android":"levelo://app?vid=2c3682c1-aab7-4959-9566-bee38b634de2","ios":"levelo://app?vid=2c3682c1-aab7-4959-9566-bee38b634de2"},"vehicle_type_id":"4","last_reported":1740168597,"current_range_meters":18800,"station_id":"ce4bh2h2rcd13ifvqdh0","pricing_plan_id":"cebpf4jnsgd1na2vs0mg"},{"bike_id":"38f9bc40-639e-4f64-87e9-15092cc7344e","system_id":"levelo_inurba_marseille","lat":43.34399,"lon":5.38168,"is_reserved":false,"is_disabled":false,"rental_uris":{"android":"levelo://app?vid=38f9bc40-639e-4f64-87e9-15092cc7344e","ios":"levelo://app?vid=38f9bc40-639e-4f64-87e9-15092cc7344e"},"vehicle_type_id":"4","last_reported":1740168597,"current_range_meters":18800,"station_id":"","pricing_plan_id":"cebpf4jnsgd1na2vs0mg"},{"bike_id":"ab46b189-6bae-4129-a7fd-10b3ccd5a48e","system_id":"levelo_inurba_marseille","lat":43.27202,"lon":5.40007,"is_reserved":false,"is_disabled":false,"rental_uris":{"android":"levelo://app?vid=ab46b189-6bae-4129-a7fd-10b3ccd5a48e","ios":"levelo://app?vid=ab46b189-6bae-4129-a7fd-10b3ccd5a48e"},"vehicle_type_id":"4","last_reported":1740168597,"current_range_meters":18800,"station_id":"","pricing_plan_id":"cebpf4jnsgd1na2vs0mg"},{"bike_id":"ea035bb0-5adc-4167-919d-4d737c625f54","system_id":"levelo_inurba_marseille","lat":43.29903,"lon":5.38138,"is_reserved":false,"is_disabled":false,"rental_uris":{"android":"levelo://app?vid=ea035bb0-5adc-4167-919d-4d737c625f54","ios":"levelo://app?vid=ea035bb0-5adc-4167-919d-4d737c625f54"},"vehicle_type_id":"4","last_reported":1740168597,"current_range_meters":18800,"station_id":"ce4bgj12rcd13ifvqbc0","pricing_plan_id":"cebpf4jnsgd1na2vs0mg"},{"bike_id":"1b243a8a-8cb1-4424-af2d-e396cb191805","system_id":"levelo_inurba_marseille","lat":43.29418,"lon":5.38625,"is_reserved":false,"is_disabled":false,"rental_uris":{"android":"levelo://app?vid=1b243a8a-8cb1-4424-af2d-e396cb191805","ios":"levelo://app?vid=1b243a8a-8cb1-4424-af2d-e396cb191805"},"vehicle_type_id":"4","last_reported":1740168597,"current_range_meters":18800,"station_id":"ce4bh2h2rcd13ifvqdh0","pricing_plan_id":"cebpf4jnsgd1na2vs0mg"},{"bike_id":"8e403f8a-b998-4fb1-bb90-54bf70e024a5","system_id":"levelo_inurba_marseille","lat":43.26938,"lon":5.38936,"is_reserved":false,"is_disabled":false,"rental_uris":{"android":"levelo://app?vid=8e403f8a-b998-4fb1-bb90-54bf70e024a5","ios":"levelo://app?vid=8e403f8a-b998-4fb1-bb90-54bf70e024a5"},"vehicle_type_id":"4","last_reported":1740168597,"current_range_meters":18800,"station_id":"ce4bhhh2rcd13ifvqfl0","pricing_plan_id":"cebpf4jnsgd1na2vs0mg"},{"bike_id":"f5298310-14cd-4aed-bc3f-841e7d37dcf5","system_id":"levelo_inurba_marseille","lat":43.32667,"lon":5.40962,"is_reserved":false,"is_disabled":true,"rental_uris":{"android":"levelo://app?vid=f5298310-14cd-4aed-bc3f-841e7d37dcf5","ios":"levelo://app?vid=f5298310-14cd-4aed-bc3f-841e7d37dcf5"},"vehicle_type_id":"4","last_reported":1740168597,"current_range_meters":18800,"station_id":"ce4bhpp2rcd13ifvqhgg","pricing_plan_id":"cebpf4jnsgd1na2vs0mg"},{"bike_id":"7c93a262-9794-4737-82f6-c7b214524d85","system_id":"levelo_inurba_marseille","lat":43.28444,"lon":5.39192,"is_reserved":false,"is_disabled":false,"rental_uris":{"android":"levelo://app?vid=7c93a262-9794-4737-82f6-c7b214524d85","ios":"levelo://app?vid=7c93a262-9794-4737-82f6-c7b214524d85"},"vehicle_type_id":"4","last_reported":1740168597,"current_range_meters":18800,"station_id":"ce4bhoh2rcd13ifvqh5g","pricing_plan_id":"cebpf4jnsgd1na2vs0mg"},{"bike_id":"f11a121c-f824-44fa-af51-847cf3d79d3b","system_id":"levelo_inurba_marseille","lat":43.29401,"lon":5.38684,"is_reserved":false,"is_disabled":false,"rental_uris":{"android":"levelo://app?vid=f11a121c-f824-44fa-af51-847cf3d79d3b","ios":"levelo://app?vid=f11a121c-f824-44fa-af51-847cf3d79d3b"},"vehicle_type_id":"4","last_reported":1740168597,"current_range_meters":19200,"station_id":"ce4bh2h2rcd13ifvqdh0","pricing_plan_id":"cebpf4jnsgd1na2vs0mg"},{"bike_id":"6171c7fc-2f00-4981-afb4-d8d6db9c37a7","system_id":"levelo_inurba_marseille","lat":43.30793,"lon":5.38157,"is_reserved":false,"is_disabled":true,"rental_uris":{"android":"levelo://app?vid=6171c7fc-2f00-4981-afb4-d8d6db9c37a7","ios":"levelo://app?vid=6171c7fc-2f00-4981-afb4-d8d6db9c37a7"},"vehicle_type_id":"4","last_reported":1740168597,"current_range_meters":19200,"station_id":"ce4bgt12rcd13ifvqce0","pricing_plan_id":"cebpf4jnsgd1na2vs0mg"},{"bike_id":"c1fa0ce9-76c5-4cc6-bf57-41113312274d","system_id":"levelo_inurba_marseille","lat":43.31122,"lon":5.37771,"is_reserved":false,"is_disabled":false,"rental_uris":{"android":"levelo://app?vid=c1fa0ce9-76c5-4cc6-bf57-41113312274d","ios":"levelo://app?vid=c1fa0ce9-76c5-4cc6-bf57-41113312274d"},"vehicle_type_id":"4","last_reported":1740168597,"current_range_meters":19200,"station_id":"ce4bgt92rcd13ifvqcg0","pricing_plan_id":"cebpf4jnsgd1na2vs0mg"},{"bike_id":"06e8e7b4-70b9-467a-9725-9e3af8767f95","system_id":"levelo_inurba_marseille","lat":43.28615,"lon":5.35104,"is_reserved":false,"is_disabled":false,"rental_uris":{"android":"levelo://app?vid=06e8e7b4-70b9-467a-9725-9e3af8767f95","ios":"levelo://app?vid=06e8e7b4-70b9-467a-9725-9e3af8767f95"},"vehicle_type_id":"4","last_reported":1740168597,"current_range_meters":19200,"station_id":"ce4bhch2rcd13ifvqeug","pricing_plan_id":"cebpf4jnsgd1na2vs0mg"},{"bike_id":"e3d9d7ab-fe61-451b-8f88-24a2dfea43f4","system_id":"levelo_inurba_marseille","lat":43.29418,"lon":5.38612,"is_reserved":false,"is_disabled":false,"rental_uris":{"android":"levelo://app?vid=e3d9d7ab-fe61-451b-8f88-24a2dfea43f4","ios":"levelo://app?vid=e3d9d7ab-fe61-451b-8f88-24a2dfea43f4"},"vehicle_type_id":"4","last_reported":1740168597,"current_range_meters":19600,"station_id":"ce4bh2h2rcd13ifvqdh0","pricing_plan_id":"cebpf4jnsgd1na2vs0mg"},{"bike_id":"78aa47e2-a7fa-44ca-94a7-c65c375b91d7","system_id":"levelo_inurba_marseille","lat":43.24806,"lon":5.37449,"is_reserved":false,"is_disabled":false,"rental_uris":{"android":"levelo://app?vid=78aa47e2-a7fa-44ca-94a7-c65c375b91d7","ios":"levelo://app?vid=78aa47e2-a7fa-44ca-94a7-c65c375b91d7"},"vehicle_type_id":"4","last_reported":1740168597,"current_range_meters":19600,"station_id":"ce4bhgh2rcd13ifvqfb0","pricing_plan_id":"cebpf4jnsgd1na2vs0mg"},{"bike_id":"470b5e3a-5936-4b02-9090-daff7d4e8dfe","system_id":"levelo_inurba_marseille","lat":43.29414,"lon":5.38636,"is_reserved":false,"is_disabled":false,"rental_uris":{"android":"levelo://app?vid=470b5e3a-5936-4b02-9090-daff7d4e8dfe","ios":"levelo://app?vid=470b5e3a-5936-4b02-9090-daff7d4e8dfe"},"vehicle_type_id":"4","last_reported":1740168597,"current_range_meters":19600,"station_id":"ce4bh2h2rcd13ifvqdh0","pricing_plan_id":"cebpf4jnsgd1na2vs0mg"},{"bike_id":"105ea8ad-0d16-4875-9fde-e085311250f4","system_id":"levelo_inurba_marseille","lat":43.23189,"lon":5.3558,"is_reserved":false,"is_disabled":false,"rental_uris":{"android":"levelo://app?vid=105ea8ad-0d16-4875-9fde-e085311250f4","ios":"levelo://app?vid=105ea8ad-0d16-4875-9fde-e085311250f4"},"vehicle_type_id":"4","last_reported":1740168597,"current_range_meters":19600,"station_id":"ce4bhu92rcd13ifvqi70","pricing_plan_id":"cebpf4jnsgd1na2vs0mg"},{"bike_id":"96f698fc-49f5-4636-b6dc-07ace91a44b8","system_id":"levelo_inurba_marseille","lat":43.24679,"lon":5.38187,"is_reserved":false,"is_disabled":false,"rental_uris":{"android":"levelo://app?vid=96f698fc-49f5-4636-b6dc-07ace91a44b8","ios":"levelo://app?vid=96f698fc-49f5-4636-b6dc-07ace91a44b8"},"vehicle_type_id":"4","last_reported":1740168597,"current_range_meters":19600,"station_id":"ce4bhih2rcd13ifvqfr0","pricing_plan_id":"cebpf4jnsgd1na2vs0mg"},{"bike_id":"7b47da87-7f75-46b4-b6d5-10fa784e027f","system_id":"levelo_inurba_marseille","lat":43.28571,"lon":5.39497,"is_reserved":false,"is_disabled":false,"rental_uris":{"android":"levelo://app?vid=7b47da87-7f75-46b4-b6d5-10fa784e027f","ios":"levelo://app?vid=7b47da87-7f75-46b4-b6d5-10fa784e027f"},"vehicle_type_id":"4","last_reported":1740168597,"current_range_meters":19600,"station_id":"ce4bh292rcd13ifvqdg0","pricing_plan_id":"cebpf4jnsgd1na2vs0mg"},{"bike_id":"d627e1d1-b30a-47c1-966b-4b3cb6397049","system_id":"levelo_inurba_marseille","lat":43.28143,"lon":5.42656,"is_reserved":false,"is_disabled":false,"rental_uris":{"android":"levelo://app?vid=d627e1d1-b30a-47c1-966b-4b3cb6397049","ios":"levelo://app?vid=d627e1d1-b30a-47c1-966b-4b3cb6397049"},"vehicle_type_id":"4","last_reported":1740168597,"current_range_meters":19600,"station_id":"ce4bhnh2rcd13ifvqgug","pricing_plan_id":"cebpf4jnsgd1na2vs0mg"},{"bike_id":"3956cc44-fc75-4f94-89d5-9c133698b60d","system_id":"levelo_inurba_marseille","lat":43.29995,"lon":5.37203,"is_reserved":false,"is_disabled":true,"rental_uris":{"android":"levelo://app?vid=3956cc44-fc75-4f94-89d5-9c133698b60d","ios":"levelo://app?vid=3956cc44-fc75-4f94-89d5-9c133698b60d"},"vehicle_type_id":"4","last_reported":1740168597,"current_range_meters":19600,"station_id":"ce4bgr92rcd13ifvqc7g","pricing_plan_id":"cebpf4jnsgd1na2vs0mg"},{"bike_id":"dc1fce77-a765-4398-991f-f895da3f81f0","system_id":"levelo_inurba_marseille","lat":43.31135,"lon":5.37756,"is_reserved":false,"is_disabled":true,"rental_uris":{"android":"levelo://app?vid=dc1fce77-a765-4398-991f-f895da3f81f0","ios":"levelo://app?vid=dc1fce77-a765-4398-991f-f895da3f81f0"},"vehicle_type_id":"4","last_reported":1740168597,"current_range_meters":20000,"station_id":"ce4bgt92rcd13ifvqcg0","pricing_plan_id":"cebpf4jnsgd1na2vs0mg"},