{"last_updated":1709579136,"ttl":30,"version":"2.2","data":{"bikes":[{"bike_id":"6a863bd4-c815-4972-a170-262f5a77ebc2","system_id":"levelo_inurba_marseille","lat":43.312239,"lon":5.368562,"is_reserved":false,"is_disabled":false,"rental_uris":{"android":"levelo://app?vid=6a863bd4-c815-4972-a170-262f5a77ebc2","ios":"levelo://app?vid=6a863bd4-c815-4972-a170-262f5a77ebc2"},"vehicle_type_id":"4","last_reported":1709579136,"current_range_meters":8000,"station_id":"ce4bgl92rcd13ifvqbq0","pricing_plan_id":"cebpf4jnsgd1na2vs0mg"},{"bike_id":"441815a3-97a4-4831-ad91-b189805d19fb","system_id":"levelo_inurba_marseille","lat":43.312239,"lon":5.368562,"is_reserved":false,"is_disabled":false,"rental_uris":{"android":"levelo://app?vid=441815a3-97a4-4831-ad91-b189805d19fb","ios":"levelo://app?vid=441815a3-97a4-4831-ad91-b189805d19fb"},"vehicle_type_id":"4","last_reported":1709579136,"current_range_meters":7600,"station_id":"ce4bgl92rcd13ifvqbq0","pricing_plan_id":"cebpf4jnsgd1na2vs0mg"},{"bike_id":"e68d11a0-8838-4b1c-b887-f60af9a470a7","system_id":"levelo_inurba_marseille","lat":43.312239,"lon":5.368562,"is_reserved":false,"is_disabled":false,"rental_uris":{"android":"levelo://app?vid=e68d11a0-8838-4b1c-b887-f60af9a470a7","ios":"levelo://app?vid=e68d11a0-8838-4b1c-b887-f60af9a470a7"},"vehicle_type_id":"4","last_reported":1709579136,"current_range_meters":28000,"station_id":"ce4bgl92rcd13ifvqbq0","pricing_plan_id":"cebpf4jnsgd1na2vs0mg"},{"bike_id":"6ffb1f2b-7596-413a-b2d2-a7ed5824992c","system_id":"levelo_inurba_marseille","lat":43.312239,"lon":5.368562,"is_reserved":false,"is_disabled":false,"rental_uris":{"android":"levelo://app?vid=6ffb1f2b-7596-413a-b2d2-a7ed5824992c","ios":"levelo://app?vid=6ffb1f2b-7596-413a-b2d2-a7ed5824992c"},"vehicle_type_id":"4","last_reported":1709579136,"current_range_meters":800,"station_id":"ce4bgl92rcd13ifvqbq0","pricing_plan_id":"cebpf4jnsgd1na2vs0mg"},{"bike_id":"899a1e49-b5e0-4eb6-894a-89e4d022824b","system_id":"levelo_inurba_marseille","lat":43.309076,"lon":5.368465,"is_reserved":false,"is_disabled":false,"rental_uris":{"android":"levelo://app?vid=899a1e49-b5e0-4eb6-894a-89e4d022824b","ios":"levelo://app?vid=899a1e49-b5e0-4eb6-894a-89e4d022824b"},"vehicle_type_id":"4","last_reported":1709579136,"current_range_meters":5200,"station_id":"ce4bgn92rcd13ifvqbvg","pricing_plan_id":"cebpf4jnsgd1na2vs0mg"},{"bike_id":"2c4465f3-7320-4c26-97ab-50bf2c1e243d","system_id":"levelo_inurba_marseille","lat":43.309076,"lon":5.368465,"is_reserved":false,"is_disabled":false,"rental_uris":{"android":"levelo://app?vid=2c4465f3-7320-4c26-97ab-50bf2c1e243d","ios":"levelo://app?vid=2c4465f3-7320-4c26-97ab-50bf2c1e243d"},"vehicle_type_id":"4","last_reported":1709579136,"current_range_meters":2000,"station_id":"ce4bgn92rcd13ifvqbvg","pricing_plan_id":"cebpf4jnsgd1na2vs0mg"},{"bike_id":"0a7b291d-f6a6-4500-8ebc-b1dbeb060382","system_id":"levelo_inurba_marseille","lat":43.314811,"lon":5.373103,"is_reserved":false,"is_disabled":false,"rental_uris":{"android":"levelo://app?vid=0a7b291d-f6a6-4500-8ebc-b1dbeb060382","ios":"levelo://app?vid=0a7b291d-f6a6-4500-8ebc-b1dbeb060382"},"vehicle_type_id":"4","last_reported":1709579136,"current_range_meters":800,"station_id":"ce4bgt12rcd13ifvqcd0","pricing_plan_id":"cebpf4jnsgd1na2vs0mg"},{"bike_id":"ad4c6593-0e37-4df1-945c-2ba05ef8bf03","system_id":"levelo_inurba_marseille","lat":43.314837,"lon":5.372961,"is_reserved":false,"is_disabled":false,"rental_uris":{"android":"levelo://app?vid=ad4c6593-0e37-4df1-945c-2ba05ef8bf03","ios":"levelo://app?vid=ad4c6593-0e37-4df1-945c-2ba05ef8bf03"},"vehicle_type_id":"4","last_reported":1709579136,"current_range_meters":0,"station_id":"ce4bgt12rcd13ifvqcd0","pricing_plan_id":"cebpf4jnsgd1na2vs0mg"},{"bike_id":"d36fd8c2-5ddc-49d0-9ef1-1bf659b07cd4","system_id":"levelo_inurba_marseille","lat":43.314811,"lon":5.373103,"is_reserved":false,"is_disabled":false,"rental_uris":{"android":"levelo://app?vid=d36fd8c2-5ddc-49d0-9ef1-1bf659b07cd4","ios":"levelo://app?vid=d36fd8c2-5ddc-49d0-9ef1-1bf659b07cd4"},"vehicle_type_id":"4","last_reported":1709579136,"current_range_meters":13200,"station_id":"ce4bgt12rcd13ifvqcd0","pricing_plan_id":"cebpf4jnsgd1na2vs0mg"},{"bike_id":"ff5d931e-c994-4b53-9d37-ccdc34bf2ed9","system_id":"levelo_inurba_marseille","lat":43.311125,"lon":5.377624,"is_reserved":false,"is_disabled":false,"rental_uris":{"android":"levelo://app?vid=ff5d931e-c994-4b53-9d37-ccdc34bf2ed9","ios":"levelo://app?vid=ff5d931e-c994-4b53-9d37-ccdc34bf2ed9"},"vehicle_type_id":"4","last_reported":1709579136,"current_range_meters":6000,"station_id":"ce4bgt92rcd13ifvqcg0","pricing_plan_id":"cebpf4jnsgd1na2vs0mg"},{"bike_id":"ad54e69c-a887-4a63-b43e-1b245528fca8","system_id":"levelo_inurba_marseille","lat":43.314811,"lon":5.373103,"is_reserved":false,"is_disabled":false,"rental_uris":{"android":"levelo://app?vid=ad54e69c-a887-4a63-b43e-1b245528fca8","ios":"levelo://app?vid=ad54e69c-a887-4a63-b43e-1b245528fca8"},"vehicle_type_id":"4","last_reported":1709579136,"current_range_meters":25600,"station_id":"ce4bgt12rcd13ifvqcd0","pricing_plan_id":"cebpf4jnsgd1na2vs0mg"},{"bike_id":"3e8e4454-d3ce-4e34-8b8b-7e65e10a495c","system_id":"levelo_inurba_marseille","lat":43.309039,"lon":5.371797,"is_reserved":false,"is_disabled":false,"rental_uris":{"android":"levelo://app?vid=3e8e4454-d3ce-4e34-8b8b-7e65e10a495c","ios":"levelo://app?vid=3e8e4454-d3ce-4e34-8b8b-7e65e10a495c"},"vehicle_type_id":"4","last_reported":1709579136,"current_range_meters":26800,"station_id":"ce4bguh2rcd13ifvqckg","pricing_plan_id":"cebpf4jnsgd1na2vs0mg"},{"bike_id":"810a5df8-936a-412c-9434-4c96a92489c2","system_id":"levelo_inurba_marseille","lat":43.309039,"lon":5.371797,"is_reserved":false,"is_disabled":false,"rental_uris":{"android":"levelo://app?vid=810a5df8-936a-412c-9434-4c96a92489c2","ios":"levelo://app?vid=810a5df8-936a-412c-9434-4c96a92489c2"},"vehicle_type_id":"4","last_reported":1709579136,"current_range_meters":7600,"station_id":"ce4bguh2rcd13ifvqckg","pricing_plan_id":"cebpf4jnsgd1na2vs0mg"},{"bike_id":"8c73ce2e-cd3a-44ab-873c-ecfad27edc8c","system_id":"levelo_inurba_marseille","lat":43.313687,"lon":5.377444,"is_reserved":false,"is_disabled":false,"rental_uris":{"android":"levelo://app?vid=8c73ce2e-cd3a-44ab-873c-ecfad27edc8c","ios":"levelo://app?vid=8c73ce2e-cd3a-44ab-873c-ecfad27edc8c"},"vehicle_type_id":"4","last_reported":1709579136,"current_range_meters":26000,"station_id":"","pricing_plan_id":"cebpf4jnsgd1na2vs0mg"},{"bike_id":"34d02f9c-de09-4ef8-b2fc-9d31fcff840e","system_id":"levelo_inurba_marseille","lat":43.311131,"lon":5.377651,"is_reserved":false,"is_disabled":false,"rental_uris":{"android":"levelo://app?vid=34d02f9c-de09-4ef8-b2fc-9d31fcff840e","ios":"levelo://app?vid=34d02f9c-de09-4ef8-b2fc-9d31fcff840e"},"vehicle_type_id":"4","last_reported":1709579136,"current_range_meters":14000,"station_id":"ce4bgt92rcd13ifvqcg0","pricing_plan_id":"cebpf4jnsgd1na2vs0mg"},{"bike_id":"25bff0f1-9319-4a21-8ab5-3a9389f2706e","system_id":"levelo_inurba_marseille","lat":43.311131,"lon":5.377651,"is_reserved":false,"is_disabled":false,"rental_uris":{"android":"levelo://app?vid=25bff0f1-9319-4a21-8ab5-3a9389f2706e","ios":"levelo://app?vid=25bff0f1-9319-4a21-8ab5-3a9389f2706e"},"vehicle_type_id":"4","last_reported":1709579136,"current_range_meters":0,"station_id":"ce4bgt92rcd13ifvqcg0","pricing_plan_id":"cebpf4jnsgd1na2vs0mg"},{"bike_id":"3a03ea57-1f37-4d10-99b1-3ac054abd63d","system_id":"levelo_inurba_marseille","lat":43.311131,"lon":5.377651,"is_reserved":false,"is_disabled":false,"rental_uris":{"android":"levelo://app?vid=3a03ea57-1f37-4d10-99b1-3ac054abd63d","ios":"levelo://app?vid=3a03ea57-1f37-4d10-99b1-3ac054abd63d"},"vehicle_type_id":"4","last_reported":1709579136,"current_range_meters":12400,"station_id":"ce4bgt92rcd13ifvqcg0","pricing_plan_id":"cebpf4jnsgd1na2vs0mg"},{"bike_id":"7b7fa940-2843-4c3a-9093-e9e4a3643fcf","system_id":"levelo_inurba_marseille","lat":43.307945,"lon":5.376487,"is_reserved":false,"is_disabled":false,"rental_uris":{"android":"levelo://app?vid=7b7fa940-2843-4c3a-9093-e9e4a3643fcf","ios":"levelo://app?vid=7b7fa940-2843-4c3a-9093-e9e4a3643fcf"},"vehicle_type_id":"4","last_reported":1709579136,"current_range_meters":7600,"station_id":"ce4bgv92rcd13ifvqcq0","pricing_plan_id":"cebpf4jnsgd1na2vs0mg"},{"bike_id":"0045128b-6274-415a-9826-626c0439d0cd","system_id":"levelo_inurba_marseille","lat":43.307945,"lon":5.376487,"is_reserved":false,"is_disabled":false,"rental_uris":{"android":"levelo://app?vid=0045128b-6274-415a-9826-626c0439d0cd","ios":"levelo://app?vid=0045128b-6274-415a-9826-626c0439d0cd"},"vehicle_type_id":"4","last_reported":1709579136,"current_range_meters":3600,"station_id":"ce4bgv92rcd13ifvqcq0","pricing_plan_id":"cebpf4jnsgd1na2vs0mg"},{"bike_id":"005f2f8a-4666-4939-8197-8d3286def3ea","system_id":"levelo_inurba_marseille","lat":43.307945,"lon":5.376487,"is_reserved":false,"is_disabled":false,"rental_uris":{"android":"levelo://app?vid=005f2f8a-4666-4939-8197-8d3286def3ea","ios":"levelo://app?vid=005f2f8a-4666-4939-8197-8d3286def3ea"},"vehicle_type_id":"4","last_reported":1709579136,"current_range_meters":14000,"station_id":"ce4bgv92rcd13ifvqcq0","pricing_plan_id":"cebpf4jnsgd1na2vs0mg"},{"bike_id":"41d4f44f-e16d-4c6f-b78a-6c57d6896a23","system_id":"levelo_inurba_marseille","lat":43.307945,"lon":5.376487,"is_reserved":false,"is_disabled":false,"rental_uris":{"android":"levelo://app?vid=41d4f44f-e16d-4c6f-b78a-6c57d6896a23","ios":"levelo://app?vid=41d4f44f-e16d-4c6f-b78a-6c57d6896a23"},"vehicle_type_id":"4","last_reported":1709579136,"current_range_meters":6400,"station_id":"ce4bgv92rcd13ifvqcq0","pricing_plan_id":"cebpf4jnsgd1na2vs0mg"},{"bike_id":"9c4df5b1-ba21-4f2e-966c-394893a359e1","system_id":"levelo_inurba_marseille","lat":43.307945,"lon":5.376487,"is_reserved":false,"is_disabled":false,"rental_uris":{"android":"levelo://app?vid=9c4df5b1-ba21-4f2e-966c-394893a359e1","ios":"levelo://app?vid=9c4df5b1-ba21-4f2e-966c-394893a359e1"},"vehicle_type_id":"4","last_reported":1709579136,"current_range_meters":2000,"station_id":"ce4bgv92rcd13ifvqcq0","pricing_plan_id":"cebpf4jnsgd1na2vs0mg"},{"bike_id":"a16c0c49-620b-4de9-be96-1d598e260b82","system_id":"levelo_inurba_marseille","lat":43.307945,"lon":5.376487,"is_reserved":false,"is_disabled":false,"rental_uris":{"android":"levelo://app?vid=a16c0c49-620b-4de9-be96-1d598e260b82","ios":"levelo://app?vid=a16c0c49-620b-4de9-be96-1d598e260b82"},"vehicle_type_id":"4","last_reported":1709579136,"current_range_meters":16400,"station_id":"ce4bgv92rcd13ifvqcq0","pricing_plan_id":"cebpf4jnsgd1na2vs0mg"},{"bike_id":"54c67a79-90d6-4f2c-a2f8-b75e2c124329","system_id":"levelo_inurba_marseille","lat":43.307945,"lon":5.376487,"is_reserved":false,"is_disabled":false,"rental_uris":{"android":"levelo://app?vid=54c67a79-90d6-4f2c-a2f8-b75e2c124329","ios":"levelo://app?vid=54c67a79-90d6-4f2c-a2f8-b75e2c124329"},"vehicle_type_id":"4","last_reported":1709579136,"current_range_meters":30800,"station_id":"ce4bgv92rcd13ifvqcq0","pricing_plan_id":"cebpf4jnsgd1na2vs0mg"},{"bike_id":"cce7b8cb-f837-49d6-ad61-60cd647659d2","system_id":"levelo_inurba_marseille","lat":43.307945,"lon":5.376487,"is_reserved":false,"is_disabled":false,"rental_uris":{"android":"levelo://app?vid=cce7b8cb-f837-49d6-ad61-60cd647659d2","ios":"levelo://app?vid=cce7b8cb-f837-49d6-ad61-60cd647659d2"},"vehicle_type_id":"4","last_reported":1709579136,"current_range_meters":30000,"station_id":"ce4bgv92rcd13ifvqcq0","pricing_plan_id":"cebpf4jnsgd1na2vs0mg"},{"bike_id":"44fda440-37cb-41d2-9a7f-2e5535767efd","system_id":"levelo_inurba_marseille","lat":43.307945,"lon":5.376487,"is_reserved":false,"is_disabled":false,"rental_uris":{"android":"levelo://app?vid=44fda440-37cb-41d2-9a7f-2e5535767efd","ios":"levelo://app?vid=44fda440-37cb-41d2-9a7f-2e5535767efd"},"vehicle_type_id":"4","last_reported":1709579136,"current_range_meters":19600,"station_id":"ce4bgv92rcd13ifvqcq0","pricing_plan_id":"cebpf4jnsgd1na2vs0mg"},{"bike_id":"b2c4fc33-3316-4a70-89c5-4414a90664f0","system_id":"levelo_inurba_marseille","lat":43.307945,"lon":5.376487,"is_reserved":false,"is_disabled":false,"rental_uris":{"android":"levelo://app?vid=b2c4fc33-3316-4a70-89c5-4414a90664f0","ios":"levelo://app?vid=b2c4fc33-3316-4a70-89c5-4414a90664f0"},"vehicle_type_id":"4","last_reported":1709579136,"current_range_meters":9200,"station_id":"ce4bgv92rcd13ifvqcq0","pricing_plan_id":"cebpf4jnsgd1na2vs0mg"},{"bike_id":"7a50b68e-38b0-4a98-8580-45b88b6162b5","system_id":"levelo_inurba_marseille","lat":43.311125,"lon":5.377624,"is_reserved":false,"is_disabled":false,"rental_uris":{"android":"levelo://app?vid=7a50b68e-38b0-4a98-8580-45b88b6162b5","ios":"levelo://app?vid=7a50b68e-38b0-4a98-8580-45b88b6162b5"},"vehicle_type_id":"4","last_reported":1709579136,"current_range_meters":19200,"station_id":"ce4bgt92rcd13ifvqcg0","pricing_plan_id":"cebpf4jnsgd1na2vs0mg"},{"bike_id":"6ebd7b4b-9742-431e-adb5-26f942e83caa","system_id":"levelo_inurba_marseille","lat":43.307945,"lon":5.376487,"is_reserved":false,"is_disabled":false,"rental_uris":{"android":"levelo://app?vid=6ebd7b4b-9742-431e-adb5-26f942e83caa","ios":"levelo://app?vid=6ebd7b4b-9742-431e-adb5-26f942e83caa"},"vehicle_type_id":"4","last_reported":1709579136,"current_range_meters":31600,"station_id":"ce4bgv92rcd13ifvqcq0","pricing_plan_id":"cebpf4jnsgd1na2vs0mg"},{"bike_id":"66faee2f-b05c-4541-bac9-7b6469fca192","system_id":"levelo_inurba_marseille","lat":43.307945,"lon":5.376487,"is_reserved":false,"is_disabled":false,"rental_uris":{"android":"levelo://app?vid=66faee2f-b05c-4541-bac9-7b6469fca192","ios":"levelo://app?vid=66faee2f-b05c-4541-bac9-7b6469fca192"},"vehicle_type_id":"4","last_reported":1709579136,"current_range_meters":1200,"station_id":"ce4bgv92rcd13ifvqcq0","pricing_plan_id":"cebpf4jnsgd1na2vs0mg"},{"bike_id":"3885fbc3-8a0e-4b28-82c0-00aa72f3d131","system_id":"levelo_inurba_marseille","lat":43.317075,"lon":5.377367,"is_reserved":false,"is_disabled":false,"rental_uris":{"android":"levelo://app?vid=3885fbc3-8a0e-4b28-82c0-00aa72f3d131","ios":"levelo://app?vid=3885fbc3-8a0e-4b28-82c0-00aa72f3d131"},"vehicle_type_id":"4","last_reported":1709579136,"current_range_meters":11600,"station_id":"ce4bgth2rcd13ifvqch0","pricing_plan_id":"cebpf4jnsgd1na2vs0mg"},{"bike_id":"75819d22-f4e0-4690-884d-78fc5d06786a","system_id":"levelo_inurba_marseille","lat":43.317075,"lon":5.377367,"is_reserved":false,"is_disabled":false,"rental_uris":{"android":"levelo://app?vid=75819d22-f4e0-4690-884d-78fc5d06786a","ios":"levelo://app?vid=75819d22-f4e0-4690-884d-78fc5d06786a"},"vehicle_type_id":"4","last_reported":1709579136,"current_range_meters":14800,"station_id":"ce4bgth2rcd13ifvqch0","pricing_plan_id":"cebpf4jnsgd1na2vs0mg"},{"bike_id":"56eaae27-44bb-4188-a8c9-440f6a7dba3e","system_id":"levelo_inurba_marseille","lat":43.31303,"lon":5.37953,"is_reserved":false,"is_disabled":false,"rental_uris":{"android":"levelo://app?vid=56eaae27-44bb-4188-a8c9-440f6a7dba3e","ios":"levelo://app?vid=56eaae27-44bb-4188-a8c9-440f6a7dba3e"},"vehicle_type_id":"4","last_reported":1709579136,"current_range_meters":18000,"station_id":"","pricing_plan_id":"cebpf4jnsgd1na2vs0mg"},{"bike_id":"517a45cc-ae00-4f63-a72e-0ff20a7abf6c","system_id":"levelo_inurba_marseille","lat":43.308012,"lon":5.381511,"is_reserved":false,"is_disabled":false,"rental_uris":{"android":"levelo://app?vid=517a45cc-ae00-4f63-a72e-0ff20a7abf6c","ios":"levelo://app?vid=517a45cc-ae00-4f63-a72e-0ff20a7abf6c"},"vehicle_type_id":"4","last_reported":1709579136,"current_range_meters":30800,"station_id":"ce4bgt12rcd13ifvqce0","pricing_plan_id":"cebpf4jnsgd1na2vs0mg"},{"bike_id":"90ff4b3a-88cc-4593-8143-46a8b13b5e37","system_id":"levelo_inurba_marseille","lat":43.30304,"lon":5.368987,"is_reserved":false,"is_disabled":false,"rental_uris":{"android":"levelo://app?vid=90ff4b3a-88cc-4593-8143-46a8b13b5e37","ios":"levelo://app?vid=90ff4b3a-88cc-4593-8143-46a8b13b5e37"},"vehicle_type_id":"4","last_reported":1709579136,"current_range_meters":6000,"station_id":"ce4bgqh2rcd13ifvqc5g","pricing_plan_id":"cebpf4jnsgd1na2vs0mg"},{"bike_id":"24a8a87d-635e-4dae-9353-626f50f1b02d","system_id":"levelo_inurba_marseille","lat":43.303046,"lon":5.368981,"is_reserved":false,"is_disabled":false,"rental_uris":{"android":"levelo://app?vid=24a8a87d-635e-4dae-9353-626f50f1b02d","ios":"levelo://app?vid=24a8a87d-635e-4dae-9353-626f50f1b02d"},"vehicle_type_id":"4","last_reported":1709579136,"current_range_meters":8800,"station_id":"ce4bgqh2rcd13ifvqc5g","pricing_plan_id":"cebpf4jnsgd1na2vs0mg"},{"bike_id":"31d6ba70-9367-4233-82ff-e5793937be43","system_id":"levelo_inurba_marseille","lat":43.31536,"lon":5.380243,"is_reserved":false,"is_disabled":false,"rental_uris":{"android":"levelo://app?vid=31d6ba70-9367-4233-82ff-e5793937be43","ios":"levelo://app?vid=31d6ba70-9367-4233-82ff-e5793937be43"},"vehicle_type_id":"4","last_reported":1709579136,"current_range_meters":10000,"station_id":"ce4bhsp2rcd13ifvqi50","pricing_plan_id":"cebpf4jnsgd1na2vs0mg"},{"bike_id":"fb116dbb-9ec7-413f-9dd7-33f18722cb57","system_id":"levelo_inurba_marseille","lat":43.315289,"lon":5.380349,"is_reserved":false,"is_disabled":false,"rental_uris":{"android":"levelo://app?vid=fb116dbb-9ec7-413f-9dd7-33f18722cb57","ios":"levelo://app?vid=fb116dbb-9ec7-413f-9dd7-33f18722cb57"},"vehicle_type_id":"4","last_reported":1709579136,"current_range_meters":25200,"station_id":"ce4bhsp2rcd13ifvqi50","pricing_plan_id":"cebpf4jnsgd1na2vs0mg"},{"bike_id":"9efe3799-22dd-4d7d-be99-d6d4188f2004","system_id":"levelo_inurba_marseille","lat":43.303046,"lon":5.368981,"is_reserved":false,"is_disabled":false,"rental_uris":{"android":"levelo://app?vid=9efe3799-22dd-4d7d-be99-d6d4188f2004","ios":"levelo://app?vid=9efe3799-22dd-4d7d-be99-d6d4188f2004"},"vehicle_type_id":"4","last_reported":1709579136,"current_range_meters":1600,"station_id":"ce4bgqh2rcd13ifvqc5g","pricing_plan_id":"cebpf4jnsgd1na2vs0mg"},{"bike_id":"48ecacc2-30d3-43b1-8a2f-0b4f1010bb9c","system_id":"levelo_inurba_marseille","lat":43.315293,"lon":5.380349,"is_reserved":false,"is_disabled":false,"rental_uris":{"android":"levelo://app?vid=48ecacc2-30d3-43b1-8a2f-0b4f1010bb9c","ios":"levelo://app?vid=48ecacc2-30d3-43b1-8a2f-0b4f1010bb9c"},"vehicle_type_id":"4","last_reported":1709579136,"current_range_meters":27600,"station_id":"ce4bhsp2rcd13ifvqi50","pricing_plan_id":"cebpf4jnsgd1na2vs0mg"},{"bike_id":"61183e18-edb0-4821-9955-953fbb76a8da","system_id":"levelo_inurba_marseille","lat":43.301939,"lon":5.366286,"is_reserved":false,"is_disabled":false,"rental_uris":{"android":"levelo://app?vid=61183e18-edb0-4821-9955-953fbb76a8da","ios":"levelo://app?vid=61183e18-edb0-4821-9955-953fbb76a8da"},"vehicle_type_id":"4","last_reported":1709579136,"current_range_meters":6800,"station_id":"ce4bgrh2rcd13ifvqc8g","pricing_plan_id":"cebpf4jnsgd1na2vs0mg"},{"bike_id":"4f3226d6-d616-4cdd-8ed2-a641ab3ccd7f","system_id":"levelo_inurba_marseille","lat":43.301939,"lon":5.366286,"is_reserved":false,"is_disabled":false,"rental_uris":{"android":"levelo://app?vid=4f3226d6-d616-4cdd-8ed2-a641ab3ccd7f","ios":"levelo://app?vid=4f3226d6-d616-4cdd-8ed2-a641ab3ccd7f"},"vehicle_type_id":"4","last_reported":1709579136,"current_range_meters":1600,"station_id":"ce4bgrh2rcd13ifvqc8g","pricing_plan_id":"cebpf4jnsgd1na2vs0mg"},{"bike_id":"e7404874-3224-4d26-9337-93fd8832c35e","system_id":"levelo_inurba_marseille","lat":43.301939,"lon":5.366286,"is_reserved":false,"is_disabled":false,"rental_uris":{"android":"levelo://app?vid=e7404874-3224-4d26-9337-93fd8832c35e","ios":"levelo://app?vid=e7404874-3224-4d26-9337-93fd8832c35e"},"vehicle_type_id":"4","last_reported":1709579136,"current_range_meters":24400,"station_id":"ce4bgrh2rcd13ifvqc8g","pricing_plan_id":"cebpf4jnsgd1na2vs0mg"},{"bike_id":"8445949b-4371-4e9f-87de-0ef4a83730b7","system_id":"levelo_inurba_marseille","lat":43.30813,"lon":5.381488,"is_reserved":false,"is_disabled":false,"rental_uris":{"android":"levelo://app?vid=8445949b-4371-4e9f-87de-0ef4a83730b7","ios":"levelo://app?vid=8445949b-4371-4e9f-87de-0ef4a83730b7"},"vehicle_type_id":"4","last_reported":1709579136,"current_range_meters":4400,"station_id":"ce4bgt12rcd13ifvqce0","pricing_plan_id":"cebpf4jnsgd1na2vs0mg"},{"bike_id":"f24269b0-765f-4966-a007-7ab3a56ed073","system_id":"levelo_inurba_marseille","lat":43.308012,"lon":5.381511,"is_reserved":false,"is_disabled":false,"rental_uris":{"android":"levelo://app?vid=f24269b0-765f-4966-a007-7ab3a56ed073","ios":"levelo://app?vid=f24269b0-765f-4966-a007-7ab3a56ed073"},"vehicle_type_id":"4","last_reported":1709579136,"current_range_meters":12800,"station_id":"ce4bgt12rcd13ifvqce0","pricing_plan_id":"cebpf4jnsgd1na2vs0mg"},{"bike_id":"db368a78-80ce-4348-8f38-3050f0d66365","system_id":"levelo_inurba_marseille","lat":43.308012,"lon":5.381511,"is_reserved":false,"is_disabled":false,"rental_uris":{"android":"levelo://app?vid=db368a78-80ce-4348-8f38-3050f0d66365","ios":"levelo://app?vid=db368a78-80ce-4348-8f38-3050f0d66365"},"vehicle_type_id":"4","last_reported":1709579136,"current_range_meters":25600,"station_id":"ce4bgt12rcd13ifvqce0","pricing_plan_id":"cebpf4jnsgd1na2vs0mg"},{"bike_id":"a18ffb36-4801-4804-aca2-db79ee14d319","system_id":"levelo_inurba_marseille","lat":43.308012,"lon":5.381511,"is_reserved":false,"is_disabled":false,"rental_uris":{"android":"levelo://app?vid=a18ffb36-4801-4804-aca2-db79ee14d319","ios":"levelo://app?vid=a18ffb36-4801-4804-aca2-db79ee14d319"},"vehicle_type_id":"4","last_reported":1709579136,"current_range_meters":24000,"station_id":"ce4bgt12rcd13ifvqce0","pricing_plan_id":"cebpf4jnsgd1na2vs0mg"},{"bike_id":"9b7cfd94-0a0d-4d74-a7e4-655c53c10423","system_id":"levelo_inurba_marseille","lat":43.324771,"lon":5.36557,"is_reserved":false,"is_disabled":false,"rental_uris":{"android":"levelo://app?vid=9b7cfd94-0a0d-4d74-a7e4-655c53c10423","ios":"levelo://app?vid=9b7cfd94-0a0d-4d74-a7e4-655c53c10423"},"vehicle_type_id":"4","last_reported":1709579136,"current_range_meters":12000,"station_id":"ce4bhs12rcd13ifvqhvg","pricing_plan_id":"cebpf4jnsgd1na2vs0mg"},{"bike_id":"5883364f-a61e-440b-a38e-98d53a54b721","system_id":"levelo_inurba_marseille","lat":43.324771,"lon":5.36557,"is_reserved":false,"is_disabled":false,"rental_uris":{"android":"levelo://app?vid=5883364f-a61e-440b-a38e-98d53a54b721","ios":"levelo://app?vid=5883364f-a61e-440b-a38e-98d53a54b721"},"vehicle_type_id":"4","last_reported":1709579136,"current_range_meters":8400,"station_id":"ce4bhs12rcd13ifvqhvg","pricing_plan_id":"cebpf4jnsgd1na2vs0mg"},{"bike_id":"2c1b1deb-ce09-43e2-9310-1dcc52d9b600","system_id":"levelo_inurba_marseille","lat":43.324771,"lon":5.36557,"is_reserved":false,"is_disabled":false,"rental_uris":{"android":"levelo://app?vid=2c1b1deb-ce09-43e2-9310-1dcc52d9b600","ios":"levelo://app?vid=2c1b1deb-ce09-43e2-9310-1dcc52d9b600"},"vehicle_type_id":"4","last_reported":1709579136,"current_range_meters":15200,"station_id":"ce4bhs12rcd13ifvqhvg","pricing_plan_id":"cebpf4jnsgd1na2vs0mg"},{"bike_id":"3381c3e7-3ed4-4728-b3ac-6f98c1557439","system_id":"levelo_inurba_marseille","lat":43.319935,"lon":5.381699,"is_reserved":false,"is_disabled":false,"rental_uris":{"android":"levelo://app?vid=3381c3e7-3ed4-4728-b3ac-6f98c1557439","ios":"levelo://app?vid=3381c3e7-3ed4-4728-b3ac-6f98c1557439"},"vehicle_type_id":"4","last_reported":1709579136,"current_range_meters":10000,"station_id":"ce4bhr12rcd13ifvqhpg","pricing_plan_id":"cebpf4jnsgd1na2vs0mg"},{"bike_id":"ebc8f392-892e-4642-b6ff-761d7a410b07","system_id":"levelo_inurba_marseille","lat":43.324775,"lon":5.365547,"is_reserved":false,"is_disabled":false,"rental_uris":{"android":"levelo://app?vid=ebc8f392-892e-4642-b6ff-761d7a410b07","ios":"levelo://app?vid=ebc8f392-892e-4642-b6ff-761d7a410b07"},"vehicle_type_id":"4","last_reported":1709579136,"current_range_meters":6000,"station_id":"ce4bhs12rcd13ifvqhvg","pricing_plan_id":"cebpf4jnsgd1na2vs0mg"},{"bike_id":"77a79aca-bd8c-4e93-aa90-ffe422f75c29","system_id":"levelo_inurba_marseille","lat":43.324771,"lon":5.36557,"is_reserved":false,"is_disabled":false,"rental_uris":{"android":"levelo://app?vid=77a79aca-bd8c-4e93-aa90-ffe422f75c29","ios":"levelo://app?vid=77a79aca-bd8c-4e93-aa90-ffe422f75c29"},"vehicle_type_id":"4","last_reported":1709579136,"current_range_meters":7200,"station_id":"ce4bhs12rcd13ifvqhvg","pricing_plan_id":"cebpf4jnsgd1na2vs0mg"},{"bike_id":"b517cabf-1478-4807-875d-62cd36831bc9","system_id":"levelo_inurba_marseille","lat":43.324771,"lon":5.36557,"is_reserved":false,"is_disabled":false,"rental_uris":{"android":"levelo://app?vid=b517cabf-1478-4807-875d-62cd36831bc9","ios":"levelo://app?vid=b517cabf-1478-4807-875d-62cd36831bc9"},"vehicle_type_id":"4","last_reported":1709579136,"current_range_meters":17600,"station_id":"ce4bhs12rcd13ifvqhvg","pricing_plan_id":"cebpf4jnsgd1na2vs0mg"},{"bike_id":"4a38f246-f20a-4229-b3a7-98d233c4b71b","system_id":"levelo_inurba_marseille","lat":43.324771,"lon":5.36557,"is_reserved":false,"is_disabled":false,"rental_uris":{"android":"levelo://app?vid=4a38f246-f20a-4229-b3a7-98d233c4b71b","ios":"levelo://app?vid=4a38f246-f20a-4229-b3a7-98d233c4b71b"},"vehicle_type_id":"4","last_reported":1709579136,"current_range_meters":2400,"station_id":"ce4bhs12rcd13ifvqhvg","pricing_plan_id":"cebpf4jnsgd1na2vs0mg"},{"bike_id":"1b059764-63cd-4568-b7cc-cd1938a84e65","system_id":"levelo_inurba_marseille","lat":43.324771,"lon":5.36557,"is_reserved":false,"is_disabled":false,"rental_uris":{"android":"levelo://app?vid=1b059764-63cd-4568-b7cc-cd1938a84e65","ios":"levelo://app?vid=1b059764-63cd-4568-b7cc-cd1938a84e65"},"vehicle_type_id":"4","last_reported":1709579136,"current_range_meters":11200,"station_id":"ce4bhs12rcd13ifvqhvg","pricing_plan_id":"cebpf4jnsgd1na2vs0mg"},{"bike_id":"57603526-7a1b-4bdd-b732-1cb0d818d3fe","system_id":"levelo_inurba_marseille","lat":43.324771,"lon":5.36557,"is_reserved":false,"is_disabled":false,"rental_uris":{"android":"levelo://app?vid=57603526-7a1b-4bdd-b732-1cb0d818d3fe","ios":"levelo://app?vid=57603526-7a1b-4bdd-b732-1cb0d818d3fe"},"vehicle_type_id":"4","last_reported":1709579136,"current_range_meters":9600,"station_id":"ce4bhs12rcd13ifvqhvg","pricing_plan_id":"cebpf4jnsgd1na2vs0mg"},{"bike_id":"09171ad4-c046-4a6a-b254-7a86b183ba2b","system_id":"levelo_inurba_marseille","lat":43.324771,"lon":5.36557,"is_reserved":false,"is_disabled":false,"rental_uris":{"android":"levelo://app?vid=09171ad4-c046-4a6a-b254-7a86b183ba2b","ios":"levelo://app?vid=09171ad4-c046-4a6a-b254-7a86b183ba2b"},"vehicle_type_id":"4","last_reported":1709579136,"current_range_meters":22000,"station_id":"ce4bhs12rcd13ifvqhvg","pricing_plan_id":"cebpf4jnsgd1na2vs0mg"},{"bike_id":"0fde1c2f-7058-4cde-a568-520de38a3413","system_id":"levelo_inurba_marseille","lat":43.324771,"lon":5.36557,"is_reserved":false,"is_disabled":false,"rental_uris":{"android":"levelo://app?vid=0fde1c2f-7058-4cde-a568-520de38a3413","ios":"levelo://app?vid=0fde1c2f-7058-4cde-a568-520de38a3413"},"vehicle_type_id":"4","last_reported":1709579136,"current_range_meters":12400,"station_id":"ce4bhs12rcd13ifvqhvg","pricing_plan_id":"cebpf4jnsgd1na2vs0mg"},{"bike_id":"566882a6-5c45-4933-89ba-d3ec6f26612c","system_id":"levelo_inurba_marseille","lat":43.324771,"lon":5.36557,"is_reserved":false,"is_disabled":false,"rental_uris":{"android":"levelo://app?vid=566882a6-5c45-4933-89ba-d3ec6f26612c","ios":"levelo://app?vid=566882a6-5c45-4933-89ba-d3ec6f26612c"},"vehicle_type_id":"4","last_reported":1709579136,"current_range_meters":10800,"station_id":"ce4bhs12rcd13ifvqhvg","pricing_plan_id":"cebpf4jnsgd1na2vs0mg"},{"bike_id":"330c1d30-61ac-4dce-bda5-64eaf2fa22cb","system_id":"levelo_inurba_marseille","lat":43.324771,"lon":5.36557,"is_reserved":false,"is_disabled":false,"rental_uris":{"android":"levelo://app?vid=330c1d30-61ac-4dce-bda5-64eaf2fa22cb","ios":"levelo://app?vid=330c1d30-61ac-4dce-bda5-64eaf2fa22cb"},"vehicle_type_id":"4","last_reported":1709579136,"current_range_meters":8800,"station_id":"ce4bhs12rcd13ifvqhvg","pricing_plan_id":"cebpf4jnsgd1na2vs0mg"},{"bike_id":"63c3265d-4eef-4eb2-b7b8-9c59069bbfea","system_id":"levelo_inurba_marseille","lat":43.324771,"lon":5.36557,"is_reserved":false,"is_disabled":false,"rental_uris":{"android":"levelo://app?vid=63c3265d-4eef-4eb2-b7b8-9c59069bbfea","ios":"levelo://app?vid=63c3265d-4eef-4eb2-b7b8-9c59069bbfea"},"vehicle_type_id":"4","last_reported":1709579136,"current_range_meters":17200,"station_id":"ce4bhs12rcd13ifvqhvg","pricing_plan_id":"cebpf4jnsgd1na2vs0mg"},{"bike_id":"bb089a3b-9845-4b78-bdce-2ba8d005e314","system_id":"levelo_inurba_marseille","lat":43.32484,"lon":5.36563,"is_reserved":false,"is_disabled":false,"rental_uris":{"android":"levelo://app?vid=bb089a3b-9845-4b78-bdce-2ba8d005e314","ios":"levelo://app?vid=bb089a3b-9845-4b78-bdce-2ba8d005e314"},"vehicle_type_id":"4","last_reported":1709579136,"current_range_meters":13600,"station_id":"ce4bhs12rcd13ifvqhvg","pricing_plan_id":"cebpf4jnsgd1na2vs0mg"},{"bike_id":"d1e321b4-6ad2-42ba-9204-09b8f197e1e9","system_id":"levelo_inurba_marseille","lat":43.324771,"lon":5.36557,"is_reserved":false,"is_disabled":false,"rental_uris":{"android":"levelo://app?vid=d1e321b4-6ad2-42ba-9204-09b8f197e1e9","ios":"levelo://app?vid=d1e321b4-6ad2-42ba-9204-09b8f197e1e9"},"vehicle_type_id":"4","last_reported":1709579136,"current_range_meters":6400,"station_id":"ce4bhs12rcd13ifvqhvg","pricing_plan_id":"cebpf4jnsgd1na2vs0mg"},{"bike_id":"5d3ece2b-8a81-4e83-9a62-78cb6984efed","system_id":"levelo_inurba_marseille","lat":43.32484,"lon":5.365577,"is_reserved":false,"is_disabled":false,"rental_uris":{"android":"levelo://app?vid=5d3ece2b-8a81-4e83-9a62-78cb6984efed","ios":"levelo://app?vid=5d3ece2b-8a81-4e83-9a62-78cb6984efed"},"vehicle_type_id":"4","last_reported":1709579136,"current_range_meters":0,"station_id":"ce4bhs12rcd13ifvqhvg","pricing_plan_id":"cebpf4jnsgd1na2vs0mg"},{"bike_id":"dc1334bd-723b-4f47-bb2f-97619ac70217","system_id":"levelo_inurba_marseille","lat":43.324856,"lon":5.365795,"is_reserved":false,"is_disabled":false,"rental_uris":{"android":"levelo://app?vid=dc1334bd-723b-4f47-bb2f-97619ac70217","ios":"levelo://app?vid=dc1334bd-723b-4f47-bb2f-97619ac70217"},"vehicle_type_id":"4","last_reported":1709579136,"current_range_meters":400,"station_id":"ce4bhs12rcd13ifvqhvg","pricing_plan_id":"cebpf4jnsgd1na2vs0mg"},{"bike_id":"82ed7681-ca60-471a-b7ad-f5addd19281a","system_id":"levelo_inurba_marseille","lat":43.324771,"lon":5.36557,"is_reserved":false,"is_disabled":false,"rental_uris":{"android":"levelo://app?vid=82ed7681-ca60-471a-b7ad-f5addd19281a","ios":"levelo://app?vid=82ed7681-ca60-471a-b7ad-f5addd19281a"},"vehicle_type_id":"4","last_reported":1709579136,"current_range_meters":13200,"station_id":"ce4bhs12rcd13ifvqhvg","pricing_plan_id":"cebpf4jnsgd1na2vs0mg"},{"bike_id":"ff5fbc8b-1e80-482a-95ca-5dc176358c45","system_id":"levelo_inurba_marseille","lat":43.31071,"lon":5.38349,"is_reserved":false,"is_disabled":false,"rental_uris":{"android":"levelo://app?vid=ff5fbc8b-1e80-482a-95ca-5dc176358c45","ios":"levelo://app?vid=ff5fbc8b-1e80-482a-95ca-5dc176358c45"},"vehicle_type_id":"4","last_reported":1709579136,"current_range_meters":18000,"station_id":"ce4bgv92rcd13ifvqcr0","pricing_plan_id":"cebpf4jnsgd1na2vs0mg"},{"bike_id":"fc7def00-16b9-4c35-9f77-027aaa94191d","system_id":"levelo_inurba_marseille","lat":43.30289,"lon":5.37692,"is_reserved":false,"is_disabled":false,"rental_uris":{"android":"levelo://app?vid=fc7def00-16b9-4c35-9f77-027aaa94191d","ios":"levelo://app?vid=fc7def00-16b9-4c35-9f77-027aaa94191d"},"vehicle_type_id":"4","last_reported":1709579136,"current_range_meters":8800,"station_id":"ce4bguh2rcd13ifvqcj0","pricing_plan_id":"cebpf4jnsgd1na2vs0mg"},{"bike_id":"59b1d14d-c65f-4ab1-b826-fbacb330635b","system_id":"levelo_inurba_marseille","lat":43.310804,"lon":5.38359,"is_reserved":false,"is_disabled":false,"rental_uris":{"android":"levelo://app?vid=59b1d14d-c65f-4ab1-b826-fbacb330635b","ios":"levelo://app?vid=59b1d14d-c65f-4ab1-b826-fbacb330635b"},"vehicle_type_id":"4","last_reported":1709579136,"current_range_meters":4000,"station_id":"ce4bgv92rcd13ifvqcr0","pricing_plan_id":"cebpf4jnsgd1na2vs0mg"},{"bike_id":"58f13cd2-1148-4200-b3eb-6d6eec917374","system_id":"levelo_inurba_marseille","lat":43.310804,"lon":5.38359,"is_reserved":false,"is_disabled":false,"rental_uris":{"android":"levelo://app?vid=58f13cd2-1148-4200-b3eb-6d6eec917374","ios":"levelo://app?vid=58f13cd2-1148-4200-b3eb-6d6eec917374"},"vehicle_type_id":"4","last_reported":1709579136,"current_range_meters":6400,"station_id":"ce4bgv92rcd13ifvqcr0","pricing_plan_id":"cebpf4jnsgd1na2vs0mg"},{"bike_id":"d96f9f68-b0ed-40fc-ba2c-c7fc3a2c4685","system_id":"levelo_inurba_marseille","lat":43.310697,"lon":5.383563,"is_reserved":false,"is_disabled":false,"rental_uris":{"android":"levelo://app?vid=d96f9f68-b0ed-40fc-ba2c-c7fc3a2c4685","ios":"levelo://app?vid=d96f9f68-b0ed-40fc-ba2c-c7fc3a2c4685"},"vehicle_type_id":"4","last_reported":1709579136,"current_range_meters":25600,"station_id":"ce4bgv92rcd13ifvqcr0","pricing_plan_id":"cebpf4jnsgd1na2vs0mg"},{"bike_id":"1152c726-b4a1-4c48-b5fd-f382c9cac42e","system_id":"levelo_inurba_marseille","lat":43.31066,"lon":5.38357,"is_reserved":false,"is_disabled":false,"rental_uris":{"android":"levelo://app?vid=1152c726-b4a1-4c48-b5fd-f382c9cac42e","ios":"levelo://app?vid=1152c726-b4a1-4c48-b5fd-f382c9cac42e"},"vehicle_type_id":"4","last_reported":1709579136,"current_range_meters":21600,"station_id":"ce4bgv92rcd13ifvqcr0","pricing_plan_id":"cebpf4jnsgd1na2vs0mg"},{"bike_id":"0eb5e81f-0d60-4024-9cbd-587b76d76205","system_id":"levelo_inurba_marseille","lat":43.310727,"lon":5.383648,"is_reserved":false,"is_disabled":false,"rental_uris":{"android":"levelo://app?vid=0eb5e81f-0d60-4024-9cbd-587b76d76205","ios":"levelo://app?vid=0eb5e81f-0d60-4024-9cbd-587b76d76205"},"vehicle_type_id":"4","last_reported":1709579136,"current_range_meters":1200,"station_id":"ce4bgv92rcd13ifvqcr0","pricing_plan_id":"cebpf4jnsgd1na2vs0mg"},{"bike_id":"1dae8cf9-c849-4214-995c-c3ddaf4be958","system_id":"levelo_inurba_marseille","lat":43.310804,"lon":5.38359,"is_reserved":false,"is_disabled":false,"rental_uris":{"android":"levelo://app?vid=1dae8cf9-c849-4214-995c-c3ddaf4be958","ios":"levelo://app?vid=1dae8cf9-c849-4214-995c-c3ddaf4be958"},"vehicle_type_id":"4","last_reported":1709579136,"current_range_meters":3600,"station_id":"ce4bgv92rcd13ifvqcr0","pricing_plan_id":"cebpf4jnsgd1na2vs0mg"},{"bike_id":"ca9e4ff9-27a6-41e9-85d8-1d5d7268deb1","system_id":"levelo_inurba_marseille","lat":43.2968,"lon":5.37291,"is_reserved":false,"is_disabled":false,"rental_uris":{"android":"levelo://app?vid=ca9e4ff9-27a6-41e9-85d8-1d5d7268deb1","ios":"levelo://app?vid=ca9e4ff9-27a6-41e9-85d8-1d5d7268deb1"},"vehicle_type_id":"4","last_reported":1709579136,"current_range_meters":26800,"station_id":"ce4bgk12rcd13ifvqbj0","pricing_plan_id":"cebpf4jnsgd1na2vs0mg"},{"bike_id":"b720f047-50a2-4f1a-99a2-2d9ffd783043","system_id":"levelo_inurba_marseille","lat":43.308012,"lon":5.381511,"is_reserved":false,"is_disabled":false,"rental_uris":{"android":"levelo://app?vid=b720f047-50a2-4f1a-99a2-2d9ffd783043","ios":"levelo://app?vid=b720f047-50a2-4f1a-99a2-2d9ffd783043"},"vehicle_type_id":"4","last_reported":1709579136,"current_range_meters":3200,"station_id":"ce4bgt12rcd13ifvqce0","pricing_plan_id":"cebpf4jnsgd1na2vs0mg"},{"bike_id":"0c57bc0f-c686-45f6-8cd3-57bbd5bbfae1","system_id":"levelo_inurba_marseille","lat":43.319935,"lon":5.381699,"is_reserved":false,"is_disabled":false,"rental_uris":{"android":"levelo://app?vid=0c57bc0f-c686-45f6-8cd3-57bbd5bbfae1","ios":"levelo://app?vid=0c57bc0f-c686-45f6-8cd3-57bbd5bbfae1"},"vehicle_type_id":"4","last_reported":1709579136,"current_range_meters":16000,"station_id":"ce4bhr12rcd13ifvqhpg","pricing_plan_id":"cebpf4jnsgd1na2vs0mg"},{"bike_id":"8657df2a-d1d1-4559-aec1-21bc6e0c89d6","system_id":"levelo_inurba_marseille","lat":43.319935,"lon":5.381699,"is_reserved":false,"is_disabled":false,"rental_uris":{"android":"levelo://app?vid=8657df2a-d1d1-4559-aec1-21bc6e0c89d6","ios":"levelo://app?vid=8657df2a-d1d1-4559-aec1-21bc6e0c89d6"},"vehicle_type_id":"4","last_reported":1709579136,"current_range_meters":13200,"station_id":"ce4bhr12rcd13ifvqhpg","pricing_plan_id":"cebpf4jnsgd1na2vs0mg"},{"bike_id":"0f6587e0-ca76-4334-a858-eaaa6fa4a8d7","system_id":"levelo_inurba_marseille","lat":43.319935,"lon":5.381699,"is_reserved":false,"is_disabled":false,"rental_uris":{"android":"levelo://app?vid=0f6587e0-ca76-4334-a858-eaaa6fa4a8d7","ios":"levelo://app?vid=0f6587e0-ca76-4334-a858-eaaa6fa4a8d7"},"vehicle_type_id":"4","last_reported":1709579136,"current_range_meters":0,"station_id":"ce4bhr12rcd13ifvqhpg","pricing_plan_id":"cebpf4jnsgd1na2vs0mg"},{"bike_id":"c4561512-9b9a-49a4-a664-e0bda83e18e4","system_id":"levelo_inurba_marseille","lat":43.313571,"lon":5.384829,"is_reserved":false,"is_disabled":false,"rental_uris":{"android":"levelo://app?vid=c4561512-9b9a-49a4-a664-e0bda83e18e4","ios":"levelo://app?vid=c4561512-9b9a-49a4-a664-e0bda83e18e4"},"vehicle_type_id":"4","last_reported":1709579136,"current_range_meters":14800,"station_id":"ce4bgt92rcd13ifvqcf0","pricing_plan_id":"cebpf4jnsgd1na2vs0mg"},{"bike_id":"c89050a2-6834-4cec-8bff-a58e5614433c","system_id":"levelo_inurba_marseille","lat":43.313571,"lon":5.384829,"is_reserved":false,"is_disabled":false,"rental_uris":{"android":"levelo://app?vid=c89050a2-6834-4cec-8bff-a58e5614433c","ios":"levelo://app?vid=c89050a2-6834-4cec-8bff-a58e5614433c"},"vehicle_type_id":"4","last_reported":1709579136,"current_range_meters":6000,"station_id":"ce4bgt92rcd13ifvqcf0","pricing_plan_id":"cebpf4jnsgd1na2vs0mg"},{"bike_id":"4faf8d38-aa55-450e-a315-6328e3cce9e3","system_id":"levelo_inurba_marseille","lat":43.319935,"lon":5.381699,"is_reserved":false,"is_disabled":false,"rental_uris":{"android":"levelo://app?vid=4faf8d38-aa55-450e-a315-6328e3cce9e3","ios":"levelo://app?vid=4faf8d38-aa55-450e-a315-6328e3cce9e3"},"vehicle_type_id":"4","last_reported":1709579136,"current_range_meters":21200,"station_id":"ce4bhr12rcd13ifvqhpg","pricing_plan_id":"cebpf4jnsgd1na2vs0mg"},{"bike_id":"92354862-b6b1-4001-b3cf-f73930c6420a","system_id":"levelo_inurba_marseille","lat":43.313571,"lon":5.384829,"is_reserved":false,"is_disabled":false,"rental_uris":{"android":"levelo://app?vid=92354862-b6b1-4001-b3cf-f73930c6420a","ios":"levelo://app?vid=92354862-b6b1-4001-b3cf-f73930c6420a"},"vehicle_type_id":"4","last_reported":1709579136,"current_range_meters":30400,"station_id":"ce4bgt92rcd13ifvqcf0","pricing_plan_id":"cebpf4jnsgd1na2vs0mg"},{"bike_id":"eb32643b-40d7-4c67-be6d-6a3297b97b72","system_id":"levelo_inurba_marseille","lat":43.313571,"lon":5.384829,"is_reserved":false,"is_disabled":false,"rental_uris":{"android":"levelo://app?vid=eb32643b-40d7-4c67-be6d-6a3297b97b72","ios":"levelo://app?vid=eb32643b-40d7-4c67-be6d-6a3297b97b72"},"vehicle_type_id":"4","last_reported":1709579136,"current_range_meters":0,"station_id":"ce4bgt92rcd13ifvqcf0","pricing_plan_id":"cebpf4jnsgd1na2vs0mg"},{"bike_id":"373a5e47-3de3-4eba-8e25-ac4acd5008b9","system_id":"levelo_inurba_marseille","lat":43.299222,"lon":5.365554,"is_reserved":false,"is_disabled":false,"rental_uris":{"android":"levelo://app?vid=373a5e47-3de3-4eba-8e25-ac4acd5008b9","ios":"levelo://app?vid=373a5e47-3de3-4eba-8e25-ac4acd5008b9"},"vehicle_type_id":"4","last_reported":1709579136,"current_range_meters":18800,"station_id":"ce4bgm92rcd13ifvqbr0","pricing_plan_id":"cebpf4jnsgd1na2vs0mg"},{"bike_id":"e8784999-1817-4dad-98f7-291999df2280","system_id":"levelo_inurba_marseille","lat":43.299761,"lon":5.371709,"is_reserved":false,"is_disabled":false,"rental_uris":{"android":"levelo://app?vid=e8784999-1817-4dad-98f7-291999df2280","ios":"levelo://app?vid=e8784999-1817-4dad-98f7-291999df2280"},"vehicle_type_id":"4","last_reported":1709579136,"current_range_meters":26400,"station_id":"ce4bgr92rcd13ifvqc7g","pricing_plan_id":"cebpf4jnsgd1na2vs0mg"},{"bike_id":"de715efc-c6f1-479b-a104-1d1f95f13ed1","system_id":"levelo_inurba_marseille","lat":43.299209,"lon":5.365547,"is_reserved":false,"is_disabled":false,"rental_uris":{"android":"levelo://app?vid=de715efc-c6f1-479b-a104-1d1f95f13ed1","ios":"levelo://app?vid=de715efc-c6f1-479b-a104-1d1f95f13ed1"},"vehicle_type_id":"4","last_reported":1709579136,"current_range_meters":8800,"station_id":"ce4bgm92rcd13ifvqbr0","pricing_plan_id":"cebpf4jnsgd1na2vs0mg"},{"bike_id":"dba0c4bf-2a52-4fc8-aec1-114362676c29","system_id":"levelo_inurba_marseille","lat":43.299209,"lon":5.365547,"is_reserved":false,"is_disabled":false,"rental_uris":{"android":"levelo://app?vid=dba0c4bf-2a52-4fc8-aec1-114362676c29","ios":"levelo://app?vid=dba0c4bf-2a52-4fc8-aec1-114362676c29"},"vehicle_type_id":"4","last_reported":1709579136,"current_range_meters":23200,"station_id":"ce4bgm92rcd13ifvqbr0","pricing_plan_id":"cebpf4jnsgd1na2vs0mg"},{"bike_id":"d03ea3c1-5841-4ee5-b3f2-1dbf95929e8b","system_id":"levelo_inurba_marseille","lat":43.298433,"lon":5.362774,"is_reserved":false,"is_disabled":false,"rental_uris":{"android":"levelo://app?vid=d03ea3c1-5841-4ee5-b3f2-1dbf95929e8b","ios":"levelo://app?vid=d03ea3c1-5841-4ee5-b3f2-1dbf95929e8b"},"vehicle_type_id":"4","last_reported":1709579136,"current_range_meters":11200,"station_id":"ce4bgpp2rcd13ifvqc3g","pricing_plan_id":"cebpf4jnsgd1na2vs0mg"},{"bike_id":"6b3102c9-ab5a-4142-beab-66bb2d0d309c","system_id":"levelo_inurba_marseille","lat":43.298433,"lon":5.362774,"is_reserved":false,"is_disabled":false,"rental_uris":{"android":"levelo://app?vid=6b3102c9-ab5a-4142-beab-66bb2d0d309c","ios":"levelo://app?vid=6b3102c9-ab5a-4142-beab-66bb2d0d309c"},"vehicle_type_id":"4","last_reported":1709579136,"current_range_meters":14000,"station_id":"ce4bgpp2rcd13ifvqc3g","pricing_plan_id":"cebpf4jnsgd1na2vs0mg"},{"bike_id":"09323236-d0cc-4eb0-ad86-03027649af94","system_id":"levelo_inurba_marseille","lat":43.298433,"lon":5.362774,"is_reserved":false,"is_disabled":false,"rental_uris":{"android":"levelo://app?vid=09323236-d0cc-4eb0-ad86-03027649af94","ios":"levelo://app?vid=09323236-d0cc-4eb0-ad86-03027649af94"},"vehicle_type_id":"4","last_reported":1709579136,"current_range_meters":3200,"station_id":"ce4bgpp2rcd13ifvqc3g","pricing_plan_id":"cebpf4jnsgd1na2vs0mg"},{"bike_id":"6c64887c-9edc-4998-aedc-63db47511459","system_id":"levelo_inurba_marseille","lat":43.298433,"lon":5.362774,"is_reserved":false,"is_disabled":false,"rental_uris":{"android":"levelo://app?vid=6c64887c-9edc-4998-aedc-63db47511459","ios":"levelo://app?vid=6c64887c-9edc-4998-aedc-63db47511459"},"vehicle_type_id":"4","last_reported":1709579136,"current_range_meters":7200,"station_id":"ce4bgpp2rcd13ifvqc3g","pricing_plan_id":"cebpf4jnsgd1na2vs0mg"},{"bike_id":"18917f5a-4d11-4e9e-9c7b-d81afe3de7f9","system_id":"levelo_inurba_marseille","lat":43.298433,"lon":5.362774,"is_reserved":false,"is_disabled":false,"rental_uris":{"android":"levelo://app?vid=18917f5a-4d11-4e9e-9c7b-d81afe3de7f9","ios":"levelo://app?vid=18917f5a-4d11-4e9e-9c7b-d81afe3de7f9"},"vehicle_type_id":"4","last_reported":1709579136,"current_range_meters":17200,"station_id":"ce4bgpp2rcd13ifvqc3g","pricing_plan_id":"cebpf4jnsgd1na2vs0mg"},{"bike_id":"2d890c73-e283-4534-8160-e6ab3f6b8677","system_id":"levelo_inurba_marseille","lat":43.298433,"lon":5.362774,"is_reserved":false,"is_disabled":false,"rental_uris":{"android":"levelo://app?vid=2d890c73-e283-4534-8160-e6ab3f6b8677","ios":"levelo://app?vid=2d890c73-e283-4534-8160-e6ab3f6b8677"},"vehicle_type_id":"4","last_reported":1709579136,"current_range_meters":31200,"station_id":"ce4bgpp2rcd13ifvqc3g","pricing_plan_id":"cebpf4jnsgd1na2vs0mg"},{"bike_id":"230c5c6c-69fc-4cc7-b112-fc6b434ed815","system_id":"levelo_inurba_marseille","lat":43.2985,"lon":5.36285,"is_reserved":false,"is_disabled":false,"rental_uris":{"android":"levelo://app?vid=230c5c6c-69fc-4cc7-b112-fc6b434ed815","ios":"levelo://app?vid=230c5c6c-69fc-4cc7-b112-fc6b434ed815"},"vehicle_type_id":"4","last_reported":1709579136,"current_range_meters":17600,"station_id":"ce4bgpp2rcd13ifvqc3g","pricing_plan_id":"cebpf4jnsgd1na2vs0mg"},{"bike_id":"427153b5-e577-44d9-bbb2-c62722e42933","system_id":"levelo_inurba_marseille","lat":43.29849,"lon":5.36286,"is_reserved":false,"is_disabled":false,"rental_uris":{"android":"levelo://app?vid=427153b5-e577-44d9-bbb2-c62722e42933","ios":"levelo://app?vid=427153b5-e577-44d9-bbb2-c62722e42933"},"vehicle_type_id":"4","last_reported":1709579136,"current_range_meters":12000,"station_id":"ce4bgpp2rcd13ifvqc3g","pricing_plan_id":"cebpf4jnsgd1na2vs0mg"},{"bike_id":"ab22a54e-516f-4ad5-bc4f-e7cbf6e7951f","system_id":"levelo_inurba_marseille","lat":43.2985,"lon":5.36279,"is_reserved":false,"is_disabled":false,"rental_uris":{"android":"levelo://app?vid=ab22a54e-516f-4ad5-bc4f-e7cbf6e7951f","ios":"levelo://app?vid=ab22a54e-516f-4ad5-bc4f-e7cbf6e7951f"},"vehicle_type_id":"4","last_reported":1709579136,"current_range_meters":0,"station_id":"ce4bgpp2rcd13ifvqc3g","pricing_plan_id":"cebpf4jnsgd1na2vs0mg"},{"bike_id":"be7c449e-6382-438a-86ac-5328fe7e7bb7","system_id":"levelo_inurba_marseille","lat":43.2985,"lon":5.36276,"is_reserved":false,"is_disabled":false,"rental_uris":{"android":"levelo://app?vid=be7c449e-6382-438a-86ac-5328fe7e7bb7","ios":"levelo://app?vid=be7c449e-6382-438a-86ac-5328fe7e7bb7"},"vehicle_type_id":"4","last_reported":1709579136,"current_range_meters":17200,"station_id":"ce4bgpp2rcd13ifvqc3g","pricing_plan_id":"cebpf4jnsgd1na2vs0mg"},{"bike_id":"53945259-a7ec-4859-b4ea-46ad0a96f35d","system_id":"levelo_inurba_marseille","lat":43.29848,"lon":5.36286,"is_reserved":false,"is_disabled":false,"rental_uris":{"android":"levelo://app?vid=53945259-a7ec-4859-b4ea-46ad0a96f35d","ios":"levelo://app?vid=53945259-a7ec-4859-b4ea-46ad0a96f35d"},"vehicle_type_id":"4","last_reported":1709579136,"current_range_meters":4000,"station_id":"ce4bgpp2rcd13ifvqc3g","pricing_plan_id":"cebpf4jnsgd1na2vs0mg"},{"bike_id":"c35a625c-1179-4477-b4df-5ebbff1565f0","system_id":"levelo_inurba_marseille","lat":43.298486,"lon":5.362778,"is_reserved":false,"is_disabled":false,"rental_uris":{"android":"levelo://app?vid=c35a625c-1179-4477-b4df-5ebbff1565f0","ios":"levelo://app?vid=c35a625c-1179-4477-b4df-5ebbff1565f0"},"vehicle_type_id":"4","last_reported":1709579136,"current_range_meters":16400,"station_id":"ce4bgpp2rcd13ifvqc3g","pricing_plan_id":"cebpf4jnsgd1na2vs0mg"},{"bike_id":"399ce9e0-9926-4ee2-824e-6465440872e4","system_id":"levelo_inurba_marseille","lat":43.305409,"lon":5.384232,"is_reserved":false,"is_disabled":false,"rental_uris":{"android":"levelo://app?vid=399ce9e0-9926-4ee2-824e-6465440872e4","ios":"levelo://app?vid=399ce9e0-9926-4ee2-824e-6465440872e4"},"vehicle_type_id":"4","last_reported":1709579136,"current_range_meters":30000,"station_id":"ce4bgg92rcd13ifvqb30","pricing_plan_id":"cebpf4jnsgd1na2vs0mg"},{"bike_id":"5e3f4cbc-2c13-49c2-bba4-7d996a7dfd7f","system_id":"levelo_inurba_marseille","lat":43.298433,"lon":5.362774,"is_reserved":false,"is_disabled":false,"rental_uris":{"android":"levelo://app?vid=5e3f4cbc-2c13-49c2-bba4-7d996a7dfd7f","ios":"levelo://app?vid=5e3f4cbc-2c13-49c2-bba4-7d996a7dfd7f"},"vehicle_type_id":"4","last_reported":1709579136,"current_range_meters":18000,"station_id":"ce4bgpp2rcd13ifvqc3g","pricing_plan_id":"cebpf4jnsgd1na2vs0mg"},{"bike_id":"1f536ec9-3e08-43ba-8712-480cd7c641a6","system_id":"levelo_inurba_marseille","lat":43.29848,"lon":5.36278,"is_reserved":false,"is_disabled":false,"rental_uris":{"android":"levelo://app?vid=1f536ec9-3e08-43ba-8712-480cd7c641a6","ios":"levelo://app?vid=1f536ec9-3e08-43ba-8712-480cd7c641a6"},"vehicle_type_id":"4","last_reported":1709579136,"current_range_meters":13600,"station_id":"ce4bgpp2rcd13ifvqc3g","pricing_plan_id":"cebpf4jnsgd1na2vs0mg"},{"bike_id":"b50aaa06-335d-4bb1-9413-7f1f2b5f9c28","system_id":"levelo_inurba_marseille","lat":43.298433,"lon":5.362774,"is_reserved":false,"is_disabled":false,"rental_uris":{"android":"levelo://app?vid=b50aaa06-335d-4bb1-9413-7f1f2b5f9c28","ios":"levelo://app?vid=b50aaa06-335d-4bb1-9413-7f1f2b5f9c28"},"vehicle_type_id":"4","last_reported":1709579136,"current_range_meters":9200,"station_id":"ce4bgpp2rcd13ifvqc3g","pricing_plan_id":"cebpf4jnsgd1na2vs0mg"},{"bike_id":"1fd0c6ce-3eea-4ba2-ad09-9612a0cde66a","system_id":"levelo_inurba_marseille","lat":43.29848,"lon":5.36274,"is_reserved":false,"is_disabled":false,"rental_uris":{"android":"levelo://app?vid=1fd0c6ce-3eea-4ba2-ad09-9612a0cde66a","ios":"levelo://app?vid=1fd0c6ce-3eea-4ba2-ad09-9612a0cde66a"},"vehicle_type_id":"4","last_reported":1709579136,"current_range_meters":18000,"station_id":"ce4bgpp2rcd13ifvqc3g","pricing_plan_id":"cebpf4jnsgd1na2vs0mg"},{"bike_id":"0234e914-57a1-4df7-9e1f-9733b1fdfe3f","system_id":"levelo_inurba_marseille","lat":43.305418,"lon":5.384258,"is_reserved":false,"is_disabled":false,"rental_uris":{"android":"levelo://app?vid=0234e914-57a1-4df7-9e1f-9733b1fdfe3f","ios":"levelo://app?vid=0234e914-57a1-4df7-9e1f-9733b1fdfe3f"},"vehicle_type_id":"4","last_reported":1709579136,"current_range_meters":31200,"station_id":"ce4bgg92rcd13ifvqb30","pricing_plan_id":"cebpf4jnsgd1na2vs0mg"},{"bike_id":"c6c02094-2e0a-403c-afe2-2be9f0805fb1","system_id":"levelo_inurba_marseille","lat":43.29846,"lon":5.36278,"is_reserved":false,"is_disabled":false,"rental_uris":{"android":"levelo://app?vid=c6c02094-2e0a-403c-afe2-2be9f0805fb1","ios":"levelo://app?vid=c6c02094-2e0a-403c-afe2-2be9f0805fb1"},"vehicle_type_id":"4","last_reported":1709579136,"current_range_meters":4400,"station_id":"ce4bgpp2rcd13ifvqc3g","pricing_plan_id":"cebpf4jnsgd1na2vs0mg"},{"bike_id":"f22becab-1bd0-4e8c-b768-5001edbfa825","system_id":"levelo_inurba_marseille","lat":43.29846,"lon":5.36278,"is_reserved":false,"is_disabled":false,"rental_uris":{"android":"levelo://app?vid=f22becab-1bd0-4e8c-b768-5001edbfa825","ios":"levelo://app?vid=f22becab-1bd0-4e8c-b768-5001edbfa825"},"vehicle_type_id":"4","last_reported":1709579136,"current_range_meters":3600,"station_id":"ce4bgpp2rcd13ifvqc3g","pricing_plan_id":"cebpf4jnsgd1na2vs0mg"},{"bike_id":"010295eb-ce4c-486c-8e1e-eec11668d3c4","system_id":"levelo_inurba_marseille","lat":43.298433,"lon":5.362774,"is_reserved":false,"is_disabled":false,"rental_uris":{"android":"levelo://app?vid=010295eb-ce4c-486c-8e1e-eec11668d3c4","ios":"levelo://app?vid=010295eb-ce4c-486c-8e1e-eec11668d3c4"},"vehicle_type_id":"4","last_reported":1709579136,"current_range_meters":2400,"station_id":"ce4bgpp2rcd13ifvqc3g","pricing_plan_id":"cebpf4jnsgd1na2vs0mg"},{"bike_id":"30296a41-468b-4ae5-9854-5aa9cdaa40a4","system_id":"levelo_inurba_marseille","lat":43.29846,"lon":5.36275,"is_reserved":false,"is_disabled":false,"rental_uris":{"android":"levelo://app?vid=30296a41-468b-4ae5-9854-5aa9cdaa40a4","ios":"levelo://app?vid=30296a41-468b-4ae5-9854-5aa9cdaa40a4"},"vehicle_type_id":"4","last_reported":1709579136,"current_range_meters":14000,"station_id":"ce4bgpp2rcd13ifvqc3g","pricing_plan_id":"cebpf4jnsgd1na2vs0mg"},{"bike_id":"66869e11-19d6-4966-8da8-833c6b7d42f9","system_id":"levelo_inurba_marseille","lat":43.29846,"lon":5.36274,"is_reserved":false,"is_disabled":false,"rental_uris":{"android":"levelo://app?vid=66869e11-19d6-4966-8da8-833c6b7d42f9","ios":"levelo://app?vid=66869e11-19d6-4966-8da8-833c6b7d42f9"},"vehicle_type_id":"4","last_reported":1709579136,"current_range_meters":12800,"station_id":"ce4bgpp2rcd13ifvqc3g","pricing_plan_id":"cebpf4jnsgd1na2vs0mg"},{"bike_id":"4037ab20-77ec-4917-86a1-f6f5e4f15c73","system_id":"levelo_inurba_marseille","lat":43.29846,"lon":5.36271,"is_reserved":false,"is_disabled":false,"rental_uris":{"android":"levelo://app?vid=4037ab20-77ec-4917-86a1-f6f5e4f15c73","ios":"levelo://app?vid=4037ab20-77ec-4917-86a1-f6f5e4f15c73"},"vehicle_type_id":"4","last_reported":1709579136,"current_range_meters":20800,"station_id":"ce4bgpp2rcd13ifvqc3g","pricing_plan_id":"cebpf4jnsgd1na2vs0mg"},{"bike_id":"b5ec22b4-543b-4512-9116-6d686f9a242f","system_id":"levelo_inurba_marseille","lat":43.29845,"lon":5.36277,"is_reserved":false,"is_disabled":false,"rental_uris":{"android":"levelo://app?vid=b5ec22b4-543b-4512-9116-6d686f9a242f","ios":"levelo://app?vid=b5ec22b4-543b-4512-9116-6d686f9a242f"},"vehicle_type_id":"4","last_reported":1709579136,"current_range_meters":30000,"station_id":"ce4bgpp2rcd13ifvqc3g","pricing_plan_id":"cebpf4jnsgd1na2vs0mg"},{"bike_id":"5462c17e-9223-432e-a625-84d88505ed90","system_id":"levelo_inurba_marseille","lat":43.298472,"lon":5.362628,"is_reserved":false,"is_disabled":false,"rental_uris":{"android":"levelo://app?vid=5462c17e-9223-432e-a625-84d88505ed90","ios":"levelo://app?vid=5462c17e-9223-432e-a625-84d88505ed90"},"vehicle_type_id":"4","last_reported":1709579136,"current_range_meters":7200,"station_id":"ce4bgpp2rcd13ifvqc3g","pricing_plan_id":"cebpf4jnsgd1na2vs0mg"},{"bike_id":"44fb7a54-69c5-4d05-add5-10ef1de0734b","system_id":"levelo_inurba_marseille","lat":43.305353,"lon":5.384245,"is_reserved":false,"is_disabled":false,"rental_uris":{"android":"levelo://app?vid=44fb7a54-69c5-4d05-add5-10ef1de0734b","ios":"levelo://app?vid=44fb7a54-69c5-4d05-add5-10ef1de0734b"},"vehicle_type_id":"4","last_reported":1709579136,"current_range_meters":27200,"station_id":"ce4bgg92rcd13ifvqb30","pricing_plan_id":"cebpf4jnsgd1na2vs0mg"},{"bike_id":"2033ceca-a5ca-4bb2-8bea-42d3efd5a5cb","system_id":"levelo_inurba_marseille","lat":43.29845,"lon":5.36273,"is_reserved":false,"is_disabled":false,"rental_uris":{"android":"levelo://app?vid=2033ceca-a5ca-4bb2-8bea-42d3efd5a5cb","ios":"levelo://app?vid=2033ceca-a5ca-4bb2-8bea-42d3efd5a5cb"},"vehicle_type_id":"4","last_reported":1709579136,"current_range_meters":21200,"station_id":"ce4bgpp2rcd13ifvqc3g","pricing_plan_id":"cebpf4jnsgd1na2vs0mg"},{"bike_id":"dedd52ba-b1ee-429a-96e2-71cf3ada41a1","system_id":"levelo_inurba_marseille","lat":43.29845,"lon":5.36271,"is_reserved":false,"is_disabled":false,"rental_uris":{"android":"levelo://app?vid=dedd52ba-b1ee-429a-96e2-71cf3ada41a1","ios":"levelo://app?vid=dedd52ba-b1ee-429a-96e2-71cf3ada41a1"},"vehicle_type_id":"4","last_reported":1709579136,"current_range_meters":12400,"station_id":"ce4bgpp2rcd13ifvqc3g","pricing_plan_id":"cebpf4jnsgd1na2vs0mg"},{"bike_id":"6dbff0a7-78fc-4832-9cd2-2ea93e222918","system_id":"levelo_inurba_marseille","lat":43.29844,"lon":5.36277,"is_reserved":false,"is_disabled":false,"rental_uris":{"android":"levelo://app?vid=6dbff0a7-78fc-4832-9cd2-2ea93e222918","ios":"levelo://app?vid=6dbff0a7-78fc-4832-9cd2-2ea93e222918"},"vehicle_type_id":"4","last_reported":1709579136,"current_range_meters":6800,"station_id":"ce4bgpp2rcd13ifvqc3g","pricing_plan_id":"cebpf4jnsgd1na2vs0mg"},{"bike_id":"194ead90-e7df-425a-bd91-067a1f07387f","system_id":"levelo_inurba_marseille","lat":43.29845,"lon":5.3627,"is_reserved":false,"is_disabled":false,"rental_uris":{"android":"levelo://app?vid=194ead90-e7df-425a-bd91-067a1f07387f","ios":"levelo://app?vid=194ead90-e7df-425a-bd91-067a1f07387f"},"vehicle_type_id":"4","last_reported":1709579136,"current_range_meters":28400,"station_id":"ce4bgpp2rcd13ifvqc3g","pricing_plan_id":"cebpf4jnsgd1na2vs0mg"},{"bike_id":"c84d2a35-a186-4091-a5d2-fa8f5cab42a1","system_id":"levelo_inurba_marseille","lat":43.29843,"lon":5.36277,"is_reserved":false,"is_disabled":false,"rental_uris":{"android":"levelo://app?vid=c84d2a35-a186-4091-a5d2-fa8f5cab42a1","ios":"levelo://app?vid=c84d2a35-a186-4091-a5d2-fa8f5cab42a1"},"vehicle_type_id":"4","last_reported":1709579136,"current_range_meters":20000,"station_id":"ce4bgpp2rcd13ifvqc3g","pricing_plan_id":"cebpf4jnsgd1na2vs0mg"},{"bike_id":"24e33db0-cafc-4549-9f15-a44b4a466d09","system_id":"levelo_inurba_marseille","lat":43.29843,"lon":5.36275,"is_reserved":false,"is_disabled":false,"rental_uris":{"android":"levelo://app?vid=24e33db0-cafc-4549-9f15-a44b4a466d09","ios":"levelo://app?vid=24e33db0-cafc-4549-9f15-a44b4a466d09"},"vehicle_type_id":"4","last_reported":1709579136,"current_range_meters":4800,"station_id":"ce4bgpp2rcd13ifvqc3g","pricing_plan_id":"cebpf4jnsgd1na2vs0mg"},{"bike_id":"b056d3fc-9d2a-42be-a1c8-1b0336084ad2","system_id":"levelo_inurba_marseille","lat":43.29843,"lon":5.36272,"is_reserved":false,"is_disabled":false,"rental_uris":{"android":"levelo://app?vid=b056d3fc-9d2a-42be-a1c8-1b0336084ad2","ios":"levelo://app?vid=b056d3fc-9d2a-42be-a1c8-1b0336084ad2"},"vehicle_type_id":"4","last_reported":1709579136,"current_range_meters":17200,"station_id":"ce4bgpp2rcd13ifvqc3g","pricing_plan_id":"cebpf4jnsgd1na2vs0mg"},{"bike_id":"ec4f324e-9824-4e66-aad2-3a49c4b22ef3","system_id":"levelo_inurba_marseille","lat":43.29843,"lon":5.36268,"is_reserved":false,"is_disabled":false,"rental_uris":{"android":"levelo://app?vid=ec4f324e-9824-4e66-aad2-3a49c4b22ef3","ios":"levelo://app?vid=ec4f324e-9824-4e66-aad2-3a49c4b22ef3"},"vehicle_type_id":"4","last_reported":1709579136,"current_range_meters":0,"station_id":"ce4bgpp2rcd13ifvqc3g","pricing_plan_id":"cebpf4jnsgd1na2vs0mg"},{"bike_id":"130216b3-4936-4050-b559-70575b1412a8","system_id":"levelo_inurba_marseille","lat":43.29843,"lon":5.36266,"is_reserved":false,"is_disabled":false,"rental_uris":{"android":"levelo://app?vid=130216b3-4936-4050-b559-70575b1412a8","ios":"levelo://app?vid=130216b3-4936-4050-b559-70575b1412a8"},"vehicle_type_id":"4","last_reported":1709579136,"current_range_meters":8800,"station_id":"ce4bgpp2rcd13ifvqc3g","pricing_plan_id":"cebpf4jnsgd1na2vs0mg"},{"bike_id":"d937bebb-f8b6-4f85-ad85-44adeba94a60","system_id":"levelo_inurba_marseille","lat":43.29842,"lon":5.3627,"is_reserved":false,"is_disabled":false,"rental_uris":{"android":"levelo://app?vid=d937bebb-f8b6-4f85-ad85-44adeba94a60","ios":"levelo://app?vid=d937bebb-f8b6-4f85-ad85-44adeba94a60"},"vehicle_type_id":"4","last_reported":1709579136,"current_range_meters":1200,"station_id":"ce4bgpp2rcd13ifvqc3g","pricing_plan_id":"cebpf4jnsgd1na2vs0mg"},{"bike_id":"263aafda-f1bd-42cb-bb48-54d3bfed4c00","system_id":"levelo_inurba_marseille","lat":43.29842,"lon":5.36269,"is_reserved":false,"is_disabled":false,"rental_uris":{"android":"levelo://app?vid=263aafda-f1bd-42cb-bb48-54d3bfed4c00","ios":"levelo://app?vid=263aafda-f1bd-42cb-bb48-54d3bfed4c00"},"vehicle_type_id":"4","last_reported":1709579136,"current_range_meters":16000,"station_id":"ce4bgpp2rcd13ifvqc3g","pricing_plan_id":"cebpf4jnsgd1na2vs0mg"},{"bike_id":"8d828acd-ad8c-4430-a229-cc536ad862a5","system_id":"levelo_inurba_marseille","lat":43.29842,"lon":5.36267,"is_reserved":false,"is_disabled":false,"rental_uris":{"android":"levelo://app?vid=8d828acd-ad8c-4430-a229-cc536ad862a5","ios":"levelo://app?vid=8d828acd-ad8c-4430-a229-cc536ad862a5"},"vehicle_type_id":"4","last_reported":1709579136,"current_range_meters":0,"station_id":"ce4bgpp2rcd13ifvqc3g","pricing_plan_id":"cebpf4jnsgd1na2vs0mg"},{"bike_id":"72e90e81-4f3b-49c6-afb2-0ecae053b7b7","system_id":"levelo_inurba_marseille","lat":43.29841,"lon":5.36267,"is_reserved":false,"is_disabled":false,"rental_uris":{"android":"levelo://app?vid=72e90e81-4f3b-49c6-afb2-0ecae053b7b7","ios":"levelo://app?vid=72e90e81-4f3b-49c6-afb2-0ecae053b7b7"},"vehicle_type_id":"4","last_reported":1709579136,"current_range_meters":22400,"station_id":"ce4bgpp2rcd13ifvqc3g","pricing_plan_id":"cebpf4jnsgd1na2vs0mg"},{"bike_id":"0a17d6ec-0895-408f-a7a7-63fdb335e170","system_id":"levelo_inurba_marseille","lat":43.29841,"lon":5.36267,"is_reserved":false,"is_disabled":false,"rental_uris":{"android":"levelo://app?vid=0a17d6ec-0895-408f-a7a7-63fdb335e170","ios":"levelo://app?vid=0a17d6ec-0895-408f-a7a7-63fdb335e170"},"vehicle_type_id":"4","last_reported":1709579136,"current_range_meters":27200,"station_id":"ce4bgpp2rcd13ifvqc3g","pricing_plan_id":"cebpf4jnsgd1na2vs0mg"},{"bike_id":"d193040b-7ede-451f-9daa-67be0c5dcbdc","system_id":"levelo_inurba_marseille","lat":43.2984,"lon":5.3627,"is_reserved":false,"is_disabled":false,"rental_uris":{"android":"levelo://app?vid=d193040b-7ede-451f-9daa-67be0c5dcbdc","ios":"levelo://app?vid=d193040b-7ede-451f-9daa-67be0c5dcbdc"},"vehicle_type_id":"4","last_reported":1709579136,"current_range_meters":24400,"station_id":"ce4bgpp2rcd13ifvqc3g","pricing_plan_id":"cebpf4jnsgd1na2vs0mg"},{"bike_id":"fb4e363a-9d98-485e-8470-114e7bb65d4b","system_id":"levelo_inurba_marseille","lat":43.298433,"lon":5.362774,"is_reserved":false,"is_disabled":false,"rental_uris":{"android":"levelo://app?vid=fb4e363a-9d98-485e-8470-114e7bb65d4b","ios":"levelo://app?vid=fb4e363a-9d98-485e-8470-114e7bb65d4b"},"vehicle_type_id":"4","last_reported":1709579136,"current_range_meters":4000,"station_id":"ce4bgpp2rcd13ifvqc3g","pricing_plan_id":"cebpf4jnsgd1na2vs0mg"},{"bike_id":"77c4f418-931d-42a6-aecc-4a519006543f","system_id":"levelo_inurba_marseille","lat":43.2984,"lon":5.36268,"is_reserved":false,"is_disabled":false,"rental_uris":{"android":"levelo://app?vid=77c4f418-931d-42a6-aecc-4a519006543f","ios":"levelo://app?vid=77c4f418-931d-42a6-aecc-4a519006543f"},"vehicle_type_id":"4","last_reported":1709579136,"current_range_meters":2400,"station_id":"ce4bgpp2rcd13ifvqc3g","pricing_plan_id":"cebpf4jnsgd1na2vs0mg"},{"bike_id":"a303e2e0-ddc2-4cf8-b583-59f2ab99e4c3","system_id":"levelo_inurba_marseille","lat":43.29839,"lon":5.36268,"is_reserved":false,"is_disabled":false,"rental_uris":{"android":"levelo://app?vid=a303e2e0-ddc2-4cf8-b583-59f2ab99e4c3","ios":"levelo://app?vid=a303e2e0-ddc2-4cf8-b583-59f2ab99e4c3"},"vehicle_type_id":"4","last_reported":1709579136,"current_range_meters":5600,"station_id":"ce4bgpp2rcd13ifvqc3g","pricing_plan_id":"cebpf4jnsgd1na2vs0mg"},{"bike_id":"9ac1bf97-0bac-488c-9ad9-af359e1e1600","system_id":"levelo_inurba_marseille","lat":43.29838,"lon":5.3627,"is_reserved":false,"is_disabled":false,"rental_uris":{"android":"levelo://app?vid=9ac1bf97-0bac-488c-9ad9-af359e1e1600","ios":"levelo://app?vid=9ac1bf97-0bac-488c-9ad9-af359e1e1600"},"vehicle_type_id":"4","last_reported":1709579136,"current_range_meters":23600,"station_id":"ce4bgpp2rcd13ifvqc3g","pricing_plan_id":"cebpf4jnsgd1na2vs0mg"},{"bike_id":"82a6504d-c1f4-486e-b8d1-8a9013473313","system_id":"levelo_inurba_marseille","lat":43.31182,"lon":5.38707,"is_reserved":false,"is_disabled":false,"rental_uris":{"android":"levelo://app?vid=82a6504d-c1f4-486e-b8d1-8a9013473313","ios":"levelo://app?vid=82a6504d-c1f4-486e-b8d1-8a9013473313"},"vehicle_type_id":"4","last_reported":1709579136,"current_range_meters":23600,"station_id":"ce4bgv12rcd13ifvqcp0","pricing_plan_id":"cebpf4jnsgd1na2vs0mg"},{"bike_id":"a59d4454-f4c8-4f6f-8071-13c0fc3c0873","system_id":"levelo_inurba_marseille","lat":43.29839,"lon":5.36262,"is_reserved":false,"is_disabled":false,"rental_uris":{"android":"levelo://app?vid=a59d4454-f4c8-4f6f-8071-13c0fc3c0873","ios":"levelo://app?vid=a59d4454-f4c8-4f6f-8071-13c0fc3c0873"},"vehicle_type_id":"4","last_reported":1709579136,"current_range_meters":8000,"station_id":"ce4bgpp2rcd13ifvqc3g","pricing_plan_id":"cebpf4jnsgd1na2vs0mg"},{"bike_id":"2873b9c3-d2db-4ee3-9ce1-31f4086e2d94","system_id":"levelo_inurba_marseille","lat":43.299243,"lon":5.374807,"is_reserved":false,"is_disabled":false,"rental_uris":{"android":"levelo://app?vid=2873b9c3-d2db-4ee3-9ce1-31f4086e2d94","ios":"levelo://app?vid=2873b9c3-d2db-4ee3-9ce1-31f4086e2d94"},"vehicle_type_id":"4","last_reported":1709579136,"current_range_meters":31200,"station_id":"ce4bgjh2rcd13ifvqbg0","pricing_plan_id":"cebpf4jnsgd1na2vs0mg"},{"bike_id":"66ef1af1-196a-4415-b0e9-a40a2b04461c","system_id":"levelo_inurba_marseille","lat":43.31182,"lon":5.38711,"is_reserved":false,"is_disabled":false,"rental_uris":{"android":"levelo://app?vid=66ef1af1-196a-4415-b0e9-a40a2b04461c","ios":"levelo://app?vid=66ef1af1-196a-4415-b0e9-a40a2b04461c"},"vehicle_type_id":"4","last_reported":1709579136,"current_range_meters":28800,"station_id":"ce4bgv12rcd13ifvqcp0","pricing_plan_id":"cebpf4jnsgd1na2vs0mg"},{"bike_id":"f724532b-aa47-48bf-ae61-b323e29c9824","system_id":"levelo_inurba_marseille","lat":43.311722,"lon":5.387247,"is_reserved":false,"is_disabled":false,"rental_uris":{"android":"levelo://app?vid=f724532b-aa47-48bf-ae61-b323e29c9824","ios":"levelo://app?vid=f724532b-aa47-48bf-ae61-b323e29c9824"},"vehicle_type_id":"4","last_reported":1709579136,"current_range_meters":400,"station_id":"ce4bgv12rcd13ifvqcp0","pricing_plan_id":"cebpf4jnsgd1na2vs0mg"},{"bike_id":"3927f6d2-22f2-482f-829f-ced49375b703","system_id":"levelo_inurba_marseille","lat":43.311722,"lon":5.387247,"is_reserved":false,"is_disabled":false,"rental_uris":{"android":"levelo://app?vid=3927f6d2-22f2-482f-829f-ced49375b703","ios":"levelo://app?vid=3927f6d2-22f2-482f-829f-ced49375b703"},"vehicle_type_id":"4","last_reported":1709579136,"current_range_meters":31200,"station_id":"ce4bgv12rcd13ifvqcp0","pricing_plan_id":"cebpf4jnsgd1na2vs0mg"},{"bike_id":"bec2c1c1-c8e4-4052-aa2e-5597d65bd8c7","system_id":"levelo_inurba_marseille","lat":43.311847,"lon":5.387148,"is_reserved":false,"is_disabled":false,"rental_uris":{"android":"levelo://app?vid=bec2c1c1-c8e4-4052-aa2e-5597d65bd8c7","ios":"levelo://app?vid=bec2c1c1-c8e4-4052-aa2e-5597d65bd8c7"},"vehicle_type_id":"4","last_reported":1709579136,"current_range_meters":24000,"station_id":"ce4bgv12rcd13ifvqcp0","pricing_plan_id":"cebpf4jnsgd1na2vs0mg"},{"bike_id":"1bbd253c-1d8c-449b-8c43-b0f5ef7bf21a","system_id":"levelo_inurba_marseille","lat":43.299243,"lon":5.374807,"is_reserved":false,"is_disabled":false,"rental_uris":{"android":"levelo://app?vid=1bbd253c-1d8c-449b-8c43-b0f5ef7bf21a","ios":"levelo://app?vid=1bbd253c-1d8c-449b-8c43-b0f5ef7bf21a"},"vehicle_type_id":"4","last_reported":1709579136,"current_range_meters":0,"station_id":"ce4bgjh2rcd13ifvqbg0","pricing_plan_id":"cebpf4jnsgd1na2vs0mg"},{"bike_id":"79a732c6-3445-48ca-96f7-c717b33d68d8","system_id":"levelo_inurba_marseille","lat":43.311722,"lon":5.387247,"is_reserved":false,"is_disabled":false,"rental_uris":{"android":"levelo://app?vid=79a732c6-3445-48ca-96f7-c717b33d68d8","ios":"levelo://app?vid=79a732c6-3445-48ca-96f7-c717b33d68d8"},"vehicle_type_id":"4","last_reported":1709579136,"current_range_meters":29600,"station_id":"ce4bgv12rcd13ifvqcp0","pricing_plan_id":"cebpf4jnsgd1na2vs0mg"},{"bike_id":"7e3d3995-ceed-4cc9-a554-bb7d253a8993","system_id":"levelo_inurba_marseille","lat":43.299243,"lon":5.374807,"is_reserved":false,"is_disabled":false,"rental_uris":{"android":"levelo://app?vid=7e3d3995-ceed-4cc9-a554-bb7d253a8993","ios":"levelo://app?vid=7e3d3995-ceed-4cc9-a554-bb7d253a8993"},"vehicle_type_id":"4","last_reported":1709579136,"current_range_meters":9600,"station_id":"ce4bgjh2rcd13ifvqbg0","pricing_plan_id":"cebpf4jnsgd1na2vs0mg"},{"bike_id":"21d2dce8-574e-4a4e-ad4c-442efff7f232","system_id":"levelo_inurba_marseille","lat":43.309589,"lon":5.390258,"is_reserved":false,"is_disabled":false,"rental_uris":{"android":"levelo://app?vid=21d2dce8-574e-4a4e-ad4c-442efff7f232","ios":"levelo://app?vid=21d2dce8-574e-4a4e-ad4c-442efff7f232"},"vehicle_type_id":"4","last_reported":1709579136,"current_range_meters":4800,"station_id":"ce4bgup2rcd13ifvqco0","pricing_plan_id":"cebpf4jnsgd1na2vs0mg"},{"bike_id":"c5b90319-10e6-4b55-ab98-fd88257334d8","system_id":"levelo_inurba_marseille","lat":43.299243,"lon":5.374807,"is_reserved":false,"is_disabled":false,"rental_uris":{"android":"levelo://app?vid=c5b90319-10e6-4b55-ab98-fd88257334d8","ios":"levelo://app?vid=c5b90319-10e6-4b55-ab98-fd88257334d8"},"vehicle_type_id":"4","last_reported":1709579136,"current_range_meters":13200,"station_id":"ce4bgjh2rcd13ifvqbg0","pricing_plan_id":"cebpf4jnsgd1na2vs0mg"},{"bike_id":"50769a08-f12d-4a4a-b936-cf51913252cd","system_id":"levelo_inurba_marseille","lat":43.299243,"lon":5.37481,"is_reserved":false,"is_disabled":false,"rental_uris":{"android":"levelo://app?vid=50769a08-f12d-4a4a-b936-cf51913252cd","ios":"levelo://app?vid=50769a08-f12d-4a4a-b936-cf51913252cd"},"vehicle_type_id":"4","last_reported":1709579136,"current_range_meters":16000,"station_id":"ce4bgjh2rcd13ifvqbg0","pricing_plan_id":"cebpf4jnsgd1na2vs0mg"},{"bike_id":"8799eb3a-9bcb-4346-8e50-f7f66baf9662","system_id":"levelo_inurba_marseille","lat":43.29909,"lon":5.37481,"is_reserved":false,"is_disabled":false,"rental_uris":{"android":"levelo://app?vid=8799eb3a-9bcb-4346-8e50-f7f66baf9662","ios":"levelo://app?vid=8799eb3a-9bcb-4346-8e50-f7f66baf9662"},"vehicle_type_id":"4","last_reported":1709579136,"current_range_meters":4400,"station_id":"ce4bgjh2rcd13ifvqbg0","pricing_plan_id":"cebpf4jnsgd1na2vs0mg"},{"bike_id":"f1062977-25de-4d22-a815-4d74cdc63a35","system_id":"levelo_inurba_marseille","lat":43.299243,"lon":5.37481,"is_reserved":false,"is_disabled":false,"rental_uris":{"android":"levelo://app?vid=f1062977-25de-4d22-a815-4d74cdc63a35","ios":"levelo://app?vid=f1062977-25de-4d22-a815-4d74cdc63a35"},"vehicle_type_id":"4","last_reported":1709579136,"current_range_meters":4000,"station_id":"ce4bgjh2rcd13ifvqbg0","pricing_plan_id":"cebpf4jnsgd1na2vs0mg"},{"bike_id":"fbc892b8-8e6e-4f2f-9372-2fceabb67f93","system_id":"levelo_inurba_marseille","lat":43.297933,"lon":5.37099,"is_reserved":false,"is_disabled":false,"rental_uris":{"android":"levelo://app?vid=fbc892b8-8e6e-4f2f-9372-2fceabb67f93","ios":"levelo://app?vid=fbc892b8-8e6e-4f2f-9372-2fceabb67f93"},"vehicle_type_id":"4","last_reported":1709579136,"current_range_meters":28400,"station_id":"ce4bgop2rcd13ifvqc1g","pricing_plan_id":"cebpf4jnsgd1na2vs0mg"},{"bike_id":"a08b21a4-e6f2-458e-9b99-b893339fde55","system_id":"levelo_inurba_marseille","lat":43.297868,"lon":5.370978,"is_reserved":false,"is_disabled":false,"rental_uris":{"android":"levelo://app?vid=a08b21a4-e6f2-458e-9b99-b893339fde55","ios":"levelo://app?vid=a08b21a4-e6f2-458e-9b99-b893339fde55"},"vehicle_type_id":"4","last_reported":1709579136,"current_range_meters":28800,"station_id":"ce4bgop2rcd13ifvqc1g","pricing_plan_id":"cebpf4jnsgd1na2vs0mg"},{"bike_id":"18d86ac1-2c6e-452e-b9c6-8358fa6c440d","system_id":"levelo_inurba_marseille","lat":43.297851,"lon":5.370911,"is_reserved":false,"is_disabled":false,"rental_uris":{"android":"levelo://app?vid=18d86ac1-2c6e-452e-b9c6-8358fa6c440d","ios":"levelo://app?vid=18d86ac1-2c6e-452e-b9c6-8358fa6c440d"},"vehicle_type_id":"4","last_reported":1709579136,"current_range_meters":28400,"station_id":"ce4bgop2rcd13ifvqc1g","pricing_plan_id":"cebpf4jnsgd1na2vs0mg"},{"bike_id":"76624040-b3d0-4a26-b0c4-3bb18ec41e64","system_id":"levelo_inurba_marseille","lat":43.297163,"lon":5.365866,"is_reserved":false,"is_disabled":false,"rental_uris":{"android":"levelo://app?vid=76624040-b3d0-4a26-b0c4-3bb18ec41e64","ios":"levelo://app?vid=76624040-b3d0-4a26-b0c4-3bb18ec41e64"},"vehicle_type_id":"4","last_reported":1709579136,"current_range_meters":12000,"station_id":"ce4bgn12rcd13ifvqbt0","pricing_plan_id":"cebpf4jnsgd1na2vs0mg"},{"bike_id":"d549eb2a-65ca-4166-8fff-3a61d5f67a9a","system_id":"levelo_inurba_marseille","lat":43.29777,"lon":5.37091,"is_reserved":false,"is_disabled":false,"rental_uris":{"android":"levelo://app?vid=d549eb2a-65ca-4166-8fff-3a61d5f67a9a","ios":"levelo://app?vid=d549eb2a-65ca-4166-8fff-3a61d5f67a9a"},"vehicle_type_id":"4","last_reported":1709579136,"current_range_meters":31200,"station_id":"ce4bgop2rcd13ifvqc1g","pricing_plan_id":"cebpf4jnsgd1na2vs0mg"},{"bike_id":"bcb94b14-0b31-4eb8-a7bc-4a8f0375f667","system_id":"levelo_inurba_marseille","lat":43.322872,"lon":5.382756,"is_reserved":false,"is_disabled":false,"rental_uris":{"android":"levelo://app?vid=bcb94b14-0b31-4eb8-a7bc-4a8f0375f667","ios":"levelo://app?vid=bcb94b14-0b31-4eb8-a7bc-4a8f0375f667"},"vehicle_type_id":"4","last_reported":1709579136,"current_range_meters":0,"station_id":"ce4bhr12rcd13ifvqhqg","pricing_plan_id":"cebpf4jnsgd1na2vs0mg"},{"bike_id":"1dba00a0-90c9-4613-a728-166b3701c187","system_id":"levelo_inurba_marseille","lat":43.322872,"lon":5.382756,"is_reserved":false,"is_disabled":false,"rental_uris":{"android":"levelo://app?vid=1dba00a0-90c9-4613-a728-166b3701c187","ios":"levelo://app?vid=1dba00a0-90c9-4613-a728-166b3701c187"},"vehicle_type_id":"4","last_reported":1709579136,"current_range_meters":11600,"station_id":"ce4bhr12rcd13ifvqhqg","pricing_plan_id":"cebpf4jnsgd1na2vs0mg"},{"bike_id":"9bb52770-1551-4b39-849e-bee90710a3d8","system_id":"levelo_inurba_marseille","lat":43.297738,"lon":5.371002,"is_reserved":false,"is_disabled":false,"rental_uris":{"android":"levelo://app?vid=9bb52770-1551-4b39-849e-bee90710a3d8","ios":"levelo://app?vid=9bb52770-1551-4b39-849e-bee90710a3d8"},"vehicle_type_id":"4","last_reported":1709579136,"current_range_meters":3200,"station_id":"ce4bgop2rcd13ifvqc1g","pricing_plan_id":"cebpf4jnsgd1na2vs0mg"},{"bike_id":"07b32308-00fc-4b1d-bd30-c57fc7f04f46","system_id":"levelo_inurba_marseille","lat":43.322872,"lon":5.382756,"is_reserved":false,"is_disabled":false,"rental_uris":{"android":"levelo://app?vid=07b32308-00fc-4b1d-bd30-c57fc7f04f46","ios":"levelo://app?vid=07b32308-00fc-4b1d-bd30-c57fc7f04f46"},"vehicle_type_id":"4","last_reported":1709579136,"current_range_meters":24000,"station_id":"ce4bhr12rcd13ifvqhqg","pricing_plan_id":"cebpf4jnsgd1na2vs0mg"},{"bike_id":"ac14e5f1-c2e8-4b39-8a5e-4381c6bafff9","system_id":"levelo_inurba_marseille","lat":43.322872,"lon":5.382756,"is_reserved":false,"is_disabled":false,"rental_uris":{"android":"levelo://app?vid=ac14e5f1-c2e8-4b39-8a5e-4381c6bafff9","ios":"levelo://app?vid=ac14e5f1-c2e8-4b39-8a5e-4381c6bafff9"},"vehicle_type_id":"4","last_reported":1709579136,"current_range_meters":16000,"station_id":"ce4bhr12rcd13ifvqhqg","pricing_plan_id":"cebpf4jnsgd1na2vs0mg"},{"bike_id":"04277f71-9a24-4a68-9c27-7886460b2105","system_id":"levelo_inurba_marseille","lat":43.322872,"lon":5.382756,"is_reserved":false,"is_disabled":false,"rental_uris":{"android":"levelo://app?vid=04277f71-9a24-4a68-9c27-7886460b2105","ios":"levelo://app?vid=04277f71-9a24-4a68-9c27-7886460b2105"},"vehicle_type_id":"4","last_reported":1709579136,"current_range_meters":12800,"station_id":"ce4bhr12rcd13ifvqhqg","pricing_plan_id":"cebpf4jnsgd1na2vs0mg"},{"bike_id":"c8b9d32c-c6f5-414c-94f5-86b56c1bc436","system_id":"levelo_inurba_marseille","lat":43.322872,"lon":5.382756,"is_reserved":false,"is_disabled":false,"rental_uris":{"android":"levelo://app?vid=c8b9d32c-c6f5-414c-94f5-86b56c1bc436","ios":"levelo://app?vid=c8b9d32c-c6f5-414c-94f5-86b56c1bc436"},"vehicle_type_id":"4","last_reported":1709579136,"current_range_meters":31200,"station_id":"ce4bhr12rcd13ifvqhqg","pricing_plan_id":"cebpf4jnsgd1na2vs0mg"},{"bike_id":"ade3fe0c-613e-41d7-b13b-a29db446ebe8","system_id":"levelo_inurba_marseille","lat":43.322872,"lon":5.382756,"is_reserved":false,"is_disabled":false,"rental_uris":{"android":"levelo://app?vid=ade3fe0c-613e-41d7-b13b-a29db446ebe8","ios":"levelo://app?vid=ade3fe0c-613e-41d7-b13b-a29db446ebe8"},"vehicle_type_id":"4","last_reported":1709579136,"current_range_meters":19600,"station_id":"ce4bhr12rcd13ifvqhqg","pricing_plan_id":"cebpf4jnsgd1na2vs0mg"},{"bike_id":"7943c7c1-df13-48f9-8bef-2955f3e25eda","system_id":"levelo_inurba_marseille","lat":43.322911,"lon":5.382693,"is_reserved":false,"is_disabled":false,"rental_uris":{"android":"levelo://app?vid=7943c7c1-df13-48f9-8bef-2955f3e25eda","ios":"levelo://app?vid=7943c7c1-df13-48f9-8bef-2955f3e25eda"},"vehicle_type_id":"4","last_reported":1709579136,"current_range_meters":8000,"station_id":"ce4bhr12rcd13ifvqhqg","pricing_plan_id":"cebpf4jnsgd1na2vs0mg"},{"bike_id":"81a73b5b-283c-4bf7-b754-c42af3f9cb25","system_id":"levelo_inurba_marseille","lat":43.297163,"lon":5.365866,"is_reserved":false,"is_disabled":false,"rental_uris":{"android":"levelo://app?vid=81a73b5b-283c-4bf7-b754-c42af3f9cb25","ios":"levelo://app?vid=81a73b5b-283c-4bf7-b754-c42af3f9cb25"},"vehicle_type_id":"4","last_reported":1709579136,"current_range_meters":10400,"station_id":"ce4bgn12rcd13ifvqbt0","pricing_plan_id":"cebpf4jnsgd1na2vs0mg"},{"bike_id":"b4be2f38-c635-4141-985d-7ccb75ee7a27","system_id":"levelo_inurba_marseille","lat":43.297163,"lon":5.365866,"is_reserved":false,"is_disabled":false,"rental_uris":{"android":"levelo://app?vid=b4be2f38-c635-4141-985d-7ccb75ee7a27","ios":"levelo://app?vid=b4be2f38-c635-4141-985d-7ccb75ee7a27"},"vehicle_type_id":"4","last_reported":1709579136,"current_range_meters":15200,"station_id":"ce4bgn12rcd13ifvqbt0","pricing_plan_id":"cebpf4jnsgd1na2vs0mg"},{"bike_id":"bfedc9c0-55bc-4268-9ba3-d5b4753f28ee","system_id":"levelo_inurba_marseille","lat":43.2968,"lon":5.37291,"is_reserved":false,"is_disabled":false,"rental_uris":{"android":"levelo://app?vid=bfedc9c0-55bc-4268-9ba3-d5b4753f28ee","ios":"levelo://app?vid=bfedc9c0-55bc-4268-9ba3-d5b4753f28ee"},"vehicle_type_id":"4","last_reported":1709579136,"current_range_meters":0,"station_id":"ce4bgk12rcd13ifvqbj0","pricing_plan_id":"cebpf4jnsgd1na2vs0mg"},{"bike_id":"7265693d-a987-4a36-a668-19077cc0273b","system_id":"levelo_inurba_marseille","lat":43.29591,"lon":5.36749,"is_reserved":false,"is_disabled":false,"rental_uris":{"android":"levelo://app?vid=7265693d-a987-4a36-a668-19077cc0273b","ios":"levelo://app?vid=7265693d-a987-4a36-a668-19077cc0273b"},"vehicle_type_id":"4","last_reported":1709579136,"current_range_meters":14800,"station_id":"ce4bgph2rcd13ifvqc2g","pricing_plan_id":"cebpf4jnsgd1na2vs0mg"},{"bike_id":"7249d1fb-3e8f-422e-b368-2a9ce7ccf97c","system_id":"levelo_inurba_marseille","lat":43.29573,"lon":5.367355,"is_reserved":false,"is_disabled":false,"rental_uris":{"android":"levelo://app?vid=7249d1fb-3e8f-422e-b368-2a9ce7ccf97c","ios":"levelo://app?vid=7249d1fb-3e8f-422e-b368-2a9ce7ccf97c"},"vehicle_type_id":"4","last_reported":1709579136,"current_range_meters":28800,"station_id":"ce4bgph2rcd13ifvqc2g","pricing_plan_id":"cebpf4jnsgd1na2vs0mg"},{"bike_id":"ee67cc4e-e9b8-41ff-925f-51f89b9f6b6d","system_id":"levelo_inurba_marseille","lat":43.296129,"lon":5.370777,"is_reserved":false,"is_disabled":false,"rental_uris":{"android":"levelo://app?vid=ee67cc4e-e9b8-41ff-925f-51f89b9f6b6d","ios":"levelo://app?vid=ee67cc4e-e9b8-41ff-925f-51f89b9f6b6d"},"vehicle_type_id":"4","last_reported":1709579136,"current_range_meters":31200,"station_id":"ce4bgnh2rcd13ifvqc0g","pricing_plan_id":"cebpf4jnsgd1na2vs0mg"},{"bike_id":"a226c4f6-7f33-4822-9feb-04538d2c59e6","system_id":"levelo_inurba_marseille","lat":43.296131,"lon":5.370773,"is_reserved":false,"is_disabled":false,"rental_uris":{"android":"levelo://app?vid=a226c4f6-7f33-4822-9feb-04538d2c59e6","ios":"levelo://app?vid=a226c4f6-7f33-4822-9feb-04538d2c59e6"},"vehicle_type_id":"4","last_reported":1709579136,"current_range_meters":4000,"station_id":"ce4bgnh2rcd13ifvqc0g","pricing_plan_id":"cebpf4jnsgd1na2vs0mg"},{"bike_id":"583701ec-534a-4866-ae89-3352e043431c","system_id":"levelo_inurba_marseille","lat":43.29573,"lon":5.367355,"is_reserved":false,"is_disabled":false,"rental_uris":{"android":"levelo://app?vid=583701ec-534a-4866-ae89-3352e043431c","ios":"levelo://app?vid=583701ec-534a-4866-ae89-3352e043431c"},"vehicle_type_id":"4","last_reported":1709579136,"current_range_meters":31200,"station_id":"ce4bgph2rcd13ifvqc2g","pricing_plan_id":"cebpf4jnsgd1na2vs0mg"},{"bike_id":"aecea3db-f108-413b-87b2-2d963c399b9a","system_id":"levelo_inurba_marseille","lat":43.29573,"lon":5.367355,"is_reserved":false,"is_disabled":false,"rental_uris":{"android":"levelo://app?vid=aecea3db-f108-413b-87b2-2d963c399b9a","ios":"levelo://app?vid=aecea3db-f108-413b-87b2-2d963c399b9a"},"vehicle_type_id":"4","last_reported":1709579136,"current_range_meters":4000,"station_id":"ce4bgph2rcd13ifvqc2g","pricing_plan_id":"cebpf4jnsgd1na2vs0mg"},{"bike_id":"28dd412f-2a66-4b58-aec2-ddbfa45ade5c","system_id":"levelo_inurba_marseille","lat":43.29573,"lon":5.367355,"is_reserved":false,"is_disabled":false,"rental_uris":{"android":"levelo://app?vid=28dd412f-2a66-4b58-aec2-ddbfa45ade5c","ios":"levelo://app?vid=28dd412f-2a66-4b58-aec2-ddbfa45ade5c"},"vehicle_type_id":"4","last_reported":1709579136,"current_range_meters":13600,"station_id":"ce4bgph2rcd13ifvqc2g","pricing_plan_id":"cebpf4jnsgd1na2vs0mg"},{"bike_id":"514cbd1e-f07a-4cde-8b1a-50dac6b57fd7","system_id":"levelo_inurba_marseille","lat":43.29573,"lon":5.367355,"is_reserved":false,"is_disabled":false,"rental_uris":{"android":"levelo://app?vid=514cbd1e-f07a-4cde-8b1a-50dac6b57fd7","ios":"levelo://app?vid=514cbd1e-f07a-4cde-8b1a-50dac6b57fd7"},"vehicle_type_id":"4","last_reported":1709579136,"current_range_meters":30400,"station_id":"ce4bgph2rcd13ifvqc2g","pricing_plan_id":"cebpf4jnsgd1na2vs0mg"},{"bike_id":"80c9444c-8a02-42af-acce-2266c21b8a52","system_id":"levelo_inurba_marseille","lat":43.296935,"lon":5.376544,"is_reserved":false,"is_disabled":false,"rental_uris":{"android":"levelo://app?vid=80c9444c-8a02-42af-acce-2266c21b8a52","ios":"levelo://app?vid=80c9444c-8a02-42af-acce-2266c21b8a52"},"vehicle_type_id":"4","last_reported":1709579136,"current_range_meters":20400,"station_id":"ce4bgkh2rcd13ifvqbl0","pricing_plan_id":"cebpf4jnsgd1na2vs0mg"},{"bike_id":"3e0724b6-340a-486d-9445-0289e854fad2","system_id":"levelo_inurba_marseille","lat":43.299028,"lon":5.381509,"is_reserved":false,"is_disabled":false,"rental_uris":{"android":"levelo://app?vid=3e0724b6-340a-486d-9445-0289e854fad2","ios":"levelo://app?vid=3e0724b6-340a-486d-9445-0289e854fad2"},"vehicle_type_id":"4","last_reported":1709579136,"current_range_meters":20400,"station_id":"ce4bgj12rcd13ifvqbc0","pricing_plan_id":"cebpf4jnsgd1na2vs0mg"},{"bike_id":"b81fde5c-44e1-4b25-932b-fc7251994805","system_id":"levelo_inurba_marseille","lat":43.309589,"lon":5.390258,"is_reserved":false,"is_disabled":false,"rental_uris":{"android":"levelo://app?vid=b81fde5c-44e1-4b25-932b-fc7251994805","ios":"levelo://app?vid=b81fde5c-44e1-4b25-932b-fc7251994805"},"vehicle_type_id":"4","last_reported":1709579136,"current_range_meters":18000,"station_id":"ce4bgup2rcd13ifvqco0","pricing_plan_id":"cebpf4jnsgd1na2vs0mg"},{"bike_id":"066622f4-6edf-4a55-98da-2eaec44e1f37","system_id":"levelo_inurba_marseille","lat":43.317557,"lon":5.390173,"is_reserved":false,"is_disabled":false,"rental_uris":{"android":"levelo://app?vid=066622f4-6edf-4a55-98da-2eaec44e1f37","ios":"levelo://app?vid=066622f4-6edf-4a55-98da-2eaec44e1f37"},"vehicle_type_id":"4","last_reported":1709579136,"current_range_meters":14000,"station_id":"ce4bhqp2rcd13ifvqhng","pricing_plan_id":"cebpf4jnsgd1na2vs0mg"},{"bike_id":"dfc993ee-b74b-4709-9f95-3ccdab4c01ac","system_id":"levelo_inurba_marseille","lat":43.299028,"lon":5.381509,"is_reserved":false,"is_disabled":false,"rental_uris":{"android":"levelo://app?vid=dfc993ee-b74b-4709-9f95-3ccdab4c01ac","ios":"levelo://app?vid=dfc993ee-b74b-4709-9f95-3ccdab4c01ac"},"vehicle_type_id":"4","last_reported":1709579136,"current_range_meters":16400,"station_id":"ce4bgj12rcd13ifvqbc0","pricing_plan_id":"cebpf4jnsgd1na2vs0mg"},{"bike_id":"17c99f84-5388-4832-8aad-a0369b69acd3","system_id":"levelo_inurba_marseille","lat":43.309589,"lon":5.390258,"is_reserved":false,"is_disabled":false,"rental_uris":{"android":"levelo://app?vid=17c99f84-5388-4832-8aad-a0369b69acd3","ios":"levelo://app?vid=17c99f84-5388-4832-8aad-a0369b69acd3"},"vehicle_type_id":"4","last_reported":1709579136,"current_range_meters":6000,"station_id":"ce4bgup2rcd13ifvqco0","pricing_plan_id":"cebpf4jnsgd1na2vs0mg"},{"bike_id":"2f57771f-a9ac-4b3e-a6f7-bfc20ecc032d","system_id":"levelo_inurba_marseille","lat":43.317557,"lon":5.390173,"is_reserved":false,"is_disabled":false,"rental_uris":{"android":"levelo://app?vid=2f57771f-a9ac-4b3e-a6f7-bfc20ecc032d","ios":"levelo://app?vid=2f57771f-a9ac-4b3e-a6f7-bfc20ecc032d"},"vehicle_type_id":"4","last_reported":1709579136,"current_range_meters":31600,"station_id":"ce4bhqp2rcd13ifvqhng","pricing_plan_id":"cebpf4jnsgd1na2vs0mg"},{"bike_id":"e94b9dd5-3eae-4cb9-af89-dc4034f934bc","system_id":"levelo_inurba_marseille","lat":43.317557,"lon":5.390173,"is_reserved":false,"is_disabled":false,"rental_uris":{"android":"levelo://app?vid=e94b9dd5-3eae-4cb9-af89-dc4034f934bc","ios":"levelo://app?vid=e94b9dd5-3eae-4cb9-af89-dc4034f934bc"},"vehicle_type_id":"4","last_reported":1709579136,"current_range_meters":8000,"station_id":"ce4bhqp2rcd13ifvqhng","pricing_plan_id":"cebpf4jnsgd1na2vs0mg"},{"bike_id":"45ee9f7d-d977-4951-9cfe-d29fd2c14be1","system_id":"levelo_inurba_marseille","lat":43.317557,"lon":5.390173,"is_reserved":false,"is_disabled":false,"rental_uris":{"android":"levelo://app?vid=45ee9f7d-d977-4951-9cfe-d29fd2c14be1","ios":"levelo://app?vid=45ee9f7d-d977-4951-9cfe-d29fd2c14be1"},"vehicle_type_id":"4","last_reported":1709579136,"current_range_meters":26000,"station_id":"ce4bhqp2rcd13ifvqhng","pricing_plan_id":"cebpf4jnsgd1na2vs0mg"},{"bike_id":"fd9c1b69-50e8-4bd9-b806-2114e3b7a810","system_id":"levelo_inurba_marseille","lat":43.317557,"lon":5.390173,"is_reserved":false,"is_disabled":false,"rental_uris":{"android":"levelo://app?vid=fd9c1b69-50e8-4bd9-b806-2114e3b7a810","ios":"levelo://app?vid=fd9c1b69-50e8-4bd9-b806-2114e3b7a810"},"vehicle_type_id":"4","last_reported":1709579136,"current_range_meters":30000,"station_id":"ce4bhqp2rcd13ifvqhng","pricing_plan_id":"cebpf4jnsgd1na2vs0mg"},{"bike_id":"1eec78d4-463e-4c26-8e41-81096266dc70","system_id":"levelo_inurba_marseille","lat":43.317557,"lon":5.390173,"is_reserved":false,"is_disabled":false,"rental_uris":{"android":"levelo://app?vid=1eec78d4-463e-4c26-8e41-81096266dc70","ios":"levelo://app?vid=1eec78d4-463e-4c26-8e41-81096266dc70"},"vehicle_type_id":"4","last_reported":1709579136,"current_range_meters":29600,"station_id":"ce4bhqp2rcd13ifvqhng","pricing_plan_id":"cebpf4jnsgd1na2vs0mg"},{"bike_id":"49f0560f-76cb-4fe2-b91a-61275bf93c98","system_id":"levelo_inurba_marseille","lat":43.31757,"lon":5.39014,"is_reserved":false,"is_disabled":false,"rental_uris":{"android":"levelo://app?vid=49f0560f-76cb-4fe2-b91a-61275bf93c98","ios":"levelo://app?vid=49f0560f-76cb-4fe2-b91a-61275bf93c98"},"vehicle_type_id":"4","last_reported":1709579136,"current_range_meters":17200,"station_id":"ce4bhqp2rcd13ifvqhng","pricing_plan_id":"cebpf4jnsgd1na2vs0mg"},{"bike_id":"31415fbb-fc8a-48d5-83f2-ea643f262d23","system_id":"levelo_inurba_marseille","lat":43.317557,"lon":5.390173,"is_reserved":false,"is_disabled":false,"rental_uris":{"android":"levelo://app?vid=31415fbb-fc8a-48d5-83f2-ea643f262d23","ios":"levelo://app?vid=31415fbb-fc8a-48d5-83f2-ea643f262d23"},"vehicle_type_id":"4","last_reported":1709579136,"current_range_meters":14800,"station_id":"ce4bhqp2rcd13ifvqhng","pricing_plan_id":"cebpf4jnsgd1na2vs0mg"},{"bike_id":"bfe865f7-1a44-4907-9f0e-d79cce19464f","system_id":"levelo_inurba_marseille","lat":43.317557,"lon":5.390173,"is_reserved":false,"is_disabled":false,"rental_uris":{"android":"levelo://app?vid=bfe865f7-1a44-4907-9f0e-d79cce19464f","ios":"levelo://app?vid=bfe865f7-1a44-4907-9f0e-d79cce19464f"},"vehicle_type_id":"4","last_reported":1709579136,"current_range_meters":10400,"station_id":"ce4bhqp2rcd13ifvqhng","pricing_plan_id":"cebpf4jnsgd1na2vs0mg"},{"bike_id":"c76a132d-7806-452c-8906-28a2637b4d3f","system_id":"levelo_inurba_marseille","lat":43.304055,"lon":5.388127,"is_reserved":false,"is_disabled":false,"rental_uris":{"android":"levelo://app?vid=c76a132d-7806-452c-8906-28a2637b4d3f","ios":"levelo://app?vid=c76a132d-7806-452c-8906-28a2637b4d3f"},"vehicle_type_id":"4","last_reported":1709579136,"current_range_meters":21600,"station_id":"ce4bgk12rcd13ifvqbi0","pricing_plan_id":"cebpf4jnsgd1na2vs0mg"},{"bike_id":"fce8a618-1c77-4222-8801-fab5781ac25d","system_id":"levelo_inurba_marseille","lat":43.295748,"lon":5.37522,"is_reserved":false,"is_disabled":false,"rental_uris":{"android":"levelo://app?vid=fce8a618-1c77-4222-8801-fab5781ac25d","ios":"levelo://app?vid=fce8a618-1c77-4222-8801-fab5781ac25d"},"vehicle_type_id":"4","last_reported":1709579136,"current_range_meters":800,"station_id":"ce4bgh92rcd13ifvqb50","pricing_plan_id":"cebpf4jnsgd1na2vs0mg"},{"bike_id":"ca70ba12-ce3c-4171-9ec5-9c026b44ebcd","system_id":"levelo_inurba_marseille","lat":43.299707,"lon":5.384859,"is_reserved":false,"is_disabled":false,"rental_uris":{"android":"levelo://app?vid=ca70ba12-ce3c-4171-9ec5-9c026b44ebcd","ios":"levelo://app?vid=ca70ba12-ce3c-4171-9ec5-9c026b44ebcd"},"vehicle_type_id":"4","last_reported":1709579136,"current_range_meters":17600,"station_id":"ce4bgj92rcd13ifvqbd0","pricing_plan_id":"cebpf4jnsgd1na2vs0mg"},{"bike_id":"ec8d288e-8213-4c38-951f-7fd4fb289891","system_id":"levelo_inurba_marseille","lat":43.2981,"lon":5.38086,"is_reserved":false,"is_disabled":false,"rental_uris":{"android":"levelo://app?vid=ec8d288e-8213-4c38-951f-7fd4fb289891","ios":"levelo://app?vid=ec8d288e-8213-4c38-951f-7fd4fb289891"},"vehicle_type_id":"4","last_reported":1709579136,"current_range_meters":28400,"station_id":"ce4bgip2rcd13ifvqbb0","pricing_plan_id":"cebpf4jnsgd1na2vs0mg"},{"bike_id":"828eaddb-1c38-4e84-8913-97075df16d3f","system_id":"levelo_inurba_marseille","lat":43.30415,"lon":5.388369,"is_reserved":false,"is_disabled":false,"rental_uris":{"android":"levelo://app?vid=828eaddb-1c38-4e84-8913-97075df16d3f","ios":"levelo://app?vid=828eaddb-1c38-4e84-8913-97075df16d3f"},"vehicle_type_id":"4","last_reported":1709579136,"current_range_meters":15600,"station_id":"ce4bgk12rcd13ifvqbi0","pricing_plan_id":"cebpf4jnsgd1na2vs0mg"},{"bike_id":"04ecf48e-0eeb-440b-9a23-7f6e876f02b0","system_id":"levelo_inurba_marseille","lat":43.298031,"lon":5.380884,"is_reserved":false,"is_disabled":false,"rental_uris":{"android":"levelo://app?vid=04ecf48e-0eeb-440b-9a23-7f6e876f02b0","ios":"levelo://app?vid=04ecf48e-0eeb-440b-9a23-7f6e876f02b0"},"vehicle_type_id":"4","last_reported":1709579136,"current_range_meters":14400,"station_id":"ce4bgip2rcd13ifvqbb0","pricing_plan_id":"cebpf4jnsgd1na2vs0mg"},{"bike_id":"7c885188-86c5-478e-a2a8-502c7835867b","system_id":"levelo_inurba_marseille","lat":43.29799,"lon":5.3809,"is_reserved":false,"is_disabled":false,"rental_uris":{"android":"levelo://app?vid=7c885188-86c5-478e-a2a8-502c7835867b","ios":"levelo://app?vid=7c885188-86c5-478e-a2a8-502c7835867b"},"vehicle_type_id":"4","last_reported":1709579136,"current_range_meters":5600,"station_id":"ce4bgip2rcd13ifvqbb0","pricing_plan_id":"cebpf4jnsgd1na2vs0mg"},{"bike_id":"d18c3c68-7fc6-42f9-9c03-53f7f1b4bdf4","system_id":"levelo_inurba_marseille","lat":43.29575,"lon":5.37492,"is_reserved":false,"is_disabled":false,"rental_uris":{"android":"levelo://app?vid=d18c3c68-7fc6-42f9-9c03-53f7f1b4bdf4","ios":"levelo://app?vid=d18c3c68-7fc6-42f9-9c03-53f7f1b4bdf4"},"vehicle_type_id":"4","last_reported":1709579136,"current_range_meters":18800,"station_id":"ce4bgh92rcd13ifvqb50","pricing_plan_id":"cebpf4jnsgd1na2vs0mg"},{"bike_id":"b26898e7-796b-4f72-a143-86eef316c6f4","system_id":"levelo_inurba_marseille","lat":43.304274,"lon":5.388873,"is_reserved":false,"is_disabled":false,"rental_uris":{"android":"levelo://app?vid=b26898e7-796b-4f72-a143-86eef316c6f4","ios":"levelo://app?vid=b26898e7-796b-4f72-a143-86eef316c6f4"},"vehicle_type_id":"4","last_reported":1709579136,"current_range_meters":7600,"station_id":"ce4bgk12rcd13ifvqbi0","pricing_plan_id":"cebpf4jnsgd1na2vs0mg"},{"bike_id":"f1a2947a-3c38-403b-9dfc-cb355f1d445c","system_id":"levelo_inurba_marseille","lat":43.29798,"lon":5.38099,"is_reserved":false,"is_disabled":false,"rental_uris":{"android":"levelo://app?vid=f1a2947a-3c38-403b-9dfc-cb355f1d445c","ios":"levelo://app?vid=f1a2947a-3c38-403b-9dfc-cb355f1d445c"},"vehicle_type_id":"4","last_reported":1709579136,"current_range_meters":8000,"station_id":"ce4bgip2rcd13ifvqbb0","pricing_plan_id":"cebpf4jnsgd1na2vs0mg"},{"bike_id":"c5abb050-a544-4996-869d-8c1370fdd3f4","system_id":"levelo_inurba_marseille","lat":43.304274,"lon":5.388873,"is_reserved":false,"is_disabled":false,"rental_uris":{"android":"levelo://app?vid=c5abb050-a544-4996-869d-8c1370fdd3f4","ios":"levelo://app?vid=c5abb050-a544-4996-869d-8c1370fdd3f4"},"vehicle_type_id":"4","last_reported":1709579136,"current_range_meters":22800,"station_id":"ce4bgk12rcd13ifvqbi0","pricing_plan_id":"cebpf4jnsgd1na2vs0mg"},{"bike_id":"2c338744-9205-4c20-9eea-63841011ecff","system_id":"levelo_inurba_marseille","lat":43.29573,"lon":5.375,"is_reserved":false,"is_disabled":false,"rental_uris":{"android":"levelo://app?vid=2c338744-9205-4c20-9eea-63841011ecff","ios":"levelo://app?vid=2c338744-9205-4c20-9eea-63841011ecff"},"vehicle_type_id":"4","last_reported":1709579136,"current_range_meters":18000,"station_id":"ce4bgh92rcd13ifvqb50","pricing_plan_id":"cebpf4jnsgd1na2vs0mg"},{"bike_id":"6fa3f732-8eba-4449-9cc9-0fe2860b2b8b","system_id":"levelo_inurba_marseille","lat":43.30441,"lon":5.38885,"is_reserved":false,"is_disabled":false,"rental_uris":{"android":"levelo://app?vid=6fa3f732-8eba-4449-9cc9-0fe2860b2b8b","ios":"levelo://app?vid=6fa3f732-8eba-4449-9cc9-0fe2860b2b8b"},"vehicle_type_id":"4","last_reported":1709579136,"current_range_meters":22400,"station_id":"ce4bgk12rcd13ifvqbi0","pricing_plan_id":"cebpf4jnsgd1na2vs0mg"},{"bike_id":"1d32579b-bac1-4489-afdb-42076a183a44","system_id":"levelo_inurba_marseille","lat":43.295727,"lon":5.375013,"is_reserved":false,"is_disabled":false,"rental_uris":{"android":"levelo://app?vid=1d32579b-bac1-4489-afdb-42076a183a44","ios":"levelo://app?vid=1d32579b-bac1-4489-afdb-42076a183a44"},"vehicle_type_id":"4","last_reported":1709579136,"current_range_meters":0,"station_id":"ce4bgh92rcd13ifvqb50","pricing_plan_id":"cebpf4jnsgd1na2vs0mg"},{"bike_id":"79c50292-946f-4b70-b1b0-560aa9d66339","system_id":"levelo_inurba_marseille","lat":43.304274,"lon":5.388873,"is_reserved":false,"is_disabled":false,"rental_uris":{"android":"levelo://app?vid=79c50292-946f-4b70-b1b0-560aa9d66339","ios":"levelo://app?vid=79c50292-946f-4b70-b1b0-560aa9d66339"},"vehicle_type_id":"4","last_reported":1709579136,"current_range_meters":3600,"station_id":"ce4bgk12rcd13ifvqbi0","pricing_plan_id":"cebpf4jnsgd1na2vs0mg"},{"bike_id":"0c86b3f8-f2ab-4116-a726-aeb4b79ffbaf","system_id":"levelo_inurba_marseille","lat":43.3044,"lon":5.38886,"is_reserved":false,"is_disabled":false,"rental_uris":{"android":"levelo://app?vid=0c86b3f8-f2ab-4116-a726-aeb4b79ffbaf","ios":"levelo://app?vid=0c86b3f8-f2ab-4116-a726-aeb4b79ffbaf"},"vehicle_type_id":"4","last_reported":1709579136,"current_range_meters":30800,"station_id":"ce4bgk12rcd13ifvqbi0","pricing_plan_id":"cebpf4jnsgd1na2vs0mg"},{"bike_id":"a9534d94-8ced-45c7-a03c-88a7defd5735","system_id":"levelo_inurba_marseille","lat":43.304274,"lon":5.388873,"is_reserved":false,"is_disabled":false,"rental_uris":{"android":"levelo://app?vid=a9534d94-8ced-45c7-a03c-88a7defd5735","ios":"levelo://app?vid=a9534d94-8ced-45c7-a03c-88a7defd5735"},"vehicle_type_id":"4","last_reported":1709579136,"current_range_meters":25200,"station_id":"ce4bgk12rcd13ifvqbi0","pricing_plan_id":"cebpf4jnsgd1na2vs0mg"},{"bike_id":"f83d10f4-8081-4e9f-bee9-468596376acf","system_id":"levelo_inurba_marseille","lat":43.30445,"lon":5.38891,"is_reserved":false,"is_disabled":false,"rental_uris":{"android":"levelo://app?vid=f83d10f4-8081-4e9f-bee9-468596376acf","ios":"levelo://app?vid=f83d10f4-8081-4e9f-bee9-468596376acf"},"vehicle_type_id":"4","last_reported":1709579136,"current_range_meters":21600,"station_id":"ce4bgk12rcd13ifvqbi0","pricing_plan_id":"cebpf4jnsgd1na2vs0mg"},{"bike_id":"6336ecab-2133-478e-9796-369b78f64f29","system_id":"levelo_inurba_marseille","lat":43.304274,"lon":5.388873,"is_reserved":false,"is_disabled":false,"rental_uris":{"android":"levelo://app?vid=6336ecab-2133-478e-9796-369b78f64f29","ios":"levelo://app?vid=6336ecab-2133-478e-9796-369b78f64f29"},"vehicle_type_id":"4","last_reported":1709579136,"current_range_meters":12400,"station_id":"ce4bgk12rcd13ifvqbi0","pricing_plan_id":"cebpf4jnsgd1na2vs0mg"},{"bike_id":"c24132df-41b3-4b33-b7ca-0b7d1b1f0c38","system_id":"levelo_inurba_marseille","lat":43.30441,"lon":5.38889,"is_reserved":false,"is_disabled":false,"rental_uris":{"android":"levelo://app?vid=c24132df-41b3-4b33-b7ca-0b7d1b1f0c38","ios":"levelo://app?vid=c24132df-41b3-4b33-b7ca-0b7d1b1f0c38"},"vehicle_type_id":"4","last_reported":1709579136,"current_range_meters":0,"station_id":"ce4bgk12rcd13ifvqbi0","pricing_plan_id":"cebpf4jnsgd1na2vs0mg"},{"bike_id":"d1518b4c-06a0-482e-abe6-bb92ae42f98d","system_id":"levelo_inurba_marseille","lat":43.3044,"lon":5.38889,"is_reserved":false,"is_disabled":false,"rental_uris":{"android":"levelo://app?vid=d1518b4c-06a0-482e-abe6-bb92ae42f98d","ios":"levelo://app?vid=d1518b4c-06a0-482e-abe6-bb92ae42f98d"},"vehicle_type_id":"4","last_reported":1709579136,"current_range_meters":9600,"station_id":"ce4bgk12rcd13ifvqbi0","pricing_plan_id":"cebpf4jnsgd1na2vs0mg"},{"bike_id":"bbf344a2-5b34-431c-996f-666480e9c377","system_id":"levelo_inurba_marseille","lat":43.295698,"lon":5.37505,"is_reserved":false,"is_disabled":false,"rental_uris":{"android":"levelo://app?vid=bbf344a2-5b34-431c-996f-666480e9c377","ios":"levelo://app?vid=bbf344a2-5b34-431c-996f-666480e9c377"},"vehicle_type_id":"4","last_reported":1709579136,"current_range_meters":16000,"station_id":"ce4bgh92rcd13ifvqb50","pricing_plan_id":"cebpf4jnsgd1na2vs0mg"},{"bike_id":"3a34544e-ecd0-46fb-ab7d-1c169d004dd7","system_id":"levelo_inurba_marseille","lat":43.30434,"lon":5.388866,"is_reserved":false,"is_disabled":false,"rental_uris":{"android":"levelo://app?vid=3a34544e-ecd0-46fb-ab7d-1c169d004dd7","ios":"levelo://app?vid=3a34544e-ecd0-46fb-ab7d-1c169d004dd7"},"vehicle_type_id":"4","last_reported":1709579136,"current_range_meters":15200,"station_id":"ce4bgk12rcd13ifvqbi0","pricing_plan_id":"cebpf4jnsgd1na2vs0mg"},{"bike_id":"bda174f6-5eaa-4d89-b9ab-84b1ddc54124","system_id":"levelo_inurba_marseille","lat":43.304274,"lon":5.388873,"is_reserved":false,"is_disabled":false,"rental_uris":{"android":"levelo://app?vid=bda174f6-5eaa-4d89-b9ab-84b1ddc54124","ios":"levelo://app?vid=bda174f6-5eaa-4d89-b9ab-84b1ddc54124"},"vehicle_type_id":"4","last_reported":1709579136,"current_range_meters":9200,"station_id":"ce4bgk12rcd13ifvqbi0","pricing_plan_id":"cebpf4jnsgd1na2vs0mg"},{"bike_id":"7bbadce4-f837-46f9-a90a-7f7ce07aebcf","system_id":"levelo_inurba_marseille","lat":43.295748,"lon":5.37522,"is_reserved":false,"is_disabled":false,"rental_uris":{"android":"levelo://app?vid=7bbadce4-f837-46f9-a90a-7f7ce07aebcf","ios":"levelo://app?vid=7bbadce4-f837-46f9-a90a-7f7ce07aebcf"},"vehicle_type_id":"4","last_reported":1709579136,"current_range_meters":25200,"station_id":"ce4bgh92rcd13ifvqb50","pricing_plan_id":"cebpf4jnsgd1na2vs0mg"},{"bike_id":"0d573eb4-e31f-4a5b-bc2b-40f880af019e","system_id":"levelo_inurba_marseille","lat":43.304318,"lon":5.388858,"is_reserved":false,"is_disabled":false,"rental_uris":{"android":"levelo://app?vid=0d573eb4-e31f-4a5b-bc2b-40f880af019e","ios":"levelo://app?vid=0d573eb4-e31f-4a5b-bc2b-40f880af019e"},"vehicle_type_id":"4","last_reported":1709579136,"current_range_meters":14800,"station_id":"ce4bgk12rcd13ifvqbi0","pricing_plan_id":"cebpf4jnsgd1na2vs0mg"},{"bike_id":"03ab5111-2522-43ea-ae2d-122e3a078e78","system_id":"levelo_inurba_marseille","lat":43.304361,"lon":5.388892,"is_reserved":false,"is_disabled":false,"rental_uris":{"android":"levelo://app?vid=03ab5111-2522-43ea-ae2d-122e3a078e78","ios":"levelo://app?vid=03ab5111-2522-43ea-ae2d-122e3a078e78"},"vehicle_type_id":"4","last_reported":1709579136,"current_range_meters":9600,"station_id":"ce4bgk12rcd13ifvqbi0","pricing_plan_id":"cebpf4jnsgd1na2vs0mg"},{"bike_id":"6993eb64-355b-4952-9d8f-f447f2fe796d","system_id":"levelo_inurba_marseille","lat":43.295748,"lon":5.37522,"is_reserved":false,"is_disabled":false,"rental_uris":{"android":"levelo://app?vid=6993eb64-355b-4952-9d8f-f447f2fe796d","ios":"levelo://app?vid=6993eb64-355b-4952-9d8f-f447f2fe796d"},"vehicle_type_id":"4","last_reported":1709579136,"current_range_meters":23600,"station_id":"ce4bgh92rcd13ifvqb50","pricing_plan_id":"cebpf4jnsgd1na2vs0mg"},{"bike_id":"b1e9a0d8-8ec4-4de1-b7e0-eea692982c94","system_id":"levelo_inurba_marseille","lat":43.3043,"lon":5.38885,"is_reserved":false,"is_disabled":false,"rental_uris":{"android":"levelo://app?vid=b1e9a0d8-8ec4-4de1-b7e0-eea692982c94","ios":"levelo://app?vid=b1e9a0d8-8ec4-4de1-b7e0-eea692982c94"},"vehicle_type_id":"4","last_reported":1709579136,"current_range_meters":12400,"station_id":"ce4bgk12rcd13ifvqbi0","pricing_plan_id":"cebpf4jnsgd1na2vs0mg"},