{"last_updated":1781616765,"ttl":60,"version":"2.2","data":{"bikes":[{"bike_id":"a15dd3fd-a54e-4add-a3c0-b20a9760fd44","system_id":"levelo_inurba_marseille","lat":43.337444,"lon":5.374475,"is_reserved":false,"is_disabled":false,"rental_uris":{"android":"levelo://app?vid=a15dd3fd-a54e-4add-a3c0-b20a9760fd44","ios":"levelo://app?vid=a15dd3fd-a54e-4add-a3c0-b20a9760fd44"},"vehicle_type_id":"4","last_reported":1781616766,"current_range_meters":0,"station_id":"","pricing_plan_id":"cebpf4jnsgd1na2vs0mg"},{"bike_id":"0262f6a3-5c75-4cf3-8503-2df5020c3216","system_id":"levelo_inurba_marseille","lat":43.25583,"lon":5.38232,"is_reserved":false,"is_disabled":false,"rental_uris":{"android":"levelo://app?vid=0262f6a3-5c75-4cf3-8503-2df5020c3216","ios":"levelo://app?vid=0262f6a3-5c75-4cf3-8503-2df5020c3216"},"vehicle_type_id":"4","last_reported":1781616766,"current_range_meters":1200,"station_id":"ce4bhih2rcd13ifvqfs0","pricing_plan_id":"cebpf4jnsgd1na2vs0mg"},{"bike_id":"a8e11f96-02de-4284-8d08-f70168c9e9a0","system_id":"levelo_inurba_marseille","lat":43.29204,"lon":5.38382,"is_reserved":false,"is_disabled":false,"rental_uris":{"android":"levelo://app?vid=a8e11f96-02de-4284-8d08-f70168c9e9a0","ios":"levelo://app?vid=a8e11f96-02de-4284-8d08-f70168c9e9a0"},"vehicle_type_id":"4","last_reported":1781616766,"current_range_meters":2000,"station_id":"","pricing_plan_id":"cebpf4jnsgd1na2vs0mg"},{"bike_id":"d45deb3a-a12d-4c38-8919-5c77f780b71f","system_id":"levelo_inurba_marseille","lat":43.29112,"lon":5.38076,"is_reserved":false,"is_disabled":false,"rental_uris":{"android":"levelo://app?vid=d45deb3a-a12d-4c38-8919-5c77f780b71f","ios":"levelo://app?vid=d45deb3a-a12d-4c38-8919-5c77f780b71f"},"vehicle_type_id":"4","last_reported":1781616766,"current_range_meters":2800,"station_id":"","pricing_plan_id":"cebpf4jnsgd1na2vs0mg"},{"bike_id":"c106895c-1a0a-4b68-a904-272aeb217200","system_id":"levelo_inurba_marseille","lat":43.25428,"lon":5.42805,"is_reserved":false,"is_disabled":false,"rental_uris":{"android":"levelo://app?vid=c106895c-1a0a-4b68-a904-272aeb217200","ios":"levelo://app?vid=c106895c-1a0a-4b68-a904-272aeb217200"},"vehicle_type_id":"4","last_reported":1781616766,"current_range_meters":2800,"station_id":"","pricing_plan_id":"cebpf4jnsgd1na2vs0mg"},{"bike_id":"e769e917-35b5-45a2-89fb-b8e60b5a1a90","system_id":"levelo_inurba_marseille","lat":43.29227,"lon":5.36049,"is_reserved":false,"is_disabled":true,"rental_uris":{"android":"levelo://app?vid=e769e917-35b5-45a2-89fb-b8e60b5a1a90","ios":"levelo://app?vid=e769e917-35b5-45a2-89fb-b8e60b5a1a90"},"vehicle_type_id":"4","last_reported":1781616766,"current_range_meters":2800,"station_id":"ce4bhbh2rcd13ifvqeqg","pricing_plan_id":"cebpf4jnsgd1na2vs0mg"},{"bike_id":"96d267e3-9f56-4dba-8ec6-37338f9f11ce","system_id":"levelo_inurba_marseille","lat":43.32503,"lon":5.38274,"is_reserved":false,"is_disabled":false,"rental_uris":{"android":"levelo://app?vid=96d267e3-9f56-4dba-8ec6-37338f9f11ce","ios":"levelo://app?vid=96d267e3-9f56-4dba-8ec6-37338f9f11ce"},"vehicle_type_id":"4","last_reported":1781616766,"current_range_meters":2800,"station_id":"st_d4asgbiv49dc73anf9m0","pricing_plan_id":"cebpf4jnsgd1na2vs0mg"},{"bike_id":"76be7918-35ab-49f8-90ff-c37e1e118473","system_id":"levelo_inurba_marseille","lat":43.29005,"lon":5.35611,"is_reserved":false,"is_disabled":false,"rental_uris":{"android":"levelo://app?vid=76be7918-35ab-49f8-90ff-c37e1e118473","ios":"levelo://app?vid=76be7918-35ab-49f8-90ff-c37e1e118473"},"vehicle_type_id":"4","last_reported":1781616766,"current_range_meters":2800,"station_id":"ce4bhb92rcd13ifvqen0","pricing_plan_id":"cebpf4jnsgd1na2vs0mg"},{"bike_id":"79543685-7bb4-40cd-afe4-c132d9b59c7c","system_id":"levelo_inurba_marseille","lat":43.32366,"lon":5.36738,"is_reserved":false,"is_disabled":false,"rental_uris":{"android":"levelo://app?vid=79543685-7bb4-40cd-afe4-c132d9b59c7c","ios":"levelo://app?vid=79543685-7bb4-40cd-afe4-c132d9b59c7c"},"vehicle_type_id":"4","last_reported":1781616766,"current_range_meters":2800,"station_id":"ce4bhsh2rcd13ifvqi2g","pricing_plan_id":"cebpf4jnsgd1na2vs0mg"},{"bike_id":"a71f6bae-0e30-46f1-8a97-a6f4b221487c","system_id":"levelo_inurba_marseille","lat":43.30922,"lon":5.3686,"is_reserved":false,"is_disabled":false,"rental_uris":{"android":"levelo://app?vid=a71f6bae-0e30-46f1-8a97-a6f4b221487c","ios":"levelo://app?vid=a71f6bae-0e30-46f1-8a97-a6f4b221487c"},"vehicle_type_id":"4","last_reported":1781616766,"current_range_meters":2800,"station_id":"ce4bgn92rcd13ifvqbvg","pricing_plan_id":"cebpf4jnsgd1na2vs0mg"},{"bike_id":"62c742f8-5c40-4739-b248-5398c50b00a3","system_id":"levelo_inurba_marseille","lat":43.31243,"lon":5.36813,"is_reserved":false,"is_disabled":false,"rental_uris":{"android":"levelo://app?vid=62c742f8-5c40-4739-b248-5398c50b00a3","ios":"levelo://app?vid=62c742f8-5c40-4739-b248-5398c50b00a3"},"vehicle_type_id":"4","last_reported":1781616766,"current_range_meters":2800,"station_id":"ce4bgl92rcd13ifvqbq0","pricing_plan_id":"cebpf4jnsgd1na2vs0mg"},{"bike_id":"a32c4a18-0f8f-40ed-aab4-a8e7a198abcb","system_id":"levelo_inurba_marseille","lat":43.28625,"lon":5.39942,"is_reserved":false,"is_disabled":true,"rental_uris":{"android":"levelo://app?vid=a32c4a18-0f8f-40ed-aab4-a8e7a198abcb","ios":"levelo://app?vid=a32c4a18-0f8f-40ed-aab4-a8e7a198abcb"},"vehicle_type_id":"4","last_reported":1781616766,"current_range_meters":2800,"station_id":"ce4bho92rcd13ifvqh3g","pricing_plan_id":"cebpf4jnsgd1na2vs0mg"},{"bike_id":"e13a9e74-d89f-4c16-b1d2-3107612f83d5","system_id":"levelo_inurba_marseille","lat":43.3137,"lon":5.3853,"is_reserved":false,"is_disabled":false,"rental_uris":{"android":"levelo://app?vid=e13a9e74-d89f-4c16-b1d2-3107612f83d5","ios":"levelo://app?vid=e13a9e74-d89f-4c16-b1d2-3107612f83d5"},"vehicle_type_id":"4","last_reported":1781616766,"current_range_meters":2800,"station_id":"ce4bgt92rcd13ifvqcf0","pricing_plan_id":"cebpf4jnsgd1na2vs0mg"},{"bike_id":"83072e98-8df3-48fc-b253-9e46d571a98a","system_id":"levelo_inurba_marseille","lat":43.28146,"lon":5.42642,"is_reserved":false,"is_disabled":false,"rental_uris":{"android":"levelo://app?vid=83072e98-8df3-48fc-b253-9e46d571a98a","ios":"levelo://app?vid=83072e98-8df3-48fc-b253-9e46d571a98a"},"vehicle_type_id":"4","last_reported":1781616766,"current_range_meters":2800,"station_id":"ce4bhnh2rcd13ifvqgug","pricing_plan_id":"cebpf4jnsgd1na2vs0mg"},{"bike_id":"48686ea1-1f82-489d-ad30-fd2f21349580","system_id":"levelo_inurba_marseille","lat":43.337533,"lon":5.374474,"is_reserved":false,"is_disabled":false,"rental_uris":{"android":"levelo://app?vid=48686ea1-1f82-489d-ad30-fd2f21349580","ios":"levelo://app?vid=48686ea1-1f82-489d-ad30-fd2f21349580"},"vehicle_type_id":"4","last_reported":1781616766,"current_range_meters":3200,"station_id":"","pricing_plan_id":"cebpf4jnsgd1na2vs0mg"},{"bike_id":"d7301e94-0c6e-47a2-8f94-141fcb0c53c6","system_id":"levelo_inurba_marseille","lat":43.24572,"lon":5.4165,"is_reserved":false,"is_disabled":false,"rental_uris":{"android":"levelo://app?vid=d7301e94-0c6e-47a2-8f94-141fcb0c53c6","ios":"levelo://app?vid=d7301e94-0c6e-47a2-8f94-141fcb0c53c6"},"vehicle_type_id":"4","last_reported":1781616766,"current_range_meters":3200,"station_id":"","pricing_plan_id":"cebpf4jnsgd1na2vs0mg"},{"bike_id":"5880a88b-45c7-4143-8918-f8e3cc703d57","system_id":"levelo_inurba_marseille","lat":43.26683,"lon":5.38271,"is_reserved":false,"is_disabled":false,"rental_uris":{"android":"levelo://app?vid=5880a88b-45c7-4143-8918-f8e3cc703d57","ios":"levelo://app?vid=5880a88b-45c7-4143-8918-f8e3cc703d57"},"vehicle_type_id":"4","last_reported":1781616766,"current_range_meters":3200,"station_id":"ce4bhg92rcd13ifvqf90","pricing_plan_id":"cebpf4jnsgd1na2vs0mg"},{"bike_id":"f9e0fd97-e1aa-449a-96c1-9902bfa884fd","system_id":"levelo_inurba_marseille","lat":43.24166,"lon":5.36396,"is_reserved":false,"is_disabled":false,"rental_uris":{"android":"levelo://app?vid=f9e0fd97-e1aa-449a-96c1-9902bfa884fd","ios":"levelo://app?vid=f9e0fd97-e1aa-449a-96c1-9902bfa884fd"},"vehicle_type_id":"4","last_reported":1781616766,"current_range_meters":3200,"station_id":"cpo36qri1sfpv3e86is0","pricing_plan_id":"cebpf4jnsgd1na2vs0mg"},{"bike_id":"25c339c1-afc4-404c-85a1-fb5e7393447c","system_id":"levelo_inurba_marseille","lat":43.24086,"lon":5.37749,"is_reserved":false,"is_disabled":false,"rental_uris":{"android":"levelo://app?vid=25c339c1-afc4-404c-85a1-fb5e7393447c","ios":"levelo://app?vid=25c339c1-afc4-404c-85a1-fb5e7393447c"},"vehicle_type_id":"4","last_reported":1781616766,"current_range_meters":3200,"station_id":"ce4bhnp2rcd13ifvqgvg","pricing_plan_id":"cebpf4jnsgd1na2vs0mg"},{"bike_id":"0783b351-3f31-4fff-90fc-02891fffc3aa","system_id":"levelo_inurba_marseille","lat":43.31519,"lon":5.388,"is_reserved":false,"is_disabled":false,"rental_uris":{"android":"levelo://app?vid=0783b351-3f31-4fff-90fc-02891fffc3aa","ios":"levelo://app?vid=0783b351-3f31-4fff-90fc-02891fffc3aa"},"vehicle_type_id":"4","last_reported":1781616766,"current_range_meters":3200,"station_id":"","pricing_plan_id":"cebpf4jnsgd1na2vs0mg"},{"bike_id":"e61902e3-5caf-4f85-8eb8-65fd858fc4b0","system_id":"levelo_inurba_marseille","lat":43.28051,"lon":5.35344,"is_reserved":false,"is_disabled":true,"rental_uris":{"android":"levelo://app?vid=e61902e3-5caf-4f85-8eb8-65fd858fc4b0","ios":"levelo://app?vid=e61902e3-5caf-4f85-8eb8-65fd858fc4b0"},"vehicle_type_id":"4","last_reported":1781616766,"current_range_meters":3200,"station_id":"","pricing_plan_id":"cebpf4jnsgd1na2vs0mg"},{"bike_id":"46c04dc8-7f18-468a-8da7-51e4c4f5e573","system_id":"levelo_inurba_marseille","lat":43.28472,"lon":5.38427,"is_reserved":false,"is_disabled":true,"rental_uris":{"android":"levelo://app?vid=46c04dc8-7f18-468a-8da7-51e4c4f5e573","ios":"levelo://app?vid=46c04dc8-7f18-468a-8da7-51e4c4f5e573"},"vehicle_type_id":"4","last_reported":1781616766,"current_range_meters":3200,"station_id":"ce4bh512rcd13ifvqe3g","pricing_plan_id":"cebpf4jnsgd1na2vs0mg"},{"bike_id":"f00f34b6-0519-400c-a82a-2556e16d11ff","system_id":"levelo_inurba_marseille","lat":43.30541,"lon":5.36703,"is_reserved":false,"is_disabled":false,"rental_uris":{"android":"levelo://app?vid=f00f34b6-0519-400c-a82a-2556e16d11ff","ios":"levelo://app?vid=f00f34b6-0519-400c-a82a-2556e16d11ff"},"vehicle_type_id":"4","last_reported":1781616766,"current_range_meters":3200,"station_id":"ce4bgrp2rcd13ifvqc9g","pricing_plan_id":"cebpf4jnsgd1na2vs0mg"},{"bike_id":"fa541b92-8ad3-4289-80a2-67af458828c6","system_id":"levelo_inurba_marseille","lat":43.28692,"lon":5.46915,"is_reserved":false,"is_disabled":false,"rental_uris":{"android":"levelo://app?vid=fa541b92-8ad3-4289-80a2-67af458828c6","ios":"levelo://app?vid=fa541b92-8ad3-4289-80a2-67af458828c6"},"vehicle_type_id":"4","last_reported":1781616766,"current_range_meters":3200,"station_id":"","pricing_plan_id":"cebpf4jnsgd1na2vs0mg"},{"bike_id":"4975f4e0-77c7-4867-b16c-2716a77a3ad0","system_id":"levelo_inurba_marseille","lat":43.289,"lon":5.37781,"is_reserved":false,"is_disabled":false,"rental_uris":{"android":"levelo://app?vid=4975f4e0-77c7-4867-b16c-2716a77a3ad0","ios":"levelo://app?vid=4975f4e0-77c7-4867-b16c-2716a77a3ad0"},"vehicle_type_id":"4","last_reported":1781616766,"current_range_meters":3200,"station_id":"","pricing_plan_id":"cebpf4jnsgd1na2vs0mg"},{"bike_id":"2f0aa55c-a151-4e93-b0f2-5dea1ee62685","system_id":"levelo_inurba_marseille","lat":43.29555,"lon":5.42293,"is_reserved":false,"is_disabled":false,"rental_uris":{"android":"levelo://app?vid=2f0aa55c-a151-4e93-b0f2-5dea1ee62685","ios":"levelo://app?vid=2f0aa55c-a151-4e93-b0f2-5dea1ee62685"},"vehicle_type_id":"4","last_reported":1781616766,"current_range_meters":3200,"station_id":"ce4bhph2rcd13ifvqhdg","pricing_plan_id":"cebpf4jnsgd1na2vs0mg"},{"bike_id":"c5ee4257-f7af-4b5a-a949-8289e68487cd","system_id":"levelo_inurba_marseille","lat":43.28388,"lon":5.4601,"is_reserved":false,"is_disabled":false,"rental_uris":{"android":"levelo://app?vid=c5ee4257-f7af-4b5a-a949-8289e68487cd","ios":"levelo://app?vid=c5ee4257-f7af-4b5a-a949-8289e68487cd"},"vehicle_type_id":"4","last_reported":1781616766,"current_range_meters":3200,"station_id":"","pricing_plan_id":"cebpf4jnsgd1na2vs0mg"},{"bike_id":"0f856163-a9db-45fb-be49-872c6db9182a","system_id":"levelo_inurba_marseille","lat":43.29793,"lon":5.3815,"is_reserved":false,"is_disabled":false,"rental_uris":{"android":"levelo://app?vid=0f856163-a9db-45fb-be49-872c6db9182a","ios":"levelo://app?vid=0f856163-a9db-45fb-be49-872c6db9182a"},"vehicle_type_id":"4","last_reported":1781616766,"current_range_meters":3200,"station_id":"ce4bgip2rcd13ifvqbb0","pricing_plan_id":"cebpf4jnsgd1na2vs0mg"},{"bike_id":"a81dec6f-a4d2-4f97-88b1-db7fc6b4723b","system_id":"levelo_inurba_marseille","lat":43.3354,"lon":5.37466,"is_reserved":false,"is_disabled":false,"rental_uris":{"android":"levelo://app?vid=a81dec6f-a4d2-4f97-88b1-db7fc6b4723b","ios":"levelo://app?vid=a81dec6f-a4d2-4f97-88b1-db7fc6b4723b"},"vehicle_type_id":"4","last_reported":1781616766,"current_range_meters":3200,"station_id":"st_d46tts09ee8s73dlu43g","pricing_plan_id":"cebpf4jnsgd1na2vs0mg"},{"bike_id":"87a56ddb-4ca1-4c09-9c8e-11ae22c38cce","system_id":"levelo_inurba_marseille","lat":43.27383,"lon":5.36262,"is_reserved":false,"is_disabled":false,"rental_uris":{"android":"levelo://app?vid=87a56ddb-4ca1-4c09-9c8e-11ae22c38cce","ios":"levelo://app?vid=87a56ddb-4ca1-4c09-9c8e-11ae22c38cce"},"vehicle_type_id":"4","last_reported":1781616766,"current_range_meters":3200,"station_id":"ce4bhbh2rcd13ifvqeo0","pricing_plan_id":"cebpf4jnsgd1na2vs0mg"},{"bike_id":"00d07dd9-d5cf-4217-917e-e004effb0689","system_id":"levelo_inurba_marseille","lat":43.29005,"lon":5.35613,"is_reserved":false,"is_disabled":false,"rental_uris":{"android":"levelo://app?vid=00d07dd9-d5cf-4217-917e-e004effb0689","ios":"levelo://app?vid=00d07dd9-d5cf-4217-917e-e004effb0689"},"vehicle_type_id":"4","last_reported":1781616766,"current_range_meters":3200,"station_id":"ce4bhb92rcd13ifvqen0","pricing_plan_id":"cebpf4jnsgd1na2vs0mg"},{"bike_id":"97bdbf05-e619-4ae5-8f04-aab3cac27da4","system_id":"levelo_inurba_marseille","lat":43.31124,"lon":5.37768,"is_reserved":false,"is_disabled":false,"rental_uris":{"android":"levelo://app?vid=97bdbf05-e619-4ae5-8f04-aab3cac27da4","ios":"levelo://app?vid=97bdbf05-e619-4ae5-8f04-aab3cac27da4"},"vehicle_type_id":"4","last_reported":1781616766,"current_range_meters":3200,"station_id":"ce4bgt92rcd13ifvqcg0","pricing_plan_id":"cebpf4jnsgd1na2vs0mg"},{"bike_id":"6aa6b80d-69be-4dd6-8465-0ae4284706f5","system_id":"levelo_inurba_marseille","lat":43.29249,"lon":5.38038,"is_reserved":false,"is_disabled":false,"rental_uris":{"android":"levelo://app?vid=6aa6b80d-69be-4dd6-8465-0ae4284706f5","ios":"levelo://app?vid=6aa6b80d-69be-4dd6-8465-0ae4284706f5"},"vehicle_type_id":"4","last_reported":1781616766,"current_range_meters":3200,"station_id":"","pricing_plan_id":"cebpf4jnsgd1na2vs0mg"},{"bike_id":"4894b05e-9ea0-4bd6-9625-cf2ed3d46fe6","system_id":"levelo_inurba_marseille","lat":43.2315,"lon":5.437,"is_reserved":false,"is_disabled":false,"rental_uris":{"android":"levelo://app?vid=4894b05e-9ea0-4bd6-9625-cf2ed3d46fe6","ios":"levelo://app?vid=4894b05e-9ea0-4bd6-9625-cf2ed3d46fe6"},"vehicle_type_id":"4","last_reported":1781616766,"current_range_meters":3200,"station_id":"ce4bhmp2rcd13ifvqgog","pricing_plan_id":"cebpf4jnsgd1na2vs0mg"},{"bike_id":"1a958232-cb79-4b53-91a1-818be5af4b26","system_id":"levelo_inurba_marseille","lat":43.22561,"lon":5.41641,"is_reserved":false,"is_disabled":false,"rental_uris":{"android":"levelo://app?vid=1a958232-cb79-4b53-91a1-818be5af4b26","ios":"levelo://app?vid=1a958232-cb79-4b53-91a1-818be5af4b26"},"vehicle_type_id":"4","last_reported":1781616766,"current_range_meters":3600,"station_id":"st_d2o4gvlbi1j2169b742g","pricing_plan_id":"cebpf4jnsgd1na2vs0mg"},{"bike_id":"f9a88398-1130-4d28-ae2d-901e71e456fe","system_id":"levelo_inurba_marseille","lat":43.29509,"lon":5.39404,"is_reserved":false,"is_disabled":true,"rental_uris":{"android":"levelo://app?vid=f9a88398-1130-4d28-ae2d-901e71e456fe","ios":"levelo://app?vid=f9a88398-1130-4d28-ae2d-901e71e456fe"},"vehicle_type_id":"4","last_reported":1781616766,"current_range_meters":3600,"station_id":"ce4bh292rcd13ifvqdf0","pricing_plan_id":"cebpf4jnsgd1na2vs0mg"},{"bike_id":"d2c833df-999f-42ab-ac2d-a5237f45ee53","system_id":"levelo_inurba_marseille","lat":43.28147,"lon":5.42744,"is_reserved":false,"is_disabled":false,"rental_uris":{"android":"levelo://app?vid=d2c833df-999f-42ab-ac2d-a5237f45ee53","ios":"levelo://app?vid=d2c833df-999f-42ab-ac2d-a5237f45ee53"},"vehicle_type_id":"4","last_reported":1781616766,"current_range_meters":3600,"station_id":"","pricing_plan_id":"cebpf4jnsgd1na2vs0mg"},{"bike_id":"03529716-bb84-4915-9f35-9c6ca6c77b89","system_id":"levelo_inurba_marseille","lat":43.25559,"lon":5.38248,"is_reserved":false,"is_disabled":false,"rental_uris":{"android":"levelo://app?vid=03529716-bb84-4915-9f35-9c6ca6c77b89","ios":"levelo://app?vid=03529716-bb84-4915-9f35-9c6ca6c77b89"},"vehicle_type_id":"4","last_reported":1781616766,"current_range_meters":3600,"station_id":"ce4bhih2rcd13ifvqfs0","pricing_plan_id":"cebpf4jnsgd1na2vs0mg"},{"bike_id":"7fa71963-9ff0-41a7-97fe-1850d4bc8de4","system_id":"levelo_inurba_marseille","lat":43.30143,"lon":5.39879,"is_reserved":false,"is_disabled":false,"rental_uris":{"android":"levelo://app?vid=7fa71963-9ff0-41a7-97fe-1850d4bc8de4","ios":"levelo://app?vid=7fa71963-9ff0-41a7-97fe-1850d4bc8de4"},"vehicle_type_id":"4","last_reported":1781616766,"current_range_meters":3600,"station_id":"ce4bh0h2rcd13ifvqd40","pricing_plan_id":"cebpf4jnsgd1na2vs0mg"},{"bike_id":"27b673d3-bbfe-41e3-8fe8-9e18e21739be","system_id":"levelo_inurba_marseille","lat":43.28482,"lon":5.48395,"is_reserved":false,"is_disabled":false,"rental_uris":{"android":"levelo://app?vid=27b673d3-bbfe-41e3-8fe8-9e18e21739be","ios":"levelo://app?vid=27b673d3-bbfe-41e3-8fe8-9e18e21739be"},"vehicle_type_id":"4","last_reported":1781616766,"current_range_meters":3600,"station_id":"st_d3svhcjqgbts73a3dn0g","pricing_plan_id":"cebpf4jnsgd1na2vs0mg"},{"bike_id":"d457be2c-16d3-4a48-87c5-61869fe9a33b","system_id":"levelo_inurba_marseille","lat":43.30485,"lon":5.37905,"is_reserved":false,"is_disabled":false,"rental_uris":{"android":"levelo://app?vid=d457be2c-16d3-4a48-87c5-61869fe9a33b","ios":"levelo://app?vid=d457be2c-16d3-4a48-87c5-61869fe9a33b"},"vehicle_type_id":"4","last_reported":1781616766,"current_range_meters":3600,"station_id":"ce4bgup2rcd13ifvqcn0","pricing_plan_id":"cebpf4jnsgd1na2vs0mg"},{"bike_id":"a3501f4b-362a-4138-9a71-94f9db606069","system_id":"levelo_inurba_marseille","lat":43.25862,"lon":5.39902,"is_reserved":false,"is_disabled":false,"rental_uris":{"android":"levelo://app?vid=a3501f4b-362a-4138-9a71-94f9db606069","ios":"levelo://app?vid=a3501f4b-362a-4138-9a71-94f9db606069"},"vehicle_type_id":"4","last_reported":1781616766,"current_range_meters":3600,"station_id":"ce4bhl92rcd13ifvqghg","pricing_plan_id":"cebpf4jnsgd1na2vs0mg"},{"bike_id":"270cf2d2-4c8d-4fd6-98e0-7d5837c37284","system_id":"levelo_inurba_marseille","lat":43.2175,"lon":5.34597,"is_reserved":false,"is_disabled":true,"rental_uris":{"android":"levelo://app?vid=270cf2d2-4c8d-4fd6-98e0-7d5837c37284","ios":"levelo://app?vid=270cf2d2-4c8d-4fd6-98e0-7d5837c37284"},"vehicle_type_id":"4","last_reported":1781616766,"current_range_meters":3600,"station_id":"st_cvj6r9ubvosntc0bgbag","pricing_plan_id":"cebpf4jnsgd1na2vs0mg"},{"bike_id":"aeee5567-cd54-4d88-9d99-fc1883851d0e","system_id":"levelo_inurba_marseille","lat":43.32465,"lon":5.38278,"is_reserved":false,"is_disabled":false,"rental_uris":{"android":"levelo://app?vid=aeee5567-cd54-4d88-9d99-fc1883851d0e","ios":"levelo://app?vid=aeee5567-cd54-4d88-9d99-fc1883851d0e"},"vehicle_type_id":"4","last_reported":1781616766,"current_range_meters":3600,"station_id":"st_d4asgbiv49dc73anf9m0","pricing_plan_id":"cebpf4jnsgd1na2vs0mg"},{"bike_id":"42570adb-e783-4566-a45a-889e0373e1da","system_id":"levelo_inurba_marseille","lat":43.28003,"lon":5.38682,"is_reserved":false,"is_disabled":true,"rental_uris":{"android":"levelo://app?vid=42570adb-e783-4566-a45a-889e0373e1da","ios":"levelo://app?vid=42570adb-e783-4566-a45a-889e0373e1da"},"vehicle_type_id":"4","last_reported":1781616766,"current_range_meters":3600,"station_id":"","pricing_plan_id":"cebpf4jnsgd1na2vs0mg"},{"bike_id":"60393948-f953-47a5-8fb8-dcd6bffb6cc7","system_id":"levelo_inurba_marseille","lat":43.30099,"lon":5.39101,"is_reserved":false,"is_disabled":false,"rental_uris":{"android":"levelo://app?vid=60393948-f953-47a5-8fb8-dcd6bffb6cc7","ios":"levelo://app?vid=60393948-f953-47a5-8fb8-dcd6bffb6cc7"},"vehicle_type_id":"4","last_reported":1781616766,"current_range_meters":3600,"station_id":"ce4bh192rcd13ifvqdb0","pricing_plan_id":"cebpf4jnsgd1na2vs0mg"},{"bike_id":"100aff1c-206e-4f9f-b6e5-9f9cc72deb73","system_id":"levelo_inurba_marseille","lat":43.26579,"lon":5.40317,"is_reserved":false,"is_disabled":false,"rental_uris":{"android":"levelo://app?vid=100aff1c-206e-4f9f-b6e5-9f9cc72deb73","ios":"levelo://app?vid=100aff1c-206e-4f9f-b6e5-9f9cc72deb73"},"vehicle_type_id":"4","last_reported":1781616766,"current_range_meters":3600,"station_id":"ce4bhmp2rcd13ifvqgng","pricing_plan_id":"cebpf4jnsgd1na2vs0mg"},{"bike_id":"7f821429-926c-4d3d-839a-7379d954fc27","system_id":"levelo_inurba_marseille","lat":43.321,"lon":5.36777,"is_reserved":false,"is_disabled":false,"rental_uris":{"android":"levelo://app?vid=7f821429-926c-4d3d-839a-7379d954fc27","ios":"levelo://app?vid=7f821429-926c-4d3d-839a-7379d954fc27"},"vehicle_type_id":"4","last_reported":1781616766,"current_range_meters":3600,"station_id":"ce4bhrh2rcd13ifvqhug","pricing_plan_id":"cebpf4jnsgd1na2vs0mg"},{"bike_id":"43e57448-ab4b-4418-936d-18da334923b1","system_id":"levelo_inurba_marseille","lat":43.23656,"lon":5.39183,"is_reserved":false,"is_disabled":false,"rental_uris":{"android":"levelo://app?vid=43e57448-ab4b-4418-936d-18da334923b1","ios":"levelo://app?vid=43e57448-ab4b-4418-936d-18da334923b1"},"vehicle_type_id":"4","last_reported":1781616766,"current_range_meters":3600,"station_id":"","pricing_plan_id":"cebpf4jnsgd1na2vs0mg"},{"bike_id":"31b17dcf-ce0d-4ced-a026-e953deaba87b","system_id":"levelo_inurba_marseille","lat":43.28232,"lon":5.39076,"is_reserved":false,"is_disabled":false,"rental_uris":{"android":"levelo://app?vid=31b17dcf-ce0d-4ced-a026-e953deaba87b","ios":"levelo://app?vid=31b17dcf-ce0d-4ced-a026-e953deaba87b"},"vehicle_type_id":"4","last_reported":1781616766,"current_range_meters":3600,"station_id":"ce4bhn92rcd13ifvqgsg","pricing_plan_id":"cebpf4jnsgd1na2vs0mg"},{"bike_id":"b40f3110-ca5f-424f-b278-c55ed5e853fd","system_id":"levelo_inurba_marseille","lat":43.22416,"lon":5.34753,"is_reserved":false,"is_disabled":false,"rental_uris":{"android":"levelo://app?vid=b40f3110-ca5f-424f-b278-c55ed5e853fd","ios":"levelo://app?vid=b40f3110-ca5f-424f-b278-c55ed5e853fd"},"vehicle_type_id":"4","last_reported":1781616766,"current_range_meters":3600,"station_id":"","pricing_plan_id":"cebpf4jnsgd1na2vs0mg"},{"bike_id":"9a16e849-67b9-4ce6-8bbc-3f76319a0666","system_id":"levelo_inurba_marseille","lat":43.26792,"lon":5.39431,"is_reserved":false,"is_disabled":true,"rental_uris":{"android":"levelo://app?vid=9a16e849-67b9-4ce6-8bbc-3f76319a0666","ios":"levelo://app?vid=9a16e849-67b9-4ce6-8bbc-3f76319a0666"},"vehicle_type_id":"4","last_reported":1781616766,"current_range_meters":4000,"station_id":"ce4bhh12rcd13ifvqfg0","pricing_plan_id":"cebpf4jnsgd1na2vs0mg"},{"bike_id":"6297570a-6eaf-4060-90fa-47cbcf9f3ca8","system_id":"levelo_inurba_marseille","lat":43.33607,"lon":5.41027,"is_reserved":false,"is_disabled":false,"rental_uris":{"android":"levelo://app?vid=6297570a-6eaf-4060-90fa-47cbcf9f3ca8","ios":"levelo://app?vid=6297570a-6eaf-4060-90fa-47cbcf9f3ca8"},"vehicle_type_id":"4","last_reported":1781616766,"current_range_meters":4000,"station_id":"ce4bhqh2rcd13ifvqhmg","pricing_plan_id":"cebpf4jnsgd1na2vs0mg"},{"bike_id":"eac4e81e-36b1-4275-91a6-c0cb69b47b04","system_id":"levelo_inurba_marseille","lat":43.31883,"lon":5.36822,"is_reserved":false,"is_disabled":false,"rental_uris":{"android":"levelo://app?vid=eac4e81e-36b1-4275-91a6-c0cb69b47b04","ios":"levelo://app?vid=eac4e81e-36b1-4275-91a6-c0cb69b47b04"},"vehicle_type_id":"4","last_reported":1781616766,"current_range_meters":4000,"station_id":"st_d6o2h0d0559c73evc1b0","pricing_plan_id":"cebpf4jnsgd1na2vs0mg"},{"bike_id":"d1b88a5e-ce2a-406d-bc57-e78bc6e3536b","system_id":"levelo_inurba_marseille","lat":43.28453,"lon":5.37186,"is_reserved":false,"is_disabled":true,"rental_uris":{"android":"levelo://app?vid=d1b88a5e-ce2a-406d-bc57-e78bc6e3536b","ios":"levelo://app?vid=d1b88a5e-ce2a-406d-bc57-e78bc6e3536b"},"vehicle_type_id":"4","last_reported":1781616766,"current_range_meters":4000,"station_id":"","pricing_plan_id":"cebpf4jnsgd1na2vs0mg"},{"bike_id":"b49fd32b-13ca-42c5-a822-300138d3d7ff","system_id":"levelo_inurba_marseille","lat":43.30208,"lon":5.41772,"is_reserved":false,"is_disabled":false,"rental_uris":{"android":"levelo://app?vid=b49fd32b-13ca-42c5-a822-300138d3d7ff","ios":"levelo://app?vid=b49fd32b-13ca-42c5-a822-300138d3d7ff"},"vehicle_type_id":"4","last_reported":1781616766,"current_range_meters":4000,"station_id":"","pricing_plan_id":"cebpf4jnsgd1na2vs0mg"},{"bike_id":"20a7d671-469e-44c9-a64a-605182406ad8","system_id":"levelo_inurba_marseille","lat":43.26568,"lon":5.39015,"is_reserved":false,"is_disabled":false,"rental_uris":{"android":"levelo://app?vid=20a7d671-469e-44c9-a64a-605182406ad8","ios":"levelo://app?vid=20a7d671-469e-44c9-a64a-605182406ad8"},"vehicle_type_id":"4","last_reported":1781616766,"current_range_meters":4000,"station_id":"ce4bhe12rcd13ifvqf30","pricing_plan_id":"cebpf4jnsgd1na2vs0mg"},{"bike_id":"81f81687-8cfb-49a4-bd7e-3fc0f4fdab7c","system_id":"levelo_inurba_marseille","lat":43.25581,"lon":5.38232,"is_reserved":false,"is_disabled":false,"rental_uris":{"android":"levelo://app?vid=81f81687-8cfb-49a4-bd7e-3fc0f4fdab7c","ios":"levelo://app?vid=81f81687-8cfb-49a4-bd7e-3fc0f4fdab7c"},"vehicle_type_id":"4","last_reported":1781616766,"current_range_meters":4000,"station_id":"ce4bhih2rcd13ifvqfs0","pricing_plan_id":"cebpf4jnsgd1na2vs0mg"},{"bike_id":"cd845403-ce24-405a-aa17-72c12007fb35","system_id":"levelo_inurba_marseille","lat":43.29138,"lon":5.38472,"is_reserved":false,"is_disabled":false,"rental_uris":{"android":"levelo://app?vid=cd845403-ce24-405a-aa17-72c12007fb35","ios":"levelo://app?vid=cd845403-ce24-405a-aa17-72c12007fb35"},"vehicle_type_id":"4","last_reported":1781616766,"current_range_meters":4000,"station_id":"","pricing_plan_id":"cebpf4jnsgd1na2vs0mg"},{"bike_id":"56dae570-2d57-4b08-90ac-15c492a04048","system_id":"levelo_inurba_marseille","lat":43.29003,"lon":5.35613,"is_reserved":false,"is_disabled":false,"rental_uris":{"android":"levelo://app?vid=56dae570-2d57-4b08-90ac-15c492a04048","ios":"levelo://app?vid=56dae570-2d57-4b08-90ac-15c492a04048"},"vehicle_type_id":"4","last_reported":1781616766,"current_range_meters":4000,"station_id":"ce4bhb92rcd13ifvqen0","pricing_plan_id":"cebpf4jnsgd1na2vs0mg"},{"bike_id":"e3e945de-6c8e-47e1-8447-61a9b2269fb6","system_id":"levelo_inurba_marseille","lat":43.31217,"lon":5.36885,"is_reserved":false,"is_disabled":true,"rental_uris":{"android":"levelo://app?vid=e3e945de-6c8e-47e1-8447-61a9b2269fb6","ios":"levelo://app?vid=e3e945de-6c8e-47e1-8447-61a9b2269fb6"},"vehicle_type_id":"4","last_reported":1781616766,"current_range_meters":4000,"station_id":"ce4bgl92rcd13ifvqbq0","pricing_plan_id":"cebpf4jnsgd1na2vs0mg"},{"bike_id":"2466dba9-7708-4283-85a8-b876ecb60b11","system_id":"levelo_inurba_marseille","lat":43.27382,"lon":5.36261,"is_reserved":false,"is_disabled":false,"rental_uris":{"android":"levelo://app?vid=2466dba9-7708-4283-85a8-b876ecb60b11","ios":"levelo://app?vid=2466dba9-7708-4283-85a8-b876ecb60b11"},"vehicle_type_id":"4","last_reported":1781616766,"current_range_meters":4000,"station_id":"ce4bhbh2rcd13ifvqeo0","pricing_plan_id":"cebpf4jnsgd1na2vs0mg"},{"bike_id":"ef01d436-a2d3-479f-ba90-29ddb3776b80","system_id":"levelo_inurba_marseille","lat":43.302589,"lon":5.400764,"is_reserved":false,"is_disabled":false,"rental_uris":{"android":"levelo://app?vid=ef01d436-a2d3-479f-ba90-29ddb3776b80","ios":"levelo://app?vid=ef01d436-a2d3-479f-ba90-29ddb3776b80"},"vehicle_type_id":"4","last_reported":1781616766,"current_range_meters":4000,"station_id":"ce4bgvh2rcd13ifvqcs0","pricing_plan_id":"cebpf4jnsgd1na2vs0mg"},{"bike_id":"9925c053-cfec-4e49-9567-8c4189531856","system_id":"levelo_inurba_marseille","lat":43.2407,"lon":5.37761,"is_reserved":false,"is_disabled":false,"rental_uris":{"android":"levelo://app?vid=9925c053-cfec-4e49-9567-8c4189531856","ios":"levelo://app?vid=9925c053-cfec-4e49-9567-8c4189531856"},"vehicle_type_id":"4","last_reported":1781616766,"current_range_meters":4000,"station_id":"ce4bhnp2rcd13ifvqgvg","pricing_plan_id":"cebpf4jnsgd1na2vs0mg"},{"bike_id":"bfd42ca6-d834-40a9-9b22-d02ddbfa0fe8","system_id":"levelo_inurba_marseille","lat":43.22673,"lon":5.34795,"is_reserved":false,"is_disabled":false,"rental_uris":{"android":"levelo://app?vid=bfd42ca6-d834-40a9-9b22-d02ddbfa0fe8","ios":"levelo://app?vid=bfd42ca6-d834-40a9-9b22-d02ddbfa0fe8"},"vehicle_type_id":"4","last_reported":1781616766,"current_range_meters":4400,"station_id":"","pricing_plan_id":"cebpf4jnsgd1na2vs0mg"},{"bike_id":"7a2c566c-09e3-4e8d-998e-ff9429a929d9","system_id":"levelo_inurba_marseille","lat":43.29868,"lon":5.39735,"is_reserved":false,"is_disabled":false,"rental_uris":{"android":"levelo://app?vid=7a2c566c-09e3-4e8d-998e-ff9429a929d9","ios":"levelo://app?vid=7a2c566c-09e3-4e8d-998e-ff9429a929d9"},"vehicle_type_id":"4","last_reported":1781616766,"current_range_meters":4400,"station_id":"ce4bh0h2rcd13ifvqd50","pricing_plan_id":"cebpf4jnsgd1na2vs0mg"},{"bike_id":"6dfaf41f-693f-454a-ad0e-7250304bc2aa","system_id":"levelo_inurba_marseille","lat":43.30545,"lon":5.3654,"is_reserved":false,"is_disabled":true,"rental_uris":{"android":"levelo://app?vid=6dfaf41f-693f-454a-ad0e-7250304bc2aa","ios":"levelo://app?vid=6dfaf41f-693f-454a-ad0e-7250304bc2aa"},"vehicle_type_id":"4","last_reported":1781616766,"current_range_meters":4400,"station_id":"ce4bgs12rcd13ifvqcag","pricing_plan_id":"cebpf4jnsgd1na2vs0mg"},{"bike_id":"a462b60c-31db-4b91-9ec3-ede7ef244943","system_id":"levelo_inurba_marseille","lat":43.24389,"lon":5.37057,"is_reserved":false,"is_disabled":false,"rental_uris":{"android":"levelo://app?vid=a462b60c-31db-4b91-9ec3-ede7ef244943","ios":"levelo://app?vid=a462b60c-31db-4b91-9ec3-ede7ef244943"},"vehicle_type_id":"4","last_reported":1781616766,"current_range_meters":4400,"station_id":"ce4bhhh2rcd13ifvqfk0","pricing_plan_id":"cebpf4jnsgd1na2vs0mg"},{"bike_id":"743c7378-13ad-4c9f-a08b-0a7936742b8a","system_id":"levelo_inurba_marseille","lat":43.286152,"lon":5.351053,"is_reserved":false,"is_disabled":false,"rental_uris":{"android":"levelo://app?vid=743c7378-13ad-4c9f-a08b-0a7936742b8a","ios":"levelo://app?vid=743c7378-13ad-4c9f-a08b-0a7936742b8a"},"vehicle_type_id":"4","last_reported":1781616766,"current_range_meters":4400,"station_id":"ce4bhch2rcd13ifvqeug","pricing_plan_id":"cebpf4jnsgd1na2vs0mg"},{"bike_id":"d187e1e3-1a9f-46a4-84ea-0a44f20fe5d6","system_id":"levelo_inurba_marseille","lat":43.30946,"lon":5.3904,"is_reserved":false,"is_disabled":false,"rental_uris":{"android":"levelo://app?vid=d187e1e3-1a9f-46a4-84ea-0a44f20fe5d6","ios":"levelo://app?vid=d187e1e3-1a9f-46a4-84ea-0a44f20fe5d6"},"vehicle_type_id":"4","last_reported":1781616766,"current_range_meters":4400,"station_id":"ce4bgup2rcd13ifvqco0","pricing_plan_id":"cebpf4jnsgd1na2vs0mg"},{"bike_id":"80492bc5-f38f-42e5-84ca-f428f24ecac7","system_id":"levelo_inurba_marseille","lat":43.30439,"lon":5.38882,"is_reserved":false,"is_disabled":false,"rental_uris":{"android":"levelo://app?vid=80492bc5-f38f-42e5-84ca-f428f24ecac7","ios":"levelo://app?vid=80492bc5-f38f-42e5-84ca-f428f24ecac7"},"vehicle_type_id":"4","last_reported":1781616766,"current_range_meters":4400,"station_id":"ce4bgk12rcd13ifvqbi0","pricing_plan_id":"cebpf4jnsgd1na2vs0mg"},{"bike_id":"f51f5ef9-9ee9-416d-8d00-35163742cfd6","system_id":"levelo_inurba_marseille","lat":43.28947,"lon":5.36404,"is_reserved":false,"is_disabled":true,"rental_uris":{"android":"levelo://app?vid=f51f5ef9-9ee9-416d-8d00-35163742cfd6","ios":"levelo://app?vid=f51f5ef9-9ee9-416d-8d00-35163742cfd6"},"vehicle_type_id":"4","last_reported":1781616766,"current_range_meters":4400,"station_id":"ce4bhc92rcd13ifvqetg","pricing_plan_id":"cebpf4jnsgd1na2vs0mg"},{"bike_id":"172e2420-5254-4959-93d9-5c35f9258439","system_id":"levelo_inurba_marseille","lat":43.295897,"lon":5.385462,"is_reserved":false,"is_disabled":false,"rental_uris":{"android":"levelo://app?vid=172e2420-5254-4959-93d9-5c35f9258439","ios":"levelo://app?vid=172e2420-5254-4959-93d9-5c35f9258439"},"vehicle_type_id":"4","last_reported":1781616766,"current_range_meters":4400,"station_id":"","pricing_plan_id":"cebpf4jnsgd1na2vs0mg"},{"bike_id":"11b6286e-9c59-42f2-bf3b-27538bd2eaa5","system_id":"levelo_inurba_marseille","lat":43.25244,"lon":5.38082,"is_reserved":false,"is_disabled":false,"rental_uris":{"android":"levelo://app?vid=11b6286e-9c59-42f2-bf3b-27538bd2eaa5","ios":"levelo://app?vid=11b6286e-9c59-42f2-bf3b-27538bd2eaa5"},"vehicle_type_id":"4","last_reported":1781616766,"current_range_meters":4400,"station_id":"","pricing_plan_id":"cebpf4jnsgd1na2vs0mg"},{"bike_id":"2c7fd776-5934-45a3-88fb-d42517ff55d4","system_id":"levelo_inurba_marseille","lat":43.28135,"lon":5.38912,"is_reserved":false,"is_disabled":false,"rental_uris":{"android":"levelo://app?vid=2c7fd776-5934-45a3-88fb-d42517ff55d4","ios":"levelo://app?vid=2c7fd776-5934-45a3-88fb-d42517ff55d4"},"vehicle_type_id":"4","last_reported":1781616766,"current_range_meters":4400,"station_id":"","pricing_plan_id":"cebpf4jnsgd1na2vs0mg"},{"bike_id":"37f2392f-5d07-49c6-9384-05a53d27edf9","system_id":"levelo_inurba_marseille","lat":43.31366,"lon":5.36701,"is_reserved":false,"is_disabled":false,"rental_uris":{"android":"levelo://app?vid=37f2392f-5d07-49c6-9384-05a53d27edf9","ios":"levelo://app?vid=37f2392f-5d07-49c6-9384-05a53d27edf9"},"vehicle_type_id":"4","last_reported":1781616766,"current_range_meters":4400,"station_id":"ce4bgr92rcd13ifvqc6g","pricing_plan_id":"cebpf4jnsgd1na2vs0mg"},{"bike_id":"d8b843d7-0a76-4b0c-be2b-4ff07b9e439d","system_id":"levelo_inurba_marseille","lat":43.29275,"lon":5.37651,"is_reserved":false,"is_disabled":false,"rental_uris":{"android":"levelo://app?vid=d8b843d7-0a76-4b0c-be2b-4ff07b9e439d","ios":"levelo://app?vid=d8b843d7-0a76-4b0c-be2b-4ff07b9e439d"},"vehicle_type_id":"4","last_reported":1781616766,"current_range_meters":4400,"station_id":"ce4bgi12rcd13ifvqb80","pricing_plan_id":"cebpf4jnsgd1na2vs0mg"},{"bike_id":"6311fa72-23b4-4ac1-9e50-6aa36d7fd0c8","system_id":"levelo_inurba_marseille","lat":43.24812,"lon":5.3746,"is_reserved":false,"is_disabled":false,"rental_uris":{"android":"levelo://app?vid=6311fa72-23b4-4ac1-9e50-6aa36d7fd0c8","ios":"levelo://app?vid=6311fa72-23b4-4ac1-9e50-6aa36d7fd0c8"},"vehicle_type_id":"4","last_reported":1781616766,"current_range_meters":4400,"station_id":"ce4bhgh2rcd13ifvqfb0","pricing_plan_id":"cebpf4jnsgd1na2vs0mg"},{"bike_id":"9e77da94-16ad-4543-a192-69b8a6aaed8b","system_id":"levelo_inurba_marseille","lat":43.30465,"lon":5.37906,"is_reserved":false,"is_disabled":false,"rental_uris":{"android":"levelo://app?vid=9e77da94-16ad-4543-a192-69b8a6aaed8b","ios":"levelo://app?vid=9e77da94-16ad-4543-a192-69b8a6aaed8b"},"vehicle_type_id":"4","last_reported":1781616766,"current_range_meters":4400,"station_id":"ce4bgup2rcd13ifvqcn0","pricing_plan_id":"cebpf4jnsgd1na2vs0mg"},{"bike_id":"f67897c6-13a2-4e5d-bbf3-d6e4672852fa","system_id":"levelo_inurba_marseille","lat":43.30945,"lon":5.39033,"is_reserved":false,"is_disabled":false,"rental_uris":{"android":"levelo://app?vid=f67897c6-13a2-4e5d-bbf3-d6e4672852fa","ios":"levelo://app?vid=f67897c6-13a2-4e5d-bbf3-d6e4672852fa"},"vehicle_type_id":"4","last_reported":1781616766,"current_range_meters":4400,"station_id":"ce4bgup2rcd13ifvqco0","pricing_plan_id":"cebpf4jnsgd1na2vs0mg"},{"bike_id":"23515d6b-66d5-40f9-aa9c-e8270fb89b55","system_id":"levelo_inurba_marseille","lat":43.24389,"lon":5.37053,"is_reserved":false,"is_disabled":false,"rental_uris":{"android":"levelo://app?vid=23515d6b-66d5-40f9-aa9c-e8270fb89b55","ios":"levelo://app?vid=23515d6b-66d5-40f9-aa9c-e8270fb89b55"},"vehicle_type_id":"4","last_reported":1781616766,"current_range_meters":4400,"station_id":"ce4bhhh2rcd13ifvqfk0","pricing_plan_id":"cebpf4jnsgd1na2vs0mg"},{"bike_id":"bdc7b946-fa64-4d33-bb19-86380c27c8df","system_id":"levelo_inurba_marseille","lat":43.29781,"lon":5.36744,"is_reserved":false,"is_disabled":false,"rental_uris":{"android":"levelo://app?vid=bdc7b946-fa64-4d33-bb19-86380c27c8df","ios":"levelo://app?vid=bdc7b946-fa64-4d33-bb19-86380c27c8df"},"vehicle_type_id":"4","last_reported":1781616766,"current_range_meters":4400,"station_id":"","pricing_plan_id":"cebpf4jnsgd1na2vs0mg"},{"bike_id":"6c75ea55-36a8-4c7f-989b-d0fca4be45d9","system_id":"levelo_inurba_marseille","lat":43.28151,"lon":5.40105,"is_reserved":false,"is_disabled":false,"rental_uris":{"android":"levelo://app?vid=6c75ea55-36a8-4c7f-989b-d0fca4be45d9","ios":"levelo://app?vid=6c75ea55-36a8-4c7f-989b-d0fca4be45d9"},"vehicle_type_id":"4","last_reported":1781616766,"current_range_meters":4400,"station_id":"","pricing_plan_id":"cebpf4jnsgd1na2vs0mg"},{"bike_id":"49e7ad26-177c-49db-ab47-4683f3bbd3e6","system_id":"levelo_inurba_marseille","lat":43.29728,"lon":5.37695,"is_reserved":false,"is_disabled":false,"rental_uris":{"android":"levelo://app?vid=49e7ad26-177c-49db-ab47-4683f3bbd3e6","ios":"levelo://app?vid=49e7ad26-177c-49db-ab47-4683f3bbd3e6"},"vehicle_type_id":"4","last_reported":1781616766,"current_range_meters":4800,"station_id":"ce4bgkh2rcd13ifvqbl0","pricing_plan_id":"cebpf4jnsgd1na2vs0mg"},{"bike_id":"98ea4dc7-003d-4c2e-882e-827927d866f6","system_id":"levelo_inurba_marseille","lat":43.33516,"lon":5.37488,"is_reserved":false,"is_disabled":false,"rental_uris":{"android":"levelo://app?vid=98ea4dc7-003d-4c2e-882e-827927d866f6","ios":"levelo://app?vid=98ea4dc7-003d-4c2e-882e-827927d866f6"},"vehicle_type_id":"4","last_reported":1781616766,"current_range_meters":4800,"station_id":"st_d46tts09ee8s73dlu43g","pricing_plan_id":"cebpf4jnsgd1na2vs0mg"},{"bike_id":"67ff7e8b-853f-4c75-abe5-947bae418727","system_id":"levelo_inurba_marseille","lat":43.24543,"lon":5.41172,"is_reserved":false,"is_disabled":true,"rental_uris":{"android":"levelo://app?vid=67ff7e8b-853f-4c75-abe5-947bae418727","ios":"levelo://app?vid=67ff7e8b-853f-4c75-abe5-947bae418727"},"vehicle_type_id":"4","last_reported":1781616766,"current_range_meters":4800,"station_id":"","pricing_plan_id":"cebpf4jnsgd1na2vs0mg"},{"bike_id":"96dc4e41-3373-471e-b537-2ef7d66a978b","system_id":"levelo_inurba_marseille","lat":43.30792,"lon":5.3763,"is_reserved":false,"is_disabled":true,"rental_uris":{"android":"levelo://app?vid=96dc4e41-3373-471e-b537-2ef7d66a978b","ios":"levelo://app?vid=96dc4e41-3373-471e-b537-2ef7d66a978b"},"vehicle_type_id":"4","last_reported":1781616766,"current_range_meters":4800,"station_id":"ce4bgv92rcd13ifvqcq0","pricing_plan_id":"cebpf4jnsgd1na2vs0mg"},{"bike_id":"74b1cb71-998a-4f31-8b86-dbb3803178f1","system_id":"levelo_inurba_marseille","lat":43.29623,"lon":5.37161,"is_reserved":false,"is_disabled":false,"rental_uris":{"android":"levelo://app?vid=74b1cb71-998a-4f31-8b86-dbb3803178f1","ios":"levelo://app?vid=74b1cb71-998a-4f31-8b86-dbb3803178f1"},"vehicle_type_id":"4","last_reported":1781616766,"current_range_meters":4800,"station_id":"ce4bgnh2rcd13ifvqc0g","pricing_plan_id":"cebpf4jnsgd1na2vs0mg"},{"bike_id":"7a39971b-e8c3-42e4-9a4f-9093e7c26404","system_id":"levelo_inurba_marseille","lat":43.22561,"lon":5.41636,"is_reserved":false,"is_disabled":false,"rental_uris":{"android":"levelo://app?vid=7a39971b-e8c3-42e4-9a4f-9093e7c26404","ios":"levelo://app?vid=7a39971b-e8c3-42e4-9a4f-9093e7c26404"},"vehicle_type_id":"4","last_reported":1781616766,"current_range_meters":4800,"station_id":"st_d2o4gvlbi1j2169b742g","pricing_plan_id":"cebpf4jnsgd1na2vs0mg"},{"bike_id":"3e3b3671-013d-4443-bb9b-3144591d2b39","system_id":"levelo_inurba_marseille","lat":43.24068,"lon":5.37756,"is_reserved":false,"is_disabled":false,"rental_uris":{"android":"levelo://app?vid=3e3b3671-013d-4443-bb9b-3144591d2b39","ios":"levelo://app?vid=3e3b3671-013d-4443-bb9b-3144591d2b39"},"vehicle_type_id":"4","last_reported":1781616766,"current_range_meters":4800,"station_id":"ce4bhnp2rcd13ifvqgvg","pricing_plan_id":"cebpf4jnsgd1na2vs0mg"},{"bike_id":"cfe1147b-0860-445b-b8fc-fa8838d5b4ed","system_id":"levelo_inurba_marseille","lat":43.29212,"lon":5.39303,"is_reserved":false,"is_disabled":true,"rental_uris":{"android":"levelo://app?vid=cfe1147b-0860-445b-b8fc-fa8838d5b4ed","ios":"levelo://app?vid=cfe1147b-0860-445b-b8fc-fa8838d5b4ed"},"vehicle_type_id":"4","last_reported":1781616766,"current_range_meters":4800,"station_id":"ce4bh192rcd13ifvqdd0","pricing_plan_id":"cebpf4jnsgd1na2vs0mg"},{"bike_id":"f71acf28-3040-40f4-9e27-7a01f0aaa266","system_id":"levelo_inurba_marseille","lat":43.29249,"lon":5.40915,"is_reserved":false,"is_disabled":true,"rental_uris":{"android":"levelo://app?vid=f71acf28-3040-40f4-9e27-7a01f0aaa266","ios":"levelo://app?vid=f71acf28-3040-40f4-9e27-7a01f0aaa266"},"vehicle_type_id":"4","last_reported":1781616766,"current_range_meters":4800,"station_id":"ce4bh192rcd13ifvqdc0","pricing_plan_id":"cebpf4jnsgd1na2vs0mg"},{"bike_id":"fa601219-3f7e-4279-b728-bd7433dfe518","system_id":"levelo_inurba_marseille","lat":43.28475,"lon":5.48395,"is_reserved":false,"is_disabled":false,"rental_uris":{"android":"levelo://app?vid=fa601219-3f7e-4279-b728-bd7433dfe518","ios":"levelo://app?vid=fa601219-3f7e-4279-b728-bd7433dfe518"},"vehicle_type_id":"4","last_reported":1781616766,"current_range_meters":4800,"station_id":"st_d3svhcjqgbts73a3dn0g","pricing_plan_id":"cebpf4jnsgd1na2vs0mg"},{"bike_id":"af9862e0-50d4-4f19-9685-d2e303e78c1d","system_id":"levelo_inurba_marseille","lat":43.24474,"lon":5.43977,"is_reserved":false,"is_disabled":false,"rental_uris":{"android":"levelo://app?vid=af9862e0-50d4-4f19-9685-d2e303e78c1d","ios":"levelo://app?vid=af9862e0-50d4-4f19-9685-d2e303e78c1d"},"vehicle_type_id":"4","last_reported":1781616766,"current_range_meters":4800,"station_id":"","pricing_plan_id":"cebpf4jnsgd1na2vs0mg"},{"bike_id":"d729dc5b-702c-43a3-931a-8ebafa7eaf36","system_id":"levelo_inurba_marseille","lat":43.28412,"lon":5.37524,"is_reserved":false,"is_disabled":false,"rental_uris":{"android":"levelo://app?vid=d729dc5b-702c-43a3-931a-8ebafa7eaf36","ios":"levelo://app?vid=d729dc5b-702c-43a3-931a-8ebafa7eaf36"},"vehicle_type_id":"4","last_reported":1781616766,"current_range_meters":4800,"station_id":"ce4bh412rcd13ifvqds0","pricing_plan_id":"cebpf4jnsgd1na2vs0mg"},{"bike_id":"03d9bbd5-41ff-4181-bac7-9d6731e108d0","system_id":"levelo_inurba_marseille","lat":43.30962,"lon":5.39053,"is_reserved":false,"is_disabled":false,"rental_uris":{"android":"levelo://app?vid=03d9bbd5-41ff-4181-bac7-9d6731e108d0","ios":"levelo://app?vid=03d9bbd5-41ff-4181-bac7-9d6731e108d0"},"vehicle_type_id":"4","last_reported":1781616766,"current_range_meters":4800,"station_id":"ce4bgup2rcd13ifvqco0","pricing_plan_id":"cebpf4jnsgd1na2vs0mg"},{"bike_id":"dcb0c986-3b65-44f8-add8-c2a070bd881f","system_id":"levelo_inurba_marseille","lat":43.31222,"lon":5.36899,"is_reserved":false,"is_disabled":false,"rental_uris":{"android":"levelo://app?vid=dcb0c986-3b65-44f8-add8-c2a070bd881f","ios":"levelo://app?vid=dcb0c986-3b65-44f8-add8-c2a070bd881f"},"vehicle_type_id":"4","last_reported":1781616766,"current_range_meters":4800,"station_id":"ce4bgl92rcd13ifvqbq0","pricing_plan_id":"cebpf4jnsgd1na2vs0mg"},{"bike_id":"fa4cf54c-d0a5-4188-9f4b-fe81f81a3ab7","system_id":"levelo_inurba_marseille","lat":43.31218,"lon":5.36915,"is_reserved":false,"is_disabled":true,"rental_uris":{"android":"levelo://app?vid=fa4cf54c-d0a5-4188-9f4b-fe81f81a3ab7","ios":"levelo://app?vid=fa4cf54c-d0a5-4188-9f4b-fe81f81a3ab7"},"vehicle_type_id":"4","last_reported":1781616766,"current_range_meters":4800,"station_id":"ce4bgl92rcd13ifvqbq0","pricing_plan_id":"cebpf4jnsgd1na2vs0mg"},{"bike_id":"e1d25ccc-5302-4087-ad5e-9c68fb504152","system_id":"levelo_inurba_marseille","lat":43.23968,"lon":5.3664,"is_reserved":false,"is_disabled":false,"rental_uris":{"android":"levelo://app?vid=e1d25ccc-5302-4087-ad5e-9c68fb504152","ios":"levelo://app?vid=e1d25ccc-5302-4087-ad5e-9c68fb504152"},"vehicle_type_id":"4","last_reported":1781616766,"current_range_meters":4800,"station_id":"ce4bhi12rcd13ifvqfp0","pricing_plan_id":"cebpf4jnsgd1na2vs0mg"},{"bike_id":"c393815c-f888-4349-b11d-d6d66b9e8fb3","system_id":"levelo_inurba_marseille","lat":43.29006,"lon":5.35612,"is_reserved":false,"is_disabled":false,"rental_uris":{"android":"levelo://app?vid=c393815c-f888-4349-b11d-d6d66b9e8fb3","ios":"levelo://app?vid=c393815c-f888-4349-b11d-d6d66b9e8fb3"},"vehicle_type_id":"4","last_reported":1781616766,"current_range_meters":4800,"station_id":"ce4bhb92rcd13ifvqen0","pricing_plan_id":"cebpf4jnsgd1na2vs0mg"},{"bike_id":"c2cd4ee9-7d40-4ecc-9b92-a4ed2bff4747","system_id":"levelo_inurba_marseille","lat":43.28475,"lon":5.48401,"is_reserved":false,"is_disabled":false,"rental_uris":{"android":"levelo://app?vid=c2cd4ee9-7d40-4ecc-9b92-a4ed2bff4747","ios":"levelo://app?vid=c2cd4ee9-7d40-4ecc-9b92-a4ed2bff4747"},"vehicle_type_id":"4","last_reported":1781616766,"current_range_meters":4800,"station_id":"st_d3svhcjqgbts73a3dn0g","pricing_plan_id":"cebpf4jnsgd1na2vs0mg"},{"bike_id":"7247b73f-fb50-4b00-bdfd-4607df17f330","system_id":"levelo_inurba_marseille","lat":43.23356,"lon":5.43604,"is_reserved":false,"is_disabled":false,"rental_uris":{"android":"levelo://app?vid=7247b73f-fb50-4b00-bdfd-4607df17f330","ios":"levelo://app?vid=7247b73f-fb50-4b00-bdfd-4607df17f330"},"vehicle_type_id":"4","last_reported":1781616766,"current_range_meters":4800,"station_id":"","pricing_plan_id":"cebpf4jnsgd1na2vs0mg"},{"bike_id":"bddd337d-3e37-4dcd-9c46-77291d660b40","system_id":"levelo_inurba_marseille","lat":43.29518,"lon":5.393994,"is_reserved":false,"is_disabled":true,"rental_uris":{"android":"levelo://app?vid=bddd337d-3e37-4dcd-9c46-77291d660b40","ios":"levelo://app?vid=bddd337d-3e37-4dcd-9c46-77291d660b40"},"vehicle_type_id":"4","last_reported":1781616766,"current_range_meters":5600,"station_id":"","pricing_plan_id":"cebpf4jnsgd1na2vs0mg"},{"bike_id":"ecefeec1-2bd2-4f46-9071-4a52bcaf46b9","system_id":"levelo_inurba_marseille","lat":43.23981,"lon":5.36613,"is_reserved":false,"is_disabled":false,"rental_uris":{"android":"levelo://app?vid=ecefeec1-2bd2-4f46-9071-4a52bcaf46b9","ios":"levelo://app?vid=ecefeec1-2bd2-4f46-9071-4a52bcaf46b9"},"vehicle_type_id":"4","last_reported":1781616766,"current_range_meters":5600,"station_id":"ce4bhi12rcd13ifvqfp0","pricing_plan_id":"cebpf4jnsgd1na2vs0mg"},{"bike_id":"0af1f99b-0a46-445e-a6b7-71d025370235","system_id":"levelo_inurba_marseille","lat":43.267794,"lon":5.394124,"is_reserved":false,"is_disabled":false,"rental_uris":{"android":"levelo://app?vid=0af1f99b-0a46-445e-a6b7-71d025370235","ios":"levelo://app?vid=0af1f99b-0a46-445e-a6b7-71d025370235"},"vehicle_type_id":"4","last_reported":1781616766,"current_range_meters":5600,"station_id":"ce4bhh12rcd13ifvqfg0","pricing_plan_id":"cebpf4jnsgd1na2vs0mg"},{"bike_id":"9b79a27e-9d20-4706-b4f5-9178d77380da","system_id":"levelo_inurba_marseille","lat":43.23785,"lon":5.36628,"is_reserved":false,"is_disabled":false,"rental_uris":{"android":"levelo://app?vid=9b79a27e-9d20-4706-b4f5-9178d77380da","ios":"levelo://app?vid=9b79a27e-9d20-4706-b4f5-9178d77380da"},"vehicle_type_id":"4","last_reported":1781616766,"current_range_meters":5600,"station_id":"st_d3nk18o9ro0c73en2l3g","pricing_plan_id":"cebpf4jnsgd1na2vs0mg"},{"bike_id":"dd738f82-d799-446b-a1cc-44a440ed5a5e","system_id":"levelo_inurba_marseille","lat":43.31341,"lon":5.36737,"is_reserved":false,"is_disabled":false,"rental_uris":{"android":"levelo://app?vid=dd738f82-d799-446b-a1cc-44a440ed5a5e","ios":"levelo://app?vid=dd738f82-d799-446b-a1cc-44a440ed5a5e"},"vehicle_type_id":"4","last_reported":1781616766,"current_range_meters":5600,"station_id":"ce4bgr92rcd13ifvqc6g","pricing_plan_id":"cebpf4jnsgd1na2vs0mg"},{"bike_id":"f5662c74-763e-4ace-a90f-34be52be210e","system_id":"levelo_inurba_marseille","lat":43.28268,"lon":5.35081,"is_reserved":false,"is_disabled":true,"rental_uris":{"android":"levelo://app?vid=f5662c74-763e-4ace-a90f-34be52be210e","ios":"levelo://app?vid=f5662c74-763e-4ace-a90f-34be52be210e"},"vehicle_type_id":"4","last_reported":1781616766,"current_range_meters":5600,"station_id":"ce4bhbp2rcd13ifvqerg","pricing_plan_id":"cebpf4jnsgd1na2vs0mg"},{"bike_id":"8d88c884-25dd-4c21-9b63-a70529b3f7f7","system_id":"levelo_inurba_marseille","lat":43.33152,"lon":5.37936,"is_reserved":false,"is_disabled":false,"rental_uris":{"android":"levelo://app?vid=8d88c884-25dd-4c21-9b63-a70529b3f7f7","ios":"levelo://app?vid=8d88c884-25dd-4c21-9b63-a70529b3f7f7"},"vehicle_type_id":"4","last_reported":1781616766,"current_range_meters":5600,"station_id":"","pricing_plan_id":"cebpf4jnsgd1na2vs0mg"},{"bike_id":"d2ef5ec4-93bf-4149-8239-d7caef035688","system_id":"levelo_inurba_marseille","lat":43.30137,"lon":5.38092,"is_reserved":false,"is_disabled":false,"rental_uris":{"android":"levelo://app?vid=d2ef5ec4-93bf-4149-8239-d7caef035688","ios":"levelo://app?vid=d2ef5ec4-93bf-4149-8239-d7caef035688"},"vehicle_type_id":"4","last_reported":1781616766,"current_range_meters":5600,"station_id":"ce4bgjp2rcd13ifvqbh0","pricing_plan_id":"cebpf4jnsgd1na2vs0mg"},{"bike_id":"43557268-d058-408c-ab03-d4deb2c02d3f","system_id":"levelo_inurba_marseille","lat":43.24715,"lon":5.39488,"is_reserved":false,"is_disabled":false,"rental_uris":{"android":"levelo://app?vid=43557268-d058-408c-ab03-d4deb2c02d3f","ios":"levelo://app?vid=43557268-d058-408c-ab03-d4deb2c02d3f"},"vehicle_type_id":"4","last_reported":1781616766,"current_range_meters":5600,"station_id":"","pricing_plan_id":"cebpf4jnsgd1na2vs0mg"},{"bike_id":"40f494f2-e039-403c-ae36-d67dacd07081","system_id":"levelo_inurba_marseille","lat":43.28981,"lon":5.37833,"is_reserved":false,"is_disabled":false,"rental_uris":{"android":"levelo://app?vid=40f494f2-e039-403c-ae36-d67dacd07081","ios":"levelo://app?vid=40f494f2-e039-403c-ae36-d67dacd07081"},"vehicle_type_id":"4","last_reported":1781616766,"current_range_meters":5600,"station_id":"ce4bh9p2rcd13ifvqed0","pricing_plan_id":"cebpf4jnsgd1na2vs0mg"},{"bike_id":"339b5cb9-05bc-40b7-90f7-c320d31f72f3","system_id":"levelo_inurba_marseille","lat":43.25728,"lon":5.41117,"is_reserved":false,"is_disabled":false,"rental_uris":{"android":"levelo://app?vid=339b5cb9-05bc-40b7-90f7-c320d31f72f3","ios":"levelo://app?vid=339b5cb9-05bc-40b7-90f7-c320d31f72f3"},"vehicle_type_id":"4","last_reported":1781616766,"current_range_meters":5600,"station_id":"ce4bhkp2rcd13ifvqgd0","pricing_plan_id":"cebpf4jnsgd1na2vs0mg"},{"bike_id":"c9d2a5f8-5b85-49c6-8615-131b0821e9ff","system_id":"levelo_inurba_marseille","lat":43.22929,"lon":5.35363,"is_reserved":false,"is_disabled":false,"rental_uris":{"android":"levelo://app?vid=c9d2a5f8-5b85-49c6-8615-131b0821e9ff","ios":"levelo://app?vid=c9d2a5f8-5b85-49c6-8615-131b0821e9ff"},"vehicle_type_id":"4","last_reported":1781616766,"current_range_meters":5600,"station_id":"cpo3532slgdg3j2ikp40","pricing_plan_id":"cebpf4jnsgd1na2vs0mg"},{"bike_id":"ec646362-fb1f-4cc8-b2b1-402472799dd8","system_id":"levelo_inurba_marseille","lat":43.25073,"lon":5.39523,"is_reserved":false,"is_disabled":false,"rental_uris":{"android":"levelo://app?vid=ec646362-fb1f-4cc8-b2b1-402472799dd8","ios":"levelo://app?vid=ec646362-fb1f-4cc8-b2b1-402472799dd8"},"vehicle_type_id":"4","last_reported":1781616766,"current_range_meters":5600,"station_id":"ce4bhm12rcd13ifvqgkg","pricing_plan_id":"cebpf4jnsgd1na2vs0mg"},{"bike_id":"6637099a-7831-476a-a77c-ad16c713edec","system_id":"levelo_inurba_marseille","lat":43.23164,"lon":5.40489,"is_reserved":false,"is_disabled":false,"rental_uris":{"android":"levelo://app?vid=6637099a-7831-476a-a77c-ad16c713edec","ios":"levelo://app?vid=6637099a-7831-476a-a77c-ad16c713edec"},"vehicle_type_id":"4","last_reported":1781616766,"current_range_meters":5600,"station_id":"","pricing_plan_id":"cebpf4jnsgd1na2vs0mg"},{"bike_id":"e7fda951-34c7-4a7d-bfa1-6937c70fb413","system_id":"levelo_inurba_marseille","lat":43.31817,"lon":5.37998,"is_reserved":false,"is_disabled":false,"rental_uris":{"android":"levelo://app?vid=e7fda951-34c7-4a7d-bfa1-6937c70fb413","ios":"levelo://app?vid=e7fda951-34c7-4a7d-bfa1-6937c70fb413"},"vehicle_type_id":"4","last_reported":1781616766,"current_range_meters":5600,"station_id":"","pricing_plan_id":"cebpf4jnsgd1na2vs0mg"},{"bike_id":"6fcece8f-5fbc-4abe-8003-a1a227633597","system_id":"levelo_inurba_marseille","lat":43.32748,"lon":5.40153,"is_reserved":false,"is_disabled":false,"rental_uris":{"android":"levelo://app?vid=6fcece8f-5fbc-4abe-8003-a1a227633597","ios":"levelo://app?vid=6fcece8f-5fbc-4abe-8003-a1a227633597"},"vehicle_type_id":"4","last_reported":1781616766,"current_range_meters":5600,"station_id":"","pricing_plan_id":"cebpf4jnsgd1na2vs0mg"},{"bike_id":"61080484-82dc-4654-99d1-b5c44316070d","system_id":"levelo_inurba_marseille","lat":43.30313,"lon":5.39461,"is_reserved":false,"is_disabled":false,"rental_uris":{"android":"levelo://app?vid=61080484-82dc-4654-99d1-b5c44316070d","ios":"levelo://app?vid=61080484-82dc-4654-99d1-b5c44316070d"},"vehicle_type_id":"4","last_reported":1781616766,"current_range_meters":5600,"station_id":"","pricing_plan_id":"cebpf4jnsgd1na2vs0mg"},{"bike_id":"3896aa8d-196d-4f44-9fa5-ed9b8c968ae9","system_id":"levelo_inurba_marseille","lat":43.31327,"lon":5.39695,"is_reserved":false,"is_disabled":false,"rental_uris":{"android":"levelo://app?vid=3896aa8d-196d-4f44-9fa5-ed9b8c968ae9","ios":"levelo://app?vid=3896aa8d-196d-4f44-9fa5-ed9b8c968ae9"},"vehicle_type_id":"4","last_reported":1781616766,"current_range_meters":5600,"station_id":"ce4bgvp2rcd13ifvqcu0","pricing_plan_id":"cebpf4jnsgd1na2vs0mg"},{"bike_id":"425b476f-cb4c-4edb-8f3c-2730f16e904a","system_id":"levelo_inurba_marseille","lat":43.31125,"lon":5.37771,"is_reserved":false,"is_disabled":false,"rental_uris":{"android":"levelo://app?vid=425b476f-cb4c-4edb-8f3c-2730f16e904a","ios":"levelo://app?vid=425b476f-cb4c-4edb-8f3c-2730f16e904a"},"vehicle_type_id":"4","last_reported":1781616766,"current_range_meters":5600,"station_id":"ce4bgt92rcd13ifvqcg0","pricing_plan_id":"cebpf4jnsgd1na2vs0mg"},{"bike_id":"9728a41c-9cae-460c-aeba-e09752675266","system_id":"levelo_inurba_marseille","lat":43.24079,"lon":5.37741,"is_reserved":false,"is_disabled":false,"rental_uris":{"android":"levelo://app?vid=9728a41c-9cae-460c-aeba-e09752675266","ios":"levelo://app?vid=9728a41c-9cae-460c-aeba-e09752675266"},"vehicle_type_id":"4","last_reported":1781616766,"current_range_meters":5600,"station_id":"ce4bhnp2rcd13ifvqgvg","pricing_plan_id":"cebpf4jnsgd1na2vs0mg"},{"bike_id":"ace1e2aa-ac53-4bb7-b5b5-ad28f25a62fc","system_id":"levelo_inurba_marseille","lat":43.23169,"lon":5.4049,"is_reserved":false,"is_disabled":false,"rental_uris":{"android":"levelo://app?vid=ace1e2aa-ac53-4bb7-b5b5-ad28f25a62fc","ios":"levelo://app?vid=ace1e2aa-ac53-4bb7-b5b5-ad28f25a62fc"},"vehicle_type_id":"4","last_reported":1781616766,"current_range_meters":5600,"station_id":"","pricing_plan_id":"cebpf4jnsgd1na2vs0mg"},{"bike_id":"7e24003c-ccef-452d-b7ea-bb32301ce04a","system_id":"levelo_inurba_marseille","lat":43.27594,"lon":5.38757,"is_reserved":false,"is_disabled":false,"rental_uris":{"android":"levelo://app?vid=7e24003c-ccef-452d-b7ea-bb32301ce04a","ios":"levelo://app?vid=7e24003c-ccef-452d-b7ea-bb32301ce04a"},"vehicle_type_id":"4","last_reported":1781616766,"current_range_meters":5600,"station_id":"","pricing_plan_id":"cebpf4jnsgd1na2vs0mg"},{"bike_id":"51b8fd4d-4704-4489-85ba-fcf0c14f5bb7","system_id":"levelo_inurba_marseille","lat":43.25556,"lon":5.38225,"is_reserved":false,"is_disabled":false,"rental_uris":{"android":"levelo://app?vid=51b8fd4d-4704-4489-85ba-fcf0c14f5bb7","ios":"levelo://app?vid=51b8fd4d-4704-4489-85ba-fcf0c14f5bb7"},"vehicle_type_id":"4","last_reported":1781616766,"current_range_meters":6000,"station_id":"ce4bhih2rcd13ifvqfs0","pricing_plan_id":"cebpf4jnsgd1na2vs0mg"},{"bike_id":"3e2f8f3a-baab-4627-aae1-90e4d588fbfd","system_id":"levelo_inurba_marseille","lat":43.2911,"lon":5.38128,"is_reserved":false,"is_disabled":false,"rental_uris":{"android":"levelo://app?vid=3e2f8f3a-baab-4627-aae1-90e4d588fbfd","ios":"levelo://app?vid=3e2f8f3a-baab-4627-aae1-90e4d588fbfd"},"vehicle_type_id":"4","last_reported":1781616766,"current_range_meters":6000,"station_id":"ce4bh512rcd13ifvqe2g","pricing_plan_id":"cebpf4jnsgd1na2vs0mg"},{"bike_id":"50c1b0b7-fcc4-47ce-ad94-2f4387cfe31f","system_id":"levelo_inurba_marseille","lat":43.30444,"lon":5.38878,"is_reserved":false,"is_disabled":false,"rental_uris":{"android":"levelo://app?vid=50c1b0b7-fcc4-47ce-ad94-2f4387cfe31f","ios":"levelo://app?vid=50c1b0b7-fcc4-47ce-ad94-2f4387cfe31f"},"vehicle_type_id":"4","last_reported":1781616766,"current_range_meters":6000,"station_id":"ce4bgk12rcd13ifvqbi0","pricing_plan_id":"cebpf4jnsgd1na2vs0mg"},{"bike_id":"11b399e9-0d52-4738-94a0-440ea29a542d","system_id":"levelo_inurba_marseille","lat":43.30003,"lon":5.3787,"is_reserved":false,"is_disabled":false,"rental_uris":{"android":"levelo://app?vid=11b399e9-0d52-4738-94a0-440ea29a542d","ios":"levelo://app?vid=11b399e9-0d52-4738-94a0-440ea29a542d"},"vehicle_type_id":"4","last_reported":1781616766,"current_range_meters":6000,"station_id":"","pricing_plan_id":"cebpf4jnsgd1na2vs0mg"},{"bike_id":"f622d8ca-cd89-4916-820b-a29ff258b527","system_id":"levelo_inurba_marseille","lat":43.30941,"lon":5.39039,"is_reserved":false,"is_disabled":false,"rental_uris":{"android":"levelo://app?vid=f622d8ca-cd89-4916-820b-a29ff258b527","ios":"levelo://app?vid=f622d8ca-cd89-4916-820b-a29ff258b527"},"vehicle_type_id":"4","last_reported":1781616766,"current_range_meters":6000,"station_id":"ce4bgup2rcd13ifvqco0","pricing_plan_id":"cebpf4jnsgd1na2vs0mg"},{"bike_id":"5375a43e-373a-479c-bb46-72e222ca2f95","system_id":"levelo_inurba_marseille","lat":43.2433,"lon":5.38421,"is_reserved":false,"is_disabled":false,"rental_uris":{"android":"levelo://app?vid=5375a43e-373a-479c-bb46-72e222ca2f95","ios":"levelo://app?vid=5375a43e-373a-479c-bb46-72e222ca2f95"},"vehicle_type_id":"4","last_reported":1781616766,"current_range_meters":6000,"station_id":"","pricing_plan_id":"cebpf4jnsgd1na2vs0mg"},{"bike_id":"70cf2e80-b98a-426c-8ec6-e3a43ed18eb8","system_id":"levelo_inurba_marseille","lat":43.32361,"lon":5.36724,"is_reserved":false,"is_disabled":false,"rental_uris":{"android":"levelo://app?vid=70cf2e80-b98a-426c-8ec6-e3a43ed18eb8","ios":"levelo://app?vid=70cf2e80-b98a-426c-8ec6-e3a43ed18eb8"},"vehicle_type_id":"4","last_reported":1781616766,"current_range_meters":6000,"station_id":"ce4bhsh2rcd13ifvqi2g","pricing_plan_id":"cebpf4jnsgd1na2vs0mg"},{"bike_id":"7a67e1a1-3957-409a-8015-77ca532e8fcc","system_id":"levelo_inurba_marseille","lat":43.309,"lon":5.36854,"is_reserved":false,"is_disabled":false,"rental_uris":{"android":"levelo://app?vid=7a67e1a1-3957-409a-8015-77ca532e8fcc","ios":"levelo://app?vid=7a67e1a1-3957-409a-8015-77ca532e8fcc"},"vehicle_type_id":"4","last_reported":1781616766,"current_range_meters":6000,"station_id":"ce4bgn92rcd13ifvqbvg","pricing_plan_id":"cebpf4jnsgd1na2vs0mg"},{"bike_id":"0f9aee9c-d368-46ce-a204-b7c5f53e47a5","system_id":"levelo_inurba_marseille","lat":43.32102,"lon":5.36772,"is_reserved":false,"is_disabled":false,"rental_uris":{"android":"levelo://app?vid=0f9aee9c-d368-46ce-a204-b7c5f53e47a5","ios":"levelo://app?vid=0f9aee9c-d368-46ce-a204-b7c5f53e47a5"},"vehicle_type_id":"4","last_reported":1781616766,"current_range_meters":6000,"station_id":"ce4bhrh2rcd13ifvqhug","pricing_plan_id":"cebpf4jnsgd1na2vs0mg"},{"bike_id":"43b62834-45a3-44c4-b21b-d1228f5dffea","system_id":"levelo_inurba_marseille","lat":43.30299,"lon":5.39304,"is_reserved":false,"is_disabled":false,"rental_uris":{"android":"levelo://app?vid=43b62834-45a3-44c4-b21b-d1228f5dffea","ios":"levelo://app?vid=43b62834-45a3-44c4-b21b-d1228f5dffea"},"vehicle_type_id":"4","last_reported":1781616766,"current_range_meters":6000,"station_id":"","pricing_plan_id":"cebpf4jnsgd1na2vs0mg"},{"bike_id":"e8c87ca7-a7a3-42b9-adaf-c89914e31e5a","system_id":"levelo_inurba_marseille","lat":43.29727,"lon":5.37695,"is_reserved":false,"is_disabled":false,"rental_uris":{"android":"levelo://app?vid=e8c87ca7-a7a3-42b9-adaf-c89914e31e5a","ios":"levelo://app?vid=e8c87ca7-a7a3-42b9-adaf-c89914e31e5a"},"vehicle_type_id":"4","last_reported":1781616766,"current_range_meters":6000,"station_id":"ce4bgkh2rcd13ifvqbl0","pricing_plan_id":"cebpf4jnsgd1na2vs0mg"},{"bike_id":"5d129347-af29-49ea-afd9-83b4c48fb447","system_id":"levelo_inurba_marseille","lat":43.28491,"lon":5.48398,"is_reserved":false,"is_disabled":false,"rental_uris":{"android":"levelo://app?vid=5d129347-af29-49ea-afd9-83b4c48fb447","ios":"levelo://app?vid=5d129347-af29-49ea-afd9-83b4c48fb447"},"vehicle_type_id":"4","last_reported":1781616766,"current_range_meters":6000,"station_id":"st_d3svhcjqgbts73a3dn0g","pricing_plan_id":"cebpf4jnsgd1na2vs0mg"},{"bike_id":"7f8e2c42-d34c-43f0-8605-59b1d3e08158","system_id":"levelo_inurba_marseille","lat":43.30315,"lon":5.3688,"is_reserved":false,"is_disabled":false,"rental_uris":{"android":"levelo://app?vid=7f8e2c42-d34c-43f0-8605-59b1d3e08158","ios":"levelo://app?vid=7f8e2c42-d34c-43f0-8605-59b1d3e08158"},"vehicle_type_id":"4","last_reported":1781616766,"current_range_meters":6000,"station_id":"ce4bgqh2rcd13ifvqc5g","pricing_plan_id":"cebpf4jnsgd1na2vs0mg"},{"bike_id":"9f6bb2e6-dcdf-4017-a6ae-7d1c64e6e192","system_id":"levelo_inurba_marseille","lat":43.30462,"lon":5.37904,"is_reserved":false,"is_disabled":true,"rental_uris":{"android":"levelo://app?vid=9f6bb2e6-dcdf-4017-a6ae-7d1c64e6e192","ios":"levelo://app?vid=9f6bb2e6-dcdf-4017-a6ae-7d1c64e6e192"},"vehicle_type_id":"4","last_reported":1781616766,"current_range_meters":6000,"station_id":"ce4bgup2rcd13ifvqcn0","pricing_plan_id":"cebpf4jnsgd1na2vs0mg"},{"bike_id":"5f2fd673-ed9a-41c8-96b2-d54f3a459018","system_id":"levelo_inurba_marseille","lat":43.29482,"lon":5.43368,"is_reserved":false,"is_disabled":false,"rental_uris":{"android":"levelo://app?vid=5f2fd673-ed9a-41c8-96b2-d54f3a459018","ios":"levelo://app?vid=5f2fd673-ed9a-41c8-96b2-d54f3a459018"},"vehicle_type_id":"4","last_reported":1781616766,"current_range_meters":6000,"station_id":"st_d3j5ugp08ojc73fj9d10","pricing_plan_id":"cebpf4jnsgd1na2vs0mg"},{"bike_id":"5b055118-91c1-4e02-b4eb-be4c57742903","system_id":"levelo_inurba_marseille","lat":43.29272,"lon":5.36837,"is_reserved":false,"is_disabled":false,"rental_uris":{"android":"levelo://app?vid=5b055118-91c1-4e02-b4eb-be4c57742903","ios":"levelo://app?vid=5b055118-91c1-4e02-b4eb-be4c57742903"},"vehicle_type_id":"4","last_reported":1781616766,"current_range_meters":6000,"station_id":"ce4bhbp2rcd13ifvqesg","pricing_plan_id":"cebpf4jnsgd1na2vs0mg"},{"bike_id":"610d8c4c-e7b3-4066-b73b-6a2e8b83c2d6","system_id":"levelo_inurba_marseille","lat":43.301204,"lon":5.398544,"is_reserved":false,"is_disabled":false,"rental_uris":{"android":"levelo://app?vid=610d8c4c-e7b3-4066-b73b-6a2e8b83c2d6","ios":"levelo://app?vid=610d8c4c-e7b3-4066-b73b-6a2e8b83c2d6"},"vehicle_type_id":"4","last_reported":1781616766,"current_range_meters":6000,"station_id":"ce4bh0h2rcd13ifvqd40","pricing_plan_id":"cebpf4jnsgd1na2vs0mg"},{"bike_id":"68eae743-3e97-4554-acc7-2f10bbf44937","system_id":"levelo_inurba_marseille","lat":43.25086,"lon":5.39527,"is_reserved":false,"is_disabled":false,"rental_uris":{"android":"levelo://app?vid=68eae743-3e97-4554-acc7-2f10bbf44937","ios":"levelo://app?vid=68eae743-3e97-4554-acc7-2f10bbf44937"},"vehicle_type_id":"4","last_reported":1781616766,"current_range_meters":6000,"station_id":"ce4bhm12rcd13ifvqgkg","pricing_plan_id":"cebpf4jnsgd1na2vs0mg"},{"bike_id":"9d681a4a-1eb7-4b5b-b9f2-2b1eefd455cc","system_id":"levelo_inurba_marseille","lat":43.26944,"lon":5.38624,"is_reserved":false,"is_disabled":true,"rental_uris":{"android":"levelo://app?vid=9d681a4a-1eb7-4b5b-b9f2-2b1eefd455cc","ios":"levelo://app?vid=9d681a4a-1eb7-4b5b-b9f2-2b1eefd455cc"},"vehicle_type_id":"4","last_reported":1781616766,"current_range_meters":6400,"station_id":"ce4bhh92rcd13ifvqfh0","pricing_plan_id":"cebpf4jnsgd1na2vs0mg"},{"bike_id":"cc3b9785-3517-411c-94ac-dc17f6216211","system_id":"levelo_inurba_marseille","lat":43.297026,"lon":5.377046,"is_reserved":false,"is_disabled":false,"rental_uris":{"android":"levelo://app?vid=cc3b9785-3517-411c-94ac-dc17f6216211","ios":"levelo://app?vid=cc3b9785-3517-411c-94ac-dc17f6216211"},"vehicle_type_id":"4","last_reported":1781616766,"current_range_meters":6400,"station_id":"ce4bgkh2rcd13ifvqbl0","pricing_plan_id":"cebpf4jnsgd1na2vs0mg"},{"bike_id":"375213da-2118-4abc-a95b-ceb41ef2a95e","system_id":"levelo_inurba_marseille","lat":43.31213,"lon":5.3683,"is_reserved":false,"is_disabled":false,"rental_uris":{"android":"levelo://app?vid=375213da-2118-4abc-a95b-ceb41ef2a95e","ios":"levelo://app?vid=375213da-2118-4abc-a95b-ceb41ef2a95e"},"vehicle_type_id":"4","last_reported":1781616766,"current_range_meters":6400,"station_id":"ce4bgl92rcd13ifvqbq0","pricing_plan_id":"cebpf4jnsgd1na2vs0mg"},{"bike_id":"f9758aad-ec6d-43fd-9911-85a364a18a0a","system_id":"levelo_inurba_marseille","lat":43.299066,"lon":5.381389,"is_reserved":false,"is_disabled":false,"rental_uris":{"android":"levelo://app?vid=f9758aad-ec6d-43fd-9911-85a364a18a0a","ios":"levelo://app?vid=f9758aad-ec6d-43fd-9911-85a364a18a0a"},"vehicle_type_id":"4","last_reported":1781616766,"current_range_meters":6400,"station_id":"ce4bgj12rcd13ifvqbc0","pricing_plan_id":"cebpf4jnsgd1na2vs0mg"},{"bike_id":"09038e18-1caa-4414-a244-9dacc7eee6d2","system_id":"levelo_inurba_marseille","lat":43.29965,"lon":5.37142,"is_reserved":false,"is_disabled":false,"rental_uris":{"android":"levelo://app?vid=09038e18-1caa-4414-a244-9dacc7eee6d2","ios":"levelo://app?vid=09038e18-1caa-4414-a244-9dacc7eee6d2"},"vehicle_type_id":"4","last_reported":1781616766,"current_range_meters":6400,"station_id":"ce4bgr92rcd13ifvqc7g","pricing_plan_id":"cebpf4jnsgd1na2vs0mg"},{"bike_id":"8efab9ba-b88c-4551-8203-e2a40089c34f","system_id":"levelo_inurba_marseille","lat":43.25103,"lon":5.39524,"is_reserved":false,"is_disabled":false,"rental_uris":{"android":"levelo://app?vid=8efab9ba-b88c-4551-8203-e2a40089c34f","ios":"levelo://app?vid=8efab9ba-b88c-4551-8203-e2a40089c34f"},"vehicle_type_id":"4","last_reported":1781616766,"current_range_meters":6400,"station_id":"ce4bhm12rcd13ifvqgkg","pricing_plan_id":"cebpf4jnsgd1na2vs0mg"},{"bike_id":"b69f6881-fb77-4ac7-95f9-cb8b7b3351ce","system_id":"levelo_inurba_marseille","lat":43.33534,"lon":5.37459,"is_reserved":false,"is_disabled":false,"rental_uris":{"android":"levelo://app?vid=b69f6881-fb77-4ac7-95f9-cb8b7b3351ce","ios":"levelo://app?vid=b69f6881-fb77-4ac7-95f9-cb8b7b3351ce"},"vehicle_type_id":"4","last_reported":1781616766,"current_range_meters":6400,"station_id":"st_d46tts09ee8s73dlu43g","pricing_plan_id":"cebpf4jnsgd1na2vs0mg"},{"bike_id":"eba5bb55-d5e4-4833-bb81-0cf61442c817","system_id":"levelo_inurba_marseille","lat":43.22558,"lon":5.41642,"is_reserved":false,"is_disabled":false,"rental_uris":{"android":"levelo://app?vid=eba5bb55-d5e4-4833-bb81-0cf61442c817","ios":"levelo://app?vid=eba5bb55-d5e4-4833-bb81-0cf61442c817"},"vehicle_type_id":"4","last_reported":1781616766,"current_range_meters":6400,"station_id":"st_d2o4gvlbi1j2169b742g","pricing_plan_id":"cebpf4jnsgd1na2vs0mg"},{"bike_id":"c393d015-65f2-4c5e-83a1-1da3a6cfcacc","system_id":"levelo_inurba_marseille","lat":43.250964,"lon":5.395167,"is_reserved":false,"is_disabled":false,"rental_uris":{"android":"levelo://app?vid=c393d015-65f2-4c5e-83a1-1da3a6cfcacc","ios":"levelo://app?vid=c393d015-65f2-4c5e-83a1-1da3a6cfcacc"},"vehicle_type_id":"4","last_reported":1781616766,"current_range_meters":6400,"station_id":"ce4bhm12rcd13ifvqgkg","pricing_plan_id":"cebpf4jnsgd1na2vs0mg"},{"bike_id":"75974268-1466-483e-a90f-263175632462","system_id":"levelo_inurba_marseille","lat":43.23963,"lon":5.36631,"is_reserved":false,"is_disabled":false,"rental_uris":{"android":"levelo://app?vid=75974268-1466-483e-a90f-263175632462","ios":"levelo://app?vid=75974268-1466-483e-a90f-263175632462"},"vehicle_type_id":"4","last_reported":1781616766,"current_range_meters":6400,"station_id":"ce4bhi12rcd13ifvqfp0","pricing_plan_id":"cebpf4jnsgd1na2vs0mg"},{"bike_id":"f0b9fffa-9136-4f5f-a36c-7e1b1902153b","system_id":"levelo_inurba_marseille","lat":43.21199,"lon":5.35038,"is_reserved":false,"is_disabled":false,"rental_uris":{"android":"levelo://app?vid=f0b9fffa-9136-4f5f-a36c-7e1b1902153b","ios":"levelo://app?vid=f0b9fffa-9136-4f5f-a36c-7e1b1902153b"},"vehicle_type_id":"4","last_reported":1781616766,"current_range_meters":6400,"station_id":"st_cvj6sg6p6f1abm77japg","pricing_plan_id":"cebpf4jnsgd1na2vs0mg"},{"bike_id":"a47eda45-99b2-47fa-a067-0d46415a0ec0","system_id":"levelo_inurba_marseille","lat":43.27818,"lon":5.407,"is_reserved":false,"is_disabled":true,"rental_uris":{"android":"levelo://app?vid=a47eda45-99b2-47fa-a067-0d46415a0ec0","ios":"levelo://app?vid=a47eda45-99b2-47fa-a067-0d46415a0ec0"},"vehicle_type_id":"4","last_reported":1781616766,"current_range_meters":6400,"station_id":"ce4bhnh2rcd13ifvqgtg","pricing_plan_id":"cebpf4jnsgd1na2vs0mg"},{"bike_id":"053c79ff-2449-466f-bcd8-8c594bfef29d","system_id":"levelo_inurba_marseille","lat":43.28478,"lon":5.38438,"is_reserved":false,"is_disabled":false,"rental_uris":{"android":"levelo://app?vid=053c79ff-2449-466f-bcd8-8c594bfef29d","ios":"levelo://app?vid=053c79ff-2449-466f-bcd8-8c594bfef29d"},"vehicle_type_id":"4","last_reported":1781616766,"current_range_meters":6400,"station_id":"ce4bh512rcd13ifvqe3g","pricing_plan_id":"cebpf4jnsgd1na2vs0mg"},{"bike_id":"95523567-71c9-4e56-93be-3e2c9a5d29e1","system_id":"levelo_inurba_marseille","lat":43.24373,"lon":5.37078,"is_reserved":false,"is_disabled":false,"rental_uris":{"android":"levelo://app?vid=95523567-71c9-4e56-93be-3e2c9a5d29e1","ios":"levelo://app?vid=95523567-71c9-4e56-93be-3e2c9a5d29e1"},"vehicle_type_id":"4","last_reported":1781616766,"current_range_meters":6400,"station_id":"ce4bhhh2rcd13ifvqfk0","pricing_plan_id":"cebpf4jnsgd1na2vs0mg"},{"bike_id":"cdb93967-361c-4d4e-9fcc-b26dda32fe31","system_id":"levelo_inurba_marseille","lat":43.31715,"lon":5.37792,"is_reserved":false,"is_disabled":false,"rental_uris":{"android":"levelo://app?vid=cdb93967-361c-4d4e-9fcc-b26dda32fe31","ios":"levelo://app?vid=cdb93967-361c-4d4e-9fcc-b26dda32fe31"},"vehicle_type_id":"4","last_reported":1781616766,"current_range_meters":6400,"station_id":"ce4bgth2rcd13ifvqch0","pricing_plan_id":"cebpf4jnsgd1na2vs0mg"},{"bike_id":"b355ce45-9031-43ea-a7ee-94bc5e424c4b","system_id":"levelo_inurba_marseille","lat":43.27969,"lon":5.41053,"is_reserved":false,"is_disabled":false,"rental_uris":{"android":"levelo://app?vid=b355ce45-9031-43ea-a7ee-94bc5e424c4b","ios":"levelo://app?vid=b355ce45-9031-43ea-a7ee-94bc5e424c4b"},"vehicle_type_id":"4","last_reported":1781616766,"current_range_meters":6400,"station_id":"ce4bhnp2rcd13ifvqh0g","pricing_plan_id":"cebpf4jnsgd1na2vs0mg"},{"bike_id":"8109a4a1-1a37-4965-b832-4e9986b75afd","system_id":"levelo_inurba_marseille","lat":43.29884,"lon":5.38932,"is_reserved":false,"is_disabled":true,"rental_uris":{"android":"levelo://app?vid=8109a4a1-1a37-4965-b832-4e9986b75afd","ios":"levelo://app?vid=8109a4a1-1a37-4965-b832-4e9986b75afd"},"vehicle_type_id":"4","last_reported":1781616766,"current_range_meters":6400,"station_id":"ce4bh392rcd13ifvqdl0","pricing_plan_id":"cebpf4jnsgd1na2vs0mg"},{"bike_id":"da3e3fcc-30db-4fef-b653-71ec851ab75b","system_id":"levelo_inurba_marseille","lat":43.28532,"lon":5.38521,"is_reserved":false,"is_disabled":false,"rental_uris":{"android":"levelo://app?vid=da3e3fcc-30db-4fef-b653-71ec851ab75b","ios":"levelo://app?vid=da3e3fcc-30db-4fef-b653-71ec851ab75b"},"vehicle_type_id":"4","last_reported":1781616766,"current_range_meters":6400,"station_id":"","pricing_plan_id":"cebpf4jnsgd1na2vs0mg"},{"bike_id":"b35993ec-fa34-4a80-bccf-a98ea12eaecb","system_id":"levelo_inurba_marseille","lat":43.29907,"lon":5.374641,"is_reserved":false,"is_disabled":false,"rental_uris":{"android":"levelo://app?vid=b35993ec-fa34-4a80-bccf-a98ea12eaecb","ios":"levelo://app?vid=b35993ec-fa34-4a80-bccf-a98ea12eaecb"},"vehicle_type_id":"4","last_reported":1781616766,"current_range_meters":6400,"station_id":"ce4bgjh2rcd13ifvqbg0","pricing_plan_id":"cebpf4jnsgd1na2vs0mg"},{"bike_id":"c95d28e5-72ae-4401-bd85-388ff8356f40","system_id":"levelo_inurba_marseille","lat":43.28715,"lon":5.46695,"is_reserved":false,"is_disabled":false,"rental_uris":{"android":"levelo://app?vid=c95d28e5-72ae-4401-bd85-388ff8356f40","ios":"levelo://app?vid=c95d28e5-72ae-4401-bd85-388ff8356f40"},"vehicle_type_id":"4","last_reported":1781616766,"current_range_meters":6400,"station_id":"st_d6tc3vkotcvc738tfjhg","pricing_plan_id":"cebpf4jnsgd1na2vs0mg"},{"bike_id":"cd39e324-ec18-477a-bd0a-267e26f3110f","system_id":"levelo_inurba_marseille","lat":43.24084,"lon":5.3775,"is_reserved":false,"is_disabled":false,"rental_uris":{"android":"levelo://app?vid=cd39e324-ec18-477a-bd0a-267e26f3110f","ios":"levelo://app?vid=cd39e324-ec18-477a-bd0a-267e26f3110f"},"vehicle_type_id":"4","last_reported":1781616766,"current_range_meters":6400,"station_id":"ce4bhnp2rcd13ifvqgvg","pricing_plan_id":"cebpf4jnsgd1na2vs0mg"},{"bike_id":"8059b531-af41-4ff8-abec-0bd975b86b22","system_id":"levelo_inurba_marseille","lat":43.29987,"lon":5.37186,"is_reserved":false,"is_disabled":false,"rental_uris":{"android":"levelo://app?vid=8059b531-af41-4ff8-abec-0bd975b86b22","ios":"levelo://app?vid=8059b531-af41-4ff8-abec-0bd975b86b22"},"vehicle_type_id":"4","last_reported":1781616766,"current_range_meters":6400,"station_id":"ce4bgr92rcd13ifvqc7g","pricing_plan_id":"cebpf4jnsgd1na2vs0mg"},{"bike_id":"71575dbe-cbcb-48b7-9adc-dc15199a7307","system_id":"levelo_inurba_marseille","lat":43.26559,"lon":5.39039,"is_reserved":false,"is_disabled":false,"rental_uris":{"android":"levelo://app?vid=71575dbe-cbcb-48b7-9adc-dc15199a7307","ios":"levelo://app?vid=71575dbe-cbcb-48b7-9adc-dc15199a7307"},"vehicle_type_id":"4","last_reported":1781616766,"current_range_meters":6800,"station_id":"ce4bhe12rcd13ifvqf30","pricing_plan_id":"cebpf4jnsgd1na2vs0mg"},{"bike_id":"61aca5f5-8341-46d1-a3cf-857a7fcc6c5b","system_id":"levelo_inurba_marseille","lat":43.25862,"lon":5.39924,"is_reserved":false,"is_disabled":false,"rental_uris":{"android":"levelo://app?vid=61aca5f5-8341-46d1-a3cf-857a7fcc6c5b","ios":"levelo://app?vid=61aca5f5-8341-46d1-a3cf-857a7fcc6c5b"},"vehicle_type_id":"4","last_reported":1781616766,"current_range_meters":6800,"station_id":"ce4bhl92rcd13ifvqghg","pricing_plan_id":"cebpf4jnsgd1na2vs0mg"},{"bike_id":"070f3b48-b3d9-4012-a523-3ceb571b4cdb","system_id":"levelo_inurba_marseille","lat":43.25574,"lon":5.38235,"is_reserved":false,"is_disabled":false,"rental_uris":{"android":"levelo://app?vid=070f3b48-b3d9-4012-a523-3ceb571b4cdb","ios":"levelo://app?vid=070f3b48-b3d9-4012-a523-3ceb571b4cdb"},"vehicle_type_id":"4","last_reported":1781616766,"current_range_meters":6800,"station_id":"ce4bhih2rcd13ifvqfs0","pricing_plan_id":"cebpf4jnsgd1na2vs0mg"},{"bike_id":"6116c5f1-dff1-49bb-99c3-21a3ad77c0f8","system_id":"levelo_inurba_marseille","lat":43.28479,"lon":5.48415,"is_reserved":false,"is_disabled":false,"rental_uris":{"android":"levelo://app?vid=6116c5f1-dff1-49bb-99c3-21a3ad77c0f8","ios":"levelo://app?vid=6116c5f1-dff1-49bb-99c3-21a3ad77c0f8"},"vehicle_type_id":"4","last_reported":1781616766,"current_range_meters":6800,"station_id":"st_d3svhcjqgbts73a3dn0g","pricing_plan_id":"cebpf4jnsgd1na2vs0mg"},{"bike_id":"9a8ad781-d0bb-480a-9de9-779a6475e47c","system_id":"levelo_inurba_marseille","lat":43.32364,"lon":5.36756,"is_reserved":false,"is_disabled":false,"rental_uris":{"android":"levelo://app?vid=9a8ad781-d0bb-480a-9de9-779a6475e47c","ios":"levelo://app?vid=9a8ad781-d0bb-480a-9de9-779a6475e47c"},"vehicle_type_id":"4","last_reported":1781616766,"current_range_meters":6800,"station_id":"ce4bhsh2rcd13ifvqi2g","pricing_plan_id":"cebpf4jnsgd1na2vs0mg"},{"bike_id":"f443e024-361d-4ce8-9a19-0cb3869f75f7","system_id":"levelo_inurba_marseille","lat":43.32508,"lon":5.38286,"is_reserved":false,"is_disabled":false,"rental_uris":{"android":"levelo://app?vid=f443e024-361d-4ce8-9a19-0cb3869f75f7","ios":"levelo://app?vid=f443e024-361d-4ce8-9a19-0cb3869f75f7"},"vehicle_type_id":"4","last_reported":1781616766,"current_range_meters":6800,"station_id":"st_d4asgbiv49dc73anf9m0","pricing_plan_id":"cebpf4jnsgd1na2vs0mg"},{"bike_id":"0eb6c330-2089-4e0a-aec6-a7421e03dc23","system_id":"levelo_inurba_marseille","lat":43.31211,"lon":5.36842,"is_reserved":false,"is_disabled":false,"rental_uris":{"android":"levelo://app?vid=0eb6c330-2089-4e0a-aec6-a7421e03dc23","ios":"levelo://app?vid=0eb6c330-2089-4e0a-aec6-a7421e03dc23"},"vehicle_type_id":"4","last_reported":1781616766,"current_range_meters":6800,"station_id":"ce4bgl92rcd13ifvqbq0","pricing_plan_id":"cebpf4jnsgd1na2vs0mg"},{"bike_id":"3156abbc-c71e-46e6-9b59-b8ff6959c982","system_id":"levelo_inurba_marseille","lat":43.29907,"lon":5.38143,"is_reserved":false,"is_disabled":true,"rental_uris":{"android":"levelo://app?vid=3156abbc-c71e-46e6-9b59-b8ff6959c982","ios":"levelo://app?vid=3156abbc-c71e-46e6-9b59-b8ff6959c982"},"vehicle_type_id":"4","last_reported":1781616766,"current_range_meters":6800,"station_id":"ce4bgj12rcd13ifvqbc0","pricing_plan_id":"cebpf4jnsgd1na2vs0mg"},{"bike_id":"e5623c00-8257-4182-8391-4bcf2c41c7d7","system_id":"levelo_inurba_marseille","lat":43.30516,"lon":5.36696,"is_reserved":false,"is_disabled":false,"rental_uris":{"android":"levelo://app?vid=e5623c00-8257-4182-8391-4bcf2c41c7d7","ios":"levelo://app?vid=e5623c00-8257-4182-8391-4bcf2c41c7d7"},"vehicle_type_id":"4","last_reported":1781616766,"current_range_meters":6800,"station_id":"ce4bgrp2rcd13ifvqc9g","pricing_plan_id":"cebpf4jnsgd1na2vs0mg"},{"bike_id":"945e53c5-21ab-4925-bfcd-e622dc1f0435","system_id":"levelo_inurba_marseille","lat":43.27742,"lon":5.39598,"is_reserved":false,"is_disabled":false,"rental_uris":{"android":"levelo://app?vid=945e53c5-21ab-4925-bfcd-e622dc1f0435","ios":"levelo://app?vid=945e53c5-21ab-4925-bfcd-e622dc1f0435"},"vehicle_type_id":"4","last_reported":1781616766,"current_range_meters":6800,"station_id":"","pricing_plan_id":"cebpf4jnsgd1na2vs0mg"},{"bike_id":"259fece3-aa43-443b-a60c-0ac9e5136871","system_id":"levelo_inurba_marseille","lat":43.25924,"lon":5.40924,"is_reserved":false,"is_disabled":false,"rental_uris":{"android":"levelo://app?vid=259fece3-aa43-443b-a60c-0ac9e5136871","ios":"levelo://app?vid=259fece3-aa43-443b-a60c-0ac9e5136871"},"vehicle_type_id":"4","last_reported":1781616766,"current_range_meters":6800,"station_id":"ce4bhm92rcd13ifvqglg","pricing_plan_id":"cebpf4jnsgd1na2vs0mg"},{"bike_id":"d68ee0ff-9827-4578-9772-bca1293f0f89","system_id":"levelo_inurba_marseille","lat":43.28499,"lon":5.48414,"is_reserved":false,"is_disabled":false,"rental_uris":{"android":"levelo://app?vid=d68ee0ff-9827-4578-9772-bca1293f0f89","ios":"levelo://app?vid=d68ee0ff-9827-4578-9772-bca1293f0f89"},"vehicle_type_id":"4","last_reported":1781616766,"current_range_meters":6800,"station_id":"st_d3svhcjqgbts73a3dn0g","pricing_plan_id":"cebpf4jnsgd1na2vs0mg"},{"bike_id":"4a19ee25-c472-4611-a863-fcf027e68f5e","system_id":"levelo_inurba_marseille","lat":43.21196,"lon":5.35065,"is_reserved":false,"is_disabled":false,"rental_uris":{"android":"levelo://app?vid=4a19ee25-c472-4611-a863-fcf027e68f5e","ios":"levelo://app?vid=4a19ee25-c472-4611-a863-fcf027e68f5e"},"vehicle_type_id":"4","last_reported":1781616766,"current_range_meters":6800,"station_id":"st_cvj6sg6p6f1abm77japg","pricing_plan_id":"cebpf4jnsgd1na2vs0mg"},{"bike_id":"006e5a0f-74d4-4ba9-8e1d-7177d0284781","system_id":"levelo_inurba_marseille","lat":43.24453,"lon":5.42545,"is_reserved":false,"is_disabled":false,"rental_uris":{"android":"levelo://app?vid=006e5a0f-74d4-4ba9-8e1d-7177d0284781","ios":"levelo://app?vid=006e5a0f-74d4-4ba9-8e1d-7177d0284781"},"vehicle_type_id":"4","last_reported":1781616766,"current_range_meters":6800,"station_id":"st_d4a3vfp97mjs738cd8kg","pricing_plan_id":"cebpf4jnsgd1na2vs0mg"},{"bike_id":"5c873f8b-765b-4a52-b4cc-4439b4ee485f","system_id":"levelo_inurba_marseille","lat":43.3109,"lon":5.42433,"is_reserved":false,"is_disabled":true,"rental_uris":{"android":"levelo://app?vid=5c873f8b-765b-4a52-b4cc-4439b4ee485f","ios":"levelo://app?vid=5c873f8b-765b-4a52-b4cc-4439b4ee485f"},"vehicle_type_id":"4","last_reported":1781616766,"current_range_meters":6800,"station_id":"ce4bhp92rcd13ifvqhag","pricing_plan_id":"cebpf4jnsgd1na2vs0mg"},{"bike_id":"94a2772e-9f70-4741-b313-486a89a3f608","system_id":"levelo_inurba_marseille","lat":43.3176,"lon":5.3903,"is_reserved":false,"is_disabled":false,"rental_uris":{"android":"levelo://app?vid=94a2772e-9f70-4741-b313-486a89a3f608","ios":"levelo://app?vid=94a2772e-9f70-4741-b313-486a89a3f608"},"vehicle_type_id":"4","last_reported":1781616766,"current_range_meters":6800,"station_id":"ce4bhqp2rcd13ifvqhng","pricing_plan_id":"cebpf4jnsgd1na2vs0mg"},{"bike_id":"547c8530-89ee-49d9-ada9-3e5c348f6d61","system_id":"levelo_inurba_marseille","lat":43.29915,"lon":5.37453,"is_reserved":false,"is_disabled":false,"rental_uris":{"android":"levelo://app?vid=547c8530-89ee-49d9-ada9-3e5c348f6d61","ios":"levelo://app?vid=547c8530-89ee-49d9-ada9-3e5c348f6d61"},"vehicle_type_id":"4","last_reported":1781616766,"current_range_meters":6800,"station_id":"ce4bgjh2rcd13ifvqbg0","pricing_plan_id":"cebpf4jnsgd1na2vs0mg"},{"bike_id":"79ed9706-03f5-4d48-a0f5-981c83b4e2f0","system_id":"levelo_inurba_marseille","lat":43.24959,"lon":5.40511,"is_reserved":false,"is_disabled":false,"rental_uris":{"android":"levelo://app?vid=79ed9706-03f5-4d48-a0f5-981c83b4e2f0","ios":"levelo://app?vid=79ed9706-03f5-4d48-a0f5-981c83b4e2f0"},"vehicle_type_id":"4","last_reported":1781616766,"current_range_meters":6800,"station_id":"st_d2ngiaodas8pm72gd1h0","pricing_plan_id":"cebpf4jnsgd1na2vs0mg"},{"bike_id":"29ecdc3c-9c93-4210-8b2a-65b1df0f964f","system_id":"levelo_inurba_marseille","lat":43.30918,"lon":5.36857,"is_reserved":false,"is_disabled":false,"rental_uris":{"android":"levelo://app?vid=29ecdc3c-9c93-4210-8b2a-65b1df0f964f","ios":"levelo://app?vid=29ecdc3c-9c93-4210-8b2a-65b1df0f964f"},"vehicle_type_id":"4","last_reported":1781616766,"current_range_meters":6800,"station_id":"ce4bgn92rcd13ifvqbvg","pricing_plan_id":"cebpf4jnsgd1na2vs0mg"},{"bike_id":"78a48a54-862b-4c00-8a01-f36168b0101b","system_id":"levelo_inurba_marseille","lat":43.25859,"lon":5.38883,"is_reserved":false,"is_disabled":false,"rental_uris":{"android":"levelo://app?vid=78a48a54-862b-4c00-8a01-f36168b0101b","ios":"levelo://app?vid=78a48a54-862b-4c00-8a01-f36168b0101b"},"vehicle_type_id":"4","last_reported":1781616766,"current_range_meters":6800,"station_id":"","pricing_plan_id":"cebpf4jnsgd1na2vs0mg"},{"bike_id":"9e64dc1e-7ea0-484e-9035-a017d813ecbf","system_id":"levelo_inurba_marseille","lat":43.26554,"lon":5.37285,"is_reserved":false,"is_disabled":false,"rental_uris":{"android":"levelo://app?vid=9e64dc1e-7ea0-484e-9035-a017d813ecbf","ios":"levelo://app?vid=9e64dc1e-7ea0-484e-9035-a017d813ecbf"},"vehicle_type_id":"4","last_reported":1781616766,"current_range_meters":6800,"station_id":"ce4bhg12rcd13ifvqf70","pricing_plan_id":"cebpf4jnsgd1na2vs0mg"},{"bike_id":"5bbf0675-a206-4669-87e7-89e5ac9fbc6a","system_id":"levelo_inurba_marseille","lat":43.2992,"lon":5.36538,"is_reserved":false,"is_disabled":true,"rental_uris":{"android":"levelo://app?vid=5bbf0675-a206-4669-87e7-89e5ac9fbc6a","ios":"levelo://app?vid=5bbf0675-a206-4669-87e7-89e5ac9fbc6a"},"vehicle_type_id":"4","last_reported":1781616766,"current_range_meters":6800,"station_id":"ce4bgm92rcd13ifvqbr0","pricing_plan_id":"cebpf4jnsgd1na2vs0mg"},{"bike_id":"08c107ae-a5d2-434f-8357-21a44f815128","system_id":"levelo_inurba_marseille","lat":43.30947,"lon":5.39033,"is_reserved":false,"is_disabled":false,"rental_uris":{"android":"levelo://app?vid=08c107ae-a5d2-434f-8357-21a44f815128","ios":"levelo://app?vid=08c107ae-a5d2-434f-8357-21a44f815128"},"vehicle_type_id":"4","last_reported":1781616766,"current_range_meters":6800,"station_id":"ce4bgup2rcd13ifvqco0","pricing_plan_id":"cebpf4jnsgd1na2vs0mg"},{"bike_id":"5ff467ec-3646-453e-806a-5a647e539b41","system_id":"levelo_inurba_marseille","lat":43.27622,"lon":5.36112,"is_reserved":false,"is_disabled":false,"rental_uris":{"android":"levelo://app?vid=5ff467ec-3646-453e-806a-5a647e539b41","ios":"levelo://app?vid=5ff467ec-3646-453e-806a-5a647e539b41"},"vehicle_type_id":"4","last_reported":1781616766,"current_range_meters":6800,"station_id":"ce4bgj92rcd13ifvqbe0","pricing_plan_id":"cebpf4jnsgd1na2vs0mg"},{"bike_id":"4ade9ca1-8b5d-49d4-aaa6-f55fb7b45d26","system_id":"levelo_inurba_marseille","lat":43.29196,"lon":5.35793,"is_reserved":false,"is_disabled":false,"rental_uris":{"android":"levelo://app?vid=4ade9ca1-8b5d-49d4-aaa6-f55fb7b45d26","ios":"levelo://app?vid=4ade9ca1-8b5d-49d4-aaa6-f55fb7b45d26"},"vehicle_type_id":"4","last_reported":1781616766,"current_range_meters":6800,"station_id":"ce4bhb12rcd13ifvqel0","pricing_plan_id":"cebpf4jnsgd1na2vs0mg"},{"bike_id":"85890b7b-2403-447a-ad52-97a75ebad38b","system_id":"levelo_inurba_marseille","lat":43.22533,"lon":5.3483,"is_reserved":false,"is_disabled":false,"rental_uris":{"android":"levelo://app?vid=85890b7b-2403-447a-ad52-97a75ebad38b","ios":"levelo://app?vid=85890b7b-2403-447a-ad52-97a75ebad38b"},"vehicle_type_id":"4","last_reported":1781616766,"current_range_meters":6800,"station_id":"st_cvj5dfep6f1abm77gieg","pricing_plan_id":"cebpf4jnsgd1na2vs0mg"},{"bike_id":"c379b1eb-fc40-471c-8b65-9a2592631260","system_id":"levelo_inurba_marseille","lat":43.28689,"lon":5.37059,"is_reserved":false,"is_disabled":false,"rental_uris":{"android":"levelo://app?vid=c379b1eb-fc40-471c-8b65-9a2592631260","ios":"levelo://app?vid=c379b1eb-fc40-471c-8b65-9a2592631260"},"vehicle_type_id":"4","last_reported":1781616766,"current_range_meters":6800,"station_id":"ce4bht12rcd13ifvqi60","pricing_plan_id":"cebpf4jnsgd1na2vs0mg"},{"bike_id":"295709e7-9cde-41de-bd44-8be3ff0151ff","system_id":"levelo_inurba_marseille","lat":43.26378,"lon":5.41076,"is_reserved":false,"is_disabled":false,"rental_uris":{"android":"levelo://app?vid=295709e7-9cde-41de-bd44-8be3ff0151ff","ios":"levelo://app?vid=295709e7-9cde-41de-bd44-8be3ff0151ff"},"vehicle_type_id":"4","last_reported":1781616766,"current_range_meters":7200,"station_id":"st_d4e5ca6na9uc73bfl5fg","pricing_plan_id":"cebpf4jnsgd1na2vs0mg"},{"bike_id":"98ac762a-026b-4aa9-bf69-b1d41ed76dc0","system_id":"levelo_inurba_marseille","lat":43.30903,"lon":5.37239,"is_reserved":false,"is_disabled":true,"rental_uris":{"android":"levelo://app?vid=98ac762a-026b-4aa9-bf69-b1d41ed76dc0","ios":"levelo://app?vid=98ac762a-026b-4aa9-bf69-b1d41ed76dc0"},"vehicle_type_id":"4","last_reported":1781616766,"current_range_meters":7200,"station_id":"ce4bguh2rcd13ifvqckg","pricing_plan_id":"cebpf4jnsgd1na2vs0mg"},{"bike_id":"faaa26f7-2b76-4505-a6d9-bed0c36d31c8","system_id":"levelo_inurba_marseille","lat":43.27368,"lon":5.36271,"is_reserved":false,"is_disabled":false,"rental_uris":{"android":"levelo://app?vid=faaa26f7-2b76-4505-a6d9-bed0c36d31c8","ios":"levelo://app?vid=faaa26f7-2b76-4505-a6d9-bed0c36d31c8"},"vehicle_type_id":"4","last_reported":1781616766,"current_range_meters":7200,"station_id":"ce4bhbh2rcd13ifvqeo0","pricing_plan_id":"cebpf4jnsgd1na2vs0mg"},{"bike_id":"1a381e5b-ebe9-4f0f-81db-f151eeaeb887","system_id":"levelo_inurba_marseille","lat":43.30291,"lon":5.37941,"is_reserved":false,"is_disabled":false,"rental_uris":{"android":"levelo://app?vid=1a381e5b-ebe9-4f0f-81db-f151eeaeb887","ios":"levelo://app?vid=1a381e5b-ebe9-4f0f-81db-f151eeaeb887"},"vehicle_type_id":"4","last_reported":1781616766,"current_range_meters":7200,"station_id":"","pricing_plan_id":"cebpf4jnsgd1na2vs0mg"},{"bike_id":"15beb987-bfc5-4c2b-8451-407674f63bdf","system_id":"levelo_inurba_marseille","lat":43.32567,"lon":5.4146,"is_reserved":false,"is_disabled":false,"rental_uris":{"android":"levelo://app?vid=15beb987-bfc5-4c2b-8451-407674f63bdf","ios":"levelo://app?vid=15beb987-bfc5-4c2b-8451-407674f63bdf"},"vehicle_type_id":"4","last_reported":1781616766,"current_range_meters":7200,"station_id":"","pricing_plan_id":"cebpf4jnsgd1na2vs0mg"},{"bike_id":"017d0b60-22dd-4a44-8a27-a53cb5de9e22","system_id":"levelo_inurba_marseille","lat":43.231966,"lon":5.355541,"is_reserved":false,"is_disabled":false,"rental_uris":{"android":"levelo://app?vid=017d0b60-22dd-4a44-8a27-a53cb5de9e22","ios":"levelo://app?vid=017d0b60-22dd-4a44-8a27-a53cb5de9e22"},"vehicle_type_id":"4","last_reported":1781616766,"current_range_meters":7200,"station_id":"ce4bhu92rcd13ifvqi70","pricing_plan_id":"cebpf4jnsgd1na2vs0mg"},{"bike_id":"cdd2bba5-2c7c-40c8-a53c-c1948b7d46e6","system_id":"levelo_inurba_marseille","lat":43.27808,"lon":5.40749,"is_reserved":false,"is_disabled":false,"rental_uris":{"android":"levelo://app?vid=cdd2bba5-2c7c-40c8-a53c-c1948b7d46e6","ios":"levelo://app?vid=cdd2bba5-2c7c-40c8-a53c-c1948b7d46e6"},"vehicle_type_id":"4","last_reported":1781616766,"current_range_meters":7200,"station_id":"","pricing_plan_id":"cebpf4jnsgd1na2vs0mg"},{"bike_id":"9cdc396a-0241-4063-a9d4-8890e8c053f5","system_id":"levelo_inurba_marseille","lat":43.246492,"lon":5.388903,"is_reserved":false,"is_disabled":false,"rental_uris":{"android":"levelo://app?vid=9cdc396a-0241-4063-a9d4-8890e8c053f5","ios":"levelo://app?vid=9cdc396a-0241-4063-a9d4-8890e8c053f5"},"vehicle_type_id":"4","last_reported":1781616766,"current_range_meters":7200,"station_id":"ce4bhg12rcd13ifvqf60","pricing_plan_id":"cebpf4jnsgd1na2vs0mg"},{"bike_id":"f79fa418-a964-4630-9c2c-3c819f8f3126","system_id":"levelo_inurba_marseille","lat":43.28619,"lon":5.35121,"is_reserved":false,"is_disabled":false,"rental_uris":{"android":"levelo://app?vid=f79fa418-a964-4630-9c2c-3c819f8f3126","ios":"levelo://app?vid=f79fa418-a964-4630-9c2c-3c819f8f3126"},"vehicle_type_id":"4","last_reported":1781616766,"current_range_meters":7200,"station_id":"ce4bhch2rcd13ifvqeug","pricing_plan_id":"cebpf4jnsgd1na2vs0mg"},{"bike_id":"b4b692fe-7662-49d3-9a9e-9effadf56b0e","system_id":"levelo_inurba_marseille","lat":43.31351,"lon":5.38498,"is_reserved":false,"is_disabled":false,"rental_uris":{"android":"levelo://app?vid=b4b692fe-7662-49d3-9a9e-9effadf56b0e","ios":"levelo://app?vid=b4b692fe-7662-49d3-9a9e-9effadf56b0e"},"vehicle_type_id":"4","last_reported":1781616766,"current_range_meters":7200,"station_id":"ce4bgt92rcd13ifvqcf0","pricing_plan_id":"cebpf4jnsgd1na2vs0mg"},{"bike_id":"76159d57-6c6f-469c-a103-80bb69860587","system_id":"levelo_inurba_marseille","lat":43.25829,"lon":5.39449,"is_reserved":false,"is_disabled":false,"rental_uris":{"android":"levelo://app?vid=76159d57-6c6f-469c-a103-80bb69860587","ios":"levelo://app?vid=76159d57-6c6f-469c-a103-80bb69860587"},"vehicle_type_id":"4","last_reported":1781616766,"current_range_meters":7200,"station_id":"ce4bhip2rcd13ifvqft0","pricing_plan_id":"cebpf4jnsgd1na2vs0mg"},{"bike_id":"e28c8f3f-6de2-4694-981a-7585934006f3","system_id":"levelo_inurba_marseille","lat":43.28477,"lon":5.48406,"is_reserved":false,"is_disabled":false,"rental_uris":{"android":"levelo://app?vid=e28c8f3f-6de2-4694-981a-7585934006f3","ios":"levelo://app?vid=e28c8f3f-6de2-4694-981a-7585934006f3"},"vehicle_type_id":"4","last_reported":1781616766,"current_range_meters":7200,"station_id":"st_d3svhcjqgbts73a3dn0g","pricing_plan_id":"cebpf4jnsgd1na2vs0mg"},{"bike_id":"134ed41f-34b6-40a2-a695-649c06e113b1","system_id":"levelo_inurba_marseille","lat":43.24537,"lon":5.39544,"is_reserved":false,"is_disabled":false,"rental_uris":{"android":"levelo://app?vid=134ed41f-34b6-40a2-a695-649c06e113b1","ios":"levelo://app?vid=134ed41f-34b6-40a2-a695-649c06e113b1"},"vehicle_type_id":"4","last_reported":1781616766,"current_range_meters":7200,"station_id":"ce4bhlp2rcd13ifvqgjg","pricing_plan_id":"cebpf4jnsgd1na2vs0mg"},{"bike_id":"94d5d66a-2fe8-4d0c-be7b-5e592171d1e7","system_id":"levelo_inurba_marseille","lat":43.295742,"lon":5.37521,"is_reserved":false,"is_disabled":false,"rental_uris":{"android":"levelo://app?vid=94d5d66a-2fe8-4d0c-be7b-5e592171d1e7","ios":"levelo://app?vid=94d5d66a-2fe8-4d0c-be7b-5e592171d1e7"},"vehicle_type_id":"4","last_reported":1781616766,"current_range_meters":7200,"station_id":"ce4bgh92rcd13ifvqb50","pricing_plan_id":"cebpf4jnsgd1na2vs0mg"},{"bike_id":"b8ce4aa5-e834-430d-bb23-e85e7d4bbab7","system_id":"levelo_inurba_marseille","lat":43.28713,"lon":5.46689,"is_reserved":false,"is_disabled":false,"rental_uris":{"android":"levelo://app?vid=b8ce4aa5-e834-430d-bb23-e85e7d4bbab7","ios":"levelo://app?vid=b8ce4aa5-e834-430d-bb23-e85e7d4bbab7"},"vehicle_type_id":"4","last_reported":1781616766,"current_range_meters":7200,"station_id":"st_d6tc3vkotcvc738tfjhg","pricing_plan_id":"cebpf4jnsgd1na2vs0mg"},{"bike_id":"57aa072b-4f7e-43f5-a89b-0cdd2fa99d15","system_id":"levelo_inurba_marseille","lat":43.27953,"lon":5.39105,"is_reserved":false,"is_disabled":false,"rental_uris":{"android":"levelo://app?vid=57aa072b-4f7e-43f5-a89b-0cdd2fa99d15","ios":"levelo://app?vid=57aa072b-4f7e-43f5-a89b-0cdd2fa99d15"},"vehicle_type_id":"4","last_reported":1781616766,"current_range_meters":7200,"station_id":"","pricing_plan_id":"cebpf4jnsgd1na2vs0mg"},{"bike_id":"c47b414c-a89c-4c94-93a8-9c6c3288a986","system_id":"levelo_inurba_marseille","lat":43.23141,"lon":5.43734,"is_reserved":false,"is_disabled":false,"rental_uris":{"android":"levelo://app?vid=c47b414c-a89c-4c94-93a8-9c6c3288a986","ios":"levelo://app?vid=c47b414c-a89c-4c94-93a8-9c6c3288a986"},"vehicle_type_id":"4","last_reported":1781616766,"current_range_meters":7200,"station_id":"ce4bhmp2rcd13ifvqgog","pricing_plan_id":"cebpf4jnsgd1na2vs0mg"},{"bike_id":"d6072cd5-0a82-4cff-aaae-6e1df5d1b49f","system_id":"levelo_inurba_marseille","lat":43.29033,"lon":5.37551,"is_reserved":false,"is_disabled":false,"rental_uris":{"android":"levelo://app?vid=d6072cd5-0a82-4cff-aaae-6e1df5d1b49f","ios":"levelo://app?vid=d6072cd5-0a82-4cff-aaae-6e1df5d1b49f"},"vehicle_type_id":"4","last_reported":1781616766,"current_range_meters":7200,"station_id":"ce4bh692rcd13ifvqe90","pricing_plan_id":"cebpf4jnsgd1na2vs0mg"},{"bike_id":"7afd5665-6d1a-4686-b9f6-3f8c15d05dfb","system_id":"levelo_inurba_marseille","lat":43.27395,"lon":5.36261,"is_reserved":false,"is_disabled":false,"rental_uris":{"android":"levelo://app?vid=7afd5665-6d1a-4686-b9f6-3f8c15d05dfb","ios":"levelo://app?vid=7afd5665-6d1a-4686-b9f6-3f8c15d05dfb"},"vehicle_type_id":"4","last_reported":1781616766,"current_range_meters":7200,"station_id":"ce4bhbh2rcd13ifvqeo0","pricing_plan_id":"cebpf4jnsgd1na2vs0mg"},{"bike_id":"d479ac4e-970b-44f6-b93b-b7e74893471e","system_id":"levelo_inurba_marseille","lat":43.25591,"lon":5.38245,"is_reserved":false,"is_disabled":true,"rental_uris":{"android":"levelo://app?vid=d479ac4e-970b-44f6-b93b-b7e74893471e","ios":"levelo://app?vid=d479ac4e-970b-44f6-b93b-b7e74893471e"},"vehicle_type_id":"4","last_reported":1781616766,"current_range_meters":7200,"station_id":"ce4bhih2rcd13ifvqfs0","pricing_plan_id":"cebpf4jnsgd1na2vs0mg"},{"bike_id":"b220c077-18c2-424b-88c3-f3990c538b2b","system_id":"levelo_inurba_marseille","lat":43.32318,"lon":5.38552,"is_reserved":false,"is_disabled":false,"rental_uris":{"android":"levelo://app?vid=b220c077-18c2-424b-88c3-f3990c538b2b","ios":"levelo://app?vid=b220c077-18c2-424b-88c3-f3990c538b2b"},"vehicle_type_id":"4","last_reported":1781616766,"current_range_meters":7200,"station_id":"st_d45171o9ee8s73djdqug","pricing_plan_id":"cebpf4jnsgd1na2vs0mg"},{"bike_id":"23c17ca6-15ce-43ce-b09f-bc3beedf35ab","system_id":"levelo_inurba_marseille","lat":43.30539,"lon":5.38439,"is_reserved":false,"is_disabled":false,"rental_uris":{"android":"levelo://app?vid=23c17ca6-15ce-43ce-b09f-bc3beedf35ab","ios":"levelo://app?vid=23c17ca6-15ce-43ce-b09f-bc3beedf35ab"},"vehicle_type_id":"4","last_reported":1781616766,"current_range_meters":8000,"station_id":"ce4bgg92rcd13ifvqb30","pricing_plan_id":"cebpf4jnsgd1na2vs0mg"},{"bike_id":"292b4d83-8027-43f2-8882-df104c31cba4","system_id":"levelo_inurba_marseille","lat":43.32107,"lon":5.36777,"is_reserved":false,"is_disabled":false,"rental_uris":{"android":"levelo://app?vid=292b4d83-8027-43f2-8882-df104c31cba4","ios":"levelo://app?vid=292b4d83-8027-43f2-8882-df104c31cba4"},"vehicle_type_id":"4","last_reported":1781616766,"current_range_meters":8000,"station_id":"ce4bhrh2rcd13ifvqhug","pricing_plan_id":"cebpf4jnsgd1na2vs0mg"},{"bike_id":"2382f2e8-91d6-49ee-93ef-7bf968868733","system_id":"levelo_inurba_marseille","lat":43.26561,"lon":5.39017,"is_reserved":false,"is_disabled":false,"rental_uris":{"android":"levelo://app?vid=2382f2e8-91d6-49ee-93ef-7bf968868733","ios":"levelo://app?vid=2382f2e8-91d6-49ee-93ef-7bf968868733"},"vehicle_type_id":"4","last_reported":1781616766,"current_range_meters":8000,"station_id":"ce4bhe12rcd13ifvqf30","pricing_plan_id":"cebpf4jnsgd1na2vs0mg"},{"bike_id":"8cba7c16-ce62-47f7-8c45-ff23dded65d1","system_id":"levelo_inurba_marseille","lat":43.26073,"lon":5.39388,"is_reserved":false,"is_disabled":false,"rental_uris":{"android":"levelo://app?vid=8cba7c16-ce62-47f7-8c45-ff23dded65d1","ios":"levelo://app?vid=8cba7c16-ce62-47f7-8c45-ff23dded65d1"},"vehicle_type_id":"4","last_reported":1781616766,"current_range_meters":8000,"station_id":"ce4bhh92rcd13ifvqfj0","pricing_plan_id":"cebpf4jnsgd1na2vs0mg"},{"bike_id":"77f8f199-14a1-42b5-aada-17ecce4a66da","system_id":"levelo_inurba_marseille","lat":43.25583,"lon":5.38227,"is_reserved":false,"is_disabled":false,"rental_uris":{"android":"levelo://app?vid=77f8f199-14a1-42b5-aada-17ecce4a66da","ios":"levelo://app?vid=77f8f199-14a1-42b5-aada-17ecce4a66da"},"vehicle_type_id":"4","last_reported":1781616766,"current_range_meters":8000,"station_id":"ce4bhih2rcd13ifvqfs0","pricing_plan_id":"cebpf4jnsgd1na2vs0mg"},{"bike_id":"bae9b5f9-3d14-4701-a3d5-2745a3dd6c93","system_id":"levelo_inurba_marseille","lat":43.30133,"lon":5.39887,"is_reserved":false,"is_disabled":false,"rental_uris":{"android":"levelo://app?vid=bae9b5f9-3d14-4701-a3d5-2745a3dd6c93","ios":"levelo://app?vid=bae9b5f9-3d14-4701-a3d5-2745a3dd6c93"},"vehicle_type_id":"4","last_reported":1781616766,"current_range_meters":8000,"station_id":"ce4bh0h2rcd13ifvqd40","pricing_plan_id":"cebpf4jnsgd1na2vs0mg"},{"bike_id":"af95dff3-e0be-4f26-9360-bc5fa5ee838c","system_id":"levelo_inurba_marseille","lat":43.32101,"lon":5.36787,"is_reserved":false,"is_disabled":false,"rental_uris":{"android":"levelo://app?vid=af95dff3-e0be-4f26-9360-bc5fa5ee838c","ios":"levelo://app?vid=af95dff3-e0be-4f26-9360-bc5fa5ee838c"},"vehicle_type_id":"4","last_reported":1781616766,"current_range_meters":8000,"station_id":"ce4bhrh2rcd13ifvqhug","pricing_plan_id":"cebpf4jnsgd1na2vs0mg"},{"bike_id":"4ef05435-d8b5-45ff-9660-a31f4103c6e1","system_id":"levelo_inurba_marseille","lat":43.25401,"lon":5.37603,"is_reserved":false,"is_disabled":false,"rental_uris":{"android":"levelo://app?vid=4ef05435-d8b5-45ff-9660-a31f4103c6e1","ios":"levelo://app?vid=4ef05435-d8b5-45ff-9660-a31f4103c6e1"},"vehicle_type_id":"4","last_reported":1781616766,"current_range_meters":8000,"station_id":"","pricing_plan_id":"cebpf4jnsgd1na2vs0mg"},{"bike_id":"8f23af7c-562c-4c4d-b7d1-f2416b74ad94","system_id":"levelo_inurba_marseille","lat":43.23187,"lon":5.39981,"is_reserved":false,"is_disabled":false,"rental_uris":{"android":"levelo://app?vid=8f23af7c-562c-4c4d-b7d1-f2416b74ad94","ios":"levelo://app?vid=8f23af7c-562c-4c4d-b7d1-f2416b74ad94"},"vehicle_type_id":"4","last_reported":1781616766,"current_range_meters":8000,"station_id":"ce4bhn12rcd13ifvqgqg","pricing_plan_id":"cebpf4jnsgd1na2vs0mg"},