{"last_updated":1718391992,"ttl":30,"version":"2.2","data":{"bikes":[{"bike_id":"b14fa130-6026-4b16-a835-52b959f7db89","system_id":"levelo_inurba_marseille","lat":43.312239,"lon":5.368562,"is_reserved":false,"is_disabled":false,"rental_uris":{"android":"levelo://app?vid=b14fa130-6026-4b16-a835-52b959f7db89","ios":"levelo://app?vid=b14fa130-6026-4b16-a835-52b959f7db89"},"vehicle_type_id":"4","last_reported":1718391992,"current_range_meters":4000,"station_id":"ce4bgl92rcd13ifvqbq0","pricing_plan_id":"cebpf4jnsgd1na2vs0mg"},{"bike_id":"292c5e61-3acb-4d59-9b28-0c751474b0c4","system_id":"levelo_inurba_marseille","lat":43.312239,"lon":5.368562,"is_reserved":false,"is_disabled":false,"rental_uris":{"android":"levelo://app?vid=292c5e61-3acb-4d59-9b28-0c751474b0c4","ios":"levelo://app?vid=292c5e61-3acb-4d59-9b28-0c751474b0c4"},"vehicle_type_id":"4","last_reported":1718391992,"current_range_meters":1600,"station_id":"ce4bgl92rcd13ifvqbq0","pricing_plan_id":"cebpf4jnsgd1na2vs0mg"},{"bike_id":"edfc9354-9732-4f4f-a581-c96b1cd816bb","system_id":"levelo_inurba_marseille","lat":43.312239,"lon":5.368562,"is_reserved":false,"is_disabled":false,"rental_uris":{"android":"levelo://app?vid=edfc9354-9732-4f4f-a581-c96b1cd816bb","ios":"levelo://app?vid=edfc9354-9732-4f4f-a581-c96b1cd816bb"},"vehicle_type_id":"4","last_reported":1718391992,"current_range_meters":21200,"station_id":"ce4bgl92rcd13ifvqbq0","pricing_plan_id":"cebpf4jnsgd1na2vs0mg"},{"bike_id":"44451cde-4f59-4f80-9ab3-3b3fac6811bc","system_id":"levelo_inurba_marseille","lat":43.312239,"lon":5.368562,"is_reserved":false,"is_disabled":false,"rental_uris":{"android":"levelo://app?vid=44451cde-4f59-4f80-9ab3-3b3fac6811bc","ios":"levelo://app?vid=44451cde-4f59-4f80-9ab3-3b3fac6811bc"},"vehicle_type_id":"4","last_reported":1718391992,"current_range_meters":6000,"station_id":"ce4bgl92rcd13ifvqbq0","pricing_plan_id":"cebpf4jnsgd1na2vs0mg"},{"bike_id":"0f25cee2-fef1-47fd-a38d-75d5247fff1c","system_id":"levelo_inurba_marseille","lat":43.312239,"lon":5.368562,"is_reserved":false,"is_disabled":false,"rental_uris":{"android":"levelo://app?vid=0f25cee2-fef1-47fd-a38d-75d5247fff1c","ios":"levelo://app?vid=0f25cee2-fef1-47fd-a38d-75d5247fff1c"},"vehicle_type_id":"4","last_reported":1718391992,"current_range_meters":3600,"station_id":"ce4bgl92rcd13ifvqbq0","pricing_plan_id":"cebpf4jnsgd1na2vs0mg"},{"bike_id":"fdc0232f-9930-4700-b577-cad4c20d7a98","system_id":"levelo_inurba_marseille","lat":43.313645,"lon":5.370879,"is_reserved":false,"is_disabled":false,"rental_uris":{"android":"levelo://app?vid=fdc0232f-9930-4700-b577-cad4c20d7a98","ios":"levelo://app?vid=fdc0232f-9930-4700-b577-cad4c20d7a98"},"vehicle_type_id":"4","last_reported":1718391992,"current_range_meters":0,"station_id":"","pricing_plan_id":"cebpf4jnsgd1na2vs0mg"},{"bike_id":"1af3649d-550c-453b-934a-17b08b6b3691","system_id":"levelo_inurba_marseille","lat":43.31487,"lon":5.37292,"is_reserved":false,"is_disabled":false,"rental_uris":{"android":"levelo://app?vid=1af3649d-550c-453b-934a-17b08b6b3691","ios":"levelo://app?vid=1af3649d-550c-453b-934a-17b08b6b3691"},"vehicle_type_id":"4","last_reported":1718391992,"current_range_meters":0,"station_id":"ce4bgt12rcd13ifvqcd0","pricing_plan_id":"cebpf4jnsgd1na2vs0mg"},{"bike_id":"1d473751-01ad-4381-bca7-f7463080f45b","system_id":"levelo_inurba_marseille","lat":43.314811,"lon":5.373103,"is_reserved":false,"is_disabled":false,"rental_uris":{"android":"levelo://app?vid=1d473751-01ad-4381-bca7-f7463080f45b","ios":"levelo://app?vid=1d473751-01ad-4381-bca7-f7463080f45b"},"vehicle_type_id":"4","last_reported":1718391992,"current_range_meters":18000,"station_id":"ce4bgt12rcd13ifvqcd0","pricing_plan_id":"cebpf4jnsgd1na2vs0mg"},{"bike_id":"712fc7eb-d32a-4e34-b881-6c03d05f987e","system_id":"levelo_inurba_marseille","lat":43.314811,"lon":5.373103,"is_reserved":false,"is_disabled":false,"rental_uris":{"android":"levelo://app?vid=712fc7eb-d32a-4e34-b881-6c03d05f987e","ios":"levelo://app?vid=712fc7eb-d32a-4e34-b881-6c03d05f987e"},"vehicle_type_id":"4","last_reported":1718391992,"current_range_meters":0,"station_id":"ce4bgt12rcd13ifvqcd0","pricing_plan_id":"cebpf4jnsgd1na2vs0mg"},{"bike_id":"ab7addcf-872e-4fea-b9cb-652afc257843","system_id":"levelo_inurba_marseille","lat":43.31496,"lon":5.3731,"is_reserved":false,"is_disabled":false,"rental_uris":{"android":"levelo://app?vid=ab7addcf-872e-4fea-b9cb-652afc257843","ios":"levelo://app?vid=ab7addcf-872e-4fea-b9cb-652afc257843"},"vehicle_type_id":"4","last_reported":1718391992,"current_range_meters":9600,"station_id":"ce4bgt12rcd13ifvqcd0","pricing_plan_id":"cebpf4jnsgd1na2vs0mg"},{"bike_id":"f80782c5-7d3b-4f1f-a7b1-ee6f72629077","system_id":"levelo_inurba_marseille","lat":43.309039,"lon":5.371797,"is_reserved":false,"is_disabled":false,"rental_uris":{"android":"levelo://app?vid=f80782c5-7d3b-4f1f-a7b1-ee6f72629077","ios":"levelo://app?vid=f80782c5-7d3b-4f1f-a7b1-ee6f72629077"},"vehicle_type_id":"4","last_reported":1718391992,"current_range_meters":21600,"station_id":"ce4bguh2rcd13ifvqckg","pricing_plan_id":"cebpf4jnsgd1na2vs0mg"},{"bike_id":"f37d62c3-75fd-4c61-b33e-7d06ffef27d5","system_id":"levelo_inurba_marseille","lat":43.305712,"lon":5.365641,"is_reserved":false,"is_disabled":false,"rental_uris":{"android":"levelo://app?vid=f37d62c3-75fd-4c61-b33e-7d06ffef27d5","ios":"levelo://app?vid=f37d62c3-75fd-4c61-b33e-7d06ffef27d5"},"vehicle_type_id":"4","last_reported":1718391992,"current_range_meters":17600,"station_id":"ce4bgs12rcd13ifvqcag","pricing_plan_id":"cebpf4jnsgd1na2vs0mg"},{"bike_id":"c860e3e6-f809-4396-babe-613edb3b4bf4","system_id":"levelo_inurba_marseille","lat":43.30544,"lon":5.36715,"is_reserved":false,"is_disabled":false,"rental_uris":{"android":"levelo://app?vid=c860e3e6-f809-4396-babe-613edb3b4bf4","ios":"levelo://app?vid=c860e3e6-f809-4396-babe-613edb3b4bf4"},"vehicle_type_id":"4","last_reported":1718391992,"current_range_meters":21200,"station_id":"ce4bgrp2rcd13ifvqc9g","pricing_plan_id":"cebpf4jnsgd1na2vs0mg"},{"bike_id":"bbac582a-61f5-4bd2-b60b-780c9b049f76","system_id":"levelo_inurba_marseille","lat":43.305714,"lon":5.365633,"is_reserved":false,"is_disabled":false,"rental_uris":{"android":"levelo://app?vid=bbac582a-61f5-4bd2-b60b-780c9b049f76","ios":"levelo://app?vid=bbac582a-61f5-4bd2-b60b-780c9b049f76"},"vehicle_type_id":"4","last_reported":1718391992,"current_range_meters":29600,"station_id":"ce4bgs12rcd13ifvqcag","pricing_plan_id":"cebpf4jnsgd1na2vs0mg"},{"bike_id":"8a8689e0-e3b7-43e6-a663-dde171877de4","system_id":"levelo_inurba_marseille","lat":43.311131,"lon":5.377651,"is_reserved":false,"is_disabled":false,"rental_uris":{"android":"levelo://app?vid=8a8689e0-e3b7-43e6-a663-dde171877de4","ios":"levelo://app?vid=8a8689e0-e3b7-43e6-a663-dde171877de4"},"vehicle_type_id":"4","last_reported":1718391992,"current_range_meters":13600,"station_id":"ce4bgt92rcd13ifvqcg0","pricing_plan_id":"cebpf4jnsgd1na2vs0mg"},{"bike_id":"a59019b9-7b27-4cf9-95d2-0d70177b6a16","system_id":"levelo_inurba_marseille","lat":43.31696,"lon":5.37747,"is_reserved":false,"is_disabled":false,"rental_uris":{"android":"levelo://app?vid=a59019b9-7b27-4cf9-95d2-0d70177b6a16","ios":"levelo://app?vid=a59019b9-7b27-4cf9-95d2-0d70177b6a16"},"vehicle_type_id":"4","last_reported":1718391992,"current_range_meters":0,"station_id":"ce4bgth2rcd13ifvqch0","pricing_plan_id":"cebpf4jnsgd1na2vs0mg"},{"bike_id":"92326fc0-d75b-4d40-a5ad-1c3ace31a5e3","system_id":"levelo_inurba_marseille","lat":43.317075,"lon":5.377367,"is_reserved":false,"is_disabled":false,"rental_uris":{"android":"levelo://app?vid=92326fc0-d75b-4d40-a5ad-1c3ace31a5e3","ios":"levelo://app?vid=92326fc0-d75b-4d40-a5ad-1c3ace31a5e3"},"vehicle_type_id":"4","last_reported":1718391992,"current_range_meters":25200,"station_id":"ce4bgth2rcd13ifvqch0","pricing_plan_id":"cebpf4jnsgd1na2vs0mg"},{"bike_id":"06637d26-0994-4c3d-9833-a41196713d09","system_id":"levelo_inurba_marseille","lat":43.30304,"lon":5.36659,"is_reserved":false,"is_disabled":false,"rental_uris":{"android":"levelo://app?vid=06637d26-0994-4c3d-9833-a41196713d09","ios":"levelo://app?vid=06637d26-0994-4c3d-9833-a41196713d09"},"vehicle_type_id":"4","last_reported":1718391992,"current_range_meters":0,"station_id":"","pricing_plan_id":"cebpf4jnsgd1na2vs0mg"},{"bike_id":"e7a7f696-ce29-4f99-b089-02ac9c6070db","system_id":"levelo_inurba_marseille","lat":43.30304,"lon":5.368987,"is_reserved":false,"is_disabled":false,"rental_uris":{"android":"levelo://app?vid=e7a7f696-ce29-4f99-b089-02ac9c6070db","ios":"levelo://app?vid=e7a7f696-ce29-4f99-b089-02ac9c6070db"},"vehicle_type_id":"4","last_reported":1718391992,"current_range_meters":30000,"station_id":"ce4bgqh2rcd13ifvqc5g","pricing_plan_id":"cebpf4jnsgd1na2vs0mg"},{"bike_id":"176e8486-b753-4758-af61-29422343c800","system_id":"levelo_inurba_marseille","lat":43.315289,"lon":5.380349,"is_reserved":false,"is_disabled":false,"rental_uris":{"android":"levelo://app?vid=176e8486-b753-4758-af61-29422343c800","ios":"levelo://app?vid=176e8486-b753-4758-af61-29422343c800"},"vehicle_type_id":"4","last_reported":1718391992,"current_range_meters":25200,"station_id":"ce4bhsp2rcd13ifvqi50","pricing_plan_id":"cebpf4jnsgd1na2vs0mg"},{"bike_id":"a14483f1-d877-4193-b891-b1aea2b480e5","system_id":"levelo_inurba_marseille","lat":43.301939,"lon":5.366286,"is_reserved":false,"is_disabled":false,"rental_uris":{"android":"levelo://app?vid=a14483f1-d877-4193-b891-b1aea2b480e5","ios":"levelo://app?vid=a14483f1-d877-4193-b891-b1aea2b480e5"},"vehicle_type_id":"4","last_reported":1718391992,"current_range_meters":4800,"station_id":"ce4bgrh2rcd13ifvqc8g","pricing_plan_id":"cebpf4jnsgd1na2vs0mg"},{"bike_id":"a3418f6b-32eb-4868-b971-362b96cde77a","system_id":"levelo_inurba_marseille","lat":43.301939,"lon":5.366286,"is_reserved":false,"is_disabled":false,"rental_uris":{"android":"levelo://app?vid=a3418f6b-32eb-4868-b971-362b96cde77a","ios":"levelo://app?vid=a3418f6b-32eb-4868-b971-362b96cde77a"},"vehicle_type_id":"4","last_reported":1718391992,"current_range_meters":13600,"station_id":"ce4bgrh2rcd13ifvqc8g","pricing_plan_id":"cebpf4jnsgd1na2vs0mg"},{"bike_id":"fe27e059-fd12-4582-89f3-88873048b10e","system_id":"levelo_inurba_marseille","lat":43.30469,"lon":5.37914,"is_reserved":false,"is_disabled":false,"rental_uris":{"android":"levelo://app?vid=fe27e059-fd12-4582-89f3-88873048b10e","ios":"levelo://app?vid=fe27e059-fd12-4582-89f3-88873048b10e"},"vehicle_type_id":"4","last_reported":1718391992,"current_range_meters":12400,"station_id":"ce4bgup2rcd13ifvqcn0","pricing_plan_id":"cebpf4jnsgd1na2vs0mg"},{"bike_id":"e716aefd-c62b-4c19-ab42-7adb803b7b11","system_id":"levelo_inurba_marseille","lat":43.319901,"lon":5.380527,"is_reserved":false,"is_disabled":false,"rental_uris":{"android":"levelo://app?vid=e716aefd-c62b-4c19-ab42-7adb803b7b11","ios":"levelo://app?vid=e716aefd-c62b-4c19-ab42-7adb803b7b11"},"vehicle_type_id":"4","last_reported":1718391992,"current_range_meters":19600,"station_id":"","pricing_plan_id":"cebpf4jnsgd1na2vs0mg"},{"bike_id":"12c4534b-6180-47c1-800c-083b98d79c0c","system_id":"levelo_inurba_marseille","lat":43.31076,"lon":5.38359,"is_reserved":false,"is_disabled":false,"rental_uris":{"android":"levelo://app?vid=12c4534b-6180-47c1-800c-083b98d79c0c","ios":"levelo://app?vid=12c4534b-6180-47c1-800c-083b98d79c0c"},"vehicle_type_id":"4","last_reported":1718391992,"current_range_meters":0,"station_id":"ce4bgv92rcd13ifvqcr0","pricing_plan_id":"cebpf4jnsgd1na2vs0mg"},{"bike_id":"6dec15cc-e747-4cb5-84eb-ab6384b7b1a1","system_id":"levelo_inurba_marseille","lat":43.310804,"lon":5.38359,"is_reserved":false,"is_disabled":false,"rental_uris":{"android":"levelo://app?vid=6dec15cc-e747-4cb5-84eb-ab6384b7b1a1","ios":"levelo://app?vid=6dec15cc-e747-4cb5-84eb-ab6384b7b1a1"},"vehicle_type_id":"4","last_reported":1718391992,"current_range_meters":0,"station_id":"ce4bgv92rcd13ifvqcr0","pricing_plan_id":"cebpf4jnsgd1na2vs0mg"},{"bike_id":"c8185a2c-c79f-4d7a-a44d-c2cc6d0bf1bf","system_id":"levelo_inurba_marseille","lat":43.319935,"lon":5.381699,"is_reserved":false,"is_disabled":false,"rental_uris":{"android":"levelo://app?vid=c8185a2c-c79f-4d7a-a44d-c2cc6d0bf1bf","ios":"levelo://app?vid=c8185a2c-c79f-4d7a-a44d-c2cc6d0bf1bf"},"vehicle_type_id":"4","last_reported":1718391992,"current_range_meters":17200,"station_id":"ce4bhr12rcd13ifvqhpg","pricing_plan_id":"cebpf4jnsgd1na2vs0mg"},{"bike_id":"3ca1d2eb-3c9a-4889-bdb9-89a67a26055a","system_id":"levelo_inurba_marseille","lat":43.319935,"lon":5.381699,"is_reserved":false,"is_disabled":false,"rental_uris":{"android":"levelo://app?vid=3ca1d2eb-3c9a-4889-bdb9-89a67a26055a","ios":"levelo://app?vid=3ca1d2eb-3c9a-4889-bdb9-89a67a26055a"},"vehicle_type_id":"4","last_reported":1718391992,"current_range_meters":10400,"station_id":"ce4bhr12rcd13ifvqhpg","pricing_plan_id":"cebpf4jnsgd1na2vs0mg"},{"bike_id":"c8fa9472-de89-4380-a903-f2480572a9dd","system_id":"levelo_inurba_marseille","lat":43.319935,"lon":5.381699,"is_reserved":false,"is_disabled":false,"rental_uris":{"android":"levelo://app?vid=c8fa9472-de89-4380-a903-f2480572a9dd","ios":"levelo://app?vid=c8fa9472-de89-4380-a903-f2480572a9dd"},"vehicle_type_id":"4","last_reported":1718391992,"current_range_meters":2400,"station_id":"ce4bhr12rcd13ifvqhpg","pricing_plan_id":"cebpf4jnsgd1na2vs0mg"},{"bike_id":"ce881a5e-60f6-4378-b2e2-5526deafd3b3","system_id":"levelo_inurba_marseille","lat":43.319935,"lon":5.381699,"is_reserved":false,"is_disabled":false,"rental_uris":{"android":"levelo://app?vid=ce881a5e-60f6-4378-b2e2-5526deafd3b3","ios":"levelo://app?vid=ce881a5e-60f6-4378-b2e2-5526deafd3b3"},"vehicle_type_id":"4","last_reported":1718391992,"current_range_meters":12400,"station_id":"ce4bhr12rcd13ifvqhpg","pricing_plan_id":"cebpf4jnsgd1na2vs0mg"},{"bike_id":"973c202a-0b8c-41d6-9086-3a0e6628b107","system_id":"levelo_inurba_marseille","lat":43.313571,"lon":5.384829,"is_reserved":false,"is_disabled":false,"rental_uris":{"android":"levelo://app?vid=973c202a-0b8c-41d6-9086-3a0e6628b107","ios":"levelo://app?vid=973c202a-0b8c-41d6-9086-3a0e6628b107"},"vehicle_type_id":"4","last_reported":1718391992,"current_range_meters":800,"station_id":"ce4bgt92rcd13ifvqcf0","pricing_plan_id":"cebpf4jnsgd1na2vs0mg"},{"bike_id":"794762ef-2106-4440-b628-7b206820805f","system_id":"levelo_inurba_marseille","lat":43.313571,"lon":5.384829,"is_reserved":false,"is_disabled":false,"rental_uris":{"android":"levelo://app?vid=794762ef-2106-4440-b628-7b206820805f","ios":"levelo://app?vid=794762ef-2106-4440-b628-7b206820805f"},"vehicle_type_id":"4","last_reported":1718391992,"current_range_meters":0,"station_id":"ce4bgt92rcd13ifvqcf0","pricing_plan_id":"cebpf4jnsgd1na2vs0mg"},{"bike_id":"3e1d9d35-7f1a-4d65-94f4-50dc9642fb9c","system_id":"levelo_inurba_marseille","lat":43.31372,"lon":5.38493,"is_reserved":false,"is_disabled":false,"rental_uris":{"android":"levelo://app?vid=3e1d9d35-7f1a-4d65-94f4-50dc9642fb9c","ios":"levelo://app?vid=3e1d9d35-7f1a-4d65-94f4-50dc9642fb9c"},"vehicle_type_id":"4","last_reported":1718391992,"current_range_meters":14400,"station_id":"ce4bgt92rcd13ifvqcf0","pricing_plan_id":"cebpf4jnsgd1na2vs0mg"},{"bike_id":"05339874-a26f-4023-b37d-6f9aad1227f0","system_id":"levelo_inurba_marseille","lat":43.299222,"lon":5.365554,"is_reserved":false,"is_disabled":false,"rental_uris":{"android":"levelo://app?vid=05339874-a26f-4023-b37d-6f9aad1227f0","ios":"levelo://app?vid=05339874-a26f-4023-b37d-6f9aad1227f0"},"vehicle_type_id":"4","last_reported":1718391992,"current_range_meters":13600,"station_id":"ce4bgm92rcd13ifvqbr0","pricing_plan_id":"cebpf4jnsgd1na2vs0mg"},{"bike_id":"16f72db8-7815-484d-b7c7-5d74a6b6a810","system_id":"levelo_inurba_marseille","lat":43.299222,"lon":5.365554,"is_reserved":false,"is_disabled":false,"rental_uris":{"android":"levelo://app?vid=16f72db8-7815-484d-b7c7-5d74a6b6a810","ios":"levelo://app?vid=16f72db8-7815-484d-b7c7-5d74a6b6a810"},"vehicle_type_id":"4","last_reported":1718391992,"current_range_meters":10000,"station_id":"ce4bgm92rcd13ifvqbr0","pricing_plan_id":"cebpf4jnsgd1na2vs0mg"},{"bike_id":"25e608f4-c719-48b9-b46e-217dd491155e","system_id":"levelo_inurba_marseille","lat":43.299222,"lon":5.365554,"is_reserved":false,"is_disabled":false,"rental_uris":{"android":"levelo://app?vid=25e608f4-c719-48b9-b46e-217dd491155e","ios":"levelo://app?vid=25e608f4-c719-48b9-b46e-217dd491155e"},"vehicle_type_id":"4","last_reported":1718391992,"current_range_meters":22000,"station_id":"ce4bgm92rcd13ifvqbr0","pricing_plan_id":"cebpf4jnsgd1na2vs0mg"},{"bike_id":"8a85e2da-a324-4ade-ba5c-bfe1b801e9f6","system_id":"levelo_inurba_marseille","lat":43.299222,"lon":5.365554,"is_reserved":false,"is_disabled":false,"rental_uris":{"android":"levelo://app?vid=8a85e2da-a324-4ade-ba5c-bfe1b801e9f6","ios":"levelo://app?vid=8a85e2da-a324-4ade-ba5c-bfe1b801e9f6"},"vehicle_type_id":"4","last_reported":1718391992,"current_range_meters":7200,"station_id":"ce4bgm92rcd13ifvqbr0","pricing_plan_id":"cebpf4jnsgd1na2vs0mg"},{"bike_id":"60bda409-c201-4a14-bf12-698ab6a8c7c1","system_id":"levelo_inurba_marseille","lat":43.299222,"lon":5.365554,"is_reserved":false,"is_disabled":false,"rental_uris":{"android":"levelo://app?vid=60bda409-c201-4a14-bf12-698ab6a8c7c1","ios":"levelo://app?vid=60bda409-c201-4a14-bf12-698ab6a8c7c1"},"vehicle_type_id":"4","last_reported":1718391992,"current_range_meters":16800,"station_id":"ce4bgm92rcd13ifvqbr0","pricing_plan_id":"cebpf4jnsgd1na2vs0mg"},{"bike_id":"5469fb99-2998-4175-86bd-b9f94cbe3e27","system_id":"levelo_inurba_marseille","lat":43.299222,"lon":5.365554,"is_reserved":false,"is_disabled":false,"rental_uris":{"android":"levelo://app?vid=5469fb99-2998-4175-86bd-b9f94cbe3e27","ios":"levelo://app?vid=5469fb99-2998-4175-86bd-b9f94cbe3e27"},"vehicle_type_id":"4","last_reported":1718391992,"current_range_meters":29200,"station_id":"ce4bgm92rcd13ifvqbr0","pricing_plan_id":"cebpf4jnsgd1na2vs0mg"},{"bike_id":"a1bf15d1-1cd7-4181-aa5a-d4e5d573d9fe","system_id":"levelo_inurba_marseille","lat":43.299724,"lon":5.371829,"is_reserved":false,"is_disabled":false,"rental_uris":{"android":"levelo://app?vid=a1bf15d1-1cd7-4181-aa5a-d4e5d573d9fe","ios":"levelo://app?vid=a1bf15d1-1cd7-4181-aa5a-d4e5d573d9fe"},"vehicle_type_id":"4","last_reported":1718391992,"current_range_meters":0,"station_id":"ce4bgr92rcd13ifvqc7g","pricing_plan_id":"cebpf4jnsgd1na2vs0mg"},{"bike_id":"248ebc9d-a34f-45b5-8532-cc4d66f3c8c5","system_id":"levelo_inurba_marseille","lat":43.299209,"lon":5.365547,"is_reserved":false,"is_disabled":false,"rental_uris":{"android":"levelo://app?vid=248ebc9d-a34f-45b5-8532-cc4d66f3c8c5","ios":"levelo://app?vid=248ebc9d-a34f-45b5-8532-cc4d66f3c8c5"},"vehicle_type_id":"4","last_reported":1718391992,"current_range_meters":2400,"station_id":"ce4bgm92rcd13ifvqbr0","pricing_plan_id":"cebpf4jnsgd1na2vs0mg"},{"bike_id":"e778c5cb-bf20-42ea-a4c9-99f9acef2a46","system_id":"levelo_inurba_marseille","lat":43.29854,"lon":5.36292,"is_reserved":false,"is_disabled":false,"rental_uris":{"android":"levelo://app?vid=e778c5cb-bf20-42ea-a4c9-99f9acef2a46","ios":"levelo://app?vid=e778c5cb-bf20-42ea-a4c9-99f9acef2a46"},"vehicle_type_id":"4","last_reported":1718391992,"current_range_meters":3200,"station_id":"ce4bgpp2rcd13ifvqc3g","pricing_plan_id":"cebpf4jnsgd1na2vs0mg"},{"bike_id":"207a52d0-ac2a-4dae-bc84-5937d91b4455","system_id":"levelo_inurba_marseille","lat":43.298433,"lon":5.362774,"is_reserved":false,"is_disabled":false,"rental_uris":{"android":"levelo://app?vid=207a52d0-ac2a-4dae-bc84-5937d91b4455","ios":"levelo://app?vid=207a52d0-ac2a-4dae-bc84-5937d91b4455"},"vehicle_type_id":"4","last_reported":1718391992,"current_range_meters":0,"station_id":"ce4bgpp2rcd13ifvqc3g","pricing_plan_id":"cebpf4jnsgd1na2vs0mg"},{"bike_id":"506f3473-0284-4bd3-a97e-33e6b7d6feb9","system_id":"levelo_inurba_marseille","lat":43.2985,"lon":5.36287,"is_reserved":false,"is_disabled":false,"rental_uris":{"android":"levelo://app?vid=506f3473-0284-4bd3-a97e-33e6b7d6feb9","ios":"levelo://app?vid=506f3473-0284-4bd3-a97e-33e6b7d6feb9"},"vehicle_type_id":"4","last_reported":1718391992,"current_range_meters":12800,"station_id":"ce4bgpp2rcd13ifvqc3g","pricing_plan_id":"cebpf4jnsgd1na2vs0mg"},{"bike_id":"aa58f12e-b22c-47e1-97ed-b384aead84a3","system_id":"levelo_inurba_marseille","lat":43.298433,"lon":5.362774,"is_reserved":false,"is_disabled":false,"rental_uris":{"android":"levelo://app?vid=aa58f12e-b22c-47e1-97ed-b384aead84a3","ios":"levelo://app?vid=aa58f12e-b22c-47e1-97ed-b384aead84a3"},"vehicle_type_id":"4","last_reported":1718391992,"current_range_meters":12000,"station_id":"ce4bgpp2rcd13ifvqc3g","pricing_plan_id":"cebpf4jnsgd1na2vs0mg"},{"bike_id":"7d60559d-8cbb-49ec-a548-1602c0d24195","system_id":"levelo_inurba_marseille","lat":43.2985,"lon":5.36277,"is_reserved":false,"is_disabled":false,"rental_uris":{"android":"levelo://app?vid=7d60559d-8cbb-49ec-a548-1602c0d24195","ios":"levelo://app?vid=7d60559d-8cbb-49ec-a548-1602c0d24195"},"vehicle_type_id":"4","last_reported":1718391992,"current_range_meters":14400,"station_id":"ce4bgpp2rcd13ifvqc3g","pricing_plan_id":"cebpf4jnsgd1na2vs0mg"},{"bike_id":"1b1e1e10-5031-4de9-9759-09704f7af275","system_id":"levelo_inurba_marseille","lat":43.2985,"lon":5.36272,"is_reserved":false,"is_disabled":false,"rental_uris":{"android":"levelo://app?vid=1b1e1e10-5031-4de9-9759-09704f7af275","ios":"levelo://app?vid=1b1e1e10-5031-4de9-9759-09704f7af275"},"vehicle_type_id":"4","last_reported":1718391992,"current_range_meters":1200,"station_id":"ce4bgpp2rcd13ifvqc3g","pricing_plan_id":"cebpf4jnsgd1na2vs0mg"},{"bike_id":"dc47a628-885c-4cfc-9448-ea562405772d","system_id":"levelo_inurba_marseille","lat":43.29847,"lon":5.36279,"is_reserved":false,"is_disabled":false,"rental_uris":{"android":"levelo://app?vid=dc47a628-885c-4cfc-9448-ea562405772d","ios":"levelo://app?vid=dc47a628-885c-4cfc-9448-ea562405772d"},"vehicle_type_id":"4","last_reported":1718391992,"current_range_meters":22000,"station_id":"ce4bgpp2rcd13ifvqc3g","pricing_plan_id":"cebpf4jnsgd1na2vs0mg"},{"bike_id":"b3550cf9-803b-4e4b-8d73-028518a44ca2","system_id":"levelo_inurba_marseille","lat":43.298433,"lon":5.362774,"is_reserved":false,"is_disabled":false,"rental_uris":{"android":"levelo://app?vid=b3550cf9-803b-4e4b-8d73-028518a44ca2","ios":"levelo://app?vid=b3550cf9-803b-4e4b-8d73-028518a44ca2"},"vehicle_type_id":"4","last_reported":1718391992,"current_range_meters":27600,"station_id":"ce4bgpp2rcd13ifvqc3g","pricing_plan_id":"cebpf4jnsgd1na2vs0mg"},{"bike_id":"ae8d5d0e-ff1f-4505-878f-556f1d21dcf2","system_id":"levelo_inurba_marseille","lat":43.29846,"lon":5.36274,"is_reserved":false,"is_disabled":false,"rental_uris":{"android":"levelo://app?vid=ae8d5d0e-ff1f-4505-878f-556f1d21dcf2","ios":"levelo://app?vid=ae8d5d0e-ff1f-4505-878f-556f1d21dcf2"},"vehicle_type_id":"4","last_reported":1718391992,"current_range_meters":0,"station_id":"ce4bgpp2rcd13ifvqc3g","pricing_plan_id":"cebpf4jnsgd1na2vs0mg"},{"bike_id":"270a0930-bd26-4248-b615-9b57b81d0d3d","system_id":"levelo_inurba_marseille","lat":43.29846,"lon":5.36274,"is_reserved":false,"is_disabled":false,"rental_uris":{"android":"levelo://app?vid=270a0930-bd26-4248-b615-9b57b81d0d3d","ios":"levelo://app?vid=270a0930-bd26-4248-b615-9b57b81d0d3d"},"vehicle_type_id":"4","last_reported":1718391992,"current_range_meters":25600,"station_id":"ce4bgpp2rcd13ifvqc3g","pricing_plan_id":"cebpf4jnsgd1na2vs0mg"},{"bike_id":"8b515168-8db4-41cf-b66b-5c7dc52357c1","system_id":"levelo_inurba_marseille","lat":43.30542,"lon":5.38429,"is_reserved":false,"is_disabled":false,"rental_uris":{"android":"levelo://app?vid=8b515168-8db4-41cf-b66b-5c7dc52357c1","ios":"levelo://app?vid=8b515168-8db4-41cf-b66b-5c7dc52357c1"},"vehicle_type_id":"4","last_reported":1718391992,"current_range_meters":22000,"station_id":"","pricing_plan_id":"cebpf4jnsgd1na2vs0mg"},{"bike_id":"434fd61e-e77a-49d2-8b65-01594fa39eae","system_id":"levelo_inurba_marseille","lat":43.298433,"lon":5.362774,"is_reserved":false,"is_disabled":false,"rental_uris":{"android":"levelo://app?vid=434fd61e-e77a-49d2-8b65-01594fa39eae","ios":"levelo://app?vid=434fd61e-e77a-49d2-8b65-01594fa39eae"},"vehicle_type_id":"4","last_reported":1718391992,"current_range_meters":18800,"station_id":"ce4bgpp2rcd13ifvqc3g","pricing_plan_id":"cebpf4jnsgd1na2vs0mg"},{"bike_id":"c91ee392-8805-41df-bdbf-3d1a9ae2bffa","system_id":"levelo_inurba_marseille","lat":43.298433,"lon":5.362774,"is_reserved":false,"is_disabled":false,"rental_uris":{"android":"levelo://app?vid=c91ee392-8805-41df-bdbf-3d1a9ae2bffa","ios":"levelo://app?vid=c91ee392-8805-41df-bdbf-3d1a9ae2bffa"},"vehicle_type_id":"4","last_reported":1718391992,"current_range_meters":17200,"station_id":"ce4bgpp2rcd13ifvqc3g","pricing_plan_id":"cebpf4jnsgd1na2vs0mg"},{"bike_id":"8ac78aad-52c9-4f12-ada4-c5239987fcfd","system_id":"levelo_inurba_marseille","lat":43.298433,"lon":5.362774,"is_reserved":false,"is_disabled":false,"rental_uris":{"android":"levelo://app?vid=8ac78aad-52c9-4f12-ada4-c5239987fcfd","ios":"levelo://app?vid=8ac78aad-52c9-4f12-ada4-c5239987fcfd"},"vehicle_type_id":"4","last_reported":1718391992,"current_range_meters":23200,"station_id":"ce4bgpp2rcd13ifvqc3g","pricing_plan_id":"cebpf4jnsgd1na2vs0mg"},{"bike_id":"b6bd235c-30ac-4df4-81f2-857bd69b617f","system_id":"levelo_inurba_marseille","lat":43.31179,"lon":5.38712,"is_reserved":false,"is_disabled":false,"rental_uris":{"android":"levelo://app?vid=b6bd235c-30ac-4df4-81f2-857bd69b617f","ios":"levelo://app?vid=b6bd235c-30ac-4df4-81f2-857bd69b617f"},"vehicle_type_id":"4","last_reported":1718391992,"current_range_meters":6000,"station_id":"ce4bgv12rcd13ifvqcp0","pricing_plan_id":"cebpf4jnsgd1na2vs0mg"},{"bike_id":"a3cbab31-3a1c-4301-9dd1-a63520e7ea34","system_id":"levelo_inurba_marseille","lat":43.31162,"lon":5.38717,"is_reserved":false,"is_disabled":false,"rental_uris":{"android":"levelo://app?vid=a3cbab31-3a1c-4301-9dd1-a63520e7ea34","ios":"levelo://app?vid=a3cbab31-3a1c-4301-9dd1-a63520e7ea34"},"vehicle_type_id":"4","last_reported":1718391992,"current_range_meters":13200,"station_id":"ce4bgv12rcd13ifvqcp0","pricing_plan_id":"cebpf4jnsgd1na2vs0mg"},{"bike_id":"c98e4a66-3919-417d-a388-f293689c3289","system_id":"levelo_inurba_marseille","lat":43.29802,"lon":5.37134,"is_reserved":false,"is_disabled":false,"rental_uris":{"android":"levelo://app?vid=c98e4a66-3919-417d-a388-f293689c3289","ios":"levelo://app?vid=c98e4a66-3919-417d-a388-f293689c3289"},"vehicle_type_id":"4","last_reported":1718391992,"current_range_meters":12000,"station_id":"ce4bgop2rcd13ifvqc1g","pricing_plan_id":"cebpf4jnsgd1na2vs0mg"},{"bike_id":"bd65e3e1-4b92-4b76-9bc6-cc0cf7563c4f","system_id":"levelo_inurba_marseille","lat":43.297794,"lon":5.370888,"is_reserved":false,"is_disabled":false,"rental_uris":{"android":"levelo://app?vid=bd65e3e1-4b92-4b76-9bc6-cc0cf7563c4f","ios":"levelo://app?vid=bd65e3e1-4b92-4b76-9bc6-cc0cf7563c4f"},"vehicle_type_id":"4","last_reported":1718391992,"current_range_meters":24400,"station_id":"ce4bgop2rcd13ifvqc1g","pricing_plan_id":"cebpf4jnsgd1na2vs0mg"},{"bike_id":"eb338ef1-a7d3-45ec-8627-79cbaa496444","system_id":"levelo_inurba_marseille","lat":43.297794,"lon":5.370888,"is_reserved":false,"is_disabled":false,"rental_uris":{"android":"levelo://app?vid=eb338ef1-a7d3-45ec-8627-79cbaa496444","ios":"levelo://app?vid=eb338ef1-a7d3-45ec-8627-79cbaa496444"},"vehicle_type_id":"4","last_reported":1718391992,"current_range_meters":3600,"station_id":"ce4bgop2rcd13ifvqc1g","pricing_plan_id":"cebpf4jnsgd1na2vs0mg"},{"bike_id":"3e204126-0558-4a9d-818e-eaf1a29cb21e","system_id":"levelo_inurba_marseille","lat":43.297774,"lon":5.370875,"is_reserved":false,"is_disabled":false,"rental_uris":{"android":"levelo://app?vid=3e204126-0558-4a9d-818e-eaf1a29cb21e","ios":"levelo://app?vid=3e204126-0558-4a9d-818e-eaf1a29cb21e"},"vehicle_type_id":"4","last_reported":1718391992,"current_range_meters":30000,"station_id":"ce4bgop2rcd13ifvqc1g","pricing_plan_id":"cebpf4jnsgd1na2vs0mg"},{"bike_id":"e025e930-8f82-4879-b09c-3202c4ca43ad","system_id":"levelo_inurba_marseille","lat":43.322872,"lon":5.382756,"is_reserved":false,"is_disabled":false,"rental_uris":{"android":"levelo://app?vid=e025e930-8f82-4879-b09c-3202c4ca43ad","ios":"levelo://app?vid=e025e930-8f82-4879-b09c-3202c4ca43ad"},"vehicle_type_id":"4","last_reported":1718391992,"current_range_meters":0,"station_id":"ce4bhr12rcd13ifvqhqg","pricing_plan_id":"cebpf4jnsgd1na2vs0mg"},{"bike_id":"9f0f6b50-bc21-4a88-84f0-c6b101909010","system_id":"levelo_inurba_marseille","lat":43.311722,"lon":5.387247,"is_reserved":false,"is_disabled":false,"rental_uris":{"android":"levelo://app?vid=9f0f6b50-bc21-4a88-84f0-c6b101909010","ios":"levelo://app?vid=9f0f6b50-bc21-4a88-84f0-c6b101909010"},"vehicle_type_id":"4","last_reported":1718391992,"current_range_meters":4000,"station_id":"ce4bgv12rcd13ifvqcp0","pricing_plan_id":"cebpf4jnsgd1na2vs0mg"},{"bike_id":"55ff2c12-896b-4997-bf4a-2b9db49ee054","system_id":"levelo_inurba_marseille","lat":43.307403,"lon":5.386813,"is_reserved":false,"is_disabled":false,"rental_uris":{"android":"levelo://app?vid=55ff2c12-896b-4997-bf4a-2b9db49ee054","ios":"levelo://app?vid=55ff2c12-896b-4997-bf4a-2b9db49ee054"},"vehicle_type_id":"4","last_reported":1718391992,"current_range_meters":23200,"station_id":"","pricing_plan_id":"cebpf4jnsgd1na2vs0mg"},{"bike_id":"8238f090-9e87-4d1d-acfa-78a8d18a4893","system_id":"levelo_inurba_marseille","lat":43.297163,"lon":5.365866,"is_reserved":false,"is_disabled":false,"rental_uris":{"android":"levelo://app?vid=8238f090-9e87-4d1d-acfa-78a8d18a4893","ios":"levelo://app?vid=8238f090-9e87-4d1d-acfa-78a8d18a4893"},"vehicle_type_id":"4","last_reported":1718391992,"current_range_meters":4000,"station_id":"ce4bgn12rcd13ifvqbt0","pricing_plan_id":"cebpf4jnsgd1na2vs0mg"},{"bike_id":"0070df20-4c22-4500-81b9-958ef84c563a","system_id":"levelo_inurba_marseille","lat":43.296553,"lon":5.370077,"is_reserved":false,"is_disabled":false,"rental_uris":{"android":"levelo://app?vid=0070df20-4c22-4500-81b9-958ef84c563a","ios":"levelo://app?vid=0070df20-4c22-4500-81b9-958ef84c563a"},"vehicle_type_id":"4","last_reported":1718391992,"current_range_meters":5600,"station_id":"","pricing_plan_id":"cebpf4jnsgd1na2vs0mg"},{"bike_id":"0ab218e4-6e90-4112-8956-cf299297c3cf","system_id":"levelo_inurba_marseille","lat":43.2968,"lon":5.37291,"is_reserved":false,"is_disabled":false,"rental_uris":{"android":"levelo://app?vid=0ab218e4-6e90-4112-8956-cf299297c3cf","ios":"levelo://app?vid=0ab218e4-6e90-4112-8956-cf299297c3cf"},"vehicle_type_id":"4","last_reported":1718391992,"current_range_meters":9600,"station_id":"ce4bgk12rcd13ifvqbj0","pricing_plan_id":"cebpf4jnsgd1na2vs0mg"},{"bike_id":"37471f4c-741d-4423-ad28-3beb8104ff11","system_id":"levelo_inurba_marseille","lat":43.296378,"lon":5.363508,"is_reserved":false,"is_disabled":false,"rental_uris":{"android":"levelo://app?vid=37471f4c-741d-4423-ad28-3beb8104ff11","ios":"levelo://app?vid=37471f4c-741d-4423-ad28-3beb8104ff11"},"vehicle_type_id":"4","last_reported":1718391992,"current_range_meters":12400,"station_id":"","pricing_plan_id":"cebpf4jnsgd1na2vs0mg"},{"bike_id":"664f1ed7-8913-4bb2-bf37-26cfdc2a98cf","system_id":"levelo_inurba_marseille","lat":43.296186,"lon":5.363152,"is_reserved":false,"is_disabled":false,"rental_uris":{"android":"levelo://app?vid=664f1ed7-8913-4bb2-bf37-26cfdc2a98cf","ios":"levelo://app?vid=664f1ed7-8913-4bb2-bf37-26cfdc2a98cf"},"vehicle_type_id":"4","last_reported":1718391992,"current_range_meters":17200,"station_id":"","pricing_plan_id":"cebpf4jnsgd1na2vs0mg"},{"bike_id":"b6c1268c-a7ff-4aa5-aaf3-52187293dc93","system_id":"levelo_inurba_marseille","lat":43.296155,"lon":5.363153,"is_reserved":false,"is_disabled":false,"rental_uris":{"android":"levelo://app?vid=b6c1268c-a7ff-4aa5-aaf3-52187293dc93","ios":"levelo://app?vid=b6c1268c-a7ff-4aa5-aaf3-52187293dc93"},"vehicle_type_id":"4","last_reported":1718391992,"current_range_meters":19200,"station_id":"","pricing_plan_id":"cebpf4jnsgd1na2vs0mg"},{"bike_id":"0171fe98-10e6-4e4d-ac83-e8670f6dc3b2","system_id":"levelo_inurba_marseille","lat":43.296131,"lon":5.370791,"is_reserved":false,"is_disabled":false,"rental_uris":{"android":"levelo://app?vid=0171fe98-10e6-4e4d-ac83-e8670f6dc3b2","ios":"levelo://app?vid=0171fe98-10e6-4e4d-ac83-e8670f6dc3b2"},"vehicle_type_id":"4","last_reported":1718391992,"current_range_meters":26800,"station_id":"ce4bgnh2rcd13ifvqc0g","pricing_plan_id":"cebpf4jnsgd1na2vs0mg"},{"bike_id":"57c9cbe3-23ea-477e-b54f-25bcc80d3e49","system_id":"levelo_inurba_marseille","lat":43.29725,"lon":5.37632,"is_reserved":false,"is_disabled":false,"rental_uris":{"android":"levelo://app?vid=57c9cbe3-23ea-477e-b54f-25bcc80d3e49","ios":"levelo://app?vid=57c9cbe3-23ea-477e-b54f-25bcc80d3e49"},"vehicle_type_id":"4","last_reported":1718391992,"current_range_meters":800,"station_id":"ce4bgkh2rcd13ifvqbl0","pricing_plan_id":"cebpf4jnsgd1na2vs0mg"},{"bike_id":"b7f1b88e-d1a3-457c-ab9e-3b1af615215b","system_id":"levelo_inurba_marseille","lat":43.295795,"lon":5.364288,"is_reserved":false,"is_disabled":false,"rental_uris":{"android":"levelo://app?vid=b7f1b88e-d1a3-457c-ab9e-3b1af615215b","ios":"levelo://app?vid=b7f1b88e-d1a3-457c-ab9e-3b1af615215b"},"vehicle_type_id":"4","last_reported":1718391992,"current_range_meters":5200,"station_id":"","pricing_plan_id":"cebpf4jnsgd1na2vs0mg"},{"bike_id":"fa580e86-57bb-464e-9f9b-565777f587b0","system_id":"levelo_inurba_marseille","lat":43.296935,"lon":5.376544,"is_reserved":false,"is_disabled":false,"rental_uris":{"android":"levelo://app?vid=fa580e86-57bb-464e-9f9b-565777f587b0","ios":"levelo://app?vid=fa580e86-57bb-464e-9f9b-565777f587b0"},"vehicle_type_id":"4","last_reported":1718391992,"current_range_meters":0,"station_id":"ce4bgkh2rcd13ifvqbl0","pricing_plan_id":"cebpf4jnsgd1na2vs0mg"},{"bike_id":"387b10e8-ea19-47ba-a13c-38f7b538c4f1","system_id":"levelo_inurba_marseille","lat":43.309638,"lon":5.390294,"is_reserved":false,"is_disabled":false,"rental_uris":{"android":"levelo://app?vid=387b10e8-ea19-47ba-a13c-38f7b538c4f1","ios":"levelo://app?vid=387b10e8-ea19-47ba-a13c-38f7b538c4f1"},"vehicle_type_id":"4","last_reported":1718391992,"current_range_meters":0,"station_id":"ce4bgup2rcd13ifvqco0","pricing_plan_id":"cebpf4jnsgd1na2vs0mg"},{"bike_id":"bc6c246a-8470-4edb-8c10-68f772fe840e","system_id":"levelo_inurba_marseille","lat":43.30949,"lon":5.39027,"is_reserved":false,"is_disabled":false,"rental_uris":{"android":"levelo://app?vid=bc6c246a-8470-4edb-8c10-68f772fe840e","ios":"levelo://app?vid=bc6c246a-8470-4edb-8c10-68f772fe840e"},"vehicle_type_id":"4","last_reported":1718391992,"current_range_meters":12800,"station_id":"ce4bgup2rcd13ifvqco0","pricing_plan_id":"cebpf4jnsgd1na2vs0mg"},{"bike_id":"394b8ece-e689-4a8f-8192-f87a43655899","system_id":"levelo_inurba_marseille","lat":43.309469,"lon":5.390324,"is_reserved":false,"is_disabled":false,"rental_uris":{"android":"levelo://app?vid=394b8ece-e689-4a8f-8192-f87a43655899","ios":"levelo://app?vid=394b8ece-e689-4a8f-8192-f87a43655899"},"vehicle_type_id":"4","last_reported":1718391992,"current_range_meters":0,"station_id":"ce4bgup2rcd13ifvqco0","pricing_plan_id":"cebpf4jnsgd1na2vs0mg"},{"bike_id":"c56525e1-add6-4efb-9d3b-effa68476488","system_id":"levelo_inurba_marseille","lat":43.309589,"lon":5.390258,"is_reserved":false,"is_disabled":false,"rental_uris":{"android":"levelo://app?vid=c56525e1-add6-4efb-9d3b-effa68476488","ios":"levelo://app?vid=c56525e1-add6-4efb-9d3b-effa68476488"},"vehicle_type_id":"4","last_reported":1718391992,"current_range_meters":400,"station_id":"ce4bgup2rcd13ifvqco0","pricing_plan_id":"cebpf4jnsgd1na2vs0mg"},{"bike_id":"bd124437-c1e1-4bd1-85c4-6ca69c6aa0c9","system_id":"levelo_inurba_marseille","lat":43.309589,"lon":5.390258,"is_reserved":false,"is_disabled":false,"rental_uris":{"android":"levelo://app?vid=bd124437-c1e1-4bd1-85c4-6ca69c6aa0c9","ios":"levelo://app?vid=bd124437-c1e1-4bd1-85c4-6ca69c6aa0c9"},"vehicle_type_id":"4","last_reported":1718391992,"current_range_meters":4400,"station_id":"ce4bgup2rcd13ifvqco0","pricing_plan_id":"cebpf4jnsgd1na2vs0mg"},{"bike_id":"1d299972-bcd1-4c9d-8178-ee87a7bea1d0","system_id":"levelo_inurba_marseille","lat":43.309589,"lon":5.390258,"is_reserved":false,"is_disabled":false,"rental_uris":{"android":"levelo://app?vid=1d299972-bcd1-4c9d-8178-ee87a7bea1d0","ios":"levelo://app?vid=1d299972-bcd1-4c9d-8178-ee87a7bea1d0"},"vehicle_type_id":"4","last_reported":1718391992,"current_range_meters":8800,"station_id":"ce4bgup2rcd13ifvqco0","pricing_plan_id":"cebpf4jnsgd1na2vs0mg"},{"bike_id":"d89e56d6-156b-47d9-a016-4a0059dd05ab","system_id":"levelo_inurba_marseille","lat":43.309589,"lon":5.390258,"is_reserved":false,"is_disabled":false,"rental_uris":{"android":"levelo://app?vid=d89e56d6-156b-47d9-a016-4a0059dd05ab","ios":"levelo://app?vid=d89e56d6-156b-47d9-a016-4a0059dd05ab"},"vehicle_type_id":"4","last_reported":1718391992,"current_range_meters":4800,"station_id":"ce4bgup2rcd13ifvqco0","pricing_plan_id":"cebpf4jnsgd1na2vs0mg"},{"bike_id":"40aa21f6-ad23-4abc-b72e-4cd673ea04ac","system_id":"levelo_inurba_marseille","lat":43.309589,"lon":5.390258,"is_reserved":false,"is_disabled":false,"rental_uris":{"android":"levelo://app?vid=40aa21f6-ad23-4abc-b72e-4cd673ea04ac","ios":"levelo://app?vid=40aa21f6-ad23-4abc-b72e-4cd673ea04ac"},"vehicle_type_id":"4","last_reported":1718391992,"current_range_meters":8800,"station_id":"ce4bgup2rcd13ifvqco0","pricing_plan_id":"cebpf4jnsgd1na2vs0mg"},{"bike_id":"97bf198d-bfa1-4561-8a2d-499cfddda2d8","system_id":"levelo_inurba_marseille","lat":43.309589,"lon":5.390258,"is_reserved":false,"is_disabled":false,"rental_uris":{"android":"levelo://app?vid=97bf198d-bfa1-4561-8a2d-499cfddda2d8","ios":"levelo://app?vid=97bf198d-bfa1-4561-8a2d-499cfddda2d8"},"vehicle_type_id":"4","last_reported":1718391992,"current_range_meters":28400,"station_id":"ce4bgup2rcd13ifvqco0","pricing_plan_id":"cebpf4jnsgd1na2vs0mg"},{"bike_id":"629fb50f-740d-4ca8-98a4-89b6af2690ac","system_id":"levelo_inurba_marseille","lat":43.317557,"lon":5.390173,"is_reserved":false,"is_disabled":false,"rental_uris":{"android":"levelo://app?vid=629fb50f-740d-4ca8-98a4-89b6af2690ac","ios":"levelo://app?vid=629fb50f-740d-4ca8-98a4-89b6af2690ac"},"vehicle_type_id":"4","last_reported":1718391992,"current_range_meters":6400,"station_id":"ce4bhqp2rcd13ifvqhng","pricing_plan_id":"cebpf4jnsgd1na2vs0mg"},{"bike_id":"fb30051b-f36b-4b7a-bf13-07eb0f9a69bb","system_id":"levelo_inurba_marseille","lat":43.317557,"lon":5.390173,"is_reserved":false,"is_disabled":false,"rental_uris":{"android":"levelo://app?vid=fb30051b-f36b-4b7a-bf13-07eb0f9a69bb","ios":"levelo://app?vid=fb30051b-f36b-4b7a-bf13-07eb0f9a69bb"},"vehicle_type_id":"4","last_reported":1718391992,"current_range_meters":24400,"station_id":"ce4bhqp2rcd13ifvqhng","pricing_plan_id":"cebpf4jnsgd1na2vs0mg"},{"bike_id":"d51789ea-eb04-4e0b-b0d1-a567aa1af80c","system_id":"levelo_inurba_marseille","lat":43.304606,"lon":5.379026,"is_reserved":false,"is_disabled":false,"rental_uris":{"android":"levelo://app?vid=d51789ea-eb04-4e0b-b0d1-a567aa1af80c","ios":"levelo://app?vid=d51789ea-eb04-4e0b-b0d1-a567aa1af80c"},"vehicle_type_id":"4","last_reported":1718391992,"current_range_meters":800,"station_id":"ce4bgup2rcd13ifvqcn0","pricing_plan_id":"cebpf4jnsgd1na2vs0mg"},{"bike_id":"1e087c25-5704-47d4-b306-e2698b848936","system_id":"levelo_inurba_marseille","lat":43.304274,"lon":5.388873,"is_reserved":false,"is_disabled":false,"rental_uris":{"android":"levelo://app?vid=1e087c25-5704-47d4-b306-e2698b848936","ios":"levelo://app?vid=1e087c25-5704-47d4-b306-e2698b848936"},"vehicle_type_id":"4","last_reported":1718391992,"current_range_meters":12400,"station_id":"ce4bgk12rcd13ifvqbi0","pricing_plan_id":"cebpf4jnsgd1na2vs0mg"},{"bike_id":"b85f3923-8b69-47c6-bca3-eff1e50ef4e2","system_id":"levelo_inurba_marseille","lat":43.304274,"lon":5.388873,"is_reserved":false,"is_disabled":false,"rental_uris":{"android":"levelo://app?vid=b85f3923-8b69-47c6-bca3-eff1e50ef4e2","ios":"levelo://app?vid=b85f3923-8b69-47c6-bca3-eff1e50ef4e2"},"vehicle_type_id":"4","last_reported":1718391992,"current_range_meters":30400,"station_id":"ce4bgk12rcd13ifvqbi0","pricing_plan_id":"cebpf4jnsgd1na2vs0mg"},{"bike_id":"82fc34ae-a475-4ef1-805c-da58f69fd6c1","system_id":"levelo_inurba_marseille","lat":43.29619,"lon":5.37736,"is_reserved":false,"is_disabled":false,"rental_uris":{"android":"levelo://app?vid=82fc34ae-a475-4ef1-805c-da58f69fd6c1","ios":"levelo://app?vid=82fc34ae-a475-4ef1-805c-da58f69fd6c1"},"vehicle_type_id":"4","last_reported":1718391992,"current_range_meters":0,"station_id":"ce4bgi92rcd13ifvqb90","pricing_plan_id":"cebpf4jnsgd1na2vs0mg"},{"bike_id":"04d24b59-e339-4adc-8308-5fdf0b279d4f","system_id":"levelo_inurba_marseille","lat":43.299707,"lon":5.384859,"is_reserved":false,"is_disabled":false,"rental_uris":{"android":"levelo://app?vid=04d24b59-e339-4adc-8308-5fdf0b279d4f","ios":"levelo://app?vid=04d24b59-e339-4adc-8308-5fdf0b279d4f"},"vehicle_type_id":"4","last_reported":1718391992,"current_range_meters":25200,"station_id":"ce4bgj92rcd13ifvqbd0","pricing_plan_id":"cebpf4jnsgd1na2vs0mg"},{"bike_id":"2ef0beb9-4ff7-4c98-b4c4-2e7bf1baaeb8","system_id":"levelo_inurba_marseille","lat":43.299724,"lon":5.384848,"is_reserved":false,"is_disabled":false,"rental_uris":{"android":"levelo://app?vid=2ef0beb9-4ff7-4c98-b4c4-2e7bf1baaeb8","ios":"levelo://app?vid=2ef0beb9-4ff7-4c98-b4c4-2e7bf1baaeb8"},"vehicle_type_id":"4","last_reported":1718391992,"current_range_meters":11200,"station_id":"ce4bgj92rcd13ifvqbd0","pricing_plan_id":"cebpf4jnsgd1na2vs0mg"},{"bike_id":"a7767577-26e2-46ac-be2e-eb62529463f0","system_id":"levelo_inurba_marseille","lat":43.299724,"lon":5.384848,"is_reserved":false,"is_disabled":false,"rental_uris":{"android":"levelo://app?vid=a7767577-26e2-46ac-be2e-eb62529463f0","ios":"levelo://app?vid=a7767577-26e2-46ac-be2e-eb62529463f0"},"vehicle_type_id":"4","last_reported":1718391992,"current_range_meters":0,"station_id":"ce4bgj92rcd13ifvqbd0","pricing_plan_id":"cebpf4jnsgd1na2vs0mg"},{"bike_id":"90f81f6e-861c-4a12-9f8b-8b16123df331","system_id":"levelo_inurba_marseille","lat":43.32367,"lon":5.388836,"is_reserved":false,"is_disabled":false,"rental_uris":{"android":"levelo://app?vid=90f81f6e-861c-4a12-9f8b-8b16123df331","ios":"levelo://app?vid=90f81f6e-861c-4a12-9f8b-8b16123df331"},"vehicle_type_id":"4","last_reported":1718391992,"current_range_meters":12800,"station_id":"ce4bhqp2rcd13ifvqhog","pricing_plan_id":"cebpf4jnsgd1na2vs0mg"},{"bike_id":"f13e63b5-8abd-4f62-8c54-f554ee194fee","system_id":"levelo_inurba_marseille","lat":43.29389,"lon":5.37329,"is_reserved":false,"is_disabled":false,"rental_uris":{"android":"levelo://app?vid=f13e63b5-8abd-4f62-8c54-f554ee194fee","ios":"levelo://app?vid=f13e63b5-8abd-4f62-8c54-f554ee194fee"},"vehicle_type_id":"4","last_reported":1718391992,"current_range_meters":22400,"station_id":"","pricing_plan_id":"cebpf4jnsgd1na2vs0mg"},{"bike_id":"c9c5db96-96f7-4492-8f3e-347ee05b42a4","system_id":"levelo_inurba_marseille","lat":43.309589,"lon":5.390258,"is_reserved":false,"is_disabled":false,"rental_uris":{"android":"levelo://app?vid=c9c5db96-96f7-4492-8f3e-347ee05b42a4","ios":"levelo://app?vid=c9c5db96-96f7-4492-8f3e-347ee05b42a4"},"vehicle_type_id":"4","last_reported":1718391992,"current_range_meters":7600,"station_id":"ce4bgup2rcd13ifvqco0","pricing_plan_id":"cebpf4jnsgd1na2vs0mg"},{"bike_id":"8268fd07-6778-4336-a559-dee453e69397","system_id":"levelo_inurba_marseille","lat":43.29602,"lon":5.381084,"is_reserved":false,"is_disabled":false,"rental_uris":{"android":"levelo://app?vid=8268fd07-6778-4336-a559-dee453e69397","ios":"levelo://app?vid=8268fd07-6778-4336-a559-dee453e69397"},"vehicle_type_id":"4","last_reported":1718391992,"current_range_meters":0,"station_id":"ce4bgl12rcd13ifvqbo0","pricing_plan_id":"cebpf4jnsgd1na2vs0mg"},{"bike_id":"c82758c3-5428-45ec-a46f-3e12dafaba0d","system_id":"levelo_inurba_marseille","lat":43.29601,"lon":5.381084,"is_reserved":false,"is_disabled":false,"rental_uris":{"android":"levelo://app?vid=c82758c3-5428-45ec-a46f-3e12dafaba0d","ios":"levelo://app?vid=c82758c3-5428-45ec-a46f-3e12dafaba0d"},"vehicle_type_id":"4","last_reported":1718391992,"current_range_meters":0,"station_id":"ce4bgl12rcd13ifvqbo0","pricing_plan_id":"cebpf4jnsgd1na2vs0mg"},{"bike_id":"4b7c9d90-ec26-453d-a354-03392bb700ae","system_id":"levelo_inurba_marseille","lat":43.29281,"lon":5.36853,"is_reserved":false,"is_disabled":false,"rental_uris":{"android":"levelo://app?vid=4b7c9d90-ec26-453d-a354-03392bb700ae","ios":"levelo://app?vid=4b7c9d90-ec26-453d-a354-03392bb700ae"},"vehicle_type_id":"4","last_reported":1718391992,"current_range_meters":16000,"station_id":"ce4bhbp2rcd13ifvqesg","pricing_plan_id":"cebpf4jnsgd1na2vs0mg"},{"bike_id":"29736402-6b2c-4cf0-9b83-ce2d616e825b","system_id":"levelo_inurba_marseille","lat":43.293259,"lon":5.371586,"is_reserved":false,"is_disabled":false,"rental_uris":{"android":"levelo://app?vid=29736402-6b2c-4cf0-9b83-ce2d616e825b","ios":"levelo://app?vid=29736402-6b2c-4cf0-9b83-ce2d616e825b"},"vehicle_type_id":"4","last_reported":1718391992,"current_range_meters":6000,"station_id":"ce4bgh92rcd13ifvqb40","pricing_plan_id":"cebpf4jnsgd1na2vs0mg"},{"bike_id":"c31e7b16-e4eb-4534-80cb-30e5a4e43902","system_id":"levelo_inurba_marseille","lat":43.293259,"lon":5.371586,"is_reserved":false,"is_disabled":false,"rental_uris":{"android":"levelo://app?vid=c31e7b16-e4eb-4534-80cb-30e5a4e43902","ios":"levelo://app?vid=c31e7b16-e4eb-4534-80cb-30e5a4e43902"},"vehicle_type_id":"4","last_reported":1718391992,"current_range_meters":3600,"station_id":"ce4bgh92rcd13ifvqb40","pricing_plan_id":"cebpf4jnsgd1na2vs0mg"},{"bike_id":"096a030c-5220-4368-aa35-7cf0f0db052e","system_id":"levelo_inurba_marseille","lat":43.293009,"lon":5.374584,"is_reserved":false,"is_disabled":false,"rental_uris":{"android":"levelo://app?vid=096a030c-5220-4368-aa35-7cf0f0db052e","ios":"levelo://app?vid=096a030c-5220-4368-aa35-7cf0f0db052e"},"vehicle_type_id":"4","last_reported":1718391992,"current_range_meters":31200,"station_id":"ce4bgi12rcd13ifvqb70","pricing_plan_id":"cebpf4jnsgd1na2vs0mg"},{"bike_id":"55ae9d2d-a27a-4eb1-b01b-476eb4874b40","system_id":"levelo_inurba_marseille","lat":43.293012,"lon":5.374528,"is_reserved":false,"is_disabled":false,"rental_uris":{"android":"levelo://app?vid=55ae9d2d-a27a-4eb1-b01b-476eb4874b40","ios":"levelo://app?vid=55ae9d2d-a27a-4eb1-b01b-476eb4874b40"},"vehicle_type_id":"4","last_reported":1718391992,"current_range_meters":31200,"station_id":"ce4bgi12rcd13ifvqb70","pricing_plan_id":"cebpf4jnsgd1na2vs0mg"},{"bike_id":"748880a7-5d8b-4c6c-8db6-a448a24eaf4b","system_id":"levelo_inurba_marseille","lat":43.293009,"lon":5.374584,"is_reserved":false,"is_disabled":false,"rental_uris":{"android":"levelo://app?vid=748880a7-5d8b-4c6c-8db6-a448a24eaf4b","ios":"levelo://app?vid=748880a7-5d8b-4c6c-8db6-a448a24eaf4b"},"vehicle_type_id":"4","last_reported":1718391992,"current_range_meters":25200,"station_id":"ce4bgi12rcd13ifvqb70","pricing_plan_id":"cebpf4jnsgd1na2vs0mg"},{"bike_id":"162878be-09ea-43f9-9a44-613c160d9487","system_id":"levelo_inurba_marseille","lat":43.29297,"lon":5.37466,"is_reserved":false,"is_disabled":false,"rental_uris":{"android":"levelo://app?vid=162878be-09ea-43f9-9a44-613c160d9487","ios":"levelo://app?vid=162878be-09ea-43f9-9a44-613c160d9487"},"vehicle_type_id":"4","last_reported":1718391992,"current_range_meters":31200,"station_id":"ce4bgi12rcd13ifvqb70","pricing_plan_id":"cebpf4jnsgd1na2vs0mg"},{"bike_id":"24e73b92-eb0e-4720-9a24-7c0268af1ce0","system_id":"levelo_inurba_marseille","lat":43.29294,"lon":5.37465,"is_reserved":false,"is_disabled":false,"rental_uris":{"android":"levelo://app?vid=24e73b92-eb0e-4720-9a24-7c0268af1ce0","ios":"levelo://app?vid=24e73b92-eb0e-4720-9a24-7c0268af1ce0"},"vehicle_type_id":"4","last_reported":1718391992,"current_range_meters":17600,"station_id":"ce4bgi12rcd13ifvqb70","pricing_plan_id":"cebpf4jnsgd1na2vs0mg"},{"bike_id":"b3a2fbdc-aa89-4148-90d2-55fdff00a885","system_id":"levelo_inurba_marseille","lat":43.2936,"lon":5.37835,"is_reserved":false,"is_disabled":false,"rental_uris":{"android":"levelo://app?vid=b3a2fbdc-aa89-4148-90d2-55fdff00a885","ios":"levelo://app?vid=b3a2fbdc-aa89-4148-90d2-55fdff00a885"},"vehicle_type_id":"4","last_reported":1718391992,"current_range_meters":1600,"station_id":"ce4bgjh2rcd13ifvqbf0","pricing_plan_id":"cebpf4jnsgd1na2vs0mg"},{"bike_id":"45584d98-fdec-4c3e-987f-2e3e1a6030d2","system_id":"levelo_inurba_marseille","lat":43.29265,"lon":5.37625,"is_reserved":false,"is_disabled":false,"rental_uris":{"android":"levelo://app?vid=45584d98-fdec-4c3e-987f-2e3e1a6030d2","ios":"levelo://app?vid=45584d98-fdec-4c3e-987f-2e3e1a6030d2"},"vehicle_type_id":"4","last_reported":1718391992,"current_range_meters":18400,"station_id":"","pricing_plan_id":"cebpf4jnsgd1na2vs0mg"},{"bike_id":"7473a529-5442-46f0-af9b-37c0f27927e6","system_id":"levelo_inurba_marseille","lat":43.29199,"lon":5.35792,"is_reserved":false,"is_disabled":false,"rental_uris":{"android":"levelo://app?vid=7473a529-5442-46f0-af9b-37c0f27927e6","ios":"levelo://app?vid=7473a529-5442-46f0-af9b-37c0f27927e6"},"vehicle_type_id":"4","last_reported":1718391992,"current_range_meters":0,"station_id":"ce4bhb12rcd13ifvqel0","pricing_plan_id":"cebpf4jnsgd1na2vs0mg"},{"bike_id":"30d23fa3-fce5-45b1-9ba5-5a084bc8febc","system_id":"levelo_inurba_marseille","lat":43.313291,"lon":5.396838,"is_reserved":false,"is_disabled":false,"rental_uris":{"android":"levelo://app?vid=30d23fa3-fce5-45b1-9ba5-5a084bc8febc","ios":"levelo://app?vid=30d23fa3-fce5-45b1-9ba5-5a084bc8febc"},"vehicle_type_id":"4","last_reported":1718391992,"current_range_meters":0,"station_id":"ce4bgvp2rcd13ifvqcu0","pricing_plan_id":"cebpf4jnsgd1na2vs0mg"},{"bike_id":"c28a5f72-d922-40f1-ac46-b597ad2386c5","system_id":"levelo_inurba_marseille","lat":43.313291,"lon":5.396838,"is_reserved":false,"is_disabled":false,"rental_uris":{"android":"levelo://app?vid=c28a5f72-d922-40f1-ac46-b597ad2386c5","ios":"levelo://app?vid=c28a5f72-d922-40f1-ac46-b597ad2386c5"},"vehicle_type_id":"4","last_reported":1718391992,"current_range_meters":0,"station_id":"ce4bgvp2rcd13ifvqcu0","pricing_plan_id":"cebpf4jnsgd1na2vs0mg"},{"bike_id":"855af560-813e-453b-8299-9991362b3c96","system_id":"levelo_inurba_marseille","lat":43.313291,"lon":5.396838,"is_reserved":false,"is_disabled":false,"rental_uris":{"android":"levelo://app?vid=855af560-813e-453b-8299-9991362b3c96","ios":"levelo://app?vid=855af560-813e-453b-8299-9991362b3c96"},"vehicle_type_id":"4","last_reported":1718391992,"current_range_meters":6000,"station_id":"ce4bgvp2rcd13ifvqcu0","pricing_plan_id":"cebpf4jnsgd1na2vs0mg"},{"bike_id":"ba43b138-72d6-4203-85d2-f19502e02413","system_id":"levelo_inurba_marseille","lat":43.313291,"lon":5.396838,"is_reserved":false,"is_disabled":false,"rental_uris":{"android":"levelo://app?vid=ba43b138-72d6-4203-85d2-f19502e02413","ios":"levelo://app?vid=ba43b138-72d6-4203-85d2-f19502e02413"},"vehicle_type_id":"4","last_reported":1718391992,"current_range_meters":31200,"station_id":"ce4bgvp2rcd13ifvqcu0","pricing_plan_id":"cebpf4jnsgd1na2vs0mg"},{"bike_id":"83e696d0-ceb0-45ff-8c3e-10635f72fc61","system_id":"levelo_inurba_marseille","lat":43.309038,"lon":5.396546,"is_reserved":false,"is_disabled":false,"rental_uris":{"android":"levelo://app?vid=83e696d0-ceb0-45ff-8c3e-10635f72fc61","ios":"levelo://app?vid=83e696d0-ceb0-45ff-8c3e-10635f72fc61"},"vehicle_type_id":"4","last_reported":1718391992,"current_range_meters":26000,"station_id":"ce4bh012rcd13ifvqcv0","pricing_plan_id":"cebpf4jnsgd1na2vs0mg"},{"bike_id":"49a03ddc-7442-4c9b-8905-7899e2323dfa","system_id":"levelo_inurba_marseille","lat":43.29529,"lon":5.385581,"is_reserved":false,"is_disabled":false,"rental_uris":{"android":"levelo://app?vid=49a03ddc-7442-4c9b-8905-7899e2323dfa","ios":"levelo://app?vid=49a03ddc-7442-4c9b-8905-7899e2323dfa"},"vehicle_type_id":"4","last_reported":1718391992,"current_range_meters":7600,"station_id":"ce4bgih2rcd13ifvqba0","pricing_plan_id":"cebpf4jnsgd1na2vs0mg"},{"bike_id":"7e421e47-946f-46de-a1c6-69975d84e284","system_id":"levelo_inurba_marseille","lat":43.29034,"lon":5.37555,"is_reserved":false,"is_disabled":false,"rental_uris":{"android":"levelo://app?vid=7e421e47-946f-46de-a1c6-69975d84e284","ios":"levelo://app?vid=7e421e47-946f-46de-a1c6-69975d84e284"},"vehicle_type_id":"4","last_reported":1718391992,"current_range_meters":0,"station_id":"ce4bh692rcd13ifvqe90","pricing_plan_id":"cebpf4jnsgd1na2vs0mg"},{"bike_id":"2adc3bc2-d9e1-4751-a67c-10dfce81dd0f","system_id":"levelo_inurba_marseille","lat":43.294162,"lon":5.386292,"is_reserved":false,"is_disabled":false,"rental_uris":{"android":"levelo://app?vid=2adc3bc2-d9e1-4751-a67c-10dfce81dd0f","ios":"levelo://app?vid=2adc3bc2-d9e1-4751-a67c-10dfce81dd0f"},"vehicle_type_id":"4","last_reported":1718391992,"current_range_meters":25200,"station_id":"ce4bh2h2rcd13ifvqdh0","pricing_plan_id":"cebpf4jnsgd1na2vs0mg"},{"bike_id":"5898a62e-358c-4532-8a5b-485e726fac3b","system_id":"levelo_inurba_marseille","lat":43.289184,"lon":5.366408,"is_reserved":false,"is_disabled":false,"rental_uris":{"android":"levelo://app?vid=5898a62e-358c-4532-8a5b-485e726fac3b","ios":"levelo://app?vid=5898a62e-358c-4532-8a5b-485e726fac3b"},"vehicle_type_id":"4","last_reported":1718391992,"current_range_meters":31200,"station_id":"ce4bhap2rcd13ifvqek0","pricing_plan_id":"cebpf4jnsgd1na2vs0mg"},{"bike_id":"4490c32d-c9bf-45db-b8b2-4870407bebbe","system_id":"levelo_inurba_marseille","lat":43.289184,"lon":5.366408,"is_reserved":false,"is_disabled":false,"rental_uris":{"android":"levelo://app?vid=4490c32d-c9bf-45db-b8b2-4870407bebbe","ios":"levelo://app?vid=4490c32d-c9bf-45db-b8b2-4870407bebbe"},"vehicle_type_id":"4","last_reported":1718391992,"current_range_meters":1600,"station_id":"ce4bhap2rcd13ifvqek0","pricing_plan_id":"cebpf4jnsgd1na2vs0mg"},{"bike_id":"57106f93-54bd-4b90-af98-e95df38d1cea","system_id":"levelo_inurba_marseille","lat":43.28944,"lon":5.36399,"is_reserved":false,"is_disabled":false,"rental_uris":{"android":"levelo://app?vid=57106f93-54bd-4b90-af98-e95df38d1cea","ios":"levelo://app?vid=57106f93-54bd-4b90-af98-e95df38d1cea"},"vehicle_type_id":"4","last_reported":1718391992,"current_range_meters":31200,"station_id":"ce4bhc92rcd13ifvqetg","pricing_plan_id":"cebpf4jnsgd1na2vs0mg"},{"bike_id":"a0307f45-dbea-4431-868c-e6c100e9a7f4","system_id":"levelo_inurba_marseille","lat":43.289468,"lon":5.363719,"is_reserved":false,"is_disabled":false,"rental_uris":{"android":"levelo://app?vid=a0307f45-dbea-4431-868c-e6c100e9a7f4","ios":"levelo://app?vid=a0307f45-dbea-4431-868c-e6c100e9a7f4"},"vehicle_type_id":"4","last_reported":1718391992,"current_range_meters":12400,"station_id":"ce4bhc92rcd13ifvqetg","pricing_plan_id":"cebpf4jnsgd1na2vs0mg"},{"bike_id":"d95ae7bd-fdf1-43b7-976b-72bb048cc5a1","system_id":"levelo_inurba_marseille","lat":43.289468,"lon":5.363719,"is_reserved":false,"is_disabled":false,"rental_uris":{"android":"levelo://app?vid=d95ae7bd-fdf1-43b7-976b-72bb048cc5a1","ios":"levelo://app?vid=d95ae7bd-fdf1-43b7-976b-72bb048cc5a1"},"vehicle_type_id":"4","last_reported":1718391992,"current_range_meters":29600,"station_id":"ce4bhc92rcd13ifvqetg","pricing_plan_id":"cebpf4jnsgd1na2vs0mg"},{"bike_id":"85a1c1f6-ac60-4b03-8974-a7a91e4f6f19","system_id":"levelo_inurba_marseille","lat":43.292642,"lon":5.384254,"is_reserved":false,"is_disabled":false,"rental_uris":{"android":"levelo://app?vid=85a1c1f6-ac60-4b03-8974-a7a91e4f6f19","ios":"levelo://app?vid=85a1c1f6-ac60-4b03-8974-a7a91e4f6f19"},"vehicle_type_id":"4","last_reported":1718391992,"current_range_meters":25600,"station_id":"ce4bh692rcd13ifvqea0","pricing_plan_id":"cebpf4jnsgd1na2vs0mg"},{"bike_id":"f2d184f2-228c-485f-8fa7-53720ab8c311","system_id":"levelo_inurba_marseille","lat":43.292642,"lon":5.384254,"is_reserved":false,"is_disabled":false,"rental_uris":{"android":"levelo://app?vid=f2d184f2-228c-485f-8fa7-53720ab8c311","ios":"levelo://app?vid=f2d184f2-228c-485f-8fa7-53720ab8c311"},"vehicle_type_id":"4","last_reported":1718391992,"current_range_meters":1200,"station_id":"ce4bh692rcd13ifvqea0","pricing_plan_id":"cebpf4jnsgd1na2vs0mg"},{"bike_id":"b7ada6cd-cbee-4b42-898b-319f6968d79a","system_id":"levelo_inurba_marseille","lat":43.292644,"lon":5.384257,"is_reserved":false,"is_disabled":false,"rental_uris":{"android":"levelo://app?vid=b7ada6cd-cbee-4b42-898b-319f6968d79a","ios":"levelo://app?vid=b7ada6cd-cbee-4b42-898b-319f6968d79a"},"vehicle_type_id":"4","last_reported":1718391992,"current_range_meters":23200,"station_id":"ce4bh692rcd13ifvqea0","pricing_plan_id":"cebpf4jnsgd1na2vs0mg"},{"bike_id":"4e5155cb-c592-4a0f-87de-ffdc9f21b270","system_id":"levelo_inurba_marseille","lat":43.304296,"lon":5.397513,"is_reserved":false,"is_disabled":false,"rental_uris":{"android":"levelo://app?vid=4e5155cb-c592-4a0f-87de-ffdc9f21b270","ios":"levelo://app?vid=4e5155cb-c592-4a0f-87de-ffdc9f21b270"},"vehicle_type_id":"4","last_reported":1718391992,"current_range_meters":0,"station_id":"ce4bh092rcd13ifvqd20","pricing_plan_id":"cebpf4jnsgd1na2vs0mg"},{"bike_id":"4eaf905f-6145-4f27-ba46-43738122e40a","system_id":"levelo_inurba_marseille","lat":43.32953,"lon":5.39016,"is_reserved":false,"is_disabled":false,"rental_uris":{"android":"levelo://app?vid=4eaf905f-6145-4f27-ba46-43738122e40a","ios":"levelo://app?vid=4eaf905f-6145-4f27-ba46-43738122e40a"},"vehicle_type_id":"4","last_reported":1718391992,"current_range_meters":29200,"station_id":"","pricing_plan_id":"cebpf4jnsgd1na2vs0mg"},{"bike_id":"a5fdcee3-d327-4f43-a8d7-5fffc30b736c","system_id":"levelo_inurba_marseille","lat":43.290103,"lon":5.356114,"is_reserved":false,"is_disabled":false,"rental_uris":{"android":"levelo://app?vid=a5fdcee3-d327-4f43-a8d7-5fffc30b736c","ios":"levelo://app?vid=a5fdcee3-d327-4f43-a8d7-5fffc30b736c"},"vehicle_type_id":"4","last_reported":1718391992,"current_range_meters":31200,"station_id":"ce4bhb92rcd13ifvqen0","pricing_plan_id":"cebpf4jnsgd1na2vs0mg"},{"bike_id":"09aaa020-fe26-46b9-b93a-ab4fb5be0f78","system_id":"levelo_inurba_marseille","lat":43.290104,"lon":5.356111,"is_reserved":false,"is_disabled":false,"rental_uris":{"android":"levelo://app?vid=09aaa020-fe26-46b9-b93a-ab4fb5be0f78","ios":"levelo://app?vid=09aaa020-fe26-46b9-b93a-ab4fb5be0f78"},"vehicle_type_id":"4","last_reported":1718391992,"current_range_meters":15200,"station_id":"ce4bhb92rcd13ifvqen0","pricing_plan_id":"cebpf4jnsgd1na2vs0mg"},{"bike_id":"e0e9df5b-3f1d-4fe9-bb1a-f2cac67bc043","system_id":"levelo_inurba_marseille","lat":43.290104,"lon":5.356111,"is_reserved":false,"is_disabled":false,"rental_uris":{"android":"levelo://app?vid=e0e9df5b-3f1d-4fe9-bb1a-f2cac67bc043","ios":"levelo://app?vid=e0e9df5b-3f1d-4fe9-bb1a-f2cac67bc043"},"vehicle_type_id":"4","last_reported":1718391992,"current_range_meters":20400,"station_id":"ce4bhb92rcd13ifvqen0","pricing_plan_id":"cebpf4jnsgd1na2vs0mg"},{"bike_id":"3732ac27-94a7-4d3f-9acd-89c79cee2d78","system_id":"levelo_inurba_marseille","lat":43.290995,"lon":5.381361,"is_reserved":false,"is_disabled":false,"rental_uris":{"android":"levelo://app?vid=3732ac27-94a7-4d3f-9acd-89c79cee2d78","ios":"levelo://app?vid=3732ac27-94a7-4d3f-9acd-89c79cee2d78"},"vehicle_type_id":"4","last_reported":1718391992,"current_range_meters":14400,"station_id":"ce4bh512rcd13ifvqe2g","pricing_plan_id":"cebpf4jnsgd1na2vs0mg"},{"bike_id":"4ed77616-6ab3-4c0c-bee4-335e233bc20c","system_id":"levelo_inurba_marseille","lat":43.33023,"lon":5.39038,"is_reserved":false,"is_disabled":false,"rental_uris":{"android":"levelo://app?vid=4ed77616-6ab3-4c0c-bee4-335e233bc20c","ios":"levelo://app?vid=4ed77616-6ab3-4c0c-bee4-335e233bc20c"},"vehicle_type_id":"4","last_reported":1718391992,"current_range_meters":20400,"station_id":"ce4bhr92rcd13ifvqhrg","pricing_plan_id":"cebpf4jnsgd1na2vs0mg"},{"bike_id":"98da1dfe-2356-49c0-8c5f-bdaa39e8df81","system_id":"levelo_inurba_marseille","lat":43.33025,"lon":5.39037,"is_reserved":false,"is_disabled":false,"rental_uris":{"android":"levelo://app?vid=98da1dfe-2356-49c0-8c5f-bdaa39e8df81","ios":"levelo://app?vid=98da1dfe-2356-49c0-8c5f-bdaa39e8df81"},"vehicle_type_id":"4","last_reported":1718391992,"current_range_meters":18800,"station_id":"ce4bhr92rcd13ifvqhrg","pricing_plan_id":"cebpf4jnsgd1na2vs0mg"},{"bike_id":"06a89fe9-3e6b-48a6-82a4-fa21b7d1eb5f","system_id":"levelo_inurba_marseille","lat":43.33026,"lon":5.39036,"is_reserved":false,"is_disabled":false,"rental_uris":{"android":"levelo://app?vid=06a89fe9-3e6b-48a6-82a4-fa21b7d1eb5f","ios":"levelo://app?vid=06a89fe9-3e6b-48a6-82a4-fa21b7d1eb5f"},"vehicle_type_id":"4","last_reported":1718391992,"current_range_meters":8800,"station_id":"ce4bhr92rcd13ifvqhrg","pricing_plan_id":"cebpf4jnsgd1na2vs0mg"},{"bike_id":"46980f1c-27b1-4202-ae54-34f005cdc9e9","system_id":"levelo_inurba_marseille","lat":43.330442,"lon":5.389148,"is_reserved":false,"is_disabled":false,"rental_uris":{"android":"levelo://app?vid=46980f1c-27b1-4202-ae54-34f005cdc9e9","ios":"levelo://app?vid=46980f1c-27b1-4202-ae54-34f005cdc9e9"},"vehicle_type_id":"4","last_reported":1718391992,"current_range_meters":2800,"station_id":"ce4bhr92rcd13ifvqhrg","pricing_plan_id":"cebpf4jnsgd1na2vs0mg"},{"bike_id":"d48e32ce-b081-469f-b3c7-3b1c5f8cf414","system_id":"levelo_inurba_marseille","lat":43.330442,"lon":5.389148,"is_reserved":false,"is_disabled":false,"rental_uris":{"android":"levelo://app?vid=d48e32ce-b081-469f-b3c7-3b1c5f8cf414","ios":"levelo://app?vid=d48e32ce-b081-469f-b3c7-3b1c5f8cf414"},"vehicle_type_id":"4","last_reported":1718391992,"current_range_meters":400,"station_id":"ce4bhr92rcd13ifvqhrg","pricing_plan_id":"cebpf4jnsgd1na2vs0mg"},{"bike_id":"9a709f79-795d-4469-b6a8-d9fcb4d8b955","system_id":"levelo_inurba_marseille","lat":43.33027,"lon":5.39044,"is_reserved":false,"is_disabled":false,"rental_uris":{"android":"levelo://app?vid=9a709f79-795d-4469-b6a8-d9fcb4d8b955","ios":"levelo://app?vid=9a709f79-795d-4469-b6a8-d9fcb4d8b955"},"vehicle_type_id":"4","last_reported":1718391992,"current_range_meters":13200,"station_id":"ce4bhr92rcd13ifvqhrg","pricing_plan_id":"cebpf4jnsgd1na2vs0mg"},{"bike_id":"d66a66b9-6b89-4ac3-a027-04ddf51ec1d1","system_id":"levelo_inurba_marseille","lat":43.330442,"lon":5.389148,"is_reserved":false,"is_disabled":false,"rental_uris":{"android":"levelo://app?vid=d66a66b9-6b89-4ac3-a027-04ddf51ec1d1","ios":"levelo://app?vid=d66a66b9-6b89-4ac3-a027-04ddf51ec1d1"},"vehicle_type_id":"4","last_reported":1718391992,"current_range_meters":8000,"station_id":"ce4bhr92rcd13ifvqhrg","pricing_plan_id":"cebpf4jnsgd1na2vs0mg"},{"bike_id":"2addb3bd-151a-48af-9634-6eaf9af7e696","system_id":"levelo_inurba_marseille","lat":43.28856,"lon":5.358371,"is_reserved":false,"is_disabled":false,"rental_uris":{"android":"levelo://app?vid=2addb3bd-151a-48af-9634-6eaf9af7e696","ios":"levelo://app?vid=2addb3bd-151a-48af-9634-6eaf9af7e696"},"vehicle_type_id":"4","last_reported":1718391992,"current_range_meters":400,"station_id":"ce4bhb12rcd13ifvqem0","pricing_plan_id":"cebpf4jnsgd1na2vs0mg"},{"bike_id":"2520c136-fd85-4b55-8aa5-4726ad0b06e9","system_id":"levelo_inurba_marseille","lat":43.312609,"lon":5.401662,"is_reserved":false,"is_disabled":false,"rental_uris":{"android":"levelo://app?vid=2520c136-fd85-4b55-8aa5-4726ad0b06e9","ios":"levelo://app?vid=2520c136-fd85-4b55-8aa5-4726ad0b06e9"},"vehicle_type_id":"4","last_reported":1718391992,"current_range_meters":6400,"station_id":"ce4bh092rcd13ifvqd30","pricing_plan_id":"cebpf4jnsgd1na2vs0mg"},{"bike_id":"dbdf4748-bb56-474d-b70c-54870d128ab0","system_id":"levelo_inurba_marseille","lat":43.309371,"lon":5.401449,"is_reserved":false,"is_disabled":false,"rental_uris":{"android":"levelo://app?vid=dbdf4748-bb56-474d-b70c-54870d128ab0","ios":"levelo://app?vid=dbdf4748-bb56-474d-b70c-54870d128ab0"},"vehicle_type_id":"4","last_reported":1718391992,"current_range_meters":0,"station_id":"ce4bgvp2rcd13ifvqct0","pricing_plan_id":"cebpf4jnsgd1na2vs0mg"},{"bike_id":"eded76ad-fa60-4b34-8e45-86e4c2512021","system_id":"levelo_inurba_marseille","lat":43.33748,"lon":5.37452,"is_reserved":false,"is_disabled":false,"rental_uris":{"android":"levelo://app?vid=eded76ad-fa60-4b34-8e45-86e4c2512021","ios":"levelo://app?vid=eded76ad-fa60-4b34-8e45-86e4c2512021"},"vehicle_type_id":"4","last_reported":1718391992,"current_range_meters":27200,"station_id":"ce4bhqp2rcd13ifvqhng","pricing_plan_id":"cebpf4jnsgd1na2vs0mg"},{"bike_id":"f065f39c-243c-45a1-a313-67da6e7faf7e","system_id":"levelo_inurba_marseille","lat":43.309371,"lon":5.401449,"is_reserved":false,"is_disabled":false,"rental_uris":{"android":"levelo://app?vid=f065f39c-243c-45a1-a313-67da6e7faf7e","ios":"levelo://app?vid=f065f39c-243c-45a1-a313-67da6e7faf7e"},"vehicle_type_id":"4","last_reported":1718391992,"current_range_meters":0,"station_id":"ce4bgvp2rcd13ifvqct0","pricing_plan_id":"cebpf4jnsgd1na2vs0mg"},{"bike_id":"3ab4e3ec-07f5-4c5f-8645-e3937796c552","system_id":"levelo_inurba_marseille","lat":43.337562,"lon":5.3745,"is_reserved":false,"is_disabled":false,"rental_uris":{"android":"levelo://app?vid=3ab4e3ec-07f5-4c5f-8645-e3937796c552","ios":"levelo://app?vid=3ab4e3ec-07f5-4c5f-8645-e3937796c552"},"vehicle_type_id":"4","last_reported":1718391992,"current_range_meters":13200,"station_id":"","pricing_plan_id":"cebpf4jnsgd1na2vs0mg"},{"bike_id":"3524e4ef-d297-4600-a277-f5c2e7a85327","system_id":"levelo_inurba_marseille","lat":43.337633,"lon":5.37438,"is_reserved":false,"is_disabled":false,"rental_uris":{"android":"levelo://app?vid=3524e4ef-d297-4600-a277-f5c2e7a85327","ios":"levelo://app?vid=3524e4ef-d297-4600-a277-f5c2e7a85327"},"vehicle_type_id":"4","last_reported":1718391992,"current_range_meters":30000,"station_id":"","pricing_plan_id":"cebpf4jnsgd1na2vs0mg"},{"bike_id":"4606f127-24f6-49ab-9db3-cf76bf609f2b","system_id":"levelo_inurba_marseille","lat":43.33766,"lon":5.37423,"is_reserved":false,"is_disabled":false,"rental_uris":{"android":"levelo://app?vid=4606f127-24f6-49ab-9db3-cf76bf609f2b","ios":"levelo://app?vid=4606f127-24f6-49ab-9db3-cf76bf609f2b"},"vehicle_type_id":"4","last_reported":1718391992,"current_range_meters":13200,"station_id":"","pricing_plan_id":"cebpf4jnsgd1na2vs0mg"},{"bike_id":"8ee4f4a0-4494-4b8d-92d1-11fb70526938","system_id":"levelo_inurba_marseille","lat":43.30653,"lon":5.40102,"is_reserved":false,"is_disabled":false,"rental_uris":{"android":"levelo://app?vid=8ee4f4a0-4494-4b8d-92d1-11fb70526938","ios":"levelo://app?vid=8ee4f4a0-4494-4b8d-92d1-11fb70526938"},"vehicle_type_id":"4","last_reported":1718391992,"current_range_meters":20400,"station_id":"ce4bh112rcd13ifvqda0","pricing_plan_id":"cebpf4jnsgd1na2vs0mg"},{"bike_id":"145e55a1-7f12-4b4f-83fd-31cd79ffc3fb","system_id":"levelo_inurba_marseille","lat":43.28727,"lon":5.36078,"is_reserved":false,"is_disabled":false,"rental_uris":{"android":"levelo://app?vid=145e55a1-7f12-4b4f-83fd-31cd79ffc3fb","ios":"levelo://app?vid=145e55a1-7f12-4b4f-83fd-31cd79ffc3fb"},"vehicle_type_id":"4","last_reported":1718391992,"current_range_meters":18800,"station_id":"cki0cbj6b192h4jlfktg","pricing_plan_id":"cebpf4jnsgd1na2vs0mg"},{"bike_id":"21aa8503-5881-4f5a-b381-4eb762a450db","system_id":"levelo_inurba_marseille","lat":43.28727,"lon":5.36078,"is_reserved":false,"is_disabled":false,"rental_uris":{"android":"levelo://app?vid=21aa8503-5881-4f5a-b381-4eb762a450db","ios":"levelo://app?vid=21aa8503-5881-4f5a-b381-4eb762a450db"},"vehicle_type_id":"4","last_reported":1718391992,"current_range_meters":14800,"station_id":"cki0cbj6b192h4jlfktg","pricing_plan_id":"cebpf4jnsgd1na2vs0mg"},{"bike_id":"fdc6445a-2902-40f2-b59c-75f917dcbb48","system_id":"levelo_inurba_marseille","lat":43.286961,"lon":5.373785,"is_reserved":false,"is_disabled":false,"rental_uris":{"android":"levelo://app?vid=fdc6445a-2902-40f2-b59c-75f917dcbb48","ios":"levelo://app?vid=fdc6445a-2902-40f2-b59c-75f917dcbb48"},"vehicle_type_id":"4","last_reported":1718391992,"current_range_meters":24000,"station_id":"ce4bh3p2rcd13ifvqdq0","pricing_plan_id":"cebpf4jnsgd1na2vs0mg"},{"bike_id":"3fdd2633-6340-4113-8d68-e9e6904a150d","system_id":"levelo_inurba_marseille","lat":43.298681,"lon":5.397225,"is_reserved":false,"is_disabled":false,"rental_uris":{"android":"levelo://app?vid=3fdd2633-6340-4113-8d68-e9e6904a150d","ios":"levelo://app?vid=3fdd2633-6340-4113-8d68-e9e6904a150d"},"vehicle_type_id":"4","last_reported":1718391992,"current_range_meters":26400,"station_id":"ce4bh0h2rcd13ifvqd50","pricing_plan_id":"cebpf4jnsgd1na2vs0mg"},{"bike_id":"c1df7d53-c1bd-4511-ba9c-0fd9ae3110a6","system_id":"levelo_inurba_marseille","lat":43.28709,"lon":5.3739,"is_reserved":false,"is_disabled":false,"rental_uris":{"android":"levelo://app?vid=c1df7d53-c1bd-4511-ba9c-0fd9ae3110a6","ios":"levelo://app?vid=c1df7d53-c1bd-4511-ba9c-0fd9ae3110a6"},"vehicle_type_id":"4","last_reported":1718391992,"current_range_meters":30400,"station_id":"ce4bh3p2rcd13ifvqdq0","pricing_plan_id":"cebpf4jnsgd1na2vs0mg"},{"bike_id":"5ce73e91-9070-46ec-82eb-56ad180c39e1","system_id":"levelo_inurba_marseille","lat":43.298681,"lon":5.397225,"is_reserved":false,"is_disabled":false,"rental_uris":{"android":"levelo://app?vid=5ce73e91-9070-46ec-82eb-56ad180c39e1","ios":"levelo://app?vid=5ce73e91-9070-46ec-82eb-56ad180c39e1"},"vehicle_type_id":"4","last_reported":1718391992,"current_range_meters":18000,"station_id":"ce4bh0h2rcd13ifvqd50","pricing_plan_id":"cebpf4jnsgd1na2vs0mg"},{"bike_id":"ad183ca0-fc69-440e-897c-db3a9d435c98","system_id":"levelo_inurba_marseille","lat":43.28705,"lon":5.37386,"is_reserved":false,"is_disabled":false,"rental_uris":{"android":"levelo://app?vid=ad183ca0-fc69-440e-897c-db3a9d435c98","ios":"levelo://app?vid=ad183ca0-fc69-440e-897c-db3a9d435c98"},"vehicle_type_id":"4","last_reported":1718391992,"current_range_meters":31200,"station_id":"ce4bh3p2rcd13ifvqdq0","pricing_plan_id":"cebpf4jnsgd1na2vs0mg"},{"bike_id":"a1b9a9c0-92da-45cc-99e4-eba895290749","system_id":"levelo_inurba_marseille","lat":43.28704,"lon":5.37388,"is_reserved":false,"is_disabled":false,"rental_uris":{"android":"levelo://app?vid=a1b9a9c0-92da-45cc-99e4-eba895290749","ios":"levelo://app?vid=a1b9a9c0-92da-45cc-99e4-eba895290749"},"vehicle_type_id":"4","last_reported":1718391992,"current_range_meters":30800,"station_id":"ce4bh3p2rcd13ifvqdq0","pricing_plan_id":"cebpf4jnsgd1na2vs0mg"},{"bike_id":"3cba8db3-8430-4705-a6f7-1459c5df9330","system_id":"levelo_inurba_marseille","lat":43.28703,"lon":5.37393,"is_reserved":false,"is_disabled":false,"rental_uris":{"android":"levelo://app?vid=3cba8db3-8430-4705-a6f7-1459c5df9330","ios":"levelo://app?vid=3cba8db3-8430-4705-a6f7-1459c5df9330"},"vehicle_type_id":"4","last_reported":1718391992,"current_range_meters":31200,"station_id":"ce4bh3p2rcd13ifvqdq0","pricing_plan_id":"cebpf4jnsgd1na2vs0mg"},{"bike_id":"8a93981a-5979-4165-a7da-a0da5c345924","system_id":"levelo_inurba_marseille","lat":43.28662,"lon":5.36349,"is_reserved":false,"is_disabled":false,"rental_uris":{"android":"levelo://app?vid=8a93981a-5979-4165-a7da-a0da5c345924","ios":"levelo://app?vid=8a93981a-5979-4165-a7da-a0da5c345924"},"vehicle_type_id":"4","last_reported":1718391992,"current_range_meters":0,"station_id":"ce4bhah2rcd13ifvqej0","pricing_plan_id":"cebpf4jnsgd1na2vs0mg"},{"bike_id":"8cfd70da-1e09-4453-94bd-de1a134fd087","system_id":"levelo_inurba_marseille","lat":43.286961,"lon":5.373785,"is_reserved":false,"is_disabled":false,"rental_uris":{"android":"levelo://app?vid=8cfd70da-1e09-4453-94bd-de1a134fd087","ios":"levelo://app?vid=8cfd70da-1e09-4453-94bd-de1a134fd087"},"vehicle_type_id":"4","last_reported":1718391992,"current_range_meters":6800,"station_id":"ce4bh3p2rcd13ifvqdq0","pricing_plan_id":"cebpf4jnsgd1na2vs0mg"},{"bike_id":"a2de6f28-9322-44e5-baa2-da02919431fc","system_id":"levelo_inurba_marseille","lat":43.286039,"lon":5.370679,"is_reserved":false,"is_disabled":false,"rental_uris":{"android":"levelo://app?vid=a2de6f28-9322-44e5-baa2-da02919431fc","ios":"levelo://app?vid=a2de6f28-9322-44e5-baa2-da02919431fc"},"vehicle_type_id":"4","last_reported":1718391992,"current_range_meters":10000,"station_id":"ce4bht12rcd13ifvqi60","pricing_plan_id":"cebpf4jnsgd1na2vs0mg"},{"bike_id":"997fce38-0d0d-45ee-a75f-1fe4e35f3aca","system_id":"levelo_inurba_marseille","lat":43.287184,"lon":5.37937,"is_reserved":false,"is_disabled":false,"rental_uris":{"android":"levelo://app?vid=997fce38-0d0d-45ee-a75f-1fe4e35f3aca","ios":"levelo://app?vid=997fce38-0d0d-45ee-a75f-1fe4e35f3aca"},"vehicle_type_id":"4","last_reported":1718391992,"current_range_meters":31200,"station_id":"ce4bh9p2rcd13ifvqec0","pricing_plan_id":"cebpf4jnsgd1na2vs0mg"},{"bike_id":"a5a43bdc-177b-43ba-bf1e-3577595af4f5","system_id":"levelo_inurba_marseille","lat":43.316821,"lon":5.404737,"is_reserved":false,"is_disabled":false,"rental_uris":{"android":"levelo://app?vid=a5a43bdc-177b-43ba-bf1e-3577595af4f5","ios":"levelo://app?vid=a5a43bdc-177b-43ba-bf1e-3577595af4f5"},"vehicle_type_id":"4","last_reported":1718391992,"current_range_meters":6800,"station_id":"ce4bh012rcd13ifvqd00","pricing_plan_id":"cebpf4jnsgd1na2vs0mg"},{"bike_id":"21e1e54a-92dc-4cd4-b701-8f2158335521","system_id":"levelo_inurba_marseille","lat":43.316828,"lon":5.404723,"is_reserved":false,"is_disabled":false,"rental_uris":{"android":"levelo://app?vid=21e1e54a-92dc-4cd4-b701-8f2158335521","ios":"levelo://app?vid=21e1e54a-92dc-4cd4-b701-8f2158335521"},"vehicle_type_id":"4","last_reported":1718391992,"current_range_meters":0,"station_id":"ce4bh012rcd13ifvqd00","pricing_plan_id":"cebpf4jnsgd1na2vs0mg"},{"bike_id":"e6f0d0b8-a79a-49e7-9fb2-f4812120c92b","system_id":"levelo_inurba_marseille","lat":43.28618,"lon":5.35103,"is_reserved":false,"is_disabled":false,"rental_uris":{"android":"levelo://app?vid=e6f0d0b8-a79a-49e7-9fb2-f4812120c92b","ios":"levelo://app?vid=e6f0d0b8-a79a-49e7-9fb2-f4812120c92b"},"vehicle_type_id":"4","last_reported":1718391992,"current_range_meters":17200,"station_id":"ce4bhch2rcd13ifvqeug","pricing_plan_id":"cebpf4jnsgd1na2vs0mg"},{"bike_id":"6e5ac248-8b95-4d9c-924d-c93c13840781","system_id":"levelo_inurba_marseille","lat":43.286109,"lon":5.351077,"is_reserved":false,"is_disabled":false,"rental_uris":{"android":"levelo://app?vid=6e5ac248-8b95-4d9c-924d-c93c13840781","ios":"levelo://app?vid=6e5ac248-8b95-4d9c-924d-c93c13840781"},"vehicle_type_id":"4","last_reported":1718391992,"current_range_meters":30000,"station_id":"","pricing_plan_id":"cebpf4jnsgd1na2vs0mg"},{"bike_id":"065b36a2-9e03-4593-800f-b78710f09345","system_id":"levelo_inurba_marseille","lat":43.283998,"lon":5.375062,"is_reserved":false,"is_disabled":false,"rental_uris":{"android":"levelo://app?vid=065b36a2-9e03-4593-800f-b78710f09345","ios":"levelo://app?vid=065b36a2-9e03-4593-800f-b78710f09345"},"vehicle_type_id":"4","last_reported":1718391992,"current_range_meters":27600,"station_id":"ce4bh412rcd13ifvqds0","pricing_plan_id":"cebpf4jnsgd1na2vs0mg"},{"bike_id":"db844715-3def-4163-a8e0-189fbd0cedf3","system_id":"levelo_inurba_marseille","lat":43.2842,"lon":5.37522,"is_reserved":false,"is_disabled":false,"rental_uris":{"android":"levelo://app?vid=db844715-3def-4163-a8e0-189fbd0cedf3","ios":"levelo://app?vid=db844715-3def-4163-a8e0-189fbd0cedf3"},"vehicle_type_id":"4","last_reported":1718391992,"current_range_meters":31200,"station_id":"ce4bh412rcd13ifvqds0","pricing_plan_id":"cebpf4jnsgd1na2vs0mg"},{"bike_id":"3eca11d3-3bb8-4c28-b71f-19f7e2a5619a","system_id":"levelo_inurba_marseille","lat":43.283998,"lon":5.375062,"is_reserved":false,"is_disabled":false,"rental_uris":{"android":"levelo://app?vid=3eca11d3-3bb8-4c28-b71f-19f7e2a5619a","ios":"levelo://app?vid=3eca11d3-3bb8-4c28-b71f-19f7e2a5619a"},"vehicle_type_id":"4","last_reported":1718391992,"current_range_meters":12400,"station_id":"ce4bh412rcd13ifvqds0","pricing_plan_id":"cebpf4jnsgd1na2vs0mg"},{"bike_id":"89c77e2c-9caa-4961-bab6-a277dbbeb84a","system_id":"levelo_inurba_marseille","lat":43.283998,"lon":5.375062,"is_reserved":false,"is_disabled":false,"rental_uris":{"android":"levelo://app?vid=89c77e2c-9caa-4961-bab6-a277dbbeb84a","ios":"levelo://app?vid=89c77e2c-9caa-4961-bab6-a277dbbeb84a"},"vehicle_type_id":"4","last_reported":1718391992,"current_range_meters":26000,"station_id":"ce4bh412rcd13ifvqds0","pricing_plan_id":"cebpf4jnsgd1na2vs0mg"},{"bike_id":"438f860d-f792-42e8-bab8-70b9304488ee","system_id":"levelo_inurba_marseille","lat":43.28408,"lon":5.37519,"is_reserved":false,"is_disabled":false,"rental_uris":{"android":"levelo://app?vid=438f860d-f792-42e8-bab8-70b9304488ee","ios":"levelo://app?vid=438f860d-f792-42e8-bab8-70b9304488ee"},"vehicle_type_id":"4","last_reported":1718391992,"current_range_meters":27600,"station_id":"ce4bh412rcd13ifvqds0","pricing_plan_id":"cebpf4jnsgd1na2vs0mg"},{"bike_id":"03ae9ee6-9d82-4dc0-9c23-5a4d94f42d90","system_id":"levelo_inurba_marseille","lat":43.28664,"lon":5.386693,"is_reserved":false,"is_disabled":false,"rental_uris":{"android":"levelo://app?vid=03ae9ee6-9d82-4dc0-9c23-5a4d94f42d90","ios":"levelo://app?vid=03ae9ee6-9d82-4dc0-9c23-5a4d94f42d90"},"vehicle_type_id":"4","last_reported":1718391992,"current_range_meters":0,"station_id":"ce4bh492rcd13ifvqdug","pricing_plan_id":"cebpf4jnsgd1na2vs0mg"},{"bike_id":"1c84dddc-03fa-480d-b1d7-588102e0fa9a","system_id":"levelo_inurba_marseille","lat":43.319179,"lon":5.407725,"is_reserved":false,"is_disabled":false,"rental_uris":{"android":"levelo://app?vid=1c84dddc-03fa-480d-b1d7-588102e0fa9a","ios":"levelo://app?vid=1c84dddc-03fa-480d-b1d7-588102e0fa9a"},"vehicle_type_id":"4","last_reported":1718391992,"current_range_meters":0,"station_id":"ce4bhq12rcd13ifvqhig","pricing_plan_id":"cebpf4jnsgd1na2vs0mg"},{"bike_id":"680d5a41-8105-486a-a1e2-ff67bd19d887","system_id":"levelo_inurba_marseille","lat":43.33724,"lon":5.39176,"is_reserved":false,"is_disabled":false,"rental_uris":{"android":"levelo://app?vid=680d5a41-8105-486a-a1e2-ff67bd19d887","ios":"levelo://app?vid=680d5a41-8105-486a-a1e2-ff67bd19d887"},"vehicle_type_id":"4","last_reported":1718391992,"current_range_meters":400,"station_id":"ce4bhr92rcd13ifvqhsg","pricing_plan_id":"cebpf4jnsgd1na2vs0mg"},{"bike_id":"86d9c52b-e5bf-45ec-a477-98b94665837e","system_id":"levelo_inurba_marseille","lat":43.337168,"lon":5.391825,"is_reserved":false,"is_disabled":false,"rental_uris":{"android":"levelo://app?vid=86d9c52b-e5bf-45ec-a477-98b94665837e","ios":"levelo://app?vid=86d9c52b-e5bf-45ec-a477-98b94665837e"},"vehicle_type_id":"4","last_reported":1718391992,"current_range_meters":31200,"station_id":"ce4bhr92rcd13ifvqhsg","pricing_plan_id":"cebpf4jnsgd1na2vs0mg"},{"bike_id":"7902fdc2-855b-46d5-8f4b-148985859e4b","system_id":"levelo_inurba_marseille","lat":43.3373,"lon":5.391847,"is_reserved":false,"is_disabled":false,"rental_uris":{"android":"levelo://app?vid=7902fdc2-855b-46d5-8f4b-148985859e4b","ios":"levelo://app?vid=7902fdc2-855b-46d5-8f4b-148985859e4b"},"vehicle_type_id":"4","last_reported":1718391992,"current_range_meters":2800,"station_id":"ce4bhr92rcd13ifvqhsg","pricing_plan_id":"cebpf4jnsgd1na2vs0mg"},{"bike_id":"2f95b31f-afd1-4b82-a93e-3929e6e8206d","system_id":"levelo_inurba_marseille","lat":43.288497,"lon":5.393089,"is_reserved":false,"is_disabled":false,"rental_uris":{"android":"levelo://app?vid=2f95b31f-afd1-4b82-a93e-3929e6e8206d","ios":"levelo://app?vid=2f95b31f-afd1-4b82-a93e-3929e6e8206d"},"vehicle_type_id":"4","last_reported":1718391992,"current_range_meters":27600,"station_id":"ce4bh2p2rcd13ifvqdi0","pricing_plan_id":"cebpf4jnsgd1na2vs0mg"},{"bike_id":"0d399eae-d15f-4ee0-8d95-0155a518f6da","system_id":"levelo_inurba_marseille","lat":43.28473,"lon":5.38423,"is_reserved":false,"is_disabled":false,"rental_uris":{"android":"levelo://app?vid=0d399eae-d15f-4ee0-8d95-0155a518f6da","ios":"levelo://app?vid=0d399eae-d15f-4ee0-8d95-0155a518f6da"},"vehicle_type_id":"4","last_reported":1718391992,"current_range_meters":0,"station_id":"ce4bh512rcd13ifvqe3g","pricing_plan_id":"cebpf4jnsgd1na2vs0mg"},{"bike_id":"fe245e64-8036-45b0-9693-89067d33da55","system_id":"levelo_inurba_marseille","lat":43.288497,"lon":5.393089,"is_reserved":false,"is_disabled":false,"rental_uris":{"android":"levelo://app?vid=fe245e64-8036-45b0-9693-89067d33da55","ios":"levelo://app?vid=fe245e64-8036-45b0-9693-89067d33da55"},"vehicle_type_id":"4","last_reported":1718391992,"current_range_meters":26800,"station_id":"ce4bh2p2rcd13ifvqdi0","pricing_plan_id":"cebpf4jnsgd1na2vs0mg"},{"bike_id":"2c7ebb89-b996-4601-93c5-8f54a3b9ed16","system_id":"levelo_inurba_marseille","lat":43.284787,"lon":5.384116,"is_reserved":false,"is_disabled":false,"rental_uris":{"android":"levelo://app?vid=2c7ebb89-b996-4601-93c5-8f54a3b9ed16","ios":"levelo://app?vid=2c7ebb89-b996-4601-93c5-8f54a3b9ed16"},"vehicle_type_id":"4","last_reported":1718391992,"current_range_meters":0,"station_id":"ce4bh512rcd13ifvqe3g","pricing_plan_id":"cebpf4jnsgd1na2vs0mg"},{"bike_id":"e8f6f3d4-34fd-4039-8c0d-f0cd9809aa66","system_id":"levelo_inurba_marseille","lat":43.288497,"lon":5.393089,"is_reserved":false,"is_disabled":false,"rental_uris":{"android":"levelo://app?vid=e8f6f3d4-34fd-4039-8c0d-f0cd9809aa66","ios":"levelo://app?vid=e8f6f3d4-34fd-4039-8c0d-f0cd9809aa66"},"vehicle_type_id":"4","last_reported":1718391992,"current_range_meters":22000,"station_id":"ce4bh2p2rcd13ifvqdi0","pricing_plan_id":"cebpf4jnsgd1na2vs0mg"},{"bike_id":"df660ed8-612b-427c-bafa-49b33f5f74cd","system_id":"levelo_inurba_marseille","lat":43.288501,"lon":5.393087,"is_reserved":false,"is_disabled":false,"rental_uris":{"android":"levelo://app?vid=df660ed8-612b-427c-bafa-49b33f5f74cd","ios":"levelo://app?vid=df660ed8-612b-427c-bafa-49b33f5f74cd"},"vehicle_type_id":"4","last_reported":1718391992,"current_range_meters":15600,"station_id":"ce4bh2p2rcd13ifvqdi0","pricing_plan_id":"cebpf4jnsgd1na2vs0mg"},{"bike_id":"fb08eb2a-2897-44a9-8d21-ab3a6f44be9f","system_id":"levelo_inurba_marseille","lat":43.29795,"lon":5.404086,"is_reserved":false,"is_disabled":false,"rental_uris":{"android":"levelo://app?vid=fb08eb2a-2897-44a9-8d21-ab3a6f44be9f","ios":"levelo://app?vid=fb08eb2a-2897-44a9-8d21-ab3a6f44be9f"},"vehicle_type_id":"4","last_reported":1718391992,"current_range_meters":29200,"station_id":"ce4bh112rcd13ifvqd90","pricing_plan_id":"cebpf4jnsgd1na2vs0mg"},{"bike_id":"d27c699a-a2df-459b-9e14-1ea9c6a5951a","system_id":"levelo_inurba_marseille","lat":43.288497,"lon":5.393089,"is_reserved":false,"is_disabled":false,"rental_uris":{"android":"levelo://app?vid=d27c699a-a2df-459b-9e14-1ea9c6a5951a","ios":"levelo://app?vid=d27c699a-a2df-459b-9e14-1ea9c6a5951a"},"vehicle_type_id":"4","last_reported":1718391992,"current_range_meters":0,"station_id":"ce4bh2p2rcd13ifvqdi0","pricing_plan_id":"cebpf4jnsgd1na2vs0mg"},{"bike_id":"72c62b10-b7d9-4a36-b37a-484aaf7b69e0","system_id":"levelo_inurba_marseille","lat":43.28851,"lon":5.39327,"is_reserved":false,"is_disabled":false,"rental_uris":{"android":"levelo://app?vid=72c62b10-b7d9-4a36-b37a-484aaf7b69e0","ios":"levelo://app?vid=72c62b10-b7d9-4a36-b37a-484aaf7b69e0"},"vehicle_type_id":"4","last_reported":1718391992,"current_range_meters":0,"station_id":"ce4bh2p2rcd13ifvqdi0","pricing_plan_id":"cebpf4jnsgd1na2vs0mg"},{"bike_id":"d6b71aa7-796d-414a-bc10-0a2ee9860b4f","system_id":"levelo_inurba_marseille","lat":43.284776,"lon":5.385603,"is_reserved":false,"is_disabled":false,"rental_uris":{"android":"levelo://app?vid=d6b71aa7-796d-414a-bc10-0a2ee9860b4f","ios":"levelo://app?vid=d6b71aa7-796d-414a-bc10-0a2ee9860b4f"},"vehicle_type_id":"4","last_reported":1718391992,"current_range_meters":400,"station_id":"ce4bh8p2rcd13ifvqeb0","pricing_plan_id":"cebpf4jnsgd1na2vs0mg"},{"bike_id":"2945acde-16ed-45e3-921b-bf4e4de9129e","system_id":"levelo_inurba_marseille","lat":43.283498,"lon":5.380948,"is_reserved":false,"is_disabled":false,"rental_uris":{"android":"levelo://app?vid=2945acde-16ed-45e3-921b-bf4e4de9129e","ios":"levelo://app?vid=2945acde-16ed-45e3-921b-bf4e4de9129e"},"vehicle_type_id":"4","last_reported":1718391992,"current_range_meters":18400,"station_id":"ce4bh412rcd13ifvqdr0","pricing_plan_id":"cebpf4jnsgd1na2vs0mg"},{"bike_id":"fa0ebe27-a51a-412a-9a37-9420784fa5dc","system_id":"levelo_inurba_marseille","lat":43.284217,"lon":5.349697,"is_reserved":false,"is_disabled":false,"rental_uris":{"android":"levelo://app?vid=fa0ebe27-a51a-412a-9a37-9420784fa5dc","ios":"levelo://app?vid=fa0ebe27-a51a-412a-9a37-9420784fa5dc"},"vehicle_type_id":"4","last_reported":1718391992,"current_range_meters":400,"station_id":"ce4bhbh2rcd13ifvqepg","pricing_plan_id":"cebpf4jnsgd1na2vs0mg"},{"bike_id":"ff19fb88-bf04-4c4e-9147-fc210fe38b7f","system_id":"levelo_inurba_marseille","lat":43.284217,"lon":5.349697,"is_reserved":false,"is_disabled":false,"rental_uris":{"android":"levelo://app?vid=ff19fb88-bf04-4c4e-9147-fc210fe38b7f","ios":"levelo://app?vid=ff19fb88-bf04-4c4e-9147-fc210fe38b7f"},"vehicle_type_id":"4","last_reported":1718391992,"current_range_meters":16000,"station_id":"ce4bhbh2rcd13ifvqepg","pricing_plan_id":"cebpf4jnsgd1na2vs0mg"},{"bike_id":"a6db746c-2a01-415f-9b9e-ca4e5b3c4c8a","system_id":"levelo_inurba_marseille","lat":43.284214,"lon":5.349706,"is_reserved":false,"is_disabled":false,"rental_uris":{"android":"levelo://app?vid=a6db746c-2a01-415f-9b9e-ca4e5b3c4c8a","ios":"levelo://app?vid=a6db746c-2a01-415f-9b9e-ca4e5b3c4c8a"},"vehicle_type_id":"4","last_reported":1718391992,"current_range_meters":8000,"station_id":"ce4bhbh2rcd13ifvqepg","pricing_plan_id":"cebpf4jnsgd1na2vs0mg"},{"bike_id":"f1a8cc1a-6f58-4ccf-b45b-bb754b71bbe9","system_id":"levelo_inurba_marseille","lat":43.289363,"lon":5.396322,"is_reserved":false,"is_disabled":false,"rental_uris":{"android":"levelo://app?vid=f1a8cc1a-6f58-4ccf-b45b-bb754b71bbe9","ios":"levelo://app?vid=f1a8cc1a-6f58-4ccf-b45b-bb754b71bbe9"},"vehicle_type_id":"4","last_reported":1718391992,"current_range_meters":2400,"station_id":"ce4bh3h2rcd13ifvqdn0","pricing_plan_id":"cebpf4jnsgd1na2vs0mg"},{"bike_id":"30c095d7-bf9f-4103-972f-60210f54d2ec","system_id":"levelo_inurba_marseille","lat":43.34158,"lon":5.38547,"is_reserved":false,"is_disabled":false,"rental_uris":{"android":"levelo://app?vid=30c095d7-bf9f-4103-972f-60210f54d2ec","ios":"levelo://app?vid=30c095d7-bf9f-4103-972f-60210f54d2ec"},"vehicle_type_id":"4","last_reported":1718391992,"current_range_meters":4000,"station_id":"","pricing_plan_id":"cebpf4jnsgd1na2vs0mg"},{"bike_id":"a1d952df-81be-45e1-962d-da8542805eed","system_id":"levelo_inurba_marseille","lat":43.282754,"lon":5.350519,"is_reserved":false,"is_disabled":false,"rental_uris":{"android":"levelo://app?vid=a1d952df-81be-45e1-962d-da8542805eed","ios":"levelo://app?vid=a1d952df-81be-45e1-962d-da8542805eed"},"vehicle_type_id":"4","last_reported":1718391992,"current_range_meters":3600,"station_id":"ce4bhbp2rcd13ifvqerg","pricing_plan_id":"cebpf4jnsgd1na2vs0mg"},{"bike_id":"5b56537e-0108-4012-b1a8-4ef1b3931f5e","system_id":"levelo_inurba_marseille","lat":43.28043,"lon":5.3694,"is_reserved":false,"is_disabled":false,"rental_uris":{"android":"levelo://app?vid=5b56537e-0108-4012-b1a8-4ef1b3931f5e","ios":"levelo://app?vid=5b56537e-0108-4012-b1a8-4ef1b3931f5e"},"vehicle_type_id":"4","last_reported":1718391992,"current_range_meters":0,"station_id":"ce4bha12rcd13ifvqef0","pricing_plan_id":"cebpf4jnsgd1na2vs0mg"},{"bike_id":"0c0fba20-39f7-45d0-bd2b-240c8b4a3c92","system_id":"levelo_inurba_marseille","lat":43.28039,"lon":5.369297,"is_reserved":false,"is_disabled":false,"rental_uris":{"android":"levelo://app?vid=0c0fba20-39f7-45d0-bd2b-240c8b4a3c92","ios":"levelo://app?vid=0c0fba20-39f7-45d0-bd2b-240c8b4a3c92"},"vehicle_type_id":"4","last_reported":1718391992,"current_range_meters":4000,"station_id":"ce4bha12rcd13ifvqef0","pricing_plan_id":"cebpf4jnsgd1na2vs0mg"},{"bike_id":"d37fcdd9-d843-4342-9465-b501381120e9","system_id":"levelo_inurba_marseille","lat":43.290412,"lon":5.399633,"is_reserved":false,"is_disabled":false,"rental_uris":{"android":"levelo://app?vid=d37fcdd9-d843-4342-9465-b501381120e9","ios":"levelo://app?vid=d37fcdd9-d843-4342-9465-b501381120e9"},"vehicle_type_id":"4","last_reported":1718391992,"current_range_meters":8400,"station_id":"ce4bh392rcd13ifvqdm0","pricing_plan_id":"cebpf4jnsgd1na2vs0mg"},{"bike_id":"d4de1512-faa5-4ffb-80b8-66e6ad358db7","system_id":"levelo_inurba_marseille","lat":43.29041,"lon":5.399634,"is_reserved":false,"is_disabled":false,"rental_uris":{"android":"levelo://app?vid=d4de1512-faa5-4ffb-80b8-66e6ad358db7","ios":"levelo://app?vid=d4de1512-faa5-4ffb-80b8-66e6ad358db7"},"vehicle_type_id":"4","last_reported":1718391992,"current_range_meters":11600,"station_id":"ce4bh392rcd13ifvqdm0","pricing_plan_id":"cebpf4jnsgd1na2vs0mg"},{"bike_id":"529ed754-7994-41c7-8179-230b58fb640d","system_id":"levelo_inurba_marseille","lat":43.281044,"lon":5.378308,"is_reserved":false,"is_disabled":false,"rental_uris":{"android":"levelo://app?vid=529ed754-7994-41c7-8179-230b58fb640d","ios":"levelo://app?vid=529ed754-7994-41c7-8179-230b58fb640d"},"vehicle_type_id":"4","last_reported":1718391992,"current_range_meters":0,"station_id":"ce4bha12rcd13ifvqee0","pricing_plan_id":"cebpf4jnsgd1na2vs0mg"},{"bike_id":"aec837e7-c765-4564-b7db-82d22d5d4c28","system_id":"levelo_inurba_marseille","lat":43.281044,"lon":5.378308,"is_reserved":false,"is_disabled":false,"rental_uris":{"android":"levelo://app?vid=aec837e7-c765-4564-b7db-82d22d5d4c28","ios":"levelo://app?vid=aec837e7-c765-4564-b7db-82d22d5d4c28"},"vehicle_type_id":"4","last_reported":1718391992,"current_range_meters":0,"station_id":"ce4bha12rcd13ifvqee0","pricing_plan_id":"cebpf4jnsgd1na2vs0mg"},{"bike_id":"657a3598-a41a-474f-bacd-a32954fa96ec","system_id":"levelo_inurba_marseille","lat":43.28022,"lon":5.36093,"is_reserved":false,"is_disabled":false,"rental_uris":{"android":"levelo://app?vid=657a3598-a41a-474f-bacd-a32954fa96ec","ios":"levelo://app?vid=657a3598-a41a-474f-bacd-a32954fa96ec"},"vehicle_type_id":"4","last_reported":1718391992,"current_range_meters":13200,"station_id":"","pricing_plan_id":"cebpf4jnsgd1na2vs0mg"},{"bike_id":"ff16a6ce-8158-49d0-b9c9-3d14bc1254c6","system_id":"levelo_inurba_marseille","lat":43.284462,"lon":5.392121,"is_reserved":false,"is_disabled":false,"rental_uris":{"android":"levelo://app?vid=ff16a6ce-8158-49d0-b9c9-3d14bc1254c6","ios":"levelo://app?vid=ff16a6ce-8158-49d0-b9c9-3d14bc1254c6"},"vehicle_type_id":"4","last_reported":1718391992,"current_range_meters":5600,"station_id":"ce4bhoh2rcd13ifvqh5g","pricing_plan_id":"cebpf4jnsgd1na2vs0mg"},{"bike_id":"90f0844e-7691-4849-934c-e5cf17528ca5","system_id":"levelo_inurba_marseille","lat":43.28193,"lon":5.38587,"is_reserved":false,"is_disabled":false,"rental_uris":{"android":"levelo://app?vid=90f0844e-7691-4849-934c-e5cf17528ca5","ios":"levelo://app?vid=90f0844e-7691-4849-934c-e5cf17528ca5"},"vehicle_type_id":"4","last_reported":1718391992,"current_range_meters":0,"station_id":"","pricing_plan_id":"cebpf4jnsgd1na2vs0mg"},{"bike_id":"52eadd2e-33e9-406e-82da-aa3383ab7228","system_id":"levelo_inurba_marseille","lat":43.28191,"lon":5.3859,"is_reserved":false,"is_disabled":false,"rental_uris":{"android":"levelo://app?vid=52eadd2e-33e9-406e-82da-aa3383ab7228","ios":"levelo://app?vid=52eadd2e-33e9-406e-82da-aa3383ab7228"},"vehicle_type_id":"4","last_reported":1718391992,"current_range_meters":0,"station_id":"","pricing_plan_id":"cebpf4jnsgd1na2vs0mg"},{"bike_id":"c24c5bd2-b455-4984-9108-eb2c07799ce7","system_id":"levelo_inurba_marseille","lat":43.285742,"lon":5.395004,"is_reserved":false,"is_disabled":false,"rental_uris":{"android":"levelo://app?vid=c24c5bd2-b455-4984-9108-eb2c07799ce7","ios":"levelo://app?vid=c24c5bd2-b455-4984-9108-eb2c07799ce7"},"vehicle_type_id":"4","last_reported":1718391992,"current_range_meters":20800,"station_id":"ce4bh292rcd13ifvqdg0","pricing_plan_id":"cebpf4jnsgd1na2vs0mg"},{"bike_id":"ba0f45db-6f2d-4294-924f-e6fb302df3e9","system_id":"levelo_inurba_marseille","lat":43.28573,"lon":5.394992,"is_reserved":false,"is_disabled":false,"rental_uris":{"android":"levelo://app?vid=ba0f45db-6f2d-4294-924f-e6fb302df3e9","ios":"levelo://app?vid=ba0f45db-6f2d-4294-924f-e6fb302df3e9"},"vehicle_type_id":"4","last_reported":1718391992,"current_range_meters":22800,"station_id":"ce4bh292rcd13ifvqdg0","pricing_plan_id":"cebpf4jnsgd1na2vs0mg"},{"bike_id":"c75ee517-5674-40b3-9417-b50dcd3175c2","system_id":"levelo_inurba_marseille","lat":43.326605,"lon":5.409903,"is_reserved":false,"is_disabled":false,"rental_uris":{"android":"levelo://app?vid=c75ee517-5674-40b3-9417-b50dcd3175c2","ios":"levelo://app?vid=c75ee517-5674-40b3-9417-b50dcd3175c2"},"vehicle_type_id":"4","last_reported":1718391992,"current_range_meters":14000,"station_id":"ce4bhpp2rcd13ifvqhgg","pricing_plan_id":"cebpf4jnsgd1na2vs0mg"},{"bike_id":"660670ed-7044-4396-8ae2-119b3db25328","system_id":"levelo_inurba_marseille","lat":43.326605,"lon":5.409903,"is_reserved":false,"is_disabled":false,"rental_uris":{"android":"levelo://app?vid=660670ed-7044-4396-8ae2-119b3db25328","ios":"levelo://app?vid=660670ed-7044-4396-8ae2-119b3db25328"},"vehicle_type_id":"4","last_reported":1718391992,"current_range_meters":16000,"station_id":"ce4bhpp2rcd13ifvqhgg","pricing_plan_id":"cebpf4jnsgd1na2vs0mg"},{"bike_id":"36109f3e-6c98-4586-8d15-ba7ff9f93825","system_id":"levelo_inurba_marseille","lat":43.304188,"lon":5.412904,"is_reserved":false,"is_disabled":false,"rental_uris":{"android":"levelo://app?vid=36109f3e-6c98-4586-8d15-ba7ff9f93825","ios":"levelo://app?vid=36109f3e-6c98-4586-8d15-ba7ff9f93825"},"vehicle_type_id":"4","last_reported":1718391992,"current_range_meters":2800,"station_id":"ce4bhop2rcd13ifvqh8g","pricing_plan_id":"cebpf4jnsgd1na2vs0mg"},{"bike_id":"3d266cac-6997-4a30-bfb8-2cbe277e505e","system_id":"levelo_inurba_marseille","lat":43.304188,"lon":5.412904,"is_reserved":false,"is_disabled":false,"rental_uris":{"android":"levelo://app?vid=3d266cac-6997-4a30-bfb8-2cbe277e505e","ios":"levelo://app?vid=3d266cac-6997-4a30-bfb8-2cbe277e505e"},"vehicle_type_id":"4","last_reported":1718391992,"current_range_meters":9200,"station_id":"ce4bhop2rcd13ifvqh8g","pricing_plan_id":"cebpf4jnsgd1na2vs0mg"},{"bike_id":"7a6b24b4-7b0b-4e5b-8943-9238dbdc6c6c","system_id":"levelo_inurba_marseille","lat":43.305714,"lon":5.365633,"is_reserved":false,"is_disabled":false,"rental_uris":{"android":"levelo://app?vid=7a6b24b4-7b0b-4e5b-8943-9238dbdc6c6c","ios":"levelo://app?vid=7a6b24b4-7b0b-4e5b-8943-9238dbdc6c6c"},"vehicle_type_id":"4","last_reported":1718391992,"current_range_meters":0,"station_id":"ce4bgs12rcd13ifvqcag","pricing_plan_id":"cebpf4jnsgd1na2vs0mg"},{"bike_id":"41c84a03-4217-484d-bc67-afc1effccc47","system_id":"levelo_inurba_marseille","lat":43.2871,"lon":5.39996,"is_reserved":false,"is_disabled":false,"rental_uris":{"android":"levelo://app?vid=41c84a03-4217-484d-bc67-afc1effccc47","ios":"levelo://app?vid=41c84a03-4217-484d-bc67-afc1effccc47"},"vehicle_type_id":"4","last_reported":1718391992,"current_range_meters":0,"station_id":"ce4bho92rcd13ifvqh3g","pricing_plan_id":"cebpf4jnsgd1na2vs0mg"},{"bike_id":"e2529463-cf87-48ff-bfb7-1af80d4f07c9","system_id":"levelo_inurba_marseille","lat":43.279742,"lon":5.38744,"is_reserved":false,"is_disabled":false,"rental_uris":{"android":"levelo://app?vid=e2529463-cf87-48ff-bfb7-1af80d4f07c9","ios":"levelo://app?vid=e2529463-cf87-48ff-bfb7-1af80d4f07c9"},"vehicle_type_id":"4","last_reported":1718391992,"current_range_meters":0,"station_id":"ce4bhg12rcd13ifvqf80","pricing_plan_id":"cebpf4jnsgd1na2vs0mg"},{"bike_id":"a2f95f8a-c4db-4a14-92a4-7a04a2cd5ad2","system_id":"levelo_inurba_marseille","lat":43.27959,"lon":5.38712,"is_reserved":false,"is_disabled":false,"rental_uris":{"android":"levelo://app?vid=a2f95f8a-c4db-4a14-92a4-7a04a2cd5ad2","ios":"levelo://app?vid=a2f95f8a-c4db-4a14-92a4-7a04a2cd5ad2"},"vehicle_type_id":"4","last_reported":1718391992,"current_range_meters":30800,"station_id":"ce4bhg12rcd13ifvqf80","pricing_plan_id":"cebpf4jnsgd1na2vs0mg"},{"bike_id":"bf0b1d74-dd61-4a10-af80-6bf7d4c2fa7c","system_id":"levelo_inurba_marseille","lat":43.279653,"lon":5.38732,"is_reserved":false,"is_disabled":false,"rental_uris":{"android":"levelo://app?vid=bf0b1d74-dd61-4a10-af80-6bf7d4c2fa7c","ios":"levelo://app?vid=bf0b1d74-dd61-4a10-af80-6bf7d4c2fa7c"},"vehicle_type_id":"4","last_reported":1718391992,"current_range_meters":0,"station_id":"ce4bhg12rcd13ifvqf80","pricing_plan_id":"cebpf4jnsgd1na2vs0mg"},{"bike_id":"5ae52290-f915-403a-a426-57376535892e","system_id":"levelo_inurba_marseille","lat":43.325233,"lon":5.414318,"is_reserved":false,"is_disabled":false,"rental_uris":{"android":"levelo://app?vid=5ae52290-f915-403a-a426-57376535892e","ios":"levelo://app?vid=5ae52290-f915-403a-a426-57376535892e"},"vehicle_type_id":"4","last_reported":1718391992,"current_range_meters":13200,"station_id":"ce4bhq12rcd13ifvqhhg","pricing_plan_id":"cebpf4jnsgd1na2vs0mg"},{"bike_id":"2a7f82b4-f16a-4ca6-9b26-e334b6433a8a","system_id":"levelo_inurba_marseille","lat":43.292569,"lon":5.409107,"is_reserved":false,"is_disabled":false,"rental_uris":{"android":"levelo://app?vid=2a7f82b4-f16a-4ca6-9b26-e334b6433a8a","ios":"levelo://app?vid=2a7f82b4-f16a-4ca6-9b26-e334b6433a8a"},"vehicle_type_id":"4","last_reported":1718391992,"current_range_meters":24400,"station_id":"ce4bh192rcd13ifvqdc0","pricing_plan_id":"cebpf4jnsgd1na2vs0mg"},{"bike_id":"53dc4fcb-6633-4b10-a241-f409517e99ab","system_id":"levelo_inurba_marseille","lat":43.29253,"lon":5.40912,"is_reserved":false,"is_disabled":false,"rental_uris":{"android":"levelo://app?vid=53dc4fcb-6633-4b10-a241-f409517e99ab","ios":"levelo://app?vid=53dc4fcb-6633-4b10-a241-f409517e99ab"},"vehicle_type_id":"4","last_reported":1718391992,"current_range_meters":0,"station_id":"ce4bh192rcd13ifvqdc0","pricing_plan_id":"cebpf4jnsgd1na2vs0mg"},{"bike_id":"05964765-1499-4ba9-834e-5085dfe92d01","system_id":"levelo_inurba_marseille","lat":43.325233,"lon":5.414318,"is_reserved":false,"is_disabled":false,"rental_uris":{"android":"levelo://app?vid=05964765-1499-4ba9-834e-5085dfe92d01","ios":"levelo://app?vid=05964765-1499-4ba9-834e-5085dfe92d01"},"vehicle_type_id":"4","last_reported":1718391992,"current_range_meters":14000,"station_id":"ce4bhq12rcd13ifvqhhg","pricing_plan_id":"cebpf4jnsgd1na2vs0mg"},{"bike_id":"26efb01c-25ff-43d1-9c96-6e70352ced56","system_id":"levelo_inurba_marseille","lat":43.280784,"lon":5.396622,"is_reserved":false,"is_disabled":false,"rental_uris":{"android":"levelo://app?vid=26efb01c-25ff-43d1-9c96-6e70352ced56","ios":"levelo://app?vid=26efb01c-25ff-43d1-9c96-6e70352ced56"},"vehicle_type_id":"4","last_reported":1718391992,"current_range_meters":1600,"station_id":"ce4bho12rcd13ifvqh2g","pricing_plan_id":"cebpf4jnsgd1na2vs0mg"},{"bike_id":"93cbadda-574d-4973-b07a-739a13041fbe","system_id":"levelo_inurba_marseille","lat":43.28078,"lon":5.39657,"is_reserved":false,"is_disabled":false,"rental_uris":{"android":"levelo://app?vid=93cbadda-574d-4973-b07a-739a13041fbe","ios":"levelo://app?vid=93cbadda-574d-4973-b07a-739a13041fbe"},"vehicle_type_id":"4","last_reported":1718391992,"current_range_meters":0,"station_id":"","pricing_plan_id":"cebpf4jnsgd1na2vs0mg"},{"bike_id":"1979368b-9068-4f59-b7c0-e20b23c74da1","system_id":"levelo_inurba_marseille","lat":43.280784,"lon":5.396622,"is_reserved":false,"is_disabled":false,"rental_uris":{"android":"levelo://app?vid=1979368b-9068-4f59-b7c0-e20b23c74da1","ios":"levelo://app?vid=1979368b-9068-4f59-b7c0-e20b23c74da1"},"vehicle_type_id":"4","last_reported":1718391992,"current_range_meters":28000,"station_id":"ce4bho12rcd13ifvqh2g","pricing_plan_id":"cebpf4jnsgd1na2vs0mg"},{"bike_id":"051d49c1-3008-4b57-9920-730a680bfb46","system_id":"levelo_inurba_marseille","lat":43.280784,"lon":5.396622,"is_reserved":false,"is_disabled":false,"rental_uris":{"android":"levelo://app?vid=051d49c1-3008-4b57-9920-730a680bfb46","ios":"levelo://app?vid=051d49c1-3008-4b57-9920-730a680bfb46"},"vehicle_type_id":"4","last_reported":1718391992,"current_range_meters":2000,"station_id":"ce4bho12rcd13ifvqh2g","pricing_plan_id":"cebpf4jnsgd1na2vs0mg"},