{"last_updated":1720282109,"ttl":30,"version":"2.2","data":{"bikes":[{"bike_id":"1d449053-4cfa-4d96-bddf-5b214cd35bd0","system_id":"levelo_inurba_marseille","lat":43.312239,"lon":5.368562,"is_reserved":false,"is_disabled":false,"rental_uris":{"android":"levelo://app?vid=1d449053-4cfa-4d96-bddf-5b214cd35bd0","ios":"levelo://app?vid=1d449053-4cfa-4d96-bddf-5b214cd35bd0"},"vehicle_type_id":"4","last_reported":1720282109,"current_range_meters":2000,"station_id":"ce4bgl92rcd13ifvqbq0","pricing_plan_id":"cebpf4jnsgd1na2vs0mg"},{"bike_id":"fae0034d-7c68-4e75-9b4a-31c8e8651b0a","system_id":"levelo_inurba_marseille","lat":43.312239,"lon":5.368562,"is_reserved":false,"is_disabled":false,"rental_uris":{"android":"levelo://app?vid=fae0034d-7c68-4e75-9b4a-31c8e8651b0a","ios":"levelo://app?vid=fae0034d-7c68-4e75-9b4a-31c8e8651b0a"},"vehicle_type_id":"4","last_reported":1720282109,"current_range_meters":8800,"station_id":"ce4bgl92rcd13ifvqbq0","pricing_plan_id":"cebpf4jnsgd1na2vs0mg"},{"bike_id":"2be32d8c-32ad-4b60-ae12-df6569d5dd8b","system_id":"levelo_inurba_marseille","lat":43.312239,"lon":5.368562,"is_reserved":false,"is_disabled":false,"rental_uris":{"android":"levelo://app?vid=2be32d8c-32ad-4b60-ae12-df6569d5dd8b","ios":"levelo://app?vid=2be32d8c-32ad-4b60-ae12-df6569d5dd8b"},"vehicle_type_id":"4","last_reported":1720282109,"current_range_meters":5600,"station_id":"ce4bgl92rcd13ifvqbq0","pricing_plan_id":"cebpf4jnsgd1na2vs0mg"},{"bike_id":"7ef65f24-c252-4fc7-81d5-291c929bf5f6","system_id":"levelo_inurba_marseille","lat":43.312239,"lon":5.368562,"is_reserved":false,"is_disabled":false,"rental_uris":{"android":"levelo://app?vid=7ef65f24-c252-4fc7-81d5-291c929bf5f6","ios":"levelo://app?vid=7ef65f24-c252-4fc7-81d5-291c929bf5f6"},"vehicle_type_id":"4","last_reported":1720282109,"current_range_meters":1200,"station_id":"ce4bgl92rcd13ifvqbq0","pricing_plan_id":"cebpf4jnsgd1na2vs0mg"},{"bike_id":"94250b6f-1f80-49ab-9232-17dc85b55262","system_id":"levelo_inurba_marseille","lat":43.312239,"lon":5.368562,"is_reserved":false,"is_disabled":false,"rental_uris":{"android":"levelo://app?vid=94250b6f-1f80-49ab-9232-17dc85b55262","ios":"levelo://app?vid=94250b6f-1f80-49ab-9232-17dc85b55262"},"vehicle_type_id":"4","last_reported":1720282109,"current_range_meters":10800,"station_id":"ce4bgl92rcd13ifvqbq0","pricing_plan_id":"cebpf4jnsgd1na2vs0mg"},{"bike_id":"2245166a-9441-4213-a00c-106c8bb1c552","system_id":"levelo_inurba_marseille","lat":43.309076,"lon":5.368465,"is_reserved":false,"is_disabled":false,"rental_uris":{"android":"levelo://app?vid=2245166a-9441-4213-a00c-106c8bb1c552","ios":"levelo://app?vid=2245166a-9441-4213-a00c-106c8bb1c552"},"vehicle_type_id":"4","last_reported":1720282109,"current_range_meters":17200,"station_id":"ce4bgn92rcd13ifvqbvg","pricing_plan_id":"cebpf4jnsgd1na2vs0mg"},{"bike_id":"9884fd5f-2b02-4836-9800-da5d93572111","system_id":"levelo_inurba_marseille","lat":43.309076,"lon":5.368465,"is_reserved":false,"is_disabled":false,"rental_uris":{"android":"levelo://app?vid=9884fd5f-2b02-4836-9800-da5d93572111","ios":"levelo://app?vid=9884fd5f-2b02-4836-9800-da5d93572111"},"vehicle_type_id":"4","last_reported":1720282109,"current_range_meters":2400,"station_id":"ce4bgn92rcd13ifvqbvg","pricing_plan_id":"cebpf4jnsgd1na2vs0mg"},{"bike_id":"da5a7bf8-0c8d-4fe3-91a1-96b4ac1f587d","system_id":"levelo_inurba_marseille","lat":43.309076,"lon":5.368465,"is_reserved":false,"is_disabled":false,"rental_uris":{"android":"levelo://app?vid=da5a7bf8-0c8d-4fe3-91a1-96b4ac1f587d","ios":"levelo://app?vid=da5a7bf8-0c8d-4fe3-91a1-96b4ac1f587d"},"vehicle_type_id":"4","last_reported":1720282109,"current_range_meters":0,"station_id":"ce4bgn92rcd13ifvqbvg","pricing_plan_id":"cebpf4jnsgd1na2vs0mg"},{"bike_id":"5c5687df-90fe-4885-93ab-61fb5882263f","system_id":"levelo_inurba_marseille","lat":43.314811,"lon":5.373103,"is_reserved":false,"is_disabled":false,"rental_uris":{"android":"levelo://app?vid=5c5687df-90fe-4885-93ab-61fb5882263f","ios":"levelo://app?vid=5c5687df-90fe-4885-93ab-61fb5882263f"},"vehicle_type_id":"4","last_reported":1720282109,"current_range_meters":0,"station_id":"ce4bgt12rcd13ifvqcd0","pricing_plan_id":"cebpf4jnsgd1na2vs0mg"},{"bike_id":"d49bbfae-b770-4339-85c1-561b7ab20c64","system_id":"levelo_inurba_marseille","lat":43.314811,"lon":5.373104,"is_reserved":false,"is_disabled":false,"rental_uris":{"android":"levelo://app?vid=d49bbfae-b770-4339-85c1-561b7ab20c64","ios":"levelo://app?vid=d49bbfae-b770-4339-85c1-561b7ab20c64"},"vehicle_type_id":"4","last_reported":1720282109,"current_range_meters":0,"station_id":"ce4bgt12rcd13ifvqcd0","pricing_plan_id":"cebpf4jnsgd1na2vs0mg"},{"bike_id":"d3462f0b-9982-4fe7-a790-ae2222f45e14","system_id":"levelo_inurba_marseille","lat":43.309039,"lon":5.371797,"is_reserved":false,"is_disabled":false,"rental_uris":{"android":"levelo://app?vid=d3462f0b-9982-4fe7-a790-ae2222f45e14","ios":"levelo://app?vid=d3462f0b-9982-4fe7-a790-ae2222f45e14"},"vehicle_type_id":"4","last_reported":1720282109,"current_range_meters":2000,"station_id":"ce4bguh2rcd13ifvqckg","pricing_plan_id":"cebpf4jnsgd1na2vs0mg"},{"bike_id":"e4653f7b-43fe-4e70-89a3-4df59b69d008","system_id":"levelo_inurba_marseille","lat":43.31528,"lon":5.37313,"is_reserved":false,"is_disabled":false,"rental_uris":{"android":"levelo://app?vid=e4653f7b-43fe-4e70-89a3-4df59b69d008","ios":"levelo://app?vid=e4653f7b-43fe-4e70-89a3-4df59b69d008"},"vehicle_type_id":"4","last_reported":1720282109,"current_range_meters":0,"station_id":"","pricing_plan_id":"cebpf4jnsgd1na2vs0mg"},{"bike_id":"41cdcdd6-ded1-4424-b142-2da7b544bf9d","system_id":"levelo_inurba_marseille","lat":43.31783,"lon":5.36945,"is_reserved":false,"is_disabled":false,"rental_uris":{"android":"levelo://app?vid=41cdcdd6-ded1-4424-b142-2da7b544bf9d","ios":"levelo://app?vid=41cdcdd6-ded1-4424-b142-2da7b544bf9d"},"vehicle_type_id":"4","last_reported":1720282109,"current_range_meters":5200,"station_id":"","pricing_plan_id":"cebpf4jnsgd1na2vs0mg"},{"bike_id":"5bacee6e-0651-445f-bad0-4485bbc1cc34","system_id":"levelo_inurba_marseille","lat":43.31339,"lon":5.37554,"is_reserved":false,"is_disabled":false,"rental_uris":{"android":"levelo://app?vid=5bacee6e-0651-445f-bad0-4485bbc1cc34","ios":"levelo://app?vid=5bacee6e-0651-445f-bad0-4485bbc1cc34"},"vehicle_type_id":"4","last_reported":1720282109,"current_range_meters":16000,"station_id":"","pricing_plan_id":"cebpf4jnsgd1na2vs0mg"},{"bike_id":"46241fe8-0f68-4d2f-9865-7663dfca0689","system_id":"levelo_inurba_marseille","lat":43.30573,"lon":5.36771,"is_reserved":false,"is_disabled":false,"rental_uris":{"android":"levelo://app?vid=46241fe8-0f68-4d2f-9865-7663dfca0689","ios":"levelo://app?vid=46241fe8-0f68-4d2f-9865-7663dfca0689"},"vehicle_type_id":"4","last_reported":1720282109,"current_range_meters":26000,"station_id":"","pricing_plan_id":"cebpf4jnsgd1na2vs0mg"},{"bike_id":"dcdb3132-06f6-4676-80b5-792d8fb5318c","system_id":"levelo_inurba_marseille","lat":43.305712,"lon":5.365641,"is_reserved":false,"is_disabled":false,"rental_uris":{"android":"levelo://app?vid=dcdb3132-06f6-4676-80b5-792d8fb5318c","ios":"levelo://app?vid=dcdb3132-06f6-4676-80b5-792d8fb5318c"},"vehicle_type_id":"4","last_reported":1720282109,"current_range_meters":0,"station_id":"ce4bgs12rcd13ifvqcag","pricing_plan_id":"cebpf4jnsgd1na2vs0mg"},{"bike_id":"17ca1ad2-1bd8-4234-91a3-d82415198241","system_id":"levelo_inurba_marseille","lat":43.305714,"lon":5.365633,"is_reserved":false,"is_disabled":false,"rental_uris":{"android":"levelo://app?vid=17ca1ad2-1bd8-4234-91a3-d82415198241","ios":"levelo://app?vid=17ca1ad2-1bd8-4234-91a3-d82415198241"},"vehicle_type_id":"4","last_reported":1720282109,"current_range_meters":6800,"station_id":"ce4bgs12rcd13ifvqcag","pricing_plan_id":"cebpf4jnsgd1na2vs0mg"},{"bike_id":"434e4227-bf87-4f5e-b343-0c4f37af931c","system_id":"levelo_inurba_marseille","lat":43.305214,"lon":5.365948,"is_reserved":false,"is_disabled":false,"rental_uris":{"android":"levelo://app?vid=434e4227-bf87-4f5e-b343-0c4f37af931c","ios":"levelo://app?vid=434e4227-bf87-4f5e-b343-0c4f37af931c"},"vehicle_type_id":"4","last_reported":1720282109,"current_range_meters":4400,"station_id":"ce4bgr92rcd13ifvqc7g","pricing_plan_id":"cebpf4jnsgd1na2vs0mg"},{"bike_id":"1f0bf8c0-9903-49a9-aa08-e05f0781aff4","system_id":"levelo_inurba_marseille","lat":43.305989,"lon":5.37225,"is_reserved":false,"is_disabled":false,"rental_uris":{"android":"levelo://app?vid=1f0bf8c0-9903-49a9-aa08-e05f0781aff4","ios":"levelo://app?vid=1f0bf8c0-9903-49a9-aa08-e05f0781aff4"},"vehicle_type_id":"4","last_reported":1720282109,"current_range_meters":28400,"station_id":"ce4bgqh2rcd13ifvqc4g","pricing_plan_id":"cebpf4jnsgd1na2vs0mg"},{"bike_id":"df1b791b-76b5-4241-84ca-981f0762f66c","system_id":"levelo_inurba_marseille","lat":43.311131,"lon":5.377651,"is_reserved":false,"is_disabled":false,"rental_uris":{"android":"levelo://app?vid=df1b791b-76b5-4241-84ca-981f0762f66c","ios":"levelo://app?vid=df1b791b-76b5-4241-84ca-981f0762f66c"},"vehicle_type_id":"4","last_reported":1720282109,"current_range_meters":20800,"station_id":"ce4bgt92rcd13ifvqcg0","pricing_plan_id":"cebpf4jnsgd1na2vs0mg"},{"bike_id":"dbde5257-261d-4680-8361-e48ecdad95d5","system_id":"levelo_inurba_marseille","lat":43.307945,"lon":5.376487,"is_reserved":false,"is_disabled":false,"rental_uris":{"android":"levelo://app?vid=dbde5257-261d-4680-8361-e48ecdad95d5","ios":"levelo://app?vid=dbde5257-261d-4680-8361-e48ecdad95d5"},"vehicle_type_id":"4","last_reported":1720282109,"current_range_meters":29600,"station_id":"ce4bgv92rcd13ifvqcq0","pricing_plan_id":"cebpf4jnsgd1na2vs0mg"},{"bike_id":"5e68900c-9c53-49d8-ac99-05b33c8d9514","system_id":"levelo_inurba_marseille","lat":43.307945,"lon":5.376487,"is_reserved":false,"is_disabled":false,"rental_uris":{"android":"levelo://app?vid=5e68900c-9c53-49d8-ac99-05b33c8d9514","ios":"levelo://app?vid=5e68900c-9c53-49d8-ac99-05b33c8d9514"},"vehicle_type_id":"4","last_reported":1720282109,"current_range_meters":0,"station_id":"ce4bgv92rcd13ifvqcq0","pricing_plan_id":"cebpf4jnsgd1na2vs0mg"},{"bike_id":"454ef15a-8992-4165-bd34-8cc5fb9f5007","system_id":"levelo_inurba_marseille","lat":43.32114,"lon":5.3746,"is_reserved":false,"is_disabled":false,"rental_uris":{"android":"levelo://app?vid=454ef15a-8992-4165-bd34-8cc5fb9f5007","ios":"levelo://app?vid=454ef15a-8992-4165-bd34-8cc5fb9f5007"},"vehicle_type_id":"4","last_reported":1720282109,"current_range_meters":400,"station_id":"","pricing_plan_id":"cebpf4jnsgd1na2vs0mg"},{"bike_id":"88cce34f-d066-4e8e-b81b-10b7617c12ab","system_id":"levelo_inurba_marseille","lat":43.315289,"lon":5.380349,"is_reserved":false,"is_disabled":false,"rental_uris":{"android":"levelo://app?vid=88cce34f-d066-4e8e-b81b-10b7617c12ab","ios":"levelo://app?vid=88cce34f-d066-4e8e-b81b-10b7617c12ab"},"vehicle_type_id":"4","last_reported":1720282109,"current_range_meters":14800,"station_id":"ce4bhsp2rcd13ifvqi50","pricing_plan_id":"cebpf4jnsgd1na2vs0mg"},{"bike_id":"bccdadf8-b4a5-48e5-b196-d2103f8f64c6","system_id":"levelo_inurba_marseille","lat":43.315289,"lon":5.380349,"is_reserved":false,"is_disabled":false,"rental_uris":{"android":"levelo://app?vid=bccdadf8-b4a5-48e5-b196-d2103f8f64c6","ios":"levelo://app?vid=bccdadf8-b4a5-48e5-b196-d2103f8f64c6"},"vehicle_type_id":"4","last_reported":1720282109,"current_range_meters":800,"station_id":"ce4bhsp2rcd13ifvqi50","pricing_plan_id":"cebpf4jnsgd1na2vs0mg"},{"bike_id":"de7f94a0-f3a6-4702-b950-2ed30e4e8005","system_id":"levelo_inurba_marseille","lat":43.31599,"lon":5.38238,"is_reserved":false,"is_disabled":false,"rental_uris":{"android":"levelo://app?vid=de7f94a0-f3a6-4702-b950-2ed30e4e8005","ios":"levelo://app?vid=de7f94a0-f3a6-4702-b950-2ed30e4e8005"},"vehicle_type_id":"4","last_reported":1720282109,"current_range_meters":16400,"station_id":"","pricing_plan_id":"cebpf4jnsgd1na2vs0mg"},{"bike_id":"ad8c02c3-b43c-4efb-8ba1-4ac0faed2346","system_id":"levelo_inurba_marseille","lat":43.301047,"lon":5.36876,"is_reserved":false,"is_disabled":false,"rental_uris":{"android":"levelo://app?vid=ad8c02c3-b43c-4efb-8ba1-4ac0faed2346","ios":"levelo://app?vid=ad8c02c3-b43c-4efb-8ba1-4ac0faed2346"},"vehicle_type_id":"4","last_reported":1720282109,"current_range_meters":17600,"station_id":"","pricing_plan_id":"cebpf4jnsgd1na2vs0mg"},{"bike_id":"a2a6e874-593c-4da0-b431-b487fea4ad8a","system_id":"levelo_inurba_marseille","lat":43.304606,"lon":5.379026,"is_reserved":false,"is_disabled":false,"rental_uris":{"android":"levelo://app?vid=a2a6e874-593c-4da0-b431-b487fea4ad8a","ios":"levelo://app?vid=a2a6e874-593c-4da0-b431-b487fea4ad8a"},"vehicle_type_id":"4","last_reported":1720282109,"current_range_meters":24000,"station_id":"ce4bgup2rcd13ifvqcn0","pricing_plan_id":"cebpf4jnsgd1na2vs0mg"},{"bike_id":"b120abe7-4965-41c5-8d4a-d52b32577c8e","system_id":"levelo_inurba_marseille","lat":43.32476,"lon":5.36565,"is_reserved":false,"is_disabled":false,"rental_uris":{"android":"levelo://app?vid=b120abe7-4965-41c5-8d4a-d52b32577c8e","ios":"levelo://app?vid=b120abe7-4965-41c5-8d4a-d52b32577c8e"},"vehicle_type_id":"4","last_reported":1720282109,"current_range_meters":2400,"station_id":"ce4bhs12rcd13ifvqhvg","pricing_plan_id":"cebpf4jnsgd1na2vs0mg"},{"bike_id":"c7e88cb3-4c8a-409b-91ec-0892a4d1cc49","system_id":"levelo_inurba_marseille","lat":43.304606,"lon":5.379026,"is_reserved":false,"is_disabled":false,"rental_uris":{"android":"levelo://app?vid=c7e88cb3-4c8a-409b-91ec-0892a4d1cc49","ios":"levelo://app?vid=c7e88cb3-4c8a-409b-91ec-0892a4d1cc49"},"vehicle_type_id":"4","last_reported":1720282109,"current_range_meters":3200,"station_id":"ce4bgup2rcd13ifvqcn0","pricing_plan_id":"cebpf4jnsgd1na2vs0mg"},{"bike_id":"d60f543b-e032-4442-b9dc-64247d514b5c","system_id":"levelo_inurba_marseille","lat":43.324786,"lon":5.36586,"is_reserved":false,"is_disabled":false,"rental_uris":{"android":"levelo://app?vid=d60f543b-e032-4442-b9dc-64247d514b5c","ios":"levelo://app?vid=d60f543b-e032-4442-b9dc-64247d514b5c"},"vehicle_type_id":"4","last_reported":1720282109,"current_range_meters":29600,"station_id":"ce4bhs12rcd13ifvqhvg","pricing_plan_id":"cebpf4jnsgd1na2vs0mg"},{"bike_id":"3fa2e9ff-36fb-4df9-9f34-bd2f5e6f4d9e","system_id":"levelo_inurba_marseille","lat":43.324803,"lon":5.365761,"is_reserved":false,"is_disabled":false,"rental_uris":{"android":"levelo://app?vid=3fa2e9ff-36fb-4df9-9f34-bd2f5e6f4d9e","ios":"levelo://app?vid=3fa2e9ff-36fb-4df9-9f34-bd2f5e6f4d9e"},"vehicle_type_id":"4","last_reported":1720282109,"current_range_meters":31200,"station_id":"ce4bhs12rcd13ifvqhvg","pricing_plan_id":"cebpf4jnsgd1na2vs0mg"},{"bike_id":"63b4ad46-7635-4c2e-94de-b6ea37dc8e0a","system_id":"levelo_inurba_marseille","lat":43.324771,"lon":5.36557,"is_reserved":false,"is_disabled":false,"rental_uris":{"android":"levelo://app?vid=63b4ad46-7635-4c2e-94de-b6ea37dc8e0a","ios":"levelo://app?vid=63b4ad46-7635-4c2e-94de-b6ea37dc8e0a"},"vehicle_type_id":"4","last_reported":1720282109,"current_range_meters":5200,"station_id":"ce4bhs12rcd13ifvqhvg","pricing_plan_id":"cebpf4jnsgd1na2vs0mg"},{"bike_id":"b86d7aff-5727-4bb8-9e37-42c6bc55da10","system_id":"levelo_inurba_marseille","lat":43.324771,"lon":5.36557,"is_reserved":false,"is_disabled":false,"rental_uris":{"android":"levelo://app?vid=b86d7aff-5727-4bb8-9e37-42c6bc55da10","ios":"levelo://app?vid=b86d7aff-5727-4bb8-9e37-42c6bc55da10"},"vehicle_type_id":"4","last_reported":1720282109,"current_range_meters":30400,"station_id":"ce4bhs12rcd13ifvqhvg","pricing_plan_id":"cebpf4jnsgd1na2vs0mg"},{"bike_id":"7d0f4c79-df69-4aca-a08f-cfce6d8e762a","system_id":"levelo_inurba_marseille","lat":43.324771,"lon":5.36557,"is_reserved":false,"is_disabled":false,"rental_uris":{"android":"levelo://app?vid=7d0f4c79-df69-4aca-a08f-cfce6d8e762a","ios":"levelo://app?vid=7d0f4c79-df69-4aca-a08f-cfce6d8e762a"},"vehicle_type_id":"4","last_reported":1720282109,"current_range_meters":30800,"station_id":"ce4bhs12rcd13ifvqhvg","pricing_plan_id":"cebpf4jnsgd1na2vs0mg"},{"bike_id":"1a1a53b0-5c19-4462-bcab-42c370616628","system_id":"levelo_inurba_marseille","lat":43.310804,"lon":5.38359,"is_reserved":false,"is_disabled":false,"rental_uris":{"android":"levelo://app?vid=1a1a53b0-5c19-4462-bcab-42c370616628","ios":"levelo://app?vid=1a1a53b0-5c19-4462-bcab-42c370616628"},"vehicle_type_id":"4","last_reported":1720282109,"current_range_meters":0,"station_id":"ce4bgv92rcd13ifvqcr0","pricing_plan_id":"cebpf4jnsgd1na2vs0mg"},{"bike_id":"71bea1da-d5ad-49d2-b690-5936aa49a6e1","system_id":"levelo_inurba_marseille","lat":43.30285,"lon":5.37698,"is_reserved":false,"is_disabled":false,"rental_uris":{"android":"levelo://app?vid=71bea1da-d5ad-49d2-b690-5936aa49a6e1","ios":"levelo://app?vid=71bea1da-d5ad-49d2-b690-5936aa49a6e1"},"vehicle_type_id":"4","last_reported":1720282109,"current_range_meters":16800,"station_id":"ce4bguh2rcd13ifvqcj0","pricing_plan_id":"cebpf4jnsgd1na2vs0mg"},{"bike_id":"d943525b-06ac-4583-bea8-c1de38aca777","system_id":"levelo_inurba_marseille","lat":43.300728,"lon":5.371018,"is_reserved":false,"is_disabled":false,"rental_uris":{"android":"levelo://app?vid=d943525b-06ac-4583-bea8-c1de38aca777","ios":"levelo://app?vid=d943525b-06ac-4583-bea8-c1de38aca777"},"vehicle_type_id":"4","last_reported":1720282109,"current_range_meters":10000,"station_id":"","pricing_plan_id":"cebpf4jnsgd1na2vs0mg"},{"bike_id":"bb8c63d9-0feb-4568-a93b-31cb4c57d681","system_id":"levelo_inurba_marseille","lat":43.302784,"lon":5.377158,"is_reserved":false,"is_disabled":false,"rental_uris":{"android":"levelo://app?vid=bb8c63d9-0feb-4568-a93b-31cb4c57d681","ios":"levelo://app?vid=bb8c63d9-0feb-4568-a93b-31cb4c57d681"},"vehicle_type_id":"4","last_reported":1720282109,"current_range_meters":0,"station_id":"ce4bguh2rcd13ifvqcj0","pricing_plan_id":"cebpf4jnsgd1na2vs0mg"},{"bike_id":"b42ba4ea-1156-4d33-b885-d4b2c585400a","system_id":"levelo_inurba_marseille","lat":43.30031,"lon":5.36553,"is_reserved":false,"is_disabled":false,"rental_uris":{"android":"levelo://app?vid=b42ba4ea-1156-4d33-b885-d4b2c585400a","ios":"levelo://app?vid=b42ba4ea-1156-4d33-b885-d4b2c585400a"},"vehicle_type_id":"4","last_reported":1720282109,"current_range_meters":1600,"station_id":"","pricing_plan_id":"cebpf4jnsgd1na2vs0mg"},{"bike_id":"e4d78451-8b82-4f51-a639-dbf977284379","system_id":"levelo_inurba_marseille","lat":43.302784,"lon":5.377158,"is_reserved":false,"is_disabled":false,"rental_uris":{"android":"levelo://app?vid=e4d78451-8b82-4f51-a639-dbf977284379","ios":"levelo://app?vid=e4d78451-8b82-4f51-a639-dbf977284379"},"vehicle_type_id":"4","last_reported":1720282109,"current_range_meters":0,"station_id":"ce4bguh2rcd13ifvqcj0","pricing_plan_id":"cebpf4jnsgd1na2vs0mg"},{"bike_id":"9cfac786-ea18-4eb6-9dcd-e54b9580a913","system_id":"levelo_inurba_marseille","lat":43.300213,"lon":5.365619,"is_reserved":false,"is_disabled":false,"rental_uris":{"android":"levelo://app?vid=9cfac786-ea18-4eb6-9dcd-e54b9580a913","ios":"levelo://app?vid=9cfac786-ea18-4eb6-9dcd-e54b9580a913"},"vehicle_type_id":"4","last_reported":1720282109,"current_range_meters":1200,"station_id":"","pricing_plan_id":"cebpf4jnsgd1na2vs0mg"},{"bike_id":"aaabf849-82c6-407b-86ed-3c3dfff2144b","system_id":"levelo_inurba_marseille","lat":43.319935,"lon":5.381699,"is_reserved":false,"is_disabled":false,"rental_uris":{"android":"levelo://app?vid=aaabf849-82c6-407b-86ed-3c3dfff2144b","ios":"levelo://app?vid=aaabf849-82c6-407b-86ed-3c3dfff2144b"},"vehicle_type_id":"4","last_reported":1720282109,"current_range_meters":16400,"station_id":"ce4bhr12rcd13ifvqhpg","pricing_plan_id":"cebpf4jnsgd1na2vs0mg"},{"bike_id":"e85d15be-ffc5-4920-883a-3f82c00714b3","system_id":"levelo_inurba_marseille","lat":43.30344,"lon":5.37931,"is_reserved":false,"is_disabled":false,"rental_uris":{"android":"levelo://app?vid=e85d15be-ffc5-4920-883a-3f82c00714b3","ios":"levelo://app?vid=e85d15be-ffc5-4920-883a-3f82c00714b3"},"vehicle_type_id":"4","last_reported":1720282109,"current_range_meters":11600,"station_id":"","pricing_plan_id":"cebpf4jnsgd1na2vs0mg"},{"bike_id":"50d47e72-a55a-4319-a88f-8c7c01d1c94c","system_id":"levelo_inurba_marseille","lat":43.292644,"lon":5.384257,"is_reserved":false,"is_disabled":false,"rental_uris":{"android":"levelo://app?vid=50d47e72-a55a-4319-a88f-8c7c01d1c94c","ios":"levelo://app?vid=50d47e72-a55a-4319-a88f-8c7c01d1c94c"},"vehicle_type_id":"4","last_reported":1720282109,"current_range_meters":8400,"station_id":"ce4bh692rcd13ifvqea0","pricing_plan_id":"cebpf4jnsgd1na2vs0mg"},{"bike_id":"382045e6-1bc0-4798-9782-a9e396c6f66b","system_id":"levelo_inurba_marseille","lat":43.299222,"lon":5.365554,"is_reserved":false,"is_disabled":false,"rental_uris":{"android":"levelo://app?vid=382045e6-1bc0-4798-9782-a9e396c6f66b","ios":"levelo://app?vid=382045e6-1bc0-4798-9782-a9e396c6f66b"},"vehicle_type_id":"4","last_reported":1720282109,"current_range_meters":0,"station_id":"ce4bgm92rcd13ifvqbr0","pricing_plan_id":"cebpf4jnsgd1na2vs0mg"},{"bike_id":"dedaf2d0-6508-4aa6-9c51-fbed89ab6e68","system_id":"levelo_inurba_marseille","lat":43.313571,"lon":5.384829,"is_reserved":false,"is_disabled":false,"rental_uris":{"android":"levelo://app?vid=dedaf2d0-6508-4aa6-9c51-fbed89ab6e68","ios":"levelo://app?vid=dedaf2d0-6508-4aa6-9c51-fbed89ab6e68"},"vehicle_type_id":"4","last_reported":1720282109,"current_range_meters":19600,"station_id":"ce4bgt92rcd13ifvqcf0","pricing_plan_id":"cebpf4jnsgd1na2vs0mg"},{"bike_id":"ccf908a8-fee5-4750-a85e-9abe5c52db9a","system_id":"levelo_inurba_marseille","lat":43.298433,"lon":5.362774,"is_reserved":false,"is_disabled":false,"rental_uris":{"android":"levelo://app?vid=ccf908a8-fee5-4750-a85e-9abe5c52db9a","ios":"levelo://app?vid=ccf908a8-fee5-4750-a85e-9abe5c52db9a"},"vehicle_type_id":"4","last_reported":1720282109,"current_range_meters":2000,"station_id":"ce4bgpp2rcd13ifvqc3g","pricing_plan_id":"cebpf4jnsgd1na2vs0mg"},{"bike_id":"d7e5e8d8-98be-40f0-b4a3-294946f6f11b","system_id":"levelo_inurba_marseille","lat":43.311722,"lon":5.387247,"is_reserved":false,"is_disabled":false,"rental_uris":{"android":"levelo://app?vid=d7e5e8d8-98be-40f0-b4a3-294946f6f11b","ios":"levelo://app?vid=d7e5e8d8-98be-40f0-b4a3-294946f6f11b"},"vehicle_type_id":"4","last_reported":1720282109,"current_range_meters":17600,"station_id":"ce4bgv12rcd13ifvqcp0","pricing_plan_id":"cebpf4jnsgd1na2vs0mg"},{"bike_id":"fc61b835-51c9-4ea3-a943-cad07f427fb1","system_id":"levelo_inurba_marseille","lat":43.310357,"lon":5.387125,"is_reserved":false,"is_disabled":false,"rental_uris":{"android":"levelo://app?vid=fc61b835-51c9-4ea3-a943-cad07f427fb1","ios":"levelo://app?vid=fc61b835-51c9-4ea3-a943-cad07f427fb1"},"vehicle_type_id":"4","last_reported":1720282109,"current_range_meters":800,"station_id":"","pricing_plan_id":"cebpf4jnsgd1na2vs0mg"},{"bike_id":"ae90d876-1c67-48b2-9006-a16cc83065aa","system_id":"levelo_inurba_marseille","lat":43.322872,"lon":5.382756,"is_reserved":false,"is_disabled":false,"rental_uris":{"android":"levelo://app?vid=ae90d876-1c67-48b2-9006-a16cc83065aa","ios":"levelo://app?vid=ae90d876-1c67-48b2-9006-a16cc83065aa"},"vehicle_type_id":"4","last_reported":1720282109,"current_range_meters":20800,"station_id":"ce4bhr12rcd13ifvqhqg","pricing_plan_id":"cebpf4jnsgd1na2vs0mg"},{"bike_id":"75dfb51c-301c-431e-a8f6-a8fdcac31a1f","system_id":"levelo_inurba_marseille","lat":43.322872,"lon":5.382756,"is_reserved":false,"is_disabled":false,"rental_uris":{"android":"levelo://app?vid=75dfb51c-301c-431e-a8f6-a8fdcac31a1f","ios":"levelo://app?vid=75dfb51c-301c-431e-a8f6-a8fdcac31a1f"},"vehicle_type_id":"4","last_reported":1720282109,"current_range_meters":19600,"station_id":"ce4bhr12rcd13ifvqhqg","pricing_plan_id":"cebpf4jnsgd1na2vs0mg"},{"bike_id":"9f3c7205-c2c4-4fee-a167-8654aeaf9b53","system_id":"levelo_inurba_marseille","lat":43.322872,"lon":5.382756,"is_reserved":false,"is_disabled":false,"rental_uris":{"android":"levelo://app?vid=9f3c7205-c2c4-4fee-a167-8654aeaf9b53","ios":"levelo://app?vid=9f3c7205-c2c4-4fee-a167-8654aeaf9b53"},"vehicle_type_id":"4","last_reported":1720282109,"current_range_meters":22400,"station_id":"ce4bhr12rcd13ifvqhqg","pricing_plan_id":"cebpf4jnsgd1na2vs0mg"},{"bike_id":"82fe9dae-0bd2-4692-876f-4d5ba1de45f5","system_id":"levelo_inurba_marseille","lat":43.322872,"lon":5.382756,"is_reserved":false,"is_disabled":false,"rental_uris":{"android":"levelo://app?vid=82fe9dae-0bd2-4692-876f-4d5ba1de45f5","ios":"levelo://app?vid=82fe9dae-0bd2-4692-876f-4d5ba1de45f5"},"vehicle_type_id":"4","last_reported":1720282109,"current_range_meters":19200,"station_id":"ce4bhr12rcd13ifvqhqg","pricing_plan_id":"cebpf4jnsgd1na2vs0mg"},{"bike_id":"b6df76cb-5e57-4b28-b4ee-6fceae4a9ed7","system_id":"levelo_inurba_marseille","lat":43.322872,"lon":5.382756,"is_reserved":false,"is_disabled":false,"rental_uris":{"android":"levelo://app?vid=b6df76cb-5e57-4b28-b4ee-6fceae4a9ed7","ios":"levelo://app?vid=b6df76cb-5e57-4b28-b4ee-6fceae4a9ed7"},"vehicle_type_id":"4","last_reported":1720282109,"current_range_meters":18000,"station_id":"ce4bhr12rcd13ifvqhqg","pricing_plan_id":"cebpf4jnsgd1na2vs0mg"},{"bike_id":"7540c7d1-bf5f-48d6-91e1-1b86aaa5c3df","system_id":"levelo_inurba_marseille","lat":43.322872,"lon":5.382756,"is_reserved":false,"is_disabled":false,"rental_uris":{"android":"levelo://app?vid=7540c7d1-bf5f-48d6-91e1-1b86aaa5c3df","ios":"levelo://app?vid=7540c7d1-bf5f-48d6-91e1-1b86aaa5c3df"},"vehicle_type_id":"4","last_reported":1720282109,"current_range_meters":4800,"station_id":"ce4bhr12rcd13ifvqhqg","pricing_plan_id":"cebpf4jnsgd1na2vs0mg"},{"bike_id":"57f21258-4d19-4cd6-909d-28d5a46deebc","system_id":"levelo_inurba_marseille","lat":43.322872,"lon":5.382756,"is_reserved":false,"is_disabled":false,"rental_uris":{"android":"levelo://app?vid=57f21258-4d19-4cd6-909d-28d5a46deebc","ios":"levelo://app?vid=57f21258-4d19-4cd6-909d-28d5a46deebc"},"vehicle_type_id":"4","last_reported":1720282109,"current_range_meters":15600,"station_id":"ce4bhr12rcd13ifvqhqg","pricing_plan_id":"cebpf4jnsgd1na2vs0mg"},{"bike_id":"fc4d6f83-d1dc-4f6e-bb88-549c4bbb7445","system_id":"levelo_inurba_marseille","lat":43.297163,"lon":5.365866,"is_reserved":false,"is_disabled":false,"rental_uris":{"android":"levelo://app?vid=fc4d6f83-d1dc-4f6e-bb88-549c4bbb7445","ios":"levelo://app?vid=fc4d6f83-d1dc-4f6e-bb88-549c4bbb7445"},"vehicle_type_id":"4","last_reported":1720282109,"current_range_meters":24000,"station_id":"ce4bgn12rcd13ifvqbt0","pricing_plan_id":"cebpf4jnsgd1na2vs0mg"},{"bike_id":"edb44196-7ba9-41cf-b884-4179c1c93eae","system_id":"levelo_inurba_marseille","lat":43.300421,"lon":5.381496,"is_reserved":false,"is_disabled":false,"rental_uris":{"android":"levelo://app?vid=edb44196-7ba9-41cf-b884-4179c1c93eae","ios":"levelo://app?vid=edb44196-7ba9-41cf-b884-4179c1c93eae"},"vehicle_type_id":"4","last_reported":1720282109,"current_range_meters":13600,"station_id":"","pricing_plan_id":"cebpf4jnsgd1na2vs0mg"},{"bike_id":"82f58178-8f89-479f-a33f-971fd10a7a10","system_id":"levelo_inurba_marseille","lat":43.29814,"lon":5.37691,"is_reserved":false,"is_disabled":false,"rental_uris":{"android":"levelo://app?vid=82f58178-8f89-479f-a33f-971fd10a7a10","ios":"levelo://app?vid=82f58178-8f89-479f-a33f-971fd10a7a10"},"vehicle_type_id":"4","last_reported":1720282109,"current_range_meters":1200,"station_id":"","pricing_plan_id":"cebpf4jnsgd1na2vs0mg"},{"bike_id":"280525b4-850d-4349-9c72-4f70d3424eeb","system_id":"levelo_inurba_marseille","lat":43.327206,"lon":5.37847,"is_reserved":false,"is_disabled":false,"rental_uris":{"android":"levelo://app?vid=280525b4-850d-4349-9c72-4f70d3424eeb","ios":"levelo://app?vid=280525b4-850d-4349-9c72-4f70d3424eeb"},"vehicle_type_id":"4","last_reported":1720282109,"current_range_meters":4400,"station_id":"","pricing_plan_id":"cebpf4jnsgd1na2vs0mg"},{"bike_id":"09993222-9ca6-4839-9e41-a6655fed4831","system_id":"levelo_inurba_marseille","lat":43.29905,"lon":5.380907,"is_reserved":false,"is_disabled":false,"rental_uris":{"android":"levelo://app?vid=09993222-9ca6-4839-9e41-a6655fed4831","ios":"levelo://app?vid=09993222-9ca6-4839-9e41-a6655fed4831"},"vehicle_type_id":"4","last_reported":1720282109,"current_range_meters":0,"station_id":"ce4bgj12rcd13ifvqbc0","pricing_plan_id":"cebpf4jnsgd1na2vs0mg"},{"bike_id":"ba7e2dd2-0046-4ca4-b3f5-7e4810736cb5","system_id":"levelo_inurba_marseille","lat":43.29914,"lon":5.38133,"is_reserved":false,"is_disabled":false,"rental_uris":{"android":"levelo://app?vid=ba7e2dd2-0046-4ca4-b3f5-7e4810736cb5","ios":"levelo://app?vid=ba7e2dd2-0046-4ca4-b3f5-7e4810736cb5"},"vehicle_type_id":"4","last_reported":1720282109,"current_range_meters":31200,"station_id":"","pricing_plan_id":"cebpf4jnsgd1na2vs0mg"},{"bike_id":"5329d9fa-7c69-4a06-bbb8-1e1859461406","system_id":"levelo_inurba_marseille","lat":43.2991,"lon":5.38131,"is_reserved":false,"is_disabled":false,"rental_uris":{"android":"levelo://app?vid=5329d9fa-7c69-4a06-bbb8-1e1859461406","ios":"levelo://app?vid=5329d9fa-7c69-4a06-bbb8-1e1859461406"},"vehicle_type_id":"4","last_reported":1720282109,"current_range_meters":31200,"station_id":"ce4bgj12rcd13ifvqbc0","pricing_plan_id":"cebpf4jnsgd1na2vs0mg"},{"bike_id":"5d166f4c-15e6-4df9-8baf-d6f9160080b2","system_id":"levelo_inurba_marseille","lat":43.309589,"lon":5.390258,"is_reserved":false,"is_disabled":false,"rental_uris":{"android":"levelo://app?vid=5d166f4c-15e6-4df9-8baf-d6f9160080b2","ios":"levelo://app?vid=5d166f4c-15e6-4df9-8baf-d6f9160080b2"},"vehicle_type_id":"4","last_reported":1720282109,"current_range_meters":10400,"station_id":"ce4bgup2rcd13ifvqco0","pricing_plan_id":"cebpf4jnsgd1na2vs0mg"},{"bike_id":"5a3ef0f2-2361-436d-a313-5900d1a91040","system_id":"levelo_inurba_marseille","lat":43.309589,"lon":5.390258,"is_reserved":false,"is_disabled":false,"rental_uris":{"android":"levelo://app?vid=5a3ef0f2-2361-436d-a313-5900d1a91040","ios":"levelo://app?vid=5a3ef0f2-2361-436d-a313-5900d1a91040"},"vehicle_type_id":"4","last_reported":1720282109,"current_range_meters":3200,"station_id":"ce4bgup2rcd13ifvqco0","pricing_plan_id":"cebpf4jnsgd1na2vs0mg"},{"bike_id":"596a02e5-b309-45a2-bb48-37b99705da3f","system_id":"levelo_inurba_marseille","lat":43.309589,"lon":5.390258,"is_reserved":false,"is_disabled":false,"rental_uris":{"android":"levelo://app?vid=596a02e5-b309-45a2-bb48-37b99705da3f","ios":"levelo://app?vid=596a02e5-b309-45a2-bb48-37b99705da3f"},"vehicle_type_id":"4","last_reported":1720282109,"current_range_meters":18000,"station_id":"ce4bgup2rcd13ifvqco0","pricing_plan_id":"cebpf4jnsgd1na2vs0mg"},{"bike_id":"d4ec22c2-40d4-4c88-92fe-ff3b5c553e5d","system_id":"levelo_inurba_marseille","lat":43.297163,"lon":5.365866,"is_reserved":false,"is_disabled":false,"rental_uris":{"android":"levelo://app?vid=d4ec22c2-40d4-4c88-92fe-ff3b5c553e5d","ios":"levelo://app?vid=d4ec22c2-40d4-4c88-92fe-ff3b5c553e5d"},"vehicle_type_id":"4","last_reported":1720282109,"current_range_meters":22400,"station_id":"ce4bgn12rcd13ifvqbt0","pricing_plan_id":"cebpf4jnsgd1na2vs0mg"},{"bike_id":"5d6ed905-9b91-4cb1-aea0-4052f46a6952","system_id":"levelo_inurba_marseille","lat":43.30948,"lon":5.39052,"is_reserved":false,"is_disabled":false,"rental_uris":{"android":"levelo://app?vid=5d6ed905-9b91-4cb1-aea0-4052f46a6952","ios":"levelo://app?vid=5d6ed905-9b91-4cb1-aea0-4052f46a6952"},"vehicle_type_id":"4","last_reported":1720282109,"current_range_meters":0,"station_id":"ce4bgup2rcd13ifvqco0","pricing_plan_id":"cebpf4jnsgd1na2vs0mg"},{"bike_id":"ecbb8cff-df7f-4886-a029-48edd80293b7","system_id":"levelo_inurba_marseille","lat":43.30444,"lon":5.38887,"is_reserved":false,"is_disabled":false,"rental_uris":{"android":"levelo://app?vid=ecbb8cff-df7f-4886-a029-48edd80293b7","ios":"levelo://app?vid=ecbb8cff-df7f-4886-a029-48edd80293b7"},"vehicle_type_id":"4","last_reported":1720282109,"current_range_meters":17200,"station_id":"ce4bgk12rcd13ifvqbi0","pricing_plan_id":"cebpf4jnsgd1na2vs0mg"},{"bike_id":"81bfa829-dacc-42c7-a43c-88147850b803","system_id":"levelo_inurba_marseille","lat":43.29789,"lon":5.38096,"is_reserved":false,"is_disabled":false,"rental_uris":{"android":"levelo://app?vid=81bfa829-dacc-42c7-a43c-88147850b803","ios":"levelo://app?vid=81bfa829-dacc-42c7-a43c-88147850b803"},"vehicle_type_id":"4","last_reported":1720282109,"current_range_meters":0,"station_id":"ce4bgip2rcd13ifvqbb0","pricing_plan_id":"cebpf4jnsgd1na2vs0mg"},{"bike_id":"565fc2b7-6dfe-4a67-8a08-0d9b1170e99e","system_id":"levelo_inurba_marseille","lat":43.29625,"lon":5.37705,"is_reserved":false,"is_disabled":false,"rental_uris":{"android":"levelo://app?vid=565fc2b7-6dfe-4a67-8a08-0d9b1170e99e","ios":"levelo://app?vid=565fc2b7-6dfe-4a67-8a08-0d9b1170e99e"},"vehicle_type_id":"4","last_reported":1720282109,"current_range_meters":0,"station_id":"ce4bgi92rcd13ifvqb90","pricing_plan_id":"cebpf4jnsgd1na2vs0mg"},{"bike_id":"2017afc4-6a53-47e1-bce8-6f5cc2d82b38","system_id":"levelo_inurba_marseille","lat":43.304278,"lon":5.388868,"is_reserved":false,"is_disabled":false,"rental_uris":{"android":"levelo://app?vid=2017afc4-6a53-47e1-bce8-6f5cc2d82b38","ios":"levelo://app?vid=2017afc4-6a53-47e1-bce8-6f5cc2d82b38"},"vehicle_type_id":"4","last_reported":1720282109,"current_range_meters":25600,"station_id":"ce4bgk12rcd13ifvqbi0","pricing_plan_id":"cebpf4jnsgd1na2vs0mg"},{"bike_id":"5790f5c7-6688-4eaa-90bf-6d243a2dc36c","system_id":"levelo_inurba_marseille","lat":43.29982,"lon":5.38468,"is_reserved":false,"is_disabled":false,"rental_uris":{"android":"levelo://app?vid=5790f5c7-6688-4eaa-90bf-6d243a2dc36c","ios":"levelo://app?vid=5790f5c7-6688-4eaa-90bf-6d243a2dc36c"},"vehicle_type_id":"4","last_reported":1720282109,"current_range_meters":24000,"station_id":"","pricing_plan_id":"cebpf4jnsgd1na2vs0mg"},{"bike_id":"bd93f2b2-def6-4b2b-9c9f-908ed47e1230","system_id":"levelo_inurba_marseille","lat":43.295279,"lon":5.375048,"is_reserved":false,"is_disabled":false,"rental_uris":{"android":"levelo://app?vid=bd93f2b2-def6-4b2b-9c9f-908ed47e1230","ios":"levelo://app?vid=bd93f2b2-def6-4b2b-9c9f-908ed47e1230"},"vehicle_type_id":"4","last_reported":1720282109,"current_range_meters":400,"station_id":"ce4bgkp2rcd13ifvqbmg","pricing_plan_id":"cebpf4jnsgd1na2vs0mg"},{"bike_id":"e9d83e9f-8fdc-49cb-be4c-1538fab7e221","system_id":"levelo_inurba_marseille","lat":43.295279,"lon":5.375048,"is_reserved":false,"is_disabled":false,"rental_uris":{"android":"levelo://app?vid=e9d83e9f-8fdc-49cb-be4c-1538fab7e221","ios":"levelo://app?vid=e9d83e9f-8fdc-49cb-be4c-1538fab7e221"},"vehicle_type_id":"4","last_reported":1720282109,"current_range_meters":4400,"station_id":"ce4bgkp2rcd13ifvqbmg","pricing_plan_id":"cebpf4jnsgd1na2vs0mg"},{"bike_id":"e6971a41-1842-40c3-9152-24a1627af433","system_id":"levelo_inurba_marseille","lat":43.295279,"lon":5.375048,"is_reserved":false,"is_disabled":false,"rental_uris":{"android":"levelo://app?vid=e6971a41-1842-40c3-9152-24a1627af433","ios":"levelo://app?vid=e6971a41-1842-40c3-9152-24a1627af433"},"vehicle_type_id":"4","last_reported":1720282109,"current_range_meters":29200,"station_id":"ce4bgkp2rcd13ifvqbmg","pricing_plan_id":"cebpf4jnsgd1na2vs0mg"},{"bike_id":"4fc8b0a9-6d76-4195-b2f4-143bd4479b36","system_id":"levelo_inurba_marseille","lat":43.29489,"lon":5.3743,"is_reserved":false,"is_disabled":false,"rental_uris":{"android":"levelo://app?vid=4fc8b0a9-6d76-4195-b2f4-143bd4479b36","ios":"levelo://app?vid=4fc8b0a9-6d76-4195-b2f4-143bd4479b36"},"vehicle_type_id":"4","last_reported":1720282109,"current_range_meters":0,"station_id":"","pricing_plan_id":"cebpf4jnsgd1na2vs0mg"},{"bike_id":"2594b9fa-2c55-4cbd-bc41-d54583818f64","system_id":"levelo_inurba_marseille","lat":43.301396,"lon":5.387812,"is_reserved":false,"is_disabled":false,"rental_uris":{"android":"levelo://app?vid=2594b9fa-2c55-4cbd-bc41-d54583818f64","ios":"levelo://app?vid=2594b9fa-2c55-4cbd-bc41-d54583818f64"},"vehicle_type_id":"4","last_reported":1720282109,"current_range_meters":20000,"station_id":"ce4bghh2rcd13ifvqb60","pricing_plan_id":"cebpf4jnsgd1na2vs0mg"},{"bike_id":"e21c310a-d1e4-40f6-b036-5fe6698319a7","system_id":"levelo_inurba_marseille","lat":43.301396,"lon":5.387812,"is_reserved":false,"is_disabled":false,"rental_uris":{"android":"levelo://app?vid=e21c310a-d1e4-40f6-b036-5fe6698319a7","ios":"levelo://app?vid=e21c310a-d1e4-40f6-b036-5fe6698319a7"},"vehicle_type_id":"4","last_reported":1720282109,"current_range_meters":0,"station_id":"ce4bghh2rcd13ifvqb60","pricing_plan_id":"cebpf4jnsgd1na2vs0mg"},{"bike_id":"db69fb0c-c138-425b-b779-2869460b8e6a","system_id":"levelo_inurba_marseille","lat":43.29637,"lon":5.38033,"is_reserved":false,"is_disabled":false,"rental_uris":{"android":"levelo://app?vid=db69fb0c-c138-425b-b779-2869460b8e6a","ios":"levelo://app?vid=db69fb0c-c138-425b-b779-2869460b8e6a"},"vehicle_type_id":"4","last_reported":1720282109,"current_range_meters":17200,"station_id":"","pricing_plan_id":"cebpf4jnsgd1na2vs0mg"},{"bike_id":"27357795-74f6-4274-9e57-bc876736a0ef","system_id":"levelo_inurba_marseille","lat":43.32367,"lon":5.388836,"is_reserved":false,"is_disabled":false,"rental_uris":{"android":"levelo://app?vid=27357795-74f6-4274-9e57-bc876736a0ef","ios":"levelo://app?vid=27357795-74f6-4274-9e57-bc876736a0ef"},"vehicle_type_id":"4","last_reported":1720282109,"current_range_meters":400,"station_id":"ce4bhqp2rcd13ifvqhog","pricing_plan_id":"cebpf4jnsgd1na2vs0mg"},{"bike_id":"bcaf0c0a-910e-4fcb-8168-928ce90e8421","system_id":"levelo_inurba_marseille","lat":43.32367,"lon":5.388836,"is_reserved":false,"is_disabled":false,"rental_uris":{"android":"levelo://app?vid=bcaf0c0a-910e-4fcb-8168-928ce90e8421","ios":"levelo://app?vid=bcaf0c0a-910e-4fcb-8168-928ce90e8421"},"vehicle_type_id":"4","last_reported":1720282109,"current_range_meters":7600,"station_id":"ce4bhqp2rcd13ifvqhog","pricing_plan_id":"cebpf4jnsgd1na2vs0mg"},{"bike_id":"a033c965-b3f0-4b82-93cc-44c3644a816f","system_id":"levelo_inurba_marseille","lat":43.32367,"lon":5.388836,"is_reserved":false,"is_disabled":false,"rental_uris":{"android":"levelo://app?vid=a033c965-b3f0-4b82-93cc-44c3644a816f","ios":"levelo://app?vid=a033c965-b3f0-4b82-93cc-44c3644a816f"},"vehicle_type_id":"4","last_reported":1720282109,"current_range_meters":16400,"station_id":"ce4bhqp2rcd13ifvqhog","pricing_plan_id":"cebpf4jnsgd1na2vs0mg"},{"bike_id":"072d4e19-1fac-49af-bb03-0e8e89df0e40","system_id":"levelo_inurba_marseille","lat":43.32367,"lon":5.388836,"is_reserved":false,"is_disabled":false,"rental_uris":{"android":"levelo://app?vid=072d4e19-1fac-49af-bb03-0e8e89df0e40","ios":"levelo://app?vid=072d4e19-1fac-49af-bb03-0e8e89df0e40"},"vehicle_type_id":"4","last_reported":1720282109,"current_range_meters":0,"station_id":"ce4bhqp2rcd13ifvqhog","pricing_plan_id":"cebpf4jnsgd1na2vs0mg"},{"bike_id":"b90fe265-f9fd-473b-9ab0-a0c5fdf53401","system_id":"levelo_inurba_marseille","lat":43.32367,"lon":5.388836,"is_reserved":false,"is_disabled":false,"rental_uris":{"android":"levelo://app?vid=b90fe265-f9fd-473b-9ab0-a0c5fdf53401","ios":"levelo://app?vid=b90fe265-f9fd-473b-9ab0-a0c5fdf53401"},"vehicle_type_id":"4","last_reported":1720282109,"current_range_meters":0,"station_id":"ce4bhqp2rcd13ifvqhog","pricing_plan_id":"cebpf4jnsgd1na2vs0mg"},{"bike_id":"e0a7ec7c-d00c-4580-983b-eac419aa5fb5","system_id":"levelo_inurba_marseille","lat":43.32367,"lon":5.388836,"is_reserved":false,"is_disabled":false,"rental_uris":{"android":"levelo://app?vid=e0a7ec7c-d00c-4580-983b-eac419aa5fb5","ios":"levelo://app?vid=e0a7ec7c-d00c-4580-983b-eac419aa5fb5"},"vehicle_type_id":"4","last_reported":1720282109,"current_range_meters":4000,"station_id":"ce4bhqp2rcd13ifvqhog","pricing_plan_id":"cebpf4jnsgd1na2vs0mg"},{"bike_id":"55872b18-c3ab-44c5-9105-8eef314b1e2b","system_id":"levelo_inurba_marseille","lat":43.32365,"lon":5.38887,"is_reserved":false,"is_disabled":false,"rental_uris":{"android":"levelo://app?vid=55872b18-c3ab-44c5-9105-8eef314b1e2b","ios":"levelo://app?vid=55872b18-c3ab-44c5-9105-8eef314b1e2b"},"vehicle_type_id":"4","last_reported":1720282109,"current_range_meters":17200,"station_id":"ce4bhqp2rcd13ifvqhog","pricing_plan_id":"cebpf4jnsgd1na2vs0mg"},{"bike_id":"e3cfe1ca-c837-47c4-b61f-a5b972f44058","system_id":"levelo_inurba_marseille","lat":43.32367,"lon":5.388836,"is_reserved":false,"is_disabled":false,"rental_uris":{"android":"levelo://app?vid=e3cfe1ca-c837-47c4-b61f-a5b972f44058","ios":"levelo://app?vid=e3cfe1ca-c837-47c4-b61f-a5b972f44058"},"vehicle_type_id":"4","last_reported":1720282109,"current_range_meters":800,"station_id":"ce4bhqp2rcd13ifvqhog","pricing_plan_id":"cebpf4jnsgd1na2vs0mg"},{"bike_id":"484351ad-440f-4251-9c6d-3ab63d69f872","system_id":"levelo_inurba_marseille","lat":43.292749,"lon":5.368398,"is_reserved":false,"is_disabled":false,"rental_uris":{"android":"levelo://app?vid=484351ad-440f-4251-9c6d-3ab63d69f872","ios":"levelo://app?vid=484351ad-440f-4251-9c6d-3ab63d69f872"},"vehicle_type_id":"4","last_reported":1720282109,"current_range_meters":15200,"station_id":"ce4bhbp2rcd13ifvqesg","pricing_plan_id":"cebpf4jnsgd1na2vs0mg"},{"bike_id":"c2196e36-e096-4e8d-9864-966a9d6e69d2","system_id":"levelo_inurba_marseille","lat":43.292749,"lon":5.368398,"is_reserved":false,"is_disabled":false,"rental_uris":{"android":"levelo://app?vid=c2196e36-e096-4e8d-9864-966a9d6e69d2","ios":"levelo://app?vid=c2196e36-e096-4e8d-9864-966a9d6e69d2"},"vehicle_type_id":"4","last_reported":1720282109,"current_range_meters":10400,"station_id":"ce4bhbp2rcd13ifvqesg","pricing_plan_id":"cebpf4jnsgd1na2vs0mg"},{"bike_id":"48169c31-0a59-488d-a750-a66689f910fa","system_id":"levelo_inurba_marseille","lat":43.285848,"lon":5.350787,"is_reserved":false,"is_disabled":false,"rental_uris":{"android":"levelo://app?vid=48169c31-0a59-488d-a750-a66689f910fa","ios":"levelo://app?vid=48169c31-0a59-488d-a750-a66689f910fa"},"vehicle_type_id":"4","last_reported":1720282109,"current_range_meters":4000,"station_id":"ce4bhch2rcd13ifvqeug","pricing_plan_id":"cebpf4jnsgd1na2vs0mg"},{"bike_id":"e30f304a-5aad-403d-853c-6f4f35cdf0e6","system_id":"levelo_inurba_marseille","lat":43.305994,"lon":5.393687,"is_reserved":false,"is_disabled":false,"rental_uris":{"android":"levelo://app?vid=e30f304a-5aad-403d-853c-6f4f35cdf0e6","ios":"levelo://app?vid=e30f304a-5aad-403d-853c-6f4f35cdf0e6"},"vehicle_type_id":"4","last_reported":1720282109,"current_range_meters":31600,"station_id":"ce4bh0p2rcd13ifvqd80","pricing_plan_id":"cebpf4jnsgd1na2vs0mg"},{"bike_id":"b6c29b91-06d2-42ad-8a54-6e9065c64384","system_id":"levelo_inurba_marseille","lat":43.305994,"lon":5.393687,"is_reserved":false,"is_disabled":false,"rental_uris":{"android":"levelo://app?vid=b6c29b91-06d2-42ad-8a54-6e9065c64384","ios":"levelo://app?vid=b6c29b91-06d2-42ad-8a54-6e9065c64384"},"vehicle_type_id":"4","last_reported":1720282109,"current_range_meters":6800,"station_id":"ce4bh0p2rcd13ifvqd80","pricing_plan_id":"cebpf4jnsgd1na2vs0mg"},{"bike_id":"937659a3-5a3c-4c4a-9ded-8e3f2f6380fa","system_id":"levelo_inurba_marseille","lat":43.30595,"lon":5.39357,"is_reserved":false,"is_disabled":false,"rental_uris":{"android":"levelo://app?vid=937659a3-5a3c-4c4a-9ded-8e3f2f6380fa","ios":"levelo://app?vid=937659a3-5a3c-4c4a-9ded-8e3f2f6380fa"},"vehicle_type_id":"4","last_reported":1720282109,"current_range_meters":0,"station_id":"ce4bh0p2rcd13ifvqd80","pricing_plan_id":"cebpf4jnsgd1na2vs0mg"},{"bike_id":"9d161f34-0324-4e02-b4ee-b17ed7f82581","system_id":"levelo_inurba_marseille","lat":43.305994,"lon":5.393687,"is_reserved":false,"is_disabled":false,"rental_uris":{"android":"levelo://app?vid=9d161f34-0324-4e02-b4ee-b17ed7f82581","ios":"levelo://app?vid=9d161f34-0324-4e02-b4ee-b17ed7f82581"},"vehicle_type_id":"4","last_reported":1720282109,"current_range_meters":26400,"station_id":"ce4bh0p2rcd13ifvqd80","pricing_plan_id":"cebpf4jnsgd1na2vs0mg"},{"bike_id":"271e539d-f8c1-4c03-b7ef-2039e207f37c","system_id":"levelo_inurba_marseille","lat":43.303002,"lon":5.392142,"is_reserved":false,"is_disabled":false,"rental_uris":{"android":"levelo://app?vid=271e539d-f8c1-4c03-b7ef-2039e207f37c","ios":"levelo://app?vid=271e539d-f8c1-4c03-b7ef-2039e207f37c"},"vehicle_type_id":"4","last_reported":1720282109,"current_range_meters":23600,"station_id":"ce4bgkh2rcd13ifvqbk0","pricing_plan_id":"cebpf4jnsgd1na2vs0mg"},{"bike_id":"eaab47eb-23b2-4624-97e6-ecd53385629e","system_id":"levelo_inurba_marseille","lat":43.302992,"lon":5.392136,"is_reserved":false,"is_disabled":false,"rental_uris":{"android":"levelo://app?vid=eaab47eb-23b2-4624-97e6-ecd53385629e","ios":"levelo://app?vid=eaab47eb-23b2-4624-97e6-ecd53385629e"},"vehicle_type_id":"4","last_reported":1720282109,"current_range_meters":0,"station_id":"ce4bgkh2rcd13ifvqbk0","pricing_plan_id":"cebpf4jnsgd1na2vs0mg"},{"bike_id":"c5053947-8d22-4eea-a8e0-c3327ca363d4","system_id":"levelo_inurba_marseille","lat":43.30297,"lon":5.39212,"is_reserved":false,"is_disabled":false,"rental_uris":{"android":"levelo://app?vid=c5053947-8d22-4eea-a8e0-c3327ca363d4","ios":"levelo://app?vid=c5053947-8d22-4eea-a8e0-c3327ca363d4"},"vehicle_type_id":"4","last_reported":1720282109,"current_range_meters":0,"station_id":"ce4bgkh2rcd13ifvqbk0","pricing_plan_id":"cebpf4jnsgd1na2vs0mg"},{"bike_id":"9cf34d9a-ff37-44ca-9f1f-38495dcae39e","system_id":"levelo_inurba_marseille","lat":43.302993,"lon":5.392143,"is_reserved":false,"is_disabled":false,"rental_uris":{"android":"levelo://app?vid=9cf34d9a-ff37-44ca-9f1f-38495dcae39e","ios":"levelo://app?vid=9cf34d9a-ff37-44ca-9f1f-38495dcae39e"},"vehicle_type_id":"4","last_reported":1720282109,"current_range_meters":31200,"station_id":"ce4bgkh2rcd13ifvqbk0","pricing_plan_id":"cebpf4jnsgd1na2vs0mg"},{"bike_id":"e2b05340-e1ac-4bc1-890e-2af65cd8a494","system_id":"levelo_inurba_marseille","lat":43.30291,"lon":5.39212,"is_reserved":false,"is_disabled":false,"rental_uris":{"android":"levelo://app?vid=e2b05340-e1ac-4bc1-890e-2af65cd8a494","ios":"levelo://app?vid=e2b05340-e1ac-4bc1-890e-2af65cd8a494"},"vehicle_type_id":"4","last_reported":1720282109,"current_range_meters":31600,"station_id":"ce4bgkh2rcd13ifvqbk0","pricing_plan_id":"cebpf4jnsgd1na2vs0mg"},{"bike_id":"1ca9b1a6-b59d-404e-9e21-3c2bd075a2ff","system_id":"levelo_inurba_marseille","lat":43.30301,"lon":5.3922,"is_reserved":false,"is_disabled":false,"rental_uris":{"android":"levelo://app?vid=1ca9b1a6-b59d-404e-9e21-3c2bd075a2ff","ios":"levelo://app?vid=1ca9b1a6-b59d-404e-9e21-3c2bd075a2ff"},"vehicle_type_id":"4","last_reported":1720282109,"current_range_meters":31200,"station_id":"ce4bgkh2rcd13ifvqbk0","pricing_plan_id":"cebpf4jnsgd1na2vs0mg"},{"bike_id":"3b1e6d47-c164-4d8a-8917-4301dc1c2e7e","system_id":"levelo_inurba_marseille","lat":43.30298,"lon":5.39218,"is_reserved":false,"is_disabled":false,"rental_uris":{"android":"levelo://app?vid=3b1e6d47-c164-4d8a-8917-4301dc1c2e7e","ios":"levelo://app?vid=3b1e6d47-c164-4d8a-8917-4301dc1c2e7e"},"vehicle_type_id":"4","last_reported":1720282109,"current_range_meters":31200,"station_id":"ce4bgkh2rcd13ifvqbk0","pricing_plan_id":"cebpf4jnsgd1na2vs0mg"},{"bike_id":"581915d9-e9b2-451d-9a09-fcb627148c6d","system_id":"levelo_inurba_marseille","lat":43.30298,"lon":5.39218,"is_reserved":false,"is_disabled":false,"rental_uris":{"android":"levelo://app?vid=581915d9-e9b2-451d-9a09-fcb627148c6d","ios":"levelo://app?vid=581915d9-e9b2-451d-9a09-fcb627148c6d"},"vehicle_type_id":"4","last_reported":1720282109,"current_range_meters":30800,"station_id":"ce4bgkh2rcd13ifvqbk0","pricing_plan_id":"cebpf4jnsgd1na2vs0mg"},{"bike_id":"1c3b4199-0cb5-484f-9f84-3e660bf3379d","system_id":"levelo_inurba_marseille","lat":43.292311,"lon":5.360731,"is_reserved":false,"is_disabled":false,"rental_uris":{"android":"levelo://app?vid=1c3b4199-0cb5-484f-9f84-3e660bf3379d","ios":"levelo://app?vid=1c3b4199-0cb5-484f-9f84-3e660bf3379d"},"vehicle_type_id":"4","last_reported":1720282109,"current_range_meters":0,"station_id":"ce4bhbh2rcd13ifvqeqg","pricing_plan_id":"cebpf4jnsgd1na2vs0mg"},{"bike_id":"5f457b8a-64d9-4b40-ae6e-b32e4df990f4","system_id":"levelo_inurba_marseille","lat":43.302992,"lon":5.392136,"is_reserved":false,"is_disabled":false,"rental_uris":{"android":"levelo://app?vid=5f457b8a-64d9-4b40-ae6e-b32e4df990f4","ios":"levelo://app?vid=5f457b8a-64d9-4b40-ae6e-b32e4df990f4"},"vehicle_type_id":"4","last_reported":1720282109,"current_range_meters":0,"station_id":"ce4bgkh2rcd13ifvqbk0","pricing_plan_id":"cebpf4jnsgd1na2vs0mg"},{"bike_id":"833e7ac4-32f5-44b0-873d-f51009a7ffe0","system_id":"levelo_inurba_marseille","lat":43.292311,"lon":5.360731,"is_reserved":false,"is_disabled":false,"rental_uris":{"android":"levelo://app?vid=833e7ac4-32f5-44b0-873d-f51009a7ffe0","ios":"levelo://app?vid=833e7ac4-32f5-44b0-873d-f51009a7ffe0"},"vehicle_type_id":"4","last_reported":1720282109,"current_range_meters":6400,"station_id":"ce4bhbh2rcd13ifvqeqg","pricing_plan_id":"cebpf4jnsgd1na2vs0mg"},{"bike_id":"0c8097e9-2d84-4dc6-971e-51c959a539a1","system_id":"levelo_inurba_marseille","lat":43.300852,"lon":5.390859,"is_reserved":false,"is_disabled":false,"rental_uris":{"android":"levelo://app?vid=0c8097e9-2d84-4dc6-971e-51c959a539a1","ios":"levelo://app?vid=0c8097e9-2d84-4dc6-971e-51c959a539a1"},"vehicle_type_id":"4","last_reported":1720282109,"current_range_meters":0,"station_id":"ce4bh192rcd13ifvqdb0","pricing_plan_id":"cebpf4jnsgd1na2vs0mg"},{"bike_id":"799b0ac1-1780-4835-afce-fd156905000e","system_id":"levelo_inurba_marseille","lat":43.292311,"lon":5.360731,"is_reserved":false,"is_disabled":false,"rental_uris":{"android":"levelo://app?vid=799b0ac1-1780-4835-afce-fd156905000e","ios":"levelo://app?vid=799b0ac1-1780-4835-afce-fd156905000e"},"vehicle_type_id":"4","last_reported":1720282109,"current_range_meters":7200,"station_id":"ce4bhbh2rcd13ifvqeqg","pricing_plan_id":"cebpf4jnsgd1na2vs0mg"},{"bike_id":"bc7c1db5-0ffe-4b9d-8fcb-d91d025cd9a2","system_id":"levelo_inurba_marseille","lat":43.292311,"lon":5.360731,"is_reserved":false,"is_disabled":false,"rental_uris":{"android":"levelo://app?vid=bc7c1db5-0ffe-4b9d-8fcb-d91d025cd9a2","ios":"levelo://app?vid=bc7c1db5-0ffe-4b9d-8fcb-d91d025cd9a2"},"vehicle_type_id":"4","last_reported":1720282109,"current_range_meters":20000,"station_id":"ce4bhbh2rcd13ifvqeqg","pricing_plan_id":"cebpf4jnsgd1na2vs0mg"},{"bike_id":"d8e4e3bf-94a5-4c0e-96d6-3a87bbab7a11","system_id":"levelo_inurba_marseille","lat":43.300852,"lon":5.390859,"is_reserved":false,"is_disabled":false,"rental_uris":{"android":"levelo://app?vid=d8e4e3bf-94a5-4c0e-96d6-3a87bbab7a11","ios":"levelo://app?vid=d8e4e3bf-94a5-4c0e-96d6-3a87bbab7a11"},"vehicle_type_id":"4","last_reported":1720282109,"current_range_meters":12800,"station_id":"ce4bh192rcd13ifvqdb0","pricing_plan_id":"cebpf4jnsgd1na2vs0mg"},{"bike_id":"27730cf7-a343-487f-ab0d-7699c491ff72","system_id":"levelo_inurba_marseille","lat":43.300852,"lon":5.390859,"is_reserved":false,"is_disabled":false,"rental_uris":{"android":"levelo://app?vid=27730cf7-a343-487f-ab0d-7699c491ff72","ios":"levelo://app?vid=27730cf7-a343-487f-ab0d-7699c491ff72"},"vehicle_type_id":"4","last_reported":1720282109,"current_range_meters":0,"station_id":"ce4bh192rcd13ifvqdb0","pricing_plan_id":"cebpf4jnsgd1na2vs0mg"},{"bike_id":"9aaac9da-3f48-49be-a568-c2214443e4f1","system_id":"levelo_inurba_marseille","lat":43.30085,"lon":5.390856,"is_reserved":false,"is_disabled":false,"rental_uris":{"android":"levelo://app?vid=9aaac9da-3f48-49be-a568-c2214443e4f1","ios":"levelo://app?vid=9aaac9da-3f48-49be-a568-c2214443e4f1"},"vehicle_type_id":"4","last_reported":1720282109,"current_range_meters":31200,"station_id":"ce4bh192rcd13ifvqdb0","pricing_plan_id":"cebpf4jnsgd1na2vs0mg"},{"bike_id":"b2a863f5-5345-497d-a8bb-ce32af70e02b","system_id":"levelo_inurba_marseille","lat":43.298764,"lon":5.388973,"is_reserved":false,"is_disabled":false,"rental_uris":{"android":"levelo://app?vid=b2a863f5-5345-497d-a8bb-ce32af70e02b","ios":"levelo://app?vid=b2a863f5-5345-497d-a8bb-ce32af70e02b"},"vehicle_type_id":"4","last_reported":1720282109,"current_range_meters":11600,"station_id":"ce4bh392rcd13ifvqdl0","pricing_plan_id":"cebpf4jnsgd1na2vs0mg"},{"bike_id":"0b03b6c7-f5b1-4d27-971a-112b5314ee61","system_id":"levelo_inurba_marseille","lat":43.298764,"lon":5.388973,"is_reserved":false,"is_disabled":false,"rental_uris":{"android":"levelo://app?vid=0b03b6c7-f5b1-4d27-971a-112b5314ee61","ios":"levelo://app?vid=0b03b6c7-f5b1-4d27-971a-112b5314ee61"},"vehicle_type_id":"4","last_reported":1720282109,"current_range_meters":19200,"station_id":"ce4bh392rcd13ifvqdl0","pricing_plan_id":"cebpf4jnsgd1na2vs0mg"},{"bike_id":"1a923b52-55aa-4327-b65d-9669b3905f06","system_id":"levelo_inurba_marseille","lat":43.291671,"lon":5.371575,"is_reserved":false,"is_disabled":false,"rental_uris":{"android":"levelo://app?vid=1a923b52-55aa-4327-b65d-9669b3905f06","ios":"levelo://app?vid=1a923b52-55aa-4327-b65d-9669b3905f06"},"vehicle_type_id":"4","last_reported":1720282109,"current_range_meters":0,"station_id":"ce4bha92rcd13ifvqeh0","pricing_plan_id":"cebpf4jnsgd1na2vs0mg"},{"bike_id":"331c9aa7-5098-4dd4-a798-cfd7d7e804a1","system_id":"levelo_inurba_marseille","lat":43.305714,"lon":5.365633,"is_reserved":false,"is_disabled":false,"rental_uris":{"android":"levelo://app?vid=331c9aa7-5098-4dd4-a798-cfd7d7e804a1","ios":"levelo://app?vid=331c9aa7-5098-4dd4-a798-cfd7d7e804a1"},"vehicle_type_id":"4","last_reported":1720282109,"current_range_meters":0,"station_id":"ce4bgs12rcd13ifvqcag","pricing_plan_id":"cebpf4jnsgd1na2vs0mg"},{"bike_id":"4db08fdc-e75c-4bfa-9ae7-f9871a720adc","system_id":"levelo_inurba_marseille","lat":43.292005,"lon":5.357875,"is_reserved":false,"is_disabled":false,"rental_uris":{"android":"levelo://app?vid=4db08fdc-e75c-4bfa-9ae7-f9871a720adc","ios":"levelo://app?vid=4db08fdc-e75c-4bfa-9ae7-f9871a720adc"},"vehicle_type_id":"4","last_reported":1720282109,"current_range_meters":19200,"station_id":"ce4bhb12rcd13ifvqel0","pricing_plan_id":"cebpf4jnsgd1na2vs0mg"},{"bike_id":"8fb65de3-9687-423d-9c3e-195365bd4a59","system_id":"levelo_inurba_marseille","lat":43.291994,"lon":5.357886,"is_reserved":false,"is_disabled":false,"rental_uris":{"android":"levelo://app?vid=8fb65de3-9687-423d-9c3e-195365bd4a59","ios":"levelo://app?vid=8fb65de3-9687-423d-9c3e-195365bd4a59"},"vehicle_type_id":"4","last_reported":1720282109,"current_range_meters":28400,"station_id":"ce4bhb12rcd13ifvqel0","pricing_plan_id":"cebpf4jnsgd1na2vs0mg"},{"bike_id":"7b97283d-db77-4bbc-8b22-33d05551189b","system_id":"levelo_inurba_marseille","lat":43.291994,"lon":5.357886,"is_reserved":false,"is_disabled":false,"rental_uris":{"android":"levelo://app?vid=7b97283d-db77-4bbc-8b22-33d05551189b","ios":"levelo://app?vid=7b97283d-db77-4bbc-8b22-33d05551189b"},"vehicle_type_id":"4","last_reported":1720282109,"current_range_meters":800,"station_id":"ce4bhb12rcd13ifvqel0","pricing_plan_id":"cebpf4jnsgd1na2vs0mg"},{"bike_id":"58b6dc27-a74f-45bd-9481-cfdc1bf986d2","system_id":"levelo_inurba_marseille","lat":43.291994,"lon":5.357886,"is_reserved":false,"is_disabled":false,"rental_uris":{"android":"levelo://app?vid=58b6dc27-a74f-45bd-9481-cfdc1bf986d2","ios":"levelo://app?vid=58b6dc27-a74f-45bd-9481-cfdc1bf986d2"},"vehicle_type_id":"4","last_reported":1720282109,"current_range_meters":11600,"station_id":"ce4bhb12rcd13ifvqel0","pricing_plan_id":"cebpf4jnsgd1na2vs0mg"},{"bike_id":"01eb015e-8e5f-40a0-be95-7db90e3f5819","system_id":"levelo_inurba_marseille","lat":43.291994,"lon":5.357886,"is_reserved":false,"is_disabled":false,"rental_uris":{"android":"levelo://app?vid=01eb015e-8e5f-40a0-be95-7db90e3f5819","ios":"levelo://app?vid=01eb015e-8e5f-40a0-be95-7db90e3f5819"},"vehicle_type_id":"4","last_reported":1720282109,"current_range_meters":28000,"station_id":"ce4bhb12rcd13ifvqel0","pricing_plan_id":"cebpf4jnsgd1na2vs0mg"},{"bike_id":"f0e633a1-1d5d-4925-af44-2bfed94b299b","system_id":"levelo_inurba_marseille","lat":43.292005,"lon":5.357875,"is_reserved":false,"is_disabled":false,"rental_uris":{"android":"levelo://app?vid=f0e633a1-1d5d-4925-af44-2bfed94b299b","ios":"levelo://app?vid=f0e633a1-1d5d-4925-af44-2bfed94b299b"},"vehicle_type_id":"4","last_reported":1720282109,"current_range_meters":0,"station_id":"ce4bhb12rcd13ifvqel0","pricing_plan_id":"cebpf4jnsgd1na2vs0mg"},{"bike_id":"dee50b52-264e-4edf-928a-a3a10968b5f5","system_id":"levelo_inurba_marseille","lat":43.31326,"lon":5.39692,"is_reserved":false,"is_disabled":false,"rental_uris":{"android":"levelo://app?vid=dee50b52-264e-4edf-928a-a3a10968b5f5","ios":"levelo://app?vid=dee50b52-264e-4edf-928a-a3a10968b5f5"},"vehicle_type_id":"4","last_reported":1720282109,"current_range_meters":14400,"station_id":"ce4bgvp2rcd13ifvqcu0","pricing_plan_id":"cebpf4jnsgd1na2vs0mg"},{"bike_id":"322c3fa5-8b2c-443d-a8b6-4b76d4642525","system_id":"levelo_inurba_marseille","lat":43.313291,"lon":5.396838,"is_reserved":false,"is_disabled":false,"rental_uris":{"android":"levelo://app?vid=322c3fa5-8b2c-443d-a8b6-4b76d4642525","ios":"levelo://app?vid=322c3fa5-8b2c-443d-a8b6-4b76d4642525"},"vehicle_type_id":"4","last_reported":1720282109,"current_range_meters":30000,"station_id":"ce4bgvp2rcd13ifvqcu0","pricing_plan_id":"cebpf4jnsgd1na2vs0mg"},{"bike_id":"b81fa1d3-655b-4e8e-8021-8bb788f65b2f","system_id":"levelo_inurba_marseille","lat":43.313291,"lon":5.396838,"is_reserved":false,"is_disabled":false,"rental_uris":{"android":"levelo://app?vid=b81fa1d3-655b-4e8e-8021-8bb788f65b2f","ios":"levelo://app?vid=b81fa1d3-655b-4e8e-8021-8bb788f65b2f"},"vehicle_type_id":"4","last_reported":1720282109,"current_range_meters":18400,"station_id":"ce4bgvp2rcd13ifvqcu0","pricing_plan_id":"cebpf4jnsgd1na2vs0mg"},{"bike_id":"80efa6ef-40f4-49ca-9afe-fd5bda0e4608","system_id":"levelo_inurba_marseille","lat":43.313291,"lon":5.396838,"is_reserved":false,"is_disabled":false,"rental_uris":{"android":"levelo://app?vid=80efa6ef-40f4-49ca-9afe-fd5bda0e4608","ios":"levelo://app?vid=80efa6ef-40f4-49ca-9afe-fd5bda0e4608"},"vehicle_type_id":"4","last_reported":1720282109,"current_range_meters":28800,"station_id":"ce4bgvp2rcd13ifvqcu0","pricing_plan_id":"cebpf4jnsgd1na2vs0mg"},{"bike_id":"f2643025-9716-43b6-8158-0c23c9002d5d","system_id":"levelo_inurba_marseille","lat":43.313291,"lon":5.396838,"is_reserved":false,"is_disabled":false,"rental_uris":{"android":"levelo://app?vid=f2643025-9716-43b6-8158-0c23c9002d5d","ios":"levelo://app?vid=f2643025-9716-43b6-8158-0c23c9002d5d"},"vehicle_type_id":"4","last_reported":1720282109,"current_range_meters":13600,"station_id":"ce4bgvp2rcd13ifvqcu0","pricing_plan_id":"cebpf4jnsgd1na2vs0mg"},{"bike_id":"3b0727d0-ff9a-44d4-a67b-4e0dffd26a40","system_id":"levelo_inurba_marseille","lat":43.292005,"lon":5.357875,"is_reserved":false,"is_disabled":false,"rental_uris":{"android":"levelo://app?vid=3b0727d0-ff9a-44d4-a67b-4e0dffd26a40","ios":"levelo://app?vid=3b0727d0-ff9a-44d4-a67b-4e0dffd26a40"},"vehicle_type_id":"4","last_reported":1720282109,"current_range_meters":31200,"station_id":"ce4bhb12rcd13ifvqel0","pricing_plan_id":"cebpf4jnsgd1na2vs0mg"},{"bike_id":"d2d25c2a-ce5e-4e4c-b75c-20d1c63cf403","system_id":"levelo_inurba_marseille","lat":43.313291,"lon":5.396838,"is_reserved":false,"is_disabled":false,"rental_uris":{"android":"levelo://app?vid=d2d25c2a-ce5e-4e4c-b75c-20d1c63cf403","ios":"levelo://app?vid=d2d25c2a-ce5e-4e4c-b75c-20d1c63cf403"},"vehicle_type_id":"4","last_reported":1720282109,"current_range_meters":25600,"station_id":"ce4bgvp2rcd13ifvqcu0","pricing_plan_id":"cebpf4jnsgd1na2vs0mg"},{"bike_id":"e83ddcd5-fdc5-405b-8cbd-2a0d62dcc555","system_id":"levelo_inurba_marseille","lat":43.313291,"lon":5.396838,"is_reserved":false,"is_disabled":false,"rental_uris":{"android":"levelo://app?vid=e83ddcd5-fdc5-405b-8cbd-2a0d62dcc555","ios":"levelo://app?vid=e83ddcd5-fdc5-405b-8cbd-2a0d62dcc555"},"vehicle_type_id":"4","last_reported":1720282109,"current_range_meters":24000,"station_id":"ce4bgvp2rcd13ifvqcu0","pricing_plan_id":"cebpf4jnsgd1na2vs0mg"},{"bike_id":"6cfbeef3-65f0-4907-bdf0-d17ec46b6683","system_id":"levelo_inurba_marseille","lat":43.313291,"lon":5.396838,"is_reserved":false,"is_disabled":false,"rental_uris":{"android":"levelo://app?vid=6cfbeef3-65f0-4907-bdf0-d17ec46b6683","ios":"levelo://app?vid=6cfbeef3-65f0-4907-bdf0-d17ec46b6683"},"vehicle_type_id":"4","last_reported":1720282109,"current_range_meters":0,"station_id":"ce4bgvp2rcd13ifvqcu0","pricing_plan_id":"cebpf4jnsgd1na2vs0mg"},{"bike_id":"3498a9b4-4929-4da0-9622-aa79857bbdcc","system_id":"levelo_inurba_marseille","lat":43.313251,"lon":5.397021,"is_reserved":false,"is_disabled":false,"rental_uris":{"android":"levelo://app?vid=3498a9b4-4929-4da0-9622-aa79857bbdcc","ios":"levelo://app?vid=3498a9b4-4929-4da0-9622-aa79857bbdcc"},"vehicle_type_id":"4","last_reported":1720282109,"current_range_meters":3200,"station_id":"ce4bgvp2rcd13ifvqcu0","pricing_plan_id":"cebpf4jnsgd1na2vs0mg"},{"bike_id":"2673111b-92f0-4620-a77f-37870d0e81b6","system_id":"levelo_inurba_marseille","lat":43.313291,"lon":5.396838,"is_reserved":false,"is_disabled":false,"rental_uris":{"android":"levelo://app?vid=2673111b-92f0-4620-a77f-37870d0e81b6","ios":"levelo://app?vid=2673111b-92f0-4620-a77f-37870d0e81b6"},"vehicle_type_id":"4","last_reported":1720282109,"current_range_meters":20400,"station_id":"ce4bgvp2rcd13ifvqcu0","pricing_plan_id":"cebpf4jnsgd1na2vs0mg"},{"bike_id":"3cdef3d1-c2f8-4cff-82ec-5a8fc7ffaa66","system_id":"levelo_inurba_marseille","lat":43.313264,"lon":5.397056,"is_reserved":false,"is_disabled":false,"rental_uris":{"android":"levelo://app?vid=3cdef3d1-c2f8-4cff-82ec-5a8fc7ffaa66","ios":"levelo://app?vid=3cdef3d1-c2f8-4cff-82ec-5a8fc7ffaa66"},"vehicle_type_id":"4","last_reported":1720282109,"current_range_meters":26800,"station_id":"ce4bgvp2rcd13ifvqcu0","pricing_plan_id":"cebpf4jnsgd1na2vs0mg"},{"bike_id":"1a9ac8ff-cd6c-4ae6-9b6e-828765b45d80","system_id":"levelo_inurba_marseille","lat":43.313291,"lon":5.396838,"is_reserved":false,"is_disabled":false,"rental_uris":{"android":"levelo://app?vid=1a9ac8ff-cd6c-4ae6-9b6e-828765b45d80","ios":"levelo://app?vid=1a9ac8ff-cd6c-4ae6-9b6e-828765b45d80"},"vehicle_type_id":"4","last_reported":1720282109,"current_range_meters":15200,"station_id":"ce4bgvp2rcd13ifvqcu0","pricing_plan_id":"cebpf4jnsgd1na2vs0mg"},{"bike_id":"9ecbd498-5a5c-4f76-bd41-ac447bbb0f8b","system_id":"levelo_inurba_marseille","lat":43.313291,"lon":5.396838,"is_reserved":false,"is_disabled":false,"rental_uris":{"android":"levelo://app?vid=9ecbd498-5a5c-4f76-bd41-ac447bbb0f8b","ios":"levelo://app?vid=9ecbd498-5a5c-4f76-bd41-ac447bbb0f8b"},"vehicle_type_id":"4","last_reported":1720282109,"current_range_meters":10000,"station_id":"ce4bgvp2rcd13ifvqcu0","pricing_plan_id":"cebpf4jnsgd1na2vs0mg"},{"bike_id":"bab0874f-f27f-4663-8f43-7051300478ce","system_id":"levelo_inurba_marseille","lat":43.313291,"lon":5.396838,"is_reserved":false,"is_disabled":false,"rental_uris":{"android":"levelo://app?vid=bab0874f-f27f-4663-8f43-7051300478ce","ios":"levelo://app?vid=bab0874f-f27f-4663-8f43-7051300478ce"},"vehicle_type_id":"4","last_reported":1720282109,"current_range_meters":4800,"station_id":"ce4bgvp2rcd13ifvqcu0","pricing_plan_id":"cebpf4jnsgd1na2vs0mg"},{"bike_id":"49261288-fb85-4976-bffa-87abd64f1bda","system_id":"levelo_inurba_marseille","lat":43.3133,"lon":5.39713,"is_reserved":false,"is_disabled":false,"rental_uris":{"android":"levelo://app?vid=49261288-fb85-4976-bffa-87abd64f1bda","ios":"levelo://app?vid=49261288-fb85-4976-bffa-87abd64f1bda"},"vehicle_type_id":"4","last_reported":1720282109,"current_range_meters":31200,"station_id":"ce4bgvp2rcd13ifvqcu0","pricing_plan_id":"cebpf4jnsgd1na2vs0mg"},{"bike_id":"adec6608-aa9c-4573-8a3d-11d0f89b3b29","system_id":"levelo_inurba_marseille","lat":43.295713,"lon":5.399639,"is_reserved":false,"is_disabled":false,"rental_uris":{"android":"levelo://app?vid=adec6608-aa9c-4573-8a3d-11d0f89b3b29","ios":"levelo://app?vid=adec6608-aa9c-4573-8a3d-11d0f89b3b29"},"vehicle_type_id":"4","last_reported":1720282109,"current_range_meters":6000,"station_id":"ce4bh312rcd13ifvqdj0","pricing_plan_id":"cebpf4jnsgd1na2vs0mg"},{"bike_id":"da7573f1-409e-4aff-aea5-58120187b21e","system_id":"levelo_inurba_marseille","lat":43.290624,"lon":5.359245,"is_reserved":false,"is_disabled":false,"rental_uris":{"android":"levelo://app?vid=da7573f1-409e-4aff-aea5-58120187b21e","ios":"levelo://app?vid=da7573f1-409e-4aff-aea5-58120187b21e"},"vehicle_type_id":"4","last_reported":1720282109,"current_range_meters":8000,"station_id":"ce4bha92rcd13ifvqeg0","pricing_plan_id":"cebpf4jnsgd1na2vs0mg"},{"bike_id":"b9af6b6d-6fee-449e-993f-54461f1d31a9","system_id":"levelo_inurba_marseille","lat":43.290624,"lon":5.359245,"is_reserved":false,"is_disabled":false,"rental_uris":{"android":"levelo://app?vid=b9af6b6d-6fee-449e-993f-54461f1d31a9","ios":"levelo://app?vid=b9af6b6d-6fee-449e-993f-54461f1d31a9"},"vehicle_type_id":"4","last_reported":1720282109,"current_range_meters":9600,"station_id":"ce4bha92rcd13ifvqeg0","pricing_plan_id":"cebpf4jnsgd1na2vs0mg"},{"bike_id":"9a55ae70-8d4b-43ca-bf8b-2d710cb99a6e","system_id":"levelo_inurba_marseille","lat":43.290631,"lon":5.359244,"is_reserved":false,"is_disabled":false,"rental_uris":{"android":"levelo://app?vid=9a55ae70-8d4b-43ca-bf8b-2d710cb99a6e","ios":"levelo://app?vid=9a55ae70-8d4b-43ca-bf8b-2d710cb99a6e"},"vehicle_type_id":"4","last_reported":1720282109,"current_range_meters":19600,"station_id":"ce4bha92rcd13ifvqeg0","pricing_plan_id":"cebpf4jnsgd1na2vs0mg"},{"bike_id":"fe9175aa-59fb-442b-a235-6fba83ae12a4","system_id":"levelo_inurba_marseille","lat":43.290624,"lon":5.359245,"is_reserved":false,"is_disabled":false,"rental_uris":{"android":"levelo://app?vid=fe9175aa-59fb-442b-a235-6fba83ae12a4","ios":"levelo://app?vid=fe9175aa-59fb-442b-a235-6fba83ae12a4"},"vehicle_type_id":"4","last_reported":1720282109,"current_range_meters":31600,"station_id":"ce4bha92rcd13ifvqeg0","pricing_plan_id":"cebpf4jnsgd1na2vs0mg"},{"bike_id":"bcdf0df7-2bc5-44d0-9c55-87368ff9074d","system_id":"levelo_inurba_marseille","lat":43.294153,"lon":5.386305,"is_reserved":false,"is_disabled":false,"rental_uris":{"android":"levelo://app?vid=bcdf0df7-2bc5-44d0-9c55-87368ff9074d","ios":"levelo://app?vid=bcdf0df7-2bc5-44d0-9c55-87368ff9074d"},"vehicle_type_id":"4","last_reported":1720282109,"current_range_meters":5200,"station_id":"ce4bh2h2rcd13ifvqdh0","pricing_plan_id":"cebpf4jnsgd1na2vs0mg"},{"bike_id":"e3630258-3f21-4fac-87bc-935fcdd858ff","system_id":"levelo_inurba_marseille","lat":43.289184,"lon":5.366408,"is_reserved":false,"is_disabled":false,"rental_uris":{"android":"levelo://app?vid=e3630258-3f21-4fac-87bc-935fcdd858ff","ios":"levelo://app?vid=e3630258-3f21-4fac-87bc-935fcdd858ff"},"vehicle_type_id":"4","last_reported":1720282109,"current_range_meters":400,"station_id":"ce4bhap2rcd13ifvqek0","pricing_plan_id":"cebpf4jnsgd1na2vs0mg"},{"bike_id":"b0d3f0ce-6323-4a44-b832-b83f4c806a53","system_id":"levelo_inurba_marseille","lat":43.2905,"lon":5.37795,"is_reserved":false,"is_disabled":false,"rental_uris":{"android":"levelo://app?vid=b0d3f0ce-6323-4a44-b832-b83f4c806a53","ios":"levelo://app?vid=b0d3f0ce-6323-4a44-b832-b83f4c806a53"},"vehicle_type_id":"4","last_reported":1720282109,"current_range_meters":0,"station_id":"","pricing_plan_id":"cebpf4jnsgd1na2vs0mg"},{"bike_id":"84fe7668-84ab-42ed-9448-02f9e50bca3d","system_id":"levelo_inurba_marseille","lat":43.304296,"lon":5.397513,"is_reserved":false,"is_disabled":false,"rental_uris":{"android":"levelo://app?vid=84fe7668-84ab-42ed-9448-02f9e50bca3d","ios":"levelo://app?vid=84fe7668-84ab-42ed-9448-02f9e50bca3d"},"vehicle_type_id":"4","last_reported":1720282109,"current_range_meters":20400,"station_id":"ce4bh092rcd13ifvqd20","pricing_plan_id":"cebpf4jnsgd1na2vs0mg"},{"bike_id":"5ca57c94-d6cb-470a-bf0d-df8d23540433","system_id":"levelo_inurba_marseille","lat":43.292644,"lon":5.384257,"is_reserved":false,"is_disabled":false,"rental_uris":{"android":"levelo://app?vid=5ca57c94-d6cb-470a-bf0d-df8d23540433","ios":"levelo://app?vid=5ca57c94-d6cb-470a-bf0d-df8d23540433"},"vehicle_type_id":"4","last_reported":1720282109,"current_range_meters":23200,"station_id":"ce4bh692rcd13ifvqea0","pricing_plan_id":"cebpf4jnsgd1na2vs0mg"},{"bike_id":"028d6fa4-926c-4eaa-8d84-cef2c5263eab","system_id":"levelo_inurba_marseille","lat":43.29009,"lon":5.35622,"is_reserved":false,"is_disabled":false,"rental_uris":{"android":"levelo://app?vid=028d6fa4-926c-4eaa-8d84-cef2c5263eab","ios":"levelo://app?vid=028d6fa4-926c-4eaa-8d84-cef2c5263eab"},"vehicle_type_id":"4","last_reported":1720282109,"current_range_meters":800,"station_id":"ce4bhb92rcd13ifvqen0","pricing_plan_id":"cebpf4jnsgd1na2vs0mg"},{"bike_id":"5a7325e8-0b0e-40bb-a064-75220cabdc48","system_id":"levelo_inurba_marseille","lat":43.290103,"lon":5.356114,"is_reserved":false,"is_disabled":false,"rental_uris":{"android":"levelo://app?vid=5a7325e8-0b0e-40bb-a064-75220cabdc48","ios":"levelo://app?vid=5a7325e8-0b0e-40bb-a064-75220cabdc48"},"vehicle_type_id":"4","last_reported":1720282109,"current_range_meters":11600,"station_id":"ce4bhb92rcd13ifvqen0","pricing_plan_id":"cebpf4jnsgd1na2vs0mg"},{"bike_id":"715be9b1-557d-4d71-965c-29f7ecc4c633","system_id":"levelo_inurba_marseille","lat":43.290104,"lon":5.356111,"is_reserved":false,"is_disabled":false,"rental_uris":{"android":"levelo://app?vid=715be9b1-557d-4d71-965c-29f7ecc4c633","ios":"levelo://app?vid=715be9b1-557d-4d71-965c-29f7ecc4c633"},"vehicle_type_id":"4","last_reported":1720282109,"current_range_meters":0,"station_id":"ce4bhb92rcd13ifvqen0","pricing_plan_id":"cebpf4jnsgd1na2vs0mg"},{"bike_id":"5d66fd46-64f8-4d87-aef1-f4902305218c","system_id":"levelo_inurba_marseille","lat":43.290103,"lon":5.356114,"is_reserved":false,"is_disabled":false,"rental_uris":{"android":"levelo://app?vid=5d66fd46-64f8-4d87-aef1-f4902305218c","ios":"levelo://app?vid=5d66fd46-64f8-4d87-aef1-f4902305218c"},"vehicle_type_id":"4","last_reported":1720282109,"current_range_meters":3600,"station_id":"ce4bhb92rcd13ifvqen0","pricing_plan_id":"cebpf4jnsgd1na2vs0mg"},{"bike_id":"5be03b62-7bb1-4b3b-904c-c998c0db1dd4","system_id":"levelo_inurba_marseille","lat":43.290103,"lon":5.356114,"is_reserved":false,"is_disabled":false,"rental_uris":{"android":"levelo://app?vid=5be03b62-7bb1-4b3b-904c-c998c0db1dd4","ios":"levelo://app?vid=5be03b62-7bb1-4b3b-904c-c998c0db1dd4"},"vehicle_type_id":"4","last_reported":1720282109,"current_range_meters":17200,"station_id":"ce4bhb92rcd13ifvqen0","pricing_plan_id":"cebpf4jnsgd1na2vs0mg"},{"bike_id":"256919a7-a997-44ad-952c-e70dafa16046","system_id":"levelo_inurba_marseille","lat":43.290103,"lon":5.356114,"is_reserved":false,"is_disabled":false,"rental_uris":{"android":"levelo://app?vid=256919a7-a997-44ad-952c-e70dafa16046","ios":"levelo://app?vid=256919a7-a997-44ad-952c-e70dafa16046"},"vehicle_type_id":"4","last_reported":1720282109,"current_range_meters":28000,"station_id":"ce4bhb92rcd13ifvqen0","pricing_plan_id":"cebpf4jnsgd1na2vs0mg"},{"bike_id":"93c123f1-14ac-429f-9d06-6aaf495be940","system_id":"levelo_inurba_marseille","lat":43.290103,"lon":5.356114,"is_reserved":false,"is_disabled":false,"rental_uris":{"android":"levelo://app?vid=93c123f1-14ac-429f-9d06-6aaf495be940","ios":"levelo://app?vid=93c123f1-14ac-429f-9d06-6aaf495be940"},"vehicle_type_id":"4","last_reported":1720282109,"current_range_meters":400,"station_id":"ce4bhb92rcd13ifvqen0","pricing_plan_id":"cebpf4jnsgd1na2vs0mg"},{"bike_id":"014c0d1f-c26e-4722-a0ff-d5ecc019b8c5","system_id":"levelo_inurba_marseille","lat":43.29,"lon":5.35611,"is_reserved":false,"is_disabled":false,"rental_uris":{"android":"levelo://app?vid=014c0d1f-c26e-4722-a0ff-d5ecc019b8c5","ios":"levelo://app?vid=014c0d1f-c26e-4722-a0ff-d5ecc019b8c5"},"vehicle_type_id":"4","last_reported":1720282109,"current_range_meters":0,"station_id":"ce4bhb92rcd13ifvqen0","pricing_plan_id":"cebpf4jnsgd1na2vs0mg"},{"bike_id":"c0e96f1b-c3b3-4955-9b85-ac33ba6e4717","system_id":"levelo_inurba_marseille","lat":43.290103,"lon":5.356114,"is_reserved":false,"is_disabled":false,"rental_uris":{"android":"levelo://app?vid=c0e96f1b-c3b3-4955-9b85-ac33ba6e4717","ios":"levelo://app?vid=c0e96f1b-c3b3-4955-9b85-ac33ba6e4717"},"vehicle_type_id":"4","last_reported":1720282109,"current_range_meters":1200,"station_id":"ce4bhb92rcd13ifvqen0","pricing_plan_id":"cebpf4jnsgd1na2vs0mg"},{"bike_id":"c582eccf-5b66-482f-a89f-fd32ca64c892","system_id":"levelo_inurba_marseille","lat":43.290103,"lon":5.356114,"is_reserved":false,"is_disabled":false,"rental_uris":{"android":"levelo://app?vid=c582eccf-5b66-482f-a89f-fd32ca64c892","ios":"levelo://app?vid=c582eccf-5b66-482f-a89f-fd32ca64c892"},"vehicle_type_id":"4","last_reported":1720282109,"current_range_meters":10000,"station_id":"ce4bhb92rcd13ifvqen0","pricing_plan_id":"cebpf4jnsgd1na2vs0mg"},{"bike_id":"3af79c46-2b9c-474d-928f-9caec820645a","system_id":"levelo_inurba_marseille","lat":43.298252,"lon":5.393573,"is_reserved":false,"is_disabled":false,"rental_uris":{"android":"levelo://app?vid=3af79c46-2b9c-474d-928f-9caec820645a","ios":"levelo://app?vid=3af79c46-2b9c-474d-928f-9caec820645a"},"vehicle_type_id":"4","last_reported":1720282109,"current_range_meters":18000,"station_id":"chh1huq6cuj3fo74tm60","pricing_plan_id":"cebpf4jnsgd1na2vs0mg"},{"bike_id":"995914d8-d4aa-431e-bec1-bc576f13236c","system_id":"levelo_inurba_marseille","lat":43.2979,"lon":5.39329,"is_reserved":false,"is_disabled":false,"rental_uris":{"android":"levelo://app?vid=995914d8-d4aa-431e-bec1-bc576f13236c","ios":"levelo://app?vid=995914d8-d4aa-431e-bec1-bc576f13236c"},"vehicle_type_id":"4","last_reported":1720282109,"current_range_meters":28800,"station_id":"chh1huq6cuj3fo74tm60","pricing_plan_id":"cebpf4jnsgd1na2vs0mg"},{"bike_id":"ae3901fd-5e7d-45bd-a92f-9e644e2c3794","system_id":"levelo_inurba_marseille","lat":43.297815,"lon":5.393548,"is_reserved":false,"is_disabled":false,"rental_uris":{"android":"levelo://app?vid=ae3901fd-5e7d-45bd-a92f-9e644e2c3794","ios":"levelo://app?vid=ae3901fd-5e7d-45bd-a92f-9e644e2c3794"},"vehicle_type_id":"4","last_reported":1720282109,"current_range_meters":20000,"station_id":"chh1huq6cuj3fo74tm60","pricing_plan_id":"cebpf4jnsgd1na2vs0mg"},{"bike_id":"326b6629-f9d6-468f-afb7-39025300b18c","system_id":"levelo_inurba_marseille","lat":43.297815,"lon":5.393548,"is_reserved":false,"is_disabled":false,"rental_uris":{"android":"levelo://app?vid=326b6629-f9d6-468f-afb7-39025300b18c","ios":"levelo://app?vid=326b6629-f9d6-468f-afb7-39025300b18c"},"vehicle_type_id":"4","last_reported":1720282109,"current_range_meters":31200,"station_id":"chh1huq6cuj3fo74tm60","pricing_plan_id":"cebpf4jnsgd1na2vs0mg"},{"bike_id":"402d6bb6-79ad-4d6e-824d-6e78441e7dba","system_id":"levelo_inurba_marseille","lat":43.29775,"lon":5.39338,"is_reserved":false,"is_disabled":false,"rental_uris":{"android":"levelo://app?vid=402d6bb6-79ad-4d6e-824d-6e78441e7dba","ios":"levelo://app?vid=402d6bb6-79ad-4d6e-824d-6e78441e7dba"},"vehicle_type_id":"4","last_reported":1720282109,"current_range_meters":31200,"station_id":"chh1huq6cuj3fo74tm60","pricing_plan_id":"cebpf4jnsgd1na2vs0mg"},{"bike_id":"30cec6f4-5b8a-4628-82ec-a445000cfdb7","system_id":"levelo_inurba_marseille","lat":43.33021,"lon":5.39042,"is_reserved":false,"is_disabled":false,"rental_uris":{"android":"levelo://app?vid=30cec6f4-5b8a-4628-82ec-a445000cfdb7","ios":"levelo://app?vid=30cec6f4-5b8a-4628-82ec-a445000cfdb7"},"vehicle_type_id":"4","last_reported":1720282109,"current_range_meters":0,"station_id":"ce4bhr92rcd13ifvqhrg","pricing_plan_id":"cebpf4jnsgd1na2vs0mg"},{"bike_id":"de79cdca-d75c-4c52-871a-b710042dc3ef","system_id":"levelo_inurba_marseille","lat":43.33024,"lon":5.39041,"is_reserved":false,"is_disabled":false,"rental_uris":{"android":"levelo://app?vid=de79cdca-d75c-4c52-871a-b710042dc3ef","ios":"levelo://app?vid=de79cdca-d75c-4c52-871a-b710042dc3ef"},"vehicle_type_id":"4","last_reported":1720282109,"current_range_meters":3200,"station_id":"ce4bhr92rcd13ifvqhrg","pricing_plan_id":"cebpf4jnsgd1na2vs0mg"},{"bike_id":"f2b653db-954a-4a4c-ba44-704de3705fb9","system_id":"levelo_inurba_marseille","lat":43.295169,"lon":5.390426,"is_reserved":false,"is_disabled":false,"rental_uris":{"android":"levelo://app?vid=f2b653db-954a-4a4c-ba44-704de3705fb9","ios":"levelo://app?vid=f2b653db-954a-4a4c-ba44-704de3705fb9"},"vehicle_type_id":"4","last_reported":1720282109,"current_range_meters":12800,"station_id":"ce4bh3p2rcd13ifvqdp0","pricing_plan_id":"cebpf4jnsgd1na2vs0mg"},{"bike_id":"52b4c538-e12c-46b8-94b8-12452888caf8","system_id":"levelo_inurba_marseille","lat":43.28856,"lon":5.358371,"is_reserved":false,"is_disabled":false,"rental_uris":{"android":"levelo://app?vid=52b4c538-e12c-46b8-94b8-12452888caf8","ios":"levelo://app?vid=52b4c538-e12c-46b8-94b8-12452888caf8"},"vehicle_type_id":"4","last_reported":1720282109,"current_range_meters":800,"station_id":"ce4bhb12rcd13ifvqem0","pricing_plan_id":"cebpf4jnsgd1na2vs0mg"},{"bike_id":"c84fd0d1-c961-4e9c-92b6-b728a32ab31a","system_id":"levelo_inurba_marseille","lat":43.28856,"lon":5.358371,"is_reserved":false,"is_disabled":false,"rental_uris":{"android":"levelo://app?vid=c84fd0d1-c961-4e9c-92b6-b728a32ab31a","ios":"levelo://app?vid=c84fd0d1-c961-4e9c-92b6-b728a32ab31a"},"vehicle_type_id":"4","last_reported":1720282109,"current_range_meters":25600,"station_id":"ce4bhb12rcd13ifvqem0","pricing_plan_id":"cebpf4jnsgd1na2vs0mg"},{"bike_id":"f6862771-dd04-44bf-9c0f-a9a052967a65","system_id":"levelo_inurba_marseille","lat":43.28856,"lon":5.358371,"is_reserved":false,"is_disabled":false,"rental_uris":{"android":"levelo://app?vid=f6862771-dd04-44bf-9c0f-a9a052967a65","ios":"levelo://app?vid=f6862771-dd04-44bf-9c0f-a9a052967a65"},"vehicle_type_id":"4","last_reported":1720282109,"current_range_meters":4800,"station_id":"ce4bhb12rcd13ifvqem0","pricing_plan_id":"cebpf4jnsgd1na2vs0mg"},{"bike_id":"836012cb-dc36-4c55-a44f-565d1d1fb903","system_id":"levelo_inurba_marseille","lat":43.28856,"lon":5.358371,"is_reserved":false,"is_disabled":false,"rental_uris":{"android":"levelo://app?vid=836012cb-dc36-4c55-a44f-565d1d1fb903","ios":"levelo://app?vid=836012cb-dc36-4c55-a44f-565d1d1fb903"},"vehicle_type_id":"4","last_reported":1720282109,"current_range_meters":23600,"station_id":"ce4bhb12rcd13ifvqem0","pricing_plan_id":"cebpf4jnsgd1na2vs0mg"},{"bike_id":"fb7195b0-cdfe-4c0a-b21b-6b0ee80b693c","system_id":"levelo_inurba_marseille","lat":43.28856,"lon":5.358371,"is_reserved":false,"is_disabled":false,"rental_uris":{"android":"levelo://app?vid=fb7195b0-cdfe-4c0a-b21b-6b0ee80b693c","ios":"levelo://app?vid=fb7195b0-cdfe-4c0a-b21b-6b0ee80b693c"},"vehicle_type_id":"4","last_reported":1720282109,"current_range_meters":7200,"station_id":"ce4bhb12rcd13ifvqem0","pricing_plan_id":"cebpf4jnsgd1na2vs0mg"},{"bike_id":"0605d7c2-1fe3-4178-a5af-1a72291b2120","system_id":"levelo_inurba_marseille","lat":43.294162,"lon":5.386292,"is_reserved":false,"is_disabled":false,"rental_uris":{"android":"levelo://app?vid=0605d7c2-1fe3-4178-a5af-1a72291b2120","ios":"levelo://app?vid=0605d7c2-1fe3-4178-a5af-1a72291b2120"},"vehicle_type_id":"4","last_reported":1720282109,"current_range_meters":17600,"station_id":"ce4bh2h2rcd13ifvqdh0","pricing_plan_id":"cebpf4jnsgd1na2vs0mg"},{"bike_id":"3a405dde-84bd-4822-9d1d-ee083e02fffd","system_id":"levelo_inurba_marseille","lat":43.309371,"lon":5.401449,"is_reserved":false,"is_disabled":false,"rental_uris":{"android":"levelo://app?vid=3a405dde-84bd-4822-9d1d-ee083e02fffd","ios":"levelo://app?vid=3a405dde-84bd-4822-9d1d-ee083e02fffd"},"vehicle_type_id":"4","last_reported":1720282109,"current_range_meters":29200,"station_id":"ce4bgvp2rcd13ifvqct0","pricing_plan_id":"cebpf4jnsgd1na2vs0mg"},{"bike_id":"88f27a2f-daa4-4dfc-b23a-0cfd244fc967","system_id":"levelo_inurba_marseille","lat":43.337446,"lon":5.374518,"is_reserved":false,"is_disabled":false,"rental_uris":{"android":"levelo://app?vid=88f27a2f-daa4-4dfc-b23a-0cfd244fc967","ios":"levelo://app?vid=88f27a2f-daa4-4dfc-b23a-0cfd244fc967"},"vehicle_type_id":"4","last_reported":1720282109,"current_range_meters":10800,"station_id":"","pricing_plan_id":"cebpf4jnsgd1na2vs0mg"},{"bike_id":"401b4d40-5bdf-4246-9e9a-f420e4bf5a06","system_id":"levelo_inurba_marseille","lat":43.309371,"lon":5.401449,"is_reserved":false,"is_disabled":false,"rental_uris":{"android":"levelo://app?vid=401b4d40-5bdf-4246-9e9a-f420e4bf5a06","ios":"levelo://app?vid=401b4d40-5bdf-4246-9e9a-f420e4bf5a06"},"vehicle_type_id":"4","last_reported":1720282109,"current_range_meters":0,"station_id":"ce4bgvp2rcd13ifvqct0","pricing_plan_id":"cebpf4jnsgd1na2vs0mg"},{"bike_id":"fdbfcc29-04c6-4739-ba7e-441fb2e2593e","system_id":"levelo_inurba_marseille","lat":43.33747,"lon":5.37461,"is_reserved":false,"is_disabled":false,"rental_uris":{"android":"levelo://app?vid=fdbfcc29-04c6-4739-ba7e-441fb2e2593e","ios":"levelo://app?vid=fdbfcc29-04c6-4739-ba7e-441fb2e2593e"},"vehicle_type_id":"4","last_reported":1720282109,"current_range_meters":21200,"station_id":"","pricing_plan_id":"cebpf4jnsgd1na2vs0mg"},{"bike_id":"41fcb31e-469f-4a07-8a88-fbe57c2d85f5","system_id":"levelo_inurba_marseille","lat":43.33755,"lon":5.37455,"is_reserved":false,"is_disabled":false,"rental_uris":{"android":"levelo://app?vid=41fcb31e-469f-4a07-8a88-fbe57c2d85f5","ios":"levelo://app?vid=41fcb31e-469f-4a07-8a88-fbe57c2d85f5"},"vehicle_type_id":"4","last_reported":1720282109,"current_range_meters":27200,"station_id":"","pricing_plan_id":"cebpf4jnsgd1na2vs0mg"},{"bike_id":"d18fc15d-e9a7-4dbb-9aed-fc17bcc86552","system_id":"levelo_inurba_marseille","lat":43.337614,"lon":5.374326,"is_reserved":false,"is_disabled":false,"rental_uris":{"android":"levelo://app?vid=d18fc15d-e9a7-4dbb-9aed-fc17bcc86552","ios":"levelo://app?vid=d18fc15d-e9a7-4dbb-9aed-fc17bcc86552"},"vehicle_type_id":"4","last_reported":1720282109,"current_range_meters":17200,"station_id":"","pricing_plan_id":"cebpf4jnsgd1na2vs0mg"},{"bike_id":"22664dbb-05c6-44b7-ac76-723d395f476e","system_id":"levelo_inurba_marseille","lat":43.337619,"lon":5.374298,"is_reserved":false,"is_disabled":false,"rental_uris":{"android":"levelo://app?vid=22664dbb-05c6-44b7-ac76-723d395f476e","ios":"levelo://app?vid=22664dbb-05c6-44b7-ac76-723d395f476e"},"vehicle_type_id":"4","last_reported":1720282109,"current_range_meters":29200,"station_id":"","pricing_plan_id":"cebpf4jnsgd1na2vs0mg"},{"bike_id":"e8043679-5e2d-45ca-af32-4c2eeb2d3b4d","system_id":"levelo_inurba_marseille","lat":43.337633,"lon":5.374333,"is_reserved":false,"is_disabled":false,"rental_uris":{"android":"levelo://app?vid=e8043679-5e2d-45ca-af32-4c2eeb2d3b4d","ios":"levelo://app?vid=e8043679-5e2d-45ca-af32-4c2eeb2d3b4d"},"vehicle_type_id":"4","last_reported":1720282109,"current_range_meters":19200,"station_id":"","pricing_plan_id":"cebpf4jnsgd1na2vs0mg"},{"bike_id":"ba77c056-6fe7-4228-884f-a9f07e3f5ccc","system_id":"levelo_inurba_marseille","lat":43.337658,"lon":5.374339,"is_reserved":false,"is_disabled":false,"rental_uris":{"android":"levelo://app?vid=ba77c056-6fe7-4228-884f-a9f07e3f5ccc","ios":"levelo://app?vid=ba77c056-6fe7-4228-884f-a9f07e3f5ccc"},"vehicle_type_id":"4","last_reported":1720282109,"current_range_meters":29600,"station_id":"ce4rr2p2rcd13i802rgg","pricing_plan_id":"cebpf4jnsgd1na2vs0mg"},{"bike_id":"ca28a750-034c-4926-945c-7b5f8a0741a9","system_id":"levelo_inurba_marseille","lat":43.33765,"lon":5.3745,"is_reserved":false,"is_disabled":false,"rental_uris":{"android":"levelo://app?vid=ca28a750-034c-4926-945c-7b5f8a0741a9","ios":"levelo://app?vid=ca28a750-034c-4926-945c-7b5f8a0741a9"},"vehicle_type_id":"4","last_reported":1720282109,"current_range_meters":31200,"station_id":"","pricing_plan_id":"cebpf4jnsgd1na2vs0mg"},{"bike_id":"d535e9a1-082c-4898-8452-fad0d14ce912","system_id":"levelo_inurba_marseille","lat":43.306412,"lon":5.401035,"is_reserved":false,"is_disabled":false,"rental_uris":{"android":"levelo://app?vid=d535e9a1-082c-4898-8452-fad0d14ce912","ios":"levelo://app?vid=d535e9a1-082c-4898-8452-fad0d14ce912"},"vehicle_type_id":"4","last_reported":1720282109,"current_range_meters":0,"station_id":"ce4bh112rcd13ifvqda0","pricing_plan_id":"cebpf4jnsgd1na2vs0mg"},{"bike_id":"568e51fe-3317-4e32-82a4-2bd4944c6912","system_id":"levelo_inurba_marseille","lat":43.33773,"lon":5.37429,"is_reserved":false,"is_disabled":false,"rental_uris":{"android":"levelo://app?vid=568e51fe-3317-4e32-82a4-2bd4944c6912","ios":"levelo://app?vid=568e51fe-3317-4e32-82a4-2bd4944c6912"},"vehicle_type_id":"4","last_reported":1720282109,"current_range_meters":6800,"station_id":"","pricing_plan_id":"cebpf4jnsgd1na2vs0mg"},{"bike_id":"a67dd511-29fb-412a-80cc-9edb4c6216cd","system_id":"levelo_inurba_marseille","lat":43.301117,"lon":5.398795,"is_reserved":false,"is_disabled":false,"rental_uris":{"android":"levelo://app?vid=a67dd511-29fb-412a-80cc-9edb4c6216cd","ios":"levelo://app?vid=a67dd511-29fb-412a-80cc-9edb4c6216cd"},"vehicle_type_id":"4","last_reported":1720282109,"current_range_meters":5200,"station_id":"ce4bh0h2rcd13ifvqd40","pricing_plan_id":"cebpf4jnsgd1na2vs0mg"},{"bike_id":"0e40af56-abb2-4d56-a05e-75e57043aeff","system_id":"levelo_inurba_marseille","lat":43.301117,"lon":5.398795,"is_reserved":false,"is_disabled":false,"rental_uris":{"android":"levelo://app?vid=0e40af56-abb2-4d56-a05e-75e57043aeff","ios":"levelo://app?vid=0e40af56-abb2-4d56-a05e-75e57043aeff"},"vehicle_type_id":"4","last_reported":1720282109,"current_range_meters":3200,"station_id":"ce4bh0h2rcd13ifvqd40","pricing_plan_id":"cebpf4jnsgd1na2vs0mg"},{"bike_id":"c37f6d69-b978-4e22-821a-1b0aef00303a","system_id":"levelo_inurba_marseille","lat":43.286591,"lon":5.363346,"is_reserved":false,"is_disabled":false,"rental_uris":{"android":"levelo://app?vid=c37f6d69-b978-4e22-821a-1b0aef00303a","ios":"levelo://app?vid=c37f6d69-b978-4e22-821a-1b0aef00303a"},"vehicle_type_id":"4","last_reported":1720282109,"current_range_meters":9200,"station_id":"ce4bhah2rcd13ifvqej0","pricing_plan_id":"cebpf4jnsgd1na2vs0mg"},{"bike_id":"adb3df94-548a-4394-a978-53e0efecb92b","system_id":"levelo_inurba_marseille","lat":43.298681,"lon":5.397225,"is_reserved":false,"is_disabled":false,"rental_uris":{"android":"levelo://app?vid=adb3df94-548a-4394-a978-53e0efecb92b","ios":"levelo://app?vid=adb3df94-548a-4394-a978-53e0efecb92b"},"vehicle_type_id":"4","last_reported":1720282109,"current_range_meters":6400,"station_id":"ce4bh0h2rcd13ifvqd50","pricing_plan_id":"cebpf4jnsgd1na2vs0mg"},{"bike_id":"17a3addd-0b7d-4250-9f48-351d855129b0","system_id":"levelo_inurba_marseille","lat":43.286593,"lon":5.363346,"is_reserved":false,"is_disabled":false,"rental_uris":{"android":"levelo://app?vid=17a3addd-0b7d-4250-9f48-351d855129b0","ios":"levelo://app?vid=17a3addd-0b7d-4250-9f48-351d855129b0"},"vehicle_type_id":"4","last_reported":1720282109,"current_range_meters":16400,"station_id":"ce4bhah2rcd13ifvqej0","pricing_plan_id":"cebpf4jnsgd1na2vs0mg"},{"bike_id":"c661dffd-749e-4a9a-9e75-830dbb5665f7","system_id":"levelo_inurba_marseille","lat":43.286591,"lon":5.363346,"is_reserved":false,"is_disabled":false,"rental_uris":{"android":"levelo://app?vid=c661dffd-749e-4a9a-9e75-830dbb5665f7","ios":"levelo://app?vid=c661dffd-749e-4a9a-9e75-830dbb5665f7"},"vehicle_type_id":"4","last_reported":1720282109,"current_range_meters":17600,"station_id":"ce4bhah2rcd13ifvqej0","pricing_plan_id":"cebpf4jnsgd1na2vs0mg"},{"bike_id":"85273a09-9ce5-4231-83f6-a844cb1b31e0","system_id":"levelo_inurba_marseille","lat":43.295196,"lon":5.39397,"is_reserved":false,"is_disabled":false,"rental_uris":{"android":"levelo://app?vid=85273a09-9ce5-4231-83f6-a844cb1b31e0","ios":"levelo://app?vid=85273a09-9ce5-4231-83f6-a844cb1b31e0"},"vehicle_type_id":"4","last_reported":1720282109,"current_range_meters":3600,"station_id":"ce4bh292rcd13ifvqdf0","pricing_plan_id":"cebpf4jnsgd1na2vs0mg"},{"bike_id":"276f6d92-1564-4b38-aca6-66d4dde14226","system_id":"levelo_inurba_marseille","lat":43.298681,"lon":5.397225,"is_reserved":false,"is_disabled":false,"rental_uris":{"android":"levelo://app?vid=276f6d92-1564-4b38-aca6-66d4dde14226","ios":"levelo://app?vid=276f6d92-1564-4b38-aca6-66d4dde14226"},"vehicle_type_id":"4","last_reported":1720282109,"current_range_meters":9600,"station_id":"ce4bh0h2rcd13ifvqd50","pricing_plan_id":"cebpf4jnsgd1na2vs0mg"},{"bike_id":"e00854de-8725-4352-b3da-5f90529b61e0","system_id":"levelo_inurba_marseille","lat":43.286593,"lon":5.363346,"is_reserved":false,"is_disabled":false,"rental_uris":{"android":"levelo://app?vid=e00854de-8725-4352-b3da-5f90529b61e0","ios":"levelo://app?vid=e00854de-8725-4352-b3da-5f90529b61e0"},"vehicle_type_id":"4","last_reported":1720282109,"current_range_meters":8800,"station_id":"ce4bhah2rcd13ifvqej0","pricing_plan_id":"cebpf4jnsgd1na2vs0mg"},{"bike_id":"03375dda-501d-4526-a38b-0bba14c02330","system_id":"levelo_inurba_marseille","lat":43.286591,"lon":5.363346,"is_reserved":false,"is_disabled":false,"rental_uris":{"android":"levelo://app?vid=03375dda-501d-4526-a38b-0bba14c02330","ios":"levelo://app?vid=03375dda-501d-4526-a38b-0bba14c02330"},"vehicle_type_id":"4","last_reported":1720282109,"current_range_meters":7200,"station_id":"ce4bhah2rcd13ifvqej0","pricing_plan_id":"cebpf4jnsgd1na2vs0mg"},{"bike_id":"108200cd-0707-4f10-a40c-4ae8f8e58a1a","system_id":"levelo_inurba_marseille","lat":43.295196,"lon":5.39397,"is_reserved":false,"is_disabled":false,"rental_uris":{"android":"levelo://app?vid=108200cd-0707-4f10-a40c-4ae8f8e58a1a","ios":"levelo://app?vid=108200cd-0707-4f10-a40c-4ae8f8e58a1a"},"vehicle_type_id":"4","last_reported":1720282109,"current_range_meters":23200,"station_id":"ce4bh292rcd13ifvqdf0","pricing_plan_id":"cebpf4jnsgd1na2vs0mg"},{"bike_id":"b287be74-dd19-4818-9ed7-0d61665c5519","system_id":"levelo_inurba_marseille","lat":43.28928,"lon":5.38387,"is_reserved":false,"is_disabled":false,"rental_uris":{"android":"levelo://app?vid=b287be74-dd19-4818-9ed7-0d61665c5519","ios":"levelo://app?vid=b287be74-dd19-4818-9ed7-0d61665c5519"},"vehicle_type_id":"4","last_reported":1720282109,"current_range_meters":21200,"station_id":"ce4bh612rcd13ifvqe6g","pricing_plan_id":"cebpf4jnsgd1na2vs0mg"},{"bike_id":"3591d529-9f0f-4891-b61f-2f709ac64940","system_id":"levelo_inurba_marseille","lat":43.302759,"lon":5.400793,"is_reserved":false,"is_disabled":false,"rental_uris":{"android":"levelo://app?vid=3591d529-9f0f-4891-b61f-2f709ac64940","ios":"levelo://app?vid=3591d529-9f0f-4891-b61f-2f709ac64940"},"vehicle_type_id":"4","last_reported":1720282109,"current_range_meters":0,"station_id":"ce4bgvh2rcd13ifvqcs0","pricing_plan_id":"cebpf4jnsgd1na2vs0mg"},{"bike_id":"f59611fc-58ee-4d3c-ba03-9758a557c340","system_id":"levelo_inurba_marseille","lat":43.286039,"lon":5.370679,"is_reserved":false,"is_disabled":false,"rental_uris":{"android":"levelo://app?vid=f59611fc-58ee-4d3c-ba03-9758a557c340","ios":"levelo://app?vid=f59611fc-58ee-4d3c-ba03-9758a557c340"},"vehicle_type_id":"4","last_reported":1720282109,"current_range_meters":16400,"station_id":"ce4bht12rcd13ifvqi60","pricing_plan_id":"cebpf4jnsgd1na2vs0mg"},{"bike_id":"a9d547da-58e0-41f9-8113-7c78b046e605","system_id":"levelo_inurba_marseille","lat":43.286039,"lon":5.370679,"is_reserved":false,"is_disabled":false,"rental_uris":{"android":"levelo://app?vid=a9d547da-58e0-41f9-8113-7c78b046e605","ios":"levelo://app?vid=a9d547da-58e0-41f9-8113-7c78b046e605"},"vehicle_type_id":"4","last_reported":1720282109,"current_range_meters":14000,"station_id":"ce4bht12rcd13ifvqi60","pricing_plan_id":"cebpf4jnsgd1na2vs0mg"},{"bike_id":"5af86fc7-154a-4be8-800a-93cc0067d935","system_id":"levelo_inurba_marseille","lat":43.286039,"lon":5.370679,"is_reserved":false,"is_disabled":false,"rental_uris":{"android":"levelo://app?vid=5af86fc7-154a-4be8-800a-93cc0067d935","ios":"levelo://app?vid=5af86fc7-154a-4be8-800a-93cc0067d935"},"vehicle_type_id":"4","last_reported":1720282109,"current_range_meters":0,"station_id":"ce4bht12rcd13ifvqi60","pricing_plan_id":"cebpf4jnsgd1na2vs0mg"},{"bike_id":"d0c53307-17e1-414c-a1a9-3d5162651a0f","system_id":"levelo_inurba_marseille","lat":43.286039,"lon":5.370679,"is_reserved":false,"is_disabled":false,"rental_uris":{"android":"levelo://app?vid=d0c53307-17e1-414c-a1a9-3d5162651a0f","ios":"levelo://app?vid=d0c53307-17e1-414c-a1a9-3d5162651a0f"},"vehicle_type_id":"4","last_reported":1720282109,"current_range_meters":21600,"station_id":"ce4bht12rcd13ifvqi60","pricing_plan_id":"cebpf4jnsgd1na2vs0mg"},{"bike_id":"b2853c7a-8c8f-42a4-926a-718fc8ca5b4e","system_id":"levelo_inurba_marseille","lat":43.316828,"lon":5.404723,"is_reserved":false,"is_disabled":false,"rental_uris":{"android":"levelo://app?vid=b2853c7a-8c8f-42a4-926a-718fc8ca5b4e","ios":"levelo://app?vid=b2853c7a-8c8f-42a4-926a-718fc8ca5b4e"},"vehicle_type_id":"4","last_reported":1720282109,"current_range_meters":22400,"station_id":"ce4bh012rcd13ifvqd00","pricing_plan_id":"cebpf4jnsgd1na2vs0mg"},{"bike_id":"420a87f1-2556-4702-90ca-80cafede78c7","system_id":"levelo_inurba_marseille","lat":43.316828,"lon":5.404723,"is_reserved":false,"is_disabled":false,"rental_uris":{"android":"levelo://app?vid=420a87f1-2556-4702-90ca-80cafede78c7","ios":"levelo://app?vid=420a87f1-2556-4702-90ca-80cafede78c7"},"vehicle_type_id":"4","last_reported":1720282109,"current_range_meters":4800,"station_id":"ce4bh012rcd13ifvqd00","pricing_plan_id":"cebpf4jnsgd1na2vs0mg"},{"bike_id":"b4c433a1-d63d-4ce8-a8d6-23b33d3b16b9","system_id":"levelo_inurba_marseille","lat":43.316828,"lon":5.404723,"is_reserved":false,"is_disabled":false,"rental_uris":{"android":"levelo://app?vid=b4c433a1-d63d-4ce8-a8d6-23b33d3b16b9","ios":"levelo://app?vid=b4c433a1-d63d-4ce8-a8d6-23b33d3b16b9"},"vehicle_type_id":"4","last_reported":1720282109,"current_range_meters":30000,"station_id":"ce4bh012rcd13ifvqd00","pricing_plan_id":"cebpf4jnsgd1na2vs0mg"},{"bike_id":"7a4ccaf9-fd1c-472f-b351-0e31bc680875","system_id":"levelo_inurba_marseille","lat":43.316828,"lon":5.404723,"is_reserved":false,"is_disabled":false,"rental_uris":{"android":"levelo://app?vid=7a4ccaf9-fd1c-472f-b351-0e31bc680875","ios":"levelo://app?vid=7a4ccaf9-fd1c-472f-b351-0e31bc680875"},"vehicle_type_id":"4","last_reported":1720282109,"current_range_meters":30800,"station_id":"ce4bh012rcd13ifvqd00","pricing_plan_id":"cebpf4jnsgd1na2vs0mg"},{"bike_id":"c26446ee-ef57-4d3b-a28a-8cfb0ba4557b","system_id":"levelo_inurba_marseille","lat":43.316828,"lon":5.404723,"is_reserved":false,"is_disabled":false,"rental_uris":{"android":"levelo://app?vid=c26446ee-ef57-4d3b-a28a-8cfb0ba4557b","ios":"levelo://app?vid=c26446ee-ef57-4d3b-a28a-8cfb0ba4557b"},"vehicle_type_id":"4","last_reported":1720282109,"current_range_meters":30800,"station_id":"ce4bh012rcd13ifvqd00","pricing_plan_id":"cebpf4jnsgd1na2vs0mg"},{"bike_id":"a4b429cd-64ea-419a-b53b-251f6015f4fe","system_id":"levelo_inurba_marseille","lat":43.31683,"lon":5.4047,"is_reserved":false,"is_disabled":false,"rental_uris":{"android":"levelo://app?vid=a4b429cd-64ea-419a-b53b-251f6015f4fe","ios":"levelo://app?vid=a4b429cd-64ea-419a-b53b-251f6015f4fe"},"vehicle_type_id":"4","last_reported":1720282109,"current_range_meters":2800,"station_id":"ce4bh012rcd13ifvqd00","pricing_plan_id":"cebpf4jnsgd1na2vs0mg"},{"bike_id":"a4b2f171-754c-48f1-8ddb-fbd30bb34718","system_id":"levelo_inurba_marseille","lat":43.316915,"lon":5.404694,"is_reserved":false,"is_disabled":false,"rental_uris":{"android":"levelo://app?vid=a4b2f171-754c-48f1-8ddb-fbd30bb34718","ios":"levelo://app?vid=a4b2f171-754c-48f1-8ddb-fbd30bb34718"},"vehicle_type_id":"4","last_reported":1720282109,"current_range_meters":30800,"station_id":"ce4bh012rcd13ifvqd00","pricing_plan_id":"cebpf4jnsgd1na2vs0mg"},{"bike_id":"78b2a88c-9331-4da4-b246-37b3d9245f0c","system_id":"levelo_inurba_marseille","lat":43.291994,"lon":5.392907,"is_reserved":false,"is_disabled":false,"rental_uris":{"android":"levelo://app?vid=78b2a88c-9331-4da4-b246-37b3d9245f0c","ios":"levelo://app?vid=78b2a88c-9331-4da4-b246-37b3d9245f0c"},"vehicle_type_id":"4","last_reported":1720282109,"current_range_meters":14000,"station_id":"ce4bh192rcd13ifvqdd0","pricing_plan_id":"cebpf4jnsgd1na2vs0mg"},{"bike_id":"fa5dee03-37b4-4354-a940-daaf2fbc2f9a","system_id":"levelo_inurba_marseille","lat":43.284538,"lon":5.358657,"is_reserved":false,"is_disabled":false,"rental_uris":{"android":"levelo://app?vid=fa5dee03-37b4-4354-a940-daaf2fbc2f9a","ios":"levelo://app?vid=fa5dee03-37b4-4354-a940-daaf2fbc2f9a"},"vehicle_type_id":"4","last_reported":1720282109,"current_range_meters":18400,"station_id":"ce4bhah2rcd13ifvqei0","pricing_plan_id":"cebpf4jnsgd1na2vs0mg"},{"bike_id":"448888c5-c8c3-4b29-ba3b-2780aadba101","system_id":"levelo_inurba_marseille","lat":43.284538,"lon":5.358657,"is_reserved":false,"is_disabled":false,"rental_uris":{"android":"levelo://app?vid=448888c5-c8c3-4b29-ba3b-2780aadba101","ios":"levelo://app?vid=448888c5-c8c3-4b29-ba3b-2780aadba101"},"vehicle_type_id":"4","last_reported":1720282109,"current_range_meters":16800,"station_id":"ce4bhah2rcd13ifvqei0","pricing_plan_id":"cebpf4jnsgd1na2vs0mg"},{"bike_id":"54c6b3ad-9025-4356-a87f-87eed1934f56","system_id":"levelo_inurba_marseille","lat":43.294314,"lon":5.397498,"is_reserved":false,"is_disabled":false,"rental_uris":{"android":"levelo://app?vid=54c6b3ad-9025-4356-a87f-87eed1934f56","ios":"levelo://app?vid=54c6b3ad-9025-4356-a87f-87eed1934f56"},"vehicle_type_id":"4","last_reported":1720282109,"current_range_meters":21600,"station_id":"ce4bh3h2rcd13ifvqdo0","pricing_plan_id":"cebpf4jnsgd1na2vs0mg"},{"bike_id":"75993897-4634-46f0-b142-4df6fa1911e2","system_id":"levelo_inurba_marseille","lat":43.294314,"lon":5.397498,"is_reserved":false,"is_disabled":false,"rental_uris":{"android":"levelo://app?vid=75993897-4634-46f0-b142-4df6fa1911e2","ios":"levelo://app?vid=75993897-4634-46f0-b142-4df6fa1911e2"},"vehicle_type_id":"4","last_reported":1720282109,"current_range_meters":26000,"station_id":"ce4bh3h2rcd13ifvqdo0","pricing_plan_id":"cebpf4jnsgd1na2vs0mg"},{"bike_id":"a6a8084a-7978-4b44-98cf-aadf21569ce1","system_id":"levelo_inurba_marseille","lat":43.294314,"lon":5.397498,"is_reserved":false,"is_disabled":false,"rental_uris":{"android":"levelo://app?vid=a6a8084a-7978-4b44-98cf-aadf21569ce1","ios":"levelo://app?vid=a6a8084a-7978-4b44-98cf-aadf21569ce1"},"vehicle_type_id":"4","last_reported":1720282109,"current_range_meters":30400,"station_id":"ce4bh3h2rcd13ifvqdo0","pricing_plan_id":"cebpf4jnsgd1na2vs0mg"},{"bike_id":"ca6371d4-5af1-4204-9303-1cd304d2759e","system_id":"levelo_inurba_marseille","lat":43.294314,"lon":5.397498,"is_reserved":false,"is_disabled":false,"rental_uris":{"android":"levelo://app?vid=ca6371d4-5af1-4204-9303-1cd304d2759e","ios":"levelo://app?vid=ca6371d4-5af1-4204-9303-1cd304d2759e"},"vehicle_type_id":"4","last_reported":1720282109,"current_range_meters":31600,"station_id":"ce4bh3h2rcd13ifvqdo0","pricing_plan_id":"cebpf4jnsgd1na2vs0mg"},{"bike_id":"f9a29232-4574-40c4-9b37-25230122063b","system_id":"levelo_inurba_marseille","lat":43.285856,"lon":5.350771,"is_reserved":false,"is_disabled":false,"rental_uris":{"android":"levelo://app?vid=f9a29232-4574-40c4-9b37-25230122063b","ios":"levelo://app?vid=f9a29232-4574-40c4-9b37-25230122063b"},"vehicle_type_id":"4","last_reported":1720282109,"current_range_meters":2000,"station_id":"ce4bhch2rcd13ifvqeug","pricing_plan_id":"cebpf4jnsgd1na2vs0mg"},{"bike_id":"97cc3b33-f5d4-49f5-8c67-5225beb5a4dd","system_id":"levelo_inurba_marseille","lat":43.285856,"lon":5.350771,"is_reserved":false,"is_disabled":false,"rental_uris":{"android":"levelo://app?vid=97cc3b33-f5d4-49f5-8c67-5225beb5a4dd","ios":"levelo://app?vid=97cc3b33-f5d4-49f5-8c67-5225beb5a4dd"},"vehicle_type_id":"4","last_reported":1720282109,"current_range_meters":27200,"station_id":"ce4bhch2rcd13ifvqeug","pricing_plan_id":"cebpf4jnsgd1na2vs0mg"},{"bike_id":"c42ad4bd-8549-4f05-a5c2-6639a1bafe07","system_id":"levelo_inurba_marseille","lat":43.285856,"lon":5.350771,"is_reserved":false,"is_disabled":false,"rental_uris":{"android":"levelo://app?vid=c42ad4bd-8549-4f05-a5c2-6639a1bafe07","ios":"levelo://app?vid=c42ad4bd-8549-4f05-a5c2-6639a1bafe07"},"vehicle_type_id":"4","last_reported":1720282109,"current_range_meters":11600,"station_id":"ce4bhch2rcd13ifvqeug","pricing_plan_id":"cebpf4jnsgd1na2vs0mg"},{"bike_id":"5b26c026-f764-44ee-ae49-d7987575bbb3","system_id":"levelo_inurba_marseille","lat":43.285856,"lon":5.350771,"is_reserved":false,"is_disabled":false,"rental_uris":{"android":"levelo://app?vid=5b26c026-f764-44ee-ae49-d7987575bbb3","ios":"levelo://app?vid=5b26c026-f764-44ee-ae49-d7987575bbb3"},