{"last_updated":1730221687,"ttl":60,"version":"2.2","data":{"bikes":[{"bike_id":"e0594c9b-1912-4f09-958a-91f8a4561c29","system_id":"levelo_inurba_marseille","lat":43.24388,"lon":5.37061,"is_reserved":false,"is_disabled":false,"rental_uris":{"android":"levelo://app?vid=e0594c9b-1912-4f09-958a-91f8a4561c29","ios":"levelo://app?vid=e0594c9b-1912-4f09-958a-91f8a4561c29"},"vehicle_type_id":"4","last_reported":1730221687,"current_range_meters":3600,"station_id":"ce4bhhh2rcd13ifvqfk0","pricing_plan_id":"cebpf4jnsgd1na2vs0mg"},{"bike_id":"48c6d365-e52c-4267-b672-63eb30932ab5","system_id":"levelo_inurba_marseille","lat":43.30804,"lon":5.38151,"is_reserved":false,"is_disabled":false,"rental_uris":{"android":"levelo://app?vid=48c6d365-e52c-4267-b672-63eb30932ab5","ios":"levelo://app?vid=48c6d365-e52c-4267-b672-63eb30932ab5"},"vehicle_type_id":"4","last_reported":1730221687,"current_range_meters":4000,"station_id":"ce4bgt12rcd13ifvqce0","pricing_plan_id":"cebpf4jnsgd1na2vs0mg"},{"bike_id":"6daefb7d-890b-4927-bca4-1e9b57c2727d","system_id":"levelo_inurba_marseille","lat":43.27187,"lon":5.41001,"is_reserved":false,"is_disabled":false,"rental_uris":{"android":"levelo://app?vid=6daefb7d-890b-4927-bca4-1e9b57c2727d","ios":"levelo://app?vid=6daefb7d-890b-4927-bca4-1e9b57c2727d"},"vehicle_type_id":"4","last_reported":1730221687,"current_range_meters":6800,"station_id":"ce4bhl12rcd13ifvqgf0","pricing_plan_id":"cebpf4jnsgd1na2vs0mg"},{"bike_id":"4e326388-180f-4c42-b82e-82e400f11646","system_id":"levelo_inurba_marseille","lat":43.314857,"lon":5.373085,"is_reserved":false,"is_disabled":false,"rental_uris":{"android":"levelo://app?vid=4e326388-180f-4c42-b82e-82e400f11646","ios":"levelo://app?vid=4e326388-180f-4c42-b82e-82e400f11646"},"vehicle_type_id":"4","last_reported":1730221687,"current_range_meters":39200,"station_id":"ce4bgt12rcd13ifvqcd0","pricing_plan_id":"cebpf4jnsgd1na2vs0mg"},{"bike_id":"9cd28ed1-51d4-469f-80b1-db1aa7224fd9","system_id":"levelo_inurba_marseille","lat":43.31892,"lon":5.4075,"is_reserved":false,"is_disabled":false,"rental_uris":{"android":"levelo://app?vid=9cd28ed1-51d4-469f-80b1-db1aa7224fd9","ios":"levelo://app?vid=9cd28ed1-51d4-469f-80b1-db1aa7224fd9"},"vehicle_type_id":"4","last_reported":1730221687,"current_range_meters":34000,"station_id":"ce4bhq12rcd13ifvqhig","pricing_plan_id":"cebpf4jnsgd1na2vs0mg"},{"bike_id":"7a84e36e-02f3-48ed-b58b-8f43c995ff2b","system_id":"levelo_inurba_marseille","lat":43.29266,"lon":5.38444,"is_reserved":false,"is_disabled":false,"rental_uris":{"android":"levelo://app?vid=7a84e36e-02f3-48ed-b58b-8f43c995ff2b","ios":"levelo://app?vid=7a84e36e-02f3-48ed-b58b-8f43c995ff2b"},"vehicle_type_id":"4","last_reported":1730221687,"current_range_meters":20400,"station_id":"ce4bh692rcd13ifvqea0","pricing_plan_id":"cebpf4jnsgd1na2vs0mg"},{"bike_id":"20e3fade-aa0a-44b5-a481-8fe8d952b99a","system_id":"levelo_inurba_marseille","lat":43.29709,"lon":5.36622,"is_reserved":false,"is_disabled":false,"rental_uris":{"android":"levelo://app?vid=20e3fade-aa0a-44b5-a481-8fe8d952b99a","ios":"levelo://app?vid=20e3fade-aa0a-44b5-a481-8fe8d952b99a"},"vehicle_type_id":"4","last_reported":1730221687,"current_range_meters":24400,"station_id":"ce4bgn12rcd13ifvqbt0","pricing_plan_id":"cebpf4jnsgd1na2vs0mg"},{"bike_id":"960d455d-56ea-41f6-9c69-d1294353e87b","system_id":"levelo_inurba_marseille","lat":43.32476,"lon":5.36559,"is_reserved":false,"is_disabled":false,"rental_uris":{"android":"levelo://app?vid=960d455d-56ea-41f6-9c69-d1294353e87b","ios":"levelo://app?vid=960d455d-56ea-41f6-9c69-d1294353e87b"},"vehicle_type_id":"4","last_reported":1730221687,"current_range_meters":28400,"station_id":"ce4bhs12rcd13ifvqhvg","pricing_plan_id":"cebpf4jnsgd1na2vs0mg"},{"bike_id":"1f292d6c-22be-4e0f-916a-46c41bbcafba","system_id":"levelo_inurba_marseille","lat":43.29191,"lon":5.39324,"is_reserved":false,"is_disabled":false,"rental_uris":{"android":"levelo://app?vid=1f292d6c-22be-4e0f-916a-46c41bbcafba","ios":"levelo://app?vid=1f292d6c-22be-4e0f-916a-46c41bbcafba"},"vehicle_type_id":"4","last_reported":1730221687,"current_range_meters":18800,"station_id":"ce4bh192rcd13ifvqdd0","pricing_plan_id":"cebpf4jnsgd1na2vs0mg"},{"bike_id":"c4403367-a6a1-4db7-91bd-df71e2374218","system_id":"levelo_inurba_marseille","lat":43.26784,"lon":5.3942,"is_reserved":false,"is_disabled":false,"rental_uris":{"android":"levelo://app?vid=c4403367-a6a1-4db7-91bd-df71e2374218","ios":"levelo://app?vid=c4403367-a6a1-4db7-91bd-df71e2374218"},"vehicle_type_id":"4","last_reported":1730221687,"current_range_meters":2800,"station_id":"ce4bhh12rcd13ifvqfg0","pricing_plan_id":"cebpf4jnsgd1na2vs0mg"},{"bike_id":"21eec610-92fc-458a-9fae-cb870bb8b721","system_id":"levelo_inurba_marseille","lat":43.30131,"lon":5.3987,"is_reserved":false,"is_disabled":false,"rental_uris":{"android":"levelo://app?vid=21eec610-92fc-458a-9fae-cb870bb8b721","ios":"levelo://app?vid=21eec610-92fc-458a-9fae-cb870bb8b721"},"vehicle_type_id":"4","last_reported":1730221687,"current_range_meters":30800,"station_id":"ce4bh0h2rcd13ifvqd40","pricing_plan_id":"cebpf4jnsgd1na2vs0mg"},{"bike_id":"34c349c4-c8e0-46ba-aa9f-66ac07aea23e","system_id":"levelo_inurba_marseille","lat":43.33026,"lon":5.39043,"is_reserved":false,"is_disabled":false,"rental_uris":{"android":"levelo://app?vid=34c349c4-c8e0-46ba-aa9f-66ac07aea23e","ios":"levelo://app?vid=34c349c4-c8e0-46ba-aa9f-66ac07aea23e"},"vehicle_type_id":"4","last_reported":1730221687,"current_range_meters":38800,"station_id":"ce4bhr92rcd13ifvqhrg","pricing_plan_id":"cebpf4jnsgd1na2vs0mg"},{"bike_id":"688a788a-791b-4d1a-a4da-de732f6e1e1b","system_id":"levelo_inurba_marseille","lat":43.29289,"lon":5.40125,"is_reserved":false,"is_disabled":false,"rental_uris":{"android":"levelo://app?vid=688a788a-791b-4d1a-a4da-de732f6e1e1b","ios":"levelo://app?vid=688a788a-791b-4d1a-a4da-de732f6e1e1b"},"vehicle_type_id":"4","last_reported":1730221687,"current_range_meters":17600,"station_id":"ce4bh312rcd13ifvqdk0","pricing_plan_id":"cebpf4jnsgd1na2vs0mg"},{"bike_id":"0d081e83-46cd-4052-aa30-3115886033b1","system_id":"levelo_inurba_marseille","lat":43.29671,"lon":5.37309,"is_reserved":false,"is_disabled":false,"rental_uris":{"android":"levelo://app?vid=0d081e83-46cd-4052-aa30-3115886033b1","ios":"levelo://app?vid=0d081e83-46cd-4052-aa30-3115886033b1"},"vehicle_type_id":"4","last_reported":1730221687,"current_range_meters":29600,"station_id":"ce4bgk12rcd13ifvqbj0","pricing_plan_id":"cebpf4jnsgd1na2vs0mg"},{"bike_id":"b2c05f9f-585e-4b3d-8a48-b202ea6bf660","system_id":"levelo_inurba_marseille","lat":43.24172,"lon":5.36401,"is_reserved":false,"is_disabled":false,"rental_uris":{"android":"levelo://app?vid=b2c05f9f-585e-4b3d-8a48-b202ea6bf660","ios":"levelo://app?vid=b2c05f9f-585e-4b3d-8a48-b202ea6bf660"},"vehicle_type_id":"4","last_reported":1730221687,"current_range_meters":17200,"station_id":"cpo36qri1sfpv3e86is0","pricing_plan_id":"cebpf4jnsgd1na2vs0mg"},{"bike_id":"b70be9d3-a8c1-4ece-a0bb-8f3408a89b37","system_id":"levelo_inurba_marseille","lat":43.29522,"lon":5.39408,"is_reserved":false,"is_disabled":false,"rental_uris":{"android":"levelo://app?vid=b70be9d3-a8c1-4ece-a0bb-8f3408a89b37","ios":"levelo://app?vid=b70be9d3-a8c1-4ece-a0bb-8f3408a89b37"},"vehicle_type_id":"4","last_reported":1730221687,"current_range_meters":18800,"station_id":"ce4bh292rcd13ifvqdf0","pricing_plan_id":"cebpf4jnsgd1na2vs0mg"},{"bike_id":"ddecb71b-ac7b-4df4-8d09-f45d38cb228a","system_id":"levelo_inurba_marseille","lat":43.29619,"lon":5.37742,"is_reserved":false,"is_disabled":false,"rental_uris":{"android":"levelo://app?vid=ddecb71b-ac7b-4df4-8d09-f45d38cb228a","ios":"levelo://app?vid=ddecb71b-ac7b-4df4-8d09-f45d38cb228a"},"vehicle_type_id":"4","last_reported":1730221687,"current_range_meters":35600,"station_id":"ce4bgi92rcd13ifvqb90","pricing_plan_id":"cebpf4jnsgd1na2vs0mg"},{"bike_id":"727abbde-2be6-4193-b2b8-a0348c3f432c","system_id":"levelo_inurba_marseille","lat":43.28605,"lon":5.37068,"is_reserved":false,"is_disabled":false,"rental_uris":{"android":"levelo://app?vid=727abbde-2be6-4193-b2b8-a0348c3f432c","ios":"levelo://app?vid=727abbde-2be6-4193-b2b8-a0348c3f432c"},"vehicle_type_id":"4","last_reported":1730221687,"current_range_meters":6000,"station_id":"ce4bht12rcd13ifvqi60","pricing_plan_id":"cebpf4jnsgd1na2vs0mg"},{"bike_id":"79753c44-2696-48d8-8503-a28f55e7f2ea","system_id":"levelo_inurba_marseille","lat":43.31316,"lon":5.39709,"is_reserved":false,"is_disabled":false,"rental_uris":{"android":"levelo://app?vid=79753c44-2696-48d8-8503-a28f55e7f2ea","ios":"levelo://app?vid=79753c44-2696-48d8-8503-a28f55e7f2ea"},"vehicle_type_id":"4","last_reported":1730221687,"current_range_meters":31200,"station_id":"ce4bgvp2rcd13ifvqcu0","pricing_plan_id":"cebpf4jnsgd1na2vs0mg"},{"bike_id":"17182792-6d29-4920-b8dd-c92be680cced","system_id":"levelo_inurba_marseille","lat":43.29512,"lon":5.39049,"is_reserved":false,"is_disabled":false,"rental_uris":{"android":"levelo://app?vid=17182792-6d29-4920-b8dd-c92be680cced","ios":"levelo://app?vid=17182792-6d29-4920-b8dd-c92be680cced"},"vehicle_type_id":"4","last_reported":1730221687,"current_range_meters":33200,"station_id":"ce4bh3p2rcd13ifvqdp0","pricing_plan_id":"cebpf4jnsgd1na2vs0mg"},{"bike_id":"c5ab8f86-3c93-447c-b767-f885bdebd2ff","system_id":"levelo_inurba_marseille","lat":43.27071,"lon":5.42282,"is_reserved":false,"is_disabled":false,"rental_uris":{"android":"levelo://app?vid=c5ab8f86-3c93-447c-b767-f885bdebd2ff","ios":"levelo://app?vid=c5ab8f86-3c93-447c-b767-f885bdebd2ff"},"vehicle_type_id":"4","last_reported":1730221687,"current_range_meters":32000,"station_id":"ce4bhk92rcd13ifvqgb0","pricing_plan_id":"cebpf4jnsgd1na2vs0mg"},{"bike_id":"761a6548-4a0b-419b-8020-b3c3c24b6c71","system_id":"levelo_inurba_marseille","lat":43.27062,"lon":5.40261,"is_reserved":false,"is_disabled":false,"rental_uris":{"android":"levelo://app?vid=761a6548-4a0b-419b-8020-b3c3c24b6c71","ios":"levelo://app?vid=761a6548-4a0b-419b-8020-b3c3c24b6c71"},"vehicle_type_id":"4","last_reported":1730221687,"current_range_meters":3600,"station_id":"ce4bhk92rcd13ifvqgc0","pricing_plan_id":"cebpf4jnsgd1na2vs0mg"},{"bike_id":"98c6514c-64cb-4428-9fd9-cbcfc06c86ad","system_id":"levelo_inurba_marseille","lat":43.290202,"lon":5.381322,"is_reserved":false,"is_disabled":false,"rental_uris":{"android":"levelo://app?vid=98c6514c-64cb-4428-9fd9-cbcfc06c86ad","ios":"levelo://app?vid=98c6514c-64cb-4428-9fd9-cbcfc06c86ad"},"vehicle_type_id":"4","last_reported":1730221687,"current_range_meters":28000,"station_id":"ce4bh4p2rcd13ifvqe1g","pricing_plan_id":"cebpf4jnsgd1na2vs0mg"},{"bike_id":"70bb78fe-4bef-4d56-a833-affc0bdfc9f3","system_id":"levelo_inurba_marseille","lat":43.23193,"lon":5.35558,"is_reserved":false,"is_disabled":false,"rental_uris":{"android":"levelo://app?vid=70bb78fe-4bef-4d56-a833-affc0bdfc9f3","ios":"levelo://app?vid=70bb78fe-4bef-4d56-a833-affc0bdfc9f3"},"vehicle_type_id":"4","last_reported":1730221687,"current_range_meters":38800,"station_id":"ce4bhu92rcd13ifvqi70","pricing_plan_id":"cebpf4jnsgd1na2vs0mg"},{"bike_id":"5ef0f9bb-6026-469d-bf31-8bd338c3226f","system_id":"levelo_inurba_marseille","lat":43.28843,"lon":5.39309,"is_reserved":false,"is_disabled":false,"rental_uris":{"android":"levelo://app?vid=5ef0f9bb-6026-469d-bf31-8bd338c3226f","ios":"levelo://app?vid=5ef0f9bb-6026-469d-bf31-8bd338c3226f"},"vehicle_type_id":"4","last_reported":1730221687,"current_range_meters":2000,"station_id":"ce4bh2p2rcd13ifvqdi0","pricing_plan_id":"cebpf4jnsgd1na2vs0mg"},{"bike_id":"f65b158c-f93c-4b00-9eda-014bab0fd168","system_id":"levelo_inurba_marseille","lat":43.30145,"lon":5.39873,"is_reserved":false,"is_disabled":false,"rental_uris":{"android":"levelo://app?vid=f65b158c-f93c-4b00-9eda-014bab0fd168","ios":"levelo://app?vid=f65b158c-f93c-4b00-9eda-014bab0fd168"},"vehicle_type_id":"4","last_reported":1730221687,"current_range_meters":28800,"station_id":"ce4bh0h2rcd13ifvqd40","pricing_plan_id":"cebpf4jnsgd1na2vs0mg"},{"bike_id":"2dc84c40-d154-4a82-bc6e-96de7b996581","system_id":"levelo_inurba_marseille","lat":43.28933,"lon":5.38404,"is_reserved":false,"is_disabled":false,"rental_uris":{"android":"levelo://app?vid=2dc84c40-d154-4a82-bc6e-96de7b996581","ios":"levelo://app?vid=2dc84c40-d154-4a82-bc6e-96de7b996581"},"vehicle_type_id":"4","last_reported":1730221687,"current_range_meters":10000,"station_id":"ce4bh612rcd13ifvqe6g","pricing_plan_id":"cebpf4jnsgd1na2vs0mg"},{"bike_id":"13d35e15-bc70-4a6c-9ffa-afe172623d83","system_id":"levelo_inurba_marseille","lat":43.250696,"lon":5.403335,"is_reserved":false,"is_disabled":false,"rental_uris":{"android":"levelo://app?vid=13d35e15-bc70-4a6c-9ffa-afe172623d83","ios":"levelo://app?vid=13d35e15-bc70-4a6c-9ffa-afe172623d83"},"vehicle_type_id":"4","last_reported":1730221687,"current_range_meters":4800,"station_id":"ce4bhlh2rcd13ifvqgig","pricing_plan_id":"cebpf4jnsgd1na2vs0mg"},{"bike_id":"84f776d9-08d4-4f83-82bd-4fc265ac8c79","system_id":"levelo_inurba_marseille","lat":43.25829,"lon":5.39447,"is_reserved":false,"is_disabled":false,"rental_uris":{"android":"levelo://app?vid=84f776d9-08d4-4f83-82bd-4fc265ac8c79","ios":"levelo://app?vid=84f776d9-08d4-4f83-82bd-4fc265ac8c79"},"vehicle_type_id":"4","last_reported":1730221687,"current_range_meters":15200,"station_id":"ce4bhip2rcd13ifvqft0","pricing_plan_id":"cebpf4jnsgd1na2vs0mg"},{"bike_id":"1c36e968-b9ec-4e4e-a73e-52f85b4ded24","system_id":"levelo_inurba_marseille","lat":43.27188,"lon":5.40994,"is_reserved":false,"is_disabled":false,"rental_uris":{"android":"levelo://app?vid=1c36e968-b9ec-4e4e-a73e-52f85b4ded24","ios":"levelo://app?vid=1c36e968-b9ec-4e4e-a73e-52f85b4ded24"},"vehicle_type_id":"4","last_reported":1730221687,"current_range_meters":14400,"station_id":"ce4bhl12rcd13ifvqgf0","pricing_plan_id":"cebpf4jnsgd1na2vs0mg"},{"bike_id":"726647ac-a41f-4273-bcc4-b2952eb23b08","system_id":"levelo_inurba_marseille","lat":43.23054,"lon":5.35492,"is_reserved":false,"is_disabled":false,"rental_uris":{"android":"levelo://app?vid=726647ac-a41f-4273-bcc4-b2952eb23b08","ios":"levelo://app?vid=726647ac-a41f-4273-bcc4-b2952eb23b08"},"vehicle_type_id":"4","last_reported":1730221687,"current_range_meters":9600,"station_id":"cpo3342slgdg3j2ifvpg","pricing_plan_id":"cebpf4jnsgd1na2vs0mg"},{"bike_id":"c825d1e7-af54-47b6-bf21-27cd631e1fb6","system_id":"levelo_inurba_marseille","lat":43.2816,"lon":5.42649,"is_reserved":false,"is_disabled":false,"rental_uris":{"android":"levelo://app?vid=c825d1e7-af54-47b6-bf21-27cd631e1fb6","ios":"levelo://app?vid=c825d1e7-af54-47b6-bf21-27cd631e1fb6"},"vehicle_type_id":"4","last_reported":1730221687,"current_range_meters":25200,"station_id":"ce4bhnh2rcd13ifvqgug","pricing_plan_id":"cebpf4jnsgd1na2vs0mg"},{"bike_id":"92adf987-4779-4b78-ad9c-8e29ab9175f3","system_id":"levelo_inurba_marseille","lat":43.23187,"lon":5.35557,"is_reserved":false,"is_disabled":false,"rental_uris":{"android":"levelo://app?vid=92adf987-4779-4b78-ad9c-8e29ab9175f3","ios":"levelo://app?vid=92adf987-4779-4b78-ad9c-8e29ab9175f3"},"vehicle_type_id":"4","last_reported":1730221687,"current_range_meters":18000,"station_id":"ce4bhu92rcd13ifvqi70","pricing_plan_id":"cebpf4jnsgd1na2vs0mg"},{"bike_id":"ba4cccac-d0c2-4d26-8c3c-f3aeb4df3107","system_id":"levelo_inurba_marseille","lat":43.28151,"lon":5.42645,"is_reserved":false,"is_disabled":false,"rental_uris":{"android":"levelo://app?vid=ba4cccac-d0c2-4d26-8c3c-f3aeb4df3107","ios":"levelo://app?vid=ba4cccac-d0c2-4d26-8c3c-f3aeb4df3107"},"vehicle_type_id":"4","last_reported":1730221687,"current_range_meters":11600,"station_id":"ce4bhnh2rcd13ifvqgug","pricing_plan_id":"cebpf4jnsgd1na2vs0mg"},{"bike_id":"4ec8d5dc-ea84-48c8-8192-a97e68705d1f","system_id":"levelo_inurba_marseille","lat":43.29791,"lon":5.39344,"is_reserved":false,"is_disabled":false,"rental_uris":{"android":"levelo://app?vid=4ec8d5dc-ea84-48c8-8192-a97e68705d1f","ios":"levelo://app?vid=4ec8d5dc-ea84-48c8-8192-a97e68705d1f"},"vehicle_type_id":"4","last_reported":1730221687,"current_range_meters":17200,"station_id":"chh1huq6cuj3fo74tm60","pricing_plan_id":"cebpf4jnsgd1na2vs0mg"},{"bike_id":"f0a0ce64-f4f2-4e80-9cc4-9f36a004f84a","system_id":"levelo_inurba_marseille","lat":43.30328,"lon":5.40454,"is_reserved":false,"is_disabled":false,"rental_uris":{"android":"levelo://app?vid=f0a0ce64-f4f2-4e80-9cc4-9f36a004f84a","ios":"levelo://app?vid=f0a0ce64-f4f2-4e80-9cc4-9f36a004f84a"},"vehicle_type_id":"4","last_reported":1730221687,"current_range_meters":24000,"station_id":"ce4bh012rcd13ifvqd10","pricing_plan_id":"cebpf4jnsgd1na2vs0mg"},{"bike_id":"3eacef56-e200-4054-9b0c-156c6ef1c7f9","system_id":"levelo_inurba_marseille","lat":43.32105,"lon":5.36788,"is_reserved":false,"is_disabled":false,"rental_uris":{"android":"levelo://app?vid=3eacef56-e200-4054-9b0c-156c6ef1c7f9","ios":"levelo://app?vid=3eacef56-e200-4054-9b0c-156c6ef1c7f9"},"vehicle_type_id":"4","last_reported":1730221687,"current_range_meters":36000,"station_id":"ce4bhrh2rcd13ifvqhug","pricing_plan_id":"cebpf4jnsgd1na2vs0mg"},{"bike_id":"1466608b-2534-425c-9bb7-c4c74942a06d","system_id":"levelo_inurba_marseille","lat":43.29031,"lon":5.38647,"is_reserved":false,"is_disabled":false,"rental_uris":{"android":"levelo://app?vid=1466608b-2534-425c-9bb7-c4c74942a06d","ios":"levelo://app?vid=1466608b-2534-425c-9bb7-c4c74942a06d"},"vehicle_type_id":"4","last_reported":1730221687,"current_range_meters":25200,"station_id":"ce4bh4p2rcd13ifvqe0g","pricing_plan_id":"cebpf4jnsgd1na2vs0mg"},{"bike_id":"3e123678-b386-4532-8d02-5a16864a5421","system_id":"levelo_inurba_marseille","lat":43.30147,"lon":5.37409,"is_reserved":false,"is_disabled":false,"rental_uris":{"android":"levelo://app?vid=3e123678-b386-4532-8d02-5a16864a5421","ios":"levelo://app?vid=3e123678-b386-4532-8d02-5a16864a5421"},"vehicle_type_id":"4","last_reported":1730221687,"current_range_meters":16800,"station_id":"ce4bgs92rcd13ifvqcc0","pricing_plan_id":"cebpf4jnsgd1na2vs0mg"},{"bike_id":"e3bfaa78-9ac6-44ac-939d-83a965291944","system_id":"levelo_inurba_marseille","lat":43.2903,"lon":5.38638,"is_reserved":false,"is_disabled":false,"rental_uris":{"android":"levelo://app?vid=e3bfaa78-9ac6-44ac-939d-83a965291944","ios":"levelo://app?vid=e3bfaa78-9ac6-44ac-939d-83a965291944"},"vehicle_type_id":"4","last_reported":1730221687,"current_range_meters":26800,"station_id":"ce4bh4p2rcd13ifvqe0g","pricing_plan_id":"cebpf4jnsgd1na2vs0mg"},{"bike_id":"3c518c0e-51b1-4b71-b72f-de5519cfc61b","system_id":"levelo_inurba_marseille","lat":43.23149,"lon":5.43725,"is_reserved":false,"is_disabled":false,"rental_uris":{"android":"levelo://app?vid=3c518c0e-51b1-4b71-b72f-de5519cfc61b","ios":"levelo://app?vid=3c518c0e-51b1-4b71-b72f-de5519cfc61b"},"vehicle_type_id":"4","last_reported":1730221687,"current_range_meters":2000,"station_id":"ce4bhmp2rcd13ifvqgog","pricing_plan_id":"cebpf4jnsgd1na2vs0mg"},{"bike_id":"86b8222b-fabd-447a-bba1-fa7cb533ac4f","system_id":"levelo_inurba_marseille","lat":43.29705,"lon":5.36612,"is_reserved":false,"is_disabled":false,"rental_uris":{"android":"levelo://app?vid=86b8222b-fabd-447a-bba1-fa7cb533ac4f","ios":"levelo://app?vid=86b8222b-fabd-447a-bba1-fa7cb533ac4f"},"vehicle_type_id":"4","last_reported":1730221687,"current_range_meters":36800,"station_id":"ce4bgn12rcd13ifvqbt0","pricing_plan_id":"cebpf4jnsgd1na2vs0mg"},{"bike_id":"5818b4c7-1191-4438-a166-805af1a3d8c7","system_id":"levelo_inurba_marseille","lat":43.29434,"lon":5.39743,"is_reserved":false,"is_disabled":false,"rental_uris":{"android":"levelo://app?vid=5818b4c7-1191-4438-a166-805af1a3d8c7","ios":"levelo://app?vid=5818b4c7-1191-4438-a166-805af1a3d8c7"},"vehicle_type_id":"4","last_reported":1730221687,"current_range_meters":10000,"station_id":"ce4bh3h2rcd13ifvqdo0","pricing_plan_id":"cebpf4jnsgd1na2vs0mg"},{"bike_id":"ae844abd-5f49-4e6c-8086-3880c1d44cf6","system_id":"levelo_inurba_marseille","lat":43.3266,"lon":5.40984,"is_reserved":false,"is_disabled":false,"rental_uris":{"android":"levelo://app?vid=ae844abd-5f49-4e6c-8086-3880c1d44cf6","ios":"levelo://app?vid=ae844abd-5f49-4e6c-8086-3880c1d44cf6"},"vehicle_type_id":"4","last_reported":1730221687,"current_range_meters":23200,"station_id":"ce4bhpp2rcd13ifvqhgg","pricing_plan_id":"cebpf4jnsgd1na2vs0mg"},{"bike_id":"12e9cd6f-6c9b-4bfa-8c7a-b6f304ee52b6","system_id":"levelo_inurba_marseille","lat":43.25582,"lon":5.38234,"is_reserved":false,"is_disabled":false,"rental_uris":{"android":"levelo://app?vid=12e9cd6f-6c9b-4bfa-8c7a-b6f304ee52b6","ios":"levelo://app?vid=12e9cd6f-6c9b-4bfa-8c7a-b6f304ee52b6"},"vehicle_type_id":"4","last_reported":1730221687,"current_range_meters":4400,"station_id":"ce4bhih2rcd13ifvqfs0","pricing_plan_id":"cebpf4jnsgd1na2vs0mg"},{"bike_id":"0249e3c7-0ee6-43ae-aea1-a5a682acfe38","system_id":"levelo_inurba_marseille","lat":43.26948,"lon":5.40254,"is_reserved":false,"is_disabled":false,"rental_uris":{"android":"levelo://app?vid=0249e3c7-0ee6-43ae-aea1-a5a682acfe38","ios":"levelo://app?vid=0249e3c7-0ee6-43ae-aea1-a5a682acfe38"},"vehicle_type_id":"4","last_reported":1730221687,"current_range_meters":39200,"station_id":"cjm6bp8fraef2m0cb0m0","pricing_plan_id":"cebpf4jnsgd1na2vs0mg"},{"bike_id":"6904ec7c-aeab-410e-a2d7-c4ec885eda6d","system_id":"levelo_inurba_marseille","lat":43.29878,"lon":5.389,"is_reserved":false,"is_disabled":false,"rental_uris":{"android":"levelo://app?vid=6904ec7c-aeab-410e-a2d7-c4ec885eda6d","ios":"levelo://app?vid=6904ec7c-aeab-410e-a2d7-c4ec885eda6d"},"vehicle_type_id":"4","last_reported":1730221687,"current_range_meters":27200,"station_id":"ce4bh392rcd13ifvqdl0","pricing_plan_id":"cebpf4jnsgd1na2vs0mg"},{"bike_id":"4bd3dc7a-cd73-4bb6-8f68-66aa73a42057","system_id":"levelo_inurba_marseille","lat":43.27058,"lon":5.40258,"is_reserved":false,"is_disabled":false,"rental_uris":{"android":"levelo://app?vid=4bd3dc7a-cd73-4bb6-8f68-66aa73a42057","ios":"levelo://app?vid=4bd3dc7a-cd73-4bb6-8f68-66aa73a42057"},"vehicle_type_id":"4","last_reported":1730221687,"current_range_meters":30400,"station_id":"ce4bhk92rcd13ifvqgc0","pricing_plan_id":"cebpf4jnsgd1na2vs0mg"},{"bike_id":"63f15d4d-422a-4643-b2e3-bded60e72ce8","system_id":"levelo_inurba_marseille","lat":43.294155,"lon":5.386257,"is_reserved":false,"is_disabled":false,"rental_uris":{"android":"levelo://app?vid=63f15d4d-422a-4643-b2e3-bded60e72ce8","ios":"levelo://app?vid=63f15d4d-422a-4643-b2e3-bded60e72ce8"},"vehicle_type_id":"4","last_reported":1730221687,"current_range_meters":3600,"station_id":"ce4bh2h2rcd13ifvqdh0","pricing_plan_id":"cebpf4jnsgd1na2vs0mg"},{"bike_id":"121f128b-66c9-4cc3-a236-fc8fe1c40735","system_id":"levelo_inurba_marseille","lat":43.32368,"lon":5.38892,"is_reserved":false,"is_disabled":false,"rental_uris":{"android":"levelo://app?vid=121f128b-66c9-4cc3-a236-fc8fe1c40735","ios":"levelo://app?vid=121f128b-66c9-4cc3-a236-fc8fe1c40735"},"vehicle_type_id":"4","last_reported":1730221687,"current_range_meters":9600,"station_id":"ce4bhqp2rcd13ifvqhog","pricing_plan_id":"cebpf4jnsgd1na2vs0mg"},{"bike_id":"538c6c97-8738-4e40-afde-1ced2fc6b778","system_id":"levelo_inurba_marseille","lat":43.33722,"lon":5.39186,"is_reserved":false,"is_disabled":false,"rental_uris":{"android":"levelo://app?vid=538c6c97-8738-4e40-afde-1ced2fc6b778","ios":"levelo://app?vid=538c6c97-8738-4e40-afde-1ced2fc6b778"},"vehicle_type_id":"4","last_reported":1730221687,"current_range_meters":38800,"station_id":"ce4bhr92rcd13ifvqhsg","pricing_plan_id":"cebpf4jnsgd1na2vs0mg"},{"bike_id":"e40111e4-4deb-41a5-ac02-7465c5223951","system_id":"levelo_inurba_marseille","lat":43.28625,"lon":5.38353,"is_reserved":false,"is_disabled":false,"rental_uris":{"android":"levelo://app?vid=e40111e4-4deb-41a5-ac02-7465c5223951","ios":"levelo://app?vid=e40111e4-4deb-41a5-ac02-7465c5223951"},"vehicle_type_id":"4","last_reported":1730221687,"current_range_meters":15200,"station_id":"ce4bh4p2rcd13ifvqe1g","pricing_plan_id":"cebpf4jnsgd1na2vs0mg"},{"bike_id":"05d59e1f-0e0c-49ac-a6f5-1a692eb656a4","system_id":"levelo_inurba_marseille","lat":43.24549,"lon":5.39524,"is_reserved":false,"is_disabled":false,"rental_uris":{"android":"levelo://app?vid=05d59e1f-0e0c-49ac-a6f5-1a692eb656a4","ios":"levelo://app?vid=05d59e1f-0e0c-49ac-a6f5-1a692eb656a4"},"vehicle_type_id":"4","last_reported":1730221687,"current_range_meters":36000,"station_id":"ce4bhlp2rcd13ifvqgjg","pricing_plan_id":"cebpf4jnsgd1na2vs0mg"},{"bike_id":"c497513d-9d1d-4320-a1e3-875a8b21d4c5","system_id":"levelo_inurba_marseille","lat":43.2719,"lon":5.40995,"is_reserved":false,"is_disabled":false,"rental_uris":{"android":"levelo://app?vid=c497513d-9d1d-4320-a1e3-875a8b21d4c5","ios":"levelo://app?vid=c497513d-9d1d-4320-a1e3-875a8b21d4c5"},"vehicle_type_id":"4","last_reported":1730221687,"current_range_meters":36400,"station_id":"ce4bhl12rcd13ifvqgf0","pricing_plan_id":"cebpf4jnsgd1na2vs0mg"},{"bike_id":"e1b8f9fb-e491-40ed-a82e-b7180152c511","system_id":"levelo_inurba_marseille","lat":43.23968,"lon":5.36632,"is_reserved":false,"is_disabled":false,"rental_uris":{"android":"levelo://app?vid=e1b8f9fb-e491-40ed-a82e-b7180152c511","ios":"levelo://app?vid=e1b8f9fb-e491-40ed-a82e-b7180152c511"},"vehicle_type_id":"4","last_reported":1730221687,"current_range_meters":36800,"station_id":"ce4bhi12rcd13ifvqfp0","pricing_plan_id":"cebpf4jnsgd1na2vs0mg"},{"bike_id":"39315f60-2df7-4c3e-a4fd-d0ad25d7c3e5","system_id":"levelo_inurba_marseille","lat":43.29529,"lon":5.38547,"is_reserved":false,"is_disabled":false,"rental_uris":{"android":"levelo://app?vid=39315f60-2df7-4c3e-a4fd-d0ad25d7c3e5","ios":"levelo://app?vid=39315f60-2df7-4c3e-a4fd-d0ad25d7c3e5"},"vehicle_type_id":"4","last_reported":1730221687,"current_range_meters":28800,"station_id":"ce4bgih2rcd13ifvqba0","pricing_plan_id":"cebpf4jnsgd1na2vs0mg"},{"bike_id":"bd804815-7874-481f-af2f-201e23f004eb","system_id":"levelo_inurba_marseille","lat":43.26929,"lon":5.38935,"is_reserved":false,"is_disabled":false,"rental_uris":{"android":"levelo://app?vid=bd804815-7874-481f-af2f-201e23f004eb","ios":"levelo://app?vid=bd804815-7874-481f-af2f-201e23f004eb"},"vehicle_type_id":"4","last_reported":1730221687,"current_range_meters":30000,"station_id":"ce4bhhh2rcd13ifvqfl0","pricing_plan_id":"cebpf4jnsgd1na2vs0mg"},{"bike_id":"6235ec86-7722-4b3a-9291-0eda7d1ab6d9","system_id":"levelo_inurba_marseille","lat":43.28157,"lon":5.42645,"is_reserved":false,"is_disabled":false,"rental_uris":{"android":"levelo://app?vid=6235ec86-7722-4b3a-9291-0eda7d1ab6d9","ios":"levelo://app?vid=6235ec86-7722-4b3a-9291-0eda7d1ab6d9"},"vehicle_type_id":"4","last_reported":1730221687,"current_range_meters":36800,"station_id":"ce4bhnh2rcd13ifvqgug","pricing_plan_id":"cebpf4jnsgd1na2vs0mg"},{"bike_id":"041ec194-3f5c-487a-9756-9961793b5622","system_id":"levelo_inurba_marseille","lat":43.28,"lon":5.4002,"is_reserved":false,"is_disabled":false,"rental_uris":{"android":"levelo://app?vid=041ec194-3f5c-487a-9756-9961793b5622","ios":"levelo://app?vid=041ec194-3f5c-487a-9756-9961793b5622"},"vehicle_type_id":"4","last_reported":1730221687,"current_range_meters":30000,"station_id":"ce4bho92rcd13ifvqh4g","pricing_plan_id":"cebpf4jnsgd1na2vs0mg"},{"bike_id":"e3097137-b5d6-42d3-aac7-0b7a2cb63276","system_id":"levelo_inurba_marseille","lat":43.27998,"lon":5.4002,"is_reserved":false,"is_disabled":false,"rental_uris":{"android":"levelo://app?vid=e3097137-b5d6-42d3-aac7-0b7a2cb63276","ios":"levelo://app?vid=e3097137-b5d6-42d3-aac7-0b7a2cb63276"},"vehicle_type_id":"4","last_reported":1730221687,"current_range_meters":19200,"station_id":"ce4bho92rcd13ifvqh4g","pricing_plan_id":"cebpf4jnsgd1na2vs0mg"},{"bike_id":"f8f82aca-24dc-4523-ad53-c59f86bf7c91","system_id":"levelo_inurba_marseille","lat":43.28843,"lon":5.39331,"is_reserved":false,"is_disabled":false,"rental_uris":{"android":"levelo://app?vid=f8f82aca-24dc-4523-ad53-c59f86bf7c91","ios":"levelo://app?vid=f8f82aca-24dc-4523-ad53-c59f86bf7c91"},"vehicle_type_id":"4","last_reported":1730221687,"current_range_meters":37600,"station_id":"ce4bh2p2rcd13ifvqdi0","pricing_plan_id":"cebpf4jnsgd1na2vs0mg"},{"bike_id":"92fa9657-dbab-4680-b1ad-47b6aaf27d01","system_id":"levelo_inurba_marseille","lat":43.27997,"lon":5.40032,"is_reserved":false,"is_disabled":false,"rental_uris":{"android":"levelo://app?vid=92fa9657-dbab-4680-b1ad-47b6aaf27d01","ios":"levelo://app?vid=92fa9657-dbab-4680-b1ad-47b6aaf27d01"},"vehicle_type_id":"4","last_reported":1730221687,"current_range_meters":18800,"station_id":"ce4bho92rcd13ifvqh4g","pricing_plan_id":"cebpf4jnsgd1na2vs0mg"},{"bike_id":"3271917c-0527-441a-816d-bcab30fe8874","system_id":"levelo_inurba_marseille","lat":43.2668,"lon":5.38281,"is_reserved":false,"is_disabled":false,"rental_uris":{"android":"levelo://app?vid=3271917c-0527-441a-816d-bcab30fe8874","ios":"levelo://app?vid=3271917c-0527-441a-816d-bcab30fe8874"},"vehicle_type_id":"4","last_reported":1730221687,"current_range_meters":32800,"station_id":"ce4bhg92rcd13ifvqf90","pricing_plan_id":"cebpf4jnsgd1na2vs0mg"},{"bike_id":"9d46e0b2-b7a2-490a-aca2-06a1d5481623","system_id":"levelo_inurba_marseille","lat":43.2792,"lon":5.41785,"is_reserved":false,"is_disabled":false,"rental_uris":{"android":"levelo://app?vid=9d46e0b2-b7a2-490a-aca2-06a1d5481623","ios":"levelo://app?vid=9d46e0b2-b7a2-490a-aca2-06a1d5481623"},"vehicle_type_id":"4","last_reported":1730221687,"current_range_meters":16800,"station_id":"","pricing_plan_id":"cebpf4jnsgd1na2vs0mg"},{"bike_id":"1cd90807-c36a-493b-915e-928df05d1d9e","system_id":"levelo_inurba_marseille","lat":43.27313,"lon":5.39087,"is_reserved":false,"is_disabled":false,"rental_uris":{"android":"levelo://app?vid=1cd90807-c36a-493b-915e-928df05d1d9e","ios":"levelo://app?vid=1cd90807-c36a-493b-915e-928df05d1d9e"},"vehicle_type_id":"4","last_reported":1730221687,"current_range_meters":32800,"station_id":"ce4bhgp2rcd13ifvqfe0","pricing_plan_id":"cebpf4jnsgd1na2vs0mg"},{"bike_id":"63d9b635-24e2-4930-b850-87982f020cfc","system_id":"levelo_inurba_marseille","lat":43.30431,"lon":5.38901,"is_reserved":false,"is_disabled":false,"rental_uris":{"android":"levelo://app?vid=63d9b635-24e2-4930-b850-87982f020cfc","ios":"levelo://app?vid=63d9b635-24e2-4930-b850-87982f020cfc"},"vehicle_type_id":"4","last_reported":1730221687,"current_range_meters":19200,"station_id":"ce4bgk12rcd13ifvqbi0","pricing_plan_id":"cebpf4jnsgd1na2vs0mg"},{"bike_id":"24277843-ea11-4f50-8c9c-5991f076f4b5","system_id":"levelo_inurba_marseille","lat":43.2866,"lon":5.36353,"is_reserved":false,"is_disabled":false,"rental_uris":{"android":"levelo://app?vid=24277843-ea11-4f50-8c9c-5991f076f4b5","ios":"levelo://app?vid=24277843-ea11-4f50-8c9c-5991f076f4b5"},"vehicle_type_id":"4","last_reported":1730221687,"current_range_meters":19200,"station_id":"ce4bhah2rcd13ifvqej0","pricing_plan_id":"cebpf4jnsgd1na2vs0mg"},{"bike_id":"ffc201a2-59c6-4274-b93a-7642f6b93206","system_id":"levelo_inurba_marseille","lat":43.2997,"lon":5.37164,"is_reserved":false,"is_disabled":false,"rental_uris":{"android":"levelo://app?vid=ffc201a2-59c6-4274-b93a-7642f6b93206","ios":"levelo://app?vid=ffc201a2-59c6-4274-b93a-7642f6b93206"},"vehicle_type_id":"4","last_reported":1730221687,"current_range_meters":8400,"station_id":"ce4bgr92rcd13ifvqc7g","pricing_plan_id":"cebpf4jnsgd1na2vs0mg"},{"bike_id":"fe0d64c0-ec38-4c5f-97fd-73683173eb6e","system_id":"levelo_inurba_marseille","lat":43.27996,"lon":5.40014,"is_reserved":false,"is_disabled":false,"rental_uris":{"android":"levelo://app?vid=fe0d64c0-ec38-4c5f-97fd-73683173eb6e","ios":"levelo://app?vid=fe0d64c0-ec38-4c5f-97fd-73683173eb6e"},"vehicle_type_id":"4","last_reported":1730221687,"current_range_meters":38000,"station_id":"ce4bho92rcd13ifvqh4g","pricing_plan_id":"cebpf4jnsgd1na2vs0mg"},{"bike_id":"d4599001-8245-4340-8d39-6b74938c4d1c","system_id":"levelo_inurba_marseille","lat":43.33714,"lon":5.39189,"is_reserved":false,"is_disabled":false,"rental_uris":{"android":"levelo://app?vid=d4599001-8245-4340-8d39-6b74938c4d1c","ios":"levelo://app?vid=d4599001-8245-4340-8d39-6b74938c4d1c"},"vehicle_type_id":"4","last_reported":1730221687,"current_range_meters":12000,"station_id":"ce4bhr92rcd13ifvqhsg","pricing_plan_id":"cebpf4jnsgd1na2vs0mg"},{"bike_id":"baf7c465-8d62-47fd-b581-9074cdb7e3ac","system_id":"levelo_inurba_marseille","lat":43.239687,"lon":5.366244,"is_reserved":false,"is_disabled":false,"rental_uris":{"android":"levelo://app?vid=baf7c465-8d62-47fd-b581-9074cdb7e3ac","ios":"levelo://app?vid=baf7c465-8d62-47fd-b581-9074cdb7e3ac"},"vehicle_type_id":"4","last_reported":1730221687,"current_range_meters":16800,"station_id":"ce4bhg12rcd13ifvqf60","pricing_plan_id":"cebpf4jnsgd1na2vs0mg"},{"bike_id":"6c55372d-3929-4cf2-b4ea-30149f454df3","system_id":"levelo_inurba_marseille","lat":43.27989,"lon":5.40009,"is_reserved":false,"is_disabled":false,"rental_uris":{"android":"levelo://app?vid=6c55372d-3929-4cf2-b4ea-30149f454df3","ios":"levelo://app?vid=6c55372d-3929-4cf2-b4ea-30149f454df3"},"vehicle_type_id":"4","last_reported":1730221687,"current_range_meters":30800,"station_id":"ce4bho92rcd13ifvqh4g","pricing_plan_id":"cebpf4jnsgd1na2vs0mg"},{"bike_id":"de26d2e3-435f-4444-a71a-85f92f4cf820","system_id":"levelo_inurba_marseille","lat":43.29517,"lon":5.39039,"is_reserved":false,"is_disabled":false,"rental_uris":{"android":"levelo://app?vid=de26d2e3-435f-4444-a71a-85f92f4cf820","ios":"levelo://app?vid=de26d2e3-435f-4444-a71a-85f92f4cf820"},"vehicle_type_id":"4","last_reported":1730221687,"current_range_meters":26800,"station_id":"ce4bh3p2rcd13ifvqdp0","pricing_plan_id":"cebpf4jnsgd1na2vs0mg"},{"bike_id":"0c144024-0101-4754-9344-c41dc19da274","system_id":"levelo_inurba_marseille","lat":43.27615,"lon":5.3611,"is_reserved":false,"is_disabled":false,"rental_uris":{"android":"levelo://app?vid=0c144024-0101-4754-9344-c41dc19da274","ios":"levelo://app?vid=0c144024-0101-4754-9344-c41dc19da274"},"vehicle_type_id":"4","last_reported":1730221687,"current_range_meters":18000,"station_id":"ce4bgj92rcd13ifvqbe0","pricing_plan_id":"cebpf4jnsgd1na2vs0mg"},{"bike_id":"bb821d30-bf87-4f9f-b285-1d4bcb13d437","system_id":"levelo_inurba_marseille","lat":43.30356,"lon":5.41881,"is_reserved":false,"is_disabled":false,"rental_uris":{"android":"levelo://app?vid=bb821d30-bf87-4f9f-b285-1d4bcb13d437","ios":"levelo://app?vid=bb821d30-bf87-4f9f-b285-1d4bcb13d437"},"vehicle_type_id":"4","last_reported":1730221687,"current_range_meters":16800,"station_id":"ce4bhop2rcd13ifvqh7g","pricing_plan_id":"cebpf4jnsgd1na2vs0mg"},{"bike_id":"53f40179-1243-4e83-8f7a-432c3bf8a957","system_id":"levelo_inurba_marseille","lat":43.299277,"lon":5.365434,"is_reserved":false,"is_disabled":false,"rental_uris":{"android":"levelo://app?vid=53f40179-1243-4e83-8f7a-432c3bf8a957","ios":"levelo://app?vid=53f40179-1243-4e83-8f7a-432c3bf8a957"},"vehicle_type_id":"4","last_reported":1730221687,"current_range_meters":35600,"station_id":"ce4bgm92rcd13ifvqbr0","pricing_plan_id":"cebpf4jnsgd1na2vs0mg"},{"bike_id":"a1f83bf3-eed6-45ed-a98a-d29a1a4fe512","system_id":"levelo_inurba_marseille","lat":43.29939,"lon":5.4131,"is_reserved":false,"is_disabled":false,"rental_uris":{"android":"levelo://app?vid=a1f83bf3-eed6-45ed-a98a-d29a1a4fe512","ios":"levelo://app?vid=a1f83bf3-eed6-45ed-a98a-d29a1a4fe512"},"vehicle_type_id":"4","last_reported":1730221687,"current_range_meters":28000,"station_id":"ce4bhp12rcd13ifvqh9g","pricing_plan_id":"cebpf4jnsgd1na2vs0mg"},{"bike_id":"1e308fc0-4bd1-4dc6-847c-4c741605cea1","system_id":"levelo_inurba_marseille","lat":43.29008,"lon":5.35621,"is_reserved":false,"is_disabled":false,"rental_uris":{"android":"levelo://app?vid=1e308fc0-4bd1-4dc6-847c-4c741605cea1","ios":"levelo://app?vid=1e308fc0-4bd1-4dc6-847c-4c741605cea1"},"vehicle_type_id":"4","last_reported":1730221687,"current_range_meters":16400,"station_id":"ce4bhb92rcd13ifvqen0","pricing_plan_id":"cebpf4jnsgd1na2vs0mg"},{"bike_id":"1362df16-1312-4c9b-9942-83176f6c6637","system_id":"levelo_inurba_marseille","lat":43.30885,"lon":5.39662,"is_reserved":false,"is_disabled":false,"rental_uris":{"android":"levelo://app?vid=1362df16-1312-4c9b-9942-83176f6c6637","ios":"levelo://app?vid=1362df16-1312-4c9b-9942-83176f6c6637"},"vehicle_type_id":"4","last_reported":1730221687,"current_range_meters":30400,"station_id":"ce4bh012rcd13ifvqcv0","pricing_plan_id":"cebpf4jnsgd1na2vs0mg"},{"bike_id":"766801a5-7dbd-464a-bc56-398e14b9cf78","system_id":"levelo_inurba_marseille","lat":43.29805,"lon":5.37136,"is_reserved":false,"is_disabled":false,"rental_uris":{"android":"levelo://app?vid=766801a5-7dbd-464a-bc56-398e14b9cf78","ios":"levelo://app?vid=766801a5-7dbd-464a-bc56-398e14b9cf78"},"vehicle_type_id":"4","last_reported":1730221687,"current_range_meters":9600,"station_id":"","pricing_plan_id":"cebpf4jnsgd1na2vs0mg"},{"bike_id":"afc8a59e-718c-432c-b226-d6be0903e5fb","system_id":"levelo_inurba_marseille","lat":43.24388,"lon":5.37071,"is_reserved":false,"is_disabled":false,"rental_uris":{"android":"levelo://app?vid=afc8a59e-718c-432c-b226-d6be0903e5fb","ios":"levelo://app?vid=afc8a59e-718c-432c-b226-d6be0903e5fb"},"vehicle_type_id":"4","last_reported":1730221687,"current_range_meters":36800,"station_id":"ce4bhhh2rcd13ifvqfk0","pricing_plan_id":"cebpf4jnsgd1na2vs0mg"},{"bike_id":"0ad599f2-e869-411e-bc12-944dbeb4b148","system_id":"levelo_inurba_marseille","lat":43.28716,"lon":5.39998,"is_reserved":false,"is_disabled":false,"rental_uris":{"android":"levelo://app?vid=0ad599f2-e869-411e-bc12-944dbeb4b148","ios":"levelo://app?vid=0ad599f2-e869-411e-bc12-944dbeb4b148"},"vehicle_type_id":"4","last_reported":1730221687,"current_range_meters":38800,"station_id":"ce4bho92rcd13ifvqh3g","pricing_plan_id":"cebpf4jnsgd1na2vs0mg"},{"bike_id":"057be8eb-e4e3-4e61-ac3e-e574d7e989e2","system_id":"levelo_inurba_marseille","lat":43.32476,"lon":5.3658,"is_reserved":false,"is_disabled":false,"rental_uris":{"android":"levelo://app?vid=057be8eb-e4e3-4e61-ac3e-e574d7e989e2","ios":"levelo://app?vid=057be8eb-e4e3-4e61-ac3e-e574d7e989e2"},"vehicle_type_id":"4","last_reported":1730221687,"current_range_meters":6400,"station_id":"ce4bhs12rcd13ifvqhvg","pricing_plan_id":"cebpf4jnsgd1na2vs0mg"},{"bike_id":"bfba58d0-23b9-4a50-bf89-80025efc8c0d","system_id":"levelo_inurba_marseille","lat":43.25718,"lon":5.41118,"is_reserved":false,"is_disabled":false,"rental_uris":{"android":"levelo://app?vid=bfba58d0-23b9-4a50-bf89-80025efc8c0d","ios":"levelo://app?vid=bfba58d0-23b9-4a50-bf89-80025efc8c0d"},"vehicle_type_id":"4","last_reported":1730221687,"current_range_meters":16000,"station_id":"ce4bhkp2rcd13ifvqgd0","pricing_plan_id":"cebpf4jnsgd1na2vs0mg"},{"bike_id":"84a34f64-d710-4f7b-8f16-f367a9f930e0","system_id":"levelo_inurba_marseille","lat":43.26065,"lon":5.39393,"is_reserved":false,"is_disabled":false,"rental_uris":{"android":"levelo://app?vid=84a34f64-d710-4f7b-8f16-f367a9f930e0","ios":"levelo://app?vid=84a34f64-d710-4f7b-8f16-f367a9f930e0"},"vehicle_type_id":"4","last_reported":1730221687,"current_range_meters":29600,"station_id":"ce4bhh92rcd13ifvqfj0","pricing_plan_id":"cebpf4jnsgd1na2vs0mg"},{"bike_id":"e86850cd-4f32-4759-8d2b-99b7f160aae7","system_id":"levelo_inurba_marseille","lat":43.29094,"lon":5.38152,"is_reserved":false,"is_disabled":false,"rental_uris":{"android":"levelo://app?vid=e86850cd-4f32-4759-8d2b-99b7f160aae7","ios":"levelo://app?vid=e86850cd-4f32-4759-8d2b-99b7f160aae7"},"vehicle_type_id":"4","last_reported":1730221687,"current_range_meters":19200,"station_id":"ce4bh512rcd13ifvqe2g","pricing_plan_id":"cebpf4jnsgd1na2vs0mg"},{"bike_id":"9849ea7b-4c4d-4e7c-9589-e7fd87a12308","system_id":"levelo_inurba_marseille","lat":43.2694,"lon":5.40251,"is_reserved":false,"is_disabled":false,"rental_uris":{"android":"levelo://app?vid=9849ea7b-4c4d-4e7c-9589-e7fd87a12308","ios":"levelo://app?vid=9849ea7b-4c4d-4e7c-9589-e7fd87a12308"},"vehicle_type_id":"4","last_reported":1730221687,"current_range_meters":8000,"station_id":"cjm6bp8fraef2m0cb0m0","pricing_plan_id":"cebpf4jnsgd1na2vs0mg"},{"bike_id":"69f99de8-a5e5-40ed-8f48-3ec2b07a28b2","system_id":"levelo_inurba_marseille","lat":43.26565,"lon":5.39013,"is_reserved":false,"is_disabled":false,"rental_uris":{"android":"levelo://app?vid=69f99de8-a5e5-40ed-8f48-3ec2b07a28b2","ios":"levelo://app?vid=69f99de8-a5e5-40ed-8f48-3ec2b07a28b2"},"vehicle_type_id":"4","last_reported":1730221687,"current_range_meters":13600,"station_id":"ce4bhe12rcd13ifvqf30","pricing_plan_id":"cebpf4jnsgd1na2vs0mg"},{"bike_id":"a06aaa3a-469c-4c08-9a71-0d7e5c362262","system_id":"levelo_inurba_marseille","lat":43.33732,"lon":5.39183,"is_reserved":false,"is_disabled":false,"rental_uris":{"android":"levelo://app?vid=a06aaa3a-469c-4c08-9a71-0d7e5c362262","ios":"levelo://app?vid=a06aaa3a-469c-4c08-9a71-0d7e5c362262"},"vehicle_type_id":"4","last_reported":1730221687,"current_range_meters":30800,"station_id":"ce4bhr92rcd13ifvqhsg","pricing_plan_id":"cebpf4jnsgd1na2vs0mg"},{"bike_id":"af32fab5-dd88-4aa5-b3f4-272618f4b4b3","system_id":"levelo_inurba_marseille","lat":43.29602,"lon":5.38111,"is_reserved":false,"is_disabled":false,"rental_uris":{"android":"levelo://app?vid=af32fab5-dd88-4aa5-b3f4-272618f4b4b3","ios":"levelo://app?vid=af32fab5-dd88-4aa5-b3f4-272618f4b4b3"},"vehicle_type_id":"4","last_reported":1730221687,"current_range_meters":27600,"station_id":"ce4bgl12rcd13ifvqbo0","pricing_plan_id":"cebpf4jnsgd1na2vs0mg"},{"bike_id":"43ce7ae4-719d-410b-8d72-c81c2ea5fae3","system_id":"levelo_inurba_marseille","lat":43.25578,"lon":5.38233,"is_reserved":false,"is_disabled":false,"rental_uris":{"android":"levelo://app?vid=43ce7ae4-719d-410b-8d72-c81c2ea5fae3","ios":"levelo://app?vid=43ce7ae4-719d-410b-8d72-c81c2ea5fae3"},"vehicle_type_id":"4","last_reported":1730221687,"current_range_meters":19200,"station_id":"ce4bhih2rcd13ifvqfs0","pricing_plan_id":"cebpf4jnsgd1na2vs0mg"},{"bike_id":"0df2a136-5a6b-484c-8bbd-fd4fd89e871a","system_id":"levelo_inurba_marseille","lat":43.29862,"lon":5.39739,"is_reserved":false,"is_disabled":false,"rental_uris":{"android":"levelo://app?vid=0df2a136-5a6b-484c-8bbd-fd4fd89e871a","ios":"levelo://app?vid=0df2a136-5a6b-484c-8bbd-fd4fd89e871a"},"vehicle_type_id":"4","last_reported":1730221687,"current_range_meters":23200,"station_id":"ce4bh0h2rcd13ifvqd50","pricing_plan_id":"cebpf4jnsgd1na2vs0mg"},{"bike_id":"e99a29cc-dcba-4186-9964-ae93362adcc6","system_id":"levelo_inurba_marseille","lat":43.29871,"lon":5.39737,"is_reserved":false,"is_disabled":false,"rental_uris":{"android":"levelo://app?vid=e99a29cc-dcba-4186-9964-ae93362adcc6","ios":"levelo://app?vid=e99a29cc-dcba-4186-9964-ae93362adcc6"},"vehicle_type_id":"4","last_reported":1730221687,"current_range_meters":38800,"station_id":"ce4bh0h2rcd13ifvqd50","pricing_plan_id":"cebpf4jnsgd1na2vs0mg"},{"bike_id":"a404248e-6987-4d99-b20a-9cc9dfe309cc","system_id":"levelo_inurba_marseille","lat":43.24075,"lon":5.37756,"is_reserved":false,"is_disabled":false,"rental_uris":{"android":"levelo://app?vid=a404248e-6987-4d99-b20a-9cc9dfe309cc","ios":"levelo://app?vid=a404248e-6987-4d99-b20a-9cc9dfe309cc"},"vehicle_type_id":"4","last_reported":1730221687,"current_range_meters":9600,"station_id":"ce4bhnp2rcd13ifvqgvg","pricing_plan_id":"cebpf4jnsgd1na2vs0mg"},{"bike_id":"8f0cb092-254a-4a6f-b6f3-f1dd57d99320","system_id":"levelo_inurba_marseille","lat":43.23183,"lon":5.39998,"is_reserved":false,"is_disabled":false,"rental_uris":{"android":"levelo://app?vid=8f0cb092-254a-4a6f-b6f3-f1dd57d99320","ios":"levelo://app?vid=8f0cb092-254a-4a6f-b6f3-f1dd57d99320"},"vehicle_type_id":"4","last_reported":1730221687,"current_range_meters":16800,"station_id":"ce4bhn12rcd13ifvqgqg","pricing_plan_id":"cebpf4jnsgd1na2vs0mg"},{"bike_id":"b9f1ad9c-a85d-423e-bfd1-e3d8c870cf87","system_id":"levelo_inurba_marseille","lat":43.31272,"lon":5.40166,"is_reserved":false,"is_disabled":false,"rental_uris":{"android":"levelo://app?vid=b9f1ad9c-a85d-423e-bfd1-e3d8c870cf87","ios":"levelo://app?vid=b9f1ad9c-a85d-423e-bfd1-e3d8c870cf87"},"vehicle_type_id":"4","last_reported":1730221687,"current_range_meters":27200,"station_id":"ce4bh092rcd13ifvqd30","pricing_plan_id":"cebpf4jnsgd1na2vs0mg"},{"bike_id":"5ea475d8-fbf3-460f-872c-01c8b0273f69","system_id":"levelo_inurba_marseille","lat":43.23056,"lon":5.35501,"is_reserved":false,"is_disabled":false,"rental_uris":{"android":"levelo://app?vid=5ea475d8-fbf3-460f-872c-01c8b0273f69","ios":"levelo://app?vid=5ea475d8-fbf3-460f-872c-01c8b0273f69"},"vehicle_type_id":"4","last_reported":1730221687,"current_range_meters":12800,"station_id":"cpo3342slgdg3j2ifvpg","pricing_plan_id":"cebpf4jnsgd1na2vs0mg"},{"bike_id":"c301accf-a537-4c35-9b51-7a53ea1114b4","system_id":"levelo_inurba_marseille","lat":43.32659,"lon":5.40998,"is_reserved":false,"is_disabled":false,"rental_uris":{"android":"levelo://app?vid=c301accf-a537-4c35-9b51-7a53ea1114b4","ios":"levelo://app?vid=c301accf-a537-4c35-9b51-7a53ea1114b4"},"vehicle_type_id":"4","last_reported":1730221687,"current_range_meters":38000,"station_id":"ce4bhpp2rcd13ifvqhgg","pricing_plan_id":"cebpf4jnsgd1na2vs0mg"},{"bike_id":"5b0caea7-b0e5-4da2-a359-403550b56cfa","system_id":"levelo_inurba_marseille","lat":43.24165,"lon":5.36399,"is_reserved":false,"is_disabled":false,"rental_uris":{"android":"levelo://app?vid=5b0caea7-b0e5-4da2-a359-403550b56cfa","ios":"levelo://app?vid=5b0caea7-b0e5-4da2-a359-403550b56cfa"},"vehicle_type_id":"4","last_reported":1730221687,"current_range_meters":27200,"station_id":"cpo36qri1sfpv3e86is0","pricing_plan_id":"cebpf4jnsgd1na2vs0mg"},{"bike_id":"5f4f2c25-30dd-4429-889c-1054aa2cbd0b","system_id":"levelo_inurba_marseille","lat":43.25093,"lon":5.39526,"is_reserved":false,"is_disabled":false,"rental_uris":{"android":"levelo://app?vid=5f4f2c25-30dd-4429-889c-1054aa2cbd0b","ios":"levelo://app?vid=5f4f2c25-30dd-4429-889c-1054aa2cbd0b"},"vehicle_type_id":"4","last_reported":1730221687,"current_range_meters":34800,"station_id":"ce4bhm12rcd13ifvqgkg","pricing_plan_id":"cebpf4jnsgd1na2vs0mg"},{"bike_id":"b34af6c4-9817-45e0-b621-423e5faf7334","system_id":"levelo_inurba_marseille","lat":43.28177,"lon":5.42646,"is_reserved":false,"is_disabled":false,"rental_uris":{"android":"levelo://app?vid=b34af6c4-9817-45e0-b621-423e5faf7334","ios":"levelo://app?vid=b34af6c4-9817-45e0-b621-423e5faf7334"},"vehicle_type_id":"4","last_reported":1730221687,"current_range_meters":13600,"station_id":"ce4bhnh2rcd13ifvqgug","pricing_plan_id":"cebpf4jnsgd1na2vs0mg"},{"bike_id":"aee7f5bd-dd1a-43d3-8332-fe1be419f635","system_id":"levelo_inurba_marseille","lat":43.29513,"lon":5.39044,"is_reserved":false,"is_disabled":false,"rental_uris":{"android":"levelo://app?vid=aee7f5bd-dd1a-43d3-8332-fe1be419f635","ios":"levelo://app?vid=aee7f5bd-dd1a-43d3-8332-fe1be419f635"},"vehicle_type_id":"4","last_reported":1730221687,"current_range_meters":17600,"station_id":"ce4bh3p2rcd13ifvqdp0","pricing_plan_id":"cebpf4jnsgd1na2vs0mg"},{"bike_id":"f9d0957f-c2bc-4daf-98d0-74ceb5bc572d","system_id":"levelo_inurba_marseille","lat":43.29563,"lon":5.39971,"is_reserved":false,"is_disabled":false,"rental_uris":{"android":"levelo://app?vid=f9d0957f-c2bc-4daf-98d0-74ceb5bc572d","ios":"levelo://app?vid=f9d0957f-c2bc-4daf-98d0-74ceb5bc572d"},"vehicle_type_id":"4","last_reported":1730221687,"current_range_meters":37600,"station_id":"ce4bh312rcd13ifvqdj0","pricing_plan_id":"cebpf4jnsgd1na2vs0mg"},{"bike_id":"8534caf9-a28e-4772-b9eb-728e9742c6db","system_id":"levelo_inurba_marseille","lat":43.284627,"lon":5.358879,"is_reserved":false,"is_disabled":false,"rental_uris":{"android":"levelo://app?vid=8534caf9-a28e-4772-b9eb-728e9742c6db","ios":"levelo://app?vid=8534caf9-a28e-4772-b9eb-728e9742c6db"},"vehicle_type_id":"4","last_reported":1730221687,"current_range_meters":4000,"station_id":"ce4bhah2rcd13ifvqei0","pricing_plan_id":"cebpf4jnsgd1na2vs0mg"},{"bike_id":"4fcfb61f-1c65-4f17-b662-41c2872fbfc0","system_id":"levelo_inurba_marseille","lat":43.30126,"lon":5.39878,"is_reserved":false,"is_disabled":false,"rental_uris":{"android":"levelo://app?vid=4fcfb61f-1c65-4f17-b662-41c2872fbfc0","ios":"levelo://app?vid=4fcfb61f-1c65-4f17-b662-41c2872fbfc0"},"vehicle_type_id":"4","last_reported":1730221687,"current_range_meters":6000,"station_id":"ce4bh0h2rcd13ifvqd40","pricing_plan_id":"cebpf4jnsgd1na2vs0mg"},{"bike_id":"ac423e87-9f76-41c3-a9ec-29e374df9cac","system_id":"levelo_inurba_marseille","lat":43.29623,"lon":5.37172,"is_reserved":false,"is_disabled":false,"rental_uris":{"android":"levelo://app?vid=ac423e87-9f76-41c3-a9ec-29e374df9cac","ios":"levelo://app?vid=ac423e87-9f76-41c3-a9ec-29e374df9cac"},"vehicle_type_id":"4","last_reported":1730221687,"current_range_meters":19200,"station_id":"ce4bgnh2rcd13ifvqc0g","pricing_plan_id":"cebpf4jnsgd1na2vs0mg"},{"bike_id":"160c3125-d109-49e3-a687-ede78b99dea2","system_id":"levelo_inurba_marseille","lat":43.232,"lon":5.3555,"is_reserved":false,"is_disabled":false,"rental_uris":{"android":"levelo://app?vid=160c3125-d109-49e3-a687-ede78b99dea2","ios":"levelo://app?vid=160c3125-d109-49e3-a687-ede78b99dea2"},"vehicle_type_id":"4","last_reported":1730221687,"current_range_meters":16000,"station_id":"ce4bhu92rcd13ifvqi70","pricing_plan_id":"cebpf4jnsgd1na2vs0mg"},{"bike_id":"7a3f60d6-5589-44b2-bea7-8a929e9b6b4e","system_id":"levelo_inurba_marseille","lat":43.29899,"lon":5.43667,"is_reserved":false,"is_disabled":false,"rental_uris":{"android":"levelo://app?vid=7a3f60d6-5589-44b2-bea7-8a929e9b6b4e","ios":"levelo://app?vid=7a3f60d6-5589-44b2-bea7-8a929e9b6b4e"},"vehicle_type_id":"4","last_reported":1730221687,"current_range_meters":16800,"station_id":"ce4bhpp2rcd13ifvqhfg","pricing_plan_id":"cebpf4jnsgd1na2vs0mg"},{"bike_id":"79bf9c97-a5ea-4f15-9e63-9d99560507ff","system_id":"levelo_inurba_marseille","lat":43.29798,"lon":5.39345,"is_reserved":false,"is_disabled":false,"rental_uris":{"android":"levelo://app?vid=79bf9c97-a5ea-4f15-9e63-9d99560507ff","ios":"levelo://app?vid=79bf9c97-a5ea-4f15-9e63-9d99560507ff"},"vehicle_type_id":"4","last_reported":1730221687,"current_range_meters":24800,"station_id":"chh1huq6cuj3fo74tm60","pricing_plan_id":"cebpf4jnsgd1na2vs0mg"},{"bike_id":"58d379de-16a8-4741-9eba-595efbb72180","system_id":"levelo_inurba_marseille","lat":43.28162,"lon":5.42649,"is_reserved":false,"is_disabled":false,"rental_uris":{"android":"levelo://app?vid=58d379de-16a8-4741-9eba-595efbb72180","ios":"levelo://app?vid=58d379de-16a8-4741-9eba-595efbb72180"},"vehicle_type_id":"4","last_reported":1730221687,"current_range_meters":30400,"station_id":"ce4bhnh2rcd13ifvqgug","pricing_plan_id":"cebpf4jnsgd1na2vs0mg"},{"bike_id":"e6420a18-0fb6-4a1b-9f8a-5fcfadc157f2","system_id":"levelo_inurba_marseille","lat":43.30136,"lon":5.3987,"is_reserved":false,"is_disabled":false,"rental_uris":{"android":"levelo://app?vid=e6420a18-0fb6-4a1b-9f8a-5fcfadc157f2","ios":"levelo://app?vid=e6420a18-0fb6-4a1b-9f8a-5fcfadc157f2"},"vehicle_type_id":"4","last_reported":1730221687,"current_range_meters":37600,"station_id":"ce4bh0h2rcd13ifvqd40","pricing_plan_id":"cebpf4jnsgd1na2vs0mg"},{"bike_id":"0ec64e75-ca91-41b2-b009-5503f3400997","system_id":"levelo_inurba_marseille","lat":43.32655,"lon":5.41003,"is_reserved":false,"is_disabled":false,"rental_uris":{"android":"levelo://app?vid=0ec64e75-ca91-41b2-b009-5503f3400997","ios":"levelo://app?vid=0ec64e75-ca91-41b2-b009-5503f3400997"},"vehicle_type_id":"4","last_reported":1730221687,"current_range_meters":35200,"station_id":"ce4bhpp2rcd13ifvqhgg","pricing_plan_id":"cebpf4jnsgd1na2vs0mg"},{"bike_id":"d097e1c4-b6ac-485e-bc5f-3ad7f92973cf","system_id":"levelo_inurba_marseille","lat":43.26944,"lon":5.40259,"is_reserved":false,"is_disabled":false,"rental_uris":{"android":"levelo://app?vid=d097e1c4-b6ac-485e-bc5f-3ad7f92973cf","ios":"levelo://app?vid=d097e1c4-b6ac-485e-bc5f-3ad7f92973cf"},"vehicle_type_id":"4","last_reported":1730221687,"current_range_meters":5600,"station_id":"cjm6bp8fraef2m0cb0m0","pricing_plan_id":"cebpf4jnsgd1na2vs0mg"},{"bike_id":"2fa84510-5cc2-42b3-85a4-d0f8f9072a66","system_id":"levelo_inurba_marseille","lat":43.29253,"lon":5.40905,"is_reserved":false,"is_disabled":false,"rental_uris":{"android":"levelo://app?vid=2fa84510-5cc2-42b3-85a4-d0f8f9072a66","ios":"levelo://app?vid=2fa84510-5cc2-42b3-85a4-d0f8f9072a66"},"vehicle_type_id":"4","last_reported":1730221687,"current_range_meters":26800,"station_id":"ce4bh192rcd13ifvqdc0","pricing_plan_id":"cebpf4jnsgd1na2vs0mg"},{"bike_id":"1a8b5cae-27e4-4bc0-84c1-449b5d85d005","system_id":"levelo_inurba_marseille","lat":43.28698,"lon":5.39995,"is_reserved":false,"is_disabled":false,"rental_uris":{"android":"levelo://app?vid=1a8b5cae-27e4-4bc0-84c1-449b5d85d005","ios":"levelo://app?vid=1a8b5cae-27e4-4bc0-84c1-449b5d85d005"},"vehicle_type_id":"4","last_reported":1730221687,"current_range_meters":38400,"station_id":"ce4bho92rcd13ifvqh3g","pricing_plan_id":"cebpf4jnsgd1na2vs0mg"},{"bike_id":"d2e1be70-1e07-4524-8891-f3e937f0894b","system_id":"levelo_inurba_marseille","lat":43.27667,"lon":5.38878,"is_reserved":false,"is_disabled":false,"rental_uris":{"android":"levelo://app?vid=d2e1be70-1e07-4524-8891-f3e937f0894b","ios":"levelo://app?vid=d2e1be70-1e07-4524-8891-f3e937f0894b"},"vehicle_type_id":"4","last_reported":1730221687,"current_range_meters":35200,"station_id":"ce4bhi12rcd13ifvqfo0","pricing_plan_id":"cebpf4jnsgd1na2vs0mg"},{"bike_id":"b7781eb8-8879-4312-92ef-046d8dc5ee5c","system_id":"levelo_inurba_marseille","lat":43.29641,"lon":5.40599,"is_reserved":false,"is_disabled":false,"rental_uris":{"android":"levelo://app?vid=b7781eb8-8879-4312-92ef-046d8dc5ee5c","ios":"levelo://app?vid=b7781eb8-8879-4312-92ef-046d8dc5ee5c"},"vehicle_type_id":"4","last_reported":1730221687,"current_range_meters":2800,"station_id":"ce4bh0h2rcd13ifvqd60","pricing_plan_id":"cebpf4jnsgd1na2vs0mg"},{"bike_id":"2fcaa46f-c736-45b6-88ee-2f21c6acfc8a","system_id":"levelo_inurba_marseille","lat":43.29262,"lon":5.40912,"is_reserved":false,"is_disabled":false,"rental_uris":{"android":"levelo://app?vid=2fcaa46f-c736-45b6-88ee-2f21c6acfc8a","ios":"levelo://app?vid=2fcaa46f-c736-45b6-88ee-2f21c6acfc8a"},"vehicle_type_id":"4","last_reported":1730221687,"current_range_meters":39200,"station_id":"ce4bh192rcd13ifvqdc0","pricing_plan_id":"cebpf4jnsgd1na2vs0mg"},{"bike_id":"0e71b1d2-b04a-47fc-90da-0526bcd080de","system_id":"levelo_inurba_marseille","lat":43.32368,"lon":5.38884,"is_reserved":false,"is_disabled":false,"rental_uris":{"android":"levelo://app?vid=0e71b1d2-b04a-47fc-90da-0526bcd080de","ios":"levelo://app?vid=0e71b1d2-b04a-47fc-90da-0526bcd080de"},"vehicle_type_id":"4","last_reported":1730221687,"current_range_meters":25600,"station_id":"ce4bhqp2rcd13ifvqhog","pricing_plan_id":"cebpf4jnsgd1na2vs0mg"},{"bike_id":"dcd2bc95-48f3-40a0-9f40-41629344bc3e","system_id":"levelo_inurba_marseille","lat":43.29581,"lon":5.36749,"is_reserved":false,"is_disabled":false,"rental_uris":{"android":"levelo://app?vid=dcd2bc95-48f3-40a0-9f40-41629344bc3e","ios":"levelo://app?vid=dcd2bc95-48f3-40a0-9f40-41629344bc3e"},"vehicle_type_id":"4","last_reported":1730221687,"current_range_meters":17200,"station_id":"ce4bgph2rcd13ifvqc2g","pricing_plan_id":"cebpf4jnsgd1na2vs0mg"},{"bike_id":"7df88530-41bc-4299-8f7d-6c3ad2ee30be","system_id":"levelo_inurba_marseille","lat":43.31883,"lon":5.40741,"is_reserved":false,"is_disabled":false,"rental_uris":{"android":"levelo://app?vid=7df88530-41bc-4299-8f7d-6c3ad2ee30be","ios":"levelo://app?vid=7df88530-41bc-4299-8f7d-6c3ad2ee30be"},"vehicle_type_id":"4","last_reported":1730221687,"current_range_meters":26000,"station_id":"ce4bhq12rcd13ifvqhig","pricing_plan_id":"cebpf4jnsgd1na2vs0mg"},{"bike_id":"0e11c335-1c03-4519-90b2-bdab430231e5","system_id":"levelo_inurba_marseille","lat":43.290394,"lon":5.375668,"is_reserved":false,"is_disabled":false,"rental_uris":{"android":"levelo://app?vid=0e11c335-1c03-4519-90b2-bdab430231e5","ios":"levelo://app?vid=0e11c335-1c03-4519-90b2-bdab430231e5"},"vehicle_type_id":"4","last_reported":1730221687,"current_range_meters":38000,"station_id":"ce4bh5p2rcd13ifvqe4g","pricing_plan_id":"cebpf4jnsgd1na2vs0mg"},{"bike_id":"a5ecadc9-cb02-4701-8506-8cbc8f44bd96","system_id":"levelo_inurba_marseille","lat":43.33025,"lon":5.39048,"is_reserved":false,"is_disabled":false,"rental_uris":{"android":"levelo://app?vid=a5ecadc9-cb02-4701-8506-8cbc8f44bd96","ios":"levelo://app?vid=a5ecadc9-cb02-4701-8506-8cbc8f44bd96"},"vehicle_type_id":"4","last_reported":1730221687,"current_range_meters":25600,"station_id":"ce4bhr92rcd13ifvqhrg","pricing_plan_id":"cebpf4jnsgd1na2vs0mg"},{"bike_id":"db1ea31f-160f-4060-a324-7fca581432dc","system_id":"levelo_inurba_marseille","lat":43.29528,"lon":5.378448,"is_reserved":false,"is_disabled":false,"rental_uris":{"android":"levelo://app?vid=db1ea31f-160f-4060-a324-7fca581432dc","ios":"levelo://app?vid=db1ea31f-160f-4060-a324-7fca581432dc"},"vehicle_type_id":"4","last_reported":1730221687,"current_range_meters":12800,"station_id":"ce4bgr92rcd13ifvqc7g","pricing_plan_id":"cebpf4jnsgd1na2vs0mg"},{"bike_id":"11224d7e-4531-4986-9a13-3e95276c2eed","system_id":"levelo_inurba_marseille","lat":43.24391,"lon":5.37068,"is_reserved":false,"is_disabled":false,"rental_uris":{"android":"levelo://app?vid=11224d7e-4531-4986-9a13-3e95276c2eed","ios":"levelo://app?vid=11224d7e-4531-4986-9a13-3e95276c2eed"},"vehicle_type_id":"4","last_reported":1730221687,"current_range_meters":20800,"station_id":"ce4bhhh2rcd13ifvqfk0","pricing_plan_id":"cebpf4jnsgd1na2vs0mg"},{"bike_id":"0878cfc8-15a6-4a91-bc54-f03f7118d5c9","system_id":"levelo_inurba_marseille","lat":43.29707,"lon":5.3661,"is_reserved":false,"is_disabled":false,"rental_uris":{"android":"levelo://app?vid=0878cfc8-15a6-4a91-bc54-f03f7118d5c9","ios":"levelo://app?vid=0878cfc8-15a6-4a91-bc54-f03f7118d5c9"},"vehicle_type_id":"4","last_reported":1730221687,"current_range_meters":22800,"station_id":"ce4bgn12rcd13ifvqbt0","pricing_plan_id":"cebpf4jnsgd1na2vs0mg"},{"bike_id":"958c6c16-54d9-4ff0-9712-a587a1b366f3","system_id":"levelo_inurba_marseille","lat":43.2926,"lon":5.40913,"is_reserved":false,"is_disabled":false,"rental_uris":{"android":"levelo://app?vid=958c6c16-54d9-4ff0-9712-a587a1b366f3","ios":"levelo://app?vid=958c6c16-54d9-4ff0-9712-a587a1b366f3"},"vehicle_type_id":"4","last_reported":1730221687,"current_range_meters":16800,"station_id":"ce4bh192rcd13ifvqdc0","pricing_plan_id":"cebpf4jnsgd1na2vs0mg"},{"bike_id":"2fda6181-03f5-40ed-b158-4bcd6908625f","system_id":"levelo_inurba_marseille","lat":43.31678,"lon":5.43569,"is_reserved":false,"is_disabled":false,"rental_uris":{"android":"levelo://app?vid=2fda6181-03f5-40ed-b158-4bcd6908625f","ios":"levelo://app?vid=2fda6181-03f5-40ed-b158-4bcd6908625f"},"vehicle_type_id":"4","last_reported":1730221687,"current_range_meters":23200,"station_id":"","pricing_plan_id":"cebpf4jnsgd1na2vs0mg"},{"bike_id":"42f33d93-d869-423b-8263-d4fe286325ee","system_id":"levelo_inurba_marseille","lat":43.240761,"lon":5.377534,"is_reserved":false,"is_disabled":false,"rental_uris":{"android":"levelo://app?vid=42f33d93-d869-423b-8263-d4fe286325ee","ios":"levelo://app?vid=42f33d93-d869-423b-8263-d4fe286325ee"},"vehicle_type_id":"4","last_reported":1730221687,"current_range_meters":4000,"station_id":"ce4bhnp2rcd13ifvqgvg","pricing_plan_id":"cebpf4jnsgd1na2vs0mg"},{"bike_id":"6c857bf7-f984-4f12-a2c3-99e3635aa9a9","system_id":"levelo_inurba_marseille","lat":43.26056,"lon":5.39401,"is_reserved":false,"is_disabled":false,"rental_uris":{"android":"levelo://app?vid=6c857bf7-f984-4f12-a2c3-99e3635aa9a9","ios":"levelo://app?vid=6c857bf7-f984-4f12-a2c3-99e3635aa9a9"},"vehicle_type_id":"4","last_reported":1730221687,"current_range_meters":30400,"station_id":"ce4bhh92rcd13ifvqfj0","pricing_plan_id":"cebpf4jnsgd1na2vs0mg"},{"bike_id":"ac6f2e5d-1d01-4602-926d-d4c71dc1ff1c","system_id":"levelo_inurba_marseille","lat":43.31162,"lon":5.38733,"is_reserved":false,"is_disabled":false,"rental_uris":{"android":"levelo://app?vid=ac6f2e5d-1d01-4602-926d-d4c71dc1ff1c","ios":"levelo://app?vid=ac6f2e5d-1d01-4602-926d-d4c71dc1ff1c"},"vehicle_type_id":"4","last_reported":1730221687,"current_range_meters":7200,"station_id":"ce4bgv12rcd13ifvqcp0","pricing_plan_id":"cebpf4jnsgd1na2vs0mg"},{"bike_id":"98f4cae0-0621-4baf-aa77-29f49abc4e3b","system_id":"levelo_inurba_marseille","lat":43.232361,"lon":5.39991,"is_reserved":false,"is_disabled":false,"rental_uris":{"android":"levelo://app?vid=98f4cae0-0621-4baf-aa77-29f49abc4e3b","ios":"levelo://app?vid=98f4cae0-0621-4baf-aa77-29f49abc4e3b"},"vehicle_type_id":"4","last_reported":1730221687,"current_range_meters":22000,"station_id":"ce4bhn12rcd13ifvqgqg","pricing_plan_id":"cebpf4jnsgd1na2vs0mg"},{"bike_id":"42c5b94d-a6e1-4c0e-b3fa-74ef5f2ef0d2","system_id":"levelo_inurba_marseille","lat":43.23962,"lon":5.36629,"is_reserved":false,"is_disabled":false,"rental_uris":{"android":"levelo://app?vid=42c5b94d-a6e1-4c0e-b3fa-74ef5f2ef0d2","ios":"levelo://app?vid=42c5b94d-a6e1-4c0e-b3fa-74ef5f2ef0d2"},"vehicle_type_id":"4","last_reported":1730221687,"current_range_meters":21600,"station_id":"ce4bhi12rcd13ifvqfp0","pricing_plan_id":"cebpf4jnsgd1na2vs0mg"},{"bike_id":"0cad19f3-1c3a-4ce2-bfd0-d4cbbb778b44","system_id":"levelo_inurba_marseille","lat":43.28622,"lon":5.35107,"is_reserved":false,"is_disabled":false,"rental_uris":{"android":"levelo://app?vid=0cad19f3-1c3a-4ce2-bfd0-d4cbbb778b44","ios":"levelo://app?vid=0cad19f3-1c3a-4ce2-bfd0-d4cbbb778b44"},"vehicle_type_id":"4","last_reported":1730221687,"current_range_meters":30800,"station_id":"ce4bhch2rcd13ifvqeug","pricing_plan_id":"cebpf4jnsgd1na2vs0mg"},{"bike_id":"c7286b0f-1080-4edd-a434-e4561a88d420","system_id":"levelo_inurba_marseille","lat":43.28004,"lon":5.40023,"is_reserved":false,"is_disabled":false,"rental_uris":{"android":"levelo://app?vid=c7286b0f-1080-4edd-a434-e4561a88d420","ios":"levelo://app?vid=c7286b0f-1080-4edd-a434-e4561a88d420"},"vehicle_type_id":"4","last_reported":1730221687,"current_range_meters":24000,"station_id":"ce4bho92rcd13ifvqh4g","pricing_plan_id":"cebpf4jnsgd1na2vs0mg"},{"bike_id":"b5d45365-61a3-46af-a4e3-c9fb98c3c9cf","system_id":"levelo_inurba_marseille","lat":43.29617,"lon":5.37734,"is_reserved":false,"is_disabled":false,"rental_uris":{"android":"levelo://app?vid=b5d45365-61a3-46af-a4e3-c9fb98c3c9cf","ios":"levelo://app?vid=b5d45365-61a3-46af-a4e3-c9fb98c3c9cf"},"vehicle_type_id":"4","last_reported":1730221687,"current_range_meters":4800,"station_id":"ce4bgi92rcd13ifvqb90","pricing_plan_id":"cebpf4jnsgd1na2vs0mg"},{"bike_id":"0cebe45a-7302-469a-b861-6fd094a95414","system_id":"levelo_inurba_marseille","lat":43.2319,"lon":5.35554,"is_reserved":false,"is_disabled":false,"rental_uris":{"android":"levelo://app?vid=0cebe45a-7302-469a-b861-6fd094a95414","ios":"levelo://app?vid=0cebe45a-7302-469a-b861-6fd094a95414"},"vehicle_type_id":"4","last_reported":1730221687,"current_range_meters":8000,"station_id":"ce4bhu92rcd13ifvqi70","pricing_plan_id":"cebpf4jnsgd1na2vs0mg"},{"bike_id":"ed37c987-b9d3-47c5-8064-677d55e1f12d","system_id":"levelo_inurba_marseille","lat":43.29309,"lon":5.37458,"is_reserved":false,"is_disabled":false,"rental_uris":{"android":"levelo://app?vid=ed37c987-b9d3-47c5-8064-677d55e1f12d","ios":"levelo://app?vid=ed37c987-b9d3-47c5-8064-677d55e1f12d"},"vehicle_type_id":"4","last_reported":1730221687,"current_range_meters":27600,"station_id":"ce4bgi12rcd13ifvqb70","pricing_plan_id":"cebpf4jnsgd1na2vs0mg"},{"bike_id":"769025b3-b1ab-4a56-8310-7807acc06298","system_id":"levelo_inurba_marseille","lat":43.28712,"lon":5.37391,"is_reserved":false,"is_disabled":false,"rental_uris":{"android":"levelo://app?vid=769025b3-b1ab-4a56-8310-7807acc06298","ios":"levelo://app?vid=769025b3-b1ab-4a56-8310-7807acc06298"},"vehicle_type_id":"4","last_reported":1730221687,"current_range_meters":39200,"station_id":"ce4bh3p2rcd13ifvqdq0","pricing_plan_id":"cebpf4jnsgd1na2vs0mg"},{"bike_id":"b484d928-90f2-4ce5-a53e-52ba9fc989eb","system_id":"levelo_inurba_marseille","lat":43.288483,"lon":5.393326,"is_reserved":false,"is_disabled":false,"rental_uris":{"android":"levelo://app?vid=b484d928-90f2-4ce5-a53e-52ba9fc989eb","ios":"levelo://app?vid=b484d928-90f2-4ce5-a53e-52ba9fc989eb"},"vehicle_type_id":"4","last_reported":1730221687,"current_range_meters":28800,"station_id":"ce4bh2p2rcd13ifvqdi0","pricing_plan_id":"cebpf4jnsgd1na2vs0mg"},{"bike_id":"a7b500f2-0896-40c8-bb8e-e8367c142b27","system_id":"levelo_inurba_marseille","lat":43.30664,"lon":5.40085,"is_reserved":false,"is_disabled":false,"rental_uris":{"android":"levelo://app?vid=a7b500f2-0896-40c8-bb8e-e8367c142b27","ios":"levelo://app?vid=a7b500f2-0896-40c8-bb8e-e8367c142b27"},"vehicle_type_id":"4","last_reported":1730221687,"current_range_meters":2000,"station_id":"ce4bh112rcd13ifvqda0","pricing_plan_id":"cebpf4jnsgd1na2vs0mg"},{"bike_id":"da78512d-c17d-43ef-8efc-969a9072e5c7","system_id":"levelo_inurba_marseille","lat":43.28932,"lon":5.38412,"is_reserved":false,"is_disabled":false,"rental_uris":{"android":"levelo://app?vid=da78512d-c17d-43ef-8efc-969a9072e5c7","ios":"levelo://app?vid=da78512d-c17d-43ef-8efc-969a9072e5c7"},"vehicle_type_id":"4","last_reported":1730221687,"current_range_meters":8000,"station_id":"ce4bh612rcd13ifvqe6g","pricing_plan_id":"cebpf4jnsgd1na2vs0mg"},{"bike_id":"3f97a69b-a918-4061-8b62-c8d36c85eff4","system_id":"levelo_inurba_marseille","lat":43.28,"lon":5.4003,"is_reserved":false,"is_disabled":false,"rental_uris":{"android":"levelo://app?vid=3f97a69b-a918-4061-8b62-c8d36c85eff4","ios":"levelo://app?vid=3f97a69b-a918-4061-8b62-c8d36c85eff4"},"vehicle_type_id":"4","last_reported":1730221687,"current_range_meters":29600,"station_id":"ce4bho92rcd13ifvqh4g","pricing_plan_id":"cebpf4jnsgd1na2vs0mg"},{"bike_id":"e7dc52f1-28fb-4551-bb6e-938ca25e6aae","system_id":"levelo_inurba_marseille","lat":43.26576,"lon":5.39008,"is_reserved":false,"is_disabled":false,"rental_uris":{"android":"levelo://app?vid=e7dc52f1-28fb-4551-bb6e-938ca25e6aae","ios":"levelo://app?vid=e7dc52f1-28fb-4551-bb6e-938ca25e6aae"},"vehicle_type_id":"4","last_reported":1730221687,"current_range_meters":19600,"station_id":"ce4bhe12rcd13ifvqf30","pricing_plan_id":"cebpf4jnsgd1na2vs0mg"},{"bike_id":"5d518288-2712-4be9-8aff-1f5ec6403be2","system_id":"levelo_inurba_marseille","lat":43.27177,"lon":5.41,"is_reserved":false,"is_disabled":false,"rental_uris":{"android":"levelo://app?vid=5d518288-2712-4be9-8aff-1f5ec6403be2","ios":"levelo://app?vid=5d518288-2712-4be9-8aff-1f5ec6403be2"},"vehicle_type_id":"4","last_reported":1730221687,"current_range_meters":19600,"station_id":"ce4bhl12rcd13ifvqgf0","pricing_plan_id":"cebpf4jnsgd1na2vs0mg"},{"bike_id":"641e730b-fb30-493f-98d4-4e7a97ef3b69","system_id":"levelo_inurba_marseille","lat":43.29588,"lon":5.36751,"is_reserved":false,"is_disabled":false,"rental_uris":{"android":"levelo://app?vid=641e730b-fb30-493f-98d4-4e7a97ef3b69","ios":"levelo://app?vid=641e730b-fb30-493f-98d4-4e7a97ef3b69"},"vehicle_type_id":"4","last_reported":1730221687,"current_range_meters":25200,"station_id":"ce4bgph2rcd13ifvqc2g","pricing_plan_id":"cebpf4jnsgd1na2vs0mg"},{"bike_id":"1ffcbdcf-7135-49fb-b4e5-a01edc8c1e3f","system_id":"levelo_inurba_marseille","lat":43.23207,"lon":5.39975,"is_reserved":false,"is_disabled":false,"rental_uris":{"android":"levelo://app?vid=1ffcbdcf-7135-49fb-b4e5-a01edc8c1e3f","ios":"levelo://app?vid=1ffcbdcf-7135-49fb-b4e5-a01edc8c1e3f"},"vehicle_type_id":"4","last_reported":1730221687,"current_range_meters":4400,"station_id":"ce4bhn12rcd13ifvqgqg","pricing_plan_id":"cebpf4jnsgd1na2vs0mg"},{"bike_id":"6b74f6b7-54de-4296-a9ad-659349dab030","system_id":"levelo_inurba_marseille","lat":43.313265,"lon":5.396951,"is_reserved":false,"is_disabled":false,"rental_uris":{"android":"levelo://app?vid=6b74f6b7-54de-4296-a9ad-659349dab030","ios":"levelo://app?vid=6b74f6b7-54de-4296-a9ad-659349dab030"},"vehicle_type_id":"4","last_reported":1730221687,"current_range_meters":36800,"station_id":"ce4bgvp2rcd13ifvqcu0","pricing_plan_id":"cebpf4jnsgd1na2vs0mg"},{"bike_id":"218a4769-7c25-4739-9405-81b41ca0e65a","system_id":"levelo_inurba_marseille","lat":43.30808,"lon":5.38156,"is_reserved":false,"is_disabled":false,"rental_uris":{"android":"levelo://app?vid=218a4769-7c25-4739-9405-81b41ca0e65a","ios":"levelo://app?vid=218a4769-7c25-4739-9405-81b41ca0e65a"},"vehicle_type_id":"4","last_reported":1730221687,"current_range_meters":37600,"station_id":"ce4bgt12rcd13ifvqce0","pricing_plan_id":"cebpf4jnsgd1na2vs0mg"},{"bike_id":"b838bb80-b27c-4331-9071-b3f231234486","system_id":"levelo_inurba_marseille","lat":43.32367,"lon":5.38888,"is_reserved":false,"is_disabled":false,"rental_uris":{"android":"levelo://app?vid=b838bb80-b27c-4331-9071-b3f231234486","ios":"levelo://app?vid=b838bb80-b27c-4331-9071-b3f231234486"},"vehicle_type_id":"4","last_reported":1730221687,"current_range_meters":28800,"station_id":"ce4bhqp2rcd13ifvqhog","pricing_plan_id":"cebpf4jnsgd1na2vs0mg"},{"bike_id":"7e6550d1-ff23-4314-a63a-fde907e33519","system_id":"levelo_inurba_marseille","lat":43.3109,"lon":5.42438,"is_reserved":false,"is_disabled":false,"rental_uris":{"android":"levelo://app?vid=7e6550d1-ff23-4314-a63a-fde907e33519","ios":"levelo://app?vid=7e6550d1-ff23-4314-a63a-fde907e33519"},"vehicle_type_id":"4","last_reported":1730221687,"current_range_meters":38800,"station_id":"ce4bhp92rcd13ifvqhag","pricing_plan_id":"cebpf4jnsgd1na2vs0mg"},{"bike_id":"a5cb1303-a73c-4081-b544-4c2d1bd86c87","system_id":"levelo_inurba_marseille","lat":43.27167,"lon":5.40994,"is_reserved":false,"is_disabled":false,"rental_uris":{"android":"levelo://app?vid=a5cb1303-a73c-4081-b544-4c2d1bd86c87","ios":"levelo://app?vid=a5cb1303-a73c-4081-b544-4c2d1bd86c87"},"vehicle_type_id":"4","last_reported":1730221687,"current_range_meters":11200,"station_id":"ce4bhl12rcd13ifvqgf0","pricing_plan_id":"cebpf4jnsgd1na2vs0mg"},{"bike_id":"9bbdc421-e337-4bd8-a908-6317df543ed7","system_id":"levelo_inurba_marseille","lat":43.288544,"lon":5.393205,"is_reserved":false,"is_disabled":false,"rental_uris":{"android":"levelo://app?vid=9bbdc421-e337-4bd8-a908-6317df543ed7","ios":"levelo://app?vid=9bbdc421-e337-4bd8-a908-6317df543ed7"},"vehicle_type_id":"4","last_reported":1730221687,"current_range_meters":28800,"station_id":"ce4bh2p2rcd13ifvqdi0","pricing_plan_id":"cebpf4jnsgd1na2vs0mg"},{"bike_id":"e5d7fc79-deaa-4d09-b329-6aea675c4874","system_id":"levelo_inurba_marseille","lat":43.32286,"lon":5.3827,"is_reserved":false,"is_disabled":false,"rental_uris":{"android":"levelo://app?vid=e5d7fc79-deaa-4d09-b329-6aea675c4874","ios":"levelo://app?vid=e5d7fc79-deaa-4d09-b329-6aea675c4874"},"vehicle_type_id":"4","last_reported":1730221687,"current_range_meters":14400,"station_id":"ce4bhr12rcd13ifvqhqg","pricing_plan_id":"cebpf4jnsgd1na2vs0mg"},{"bike_id":"b83c58c4-6d93-41f5-88cc-db1a2d404e8d","system_id":"levelo_inurba_marseille","lat":43.27998,"lon":5.40016,"is_reserved":false,"is_disabled":false,"rental_uris":{"android":"levelo://app?vid=b83c58c4-6d93-41f5-88cc-db1a2d404e8d","ios":"levelo://app?vid=b83c58c4-6d93-41f5-88cc-db1a2d404e8d"},"vehicle_type_id":"4","last_reported":1730221687,"current_range_meters":38800,"station_id":"ce4bho92rcd13ifvqh4g","pricing_plan_id":"cebpf4jnsgd1na2vs0mg"},{"bike_id":"f4f9d16a-23ce-49d8-b92f-ce1d4ce09c08","system_id":"levelo_inurba_marseille","lat":43.24084,"lon":5.37743,"is_reserved":false,"is_disabled":false,"rental_uris":{"android":"levelo://app?vid=f4f9d16a-23ce-49d8-b92f-ce1d4ce09c08","ios":"levelo://app?vid=f4f9d16a-23ce-49d8-b92f-ce1d4ce09c08"},"vehicle_type_id":"4","last_reported":1730221687,"current_range_meters":28400,"station_id":"ce4bhnp2rcd13ifvqgvg","pricing_plan_id":"cebpf4jnsgd1na2vs0mg"},{"bike_id":"fcac787d-0e40-4ad0-9c61-886caf00c39a","system_id":"levelo_inurba_marseille","lat":43.293303,"lon":5.382131,"is_reserved":false,"is_disabled":false,"rental_uris":{"android":"levelo://app?vid=fcac787d-0e40-4ad0-9c61-886caf00c39a","ios":"levelo://app?vid=fcac787d-0e40-4ad0-9c61-886caf00c39a"},"vehicle_type_id":"4","last_reported":1730221687,"current_range_meters":6000,"station_id":"ce4bh692rcd13ifvqea0","pricing_plan_id":"cebpf4jnsgd1na2vs0mg"},{"bike_id":"a1a6d302-1407-4957-a299-207c9c332ec8","system_id":"levelo_inurba_marseille","lat":43.29034,"lon":5.37554,"is_reserved":false,"is_disabled":false,"rental_uris":{"android":"levelo://app?vid=a1a6d302-1407-4957-a299-207c9c332ec8","ios":"levelo://app?vid=a1a6d302-1407-4957-a299-207c9c332ec8"},"vehicle_type_id":"4","last_reported":1730221687,"current_range_meters":29600,"station_id":"ce4bh692rcd13ifvqe90","pricing_plan_id":"cebpf4jnsgd1na2vs0mg"},{"bike_id":"89e3984a-8aab-4193-b001-89fcd46e7063","system_id":"levelo_inurba_marseille","lat":43.292677,"lon":5.384447,"is_reserved":false,"is_disabled":false,"rental_uris":{"android":"levelo://app?vid=89e3984a-8aab-4193-b001-89fcd46e7063","ios":"levelo://app?vid=89e3984a-8aab-4193-b001-89fcd46e7063"},"vehicle_type_id":"4","last_reported":1730221687,"current_range_meters":21600,"station_id":"ce4bh692rcd13ifvqea0","pricing_plan_id":"cebpf4jnsgd1na2vs0mg"},{"bike_id":"4c4d217b-c5f5-4548-951d-1d273f343e3b","system_id":"levelo_inurba_marseille","lat":43.292816,"lon":5.374723,"is_reserved":false,"is_disabled":false,"rental_uris":{"android":"levelo://app?vid=4c4d217b-c5f5-4548-951d-1d273f343e3b","ios":"levelo://app?vid=4c4d217b-c5f5-4548-951d-1d273f343e3b"},"vehicle_type_id":"4","last_reported":1730221687,"current_range_meters":7200,"station_id":"ce4bh4p2rcd13ifvqe1g","pricing_plan_id":"cebpf4jnsgd1na2vs0mg"},{"bike_id":"27fa2a6f-373f-429d-ac88-254027fc30d9","system_id":"levelo_inurba_marseille","lat":43.27839,"lon":5.39217,"is_reserved":false,"is_disabled":false,"rental_uris":{"android":"levelo://app?vid=27fa2a6f-373f-429d-ac88-254027fc30d9","ios":"levelo://app?vid=27fa2a6f-373f-429d-ac88-254027fc30d9"},"vehicle_type_id":"4","last_reported":1730221687,"current_range_meters":33600,"station_id":"ce4bhjp2rcd13ifvqga0","pricing_plan_id":"cebpf4jnsgd1na2vs0mg"},{"bike_id":"a9248852-0d69-423e-86a4-c9b260a01efa","system_id":"levelo_inurba_marseille","lat":43.28478,"lon":5.38413,"is_reserved":false,"is_disabled":false,"rental_uris":{"android":"levelo://app?vid=a9248852-0d69-423e-86a4-c9b260a01efa","ios":"levelo://app?vid=a9248852-0d69-423e-86a4-c9b260a01efa"},"vehicle_type_id":"4","last_reported":1730221687,"current_range_meters":3200,"station_id":"ce4bh512rcd13ifvqe3g","pricing_plan_id":"cebpf4jnsgd1na2vs0mg"},{"bike_id":"9e541136-436a-4b82-917e-b2364b1d0a9d","system_id":"levelo_inurba_marseille","lat":43.29319,"lon":5.41159,"is_reserved":false,"is_disabled":false,"rental_uris":{"android":"levelo://app?vid=9e541136-436a-4b82-917e-b2364b1d0a9d","ios":"levelo://app?vid=9e541136-436a-4b82-917e-b2364b1d0a9d"},"vehicle_type_id":"4","last_reported":1730221687,"current_range_meters":17200,"station_id":"","pricing_plan_id":"cebpf4jnsgd1na2vs0mg"},{"bike_id":"ba9cf0cf-770c-41b3-92f4-840b4005ff8e","system_id":"levelo_inurba_marseille","lat":43.30948,"lon":5.39033,"is_reserved":false,"is_disabled":false,"rental_uris":{"android":"levelo://app?vid=ba9cf0cf-770c-41b3-92f4-840b4005ff8e","ios":"levelo://app?vid=ba9cf0cf-770c-41b3-92f4-840b4005ff8e"},"vehicle_type_id":"4","last_reported":1730221687,"current_range_meters":11600,"station_id":"ce4bgup2rcd13ifvqco0","pricing_plan_id":"cebpf4jnsgd1na2vs0mg"},{"bike_id":"4ec11448-2ce5-4e8d-a02b-dbff015a02e9","system_id":"levelo_inurba_marseille","lat":43.28931,"lon":5.38403,"is_reserved":false,"is_disabled":false,"rental_uris":{"android":"levelo://app?vid=4ec11448-2ce5-4e8d-a02b-dbff015a02e9","ios":"levelo://app?vid=4ec11448-2ce5-4e8d-a02b-dbff015a02e9"},"vehicle_type_id":"4","last_reported":1730221687,"current_range_meters":38800,"station_id":"ce4bh612rcd13ifvqe6g","pricing_plan_id":"cebpf4jnsgd1na2vs0mg"},{"bike_id":"7079cfbe-8af5-4564-b404-1d5b82bf71f1","system_id":"levelo_inurba_marseille","lat":43.29307,"lon":5.37459,"is_reserved":false,"is_disabled":false,"rental_uris":{"android":"levelo://app?vid=7079cfbe-8af5-4564-b404-1d5b82bf71f1","ios":"levelo://app?vid=7079cfbe-8af5-4564-b404-1d5b82bf71f1"},"vehicle_type_id":"4","last_reported":1730221687,"current_range_meters":33200,"station_id":"ce4bgi12rcd13ifvqb70","pricing_plan_id":"cebpf4jnsgd1na2vs0mg"},{"bike_id":"7a581afa-ceee-4aab-b7d5-be727d90a15e","system_id":"levelo_inurba_marseille","lat":43.31461,"lon":5.39214,"is_reserved":false,"is_disabled":false,"rental_uris":{"android":"levelo://app?vid=7a581afa-ceee-4aab-b7d5-be727d90a15e","ios":"levelo://app?vid=7a581afa-ceee-4aab-b7d5-be727d90a15e"},"vehicle_type_id":"4","last_reported":1730221687,"current_range_meters":8800,"station_id":"ce4bgvp2rcd13ifvqcu0","pricing_plan_id":"cebpf4jnsgd1na2vs0mg"},{"bike_id":"7389791a-f8ce-4755-9251-c256a0cf9b0f","system_id":"levelo_inurba_marseille","lat":43.2306,"lon":5.35491,"is_reserved":false,"is_disabled":false,"rental_uris":{"android":"levelo://app?vid=7389791a-f8ce-4755-9251-c256a0cf9b0f","ios":"levelo://app?vid=7389791a-f8ce-4755-9251-c256a0cf9b0f"},"vehicle_type_id":"4","last_reported":1730221687,"current_range_meters":17200,"station_id":"cpo3342slgdg3j2ifvpg","pricing_plan_id":"cebpf4jnsgd1na2vs0mg"},{"bike_id":"8b61fa5b-56dc-462c-a122-778d5f2e3f62","system_id":"levelo_inurba_marseille","lat":43.29438,"lon":5.39761,"is_reserved":false,"is_disabled":false,"rental_uris":{"android":"levelo://app?vid=8b61fa5b-56dc-462c-a122-778d5f2e3f62","ios":"levelo://app?vid=8b61fa5b-56dc-462c-a122-778d5f2e3f62"},"vehicle_type_id":"4","last_reported":1730221687,"current_range_meters":30400,"station_id":"ce4bh3h2rcd13ifvqdo0","pricing_plan_id":"cebpf4jnsgd1na2vs0mg"},{"bike_id":"9652a269-239b-4be4-af4b-287abc9e8877","system_id":"levelo_inurba_marseille","lat":43.30928,"lon":5.40151,"is_reserved":false,"is_disabled":false,"rental_uris":{"android":"levelo://app?vid=9652a269-239b-4be4-af4b-287abc9e8877","ios":"levelo://app?vid=9652a269-239b-4be4-af4b-287abc9e8877"},"vehicle_type_id":"4","last_reported":1730221687,"current_range_meters":24800,"station_id":"ce4bgvp2rcd13ifvqct0","pricing_plan_id":"cebpf4jnsgd1na2vs0mg"},{"bike_id":"ccc3ddb5-d6df-40f6-81ab-f895d3a06831","system_id":"levelo_inurba_marseille","lat":43.23053,"lon":5.35497,"is_reserved":false,"is_disabled":false,"rental_uris":{"android":"levelo://app?vid=ccc3ddb5-d6df-40f6-81ab-f895d3a06831","ios":"levelo://app?vid=ccc3ddb5-d6df-40f6-81ab-f895d3a06831"},"vehicle_type_id":"4","last_reported":1730221687,"current_range_meters":18000,"station_id":"cpo3342slgdg3j2ifvpg","pricing_plan_id":"cebpf4jnsgd1na2vs0mg"},{"bike_id":"b86c271e-0d81-46e2-a443-9bf1e96e3898","system_id":"levelo_inurba_marseille","lat":43.2439,"lon":5.37065,"is_reserved":false,"is_disabled":false,"rental_uris":{"android":"levelo://app?vid=b86c271e-0d81-46e2-a443-9bf1e96e3898","ios":"levelo://app?vid=b86c271e-0d81-46e2-a443-9bf1e96e3898"},"vehicle_type_id":"4","last_reported":1730221687,"current_range_meters":20000,"station_id":"ce4bhhh2rcd13ifvqfk0","pricing_plan_id":"cebpf4jnsgd1na2vs0mg"},{"bike_id":"f83c915f-7bc4-4196-9097-0a09fd61fe73","system_id":"levelo_inurba_marseille","lat":43.24387,"lon":5.37061,"is_reserved":false,"is_disabled":false,"rental_uris":{"android":"levelo://app?vid=f83c915f-7bc4-4196-9097-0a09fd61fe73","ios":"levelo://app?vid=f83c915f-7bc4-4196-9097-0a09fd61fe73"},"vehicle_type_id":"4","last_reported":1730221687,"current_range_meters":40000,"station_id":"ce4bhhh2rcd13ifvqfk0","pricing_plan_id":"cebpf4jnsgd1na2vs0mg"},{"bike_id":"ffab8395-8cff-414a-bbf2-caadd24e2d4d","system_id":"levelo_inurba_marseille","lat":43.3236,"lon":5.36769,"is_reserved":false,"is_disabled":false,"rental_uris":{"android":"levelo://app?vid=ffab8395-8cff-414a-bbf2-caadd24e2d4d","ios":"levelo://app?vid=ffab8395-8cff-414a-bbf2-caadd24e2d4d"},"vehicle_type_id":"4","last_reported":1730221687,"current_range_meters":28800,"station_id":"ce4bhsh2rcd13ifvqi2g","pricing_plan_id":"cebpf4jnsgd1na2vs0mg"},{"bike_id":"939108e5-8ebe-4fd3-8f63-9ac93ad65ac9","system_id":"levelo_inurba_marseille","lat":43.300446,"lon":5.400912,"is_reserved":false,"is_disabled":false,"rental_uris":{"android":"levelo://app?vid=939108e5-8ebe-4fd3-8f63-9ac93ad65ac9","ios":"levelo://app?vid=939108e5-8ebe-4fd3-8f63-9ac93ad65ac9"},"vehicle_type_id":"4","last_reported":1730221687,"current_range_meters":28800,"station_id":"ce4bh312rcd13ifvqdj0","pricing_plan_id":"cebpf4jnsgd1na2vs0mg"},{"bike_id":"0fbde740-ab29-4e3e-9f4c-8e92dc779e68","system_id":"levelo_inurba_marseille","lat":43.28928,"lon":5.36404,"is_reserved":false,"is_disabled":false,"rental_uris":{"android":"levelo://app?vid=0fbde740-ab29-4e3e-9f4c-8e92dc779e68","ios":"levelo://app?vid=0fbde740-ab29-4e3e-9f4c-8e92dc779e68"},"vehicle_type_id":"4","last_reported":1730221687,"current_range_meters":3600,"station_id":"ce4bhc92rcd13ifvqetg","pricing_plan_id":"cebpf4jnsgd1na2vs0mg"},{"bike_id":"baae4bb2-14d3-4961-918f-5cbd3442116a","system_id":"levelo_inurba_marseille","lat":43.25826,"lon":5.39436,"is_reserved":false,"is_disabled":false,"rental_uris":{"android":"levelo://app?vid=baae4bb2-14d3-4961-918f-5cbd3442116a","ios":"levelo://app?vid=baae4bb2-14d3-4961-918f-5cbd3442116a"},"vehicle_type_id":"4","last_reported":1730221687,"current_range_meters":37600,"station_id":"ce4bhip2rcd13ifvqft0","pricing_plan_id":"cebpf4jnsgd1na2vs0mg"},{"bike_id":"518b8733-8ff5-4790-81a5-a927d7b5e92d","system_id":"levelo_inurba_marseille","lat":43.337564,"lon":5.374548,"is_reserved":false,"is_disabled":false,"rental_uris":{"android":"levelo://app?vid=518b8733-8ff5-4790-81a5-a927d7b5e92d","ios":"levelo://app?vid=518b8733-8ff5-4790-81a5-a927d7b5e92d"},"vehicle_type_id":"4","last_reported":1730221687,"current_range_meters":36400,"station_id":"","pricing_plan_id":"cebpf4jnsgd1na2vs0mg"},{"bike_id":"81e92385-6697-4b03-bd12-9ecf04128731","system_id":"levelo_inurba_marseille","lat":43.24667,"lon":5.38167,"is_reserved":false,"is_disabled":false,"rental_uris":{"android":"levelo://app?vid=81e92385-6697-4b03-bd12-9ecf04128731","ios":"levelo://app?vid=81e92385-6697-4b03-bd12-9ecf04128731"},"vehicle_type_id":"4","last_reported":1730221687,"current_range_meters":32000,"station_id":"ce4bhih2rcd13ifvqfr0","pricing_plan_id":"cebpf4jnsgd1na2vs0mg"},{"bike_id":"bbac2856-d352-4732-90cd-aaf7ed7af6d5","system_id":"levelo_inurba_marseille","lat":43.24666,"lon":5.38171,"is_reserved":false,"is_disabled":false,"rental_uris":{"android":"levelo://app?vid=bbac2856-d352-4732-90cd-aaf7ed7af6d5","ios":"levelo://app?vid=bbac2856-d352-4732-90cd-aaf7ed7af6d5"},"vehicle_type_id":"4","last_reported":1730221687,"current_range_meters":16800,"station_id":"ce4bhih2rcd13ifvqfr0","pricing_plan_id":"cebpf4jnsgd1na2vs0mg"},{"bike_id":"741e57f0-0008-41d7-9313-850557f86b95","system_id":"levelo_inurba_marseille","lat":43.29603,"lon":5.38115,"is_reserved":false,"is_disabled":false,"rental_uris":{"android":"levelo://app?vid=741e57f0-0008-41d7-9313-850557f86b95","ios":"levelo://app?vid=741e57f0-0008-41d7-9313-850557f86b95"},"vehicle_type_id":"4","last_reported":1730221687,"current_range_meters":5600,"station_id":"ce4bgl12rcd13ifvqbo0","pricing_plan_id":"cebpf4jnsgd1na2vs0mg"},{"bike_id":"2c16266b-58b5-47a9-9313-ffe546d8d2b1","system_id":"levelo_inurba_marseille","lat":43.23954,"lon":5.36641,"is_reserved":false,"is_disabled":false,"rental_uris":{"android":"levelo://app?vid=2c16266b-58b5-47a9-9313-ffe546d8d2b1","ios":"levelo://app?vid=2c16266b-58b5-47a9-9313-ffe546d8d2b1"},"vehicle_type_id":"4","last_reported":1730221687,"current_range_meters":36800,"station_id":"ce4bhi12rcd13ifvqfp0","pricing_plan_id":"cebpf4jnsgd1na2vs0mg"},{"bike_id":"441bbec1-ae65-4059-a99e-66cecc8f44de","system_id":"levelo_inurba_marseille","lat":43.23069,"lon":5.35505,"is_reserved":false,"is_disabled":false,"rental_uris":{"android":"levelo://app?vid=441bbec1-ae65-4059-a99e-66cecc8f44de","ios":"levelo://app?vid=441bbec1-ae65-4059-a99e-66cecc8f44de"},"vehicle_type_id":"4","last_reported":1730221687,"current_range_meters":11600,"station_id":"cpo3342slgdg3j2ifvpg","pricing_plan_id":"cebpf4jnsgd1na2vs0mg"},{"bike_id":"38dad52d-8199-4ab7-b15a-226ff7cf8b9f","system_id":"levelo_inurba_marseille","lat":43.23192,"lon":5.35555,"is_reserved":false,"is_disabled":false,"rental_uris":{"android":"levelo://app?vid=38dad52d-8199-4ab7-b15a-226ff7cf8b9f","ios":"levelo://app?vid=38dad52d-8199-4ab7-b15a-226ff7cf8b9f"},"vehicle_type_id":"4","last_reported":1730221687,"current_range_meters":33200,"station_id":"ce4bhu92rcd13ifvqi70","pricing_plan_id":"cebpf4jnsgd1na2vs0mg"},{"bike_id":"801db353-2faf-4d75-8d4d-ed85d190714a","system_id":"levelo_inurba_marseille","lat":43.23958,"lon":5.36641,"is_reserved":false,"is_disabled":false,"rental_uris":{"android":"levelo://app?vid=801db353-2faf-4d75-8d4d-ed85d190714a","ios":"levelo://app?vid=801db353-2faf-4d75-8d4d-ed85d190714a"},"vehicle_type_id":"4","last_reported":1730221687,"current_range_meters":36400,"station_id":"ce4bhi12rcd13ifvqfp0","pricing_plan_id":"cebpf4jnsgd1na2vs0mg"},{"bike_id":"669cdbd5-c376-45f6-8357-9a16dd886e35","system_id":"levelo_inurba_marseille","lat":43.2407,"lon":5.37752,"is_reserved":false,"is_disabled":false,"rental_uris":{"android":"levelo://app?vid=669cdbd5-c376-45f6-8357-9a16dd886e35","ios":"levelo://app?vid=669cdbd5-c376-45f6-8357-9a16dd886e35"},"vehicle_type_id":"4","last_reported":1730221687,"current_range_meters":22400,"station_id":"ce4bhnp2rcd13ifvqgvg","pricing_plan_id":"cebpf4jnsgd1na2vs0mg"},{"bike_id":"4812bb9b-92a8-4379-a4c2-d11355013d71","system_id":"levelo_inurba_marseille","lat":43.28034,"lon":5.36953,"is_reserved":false,"is_disabled":false,"rental_uris":{"android":"levelo://app?vid=4812bb9b-92a8-4379-a4c2-d11355013d71","ios":"levelo://app?vid=4812bb9b-92a8-4379-a4c2-d11355013d71"},"vehicle_type_id":"4","last_reported":1730221687,"current_range_meters":20000,"station_id":"ce4bha12rcd13ifvqef0","pricing_plan_id":"cebpf4jnsgd1na2vs0mg"},{"bike_id":"87a4f351-ff69-4a07-b681-94a3146943c7","system_id":"levelo_inurba_marseille","lat":43.31067,"lon":5.38354,"is_reserved":false,"is_disabled":false,"rental_uris":{"android":"levelo://app?vid=87a4f351-ff69-4a07-b681-94a3146943c7","ios":"levelo://app?vid=87a4f351-ff69-4a07-b681-94a3146943c7"},"vehicle_type_id":"4","last_reported":1730221687,"current_range_meters":25600,"station_id":"ce4bgv92rcd13ifvqcr0","pricing_plan_id":"cebpf4jnsgd1na2vs0mg"},{"bike_id":"da82a103-ffad-4349-87c9-6f5c09322044","system_id":"levelo_inurba_marseille","lat":43.29938,"lon":5.36552,"is_reserved":false,"is_disabled":false,"rental_uris":{"android":"levelo://app?vid=da82a103-ffad-4349-87c9-6f5c09322044","ios":"levelo://app?vid=da82a103-ffad-4349-87c9-6f5c09322044"},"vehicle_type_id":"4","last_reported":1730221687,"current_range_meters":38000,"station_id":"ce4bgm92rcd13ifvqbr0","pricing_plan_id":"cebpf4jnsgd1na2vs0mg"},{"bike_id":"9caa065a-46af-4008-9822-5b8474694d9b","system_id":"levelo_inurba_marseille","lat":43.279,"lon":5.3801,"is_reserved":false,"is_disabled":false,"rental_uris":{"android":"levelo://app?vid=9caa065a-46af-4008-9822-5b8474694d9b","ios":"levelo://app?vid=9caa065a-46af-4008-9822-5b8474694d9b"},"vehicle_type_id":"4","last_reported":1730221687,"current_range_meters":32000,"station_id":"ce4bhf92rcd13ifvqf50","pricing_plan_id":"cebpf4jnsgd1na2vs0mg"},{"bike_id":"28f270e6-6c6f-48e2-bfa4-7e2f5ca61ffd","system_id":"levelo_inurba_marseille","lat":43.33025,"lon":5.39058,"is_reserved":false,"is_disabled":false,"rental_uris":{"android":"levelo://app?vid=28f270e6-6c6f-48e2-bfa4-7e2f5ca61ffd","ios":"levelo://app?vid=28f270e6-6c6f-48e2-bfa4-7e2f5ca61ffd"},"vehicle_type_id":"4","last_reported":1730221687,"current_range_meters":15200,"station_id":"ce4bhr92rcd13ifvqhrg","pricing_plan_id":"cebpf4jnsgd1na2vs0mg"},{"bike_id":"aeec7b94-ba6f-4552-bc77-ffff963c8dcd","system_id":"levelo_inurba_marseille","lat":43.23958,"lon":5.36636,"is_reserved":false,"is_disabled":false,"rental_uris":{"android":"levelo://app?vid=aeec7b94-ba6f-4552-bc77-ffff963c8dcd","ios":"levelo://app?vid=aeec7b94-ba6f-4552-bc77-ffff963c8dcd"},"vehicle_type_id":"4","last_reported":1730221687,"current_range_meters":30800,"station_id":"ce4bhi12rcd13ifvqfp0","pricing_plan_id":"cebpf4jnsgd1na2vs0mg"},{"bike_id":"204ba2d8-cf22-43dc-8d17-c874760d123b","system_id":"levelo_inurba_marseille","lat":43.25012,"lon":5.38915,"is_reserved":false,"is_disabled":false,"rental_uris":{"android":"levelo://app?vid=204ba2d8-cf22-43dc-8d17-c874760d123b","ios":"levelo://app?vid=204ba2d8-cf22-43dc-8d17-c874760d123b"},"vehicle_type_id":"4","last_reported":1730221687,"current_range_meters":27600,"station_id":"ce4bhgp2rcd13ifvqfd0","pricing_plan_id":"cebpf4jnsgd1na2vs0mg"},{"bike_id":"68691065-7bc4-47e0-88da-4d2dfb5d82d3","system_id":"levelo_inurba_marseille","lat":43.27428,"lon":5.39422,"is_reserved":false,"is_disabled":false,"rental_uris":{"android":"levelo://app?vid=68691065-7bc4-47e0-88da-4d2dfb5d82d3","ios":"levelo://app?vid=68691065-7bc4-47e0-88da-4d2dfb5d82d3"},"vehicle_type_id":"4","last_reported":1730221687,"current_range_meters":20800,"station_id":"ce4bhdp2rcd13ifvqf20","pricing_plan_id":"cebpf4jnsgd1na2vs0mg"},{"bike_id":"aa0bac7b-505c-4fc1-88b2-2cdb997df59a","system_id":"levelo_inurba_marseille","lat":43.29521,"lon":5.3905,"is_reserved":false,"is_disabled":false,"rental_uris":{"android":"levelo://app?vid=aa0bac7b-505c-4fc1-88b2-2cdb997df59a","ios":"levelo://app?vid=aa0bac7b-505c-4fc1-88b2-2cdb997df59a"},"vehicle_type_id":"4","last_reported":1730221687,"current_range_meters":4400,"station_id":"ce4bh3p2rcd13ifvqdp0","pricing_plan_id":"cebpf4jnsgd1na2vs0mg"},{"bike_id":"6ee0b674-50c0-4bdc-aa5c-569edef3d9f3","system_id":"levelo_inurba_marseille","lat":43.2439,"lon":5.37065,"is_reserved":false,"is_disabled":false,"rental_uris":{"android":"levelo://app?vid=6ee0b674-50c0-4bdc-aa5c-569edef3d9f3","ios":"levelo://app?vid=6ee0b674-50c0-4bdc-aa5c-569edef3d9f3"},"vehicle_type_id":"4","last_reported":1730221687,"current_range_meters":38800,"station_id":"ce4bhhh2rcd13ifvqfk0","pricing_plan_id":"cebpf4jnsgd1na2vs0mg"},{"bike_id":"202e4a96-a2c6-44a3-8e3c-6b520d0333b9","system_id":"levelo_inurba_marseille","lat":43.28001,"lon":5.40015,"is_reserved":false,"is_disabled":false,"rental_uris":{"android":"levelo://app?vid=202e4a96-a2c6-44a3-8e3c-6b520d0333b9","ios":"levelo://app?vid=202e4a96-a2c6-44a3-8e3c-6b520d0333b9"},"vehicle_type_id":"4","last_reported":1730221687,"current_range_meters":30000,"station_id":"ce4bho92rcd13ifvqh4g","pricing_plan_id":"cebpf4jnsgd1na2vs0mg"},{"bike_id":"14e59b56-9c46-42c5-a450-d2f877cfb9cb","system_id":"levelo_inurba_marseille","lat":43.28927,"lon":5.38398,"is_reserved":false,"is_disabled":false,"rental_uris":{"android":"levelo://app?vid=14e59b56-9c46-42c5-a450-d2f877cfb9cb","ios":"levelo://app?vid=14e59b56-9c46-42c5-a450-d2f877cfb9cb"},"vehicle_type_id":"4","last_reported":1730221687,"current_range_meters":33600,"station_id":"ce4bh612rcd13ifvqe6g","pricing_plan_id":"cebpf4jnsgd1na2vs0mg"},{"bike_id":"300bf935-3320-447e-87be-0059c21ed146","system_id":"levelo_inurba_marseille","lat":43.295623,"lon":5.375322,"is_reserved":false,"is_disabled":false,"rental_uris":{"android":"levelo://app?vid=300bf935-3320-447e-87be-0059c21ed146","ios":"levelo://app?vid=300bf935-3320-447e-87be-0059c21ed146"},"vehicle_type_id":"4","last_reported":1730221687,"current_range_meters":19200,"station_id":"","pricing_plan_id":"cebpf4jnsgd1na2vs0mg"},{"bike_id":"49909d5f-dc0c-4f2a-a559-f5f9e4b340c3","system_id":"levelo_inurba_marseille","lat":43.2407,"lon":5.3777,"is_reserved":false,"is_disabled":false,"rental_uris":{"android":"levelo://app?vid=49909d5f-dc0c-4f2a-a559-f5f9e4b340c3","ios":"levelo://app?vid=49909d5f-dc0c-4f2a-a559-f5f9e4b340c3"},"vehicle_type_id":"4","last_reported":1730221687,"current_range_meters":38800,"station_id":"ce4bhnp2rcd13ifvqgvg","pricing_plan_id":"cebpf4jnsgd1na2vs0mg"},{"bike_id":"1dbd6ef2-de8b-446c-ae31-1a1554ac3caa","system_id":"levelo_inurba_marseille","lat":43.2674,"lon":5.3841,"is_reserved":false,"is_disabled":false,"rental_uris":{"android":"levelo://app?vid=1dbd6ef2-de8b-446c-ae31-1a1554ac3caa","ios":"levelo://app?vid=1dbd6ef2-de8b-446c-ae31-1a1554ac3caa"},"vehicle_type_id":"4","last_reported":1730221687,"current_range_meters":4400,"station_id":"ce4bhg92rcd13ifvqf90","pricing_plan_id":"cebpf4jnsgd1na2vs0mg"},{"bike_id":"01958bd3-3be7-4a98-9bd0-a42975d84071","system_id":"levelo_inurba_marseille","lat":43.30128,"lon":5.38793,"is_reserved":false,"is_disabled":false,"rental_uris":{"android":"levelo://app?vid=01958bd3-3be7-4a98-9bd0-a42975d84071","ios":"levelo://app?vid=01958bd3-3be7-4a98-9bd0-a42975d84071"},"vehicle_type_id":"4","last_reported":1730221687,"current_range_meters":32800,"station_id":"ce4bghh2rcd13ifvqb60","pricing_plan_id":"cebpf4jnsgd1na2vs0mg"},{"bike_id":"e5e53f34-dab0-4b84-8f81-50a0fcdd7773","system_id":"levelo_inurba_marseille","lat":43.2306,"lon":5.3549,"is_reserved":false,"is_disabled":false,"rental_uris":{"android":"levelo://app?vid=e5e53f34-dab0-4b84-8f81-50a0fcdd7773","ios":"levelo://app?vid=e5e53f34-dab0-4b84-8f81-50a0fcdd7773"},"vehicle_type_id":"4","last_reported":1730221687,"current_range_meters":37600,"station_id":"cpo3342slgdg3j2ifvpg","pricing_plan_id":"cebpf4jnsgd1na2vs0mg"},{"bike_id":"aaaddd7e-b87d-4d6e-8497-e3bb369e0af3","system_id":"levelo_inurba_marseille","lat":43.284064,"lon":5.375102,"is_reserved":false,"is_disabled":false,"rental_uris":{"android":"levelo://app?vid=aaaddd7e-b87d-4d6e-8497-e3bb369e0af3","ios":"levelo://app?vid=aaaddd7e-b87d-4d6e-8497-e3bb369e0af3"},"vehicle_type_id":"4","last_reported":1730221687,"current_range_meters":19600,"station_id":"ce4bh412rcd13ifvqds0","pricing_plan_id":"cebpf4jnsgd1na2vs0mg"},{"bike_id":"984b9b92-cc3e-4edf-b03e-709318a16b71","system_id":"levelo_inurba_marseille","lat":43.32476,"lon":5.36579,"is_reserved":false,"is_disabled":false,"rental_uris":{"android":"levelo://app?vid=984b9b92-cc3e-4edf-b03e-709318a16b71","ios":"levelo://app?vid=984b9b92-cc3e-4edf-b03e-709318a16b71"},"vehicle_type_id":"4","last_reported":1730221687,"current_range_meters":24000,"station_id":"ce4bhs12rcd13ifvqhvg","pricing_plan_id":"cebpf4jnsgd1na2vs0mg"},{"bike_id":"ed65b7b2-9ae0-4873-b728-67724ac905aa","system_id":"levelo_inurba_marseille","lat":43.28652,"lon":5.3741,"is_reserved":false,"is_disabled":false,"rental_uris":{"android":"levelo://app?vid=ed65b7b2-9ae0-4873-b728-67724ac905aa","ios":"levelo://app?vid=ed65b7b2-9ae0-4873-b728-67724ac905aa"},"vehicle_type_id":"4","last_reported":1730221687,"current_range_meters":19200,"station_id":"ce4bh3p2rcd13ifvqdq0","pricing_plan_id":"cebpf4jnsgd1na2vs0mg"},{"bike_id":"7764a92d-0082-4256-aa1a-9d4d1e025e03","system_id":"levelo_inurba_marseille","lat":43.28927,"lon":5.38409,"is_reserved":false,"is_disabled":false,"rental_uris":{"android":"levelo://app?vid=7764a92d-0082-4256-aa1a-9d4d1e025e03","ios":"levelo://app?vid=7764a92d-0082-4256-aa1a-9d4d1e025e03"},"vehicle_type_id":"4","last_reported":1730221687,"current_range_meters":27200,"station_id":"ce4bh612rcd13ifvqe6g","pricing_plan_id":"cebpf4jnsgd1na2vs0mg"},{"bike_id":"c6982a4e-6f22-440f-b88a-9a920bd67a37","system_id":"levelo_inurba_marseille","lat":43.23957,"lon":5.36658,"is_reserved":false,"is_disabled":false,"rental_uris":{"android":"levelo://app?vid=c6982a4e-6f22-440f-b88a-9a920bd67a37","ios":"levelo://app?vid=c6982a4e-6f22-440f-b88a-9a920bd67a37"},"vehicle_type_id":"4","last_reported":1730221687,"current_range_meters":21600,"station_id":"ce4bhi12rcd13ifvqfp0","pricing_plan_id":"cebpf4jnsgd1na2vs0mg"},{"bike_id":"9ab0110e-4842-4f18-a8ae-80fd2198687f","system_id":"levelo_inurba_marseille","lat":43.310789,"lon":5.376673,"is_reserved":false,"is_disabled":false,"rental_uris":{"android":"levelo://app?vid=9ab0110e-4842-4f18-a8ae-80fd2198687f","ios":"levelo://app?vid=9ab0110e-4842-4f18-a8ae-80fd2198687f"},"vehicle_type_id":"4","last_reported":1730221687,"current_range_meters":19200,"station_id":"ce4bgr92rcd13ifvqc6g","pricing_plan_id":"cebpf4jnsgd1na2vs0mg"},{"bike_id":"6fccb326-6d6b-4608-b08c-5fd7057bc582","system_id":"levelo_inurba_marseille","lat":43.32481,"lon":5.36573,"is_reserved":false,"is_disabled":false,"rental_uris":{"android":"levelo://app?vid=6fccb326-6d6b-4608-b08c-5fd7057bc582","ios":"levelo://app?vid=6fccb326-6d6b-4608-b08c-5fd7057bc582"},"vehicle_type_id":"4","last_reported":1730221687,"current_range_meters":30400,"station_id":"ce4bhs12rcd13ifvqhvg","pricing_plan_id":"cebpf4jnsgd1na2vs0mg"},{"bike_id":"551cbfdf-a5e3-47b0-b4b0-7acecf645051","system_id":"levelo_inurba_marseille","lat":43.29513,"lon":5.39412,"is_reserved":false,"is_disabled":false,"rental_uris":{"android":"levelo://app?vid=551cbfdf-a5e3-47b0-b4b0-7acecf645051","ios":"levelo://app?vid=551cbfdf-a5e3-47b0-b4b0-7acecf645051"},"vehicle_type_id":"4","last_reported":1730221687,"current_range_meters":10000,"station_id":"ce4bh292rcd13ifvqdf0","pricing_plan_id":"cebpf4jnsgd1na2vs0mg"},{"bike_id":"02e7fe04-3bc5-47bf-aeb9-e070a985269e","system_id":"levelo_inurba_marseille","lat":43.29536,"lon":5.38548,"is_reserved":false,"is_disabled":false,"rental_uris":{"android":"levelo://app?vid=02e7fe04-3bc5-47bf-aeb9-e070a985269e","ios":"levelo://app?vid=02e7fe04-3bc5-47bf-aeb9-e070a985269e"},"vehicle_type_id":"4","last_reported":1730221687,"current_range_meters":16000,"station_id":"ce4bgih2rcd13ifvqba0","pricing_plan_id":"cebpf4jnsgd1na2vs0mg"},{"bike_id":"1c907165-fe5f-48f5-9966-ee78a7d9dfe4","system_id":"levelo_inurba_marseille","lat":43.29964,"lon":5.41323,"is_reserved":false,"is_disabled":false,"rental_uris":{"android":"levelo://app?vid=1c907165-fe5f-48f5-9966-ee78a7d9dfe4","ios":"levelo://app?vid=1c907165-fe5f-48f5-9966-ee78a7d9dfe4"},"vehicle_type_id":"4","last_reported":1730221687,"current_range_meters":30800,"station_id":"ce4bhp12rcd13ifvqh9g","pricing_plan_id":"cebpf4jnsgd1na2vs0mg"},{"bike_id":"1f3f2313-c625-48b2-a78e-a5932ebaa7f3","system_id":"levelo_inurba_marseille","lat":43.337675,"lon":5.374638,"is_reserved":false,"is_disabled":false,"rental_uris":{"android":"levelo://app?vid=1f3f2313-c625-48b2-a78e-a5932ebaa7f3","ios":"levelo://app?vid=1f3f2313-c625-48b2-a78e-a5932ebaa7f3"},"vehicle_type_id":"4","last_reported":1730221687,"current_range_meters":30800,"station_id":"","pricing_plan_id":"cebpf4jnsgd1na2vs0mg"},{"bike_id":"142aa768-c107-4de9-be73-b176ddcad030","system_id":"levelo_inurba_marseille","lat":43.29518,"lon":5.39404,"is_reserved":false,"is_disabled":false,"rental_uris":{"android":"levelo://app?vid=142aa768-c107-4de9-be73-b176ddcad030","ios":"levelo://app?vid=142aa768-c107-4de9-be73-b176ddcad030"},"vehicle_type_id":"4","last_reported":1730221687,"current_range_meters":24000,"station_id":"ce4bh292rcd13ifvqdf0","pricing_plan_id":"cebpf4jnsgd1na2vs0mg"},{"bike_id":"e7e77317-cc36-4c07-8ee8-c1d97ea3c807","system_id":"levelo_inurba_marseille","lat":43.24167,"lon":5.36393,"is_reserved":false,"is_disabled":false,"rental_uris":{"android":"levelo://app?vid=e7e77317-cc36-4c07-8ee8-c1d97ea3c807","ios":"levelo://app?vid=e7e77317-cc36-4c07-8ee8-c1d97ea3c807"},"vehicle_type_id":"4","last_reported":1730221687,"current_range_meters":17200,"station_id":"cpo36qri1sfpv3e86is0","pricing_plan_id":"cebpf4jnsgd1na2vs0mg"},{"bike_id":"a6d2c0cf-6f8d-422e-a748-9c7b393bcb74","system_id":"levelo_inurba_marseille","lat":43.28932,"lon":5.36403,"is_reserved":false,"is_disabled":false,"rental_uris":{"android":"levelo://app?vid=a6d2c0cf-6f8d-422e-a748-9c7b393bcb74","ios":"levelo://app?vid=a6d2c0cf-6f8d-422e-a748-9c7b393bcb74"},"vehicle_type_id":"4","last_reported":1730221687,"current_range_meters":14400,"station_id":"ce4bhc92rcd13ifvqetg","pricing_plan_id":"cebpf4jnsgd1na2vs0mg"},{"bike_id":"2450800b-5b5d-42be-b362-791e1a69d50c","system_id":"levelo_inurba_marseille","lat":43.32365,"lon":5.38892,"is_reserved":false,"is_disabled":false,"rental_uris":{"android":"levelo://app?vid=2450800b-5b5d-42be-b362-791e1a69d50c","ios":"levelo://app?vid=2450800b-5b5d-42be-b362-791e1a69d50c"},"vehicle_type_id":"4","last_reported":1730221687,"current_range_meters":24400,"station_id":"ce4bhqp2rcd13ifvqhog","pricing_plan_id":"cebpf4jnsgd1na2vs0mg"},{"bike_id":"a2c619f9-505c-4c30-a89e-d06c0c5481b6","system_id":"levelo_inurba_marseille","lat":43.23965,"lon":5.36641,"is_reserved":false,"is_disabled":false,"rental_uris":{"android":"levelo://app?vid=a2c619f9-505c-4c30-a89e-d06c0c5481b6","ios":"levelo://app?vid=a2c619f9-505c-4c30-a89e-d06c0c5481b6"},"vehicle_type_id":"4","last_reported":1730221687,"current_range_meters":39200,"station_id":"ce4bhi12rcd13ifvqfp0","pricing_plan_id":"cebpf4jnsgd1na2vs0mg"},