{"last_updated":1705702001,"ttl":30,"version":"2.2","data":{"bikes":[{"bike_id":"97f08bf8-1ec8-41a0-9009-c1b03f85bd6a","system_id":"levelo_inurba_marseille","lat":43.313568,"lon":5.367049,"is_reserved":false,"is_disabled":false,"rental_uris":{"android":"levelo://app?vid=97f08bf8-1ec8-41a0-9009-c1b03f85bd6a","ios":"levelo://app?vid=97f08bf8-1ec8-41a0-9009-c1b03f85bd6a"},"vehicle_type_id":"4","last_reported":1705702001,"current_range_meters":24400,"station_id":"ce4bgr92rcd13ifvqc6g","pricing_plan_id":"free"},{"bike_id":"173c07e5-8508-415e-8f5f-ed33807c7621","system_id":"levelo_inurba_marseille","lat":43.312239,"lon":5.368562,"is_reserved":false,"is_disabled":false,"rental_uris":{"android":"levelo://app?vid=173c07e5-8508-415e-8f5f-ed33807c7621","ios":"levelo://app?vid=173c07e5-8508-415e-8f5f-ed33807c7621"},"vehicle_type_id":"4","last_reported":1705702001,"current_range_meters":28800,"station_id":"ce4bgl92rcd13ifvqbq0","pricing_plan_id":"free"},{"bike_id":"6ba15a29-d86f-4270-afd5-8926b51235c3","system_id":"levelo_inurba_marseille","lat":43.312239,"lon":5.368562,"is_reserved":false,"is_disabled":false,"rental_uris":{"android":"levelo://app?vid=6ba15a29-d86f-4270-afd5-8926b51235c3","ios":"levelo://app?vid=6ba15a29-d86f-4270-afd5-8926b51235c3"},"vehicle_type_id":"4","last_reported":1705702001,"current_range_meters":20800,"station_id":"ce4bgl92rcd13ifvqbq0","pricing_plan_id":"free"},{"bike_id":"8af93833-18b6-490a-8fc5-9cfa82edad07","system_id":"levelo_inurba_marseille","lat":43.312239,"lon":5.368562,"is_reserved":false,"is_disabled":false,"rental_uris":{"android":"levelo://app?vid=8af93833-18b6-490a-8fc5-9cfa82edad07","ios":"levelo://app?vid=8af93833-18b6-490a-8fc5-9cfa82edad07"},"vehicle_type_id":"4","last_reported":1705702001,"current_range_meters":2800,"station_id":"ce4bgl92rcd13ifvqbq0","pricing_plan_id":"free"},{"bike_id":"c29a3c1a-2bc1-48d4-8c54-54ccfbc2af99","system_id":"levelo_inurba_marseille","lat":43.312239,"lon":5.368562,"is_reserved":false,"is_disabled":false,"rental_uris":{"android":"levelo://app?vid=c29a3c1a-2bc1-48d4-8c54-54ccfbc2af99","ios":"levelo://app?vid=c29a3c1a-2bc1-48d4-8c54-54ccfbc2af99"},"vehicle_type_id":"4","last_reported":1705702001,"current_range_meters":27600,"station_id":"ce4bgl92rcd13ifvqbq0","pricing_plan_id":"free"},{"bike_id":"68ce9576-2dba-47f5-a97d-7c3897ff0890","system_id":"levelo_inurba_marseille","lat":43.312239,"lon":5.368562,"is_reserved":false,"is_disabled":false,"rental_uris":{"android":"levelo://app?vid=68ce9576-2dba-47f5-a97d-7c3897ff0890","ios":"levelo://app?vid=68ce9576-2dba-47f5-a97d-7c3897ff0890"},"vehicle_type_id":"4","last_reported":1705702001,"current_range_meters":31200,"station_id":"ce4bgl92rcd13ifvqbq0","pricing_plan_id":"free"},{"bike_id":"8765df3f-0731-43da-8a77-cc7679d416c3","system_id":"levelo_inurba_marseille","lat":43.312239,"lon":5.368562,"is_reserved":false,"is_disabled":false,"rental_uris":{"android":"levelo://app?vid=8765df3f-0731-43da-8a77-cc7679d416c3","ios":"levelo://app?vid=8765df3f-0731-43da-8a77-cc7679d416c3"},"vehicle_type_id":"4","last_reported":1705702001,"current_range_meters":17600,"station_id":"ce4bgl92rcd13ifvqbq0","pricing_plan_id":"free"},{"bike_id":"f9b82c1c-7c82-4344-bd05-c27963a7b1e2","system_id":"levelo_inurba_marseille","lat":43.312239,"lon":5.368562,"is_reserved":false,"is_disabled":false,"rental_uris":{"android":"levelo://app?vid=f9b82c1c-7c82-4344-bd05-c27963a7b1e2","ios":"levelo://app?vid=f9b82c1c-7c82-4344-bd05-c27963a7b1e2"},"vehicle_type_id":"4","last_reported":1705702001,"current_range_meters":17200,"station_id":"ce4bgl92rcd13ifvqbq0","pricing_plan_id":"free"},{"bike_id":"f9437048-cd1e-4983-b751-7b53f60e1982","system_id":"levelo_inurba_marseille","lat":43.312239,"lon":5.368562,"is_reserved":false,"is_disabled":false,"rental_uris":{"android":"levelo://app?vid=f9437048-cd1e-4983-b751-7b53f60e1982","ios":"levelo://app?vid=f9437048-cd1e-4983-b751-7b53f60e1982"},"vehicle_type_id":"4","last_reported":1705702001,"current_range_meters":24800,"station_id":"ce4bgl92rcd13ifvqbq0","pricing_plan_id":"free"},{"bike_id":"1281d799-9d76-4a04-b28f-c7585f08f157","system_id":"levelo_inurba_marseille","lat":43.312239,"lon":5.368562,"is_reserved":false,"is_disabled":false,"rental_uris":{"android":"levelo://app?vid=1281d799-9d76-4a04-b28f-c7585f08f157","ios":"levelo://app?vid=1281d799-9d76-4a04-b28f-c7585f08f157"},"vehicle_type_id":"4","last_reported":1705702001,"current_range_meters":24400,"station_id":"ce4bgl92rcd13ifvqbq0","pricing_plan_id":"free"},{"bike_id":"7f57cc82-d70c-4c1a-ba34-96ebd763daa3","system_id":"levelo_inurba_marseille","lat":43.310645,"lon":5.371207,"is_reserved":false,"is_disabled":false,"rental_uris":{"android":"levelo://app?vid=7f57cc82-d70c-4c1a-ba34-96ebd763daa3","ios":"levelo://app?vid=7f57cc82-d70c-4c1a-ba34-96ebd763daa3"},"vehicle_type_id":"4","last_reported":1705702001,"current_range_meters":0,"station_id":"","pricing_plan_id":"free"},{"bike_id":"48a6134a-7cd9-44b4-8c43-364a5cf1d744","system_id":"levelo_inurba_marseille","lat":43.309076,"lon":5.368465,"is_reserved":false,"is_disabled":false,"rental_uris":{"android":"levelo://app?vid=48a6134a-7cd9-44b4-8c43-364a5cf1d744","ios":"levelo://app?vid=48a6134a-7cd9-44b4-8c43-364a5cf1d744"},"vehicle_type_id":"4","last_reported":1705702001,"current_range_meters":29600,"station_id":"ce4bgn92rcd13ifvqbvg","pricing_plan_id":"free"},{"bike_id":"9b0b9bd1-7e72-4750-9146-32a565166dd3","system_id":"levelo_inurba_marseille","lat":43.314811,"lon":5.373103,"is_reserved":false,"is_disabled":false,"rental_uris":{"android":"levelo://app?vid=9b0b9bd1-7e72-4750-9146-32a565166dd3","ios":"levelo://app?vid=9b0b9bd1-7e72-4750-9146-32a565166dd3"},"vehicle_type_id":"4","last_reported":1705702001,"current_range_meters":20400,"station_id":"ce4bgt12rcd13ifvqcd0","pricing_plan_id":"free"},{"bike_id":"665481bc-ce02-4ad3-bc2d-37b3ccf524a7","system_id":"levelo_inurba_marseille","lat":43.314811,"lon":5.373103,"is_reserved":false,"is_disabled":false,"rental_uris":{"android":"levelo://app?vid=665481bc-ce02-4ad3-bc2d-37b3ccf524a7","ios":"levelo://app?vid=665481bc-ce02-4ad3-bc2d-37b3ccf524a7"},"vehicle_type_id":"4","last_reported":1705702001,"current_range_meters":10400,"station_id":"ce4bgt12rcd13ifvqcd0","pricing_plan_id":"free"},{"bike_id":"25205c82-9642-4578-8c50-8d01b937e62b","system_id":"levelo_inurba_marseille","lat":43.314811,"lon":5.373103,"is_reserved":false,"is_disabled":false,"rental_uris":{"android":"levelo://app?vid=25205c82-9642-4578-8c50-8d01b937e62b","ios":"levelo://app?vid=25205c82-9642-4578-8c50-8d01b937e62b"},"vehicle_type_id":"4","last_reported":1705702001,"current_range_meters":16800,"station_id":"ce4bgt12rcd13ifvqcd0","pricing_plan_id":"free"},{"bike_id":"bdae6831-383d-47ef-b6bb-f8b6662bb10e","system_id":"levelo_inurba_marseille","lat":43.314811,"lon":5.373103,"is_reserved":false,"is_disabled":false,"rental_uris":{"android":"levelo://app?vid=bdae6831-383d-47ef-b6bb-f8b6662bb10e","ios":"levelo://app?vid=bdae6831-383d-47ef-b6bb-f8b6662bb10e"},"vehicle_type_id":"4","last_reported":1705702001,"current_range_meters":27600,"station_id":"ce4bgt12rcd13ifvqcd0","pricing_plan_id":"free"},{"bike_id":"65702e2e-b59c-458e-b7f9-b6e3402d8a70","system_id":"levelo_inurba_marseille","lat":43.314811,"lon":5.373104,"is_reserved":false,"is_disabled":false,"rental_uris":{"android":"levelo://app?vid=65702e2e-b59c-458e-b7f9-b6e3402d8a70","ios":"levelo://app?vid=65702e2e-b59c-458e-b7f9-b6e3402d8a70"},"vehicle_type_id":"4","last_reported":1705702001,"current_range_meters":26000,"station_id":"ce4bgt12rcd13ifvqcd0","pricing_plan_id":"free"},{"bike_id":"8555a8f9-c924-4204-af6e-a0e48d1e277b","system_id":"levelo_inurba_marseille","lat":43.309039,"lon":5.371797,"is_reserved":false,"is_disabled":false,"rental_uris":{"android":"levelo://app?vid=8555a8f9-c924-4204-af6e-a0e48d1e277b","ios":"levelo://app?vid=8555a8f9-c924-4204-af6e-a0e48d1e277b"},"vehicle_type_id":"4","last_reported":1705702001,"current_range_meters":30400,"station_id":"ce4bguh2rcd13ifvqckg","pricing_plan_id":"free"},{"bike_id":"3c2532e6-a0bc-4d42-8432-50b65b7fab48","system_id":"levelo_inurba_marseille","lat":43.305712,"lon":5.365641,"is_reserved":false,"is_disabled":false,"rental_uris":{"android":"levelo://app?vid=3c2532e6-a0bc-4d42-8432-50b65b7fab48","ios":"levelo://app?vid=3c2532e6-a0bc-4d42-8432-50b65b7fab48"},"vehicle_type_id":"4","last_reported":1705702001,"current_range_meters":19600,"station_id":"ce4bgs12rcd13ifvqcag","pricing_plan_id":"free"},{"bike_id":"02218629-79eb-4d6f-af02-07e67159ce22","system_id":"levelo_inurba_marseille","lat":43.305706,"lon":5.365654,"is_reserved":false,"is_disabled":false,"rental_uris":{"android":"levelo://app?vid=02218629-79eb-4d6f-af02-07e67159ce22","ios":"levelo://app?vid=02218629-79eb-4d6f-af02-07e67159ce22"},"vehicle_type_id":"4","last_reported":1705702001,"current_range_meters":14400,"station_id":"ce4bgs12rcd13ifvqcag","pricing_plan_id":"free"},{"bike_id":"66b6f52e-1be6-414c-bf0c-d7ae9e535273","system_id":"levelo_inurba_marseille","lat":43.306,"lon":5.37216,"is_reserved":false,"is_disabled":false,"rental_uris":{"android":"levelo://app?vid=66b6f52e-1be6-414c-bf0c-d7ae9e535273","ios":"levelo://app?vid=66b6f52e-1be6-414c-bf0c-d7ae9e535273"},"vehicle_type_id":"4","last_reported":1705702001,"current_range_meters":2000,"station_id":"ce4bgqh2rcd13ifvqc4g","pricing_plan_id":"free"},{"bike_id":"397b5218-8b37-4109-aadb-b19b3edc2d04","system_id":"levelo_inurba_marseille","lat":43.305944,"lon":5.372123,"is_reserved":false,"is_disabled":false,"rental_uris":{"android":"levelo://app?vid=397b5218-8b37-4109-aadb-b19b3edc2d04","ios":"levelo://app?vid=397b5218-8b37-4109-aadb-b19b3edc2d04"},"vehicle_type_id":"4","last_reported":1705702001,"current_range_meters":6800,"station_id":"ce4bgqh2rcd13ifvqc4g","pricing_plan_id":"free"},{"bike_id":"c6e020b0-4e20-4559-9642-dfbf943d0408","system_id":"levelo_inurba_marseille","lat":43.311125,"lon":5.377624,"is_reserved":false,"is_disabled":false,"rental_uris":{"android":"levelo://app?vid=c6e020b0-4e20-4559-9642-dfbf943d0408","ios":"levelo://app?vid=c6e020b0-4e20-4559-9642-dfbf943d0408"},"vehicle_type_id":"4","last_reported":1705702001,"current_range_meters":3200,"station_id":"ce4bgt92rcd13ifvqcg0","pricing_plan_id":"free"},{"bike_id":"b84ffc3c-c51b-4a16-8f24-6f618377561d","system_id":"levelo_inurba_marseille","lat":43.311131,"lon":5.377651,"is_reserved":false,"is_disabled":false,"rental_uris":{"android":"levelo://app?vid=b84ffc3c-c51b-4a16-8f24-6f618377561d","ios":"levelo://app?vid=b84ffc3c-c51b-4a16-8f24-6f618377561d"},"vehicle_type_id":"4","last_reported":1705702001,"current_range_meters":400,"station_id":"ce4bgt92rcd13ifvqcg0","pricing_plan_id":"free"},{"bike_id":"1e598083-a05f-45ba-b573-c0fbb591b4db","system_id":"levelo_inurba_marseille","lat":43.311125,"lon":5.377624,"is_reserved":false,"is_disabled":false,"rental_uris":{"android":"levelo://app?vid=1e598083-a05f-45ba-b573-c0fbb591b4db","ios":"levelo://app?vid=1e598083-a05f-45ba-b573-c0fbb591b4db"},"vehicle_type_id":"4","last_reported":1705702001,"current_range_meters":20000,"station_id":"ce4bgt92rcd13ifvqcg0","pricing_plan_id":"free"},{"bike_id":"3cdde73b-44c4-46bb-98d6-306383332914","system_id":"levelo_inurba_marseille","lat":43.311125,"lon":5.377624,"is_reserved":false,"is_disabled":false,"rental_uris":{"android":"levelo://app?vid=3cdde73b-44c4-46bb-98d6-306383332914","ios":"levelo://app?vid=3cdde73b-44c4-46bb-98d6-306383332914"},"vehicle_type_id":"4","last_reported":1705702001,"current_range_meters":27600,"station_id":"ce4bgt92rcd13ifvqcg0","pricing_plan_id":"free"},{"bike_id":"99bccf18-c5f9-48ad-a620-0438c95b1df3","system_id":"levelo_inurba_marseille","lat":43.311125,"lon":5.377624,"is_reserved":false,"is_disabled":false,"rental_uris":{"android":"levelo://app?vid=99bccf18-c5f9-48ad-a620-0438c95b1df3","ios":"levelo://app?vid=99bccf18-c5f9-48ad-a620-0438c95b1df3"},"vehicle_type_id":"4","last_reported":1705702001,"current_range_meters":0,"station_id":"ce4bgt92rcd13ifvqcg0","pricing_plan_id":"free"},{"bike_id":"fdaeaed9-9851-4017-9f79-0bcba5790810","system_id":"levelo_inurba_marseille","lat":43.311125,"lon":5.377624,"is_reserved":false,"is_disabled":false,"rental_uris":{"android":"levelo://app?vid=fdaeaed9-9851-4017-9f79-0bcba5790810","ios":"levelo://app?vid=fdaeaed9-9851-4017-9f79-0bcba5790810"},"vehicle_type_id":"4","last_reported":1705702001,"current_range_meters":10400,"station_id":"ce4bgt92rcd13ifvqcg0","pricing_plan_id":"free"},{"bike_id":"14b10b2d-06b9-41d4-9a5a-c7f7e0f99f44","system_id":"levelo_inurba_marseille","lat":43.311125,"lon":5.377624,"is_reserved":false,"is_disabled":false,"rental_uris":{"android":"levelo://app?vid=14b10b2d-06b9-41d4-9a5a-c7f7e0f99f44","ios":"levelo://app?vid=14b10b2d-06b9-41d4-9a5a-c7f7e0f99f44"},"vehicle_type_id":"4","last_reported":1705702001,"current_range_meters":14800,"station_id":"ce4bgt92rcd13ifvqcg0","pricing_plan_id":"free"},{"bike_id":"6a44367e-7ba6-4b50-9572-5f832304a217","system_id":"levelo_inurba_marseille","lat":43.307945,"lon":5.376487,"is_reserved":false,"is_disabled":false,"rental_uris":{"android":"levelo://app?vid=6a44367e-7ba6-4b50-9572-5f832304a217","ios":"levelo://app?vid=6a44367e-7ba6-4b50-9572-5f832304a217"},"vehicle_type_id":"4","last_reported":1705702001,"current_range_meters":16000,"station_id":"ce4bgv92rcd13ifvqcq0","pricing_plan_id":"free"},{"bike_id":"2b9c792a-c226-4f25-8c35-de85a22193b3","system_id":"levelo_inurba_marseille","lat":43.307783,"lon":5.376509,"is_reserved":false,"is_disabled":false,"rental_uris":{"android":"levelo://app?vid=2b9c792a-c226-4f25-8c35-de85a22193b3","ios":"levelo://app?vid=2b9c792a-c226-4f25-8c35-de85a22193b3"},"vehicle_type_id":"4","last_reported":1705702001,"current_range_meters":22800,"station_id":"","pricing_plan_id":"free"},{"bike_id":"2706b3f5-7558-4f68-960f-ce11ec89d9da","system_id":"levelo_inurba_marseille","lat":43.31525,"lon":5.38034,"is_reserved":false,"is_disabled":false,"rental_uris":{"android":"levelo://app?vid=2706b3f5-7558-4f68-960f-ce11ec89d9da","ios":"levelo://app?vid=2706b3f5-7558-4f68-960f-ce11ec89d9da"},"vehicle_type_id":"4","last_reported":1705702001,"current_range_meters":11200,"station_id":"ce4bhsp2rcd13ifvqi50","pricing_plan_id":"free"},{"bike_id":"f4e6351a-619c-4902-9c12-877eccceb1f2","system_id":"levelo_inurba_marseille","lat":43.31524,"lon":5.38035,"is_reserved":false,"is_disabled":false,"rental_uris":{"android":"levelo://app?vid=f4e6351a-619c-4902-9c12-877eccceb1f2","ios":"levelo://app?vid=f4e6351a-619c-4902-9c12-877eccceb1f2"},"vehicle_type_id":"4","last_reported":1705702001,"current_range_meters":28800,"station_id":"ce4bhsp2rcd13ifvqi50","pricing_plan_id":"free"},{"bike_id":"5d3c2454-eebc-44f2-bbb6-b732c6220785","system_id":"levelo_inurba_marseille","lat":43.301939,"lon":5.366286,"is_reserved":false,"is_disabled":false,"rental_uris":{"android":"levelo://app?vid=5d3c2454-eebc-44f2-bbb6-b732c6220785","ios":"levelo://app?vid=5d3c2454-eebc-44f2-bbb6-b732c6220785"},"vehicle_type_id":"4","last_reported":1705702001,"current_range_meters":25600,"station_id":"ce4bgrh2rcd13ifvqc8g","pricing_plan_id":"free"},{"bike_id":"6165fac9-27db-4089-bf20-ea1a626dd817","system_id":"levelo_inurba_marseille","lat":43.301939,"lon":5.366286,"is_reserved":false,"is_disabled":false,"rental_uris":{"android":"levelo://app?vid=6165fac9-27db-4089-bf20-ea1a626dd817","ios":"levelo://app?vid=6165fac9-27db-4089-bf20-ea1a626dd817"},"vehicle_type_id":"4","last_reported":1705702001,"current_range_meters":24000,"station_id":"ce4bgrh2rcd13ifvqc8g","pricing_plan_id":"free"},{"bike_id":"d17e86e7-25c8-4be4-9736-aa9e10100373","system_id":"levelo_inurba_marseille","lat":43.308012,"lon":5.381511,"is_reserved":false,"is_disabled":false,"rental_uris":{"android":"levelo://app?vid=d17e86e7-25c8-4be4-9736-aa9e10100373","ios":"levelo://app?vid=d17e86e7-25c8-4be4-9736-aa9e10100373"},"vehicle_type_id":"4","last_reported":1705702001,"current_range_meters":16400,"station_id":"ce4bgt12rcd13ifvqce0","pricing_plan_id":"free"},{"bike_id":"005ea7c6-0d96-4979-9e9f-b4f56a2ed4d9","system_id":"levelo_inurba_marseille","lat":43.308012,"lon":5.381511,"is_reserved":false,"is_disabled":false,"rental_uris":{"android":"levelo://app?vid=005ea7c6-0d96-4979-9e9f-b4f56a2ed4d9","ios":"levelo://app?vid=005ea7c6-0d96-4979-9e9f-b4f56a2ed4d9"},"vehicle_type_id":"4","last_reported":1705702001,"current_range_meters":27200,"station_id":"ce4bgt12rcd13ifvqce0","pricing_plan_id":"free"},{"bike_id":"b341a6f0-d00d-4d31-a77c-e985cad5ca02","system_id":"levelo_inurba_marseille","lat":43.308012,"lon":5.381511,"is_reserved":false,"is_disabled":false,"rental_uris":{"android":"levelo://app?vid=b341a6f0-d00d-4d31-a77c-e985cad5ca02","ios":"levelo://app?vid=b341a6f0-d00d-4d31-a77c-e985cad5ca02"},"vehicle_type_id":"4","last_reported":1705702001,"current_range_meters":22000,"station_id":"ce4bgt12rcd13ifvqce0","pricing_plan_id":"free"},{"bike_id":"15845578-34ed-4917-9818-aa232233a8de","system_id":"levelo_inurba_marseille","lat":43.308012,"lon":5.381511,"is_reserved":false,"is_disabled":false,"rental_uris":{"android":"levelo://app?vid=15845578-34ed-4917-9818-aa232233a8de","ios":"levelo://app?vid=15845578-34ed-4917-9818-aa232233a8de"},"vehicle_type_id":"4","last_reported":1705702001,"current_range_meters":14800,"station_id":"ce4bgt12rcd13ifvqce0","pricing_plan_id":"free"},{"bike_id":"fdeafe69-84b2-4afa-a6fb-531519ca5d1a","system_id":"levelo_inurba_marseille","lat":43.308012,"lon":5.381511,"is_reserved":false,"is_disabled":false,"rental_uris":{"android":"levelo://app?vid=fdeafe69-84b2-4afa-a6fb-531519ca5d1a","ios":"levelo://app?vid=fdeafe69-84b2-4afa-a6fb-531519ca5d1a"},"vehicle_type_id":"4","last_reported":1705702001,"current_range_meters":6000,"station_id":"ce4bgt12rcd13ifvqce0","pricing_plan_id":"free"},{"bike_id":"7a238d46-59f2-46f1-a16c-d2acea31d059","system_id":"levelo_inurba_marseille","lat":43.308012,"lon":5.381511,"is_reserved":false,"is_disabled":false,"rental_uris":{"android":"levelo://app?vid=7a238d46-59f2-46f1-a16c-d2acea31d059","ios":"levelo://app?vid=7a238d46-59f2-46f1-a16c-d2acea31d059"},"vehicle_type_id":"4","last_reported":1705702001,"current_range_meters":17600,"station_id":"ce4bgt12rcd13ifvqce0","pricing_plan_id":"free"},{"bike_id":"cc2e5545-3f94-4ac6-8a1e-938ded5da297","system_id":"levelo_inurba_marseille","lat":43.304606,"lon":5.379026,"is_reserved":false,"is_disabled":false,"rental_uris":{"android":"levelo://app?vid=cc2e5545-3f94-4ac6-8a1e-938ded5da297","ios":"levelo://app?vid=cc2e5545-3f94-4ac6-8a1e-938ded5da297"},"vehicle_type_id":"4","last_reported":1705702001,"current_range_meters":19200,"station_id":"ce4bgup2rcd13ifvqcn0","pricing_plan_id":"free"},{"bike_id":"ff76b524-6ddf-4650-8abf-14329f5f44d6","system_id":"levelo_inurba_marseille","lat":43.304606,"lon":5.379026,"is_reserved":false,"is_disabled":false,"rental_uris":{"android":"levelo://app?vid=ff76b524-6ddf-4650-8abf-14329f5f44d6","ios":"levelo://app?vid=ff76b524-6ddf-4650-8abf-14329f5f44d6"},"vehicle_type_id":"4","last_reported":1705702001,"current_range_meters":13200,"station_id":"ce4bgup2rcd13ifvqcn0","pricing_plan_id":"free"},{"bike_id":"cc17b430-845b-41de-b516-7a24f4a42037","system_id":"levelo_inurba_marseille","lat":43.304606,"lon":5.379026,"is_reserved":false,"is_disabled":false,"rental_uris":{"android":"levelo://app?vid=cc17b430-845b-41de-b516-7a24f4a42037","ios":"levelo://app?vid=cc17b430-845b-41de-b516-7a24f4a42037"},"vehicle_type_id":"4","last_reported":1705702001,"current_range_meters":21600,"station_id":"ce4bgup2rcd13ifvqcn0","pricing_plan_id":"free"},{"bike_id":"01ec010d-76ab-4bc9-a115-cfcc28e343a6","system_id":"levelo_inurba_marseille","lat":43.304606,"lon":5.379026,"is_reserved":false,"is_disabled":false,"rental_uris":{"android":"levelo://app?vid=01ec010d-76ab-4bc9-a115-cfcc28e343a6","ios":"levelo://app?vid=01ec010d-76ab-4bc9-a115-cfcc28e343a6"},"vehicle_type_id":"4","last_reported":1705702001,"current_range_meters":30400,"station_id":"ce4bgup2rcd13ifvqcn0","pricing_plan_id":"free"},{"bike_id":"b2429dd1-182d-4408-becf-62cae7f25115","system_id":"levelo_inurba_marseille","lat":43.304606,"lon":5.379026,"is_reserved":false,"is_disabled":false,"rental_uris":{"android":"levelo://app?vid=b2429dd1-182d-4408-becf-62cae7f25115","ios":"levelo://app?vid=b2429dd1-182d-4408-becf-62cae7f25115"},"vehicle_type_id":"4","last_reported":1705702001,"current_range_meters":27600,"station_id":"ce4bgup2rcd13ifvqcn0","pricing_plan_id":"free"},{"bike_id":"e6e2ed41-5a46-45e7-8ec9-322b7a806a40","system_id":"levelo_inurba_marseille","lat":43.304606,"lon":5.379026,"is_reserved":false,"is_disabled":false,"rental_uris":{"android":"levelo://app?vid=e6e2ed41-5a46-45e7-8ec9-322b7a806a40","ios":"levelo://app?vid=e6e2ed41-5a46-45e7-8ec9-322b7a806a40"},"vehicle_type_id":"4","last_reported":1705702001,"current_range_meters":21600,"station_id":"ce4bgup2rcd13ifvqcn0","pricing_plan_id":"free"},{"bike_id":"652261b3-248c-4d4e-9716-23b770cf1aad","system_id":"levelo_inurba_marseille","lat":43.304606,"lon":5.379026,"is_reserved":false,"is_disabled":false,"rental_uris":{"android":"levelo://app?vid=652261b3-248c-4d4e-9716-23b770cf1aad","ios":"levelo://app?vid=652261b3-248c-4d4e-9716-23b770cf1aad"},"vehicle_type_id":"4","last_reported":1705702001,"current_range_meters":20800,"station_id":"ce4bgup2rcd13ifvqcn0","pricing_plan_id":"free"},{"bike_id":"562e1cf6-595d-49e5-bca8-82de5cbd5879","system_id":"levelo_inurba_marseille","lat":43.304606,"lon":5.379026,"is_reserved":false,"is_disabled":false,"rental_uris":{"android":"levelo://app?vid=562e1cf6-595d-49e5-bca8-82de5cbd5879","ios":"levelo://app?vid=562e1cf6-595d-49e5-bca8-82de5cbd5879"},"vehicle_type_id":"4","last_reported":1705702001,"current_range_meters":31200,"station_id":"ce4bgup2rcd13ifvqcn0","pricing_plan_id":"free"},{"bike_id":"15a2646c-bcd2-4074-9c29-7717ac5f865e","system_id":"levelo_inurba_marseille","lat":43.304606,"lon":5.379026,"is_reserved":false,"is_disabled":false,"rental_uris":{"android":"levelo://app?vid=15a2646c-bcd2-4074-9c29-7717ac5f865e","ios":"levelo://app?vid=15a2646c-bcd2-4074-9c29-7717ac5f865e"},"vehicle_type_id":"4","last_reported":1705702001,"current_range_meters":26400,"station_id":"ce4bgup2rcd13ifvqcn0","pricing_plan_id":"free"},{"bike_id":"137a084d-66f4-42b1-a8ad-8a2dd930b5e0","system_id":"levelo_inurba_marseille","lat":43.304606,"lon":5.379026,"is_reserved":false,"is_disabled":false,"rental_uris":{"android":"levelo://app?vid=137a084d-66f4-42b1-a8ad-8a2dd930b5e0","ios":"levelo://app?vid=137a084d-66f4-42b1-a8ad-8a2dd930b5e0"},"vehicle_type_id":"4","last_reported":1705702001,"current_range_meters":28800,"station_id":"ce4bgup2rcd13ifvqcn0","pricing_plan_id":"free"},{"bike_id":"473641ac-6aae-4372-b0d6-cad5571f515f","system_id":"levelo_inurba_marseille","lat":43.324771,"lon":5.36557,"is_reserved":false,"is_disabled":false,"rental_uris":{"android":"levelo://app?vid=473641ac-6aae-4372-b0d6-cad5571f515f","ios":"levelo://app?vid=473641ac-6aae-4372-b0d6-cad5571f515f"},"vehicle_type_id":"4","last_reported":1705702001,"current_range_meters":5600,"station_id":"ce4bhs12rcd13ifvqhvg","pricing_plan_id":"free"},{"bike_id":"d3c12c07-9adf-4ee9-a278-dd4a66fbaa07","system_id":"levelo_inurba_marseille","lat":43.324777,"lon":5.365722,"is_reserved":false,"is_disabled":false,"rental_uris":{"android":"levelo://app?vid=d3c12c07-9adf-4ee9-a278-dd4a66fbaa07","ios":"levelo://app?vid=d3c12c07-9adf-4ee9-a278-dd4a66fbaa07"},"vehicle_type_id":"4","last_reported":1705702001,"current_range_meters":14000,"station_id":"ce4bhs12rcd13ifvqhvg","pricing_plan_id":"free"},{"bike_id":"d655f5bb-ed30-48d1-8fea-b10c22e797ad","system_id":"levelo_inurba_marseille","lat":43.324771,"lon":5.36557,"is_reserved":false,"is_disabled":false,"rental_uris":{"android":"levelo://app?vid=d655f5bb-ed30-48d1-8fea-b10c22e797ad","ios":"levelo://app?vid=d655f5bb-ed30-48d1-8fea-b10c22e797ad"},"vehicle_type_id":"4","last_reported":1705702001,"current_range_meters":18800,"station_id":"ce4bhs12rcd13ifvqhvg","pricing_plan_id":"free"},{"bike_id":"2179bf7d-2ef3-478f-ab07-0d1474ed1fd2","system_id":"levelo_inurba_marseille","lat":43.324794,"lon":5.365663,"is_reserved":false,"is_disabled":false,"rental_uris":{"android":"levelo://app?vid=2179bf7d-2ef3-478f-ab07-0d1474ed1fd2","ios":"levelo://app?vid=2179bf7d-2ef3-478f-ab07-0d1474ed1fd2"},"vehicle_type_id":"4","last_reported":1705702001,"current_range_meters":4800,"station_id":"ce4bhs12rcd13ifvqhvg","pricing_plan_id":"free"},{"bike_id":"303265ce-08f1-4bc2-afd3-0425b4b00f8f","system_id":"levelo_inurba_marseille","lat":43.3248,"lon":5.365675,"is_reserved":false,"is_disabled":false,"rental_uris":{"android":"levelo://app?vid=303265ce-08f1-4bc2-afd3-0425b4b00f8f","ios":"levelo://app?vid=303265ce-08f1-4bc2-afd3-0425b4b00f8f"},"vehicle_type_id":"4","last_reported":1705702001,"current_range_meters":19600,"station_id":"ce4bhs12rcd13ifvqhvg","pricing_plan_id":"free"},{"bike_id":"71a126c7-b719-426c-b069-4af1d4a5ba47","system_id":"levelo_inurba_marseille","lat":43.324803,"lon":5.365636,"is_reserved":false,"is_disabled":false,"rental_uris":{"android":"levelo://app?vid=71a126c7-b719-426c-b069-4af1d4a5ba47","ios":"levelo://app?vid=71a126c7-b719-426c-b069-4af1d4a5ba47"},"vehicle_type_id":"4","last_reported":1705702001,"current_range_meters":800,"station_id":"ce4bhs12rcd13ifvqhvg","pricing_plan_id":"free"},{"bike_id":"2c7b11b2-aeb0-46dd-88cd-cd944730dc70","system_id":"levelo_inurba_marseille","lat":43.324804,"lon":5.365649,"is_reserved":false,"is_disabled":false,"rental_uris":{"android":"levelo://app?vid=2c7b11b2-aeb0-46dd-88cd-cd944730dc70","ios":"levelo://app?vid=2c7b11b2-aeb0-46dd-88cd-cd944730dc70"},"vehicle_type_id":"4","last_reported":1705702001,"current_range_meters":12400,"station_id":"ce4bhs12rcd13ifvqhvg","pricing_plan_id":"free"},{"bike_id":"3cb5ad2b-e743-4194-9d67-007686b421e8","system_id":"levelo_inurba_marseille","lat":43.324771,"lon":5.36557,"is_reserved":false,"is_disabled":false,"rental_uris":{"android":"levelo://app?vid=3cb5ad2b-e743-4194-9d67-007686b421e8","ios":"levelo://app?vid=3cb5ad2b-e743-4194-9d67-007686b421e8"},"vehicle_type_id":"4","last_reported":1705702001,"current_range_meters":17200,"station_id":"ce4bhs12rcd13ifvqhvg","pricing_plan_id":"free"},{"bike_id":"c7d678ca-5190-4aab-9b8d-cdb0cac2118f","system_id":"levelo_inurba_marseille","lat":43.324771,"lon":5.36557,"is_reserved":false,"is_disabled":false,"rental_uris":{"android":"levelo://app?vid=c7d678ca-5190-4aab-9b8d-cdb0cac2118f","ios":"levelo://app?vid=c7d678ca-5190-4aab-9b8d-cdb0cac2118f"},"vehicle_type_id":"4","last_reported":1705702001,"current_range_meters":17200,"station_id":"ce4bhs12rcd13ifvqhvg","pricing_plan_id":"free"},{"bike_id":"bc5f05ec-9200-4b4a-bb5c-8c7a1a0d0ebb","system_id":"levelo_inurba_marseille","lat":43.324771,"lon":5.36557,"is_reserved":false,"is_disabled":false,"rental_uris":{"android":"levelo://app?vid=bc5f05ec-9200-4b4a-bb5c-8c7a1a0d0ebb","ios":"levelo://app?vid=bc5f05ec-9200-4b4a-bb5c-8c7a1a0d0ebb"},"vehicle_type_id":"4","last_reported":1705702001,"current_range_meters":6400,"station_id":"ce4bhs12rcd13ifvqhvg","pricing_plan_id":"free"},{"bike_id":"d5e2e4f1-31f9-49f6-b4e4-0249418ab610","system_id":"levelo_inurba_marseille","lat":43.30143,"lon":5.37413,"is_reserved":false,"is_disabled":false,"rental_uris":{"android":"levelo://app?vid=d5e2e4f1-31f9-49f6-b4e4-0249418ab610","ios":"levelo://app?vid=d5e2e4f1-31f9-49f6-b4e4-0249418ab610"},"vehicle_type_id":"4","last_reported":1705702001,"current_range_meters":7200,"station_id":"ce4bgs92rcd13ifvqcc0","pricing_plan_id":"free"},{"bike_id":"66f21602-ca63-45eb-bdfd-12a71693adee","system_id":"levelo_inurba_marseille","lat":43.30268,"lon":5.377195,"is_reserved":false,"is_disabled":false,"rental_uris":{"android":"levelo://app?vid=66f21602-ca63-45eb-bdfd-12a71693adee","ios":"levelo://app?vid=66f21602-ca63-45eb-bdfd-12a71693adee"},"vehicle_type_id":"4","last_reported":1705702001,"current_range_meters":9600,"station_id":"","pricing_plan_id":"free"},{"bike_id":"f0e6f343-5d11-4ccd-b521-fba2ec1496b9","system_id":"levelo_inurba_marseille","lat":43.319935,"lon":5.381699,"is_reserved":false,"is_disabled":false,"rental_uris":{"android":"levelo://app?vid=f0e6f343-5d11-4ccd-b521-fba2ec1496b9","ios":"levelo://app?vid=f0e6f343-5d11-4ccd-b521-fba2ec1496b9"},"vehicle_type_id":"4","last_reported":1705702001,"current_range_meters":13600,"station_id":"ce4bhr12rcd13ifvqhpg","pricing_plan_id":"free"},{"bike_id":"74c45a2b-c037-478a-8fe4-afaaf2ebf41c","system_id":"levelo_inurba_marseille","lat":43.313571,"lon":5.384829,"is_reserved":false,"is_disabled":false,"rental_uris":{"android":"levelo://app?vid=74c45a2b-c037-478a-8fe4-afaaf2ebf41c","ios":"levelo://app?vid=74c45a2b-c037-478a-8fe4-afaaf2ebf41c"},"vehicle_type_id":"4","last_reported":1705702001,"current_range_meters":16400,"station_id":"ce4bgt92rcd13ifvqcf0","pricing_plan_id":"free"},{"bike_id":"6df7c0f0-505f-4045-ab8c-b1bd417f7584","system_id":"levelo_inurba_marseille","lat":43.313571,"lon":5.384829,"is_reserved":false,"is_disabled":false,"rental_uris":{"android":"levelo://app?vid=6df7c0f0-505f-4045-ab8c-b1bd417f7584","ios":"levelo://app?vid=6df7c0f0-505f-4045-ab8c-b1bd417f7584"},"vehicle_type_id":"4","last_reported":1705702001,"current_range_meters":12400,"station_id":"ce4bgt92rcd13ifvqcf0","pricing_plan_id":"free"},{"bike_id":"d147d423-772a-4491-8bb5-57fb8261fc74","system_id":"levelo_inurba_marseille","lat":43.313571,"lon":5.384829,"is_reserved":false,"is_disabled":false,"rental_uris":{"android":"levelo://app?vid=d147d423-772a-4491-8bb5-57fb8261fc74","ios":"levelo://app?vid=d147d423-772a-4491-8bb5-57fb8261fc74"},"vehicle_type_id":"4","last_reported":1705702001,"current_range_meters":20800,"station_id":"ce4bgt92rcd13ifvqcf0","pricing_plan_id":"free"},{"bike_id":"0eb10803-bf21-42fd-bb19-dbde9c199eff","system_id":"levelo_inurba_marseille","lat":43.31359,"lon":5.38501,"is_reserved":false,"is_disabled":false,"rental_uris":{"android":"levelo://app?vid=0eb10803-bf21-42fd-bb19-dbde9c199eff","ios":"levelo://app?vid=0eb10803-bf21-42fd-bb19-dbde9c199eff"},"vehicle_type_id":"4","last_reported":1705702001,"current_range_meters":5200,"station_id":"ce4bgt92rcd13ifvqcf0","pricing_plan_id":"free"},{"bike_id":"8fd58c88-278f-4faa-8021-aee4e5aea65f","system_id":"levelo_inurba_marseille","lat":43.299724,"lon":5.371829,"is_reserved":false,"is_disabled":false,"rental_uris":{"android":"levelo://app?vid=8fd58c88-278f-4faa-8021-aee4e5aea65f","ios":"levelo://app?vid=8fd58c88-278f-4faa-8021-aee4e5aea65f"},"vehicle_type_id":"4","last_reported":1705702001,"current_range_meters":15200,"station_id":"ce4bgr92rcd13ifvqc7g","pricing_plan_id":"free"},{"bike_id":"eaafd1ae-f848-429c-aaff-be3105b1405d","system_id":"levelo_inurba_marseille","lat":43.299724,"lon":5.371829,"is_reserved":false,"is_disabled":false,"rental_uris":{"android":"levelo://app?vid=eaafd1ae-f848-429c-aaff-be3105b1405d","ios":"levelo://app?vid=eaafd1ae-f848-429c-aaff-be3105b1405d"},"vehicle_type_id":"4","last_reported":1705702001,"current_range_meters":22000,"station_id":"ce4bgr92rcd13ifvqc7g","pricing_plan_id":"free"},{"bike_id":"95370871-3f8d-45e7-a340-98e2cf711386","system_id":"levelo_inurba_marseille","lat":43.298433,"lon":5.362774,"is_reserved":false,"is_disabled":false,"rental_uris":{"android":"levelo://app?vid=95370871-3f8d-45e7-a340-98e2cf711386","ios":"levelo://app?vid=95370871-3f8d-45e7-a340-98e2cf711386"},"vehicle_type_id":"4","last_reported":1705702001,"current_range_meters":19600,"station_id":"ce4bgpp2rcd13ifvqc3g","pricing_plan_id":"free"},{"bike_id":"8cf6dd42-a5bb-4422-9e09-249b54d5f1b5","system_id":"levelo_inurba_marseille","lat":43.298433,"lon":5.362774,"is_reserved":false,"is_disabled":false,"rental_uris":{"android":"levelo://app?vid=8cf6dd42-a5bb-4422-9e09-249b54d5f1b5","ios":"levelo://app?vid=8cf6dd42-a5bb-4422-9e09-249b54d5f1b5"},"vehicle_type_id":"4","last_reported":1705702001,"current_range_meters":19200,"station_id":"ce4bgpp2rcd13ifvqc3g","pricing_plan_id":"free"},{"bike_id":"238ec7de-4287-4fe5-b06a-0f653bbffd39","system_id":"levelo_inurba_marseille","lat":43.298433,"lon":5.362774,"is_reserved":false,"is_disabled":false,"rental_uris":{"android":"levelo://app?vid=238ec7de-4287-4fe5-b06a-0f653bbffd39","ios":"levelo://app?vid=238ec7de-4287-4fe5-b06a-0f653bbffd39"},"vehicle_type_id":"4","last_reported":1705702001,"current_range_meters":1200,"station_id":"ce4bgpp2rcd13ifvqc3g","pricing_plan_id":"free"},{"bike_id":"207726e8-4916-43c1-91fd-aceff0c0d896","system_id":"levelo_inurba_marseille","lat":43.305364,"lon":5.384119,"is_reserved":false,"is_disabled":false,"rental_uris":{"android":"levelo://app?vid=207726e8-4916-43c1-91fd-aceff0c0d896","ios":"levelo://app?vid=207726e8-4916-43c1-91fd-aceff0c0d896"},"vehicle_type_id":"4","last_reported":1705702001,"current_range_meters":16400,"station_id":"ce4bgg92rcd13ifvqb30","pricing_plan_id":"free"},{"bike_id":"d5f8b791-59f4-4fd9-8125-97f5a7e532cb","system_id":"levelo_inurba_marseille","lat":43.299243,"lon":5.37481,"is_reserved":false,"is_disabled":false,"rental_uris":{"android":"levelo://app?vid=d5f8b791-59f4-4fd9-8125-97f5a7e532cb","ios":"levelo://app?vid=d5f8b791-59f4-4fd9-8125-97f5a7e532cb"},"vehicle_type_id":"4","last_reported":1705702001,"current_range_meters":1200,"station_id":"ce4bgjh2rcd13ifvqbg0","pricing_plan_id":"free"},{"bike_id":"34c8b400-5074-46e3-aa02-f5d274dfaa4f","system_id":"levelo_inurba_marseille","lat":43.322872,"lon":5.382756,"is_reserved":false,"is_disabled":false,"rental_uris":{"android":"levelo://app?vid=34c8b400-5074-46e3-aa02-f5d274dfaa4f","ios":"levelo://app?vid=34c8b400-5074-46e3-aa02-f5d274dfaa4f"},"vehicle_type_id":"4","last_reported":1705702001,"current_range_meters":28000,"station_id":"ce4bhr12rcd13ifvqhqg","pricing_plan_id":"free"},{"bike_id":"b297575b-a7b6-4e6d-ba46-7ced5dd9abee","system_id":"levelo_inurba_marseille","lat":43.322872,"lon":5.382756,"is_reserved":false,"is_disabled":false,"rental_uris":{"android":"levelo://app?vid=b297575b-a7b6-4e6d-ba46-7ced5dd9abee","ios":"levelo://app?vid=b297575b-a7b6-4e6d-ba46-7ced5dd9abee"},"vehicle_type_id":"4","last_reported":1705702001,"current_range_meters":14000,"station_id":"ce4bhr12rcd13ifvqhqg","pricing_plan_id":"free"},{"bike_id":"c3ab95e9-b05f-4b19-b4ee-7abea1f52c27","system_id":"levelo_inurba_marseille","lat":43.322872,"lon":5.382756,"is_reserved":false,"is_disabled":false,"rental_uris":{"android":"levelo://app?vid=c3ab95e9-b05f-4b19-b4ee-7abea1f52c27","ios":"levelo://app?vid=c3ab95e9-b05f-4b19-b4ee-7abea1f52c27"},"vehicle_type_id":"4","last_reported":1705702001,"current_range_meters":31200,"station_id":"ce4bhr12rcd13ifvqhqg","pricing_plan_id":"free"},{"bike_id":"c59e915a-05cb-49b2-8b19-dcae4465ebcc","system_id":"levelo_inurba_marseille","lat":43.322872,"lon":5.382756,"is_reserved":false,"is_disabled":false,"rental_uris":{"android":"levelo://app?vid=c59e915a-05cb-49b2-8b19-dcae4465ebcc","ios":"levelo://app?vid=c59e915a-05cb-49b2-8b19-dcae4465ebcc"},"vehicle_type_id":"4","last_reported":1705702001,"current_range_meters":25200,"station_id":"ce4bhr12rcd13ifvqhqg","pricing_plan_id":"free"},{"bike_id":"c1b67890-f7d9-4d1f-b03b-fc166c7b9129","system_id":"levelo_inurba_marseille","lat":43.322872,"lon":5.382756,"is_reserved":false,"is_disabled":false,"rental_uris":{"android":"levelo://app?vid=c1b67890-f7d9-4d1f-b03b-fc166c7b9129","ios":"levelo://app?vid=c1b67890-f7d9-4d1f-b03b-fc166c7b9129"},"vehicle_type_id":"4","last_reported":1705702001,"current_range_meters":0,"station_id":"ce4bhr12rcd13ifvqhqg","pricing_plan_id":"free"},{"bike_id":"217b56ce-f663-414b-bd80-2c68d6f3e28b","system_id":"levelo_inurba_marseille","lat":43.322872,"lon":5.382756,"is_reserved":false,"is_disabled":false,"rental_uris":{"android":"levelo://app?vid=217b56ce-f663-414b-bd80-2c68d6f3e28b","ios":"levelo://app?vid=217b56ce-f663-414b-bd80-2c68d6f3e28b"},"vehicle_type_id":"4","last_reported":1705702001,"current_range_meters":23600,"station_id":"ce4bhr12rcd13ifvqhqg","pricing_plan_id":"free"},{"bike_id":"510e4003-ad50-4182-a4bb-6da1b111fff5","system_id":"levelo_inurba_marseille","lat":43.322872,"lon":5.382756,"is_reserved":false,"is_disabled":false,"rental_uris":{"android":"levelo://app?vid=510e4003-ad50-4182-a4bb-6da1b111fff5","ios":"levelo://app?vid=510e4003-ad50-4182-a4bb-6da1b111fff5"},"vehicle_type_id":"4","last_reported":1705702001,"current_range_meters":18000,"station_id":"ce4bhr12rcd13ifvqhqg","pricing_plan_id":"free"},{"bike_id":"afe2d6ba-ebda-4981-9104-c77037901f05","system_id":"levelo_inurba_marseille","lat":43.322872,"lon":5.382756,"is_reserved":false,"is_disabled":false,"rental_uris":{"android":"levelo://app?vid=afe2d6ba-ebda-4981-9104-c77037901f05","ios":"levelo://app?vid=afe2d6ba-ebda-4981-9104-c77037901f05"},"vehicle_type_id":"4","last_reported":1705702001,"current_range_meters":28000,"station_id":"ce4bhr12rcd13ifvqhqg","pricing_plan_id":"free"},{"bike_id":"6da9db5a-42ba-4fa8-afc9-4fdbb45498c1","system_id":"levelo_inurba_marseille","lat":43.328235,"lon":5.366776,"is_reserved":false,"is_disabled":false,"rental_uris":{"android":"levelo://app?vid=6da9db5a-42ba-4fa8-afc9-4fdbb45498c1","ios":"levelo://app?vid=6da9db5a-42ba-4fa8-afc9-4fdbb45498c1"},"vehicle_type_id":"4","last_reported":1705702001,"current_range_meters":2400,"station_id":"ce4bhs92rcd13ifvqi0g","pricing_plan_id":"free"},{"bike_id":"02f97db8-1e1e-4f38-89f3-11868234f7c3","system_id":"levelo_inurba_marseille","lat":43.328253,"lon":5.366799,"is_reserved":false,"is_disabled":false,"rental_uris":{"android":"levelo://app?vid=02f97db8-1e1e-4f38-89f3-11868234f7c3","ios":"levelo://app?vid=02f97db8-1e1e-4f38-89f3-11868234f7c3"},"vehicle_type_id":"4","last_reported":1705702001,"current_range_meters":7600,"station_id":"ce4bhs92rcd13ifvqi0g","pricing_plan_id":"free"},{"bike_id":"2849c95b-f1a6-402d-aac7-80ea81f2feb2","system_id":"levelo_inurba_marseille","lat":43.328271,"lon":5.36684,"is_reserved":false,"is_disabled":false,"rental_uris":{"android":"levelo://app?vid=2849c95b-f1a6-402d-aac7-80ea81f2feb2","ios":"levelo://app?vid=2849c95b-f1a6-402d-aac7-80ea81f2feb2"},"vehicle_type_id":"4","last_reported":1705702001,"current_range_meters":24400,"station_id":"ce4bhs92rcd13ifvqi0g","pricing_plan_id":"free"},{"bike_id":"ea0178f3-2c6b-4af6-b062-91b0b8dde1df","system_id":"levelo_inurba_marseille","lat":43.328272,"lon":5.366836,"is_reserved":false,"is_disabled":false,"rental_uris":{"android":"levelo://app?vid=ea0178f3-2c6b-4af6-b062-91b0b8dde1df","ios":"levelo://app?vid=ea0178f3-2c6b-4af6-b062-91b0b8dde1df"},"vehicle_type_id":"4","last_reported":1705702001,"current_range_meters":26400,"station_id":"ce4bhs92rcd13ifvqi0g","pricing_plan_id":"free"},{"bike_id":"85cedcff-9e9a-415d-8415-195178ea3cb7","system_id":"levelo_inurba_marseille","lat":43.328274,"lon":5.366763,"is_reserved":false,"is_disabled":false,"rental_uris":{"android":"levelo://app?vid=85cedcff-9e9a-415d-8415-195178ea3cb7","ios":"levelo://app?vid=85cedcff-9e9a-415d-8415-195178ea3cb7"},"vehicle_type_id":"4","last_reported":1705702001,"current_range_meters":9600,"station_id":"ce4bhs92rcd13ifvqi0g","pricing_plan_id":"free"},{"bike_id":"59148974-5dd5-4b80-aebd-ec12c23b58c1","system_id":"levelo_inurba_marseille","lat":43.32828,"lon":5.366839,"is_reserved":false,"is_disabled":false,"rental_uris":{"android":"levelo://app?vid=59148974-5dd5-4b80-aebd-ec12c23b58c1","ios":"levelo://app?vid=59148974-5dd5-4b80-aebd-ec12c23b58c1"},"vehicle_type_id":"4","last_reported":1705702001,"current_range_meters":8000,"station_id":"ce4bhs92rcd13ifvqi0g","pricing_plan_id":"free"},{"bike_id":"641739e6-19de-47df-9491-35da26c3c9da","system_id":"levelo_inurba_marseille","lat":43.328371,"lon":5.366909,"is_reserved":false,"is_disabled":false,"rental_uris":{"android":"levelo://app?vid=641739e6-19de-47df-9491-35da26c3c9da","ios":"levelo://app?vid=641739e6-19de-47df-9491-35da26c3c9da"},"vehicle_type_id":"4","last_reported":1705702001,"current_range_meters":18000,"station_id":"ce4bhs92rcd13ifvqi0g","pricing_plan_id":"free"},{"bike_id":"130b18c2-11ce-4fc1-9052-79c75f9cbffa","system_id":"levelo_inurba_marseille","lat":43.328291,"lon":5.366929,"is_reserved":false,"is_disabled":false,"rental_uris":{"android":"levelo://app?vid=130b18c2-11ce-4fc1-9052-79c75f9cbffa","ios":"levelo://app?vid=130b18c2-11ce-4fc1-9052-79c75f9cbffa"},"vehicle_type_id":"4","last_reported":1705702001,"current_range_meters":16400,"station_id":"ce4bhs92rcd13ifvqi0g","pricing_plan_id":"free"},{"bike_id":"33a5b9b9-aec4-4925-974d-72730cfc5f44","system_id":"levelo_inurba_marseille","lat":43.328297,"lon":5.366815,"is_reserved":false,"is_disabled":false,"rental_uris":{"android":"levelo://app?vid=33a5b9b9-aec4-4925-974d-72730cfc5f44","ios":"levelo://app?vid=33a5b9b9-aec4-4925-974d-72730cfc5f44"},"vehicle_type_id":"4","last_reported":1705702001,"current_range_meters":17200,"station_id":"ce4bhs92rcd13ifvqi0g","pricing_plan_id":"free"},{"bike_id":"6b4ea496-3016-42db-af64-ba8beb6e73fc","system_id":"levelo_inurba_marseille","lat":43.328371,"lon":5.366909,"is_reserved":false,"is_disabled":false,"rental_uris":{"android":"levelo://app?vid=6b4ea496-3016-42db-af64-ba8beb6e73fc","ios":"levelo://app?vid=6b4ea496-3016-42db-af64-ba8beb6e73fc"},"vehicle_type_id":"4","last_reported":1705702001,"current_range_meters":13200,"station_id":"ce4bhs92rcd13ifvqi0g","pricing_plan_id":"free"},{"bike_id":"1782ad4d-7cbc-4ac0-af82-b65688e9d34c","system_id":"levelo_inurba_marseille","lat":43.328371,"lon":5.366909,"is_reserved":false,"is_disabled":false,"rental_uris":{"android":"levelo://app?vid=1782ad4d-7cbc-4ac0-af82-b65688e9d34c","ios":"levelo://app?vid=1782ad4d-7cbc-4ac0-af82-b65688e9d34c"},"vehicle_type_id":"4","last_reported":1705702001,"current_range_meters":17600,"station_id":"ce4bhs92rcd13ifvqi0g","pricing_plan_id":"free"},{"bike_id":"a53b6dde-9c97-4a96-897c-ee7f9265222d","system_id":"levelo_inurba_marseille","lat":43.328371,"lon":5.366909,"is_reserved":false,"is_disabled":false,"rental_uris":{"android":"levelo://app?vid=a53b6dde-9c97-4a96-897c-ee7f9265222d","ios":"levelo://app?vid=a53b6dde-9c97-4a96-897c-ee7f9265222d"},"vehicle_type_id":"4","last_reported":1705702001,"current_range_meters":10800,"station_id":"ce4bhs92rcd13ifvqi0g","pricing_plan_id":"free"},{"bike_id":"88638e12-da12-4596-b7e2-600ab2f62219","system_id":"levelo_inurba_marseille","lat":43.328371,"lon":5.366909,"is_reserved":false,"is_disabled":false,"rental_uris":{"android":"levelo://app?vid=88638e12-da12-4596-b7e2-600ab2f62219","ios":"levelo://app?vid=88638e12-da12-4596-b7e2-600ab2f62219"},"vehicle_type_id":"4","last_reported":1705702001,"current_range_meters":0,"station_id":"ce4bhs92rcd13ifvqi0g","pricing_plan_id":"free"},{"bike_id":"38082c03-fac1-44d3-a79f-5142b4a113a9","system_id":"levelo_inurba_marseille","lat":43.328373,"lon":5.366902,"is_reserved":false,"is_disabled":false,"rental_uris":{"android":"levelo://app?vid=38082c03-fac1-44d3-a79f-5142b4a113a9","ios":"levelo://app?vid=38082c03-fac1-44d3-a79f-5142b4a113a9"},"vehicle_type_id":"4","last_reported":1705702001,"current_range_meters":12800,"station_id":"ce4bhs92rcd13ifvqi0g","pricing_plan_id":"free"},{"bike_id":"b2c5fc15-0b05-4de1-9737-69fff15c4372","system_id":"levelo_inurba_marseille","lat":43.299243,"lon":5.37481,"is_reserved":false,"is_disabled":false,"rental_uris":{"android":"levelo://app?vid=b2c5fc15-0b05-4de1-9737-69fff15c4372","ios":"levelo://app?vid=b2c5fc15-0b05-4de1-9737-69fff15c4372"},"vehicle_type_id":"4","last_reported":1705702001,"current_range_meters":13200,"station_id":"ce4bgjh2rcd13ifvqbg0","pricing_plan_id":"free"},{"bike_id":"9229aaad-15a7-46c3-a753-6d7602d35932","system_id":"levelo_inurba_marseille","lat":43.296804,"lon":5.372878,"is_reserved":false,"is_disabled":false,"rental_uris":{"android":"levelo://app?vid=9229aaad-15a7-46c3-a753-6d7602d35932","ios":"levelo://app?vid=9229aaad-15a7-46c3-a753-6d7602d35932"},"vehicle_type_id":"4","last_reported":1705702001,"current_range_meters":18000,"station_id":"ce4bgk12rcd13ifvqbj0","pricing_plan_id":"free"},{"bike_id":"7a5a2c7c-d28f-42c4-b561-803fa81f7c7b","system_id":"levelo_inurba_marseille","lat":43.29675,"lon":5.37289,"is_reserved":false,"is_disabled":false,"rental_uris":{"android":"levelo://app?vid=7a5a2c7c-d28f-42c4-b561-803fa81f7c7b","ios":"levelo://app?vid=7a5a2c7c-d28f-42c4-b561-803fa81f7c7b"},"vehicle_type_id":"4","last_reported":1705702001,"current_range_meters":20400,"station_id":"ce4bgk12rcd13ifvqbj0","pricing_plan_id":"free"},{"bike_id":"47b7c023-01cc-44a0-91c8-30b39794f64c","system_id":"levelo_inurba_marseille","lat":43.29608,"lon":5.36778,"is_reserved":false,"is_disabled":false,"rental_uris":{"android":"levelo://app?vid=47b7c023-01cc-44a0-91c8-30b39794f64c","ios":"levelo://app?vid=47b7c023-01cc-44a0-91c8-30b39794f64c"},"vehicle_type_id":"4","last_reported":1705702001,"current_range_meters":18000,"station_id":"","pricing_plan_id":"free"},{"bike_id":"885a224e-f1e4-43d2-b865-1181a7ea9d01","system_id":"levelo_inurba_marseille","lat":43.296131,"lon":5.370791,"is_reserved":false,"is_disabled":false,"rental_uris":{"android":"levelo://app?vid=885a224e-f1e4-43d2-b865-1181a7ea9d01","ios":"levelo://app?vid=885a224e-f1e4-43d2-b865-1181a7ea9d01"},"vehicle_type_id":"4","last_reported":1705702001,"current_range_meters":27600,"station_id":"ce4bgnh2rcd13ifvqc0g","pricing_plan_id":"free"},{"bike_id":"76e672fc-e3bd-494c-a9ec-da8d526ce7b1","system_id":"levelo_inurba_marseille","lat":43.295867,"lon":5.367445,"is_reserved":false,"is_disabled":false,"rental_uris":{"android":"levelo://app?vid=76e672fc-e3bd-494c-a9ec-da8d526ce7b1","ios":"levelo://app?vid=76e672fc-e3bd-494c-a9ec-da8d526ce7b1"},"vehicle_type_id":"4","last_reported":1705702001,"current_range_meters":0,"station_id":"ce4bgph2rcd13ifvqc2g","pricing_plan_id":"free"},{"bike_id":"71ef2680-e2fc-4ad7-aca0-abe919859457","system_id":"levelo_inurba_marseille","lat":43.296131,"lon":5.370773,"is_reserved":false,"is_disabled":false,"rental_uris":{"android":"levelo://app?vid=71ef2680-e2fc-4ad7-aca0-abe919859457","ios":"levelo://app?vid=71ef2680-e2fc-4ad7-aca0-abe919859457"},"vehicle_type_id":"4","last_reported":1705702001,"current_range_meters":26800,"station_id":"ce4bgnh2rcd13ifvqc0g","pricing_plan_id":"free"},{"bike_id":"540e68cf-b406-427f-96b7-f57ba8ca1639","system_id":"levelo_inurba_marseille","lat":43.296921,"lon":5.376579,"is_reserved":false,"is_disabled":false,"rental_uris":{"android":"levelo://app?vid=540e68cf-b406-427f-96b7-f57ba8ca1639","ios":"levelo://app?vid=540e68cf-b406-427f-96b7-f57ba8ca1639"},"vehicle_type_id":"4","last_reported":1705702001,"current_range_meters":26400,"station_id":"ce4bgkh2rcd13ifvqbl0","pricing_plan_id":"free"},{"bike_id":"c06be379-d92a-4e0a-9688-43b0c49e7cde","system_id":"levelo_inurba_marseille","lat":43.299028,"lon":5.381509,"is_reserved":false,"is_disabled":false,"rental_uris":{"android":"levelo://app?vid=c06be379-d92a-4e0a-9688-43b0c49e7cde","ios":"levelo://app?vid=c06be379-d92a-4e0a-9688-43b0c49e7cde"},"vehicle_type_id":"4","last_reported":1705702001,"current_range_meters":25200,"station_id":"ce4bgj12rcd13ifvqbc0","pricing_plan_id":"free"},{"bike_id":"7147d5a9-8503-4ba3-869f-d225857fa107","system_id":"levelo_inurba_marseille","lat":43.317557,"lon":5.390173,"is_reserved":false,"is_disabled":false,"rental_uris":{"android":"levelo://app?vid=7147d5a9-8503-4ba3-869f-d225857fa107","ios":"levelo://app?vid=7147d5a9-8503-4ba3-869f-d225857fa107"},"vehicle_type_id":"4","last_reported":1705702001,"current_range_meters":20400,"station_id":"ce4bhqp2rcd13ifvqhng","pricing_plan_id":"free"},{"bike_id":"1747a2df-9fdd-4485-8c0a-008d957b61d7","system_id":"levelo_inurba_marseille","lat":43.317557,"lon":5.390173,"is_reserved":false,"is_disabled":false,"rental_uris":{"android":"levelo://app?vid=1747a2df-9fdd-4485-8c0a-008d957b61d7","ios":"levelo://app?vid=1747a2df-9fdd-4485-8c0a-008d957b61d7"},"vehicle_type_id":"4","last_reported":1705702001,"current_range_meters":27600,"station_id":"ce4bhqp2rcd13ifvqhng","pricing_plan_id":"free"},{"bike_id":"14e0d56e-cde5-4799-a904-73db61fcc0f7","system_id":"levelo_inurba_marseille","lat":43.317557,"lon":5.390173,"is_reserved":false,"is_disabled":false,"rental_uris":{"android":"levelo://app?vid=14e0d56e-cde5-4799-a904-73db61fcc0f7","ios":"levelo://app?vid=14e0d56e-cde5-4799-a904-73db61fcc0f7"},"vehicle_type_id":"4","last_reported":1705702001,"current_range_meters":23200,"station_id":"ce4bhqp2rcd13ifvqhng","pricing_plan_id":"free"},{"bike_id":"7a1d93d7-4767-4a9b-aa98-0f1070949ce6","system_id":"levelo_inurba_marseille","lat":43.317557,"lon":5.390173,"is_reserved":false,"is_disabled":false,"rental_uris":{"android":"levelo://app?vid=7a1d93d7-4767-4a9b-aa98-0f1070949ce6","ios":"levelo://app?vid=7a1d93d7-4767-4a9b-aa98-0f1070949ce6"},"vehicle_type_id":"4","last_reported":1705702001,"current_range_meters":12400,"station_id":"ce4bhqp2rcd13ifvqhng","pricing_plan_id":"free"},{"bike_id":"3095eabc-89cf-4a2a-805b-93d20cfceca5","system_id":"levelo_inurba_marseille","lat":43.298037,"lon":5.381066,"is_reserved":false,"is_disabled":false,"rental_uris":{"android":"levelo://app?vid=3095eabc-89cf-4a2a-805b-93d20cfceca5","ios":"levelo://app?vid=3095eabc-89cf-4a2a-805b-93d20cfceca5"},"vehicle_type_id":"4","last_reported":1705702001,"current_range_meters":14800,"station_id":"ce4bgip2rcd13ifvqbb0","pricing_plan_id":"free"},{"bike_id":"39119ecc-ca43-476e-a632-0157f7a5fdbb","system_id":"levelo_inurba_marseille","lat":43.295748,"lon":5.37522,"is_reserved":false,"is_disabled":false,"rental_uris":{"android":"levelo://app?vid=39119ecc-ca43-476e-a632-0157f7a5fdbb","ios":"levelo://app?vid=39119ecc-ca43-476e-a632-0157f7a5fdbb"},"vehicle_type_id":"4","last_reported":1705702001,"current_range_meters":27200,"station_id":"ce4bgh92rcd13ifvqb50","pricing_plan_id":"free"},{"bike_id":"d6e4b919-6258-4d37-934e-af246bd935be","system_id":"levelo_inurba_marseille","lat":43.30421,"lon":5.38879,"is_reserved":false,"is_disabled":false,"rental_uris":{"android":"levelo://app?vid=d6e4b919-6258-4d37-934e-af246bd935be","ios":"levelo://app?vid=d6e4b919-6258-4d37-934e-af246bd935be"},"vehicle_type_id":"4","last_reported":1705702001,"current_range_meters":16000,"station_id":"ce4bgk12rcd13ifvqbi0","pricing_plan_id":"free"},{"bike_id":"2a951111-61ea-427d-ae3a-e4d8f0e763ae","system_id":"levelo_inurba_marseille","lat":43.304278,"lon":5.388868,"is_reserved":false,"is_disabled":false,"rental_uris":{"android":"levelo://app?vid=2a951111-61ea-427d-ae3a-e4d8f0e763ae","ios":"levelo://app?vid=2a951111-61ea-427d-ae3a-e4d8f0e763ae"},"vehicle_type_id":"4","last_reported":1705702001,"current_range_meters":18400,"station_id":"ce4bgk12rcd13ifvqbi0","pricing_plan_id":"free"},{"bike_id":"6af9bd80-5e41-49bc-bed1-b6981c5d32cf","system_id":"levelo_inurba_marseille","lat":43.295748,"lon":5.37522,"is_reserved":false,"is_disabled":false,"rental_uris":{"android":"levelo://app?vid=6af9bd80-5e41-49bc-bed1-b6981c5d32cf","ios":"levelo://app?vid=6af9bd80-5e41-49bc-bed1-b6981c5d32cf"},"vehicle_type_id":"4","last_reported":1705702001,"current_range_meters":23600,"station_id":"ce4bgh92rcd13ifvqb50","pricing_plan_id":"free"},{"bike_id":"863bcb5b-b8a7-4808-abea-fbff6dd2b5de","system_id":"levelo_inurba_marseille","lat":43.296277,"lon":5.377108,"is_reserved":false,"is_disabled":false,"rental_uris":{"android":"levelo://app?vid=863bcb5b-b8a7-4808-abea-fbff6dd2b5de","ios":"levelo://app?vid=863bcb5b-b8a7-4808-abea-fbff6dd2b5de"},"vehicle_type_id":"4","last_reported":1705702001,"current_range_meters":23600,"station_id":"ce4bgi92rcd13ifvqb90","pricing_plan_id":"free"},{"bike_id":"af84cc74-9b17-4d18-b43c-58b00b5e261b","system_id":"levelo_inurba_marseille","lat":43.296229,"lon":5.377304,"is_reserved":false,"is_disabled":false,"rental_uris":{"android":"levelo://app?vid=af84cc74-9b17-4d18-b43c-58b00b5e261b","ios":"levelo://app?vid=af84cc74-9b17-4d18-b43c-58b00b5e261b"},"vehicle_type_id":"4","last_reported":1705702001,"current_range_meters":0,"station_id":"ce4bgi92rcd13ifvqb90","pricing_plan_id":"free"},{"bike_id":"7cd9ab9e-f879-4b3b-ae29-671a31f8b9e3","system_id":"levelo_inurba_marseille","lat":43.295748,"lon":5.37522,"is_reserved":false,"is_disabled":false,"rental_uris":{"android":"levelo://app?vid=7cd9ab9e-f879-4b3b-ae29-671a31f8b9e3","ios":"levelo://app?vid=7cd9ab9e-f879-4b3b-ae29-671a31f8b9e3"},"vehicle_type_id":"4","last_reported":1705702001,"current_range_meters":25200,"station_id":"ce4bgh92rcd13ifvqb50","pricing_plan_id":"free"},{"bike_id":"1547e410-1756-487b-a4a1-d97937d7f64b","system_id":"levelo_inurba_marseille","lat":43.296263,"lon":5.377094,"is_reserved":false,"is_disabled":false,"rental_uris":{"android":"levelo://app?vid=1547e410-1756-487b-a4a1-d97937d7f64b","ios":"levelo://app?vid=1547e410-1756-487b-a4a1-d97937d7f64b"},"vehicle_type_id":"4","last_reported":1705702001,"current_range_meters":22000,"station_id":"ce4bgi92rcd13ifvqb90","pricing_plan_id":"free"},{"bike_id":"a224afc2-bec5-4626-883d-6f7f55e63f40","system_id":"levelo_inurba_marseille","lat":43.299707,"lon":5.384859,"is_reserved":false,"is_disabled":false,"rental_uris":{"android":"levelo://app?vid=a224afc2-bec5-4626-883d-6f7f55e63f40","ios":"levelo://app?vid=a224afc2-bec5-4626-883d-6f7f55e63f40"},"vehicle_type_id":"4","last_reported":1705702001,"current_range_meters":19600,"station_id":"ce4bgj92rcd13ifvqbd0","pricing_plan_id":"free"},{"bike_id":"75a1659b-ee17-4964-b3dc-0103ab25c7f4","system_id":"levelo_inurba_marseille","lat":43.299707,"lon":5.384859,"is_reserved":false,"is_disabled":false,"rental_uris":{"android":"levelo://app?vid=75a1659b-ee17-4964-b3dc-0103ab25c7f4","ios":"levelo://app?vid=75a1659b-ee17-4964-b3dc-0103ab25c7f4"},"vehicle_type_id":"4","last_reported":1705702001,"current_range_meters":2400,"station_id":"ce4bgj92rcd13ifvqbd0","pricing_plan_id":"free"},{"bike_id":"6cf01728-bb1b-476c-b145-9ae353fcea1a","system_id":"levelo_inurba_marseille","lat":43.295279,"lon":5.375048,"is_reserved":false,"is_disabled":false,"rental_uris":{"android":"levelo://app?vid=6cf01728-bb1b-476c-b145-9ae353fcea1a","ios":"levelo://app?vid=6cf01728-bb1b-476c-b145-9ae353fcea1a"},"vehicle_type_id":"4","last_reported":1705702001,"current_range_meters":24000,"station_id":"ce4bgkp2rcd13ifvqbmg","pricing_plan_id":"free"},{"bike_id":"966f317d-b5de-46ef-8e9a-0b96913d4288","system_id":"levelo_inurba_marseille","lat":43.29966,"lon":5.38489,"is_reserved":false,"is_disabled":false,"rental_uris":{"android":"levelo://app?vid=966f317d-b5de-46ef-8e9a-0b96913d4288","ios":"levelo://app?vid=966f317d-b5de-46ef-8e9a-0b96913d4288"},"vehicle_type_id":"4","last_reported":1705702001,"current_range_meters":17200,"station_id":"ce4bgj92rcd13ifvqbd0","pricing_plan_id":"free"},{"bike_id":"4f3c6725-8531-419b-826c-23756dc00edc","system_id":"levelo_inurba_marseille","lat":43.299588,"lon":5.384816,"is_reserved":false,"is_disabled":false,"rental_uris":{"android":"levelo://app?vid=4f3c6725-8531-419b-826c-23756dc00edc","ios":"levelo://app?vid=4f3c6725-8531-419b-826c-23756dc00edc"},"vehicle_type_id":"4","last_reported":1705702001,"current_range_meters":6400,"station_id":"ce4bgj92rcd13ifvqbd0","pricing_plan_id":"free"},{"bike_id":"59ca957c-dfee-4642-95ac-ff6534c5ef22","system_id":"levelo_inurba_marseille","lat":43.299724,"lon":5.384848,"is_reserved":false,"is_disabled":false,"rental_uris":{"android":"levelo://app?vid=59ca957c-dfee-4642-95ac-ff6534c5ef22","ios":"levelo://app?vid=59ca957c-dfee-4642-95ac-ff6534c5ef22"},"vehicle_type_id":"4","last_reported":1705702001,"current_range_meters":22800,"station_id":"ce4bgj92rcd13ifvqbd0","pricing_plan_id":"free"},{"bike_id":"879e42e5-b0fb-4da7-a541-0559cc8dd8aa","system_id":"levelo_inurba_marseille","lat":43.29965,"lon":5.38495,"is_reserved":false,"is_disabled":false,"rental_uris":{"android":"levelo://app?vid=879e42e5-b0fb-4da7-a541-0559cc8dd8aa","ios":"levelo://app?vid=879e42e5-b0fb-4da7-a541-0559cc8dd8aa"},"vehicle_type_id":"4","last_reported":1705702001,"current_range_meters":6000,"station_id":"ce4bgj92rcd13ifvqbd0","pricing_plan_id":"free"},{"bike_id":"c8b0785a-bf34-432e-bb64-dfdee3d2c9c6","system_id":"levelo_inurba_marseille","lat":43.29964,"lon":5.38494,"is_reserved":false,"is_disabled":false,"rental_uris":{"android":"levelo://app?vid=c8b0785a-bf34-432e-bb64-dfdee3d2c9c6","ios":"levelo://app?vid=c8b0785a-bf34-432e-bb64-dfdee3d2c9c6"},"vehicle_type_id":"4","last_reported":1705702001,"current_range_meters":18400,"station_id":"ce4bgj92rcd13ifvqbd0","pricing_plan_id":"free"},{"bike_id":"46779168-7fb3-4f89-9abb-7b8a324652d8","system_id":"levelo_inurba_marseille","lat":43.29967,"lon":5.385,"is_reserved":false,"is_disabled":false,"rental_uris":{"android":"levelo://app?vid=46779168-7fb3-4f89-9abb-7b8a324652d8","ios":"levelo://app?vid=46779168-7fb3-4f89-9abb-7b8a324652d8"},"vehicle_type_id":"4","last_reported":1705702001,"current_range_meters":400,"station_id":"ce4bgj92rcd13ifvqbd0","pricing_plan_id":"free"},{"bike_id":"fac99dd4-dc40-4298-b945-81e7984be728","system_id":"levelo_inurba_marseille","lat":43.29965,"lon":5.38498,"is_reserved":false,"is_disabled":false,"rental_uris":{"android":"levelo://app?vid=fac99dd4-dc40-4298-b945-81e7984be728","ios":"levelo://app?vid=fac99dd4-dc40-4298-b945-81e7984be728"},"vehicle_type_id":"4","last_reported":1705702001,"current_range_meters":26000,"station_id":"ce4bgj92rcd13ifvqbd0","pricing_plan_id":"free"},{"bike_id":"0b8338cd-49dc-47c4-b571-5eb51ed5b30e","system_id":"levelo_inurba_marseille","lat":43.29963,"lon":5.38496,"is_reserved":false,"is_disabled":false,"rental_uris":{"android":"levelo://app?vid=0b8338cd-49dc-47c4-b571-5eb51ed5b30e","ios":"levelo://app?vid=0b8338cd-49dc-47c4-b571-5eb51ed5b30e"},"vehicle_type_id":"4","last_reported":1705702001,"current_range_meters":2400,"station_id":"ce4bgj92rcd13ifvqbd0","pricing_plan_id":"free"},{"bike_id":"5abb7150-9947-4598-bc96-e3a4d6ff5d01","system_id":"levelo_inurba_marseille","lat":43.29962,"lon":5.38496,"is_reserved":false,"is_disabled":false,"rental_uris":{"android":"levelo://app?vid=5abb7150-9947-4598-bc96-e3a4d6ff5d01","ios":"levelo://app?vid=5abb7150-9947-4598-bc96-e3a4d6ff5d01"},"vehicle_type_id":"4","last_reported":1705702001,"current_range_meters":6800,"station_id":"ce4bgj92rcd13ifvqbd0","pricing_plan_id":"free"},{"bike_id":"307d424b-f65f-4207-ba9c-04cc72d35550","system_id":"levelo_inurba_marseille","lat":43.29962,"lon":5.38496,"is_reserved":false,"is_disabled":false,"rental_uris":{"android":"levelo://app?vid=307d424b-f65f-4207-ba9c-04cc72d35550","ios":"levelo://app?vid=307d424b-f65f-4207-ba9c-04cc72d35550"},"vehicle_type_id":"4","last_reported":1705702001,"current_range_meters":31200,"station_id":"ce4bgj92rcd13ifvqbd0","pricing_plan_id":"free"},{"bike_id":"5b56990b-1561-4220-8723-084824616392","system_id":"levelo_inurba_marseille","lat":43.29964,"lon":5.38499,"is_reserved":false,"is_disabled":false,"rental_uris":{"android":"levelo://app?vid=5b56990b-1561-4220-8723-084824616392","ios":"levelo://app?vid=5b56990b-1561-4220-8723-084824616392"},"vehicle_type_id":"4","last_reported":1705702001,"current_range_meters":17200,"station_id":"ce4bgj92rcd13ifvqbd0","pricing_plan_id":"free"},{"bike_id":"63ab1780-1cd0-4f6f-961b-9de4701b66ee","system_id":"levelo_inurba_marseille","lat":43.29961,"lon":5.38499,"is_reserved":false,"is_disabled":false,"rental_uris":{"android":"levelo://app?vid=63ab1780-1cd0-4f6f-961b-9de4701b66ee","ios":"levelo://app?vid=63ab1780-1cd0-4f6f-961b-9de4701b66ee"},"vehicle_type_id":"4","last_reported":1705702001,"current_range_meters":18000,"station_id":"ce4bgj92rcd13ifvqbd0","pricing_plan_id":"free"},{"bike_id":"a7bbfa2f-a35c-4841-959e-61c23782fe8c","system_id":"levelo_inurba_marseille","lat":43.29963,"lon":5.38502,"is_reserved":false,"is_disabled":false,"rental_uris":{"android":"levelo://app?vid=a7bbfa2f-a35c-4841-959e-61c23782fe8c","ios":"levelo://app?vid=a7bbfa2f-a35c-4841-959e-61c23782fe8c"},"vehicle_type_id":"4","last_reported":1705702001,"current_range_meters":24000,"station_id":"ce4bgj92rcd13ifvqbd0","pricing_plan_id":"free"},{"bike_id":"469a01d4-3728-45ec-b04b-4f678c180b89","system_id":"levelo_inurba_marseille","lat":43.2996,"lon":5.38498,"is_reserved":false,"is_disabled":false,"rental_uris":{"android":"levelo://app?vid=469a01d4-3728-45ec-b04b-4f678c180b89","ios":"levelo://app?vid=469a01d4-3728-45ec-b04b-4f678c180b89"},"vehicle_type_id":"4","last_reported":1705702001,"current_range_meters":29200,"station_id":"ce4bgj92rcd13ifvqbd0","pricing_plan_id":"free"},{"bike_id":"b97f084f-e70f-4ca2-a87d-ee12c07f24a3","system_id":"levelo_inurba_marseille","lat":43.32367,"lon":5.388836,"is_reserved":false,"is_disabled":false,"rental_uris":{"android":"levelo://app?vid=b97f084f-e70f-4ca2-a87d-ee12c07f24a3","ios":"levelo://app?vid=b97f084f-e70f-4ca2-a87d-ee12c07f24a3"},"vehicle_type_id":"4","last_reported":1705702001,"current_range_meters":6400,"station_id":"ce4bhqp2rcd13ifvqhog","pricing_plan_id":"free"},{"bike_id":"5d90feba-2a85-4bcd-b5b1-c5191d26352c","system_id":"levelo_inurba_marseille","lat":43.32367,"lon":5.388836,"is_reserved":false,"is_disabled":false,"rental_uris":{"android":"levelo://app?vid=5d90feba-2a85-4bcd-b5b1-c5191d26352c","ios":"levelo://app?vid=5d90feba-2a85-4bcd-b5b1-c5191d26352c"},"vehicle_type_id":"4","last_reported":1705702001,"current_range_meters":4400,"station_id":"ce4bhqp2rcd13ifvqhog","pricing_plan_id":"free"},{"bike_id":"0488a15c-5dec-4ef3-a79c-803c01b074d3","system_id":"levelo_inurba_marseille","lat":43.32367,"lon":5.388836,"is_reserved":false,"is_disabled":false,"rental_uris":{"android":"levelo://app?vid=0488a15c-5dec-4ef3-a79c-803c01b074d3","ios":"levelo://app?vid=0488a15c-5dec-4ef3-a79c-803c01b074d3"},"vehicle_type_id":"4","last_reported":1705702001,"current_range_meters":12000,"station_id":"ce4bhqp2rcd13ifvqhog","pricing_plan_id":"free"},{"bike_id":"59749826-7bca-4f0e-ba0d-6be12868bdc4","system_id":"levelo_inurba_marseille","lat":43.32367,"lon":5.388836,"is_reserved":false,"is_disabled":false,"rental_uris":{"android":"levelo://app?vid=59749826-7bca-4f0e-ba0d-6be12868bdc4","ios":"levelo://app?vid=59749826-7bca-4f0e-ba0d-6be12868bdc4"},"vehicle_type_id":"4","last_reported":1705702001,"current_range_meters":29200,"station_id":"ce4bhqp2rcd13ifvqhog","pricing_plan_id":"free"},{"bike_id":"f380ca6f-7a3a-4d56-9fcc-106969c567da","system_id":"levelo_inurba_marseille","lat":43.32367,"lon":5.388836,"is_reserved":false,"is_disabled":false,"rental_uris":{"android":"levelo://app?vid=f380ca6f-7a3a-4d56-9fcc-106969c567da","ios":"levelo://app?vid=f380ca6f-7a3a-4d56-9fcc-106969c567da"},"vehicle_type_id":"4","last_reported":1705702001,"current_range_meters":20000,"station_id":"ce4bhqp2rcd13ifvqhog","pricing_plan_id":"free"},{"bike_id":"7a77d777-cbf4-4854-b02f-5892bd6fc69d","system_id":"levelo_inurba_marseille","lat":43.3237,"lon":5.388843,"is_reserved":false,"is_disabled":false,"rental_uris":{"android":"levelo://app?vid=7a77d777-cbf4-4854-b02f-5892bd6fc69d","ios":"levelo://app?vid=7a77d777-cbf4-4854-b02f-5892bd6fc69d"},"vehicle_type_id":"4","last_reported":1705702001,"current_range_meters":20400,"station_id":"","pricing_plan_id":"free"},{"bike_id":"e488bc27-b4bd-4ecb-9994-ebd8743b5676","system_id":"levelo_inurba_marseille","lat":43.32367,"lon":5.388836,"is_reserved":false,"is_disabled":false,"rental_uris":{"android":"levelo://app?vid=e488bc27-b4bd-4ecb-9994-ebd8743b5676","ios":"levelo://app?vid=e488bc27-b4bd-4ecb-9994-ebd8743b5676"},"vehicle_type_id":"4","last_reported":1705702001,"current_range_meters":6400,"station_id":"ce4bhqp2rcd13ifvqhog","pricing_plan_id":"free"},{"bike_id":"c68b6822-d442-4675-b9d4-8c9cc910fa25","system_id":"levelo_inurba_marseille","lat":43.32367,"lon":5.388836,"is_reserved":false,"is_disabled":false,"rental_uris":{"android":"levelo://app?vid=c68b6822-d442-4675-b9d4-8c9cc910fa25","ios":"levelo://app?vid=c68b6822-d442-4675-b9d4-8c9cc910fa25"},"vehicle_type_id":"4","last_reported":1705702001,"current_range_meters":29200,"station_id":"ce4bhqp2rcd13ifvqhog","pricing_plan_id":"free"},{"bike_id":"e1283bec-dd91-4ead-a047-f9dd4ef7f4d0","system_id":"levelo_inurba_marseille","lat":43.29601,"lon":5.381084,"is_reserved":false,"is_disabled":false,"rental_uris":{"android":"levelo://app?vid=e1283bec-dd91-4ead-a047-f9dd4ef7f4d0","ios":"levelo://app?vid=e1283bec-dd91-4ead-a047-f9dd4ef7f4d0"},"vehicle_type_id":"4","last_reported":1705702001,"current_range_meters":24000,"station_id":"ce4bgl12rcd13ifvqbo0","pricing_plan_id":"free"},{"bike_id":"310cc76f-1e02-4109-b33c-84afe3814094","system_id":"levelo_inurba_marseille","lat":43.29601,"lon":5.381084,"is_reserved":false,"is_disabled":false,"rental_uris":{"android":"levelo://app?vid=310cc76f-1e02-4109-b33c-84afe3814094","ios":"levelo://app?vid=310cc76f-1e02-4109-b33c-84afe3814094"},"vehicle_type_id":"4","last_reported":1705702001,"current_range_meters":31200,"station_id":"ce4bgl12rcd13ifvqbo0","pricing_plan_id":"free"},{"bike_id":"d1bca459-69c4-415b-a120-30e39681ec16","system_id":"levelo_inurba_marseille","lat":43.29602,"lon":5.381084,"is_reserved":false,"is_disabled":false,"rental_uris":{"android":"levelo://app?vid=d1bca459-69c4-415b-a120-30e39681ec16","ios":"levelo://app?vid=d1bca459-69c4-415b-a120-30e39681ec16"},"vehicle_type_id":"4","last_reported":1705702001,"current_range_meters":26000,"station_id":"ce4bgl12rcd13ifvqbo0","pricing_plan_id":"free"},{"bike_id":"9ef3b602-d877-4892-bb9b-d511956e05f9","system_id":"levelo_inurba_marseille","lat":43.29602,"lon":5.381084,"is_reserved":false,"is_disabled":false,"rental_uris":{"android":"levelo://app?vid=9ef3b602-d877-4892-bb9b-d511956e05f9","ios":"levelo://app?vid=9ef3b602-d877-4892-bb9b-d511956e05f9"},"vehicle_type_id":"4","last_reported":1705702001,"current_range_meters":27200,"station_id":"ce4bgl12rcd13ifvqbo0","pricing_plan_id":"free"},{"bike_id":"a0bde91d-0866-4ce3-9ce0-d1e61f399921","system_id":"levelo_inurba_marseille","lat":43.29602,"lon":5.381084,"is_reserved":false,"is_disabled":false,"rental_uris":{"android":"levelo://app?vid=a0bde91d-0866-4ce3-9ce0-d1e61f399921","ios":"levelo://app?vid=a0bde91d-0866-4ce3-9ce0-d1e61f399921"},"vehicle_type_id":"4","last_reported":1705702001,"current_range_meters":16800,"station_id":"ce4bgl12rcd13ifvqbo0","pricing_plan_id":"free"},{"bike_id":"a6e6c832-fa95-421e-aa86-555dea19367c","system_id":"levelo_inurba_marseille","lat":43.29602,"lon":5.381084,"is_reserved":false,"is_disabled":false,"rental_uris":{"android":"levelo://app?vid=a6e6c832-fa95-421e-aa86-555dea19367c","ios":"levelo://app?vid=a6e6c832-fa95-421e-aa86-555dea19367c"},"vehicle_type_id":"4","last_reported":1705702001,"current_range_meters":10800,"station_id":"ce4bgl12rcd13ifvqbo0","pricing_plan_id":"free"},{"bike_id":"77a2f97b-a642-40e6-8ebf-fbcc1b2047da","system_id":"levelo_inurba_marseille","lat":43.293249,"lon":5.371578,"is_reserved":false,"is_disabled":false,"rental_uris":{"android":"levelo://app?vid=77a2f97b-a642-40e6-8ebf-fbcc1b2047da","ios":"levelo://app?vid=77a2f97b-a642-40e6-8ebf-fbcc1b2047da"},"vehicle_type_id":"4","last_reported":1705702001,"current_range_meters":16400,"station_id":"ce4bgh92rcd13ifvqb40","pricing_plan_id":"free"},{"bike_id":"99b3f693-2319-4df5-81ed-c8086fce25d0","system_id":"levelo_inurba_marseille","lat":43.293249,"lon":5.371578,"is_reserved":false,"is_disabled":false,"rental_uris":{"android":"levelo://app?vid=99b3f693-2319-4df5-81ed-c8086fce25d0","ios":"levelo://app?vid=99b3f693-2319-4df5-81ed-c8086fce25d0"},"vehicle_type_id":"4","last_reported":1705702001,"current_range_meters":17200,"station_id":"ce4bgh92rcd13ifvqb40","pricing_plan_id":"free"},{"bike_id":"b04642f3-3001-4754-9383-7b974889de24","system_id":"levelo_inurba_marseille","lat":43.293259,"lon":5.371586,"is_reserved":false,"is_disabled":false,"rental_uris":{"android":"levelo://app?vid=b04642f3-3001-4754-9383-7b974889de24","ios":"levelo://app?vid=b04642f3-3001-4754-9383-7b974889de24"},"vehicle_type_id":"4","last_reported":1705702001,"current_range_meters":0,"station_id":"ce4bgh92rcd13ifvqb40","pricing_plan_id":"free"},{"bike_id":"931a568d-b1dd-4d12-a1bb-e6b8e91de523","system_id":"levelo_inurba_marseille","lat":43.29302,"lon":5.37179,"is_reserved":false,"is_disabled":false,"rental_uris":{"android":"levelo://app?vid=931a568d-b1dd-4d12-a1bb-e6b8e91de523","ios":"levelo://app?vid=931a568d-b1dd-4d12-a1bb-e6b8e91de523"},"vehicle_type_id":"4","last_reported":1705702001,"current_range_meters":14400,"station_id":"ce4bgh92rcd13ifvqb40","pricing_plan_id":"free"},{"bike_id":"ecf130d9-9554-476a-8851-fa2b09a12414","system_id":"levelo_inurba_marseille","lat":43.305994,"lon":5.393687,"is_reserved":false,"is_disabled":false,"rental_uris":{"android":"levelo://app?vid=ecf130d9-9554-476a-8851-fa2b09a12414","ios":"levelo://app?vid=ecf130d9-9554-476a-8851-fa2b09a12414"},"vehicle_type_id":"4","last_reported":1705702001,"current_range_meters":0,"station_id":"ce4bh0p2rcd13ifvqd80","pricing_plan_id":"free"},{"bike_id":"cdf14688-96e4-4a1b-be22-e28f43760bee","system_id":"levelo_inurba_marseille","lat":43.311722,"lon":5.387247,"is_reserved":false,"is_disabled":false,"rental_uris":{"android":"levelo://app?vid=cdf14688-96e4-4a1b-be22-e28f43760bee","ios":"levelo://app?vid=cdf14688-96e4-4a1b-be22-e28f43760bee"},"vehicle_type_id":"4","last_reported":1705702001,"current_range_meters":8800,"station_id":"ce4bgv12rcd13ifvqcp0","pricing_plan_id":"free"},{"bike_id":"c1fe37f0-ca41-49b6-85c5-1311f34e8d23","system_id":"levelo_inurba_marseille","lat":43.302992,"lon":5.392136,"is_reserved":false,"is_disabled":false,"rental_uris":{"android":"levelo://app?vid=c1fe37f0-ca41-49b6-85c5-1311f34e8d23","ios":"levelo://app?vid=c1fe37f0-ca41-49b6-85c5-1311f34e8d23"},"vehicle_type_id":"4","last_reported":1705702001,"current_range_meters":6800,"station_id":"ce4bgkh2rcd13ifvqbk0","pricing_plan_id":"free"},{"bike_id":"94d59fcb-17c4-49c7-8c6c-589976f33221","system_id":"levelo_inurba_marseille","lat":43.302992,"lon":5.392136,"is_reserved":false,"is_disabled":false,"rental_uris":{"android":"levelo://app?vid=94d59fcb-17c4-49c7-8c6c-589976f33221","ios":"levelo://app?vid=94d59fcb-17c4-49c7-8c6c-589976f33221"},"vehicle_type_id":"4","last_reported":1705702001,"current_range_meters":25600,"station_id":"ce4bgkh2rcd13ifvqbk0","pricing_plan_id":"free"},{"bike_id":"9bb045c6-33ae-4ecf-b911-5b875450fc26","system_id":"levelo_inurba_marseille","lat":43.300988,"lon":5.390724,"is_reserved":false,"is_disabled":false,"rental_uris":{"android":"levelo://app?vid=9bb045c6-33ae-4ecf-b911-5b875450fc26","ios":"levelo://app?vid=9bb045c6-33ae-4ecf-b911-5b875450fc26"},"vehicle_type_id":"4","last_reported":1705702001,"current_range_meters":0,"station_id":"ce4bh192rcd13ifvqdb0","pricing_plan_id":"free"},{"bike_id":"8b43fe6e-0b6c-4fff-a9b0-0a0dd93a9183","system_id":"levelo_inurba_marseille","lat":43.292311,"lon":5.360731,"is_reserved":false,"is_disabled":false,"rental_uris":{"android":"levelo://app?vid=8b43fe6e-0b6c-4fff-a9b0-0a0dd93a9183","ios":"levelo://app?vid=8b43fe6e-0b6c-4fff-a9b0-0a0dd93a9183"},"vehicle_type_id":"4","last_reported":1705702001,"current_range_meters":20000,"station_id":"ce4bhbh2rcd13ifvqeqg","pricing_plan_id":"free"},{"bike_id":"f1d5d859-4e90-4cc5-ad78-c75ab5b981e2","system_id":"levelo_inurba_marseille","lat":43.292311,"lon":5.360731,"is_reserved":false,"is_disabled":false,"rental_uris":{"android":"levelo://app?vid=f1d5d859-4e90-4cc5-ad78-c75ab5b981e2","ios":"levelo://app?vid=f1d5d859-4e90-4cc5-ad78-c75ab5b981e2"},"vehicle_type_id":"4","last_reported":1705702001,"current_range_meters":27200,"station_id":"ce4bhbh2rcd13ifvqeqg","pricing_plan_id":"free"},{"bike_id":"ac191854-ecb9-463f-afcb-47925b02878f","system_id":"levelo_inurba_marseille","lat":43.300852,"lon":5.390859,"is_reserved":false,"is_disabled":false,"rental_uris":{"android":"levelo://app?vid=ac191854-ecb9-463f-afcb-47925b02878f","ios":"levelo://app?vid=ac191854-ecb9-463f-afcb-47925b02878f"},"vehicle_type_id":"4","last_reported":1705702001,"current_range_meters":14800,"station_id":"ce4bh192rcd13ifvqdb0","pricing_plan_id":"free"},{"bike_id":"5a2e80ec-0b6d-4d31-aacc-d13af60d984e","system_id":"levelo_inurba_marseille","lat":43.291675,"lon":5.371583,"is_reserved":false,"is_disabled":false,"rental_uris":{"android":"levelo://app?vid=5a2e80ec-0b6d-4d31-aacc-d13af60d984e","ios":"levelo://app?vid=5a2e80ec-0b6d-4d31-aacc-d13af60d984e"},"vehicle_type_id":"4","last_reported":1705702001,"current_range_meters":14800,"station_id":"ce4bha92rcd13ifvqeh0","pricing_plan_id":"free"},{"bike_id":"a38a527b-2bdc-4de9-b43d-7c8144f2c3ac","system_id":"levelo_inurba_marseille","lat":43.298764,"lon":5.388973,"is_reserved":false,"is_disabled":false,"rental_uris":{"android":"levelo://app?vid=a38a527b-2bdc-4de9-b43d-7c8144f2c3ac","ios":"levelo://app?vid=a38a527b-2bdc-4de9-b43d-7c8144f2c3ac"},"vehicle_type_id":"4","last_reported":1705702001,"current_range_meters":0,"station_id":"ce4bh392rcd13ifvqdl0","pricing_plan_id":"free"},{"bike_id":"376d2c22-ef8b-4c53-acd0-cf306cf3447e","system_id":"levelo_inurba_marseille","lat":43.298764,"lon":5.388973,"is_reserved":false,"is_disabled":false,"rental_uris":{"android":"levelo://app?vid=376d2c22-ef8b-4c53-acd0-cf306cf3447e","ios":"levelo://app?vid=376d2c22-ef8b-4c53-acd0-cf306cf3447e"},"vehicle_type_id":"4","last_reported":1705702001,"current_range_meters":12400,"station_id":"ce4bh392rcd13ifvqdl0","pricing_plan_id":"free"},{"bike_id":"09b7848f-d395-4489-be48-b881093ac6b4","system_id":"levelo_inurba_marseille","lat":43.298764,"lon":5.388973,"is_reserved":false,"is_disabled":false,"rental_uris":{"android":"levelo://app?vid=09b7848f-d395-4489-be48-b881093ac6b4","ios":"levelo://app?vid=09b7848f-d395-4489-be48-b881093ac6b4"},"vehicle_type_id":"4","last_reported":1705702001,"current_range_meters":12000,"station_id":"ce4bh392rcd13ifvqdl0","pricing_plan_id":"free"},{"bike_id":"33e49b4e-4a6c-4fe2-a1d3-f1a5b21712db","system_id":"levelo_inurba_marseille","lat":43.313291,"lon":5.396838,"is_reserved":false,"is_disabled":false,"rental_uris":{"android":"levelo://app?vid=33e49b4e-4a6c-4fe2-a1d3-f1a5b21712db","ios":"levelo://app?vid=33e49b4e-4a6c-4fe2-a1d3-f1a5b21712db"},"vehicle_type_id":"4","last_reported":1705702001,"current_range_meters":12800,"station_id":"ce4bgvp2rcd13ifvqcu0","pricing_plan_id":"free"},{"bike_id":"df9b79f9-7124-4711-bd9e-33ce04f48cc8","system_id":"levelo_inurba_marseille","lat":43.291685,"lon":5.374918,"is_reserved":false,"is_disabled":false,"rental_uris":{"android":"levelo://app?vid=df9b79f9-7124-4711-bd9e-33ce04f48cc8","ios":"levelo://app?vid=df9b79f9-7124-4711-bd9e-33ce04f48cc8"},"vehicle_type_id":"4","last_reported":1705702001,"current_range_meters":0,"station_id":"","pricing_plan_id":"free"},{"bike_id":"48505547-03bf-471a-876f-8549d60d6fdf","system_id":"levelo_inurba_marseille","lat":43.313291,"lon":5.396838,"is_reserved":false,"is_disabled":false,"rental_uris":{"android":"levelo://app?vid=48505547-03bf-471a-876f-8549d60d6fdf","ios":"levelo://app?vid=48505547-03bf-471a-876f-8549d60d6fdf"},"vehicle_type_id":"4","last_reported":1705702001,"current_range_meters":12800,"station_id":"ce4bgvp2rcd13ifvqcu0","pricing_plan_id":"free"},{"bike_id":"3220acf9-86dd-4661-9a54-47d23aefb0c5","system_id":"levelo_inurba_marseille","lat":43.309038,"lon":5.396546,"is_reserved":false,"is_disabled":false,"rental_uris":{"android":"levelo://app?vid=3220acf9-86dd-4661-9a54-47d23aefb0c5","ios":"levelo://app?vid=3220acf9-86dd-4661-9a54-47d23aefb0c5"},"vehicle_type_id":"4","last_reported":1705702001,"current_range_meters":25200,"station_id":"ce4bh012rcd13ifvqcv0","pricing_plan_id":"free"},{"bike_id":"e7c67776-b764-4e4b-82ee-350830a0e80f","system_id":"levelo_inurba_marseille","lat":43.29529,"lon":5.385581,"is_reserved":false,"is_disabled":false,"rental_uris":{"android":"levelo://app?vid=e7c67776-b764-4e4b-82ee-350830a0e80f","ios":"levelo://app?vid=e7c67776-b764-4e4b-82ee-350830a0e80f"},"vehicle_type_id":"4","last_reported":1705702001,"current_range_meters":26000,"station_id":"ce4bgih2rcd13ifvqba0","pricing_plan_id":"free"},{"bike_id":"e4a0d960-a91f-4921-b6a7-7bc1685acbc3","system_id":"levelo_inurba_marseille","lat":43.29529,"lon":5.385581,"is_reserved":false,"is_disabled":false,"rental_uris":{"android":"levelo://app?vid=e4a0d960-a91f-4921-b6a7-7bc1685acbc3","ios":"levelo://app?vid=e4a0d960-a91f-4921-b6a7-7bc1685acbc3"},"vehicle_type_id":"4","last_reported":1705702001,"current_range_meters":28000,"station_id":"ce4bgih2rcd13ifvqba0","pricing_plan_id":"free"},{"bike_id":"43afcc09-fee0-4c71-8044-b6206f7c6bf6","system_id":"levelo_inurba_marseille","lat":43.292644,"lon":5.384257,"is_reserved":false,"is_disabled":false,"rental_uris":{"android":"levelo://app?vid=43afcc09-fee0-4c71-8044-b6206f7c6bf6","ios":"levelo://app?vid=43afcc09-fee0-4c71-8044-b6206f7c6bf6"},"vehicle_type_id":"4","last_reported":1705702001,"current_range_meters":12800,"station_id":"ce4bh692rcd13ifvqea0","pricing_plan_id":"free"},{"bike_id":"43024024-eedd-410b-b74d-e675fafd8277","system_id":"levelo_inurba_marseille","lat":43.290624,"lon":5.359245,"is_reserved":false,"is_disabled":false,"rental_uris":{"android":"levelo://app?vid=43024024-eedd-410b-b74d-e675fafd8277","ios":"levelo://app?vid=43024024-eedd-410b-b74d-e675fafd8277"},"vehicle_type_id":"4","last_reported":1705702001,"current_range_meters":30400,"station_id":"ce4bha92rcd13ifvqeg0","pricing_plan_id":"free"},{"bike_id":"53be3581-bec4-4689-95e5-a6ae960d368a","system_id":"levelo_inurba_marseille","lat":43.290631,"lon":5.359244,"is_reserved":false,"is_disabled":false,"rental_uris":{"android":"levelo://app?vid=53be3581-bec4-4689-95e5-a6ae960d368a","ios":"levelo://app?vid=53be3581-bec4-4689-95e5-a6ae960d368a"},"vehicle_type_id":"4","last_reported":1705702001,"current_range_meters":25600,"station_id":"ce4bha92rcd13ifvqeg0","pricing_plan_id":"free"},{"bike_id":"2a02fd67-35f8-41cf-9a4c-324fe24389a8","system_id":"levelo_inurba_marseille","lat":43.290631,"lon":5.359244,"is_reserved":false,"is_disabled":false,"rental_uris":{"android":"levelo://app?vid=2a02fd67-35f8-41cf-9a4c-324fe24389a8","ios":"levelo://app?vid=2a02fd67-35f8-41cf-9a4c-324fe24389a8"},"vehicle_type_id":"4","last_reported":1705702001,"current_range_meters":26400,"station_id":"ce4bha92rcd13ifvqeg0","pricing_plan_id":"free"},{"bike_id":"4526715b-6bb5-4110-9272-574f45699833","system_id":"levelo_inurba_marseille","lat":43.29424,"lon":5.38618,"is_reserved":false,"is_disabled":false,"rental_uris":{"android":"levelo://app?vid=4526715b-6bb5-4110-9272-574f45699833","ios":"levelo://app?vid=4526715b-6bb5-4110-9272-574f45699833"},"vehicle_type_id":"4","last_reported":1705702001,"current_range_meters":1200,"station_id":"ce4bh2h2rcd13ifvqdh0","pricing_plan_id":"free"},{"bike_id":"9468e8d3-0331-4db6-9c57-2985062980f9","system_id":"levelo_inurba_marseille","lat":43.289184,"lon":5.366408,"is_reserved":false,"is_disabled":false,"rental_uris":{"android":"levelo://app?vid=9468e8d3-0331-4db6-9c57-2985062980f9","ios":"levelo://app?vid=9468e8d3-0331-4db6-9c57-2985062980f9"},"vehicle_type_id":"4","last_reported":1705702001,"current_range_meters":16000,"station_id":"ce4bhap2rcd13ifvqek0","pricing_plan_id":"free"},{"bike_id":"08229bcf-69f7-4151-bca7-05d65bcd0f7a","system_id":"levelo_inurba_marseille","lat":43.294162,"lon":5.386292,"is_reserved":false,"is_disabled":false,"rental_uris":{"android":"levelo://app?vid=08229bcf-69f7-4151-bca7-05d65bcd0f7a","ios":"levelo://app?vid=08229bcf-69f7-4151-bca7-05d65bcd0f7a"},"vehicle_type_id":"4","last_reported":1705702001,"current_range_meters":14400,"station_id":"ce4bh2h2rcd13ifvqdh0","pricing_plan_id":"free"},{"bike_id":"710ca7a3-019b-42bc-b3f9-819874c22aee","system_id":"levelo_inurba_marseille","lat":43.29418,"lon":5.38619,"is_reserved":false,"is_disabled":false,"rental_uris":{"android":"levelo://app?vid=710ca7a3-019b-42bc-b3f9-819874c22aee","ios":"levelo://app?vid=710ca7a3-019b-42bc-b3f9-819874c22aee"},"vehicle_type_id":"4","last_reported":1705702001,"current_range_meters":800,"station_id":"ce4bh2h2rcd13ifvqdh0","pricing_plan_id":"free"},{"bike_id":"a4c9a0a5-8a12-4129-a2c3-e7a38f2206d5","system_id":"levelo_inurba_marseille","lat":43.29417,"lon":5.38621,"is_reserved":false,"is_disabled":false,"rental_uris":{"android":"levelo://app?vid=a4c9a0a5-8a12-4129-a2c3-e7a38f2206d5","ios":"levelo://app?vid=a4c9a0a5-8a12-4129-a2c3-e7a38f2206d5"},"vehicle_type_id":"4","last_reported":1705702001,"current_range_meters":19200,"station_id":"ce4bh2h2rcd13ifvqdh0","pricing_plan_id":"free"},{"bike_id":"4d50a6e6-0e29-483b-9f69-6ae870b184ee","system_id":"levelo_inurba_marseille","lat":43.294143,"lon":5.386174,"is_reserved":false,"is_disabled":false,"rental_uris":{"android":"levelo://app?vid=4d50a6e6-0e29-483b-9f69-6ae870b184ee","ios":"levelo://app?vid=4d50a6e6-0e29-483b-9f69-6ae870b184ee"},"vehicle_type_id":"4","last_reported":1705702001,"current_range_meters":21600,"station_id":"ce4bh2h2rcd13ifvqdh0","pricing_plan_id":"free"},{"bike_id":"89d7faa4-4638-4e2c-aa2d-0cacf4e8b62f","system_id":"levelo_inurba_marseille","lat":43.294153,"lon":5.386305,"is_reserved":false,"is_disabled":false,"rental_uris":{"android":"levelo://app?vid=89d7faa4-4638-4e2c-aa2d-0cacf4e8b62f","ios":"levelo://app?vid=89d7faa4-4638-4e2c-aa2d-0cacf4e8b62f"},"vehicle_type_id":"4","last_reported":1705702001,"current_range_meters":30400,"station_id":"ce4bh2h2rcd13ifvqdh0","pricing_plan_id":"free"},{"bike_id":"14c051c4-df98-400e-bdbe-8e111de46c05","system_id":"levelo_inurba_marseille","lat":43.29419,"lon":5.38627,"is_reserved":false,"is_disabled":false,"rental_uris":{"android":"levelo://app?vid=14c051c4-df98-400e-bdbe-8e111de46c05","ios":"levelo://app?vid=14c051c4-df98-400e-bdbe-8e111de46c05"},"vehicle_type_id":"4","last_reported":1705702001,"current_range_meters":3600,"station_id":"ce4bh2h2rcd13ifvqdh0","pricing_plan_id":"free"},{"bike_id":"018547e3-b775-4b22-9256-9be4a42a197e","system_id":"levelo_inurba_marseille","lat":43.29417,"lon":5.38627,"is_reserved":false,"is_disabled":false,"rental_uris":{"android":"levelo://app?vid=018547e3-b775-4b22-9256-9be4a42a197e","ios":"levelo://app?vid=018547e3-b775-4b22-9256-9be4a42a197e"},"vehicle_type_id":"4","last_reported":1705702001,"current_range_meters":0,"station_id":"ce4bh2h2rcd13ifvqdh0","pricing_plan_id":"free"},{"bike_id":"500a161f-276d-43c9-8b7c-edc23f143e43","system_id":"levelo_inurba_marseille","lat":43.29419,"lon":5.38631,"is_reserved":false,"is_disabled":false,"rental_uris":{"android":"levelo://app?vid=500a161f-276d-43c9-8b7c-edc23f143e43","ios":"levelo://app?vid=500a161f-276d-43c9-8b7c-edc23f143e43"},"vehicle_type_id":"4","last_reported":1705702001,"current_range_meters":20000,"station_id":"ce4bh2h2rcd13ifvqdh0","pricing_plan_id":"free"},{"bike_id":"1d140a00-9969-4aeb-bc82-35e460710804","system_id":"levelo_inurba_marseille","lat":43.289468,"lon":5.363719,"is_reserved":false,"is_disabled":false,"rental_uris":{"android":"levelo://app?vid=1d140a00-9969-4aeb-bc82-35e460710804","ios":"levelo://app?vid=1d140a00-9969-4aeb-bc82-35e460710804"},"vehicle_type_id":"4","last_reported":1705702001,"current_range_meters":15200,"station_id":"ce4bhc92rcd13ifvqetg","pricing_plan_id":"free"},{"bike_id":"cc0f447e-9d99-4a6c-96fb-278ad3418c97","system_id":"levelo_inurba_marseille","lat":43.29413,"lon":5.38623,"is_reserved":false,"is_disabled":false,"rental_uris":{"android":"levelo://app?vid=cc0f447e-9d99-4a6c-96fb-278ad3418c97","ios":"levelo://app?vid=cc0f447e-9d99-4a6c-96fb-278ad3418c97"},"vehicle_type_id":"4","last_reported":1705702001,"current_range_meters":9200,"station_id":"ce4bh2h2rcd13ifvqdh0","pricing_plan_id":"free"},{"bike_id":"79fd3d55-3073-418b-a455-8597d6e46b40","system_id":"levelo_inurba_marseille","lat":43.29028,"lon":5.37554,"is_reserved":false,"is_disabled":false,"rental_uris":{"android":"levelo://app?vid=79fd3d55-3073-418b-a455-8597d6e46b40","ios":"levelo://app?vid=79fd3d55-3073-418b-a455-8597d6e46b40"},"vehicle_type_id":"4","last_reported":1705702001,"current_range_meters":22000,"station_id":"ce4bh692rcd13ifvqe90","pricing_plan_id":"free"},{"bike_id":"1ec09d17-f02e-4639-a068-bdb42f3bfab4","system_id":"levelo_inurba_marseille","lat":43.290327,"lon":5.375711,"is_reserved":false,"is_disabled":false,"rental_uris":{"android":"levelo://app?vid=1ec09d17-f02e-4639-a068-bdb42f3bfab4","ios":"levelo://app?vid=1ec09d17-f02e-4639-a068-bdb42f3bfab4"},"vehicle_type_id":"4","last_reported":1705702001,"current_range_meters":23600,"station_id":"ce4bh692rcd13ifvqe90","pricing_plan_id":"free"},{"bike_id":"0aed766e-9bf2-4da5-8f6e-e74c77f6af62","system_id":"levelo_inurba_marseille","lat":43.29415,"lon":5.38631,"is_reserved":false,"is_disabled":false,"rental_uris":{"android":"levelo://app?vid=0aed766e-9bf2-4da5-8f6e-e74c77f6af62","ios":"levelo://app?vid=0aed766e-9bf2-4da5-8f6e-e74c77f6af62"},"vehicle_type_id":"4","last_reported":1705702001,"current_range_meters":27600,"station_id":"ce4bh2h2rcd13ifvqdh0","pricing_plan_id":"free"},{"bike_id":"4552d659-cbff-47c3-992c-d17546760803","system_id":"levelo_inurba_marseille","lat":43.29413,"lon":5.38628,"is_reserved":false,"is_disabled":false,"rental_uris":{"android":"levelo://app?vid=4552d659-cbff-47c3-992c-d17546760803","ios":"levelo://app?vid=4552d659-cbff-47c3-992c-d17546760803"},"vehicle_type_id":"4","last_reported":1705702001,"current_range_meters":6000,"station_id":"ce4bh2h2rcd13ifvqdh0","pricing_plan_id":"free"},{"bike_id":"409129a2-cfb2-4557-9006-4c0e849fb40b","system_id":"levelo_inurba_marseille","lat":43.28935,"lon":5.366433,"is_reserved":false,"is_disabled":false,"rental_uris":{"android":"levelo://app?vid=409129a2-cfb2-4557-9006-4c0e849fb40b","ios":"levelo://app?vid=409129a2-cfb2-4557-9006-4c0e849fb40b"},"vehicle_type_id":"4","last_reported":1705702001,"current_range_meters":16800,"station_id":"ce4bhap2rcd13ifvqek0","pricing_plan_id":"free"},{"bike_id":"2a10b6fb-0945-46ac-beb3-b44a1e59ebb8","system_id":"levelo_inurba_marseille","lat":43.289184,"lon":5.366408,"is_reserved":false,"is_disabled":false,"rental_uris":{"android":"levelo://app?vid=2a10b6fb-0945-46ac-beb3-b44a1e59ebb8","ios":"levelo://app?vid=2a10b6fb-0945-46ac-beb3-b44a1e59ebb8"},"vehicle_type_id":"4","last_reported":1705702001,"current_range_meters":29200,"station_id":"ce4bhap2rcd13ifvqek0","pricing_plan_id":"free"},{"bike_id":"02a183a8-865e-47c4-bcd5-005b0a51a7fe","system_id":"levelo_inurba_marseille","lat":43.289468,"lon":5.363719,"is_reserved":false,"is_disabled":false,"rental_uris":{"android":"levelo://app?vid=02a183a8-865e-47c4-bcd5-005b0a51a7fe","ios":"levelo://app?vid=02a183a8-865e-47c4-bcd5-005b0a51a7fe"},"vehicle_type_id":"4","last_reported":1705702001,"current_range_meters":24800,"station_id":"ce4bhc92rcd13ifvqetg","pricing_plan_id":"free"},{"bike_id":"e13a3e95-0933-43cb-b731-bdd4d86fb7b3","system_id":"levelo_inurba_marseille","lat":43.289184,"lon":5.366408,"is_reserved":false,"is_disabled":false,"rental_uris":{"android":"levelo://app?vid=e13a3e95-0933-43cb-b731-bdd4d86fb7b3","ios":"levelo://app?vid=e13a3e95-0933-43cb-b731-bdd4d86fb7b3"},"vehicle_type_id":"4","last_reported":1705702001,"current_range_meters":20000,"station_id":"ce4bhap2rcd13ifvqek0","pricing_plan_id":"free"},{"bike_id":"6ee75e1d-da51-4a0f-9727-f4c737488a0a","system_id":"levelo_inurba_marseille","lat":43.289468,"lon":5.363719,"is_reserved":false,"is_disabled":false,"rental_uris":{"android":"levelo://app?vid=6ee75e1d-da51-4a0f-9727-f4c737488a0a","ios":"levelo://app?vid=6ee75e1d-da51-4a0f-9727-f4c737488a0a"},"vehicle_type_id":"4","last_reported":1705702001,"current_range_meters":10400,"station_id":"ce4bhc92rcd13ifvqetg","pricing_plan_id":"free"},{"bike_id":"f4f6aba7-6a6c-48e5-a324-c6e2d930fc2c","system_id":"levelo_inurba_marseille","lat":43.289468,"lon":5.363719,"is_reserved":false,"is_disabled":false,"rental_uris":{"android":"levelo://app?vid=f4f6aba7-6a6c-48e5-a324-c6e2d930fc2c","ios":"levelo://app?vid=f4f6aba7-6a6c-48e5-a324-c6e2d930fc2c"},"vehicle_type_id":"4","last_reported":1705702001,"current_range_meters":7200,"station_id":"ce4bhc92rcd13ifvqetg","pricing_plan_id":"free"},{"bike_id":"45c42d16-3f9b-41b2-8bd4-9f556f2aaca7","system_id":"levelo_inurba_marseille","lat":43.292695,"lon":5.384339,"is_reserved":false,"is_disabled":false,"rental_uris":{"android":"levelo://app?vid=45c42d16-3f9b-41b2-8bd4-9f556f2aaca7","ios":"levelo://app?vid=45c42d16-3f9b-41b2-8bd4-9f556f2aaca7"},"vehicle_type_id":"4","last_reported":1705702001,"current_range_meters":13200,"station_id":"ce4bh692rcd13ifvqea0","pricing_plan_id":"free"},{"bike_id":"05f810f0-1cb8-4374-9347-c78d6898bb5e","system_id":"levelo_inurba_marseille","lat":43.292644,"lon":5.384257,"is_reserved":false,"is_disabled":false,"rental_uris":{"android":"levelo://app?vid=05f810f0-1cb8-4374-9347-c78d6898bb5e","ios":"levelo://app?vid=05f810f0-1cb8-4374-9347-c78d6898bb5e"},"vehicle_type_id":"4","last_reported":1705702001,"current_range_meters":18000,"station_id":"ce4bh692rcd13ifvqea0","pricing_plan_id":"free"},{"bike_id":"a1d1e1ce-e6d2-431a-8f2a-4ac4c332b009","system_id":"levelo_inurba_marseille","lat":43.292644,"lon":5.384257,"is_reserved":false,"is_disabled":false,"rental_uris":{"android":"levelo://app?vid=a1d1e1ce-e6d2-431a-8f2a-4ac4c332b009","ios":"levelo://app?vid=a1d1e1ce-e6d2-431a-8f2a-4ac4c332b009"},"vehicle_type_id":"4","last_reported":1705702001,"current_range_meters":18800,"station_id":"ce4bh692rcd13ifvqea0","pricing_plan_id":"free"},{"bike_id":"286f481f-e0bb-483f-bcb0-747f21f4a980","system_id":"levelo_inurba_marseille","lat":43.292644,"lon":5.384257,"is_reserved":false,"is_disabled":false,"rental_uris":{"android":"levelo://app?vid=286f481f-e0bb-483f-bcb0-747f21f4a980","ios":"levelo://app?vid=286f481f-e0bb-483f-bcb0-747f21f4a980"},"vehicle_type_id":"4","last_reported":1705702001,"current_range_meters":29600,"station_id":"ce4bh692rcd13ifvqea0","pricing_plan_id":"free"},{"bike_id":"0c9f6953-b207-4c64-ba1c-2359280ac972","system_id":"levelo_inurba_marseille","lat":43.292644,"lon":5.384257,"is_reserved":false,"is_disabled":false,"rental_uris":{"android":"levelo://app?vid=0c9f6953-b207-4c64-ba1c-2359280ac972","ios":"levelo://app?vid=0c9f6953-b207-4c64-ba1c-2359280ac972"},"vehicle_type_id":"4","last_reported":1705702001,"current_range_meters":31200,"station_id":"ce4bh692rcd13ifvqea0","pricing_plan_id":"free"},{"bike_id":"725dd3a7-c05c-47df-ae72-50bb2972ef49","system_id":"levelo_inurba_marseille","lat":43.292644,"lon":5.384257,"is_reserved":false,"is_disabled":false,"rental_uris":{"android":"levelo://app?vid=725dd3a7-c05c-47df-ae72-50bb2972ef49","ios":"levelo://app?vid=725dd3a7-c05c-47df-ae72-50bb2972ef49"},"vehicle_type_id":"4","last_reported":1705702001,"current_range_meters":10000,"station_id":"ce4bh692rcd13ifvqea0","pricing_plan_id":"free"},{"bike_id":"6b1327ac-2a1f-49e5-ae58-3155e79a4d27","system_id":"levelo_inurba_marseille","lat":43.292644,"lon":5.384257,"is_reserved":false,"is_disabled":false,"rental_uris":{"android":"levelo://app?vid=6b1327ac-2a1f-49e5-ae58-3155e79a4d27","ios":"levelo://app?vid=6b1327ac-2a1f-49e5-ae58-3155e79a4d27"},"vehicle_type_id":"4","last_reported":1705702001,"current_range_meters":12800,"station_id":"ce4bh692rcd13ifvqea0","pricing_plan_id":"free"},{"bike_id":"77c111d9-ab9e-4e79-ab1b-3d3c8a998d99","system_id":"levelo_inurba_marseille","lat":43.292647,"lon":5.384411,"is_reserved":false,"is_disabled":false,"rental_uris":{"android":"levelo://app?vid=77c111d9-ab9e-4e79-ab1b-3d3c8a998d99","ios":"levelo://app?vid=77c111d9-ab9e-4e79-ab1b-3d3c8a998d99"},"vehicle_type_id":"4","last_reported":1705702001,"current_range_meters":20000,"station_id":"ce4bh692rcd13ifvqea0","pricing_plan_id":"free"},{"bike_id":"9bef4c48-1a63-464f-9cf6-292b824c7dcf","system_id":"levelo_inurba_marseille","lat":43.292644,"lon":5.384257,"is_reserved":false,"is_disabled":false,"rental_uris":{"android":"levelo://app?vid=9bef4c48-1a63-464f-9cf6-292b824c7dcf","ios":"levelo://app?vid=9bef4c48-1a63-464f-9cf6-292b824c7dcf"},"vehicle_type_id":"4","last_reported":1705702001,"current_range_meters":13600,"station_id":"ce4bh692rcd13ifvqea0","pricing_plan_id":"free"},{"bike_id":"0836186d-a64a-4988-8d0f-50c9e542a302","system_id":"levelo_inurba_marseille","lat":43.292595,"lon":5.38435,"is_reserved":false,"is_disabled":false,"rental_uris":{"android":"levelo://app?vid=0836186d-a64a-4988-8d0f-50c9e542a302","ios":"levelo://app?vid=0836186d-a64a-4988-8d0f-50c9e542a302"},"vehicle_type_id":"4","last_reported":1705702001,"current_range_meters":26400,"station_id":"ce4bh692rcd13ifvqea0","pricing_plan_id":"free"},{"bike_id":"fc042615-9fa4-488f-b400-bf98258e9dba","system_id":"levelo_inurba_marseille","lat":43.292644,"lon":5.384257,"is_reserved":false,"is_disabled":false,"rental_uris":{"android":"levelo://app?vid=fc042615-9fa4-488f-b400-bf98258e9dba","ios":"levelo://app?vid=fc042615-9fa4-488f-b400-bf98258e9dba"},"vehicle_type_id":"4","last_reported":1705702001,"current_range_meters":8800,"station_id":"ce4bh692rcd13ifvqea0","pricing_plan_id":"free"},{"bike_id":"62e7249e-c3cc-4411-b772-10f9a49f7ded","system_id":"levelo_inurba_marseille","lat":43.292644,"lon":5.384257,"is_reserved":false,"is_disabled":false,"rental_uris":{"android":"levelo://app?vid=62e7249e-c3cc-4411-b772-10f9a49f7ded","ios":"levelo://app?vid=62e7249e-c3cc-4411-b772-10f9a49f7ded"},"vehicle_type_id":"4","last_reported":1705702001,"current_range_meters":23600,"station_id":"ce4bh692rcd13ifvqea0","pricing_plan_id":"free"},{"bike_id":"eb8ac021-7e0e-4505-81dd-768617961549","system_id":"levelo_inurba_marseille","lat":43.292644,"lon":5.384257,"is_reserved":false,"is_disabled":false,"rental_uris":{"android":"levelo://app?vid=eb8ac021-7e0e-4505-81dd-768617961549","ios":"levelo://app?vid=eb8ac021-7e0e-4505-81dd-768617961549"},"vehicle_type_id":"4","last_reported":1705702001,"current_range_meters":23600,"station_id":"ce4bh692rcd13ifvqea0","pricing_plan_id":"free"},{"bike_id":"4008cbad-6af3-410f-bd7b-21002ae609d9","system_id":"levelo_inurba_marseille","lat":43.292644,"lon":5.384257,"is_reserved":false,"is_disabled":false,"rental_uris":{"android":"levelo://app?vid=4008cbad-6af3-410f-bd7b-21002ae609d9","ios":"levelo://app?vid=4008cbad-6af3-410f-bd7b-21002ae609d9"},"vehicle_type_id":"4","last_reported":1705702001,"current_range_meters":23600,"station_id":"ce4bh692rcd13ifvqea0","pricing_plan_id":"free"},{"bike_id":"5e4cfa9a-8488-4416-920f-a6ffe80fe396","system_id":"levelo_inurba_marseille","lat":43.292644,"lon":5.384257,"is_reserved":false,"is_disabled":false,"rental_uris":{"android":"levelo://app?vid=5e4cfa9a-8488-4416-920f-a6ffe80fe396","ios":"levelo://app?vid=5e4cfa9a-8488-4416-920f-a6ffe80fe396"},"vehicle_type_id":"4","last_reported":1705702001,"current_range_meters":20000,"station_id":"ce4bh692rcd13ifvqea0","pricing_plan_id":"free"},{"bike_id":"2743860a-e5b6-449c-829a-5b7ce06a07d1","system_id":"levelo_inurba_marseille","lat":43.304296,"lon":5.397513,"is_reserved":false,"is_disabled":false,"rental_uris":{"android":"levelo://app?vid=2743860a-e5b6-449c-829a-5b7ce06a07d1","ios":"levelo://app?vid=2743860a-e5b6-449c-829a-5b7ce06a07d1"},"vehicle_type_id":"4","last_reported":1705702001,"current_range_meters":2400,"station_id":"ce4bh092rcd13ifvqd20","pricing_plan_id":"free"},{"bike_id":"a4a0946d-fd53-4462-9598-8f8d7c32c9af","system_id":"levelo_inurba_marseille","lat":43.29257,"lon":5.38436,"is_reserved":false,"is_disabled":false,"rental_uris":{"android":"levelo://app?vid=a4a0946d-fd53-4462-9598-8f8d7c32c9af","ios":"levelo://app?vid=a4a0946d-fd53-4462-9598-8f8d7c32c9af"},"vehicle_type_id":"4","last_reported":1705702001,"current_range_meters":29600,"station_id":"ce4bh692rcd13ifvqea0","pricing_plan_id":"free"},{"bike_id":"79da2fee-7231-4182-9ce9-f94a83392f19","system_id":"levelo_inurba_marseille","lat":43.292644,"lon":5.384257,"is_reserved":false,"is_disabled":false,"rental_uris":{"android":"levelo://app?vid=79da2fee-7231-4182-9ce9-f94a83392f19","ios":"levelo://app?vid=79da2fee-7231-4182-9ce9-f94a83392f19"},"vehicle_type_id":"4","last_reported":1705702001,"current_range_meters":22400,"station_id":"ce4bh692rcd13ifvqea0","pricing_plan_id":"free"},{"bike_id":"5eb46f4f-3aa2-4502-ab0c-d8cc2080cbcb","system_id":"levelo_inurba_marseille","lat":43.292644,"lon":5.384257,"is_reserved":false,"is_disabled":false,"rental_uris":{"android":"levelo://app?vid=5eb46f4f-3aa2-4502-ab0c-d8cc2080cbcb","ios":"levelo://app?vid=5eb46f4f-3aa2-4502-ab0c-d8cc2080cbcb"},"vehicle_type_id":"4","last_reported":1705702001,"current_range_meters":6000,"station_id":"ce4bh692rcd13ifvqea0","pricing_plan_id":"free"},{"bike_id":"cf1a9bfb-2d51-4dcf-8069-b9f1f2287a76","system_id":"levelo_inurba_marseille","lat":43.29256,"lon":5.38441,"is_reserved":false,"is_disabled":false,"rental_uris":{"android":"levelo://app?vid=cf1a9bfb-2d51-4dcf-8069-b9f1f2287a76","ios":"levelo://app?vid=cf1a9bfb-2d51-4dcf-8069-b9f1f2287a76"},"vehicle_type_id":"4","last_reported":1705702001,"current_range_meters":0,"station_id":"ce4bh692rcd13ifvqea0","pricing_plan_id":"free"},{"bike_id":"14efe6d3-9600-4b61-8497-a4c4d911a585","system_id":"levelo_inurba_marseille","lat":43.29254,"lon":5.38439,"is_reserved":false,"is_disabled":false,"rental_uris":{"android":"levelo://app?vid=14efe6d3-9600-4b61-8497-a4c4d911a585","ios":"levelo://app?vid=14efe6d3-9600-4b61-8497-a4c4d911a585"},"vehicle_type_id":"4","last_reported":1705702001,"current_range_meters":5200,"station_id":"ce4bh692rcd13ifvqea0","pricing_plan_id":"free"},{"bike_id":"fb846e0f-d8cf-4ce7-8bb6-b794eacb6cf0","system_id":"levelo_inurba_marseille","lat":43.292547,"lon":5.38442,"is_reserved":false,"is_disabled":false,"rental_uris":{"android":"levelo://app?vid=fb846e0f-d8cf-4ce7-8bb6-b794eacb6cf0","ios":"levelo://app?vid=fb846e0f-d8cf-4ce7-8bb6-b794eacb6cf0"},"vehicle_type_id":"4","last_reported":1705702001,"current_range_meters":6400,"station_id":"ce4bh692rcd13ifvqea0","pricing_plan_id":"free"},{"bike_id":"7a34eab2-bb22-44b1-ac0a-96ea9e938d73","system_id":"levelo_inurba_marseille","lat":43.29254,"lon":5.38443,"is_reserved":false,"is_disabled":false,"rental_uris":{"android":"levelo://app?vid=7a34eab2-bb22-44b1-ac0a-96ea9e938d73","ios":"levelo://app?vid=7a34eab2-bb22-44b1-ac0a-96ea9e938d73"},"vehicle_type_id":"4","last_reported":1705702001,"current_range_meters":14000,"station_id":"ce4bh692rcd13ifvqea0","pricing_plan_id":"free"},{"bike_id":"585a84f8-6222-440d-862e-c8acaa69c620","system_id":"levelo_inurba_marseille","lat":43.29001,"lon":5.3561,"is_reserved":false,"is_disabled":false,"rental_uris":{"android":"levelo://app?vid=585a84f8-6222-440d-862e-c8acaa69c620","ios":"levelo://app?vid=585a84f8-6222-440d-862e-c8acaa69c620"},"vehicle_type_id":"4","last_reported":1705702001,"current_range_meters":18400,"station_id":"ce4bhb92rcd13ifvqen0","pricing_plan_id":"free"},{"bike_id":"f2181406-0e42-4ee6-8dc1-b5d2dceab3cc","system_id":"levelo_inurba_marseille","lat":43.29,"lon":5.35609,"is_reserved":false,"is_disabled":false,"rental_uris":{"android":"levelo://app?vid=f2181406-0e42-4ee6-8dc1-b5d2dceab3cc","ios":"levelo://app?vid=f2181406-0e42-4ee6-8dc1-b5d2dceab3cc"},"vehicle_type_id":"4","last_reported":1705702001,"current_range_meters":17600,"station_id":"ce4bhb92rcd13ifvqen0","pricing_plan_id":"free"},{"bike_id":"7b8f0e1f-4248-44db-ab19-25c6ce9257cb","system_id":"levelo_inurba_marseille","lat":43.290995,"lon":5.381361,"is_reserved":false,"is_disabled":false,"rental_uris":{"android":"levelo://app?vid=7b8f0e1f-4248-44db-ab19-25c6ce9257cb","ios":"levelo://app?vid=7b8f0e1f-4248-44db-ab19-25c6ce9257cb"},"vehicle_type_id":"4","last_reported":1705702001,"current_range_meters":17200,"station_id":"ce4bh512rcd13ifvqe2g","pricing_plan_id":"free"},{"bike_id":"d6922d0b-027e-4459-af81-0382e9b6bfdc","system_id":"levelo_inurba_marseille","lat":43.290995,"lon":5.381361,"is_reserved":false,"is_disabled":false,"rental_uris":{"android":"levelo://app?vid=d6922d0b-027e-4459-af81-0382e9b6bfdc","ios":"levelo://app?vid=d6922d0b-027e-4459-af81-0382e9b6bfdc"},"vehicle_type_id":"4","last_reported":1705702001,"current_range_meters":1600,"station_id":"ce4bh512rcd13ifvqe2g","pricing_plan_id":"free"},{"bike_id":"08988f5a-81aa-4132-8e35-a979b4f5e303","system_id":"levelo_inurba_marseille","lat":43.295169,"lon":5.390426,"is_reserved":false,"is_disabled":false,"rental_uris":{"android":"levelo://app?vid=08988f5a-81aa-4132-8e35-a979b4f5e303","ios":"levelo://app?vid=08988f5a-81aa-4132-8e35-a979b4f5e303"},"vehicle_type_id":"4","last_reported":1705702001,"current_range_meters":22800,"station_id":"ce4bh3p2rcd13ifvqdp0","pricing_plan_id":"free"},