{"last_updated":1685320715,"ttl":30,"version":"2.2","data":{"bikes":[{"bike_id":"af6a1f49-c465-41e0-8f3c-e28232b05273","system_id":"levelo_inurba_marseille","lat":43.313391,"lon":5.36706,"is_reserved":false,"is_disabled":false,"rental_uris":{"android":"levelo://app?vid=af6a1f49-c465-41e0-8f3c-e28232b05273","ios":"levelo://app?vid=af6a1f49-c465-41e0-8f3c-e28232b05273"},"vehicle_type_id":"4","last_reported":1685320715,"current_range_meters":9600,"station_id":"ce4bgr92rcd13ifvqc6g","pricing_plan_id":"free"},{"bike_id":"cafa39a6-151e-4b43-8798-0e078854a369","system_id":"levelo_inurba_marseille","lat":43.314811,"lon":5.373104,"is_reserved":false,"is_disabled":false,"rental_uris":{"android":"levelo://app?vid=cafa39a6-151e-4b43-8798-0e078854a369","ios":"levelo://app?vid=cafa39a6-151e-4b43-8798-0e078854a369"},"vehicle_type_id":"4","last_reported":1685320715,"current_range_meters":30400,"station_id":"ce4bgt12rcd13ifvqcd0","pricing_plan_id":"free"},{"bike_id":"b9ccd671-7f6e-4759-94df-534a1b9f222c","system_id":"levelo_inurba_marseille","lat":43.314811,"lon":5.373104,"is_reserved":false,"is_disabled":false,"rental_uris":{"android":"levelo://app?vid=b9ccd671-7f6e-4759-94df-534a1b9f222c","ios":"levelo://app?vid=b9ccd671-7f6e-4759-94df-534a1b9f222c"},"vehicle_type_id":"4","last_reported":1685320715,"current_range_meters":11200,"station_id":"ce4bgt12rcd13ifvqcd0","pricing_plan_id":"free"},{"bike_id":"81b7c7cb-bb96-44d0-8ce5-cfe3e28a4917","system_id":"levelo_inurba_marseille","lat":43.30896,"lon":5.37181,"is_reserved":false,"is_disabled":false,"rental_uris":{"android":"levelo://app?vid=81b7c7cb-bb96-44d0-8ce5-cfe3e28a4917","ios":"levelo://app?vid=81b7c7cb-bb96-44d0-8ce5-cfe3e28a4917"},"vehicle_type_id":"4","last_reported":1685320715,"current_range_meters":18800,"station_id":"","pricing_plan_id":"free"},{"bike_id":"fe083984-66d9-4fd8-8d74-954deb5dbb65","system_id":"levelo_inurba_marseille","lat":43.30886,"lon":5.37182,"is_reserved":false,"is_disabled":false,"rental_uris":{"android":"levelo://app?vid=fe083984-66d9-4fd8-8d74-954deb5dbb65","ios":"levelo://app?vid=fe083984-66d9-4fd8-8d74-954deb5dbb65"},"vehicle_type_id":"4","last_reported":1685320715,"current_range_meters":24800,"station_id":"","pricing_plan_id":"free"},{"bike_id":"96ba65e2-2e82-4e19-90c3-74496ba0eede","system_id":"levelo_inurba_marseille","lat":43.30886,"lon":5.37186,"is_reserved":false,"is_disabled":false,"rental_uris":{"android":"levelo://app?vid=96ba65e2-2e82-4e19-90c3-74496ba0eede","ios":"levelo://app?vid=96ba65e2-2e82-4e19-90c3-74496ba0eede"},"vehicle_type_id":"4","last_reported":1685320715,"current_range_meters":29200,"station_id":"","pricing_plan_id":"free"},{"bike_id":"09ff56ca-723c-4b20-af2f-491b6f1b8a24","system_id":"levelo_inurba_marseille","lat":43.30887,"lon":5.3719,"is_reserved":false,"is_disabled":false,"rental_uris":{"android":"levelo://app?vid=09ff56ca-723c-4b20-af2f-491b6f1b8a24","ios":"levelo://app?vid=09ff56ca-723c-4b20-af2f-491b6f1b8a24"},"vehicle_type_id":"4","last_reported":1685320715,"current_range_meters":29600,"station_id":"","pricing_plan_id":"free"},{"bike_id":"a60cdcdb-9533-4d27-8d7c-f09ea8e0aa34","system_id":"levelo_inurba_marseille","lat":43.305989,"lon":5.37225,"is_reserved":false,"is_disabled":false,"rental_uris":{"android":"levelo://app?vid=a60cdcdb-9533-4d27-8d7c-f09ea8e0aa34","ios":"levelo://app?vid=a60cdcdb-9533-4d27-8d7c-f09ea8e0aa34"},"vehicle_type_id":"4","last_reported":1685320715,"current_range_meters":20800,"station_id":"ce4bgqh2rcd13ifvqc4g","pricing_plan_id":"free"},{"bike_id":"7ffecf3c-8f94-4257-b272-eb6e8355739c","system_id":"levelo_inurba_marseille","lat":43.305989,"lon":5.37225,"is_reserved":false,"is_disabled":false,"rental_uris":{"android":"levelo://app?vid=7ffecf3c-8f94-4257-b272-eb6e8355739c","ios":"levelo://app?vid=7ffecf3c-8f94-4257-b272-eb6e8355739c"},"vehicle_type_id":"4","last_reported":1685320715,"current_range_meters":20000,"station_id":"ce4bgqh2rcd13ifvqc4g","pricing_plan_id":"free"},{"bike_id":"cfe8b94b-e6f8-4730-bb47-d0b7129b7594","system_id":"levelo_inurba_marseille","lat":43.3091,"lon":5.37664,"is_reserved":false,"is_disabled":false,"rental_uris":{"android":"levelo://app?vid=cfe8b94b-e6f8-4730-bb47-d0b7129b7594","ios":"levelo://app?vid=cfe8b94b-e6f8-4730-bb47-d0b7129b7594"},"vehicle_type_id":"4","last_reported":1685320715,"current_range_meters":22400,"station_id":"","pricing_plan_id":"free"},{"bike_id":"2044d5d2-d31a-49c9-96c0-ba790bfca7d0","system_id":"levelo_inurba_marseille","lat":43.311125,"lon":5.377624,"is_reserved":false,"is_disabled":false,"rental_uris":{"android":"levelo://app?vid=2044d5d2-d31a-49c9-96c0-ba790bfca7d0","ios":"levelo://app?vid=2044d5d2-d31a-49c9-96c0-ba790bfca7d0"},"vehicle_type_id":"4","last_reported":1685320715,"current_range_meters":30800,"station_id":"ce4bgt92rcd13ifvqcg0","pricing_plan_id":"free"},{"bike_id":"fd6d6bd1-1934-4cb7-a91d-3a1f333ac949","system_id":"levelo_inurba_marseille","lat":43.311125,"lon":5.377624,"is_reserved":false,"is_disabled":false,"rental_uris":{"android":"levelo://app?vid=fd6d6bd1-1934-4cb7-a91d-3a1f333ac949","ios":"levelo://app?vid=fd6d6bd1-1934-4cb7-a91d-3a1f333ac949"},"vehicle_type_id":"4","last_reported":1685320715,"current_range_meters":18800,"station_id":"ce4bgt92rcd13ifvqcg0","pricing_plan_id":"free"},{"bike_id":"0958f8ad-8030-47b2-ae1a-c8f072735eaa","system_id":"levelo_inurba_marseille","lat":43.311125,"lon":5.377624,"is_reserved":false,"is_disabled":false,"rental_uris":{"android":"levelo://app?vid=0958f8ad-8030-47b2-ae1a-c8f072735eaa","ios":"levelo://app?vid=0958f8ad-8030-47b2-ae1a-c8f072735eaa"},"vehicle_type_id":"4","last_reported":1685320715,"current_range_meters":30400,"station_id":"ce4bgt92rcd13ifvqcg0","pricing_plan_id":"free"},{"bike_id":"57bea1a4-792f-4a78-8758-5787b189f915","system_id":"levelo_inurba_marseille","lat":43.303046,"lon":5.368981,"is_reserved":false,"is_disabled":false,"rental_uris":{"android":"levelo://app?vid=57bea1a4-792f-4a78-8758-5787b189f915","ios":"levelo://app?vid=57bea1a4-792f-4a78-8758-5787b189f915"},"vehicle_type_id":"4","last_reported":1685320715,"current_range_meters":2400,"station_id":"ce4bgqh2rcd13ifvqc5g","pricing_plan_id":"free"},{"bike_id":"c5a5d19b-1d3d-420e-a4dd-5dc2b5877be8","system_id":"levelo_inurba_marseille","lat":43.303046,"lon":5.368981,"is_reserved":false,"is_disabled":false,"rental_uris":{"android":"levelo://app?vid=c5a5d19b-1d3d-420e-a4dd-5dc2b5877be8","ios":"levelo://app?vid=c5a5d19b-1d3d-420e-a4dd-5dc2b5877be8"},"vehicle_type_id":"4","last_reported":1685320715,"current_range_meters":11600,"station_id":"ce4bgqh2rcd13ifvqc5g","pricing_plan_id":"free"},{"bike_id":"9a7d1a88-7bc5-4bee-a909-7b1c07088442","system_id":"levelo_inurba_marseille","lat":43.315293,"lon":5.380349,"is_reserved":false,"is_disabled":false,"rental_uris":{"android":"levelo://app?vid=9a7d1a88-7bc5-4bee-a909-7b1c07088442","ios":"levelo://app?vid=9a7d1a88-7bc5-4bee-a909-7b1c07088442"},"vehicle_type_id":"4","last_reported":1685320715,"current_range_meters":26400,"station_id":"ce4bhsp2rcd13ifvqi50","pricing_plan_id":"free"},{"bike_id":"b4528151-4074-469c-8168-ebdc0f414930","system_id":"levelo_inurba_marseille","lat":43.315293,"lon":5.380349,"is_reserved":false,"is_disabled":false,"rental_uris":{"android":"levelo://app?vid=b4528151-4074-469c-8168-ebdc0f414930","ios":"levelo://app?vid=b4528151-4074-469c-8168-ebdc0f414930"},"vehicle_type_id":"4","last_reported":1685320715,"current_range_meters":15600,"station_id":"ce4bhsp2rcd13ifvqi50","pricing_plan_id":"free"},{"bike_id":"a36d047f-67d1-497d-b7aa-df129c9294a0","system_id":"levelo_inurba_marseille","lat":43.308012,"lon":5.381511,"is_reserved":false,"is_disabled":false,"rental_uris":{"android":"levelo://app?vid=a36d047f-67d1-497d-b7aa-df129c9294a0","ios":"levelo://app?vid=a36d047f-67d1-497d-b7aa-df129c9294a0"},"vehicle_type_id":"4","last_reported":1685320715,"current_range_meters":29200,"station_id":"ce4bgt12rcd13ifvqce0","pricing_plan_id":"free"},{"bike_id":"4b97b17a-d7af-4d58-9575-202d9af3c849","system_id":"levelo_inurba_marseille","lat":43.304606,"lon":5.379026,"is_reserved":false,"is_disabled":false,"rental_uris":{"android":"levelo://app?vid=4b97b17a-d7af-4d58-9575-202d9af3c849","ios":"levelo://app?vid=4b97b17a-d7af-4d58-9575-202d9af3c849"},"vehicle_type_id":"4","last_reported":1685320715,"current_range_meters":16000,"station_id":"ce4bgup2rcd13ifvqcn0","pricing_plan_id":"free"},{"bike_id":"f92bfc59-f6bb-4779-b7d0-f42e6e4683ea","system_id":"levelo_inurba_marseille","lat":43.319935,"lon":5.381699,"is_reserved":false,"is_disabled":false,"rental_uris":{"android":"levelo://app?vid=f92bfc59-f6bb-4779-b7d0-f42e6e4683ea","ios":"levelo://app?vid=f92bfc59-f6bb-4779-b7d0-f42e6e4683ea"},"vehicle_type_id":"4","last_reported":1685320715,"current_range_meters":21600,"station_id":"ce4bhr12rcd13ifvqhpg","pricing_plan_id":"free"},{"bike_id":"4eb948a3-34b0-4972-8e33-71d829565874","system_id":"levelo_inurba_marseille","lat":43.313571,"lon":5.384829,"is_reserved":false,"is_disabled":false,"rental_uris":{"android":"levelo://app?vid=4eb948a3-34b0-4972-8e33-71d829565874","ios":"levelo://app?vid=4eb948a3-34b0-4972-8e33-71d829565874"},"vehicle_type_id":"4","last_reported":1685320715,"current_range_meters":28400,"station_id":"ce4bgt92rcd13ifvqcf0","pricing_plan_id":"free"},{"bike_id":"1431ceea-e6b2-4aee-8e38-ba96e4e7d2d2","system_id":"levelo_inurba_marseille","lat":43.313571,"lon":5.384829,"is_reserved":false,"is_disabled":false,"rental_uris":{"android":"levelo://app?vid=1431ceea-e6b2-4aee-8e38-ba96e4e7d2d2","ios":"levelo://app?vid=1431ceea-e6b2-4aee-8e38-ba96e4e7d2d2"},"vehicle_type_id":"4","last_reported":1685320715,"current_range_meters":30400,"station_id":"ce4bgt92rcd13ifvqcf0","pricing_plan_id":"free"},{"bike_id":"06193faf-9b70-44e9-bc78-e8654b59e835","system_id":"levelo_inurba_marseille","lat":43.313571,"lon":5.384829,"is_reserved":false,"is_disabled":false,"rental_uris":{"android":"levelo://app?vid=06193faf-9b70-44e9-bc78-e8654b59e835","ios":"levelo://app?vid=06193faf-9b70-44e9-bc78-e8654b59e835"},"vehicle_type_id":"4","last_reported":1685320715,"current_range_meters":18800,"station_id":"ce4bgt92rcd13ifvqcf0","pricing_plan_id":"free"},{"bike_id":"28ccaf63-2c20-4f48-af81-c1890d5e1e7e","system_id":"levelo_inurba_marseille","lat":43.31177,"lon":5.38708,"is_reserved":false,"is_disabled":false,"rental_uris":{"android":"levelo://app?vid=28ccaf63-2c20-4f48-af81-c1890d5e1e7e","ios":"levelo://app?vid=28ccaf63-2c20-4f48-af81-c1890d5e1e7e"},"vehicle_type_id":"4","last_reported":1685320715,"current_range_meters":26000,"station_id":"ce4bgv12rcd13ifvqcp0","pricing_plan_id":"free"},{"bike_id":"1b064916-ce14-4dd7-8822-0096c3687352","system_id":"levelo_inurba_marseille","lat":43.31184,"lon":5.38712,"is_reserved":false,"is_disabled":false,"rental_uris":{"android":"levelo://app?vid=1b064916-ce14-4dd7-8822-0096c3687352","ios":"levelo://app?vid=1b064916-ce14-4dd7-8822-0096c3687352"},"vehicle_type_id":"4","last_reported":1685320715,"current_range_meters":2000,"station_id":"ce4bgv12rcd13ifvqcp0","pricing_plan_id":"free"},{"bike_id":"51cf0176-0c97-4194-a204-3ce503c7086d","system_id":"levelo_inurba_marseille","lat":43.311722,"lon":5.387247,"is_reserved":false,"is_disabled":false,"rental_uris":{"android":"levelo://app?vid=51cf0176-0c97-4194-a204-3ce503c7086d","ios":"levelo://app?vid=51cf0176-0c97-4194-a204-3ce503c7086d"},"vehicle_type_id":"4","last_reported":1685320715,"current_range_meters":21600,"station_id":"ce4bgv12rcd13ifvqcp0","pricing_plan_id":"free"},{"bike_id":"2f6c2caf-d87c-4590-88a2-8c511b31b265","system_id":"levelo_inurba_marseille","lat":43.311722,"lon":5.387247,"is_reserved":false,"is_disabled":false,"rental_uris":{"android":"levelo://app?vid=2f6c2caf-d87c-4590-88a2-8c511b31b265","ios":"levelo://app?vid=2f6c2caf-d87c-4590-88a2-8c511b31b265"},"vehicle_type_id":"4","last_reported":1685320715,"current_range_meters":23600,"station_id":"ce4bgv12rcd13ifvqcp0","pricing_plan_id":"free"},{"bike_id":"5895156f-f83a-4b54-a0b5-57f02c18ef1a","system_id":"levelo_inurba_marseille","lat":43.328371,"lon":5.366912,"is_reserved":false,"is_disabled":false,"rental_uris":{"android":"levelo://app?vid=5895156f-f83a-4b54-a0b5-57f02c18ef1a","ios":"levelo://app?vid=5895156f-f83a-4b54-a0b5-57f02c18ef1a"},"vehicle_type_id":"4","last_reported":1685320715,"current_range_meters":24400,"station_id":"ce4bhs92rcd13ifvqi0g","pricing_plan_id":"free"},{"bike_id":"5f318e37-13f9-4196-b90e-e4c1976e498e","system_id":"levelo_inurba_marseille","lat":43.29713,"lon":5.36609,"is_reserved":false,"is_disabled":false,"rental_uris":{"android":"levelo://app?vid=5f318e37-13f9-4196-b90e-e4c1976e498e","ios":"levelo://app?vid=5f318e37-13f9-4196-b90e-e4c1976e498e"},"vehicle_type_id":"4","last_reported":1685320715,"current_range_meters":18000,"station_id":"","pricing_plan_id":"free"},{"bike_id":"008f50da-9ed9-43bd-b830-f7dc4cb193de","system_id":"levelo_inurba_marseille","lat":43.2968,"lon":5.37291,"is_reserved":false,"is_disabled":false,"rental_uris":{"android":"levelo://app?vid=008f50da-9ed9-43bd-b830-f7dc4cb193de","ios":"levelo://app?vid=008f50da-9ed9-43bd-b830-f7dc4cb193de"},"vehicle_type_id":"4","last_reported":1685320715,"current_range_meters":2400,"station_id":"ce4bgk12rcd13ifvqbj0","pricing_plan_id":"free"},{"bike_id":"3fe203c5-3dae-468d-8ff4-3c5d98ee9b43","system_id":"levelo_inurba_marseille","lat":43.309589,"lon":5.390258,"is_reserved":false,"is_disabled":false,"rental_uris":{"android":"levelo://app?vid=3fe203c5-3dae-468d-8ff4-3c5d98ee9b43","ios":"levelo://app?vid=3fe203c5-3dae-468d-8ff4-3c5d98ee9b43"},"vehicle_type_id":"4","last_reported":1685320715,"current_range_meters":800,"station_id":"ce4bgup2rcd13ifvqco0","pricing_plan_id":"free"},{"bike_id":"c0b6df4b-b733-468d-b921-3df1f46c4995","system_id":"levelo_inurba_marseille","lat":43.309589,"lon":5.390258,"is_reserved":false,"is_disabled":false,"rental_uris":{"android":"levelo://app?vid=c0b6df4b-b733-468d-b921-3df1f46c4995","ios":"levelo://app?vid=c0b6df4b-b733-468d-b921-3df1f46c4995"},"vehicle_type_id":"4","last_reported":1685320715,"current_range_meters":26800,"station_id":"ce4bgup2rcd13ifvqco0","pricing_plan_id":"free"},{"bike_id":"857d19d3-1ad1-4abd-a723-e560f557aaef","system_id":"levelo_inurba_marseille","lat":43.317557,"lon":5.390173,"is_reserved":false,"is_disabled":false,"rental_uris":{"android":"levelo://app?vid=857d19d3-1ad1-4abd-a723-e560f557aaef","ios":"levelo://app?vid=857d19d3-1ad1-4abd-a723-e560f557aaef"},"vehicle_type_id":"4","last_reported":1685320715,"current_range_meters":6800,"station_id":"ce4bhqp2rcd13ifvqhng","pricing_plan_id":"free"},{"bike_id":"13405fcc-c8cc-467d-b24a-316b0d27b570","system_id":"levelo_inurba_marseille","lat":43.31763,"lon":5.39019,"is_reserved":false,"is_disabled":false,"rental_uris":{"android":"levelo://app?vid=13405fcc-c8cc-467d-b24a-316b0d27b570","ios":"levelo://app?vid=13405fcc-c8cc-467d-b24a-316b0d27b570"},"vehicle_type_id":"4","last_reported":1685320715,"current_range_meters":0,"station_id":"ce4bhqp2rcd13ifvqhng","pricing_plan_id":"free"},{"bike_id":"8cb60cc7-3bca-437f-a185-7f02bfaee8b5","system_id":"levelo_inurba_marseille","lat":43.295748,"lon":5.37522,"is_reserved":false,"is_disabled":false,"rental_uris":{"android":"levelo://app?vid=8cb60cc7-3bca-437f-a185-7f02bfaee8b5","ios":"levelo://app?vid=8cb60cc7-3bca-437f-a185-7f02bfaee8b5"},"vehicle_type_id":"4","last_reported":1685320715,"current_range_meters":20400,"station_id":"ce4bgh92rcd13ifvqb50","pricing_plan_id":"free"},{"bike_id":"87432cee-3dd7-4f7c-aa07-596951e7fa85","system_id":"levelo_inurba_marseille","lat":43.29577,"lon":5.37514,"is_reserved":false,"is_disabled":false,"rental_uris":{"android":"levelo://app?vid=87432cee-3dd7-4f7c-aa07-596951e7fa85","ios":"levelo://app?vid=87432cee-3dd7-4f7c-aa07-596951e7fa85"},"vehicle_type_id":"4","last_reported":1685320715,"current_range_meters":26800,"station_id":"ce4bgh92rcd13ifvqb50","pricing_plan_id":"free"},{"bike_id":"5a2e37f4-ece8-4ab2-a31b-039541c7aad1","system_id":"levelo_inurba_marseille","lat":43.304278,"lon":5.388868,"is_reserved":false,"is_disabled":false,"rental_uris":{"android":"levelo://app?vid=5a2e37f4-ece8-4ab2-a31b-039541c7aad1","ios":"levelo://app?vid=5a2e37f4-ece8-4ab2-a31b-039541c7aad1"},"vehicle_type_id":"4","last_reported":1685320715,"current_range_meters":30800,"station_id":"ce4bgk12rcd13ifvqbi0","pricing_plan_id":"free"},{"bike_id":"ed6a4325-0fb8-4dc4-bb65-bda9f41d386b","system_id":"levelo_inurba_marseille","lat":43.304278,"lon":5.388868,"is_reserved":false,"is_disabled":false,"rental_uris":{"android":"levelo://app?vid=ed6a4325-0fb8-4dc4-bb65-bda9f41d386b","ios":"levelo://app?vid=ed6a4325-0fb8-4dc4-bb65-bda9f41d386b"},"vehicle_type_id":"4","last_reported":1685320715,"current_range_meters":28000,"station_id":"ce4bgk12rcd13ifvqbi0","pricing_plan_id":"free"},{"bike_id":"4417002b-2137-444d-9d6e-4fd734e66e41","system_id":"levelo_inurba_marseille","lat":43.304278,"lon":5.388868,"is_reserved":false,"is_disabled":false,"rental_uris":{"android":"levelo://app?vid=4417002b-2137-444d-9d6e-4fd734e66e41","ios":"levelo://app?vid=4417002b-2137-444d-9d6e-4fd734e66e41"},"vehicle_type_id":"4","last_reported":1685320715,"current_range_meters":30800,"station_id":"ce4bgk12rcd13ifvqbi0","pricing_plan_id":"free"},{"bike_id":"824162d2-5de6-4371-bd0d-475b8eac9d88","system_id":"levelo_inurba_marseille","lat":43.304278,"lon":5.388868,"is_reserved":false,"is_disabled":false,"rental_uris":{"android":"levelo://app?vid=824162d2-5de6-4371-bd0d-475b8eac9d88","ios":"levelo://app?vid=824162d2-5de6-4371-bd0d-475b8eac9d88"},"vehicle_type_id":"4","last_reported":1685320715,"current_range_meters":30000,"station_id":"ce4bgk12rcd13ifvqbi0","pricing_plan_id":"free"},{"bike_id":"ac1baa1c-0629-4ba9-ab2e-636941dff7b5","system_id":"levelo_inurba_marseille","lat":43.299717,"lon":5.384845,"is_reserved":false,"is_disabled":false,"rental_uris":{"android":"levelo://app?vid=ac1baa1c-0629-4ba9-ab2e-636941dff7b5","ios":"levelo://app?vid=ac1baa1c-0629-4ba9-ab2e-636941dff7b5"},"vehicle_type_id":"4","last_reported":1685320715,"current_range_meters":0,"station_id":"ce4bgj92rcd13ifvqbd0","pricing_plan_id":"free"},{"bike_id":"6bbfc2df-107e-4835-95b4-1e3b4d51ef43","system_id":"levelo_inurba_marseille","lat":43.2997,"lon":5.38485,"is_reserved":false,"is_disabled":false,"rental_uris":{"android":"levelo://app?vid=6bbfc2df-107e-4835-95b4-1e3b4d51ef43","ios":"levelo://app?vid=6bbfc2df-107e-4835-95b4-1e3b4d51ef43"},"vehicle_type_id":"4","last_reported":1685320715,"current_range_meters":31200,"station_id":"ce4bgj92rcd13ifvqbd0","pricing_plan_id":"free"},{"bike_id":"5d343989-b5e9-47b3-89d4-133b43a2b753","system_id":"levelo_inurba_marseille","lat":43.299717,"lon":5.384845,"is_reserved":false,"is_disabled":false,"rental_uris":{"android":"levelo://app?vid=5d343989-b5e9-47b3-89d4-133b43a2b753","ios":"levelo://app?vid=5d343989-b5e9-47b3-89d4-133b43a2b753"},"vehicle_type_id":"4","last_reported":1685320715,"current_range_meters":11600,"station_id":"ce4bgj92rcd13ifvqbd0","pricing_plan_id":"free"},{"bike_id":"e8e797b9-6a20-48ce-8da8-0c6db3066bb2","system_id":"levelo_inurba_marseille","lat":43.299724,"lon":5.384848,"is_reserved":false,"is_disabled":false,"rental_uris":{"android":"levelo://app?vid=e8e797b9-6a20-48ce-8da8-0c6db3066bb2","ios":"levelo://app?vid=e8e797b9-6a20-48ce-8da8-0c6db3066bb2"},"vehicle_type_id":"4","last_reported":1685320715,"current_range_meters":16800,"station_id":"ce4bgj92rcd13ifvqbd0","pricing_plan_id":"free"},{"bike_id":"ddfffe7f-ecf3-4188-879b-1dc09c6ec0d1","system_id":"levelo_inurba_marseille","lat":43.32367,"lon":5.388836,"is_reserved":false,"is_disabled":false,"rental_uris":{"android":"levelo://app?vid=ddfffe7f-ecf3-4188-879b-1dc09c6ec0d1","ios":"levelo://app?vid=ddfffe7f-ecf3-4188-879b-1dc09c6ec0d1"},"vehicle_type_id":"4","last_reported":1685320715,"current_range_meters":14000,"station_id":"ce4bhqp2rcd13ifvqhog","pricing_plan_id":"free"},{"bike_id":"23c4caad-4c0a-400d-a6b9-daa7587a467b","system_id":"levelo_inurba_marseille","lat":43.292749,"lon":5.368398,"is_reserved":false,"is_disabled":false,"rental_uris":{"android":"levelo://app?vid=23c4caad-4c0a-400d-a6b9-daa7587a467b","ios":"levelo://app?vid=23c4caad-4c0a-400d-a6b9-daa7587a467b"},"vehicle_type_id":"4","last_reported":1685320715,"current_range_meters":29600,"station_id":"ce4bhbp2rcd13ifvqesg","pricing_plan_id":"free"},{"bike_id":"5575dd63-f2d9-43be-8465-78a2f9beba54","system_id":"levelo_inurba_marseille","lat":43.292749,"lon":5.368398,"is_reserved":false,"is_disabled":false,"rental_uris":{"android":"levelo://app?vid=5575dd63-f2d9-43be-8465-78a2f9beba54","ios":"levelo://app?vid=5575dd63-f2d9-43be-8465-78a2f9beba54"},"vehicle_type_id":"4","last_reported":1685320715,"current_range_meters":30000,"station_id":"ce4bhbp2rcd13ifvqesg","pricing_plan_id":"free"},{"bike_id":"7f63681d-39de-4759-ad0a-5995b1ea6bdf","system_id":"levelo_inurba_marseille","lat":43.292749,"lon":5.368402,"is_reserved":false,"is_disabled":false,"rental_uris":{"android":"levelo://app?vid=7f63681d-39de-4759-ad0a-5995b1ea6bdf","ios":"levelo://app?vid=7f63681d-39de-4759-ad0a-5995b1ea6bdf"},"vehicle_type_id":"4","last_reported":1685320715,"current_range_meters":31200,"station_id":"ce4bhbp2rcd13ifvqesg","pricing_plan_id":"free"},{"bike_id":"435513e1-26f8-49d4-a9f3-bce48da67f49","system_id":"levelo_inurba_marseille","lat":43.292749,"lon":5.368402,"is_reserved":false,"is_disabled":false,"rental_uris":{"android":"levelo://app?vid=435513e1-26f8-49d4-a9f3-bce48da67f49","ios":"levelo://app?vid=435513e1-26f8-49d4-a9f3-bce48da67f49"},"vehicle_type_id":"4","last_reported":1685320715,"current_range_meters":28800,"station_id":"ce4bhbp2rcd13ifvqesg","pricing_plan_id":"free"},{"bike_id":"1ddcc1e3-064a-45fe-8548-c3fa9200518e","system_id":"levelo_inurba_marseille","lat":43.29407,"lon":5.37707,"is_reserved":false,"is_disabled":false,"rental_uris":{"android":"levelo://app?vid=1ddcc1e3-064a-45fe-8548-c3fa9200518e","ios":"levelo://app?vid=1ddcc1e3-064a-45fe-8548-c3fa9200518e"},"vehicle_type_id":"4","last_reported":1685320715,"current_range_meters":0,"station_id":"","pricing_plan_id":"free"},{"bike_id":"2628bc6b-4d15-4fed-adc0-829c4af8f3bc","system_id":"levelo_inurba_marseille","lat":43.29327,"lon":5.37418,"is_reserved":false,"is_disabled":false,"rental_uris":{"android":"levelo://app?vid=2628bc6b-4d15-4fed-adc0-829c4af8f3bc","ios":"levelo://app?vid=2628bc6b-4d15-4fed-adc0-829c4af8f3bc"},"vehicle_type_id":"4","last_reported":1685320715,"current_range_meters":0,"station_id":"","pricing_plan_id":"free"},{"bike_id":"01dec166-f107-4001-8fcd-83caf3eff034","system_id":"levelo_inurba_marseille","lat":43.303002,"lon":5.392142,"is_reserved":false,"is_disabled":false,"rental_uris":{"android":"levelo://app?vid=01dec166-f107-4001-8fcd-83caf3eff034","ios":"levelo://app?vid=01dec166-f107-4001-8fcd-83caf3eff034"},"vehicle_type_id":"4","last_reported":1685320715,"current_range_meters":29200,"station_id":"ce4bgkh2rcd13ifvqbk0","pricing_plan_id":"free"},{"bike_id":"1eeb1383-d329-49ea-89c2-2de14b02c36c","system_id":"levelo_inurba_marseille","lat":43.298764,"lon":5.388973,"is_reserved":false,"is_disabled":false,"rental_uris":{"android":"levelo://app?vid=1eeb1383-d329-49ea-89c2-2de14b02c36c","ios":"levelo://app?vid=1eeb1383-d329-49ea-89c2-2de14b02c36c"},"vehicle_type_id":"4","last_reported":1685320715,"current_range_meters":0,"station_id":"ce4bh392rcd13ifvqdl0","pricing_plan_id":"free"},{"bike_id":"ad27dbb9-6a06-425e-931a-974a7f93a3a8","system_id":"levelo_inurba_marseille","lat":43.30893,"lon":5.3963,"is_reserved":false,"is_disabled":false,"rental_uris":{"android":"levelo://app?vid=ad27dbb9-6a06-425e-931a-974a7f93a3a8","ios":"levelo://app?vid=ad27dbb9-6a06-425e-931a-974a7f93a3a8"},"vehicle_type_id":"4","last_reported":1685320715,"current_range_meters":26400,"station_id":"ce4bh012rcd13ifvqcv0","pricing_plan_id":"free"},{"bike_id":"5573483a-75af-41be-88a7-934a4ca72bcd","system_id":"levelo_inurba_marseille","lat":43.30886,"lon":5.39634,"is_reserved":false,"is_disabled":false,"rental_uris":{"android":"levelo://app?vid=5573483a-75af-41be-88a7-934a4ca72bcd","ios":"levelo://app?vid=5573483a-75af-41be-88a7-934a4ca72bcd"},"vehicle_type_id":"4","last_reported":1685320715,"current_range_meters":5200,"station_id":"ce4bh012rcd13ifvqcv0","pricing_plan_id":"free"},{"bike_id":"556e1f3f-a774-44a1-9c89-e71d806fd500","system_id":"levelo_inurba_marseille","lat":43.30887,"lon":5.39635,"is_reserved":false,"is_disabled":false,"rental_uris":{"android":"levelo://app?vid=556e1f3f-a774-44a1-9c89-e71d806fd500","ios":"levelo://app?vid=556e1f3f-a774-44a1-9c89-e71d806fd500"},"vehicle_type_id":"4","last_reported":1685320715,"current_range_meters":31200,"station_id":"ce4bh012rcd13ifvqcv0","pricing_plan_id":"free"},{"bike_id":"663d8b28-2908-4448-95e1-c287dbd355e7","system_id":"levelo_inurba_marseille","lat":43.309038,"lon":5.396546,"is_reserved":false,"is_disabled":false,"rental_uris":{"android":"levelo://app?vid=663d8b28-2908-4448-95e1-c287dbd355e7","ios":"levelo://app?vid=663d8b28-2908-4448-95e1-c287dbd355e7"},"vehicle_type_id":"4","last_reported":1685320715,"current_range_meters":5600,"station_id":"ce4bh012rcd13ifvqcv0","pricing_plan_id":"free"},{"bike_id":"2a152b9b-7b62-4133-a3d5-c655212b49e1","system_id":"levelo_inurba_marseille","lat":43.309038,"lon":5.396546,"is_reserved":false,"is_disabled":false,"rental_uris":{"android":"levelo://app?vid=2a152b9b-7b62-4133-a3d5-c655212b49e1","ios":"levelo://app?vid=2a152b9b-7b62-4133-a3d5-c655212b49e1"},"vehicle_type_id":"4","last_reported":1685320715,"current_range_meters":31200,"station_id":"ce4bh012rcd13ifvqcv0","pricing_plan_id":"free"},{"bike_id":"06065e43-d961-46b8-ba7b-011d263c10e5","system_id":"levelo_inurba_marseille","lat":43.291994,"lon":5.357886,"is_reserved":false,"is_disabled":false,"rental_uris":{"android":"levelo://app?vid=06065e43-d961-46b8-ba7b-011d263c10e5","ios":"levelo://app?vid=06065e43-d961-46b8-ba7b-011d263c10e5"},"vehicle_type_id":"4","last_reported":1685320715,"current_range_meters":20800,"station_id":"ce4bhb12rcd13ifvqel0","pricing_plan_id":"free"},{"bike_id":"9dbef80a-9e2f-4e25-b23e-7b915ab7c7bb","system_id":"levelo_inurba_marseille","lat":43.31327,"lon":5.39687,"is_reserved":false,"is_disabled":false,"rental_uris":{"android":"levelo://app?vid=9dbef80a-9e2f-4e25-b23e-7b915ab7c7bb","ios":"levelo://app?vid=9dbef80a-9e2f-4e25-b23e-7b915ab7c7bb"},"vehicle_type_id":"4","last_reported":1685320715,"current_range_meters":8400,"station_id":"ce4bgvp2rcd13ifvqcu0","pricing_plan_id":"free"},{"bike_id":"7486ab4a-5580-41b9-b50f-fa5adb7f6c7d","system_id":"levelo_inurba_marseille","lat":43.30887,"lon":5.39648,"is_reserved":false,"is_disabled":false,"rental_uris":{"android":"levelo://app?vid=7486ab4a-5580-41b9-b50f-fa5adb7f6c7d","ios":"levelo://app?vid=7486ab4a-5580-41b9-b50f-fa5adb7f6c7d"},"vehicle_type_id":"4","last_reported":1685320715,"current_range_meters":1200,"station_id":"ce4bh012rcd13ifvqcv0","pricing_plan_id":"free"},{"bike_id":"55ed2660-4a9d-447a-bded-4c88f087e5d6","system_id":"levelo_inurba_marseille","lat":43.31326,"lon":5.39696,"is_reserved":false,"is_disabled":false,"rental_uris":{"android":"levelo://app?vid=55ed2660-4a9d-447a-bded-4c88f087e5d6","ios":"levelo://app?vid=55ed2660-4a9d-447a-bded-4c88f087e5d6"},"vehicle_type_id":"4","last_reported":1685320715,"current_range_meters":31200,"station_id":"ce4bgvp2rcd13ifvqcu0","pricing_plan_id":"free"},{"bike_id":"3dd45412-49b5-4e2f-9564-662f4a823145","system_id":"levelo_inurba_marseille","lat":43.290779,"lon":5.371482,"is_reserved":false,"is_disabled":false,"rental_uris":{"android":"levelo://app?vid=3dd45412-49b5-4e2f-9564-662f4a823145","ios":"levelo://app?vid=3dd45412-49b5-4e2f-9564-662f4a823145"},"vehicle_type_id":"4","last_reported":1685320715,"current_range_meters":30000,"station_id":"ce4bh5p2rcd13ifvqe4g","pricing_plan_id":"free"},{"bike_id":"0aaf5c6d-3997-4ef7-9a2d-8193341d2196","system_id":"levelo_inurba_marseille","lat":43.302008,"lon":5.394694,"is_reserved":false,"is_disabled":false,"rental_uris":{"android":"levelo://app?vid=0aaf5c6d-3997-4ef7-9a2d-8193341d2196","ios":"levelo://app?vid=0aaf5c6d-3997-4ef7-9a2d-8193341d2196"},"vehicle_type_id":"4","last_reported":1685320715,"current_range_meters":28400,"station_id":"ce4bh0p2rcd13ifvqd70","pricing_plan_id":"free"},{"bike_id":"eea754f4-dc28-45b2-ab2c-ac73b444230a","system_id":"levelo_inurba_marseille","lat":43.302008,"lon":5.394694,"is_reserved":false,"is_disabled":false,"rental_uris":{"android":"levelo://app?vid=eea754f4-dc28-45b2-ab2c-ac73b444230a","ios":"levelo://app?vid=eea754f4-dc28-45b2-ab2c-ac73b444230a"},"vehicle_type_id":"4","last_reported":1685320715,"current_range_meters":23200,"station_id":"ce4bh0p2rcd13ifvqd70","pricing_plan_id":"free"},{"bike_id":"651bd262-c463-45bb-8449-0936254a0f85","system_id":"levelo_inurba_marseille","lat":43.290631,"lon":5.359244,"is_reserved":false,"is_disabled":false,"rental_uris":{"android":"levelo://app?vid=651bd262-c463-45bb-8449-0936254a0f85","ios":"levelo://app?vid=651bd262-c463-45bb-8449-0936254a0f85"},"vehicle_type_id":"4","last_reported":1685320715,"current_range_meters":24400,"station_id":"ce4bha92rcd13ifvqeg0","pricing_plan_id":"free"},{"bike_id":"687f358c-4e4a-4019-b8ca-8f90a736ed3a","system_id":"levelo_inurba_marseille","lat":43.290631,"lon":5.359244,"is_reserved":false,"is_disabled":false,"rental_uris":{"android":"levelo://app?vid=687f358c-4e4a-4019-b8ca-8f90a736ed3a","ios":"levelo://app?vid=687f358c-4e4a-4019-b8ca-8f90a736ed3a"},"vehicle_type_id":"4","last_reported":1685320715,"current_range_meters":31200,"station_id":"ce4bha92rcd13ifvqeg0","pricing_plan_id":"free"},{"bike_id":"18d0646b-e6e3-47a3-a36a-3f4ec6294746","system_id":"levelo_inurba_marseille","lat":43.290631,"lon":5.359244,"is_reserved":false,"is_disabled":false,"rental_uris":{"android":"levelo://app?vid=18d0646b-e6e3-47a3-a36a-3f4ec6294746","ios":"levelo://app?vid=18d0646b-e6e3-47a3-a36a-3f4ec6294746"},"vehicle_type_id":"4","last_reported":1685320715,"current_range_meters":28800,"station_id":"ce4bha92rcd13ifvqeg0","pricing_plan_id":"free"},{"bike_id":"6f083652-db7c-426f-a21d-65fa006bdcfb","system_id":"levelo_inurba_marseille","lat":43.2903,"lon":5.37554,"is_reserved":false,"is_disabled":false,"rental_uris":{"android":"levelo://app?vid=6f083652-db7c-426f-a21d-65fa006bdcfb","ios":"levelo://app?vid=6f083652-db7c-426f-a21d-65fa006bdcfb"},"vehicle_type_id":"4","last_reported":1685320715,"current_range_meters":29200,"station_id":"ce4bh692rcd13ifvqe90","pricing_plan_id":"free"},{"bike_id":"da150a22-ace0-4237-b6b5-0d3f3e15f103","system_id":"levelo_inurba_marseille","lat":43.289184,"lon":5.366408,"is_reserved":false,"is_disabled":false,"rental_uris":{"android":"levelo://app?vid=da150a22-ace0-4237-b6b5-0d3f3e15f103","ios":"levelo://app?vid=da150a22-ace0-4237-b6b5-0d3f3e15f103"},"vehicle_type_id":"4","last_reported":1685320715,"current_range_meters":26800,"station_id":"ce4bhap2rcd13ifvqek0","pricing_plan_id":"free"},{"bike_id":"f3c6fa51-f2a2-4e09-b241-4719f251cc09","system_id":"levelo_inurba_marseille","lat":43.289184,"lon":5.366408,"is_reserved":false,"is_disabled":false,"rental_uris":{"android":"levelo://app?vid=f3c6fa51-f2a2-4e09-b241-4719f251cc09","ios":"levelo://app?vid=f3c6fa51-f2a2-4e09-b241-4719f251cc09"},"vehicle_type_id":"4","last_reported":1685320715,"current_range_meters":31200,"station_id":"ce4bhap2rcd13ifvqek0","pricing_plan_id":"free"},{"bike_id":"cb17dc91-7e10-4867-8cec-f509dbe55326","system_id":"levelo_inurba_marseille","lat":43.289184,"lon":5.366408,"is_reserved":false,"is_disabled":false,"rental_uris":{"android":"levelo://app?vid=cb17dc91-7e10-4867-8cec-f509dbe55326","ios":"levelo://app?vid=cb17dc91-7e10-4867-8cec-f509dbe55326"},"vehicle_type_id":"4","last_reported":1685320715,"current_range_meters":26000,"station_id":"ce4bhap2rcd13ifvqek0","pricing_plan_id":"free"},{"bike_id":"693a031e-53a2-427a-9bb8-a1b1ce9fbd7e","system_id":"levelo_inurba_marseille","lat":43.289184,"lon":5.366408,"is_reserved":false,"is_disabled":false,"rental_uris":{"android":"levelo://app?vid=693a031e-53a2-427a-9bb8-a1b1ce9fbd7e","ios":"levelo://app?vid=693a031e-53a2-427a-9bb8-a1b1ce9fbd7e"},"vehicle_type_id":"4","last_reported":1685320715,"current_range_meters":31200,"station_id":"ce4bhap2rcd13ifvqek0","pricing_plan_id":"free"},{"bike_id":"ee02176e-ee34-433e-b2e2-a156d3f76dd8","system_id":"levelo_inurba_marseille","lat":43.289184,"lon":5.366408,"is_reserved":false,"is_disabled":false,"rental_uris":{"android":"levelo://app?vid=ee02176e-ee34-433e-b2e2-a156d3f76dd8","ios":"levelo://app?vid=ee02176e-ee34-433e-b2e2-a156d3f76dd8"},"vehicle_type_id":"4","last_reported":1685320715,"current_range_meters":28000,"station_id":"ce4bhap2rcd13ifvqek0","pricing_plan_id":"free"},{"bike_id":"d390a1f1-6ea6-48b8-8423-f4e6f171587a","system_id":"levelo_inurba_marseille","lat":43.289468,"lon":5.363719,"is_reserved":false,"is_disabled":false,"rental_uris":{"android":"levelo://app?vid=d390a1f1-6ea6-48b8-8423-f4e6f171587a","ios":"levelo://app?vid=d390a1f1-6ea6-48b8-8423-f4e6f171587a"},"vehicle_type_id":"4","last_reported":1685320715,"current_range_meters":3600,"station_id":"ce4bhc92rcd13ifvqetg","pricing_plan_id":"free"},{"bike_id":"67e4ab5e-7ccd-4144-909d-a5c9ec7b0b2c","system_id":"levelo_inurba_marseille","lat":43.289468,"lon":5.363719,"is_reserved":false,"is_disabled":false,"rental_uris":{"android":"levelo://app?vid=67e4ab5e-7ccd-4144-909d-a5c9ec7b0b2c","ios":"levelo://app?vid=67e4ab5e-7ccd-4144-909d-a5c9ec7b0b2c"},"vehicle_type_id":"4","last_reported":1685320715,"current_range_meters":31200,"station_id":"ce4bhc92rcd13ifvqetg","pricing_plan_id":"free"},{"bike_id":"ad81e9f5-d71f-47da-a427-5cb2a13aebde","system_id":"levelo_inurba_marseille","lat":43.289184,"lon":5.366408,"is_reserved":false,"is_disabled":false,"rental_uris":{"android":"levelo://app?vid=ad81e9f5-d71f-47da-a427-5cb2a13aebde","ios":"levelo://app?vid=ad81e9f5-d71f-47da-a427-5cb2a13aebde"},"vehicle_type_id":"4","last_reported":1685320715,"current_range_meters":31200,"station_id":"ce4bhap2rcd13ifvqek0","pricing_plan_id":"free"},{"bike_id":"0424a6cb-0a74-4947-a7be-e085648270af","system_id":"levelo_inurba_marseille","lat":43.304274,"lon":5.397513,"is_reserved":false,"is_disabled":false,"rental_uris":{"android":"levelo://app?vid=0424a6cb-0a74-4947-a7be-e085648270af","ios":"levelo://app?vid=0424a6cb-0a74-4947-a7be-e085648270af"},"vehicle_type_id":"4","last_reported":1685320715,"current_range_meters":29200,"station_id":"ce4bh092rcd13ifvqd20","pricing_plan_id":"free"},{"bike_id":"6e217126-b838-43e0-875a-da67501aec22","system_id":"levelo_inurba_marseille","lat":43.304296,"lon":5.397513,"is_reserved":false,"is_disabled":false,"rental_uris":{"android":"levelo://app?vid=6e217126-b838-43e0-875a-da67501aec22","ios":"levelo://app?vid=6e217126-b838-43e0-875a-da67501aec22"},"vehicle_type_id":"4","last_reported":1685320715,"current_range_meters":29200,"station_id":"ce4bh092rcd13ifvqd20","pricing_plan_id":"free"},{"bike_id":"533025ee-40bc-4100-a009-badddfe63e0a","system_id":"levelo_inurba_marseille","lat":43.304296,"lon":5.397513,"is_reserved":false,"is_disabled":false,"rental_uris":{"android":"levelo://app?vid=533025ee-40bc-4100-a009-badddfe63e0a","ios":"levelo://app?vid=533025ee-40bc-4100-a009-badddfe63e0a"},"vehicle_type_id":"4","last_reported":1685320715,"current_range_meters":27200,"station_id":"ce4bh092rcd13ifvqd20","pricing_plan_id":"free"},{"bike_id":"6d352361-0409-4e42-8b1d-1b05f92960f3","system_id":"levelo_inurba_marseille","lat":43.33043,"lon":5.38913,"is_reserved":false,"is_disabled":false,"rental_uris":{"android":"levelo://app?vid=6d352361-0409-4e42-8b1d-1b05f92960f3","ios":"levelo://app?vid=6d352361-0409-4e42-8b1d-1b05f92960f3"},"vehicle_type_id":"4","last_reported":1685320715,"current_range_meters":21200,"station_id":"ce4bhr92rcd13ifvqhrg","pricing_plan_id":"free"},{"bike_id":"2fba1c75-2911-4a0d-a5e6-4bffe0784f0d","system_id":"levelo_inurba_marseille","lat":43.290067,"lon":5.356172,"is_reserved":false,"is_disabled":false,"rental_uris":{"android":"levelo://app?vid=2fba1c75-2911-4a0d-a5e6-4bffe0784f0d","ios":"levelo://app?vid=2fba1c75-2911-4a0d-a5e6-4bffe0784f0d"},"vehicle_type_id":"4","last_reported":1685320715,"current_range_meters":8800,"station_id":"ce4bhb92rcd13ifvqen0","pricing_plan_id":"free"},{"bike_id":"c271fa48-7a89-43b8-ba5b-bd269bf06dae","system_id":"levelo_inurba_marseille","lat":43.290104,"lon":5.356111,"is_reserved":false,"is_disabled":false,"rental_uris":{"android":"levelo://app?vid=c271fa48-7a89-43b8-ba5b-bd269bf06dae","ios":"levelo://app?vid=c271fa48-7a89-43b8-ba5b-bd269bf06dae"},"vehicle_type_id":"4","last_reported":1685320715,"current_range_meters":28000,"station_id":"ce4bhb92rcd13ifvqen0","pricing_plan_id":"free"},{"bike_id":"4cbb7df8-4838-41d9-8568-ad4a2a8d44ff","system_id":"levelo_inurba_marseille","lat":43.290104,"lon":5.356111,"is_reserved":false,"is_disabled":false,"rental_uris":{"android":"levelo://app?vid=4cbb7df8-4838-41d9-8568-ad4a2a8d44ff","ios":"levelo://app?vid=4cbb7df8-4838-41d9-8568-ad4a2a8d44ff"},"vehicle_type_id":"4","last_reported":1685320715,"current_range_meters":16000,"station_id":"ce4bhb92rcd13ifvqen0","pricing_plan_id":"free"},{"bike_id":"9222bf40-886a-4d82-953e-2fe519d029c7","system_id":"levelo_inurba_marseille","lat":43.29001,"lon":5.35611,"is_reserved":false,"is_disabled":false,"rental_uris":{"android":"levelo://app?vid=9222bf40-886a-4d82-953e-2fe519d029c7","ios":"levelo://app?vid=9222bf40-886a-4d82-953e-2fe519d029c7"},"vehicle_type_id":"4","last_reported":1685320715,"current_range_meters":25600,"station_id":"ce4bhb92rcd13ifvqen0","pricing_plan_id":"free"},{"bike_id":"63a3f39a-09f1-44de-a1db-57ea36130995","system_id":"levelo_inurba_marseille","lat":43.28999,"lon":5.35613,"is_reserved":false,"is_disabled":false,"rental_uris":{"android":"levelo://app?vid=63a3f39a-09f1-44de-a1db-57ea36130995","ios":"levelo://app?vid=63a3f39a-09f1-44de-a1db-57ea36130995"},"vehicle_type_id":"4","last_reported":1685320715,"current_range_meters":29200,"station_id":"ce4bhb92rcd13ifvqen0","pricing_plan_id":"free"},{"bike_id":"37ea9fbf-d6c2-4965-8b38-a1a362ae33de","system_id":"levelo_inurba_marseille","lat":43.290995,"lon":5.381361,"is_reserved":false,"is_disabled":false,"rental_uris":{"android":"levelo://app?vid=37ea9fbf-d6c2-4965-8b38-a1a362ae33de","ios":"levelo://app?vid=37ea9fbf-d6c2-4965-8b38-a1a362ae33de"},"vehicle_type_id":"4","last_reported":1685320715,"current_range_meters":16000,"station_id":"ce4bh512rcd13ifvqe2g","pricing_plan_id":"free"},{"bike_id":"312ce182-5bb8-4d1a-ab12-ea93856e7212","system_id":"levelo_inurba_marseille","lat":43.289743,"lon":5.378304,"is_reserved":false,"is_disabled":false,"rental_uris":{"android":"levelo://app?vid=312ce182-5bb8-4d1a-ab12-ea93856e7212","ios":"levelo://app?vid=312ce182-5bb8-4d1a-ab12-ea93856e7212"},"vehicle_type_id":"4","last_reported":1685320715,"current_range_meters":5600,"station_id":"ce4bh9p2rcd13ifvqed0","pricing_plan_id":"free"},{"bike_id":"db0bd8a6-9b28-49de-83db-7894665e1f19","system_id":"levelo_inurba_marseille","lat":43.29792,"lon":5.3934,"is_reserved":false,"is_disabled":false,"rental_uris":{"android":"levelo://app?vid=db0bd8a6-9b28-49de-83db-7894665e1f19","ios":"levelo://app?vid=db0bd8a6-9b28-49de-83db-7894665e1f19"},"vehicle_type_id":"4","last_reported":1685320715,"current_range_meters":4800,"station_id":"chh1huq6cuj3fo74tm60","pricing_plan_id":"free"},{"bike_id":"5f65be70-ec78-4d33-9378-669cebbc2637","system_id":"levelo_inurba_marseille","lat":43.295169,"lon":5.390426,"is_reserved":false,"is_disabled":false,"rental_uris":{"android":"levelo://app?vid=5f65be70-ec78-4d33-9378-669cebbc2637","ios":"levelo://app?vid=5f65be70-ec78-4d33-9378-669cebbc2637"},"vehicle_type_id":"4","last_reported":1685320715,"current_range_meters":8800,"station_id":"ce4bh3p2rcd13ifvqdp0","pricing_plan_id":"free"},{"bike_id":"118dfeb4-0e5e-4f12-ac5d-5512bc6553d1","system_id":"levelo_inurba_marseille","lat":43.28856,"lon":5.358371,"is_reserved":false,"is_disabled":false,"rental_uris":{"android":"levelo://app?vid=118dfeb4-0e5e-4f12-ac5d-5512bc6553d1","ios":"levelo://app?vid=118dfeb4-0e5e-4f12-ac5d-5512bc6553d1"},"vehicle_type_id":"4","last_reported":1685320715,"current_range_meters":11600,"station_id":"ce4bhb12rcd13ifvqem0","pricing_plan_id":"free"},{"bike_id":"be8e4278-6a7c-4537-8082-e23bebde2c3a","system_id":"levelo_inurba_marseille","lat":43.28856,"lon":5.358371,"is_reserved":false,"is_disabled":false,"rental_uris":{"android":"levelo://app?vid=be8e4278-6a7c-4537-8082-e23bebde2c3a","ios":"levelo://app?vid=be8e4278-6a7c-4537-8082-e23bebde2c3a"},"vehicle_type_id":"4","last_reported":1685320715,"current_range_meters":29200,"station_id":"ce4bhb12rcd13ifvqem0","pricing_plan_id":"free"},{"bike_id":"3042264f-d84c-443f-b428-0b9ccbe7d198","system_id":"levelo_inurba_marseille","lat":43.28856,"lon":5.358371,"is_reserved":false,"is_disabled":false,"rental_uris":{"android":"levelo://app?vid=3042264f-d84c-443f-b428-0b9ccbe7d198","ios":"levelo://app?vid=3042264f-d84c-443f-b428-0b9ccbe7d198"},"vehicle_type_id":"4","last_reported":1685320715,"current_range_meters":29200,"station_id":"ce4bhb12rcd13ifvqem0","pricing_plan_id":"free"},{"bike_id":"141c14ea-594b-43ee-894e-8c44af1dcd73","system_id":"levelo_inurba_marseille","lat":43.33732,"lon":5.37446,"is_reserved":false,"is_disabled":false,"rental_uris":{"android":"levelo://app?vid=141c14ea-594b-43ee-894e-8c44af1dcd73","ios":"levelo://app?vid=141c14ea-594b-43ee-894e-8c44af1dcd73"},"vehicle_type_id":"4","last_reported":1685320715,"current_range_meters":31200,"station_id":"","pricing_plan_id":"free"},{"bike_id":"493860ce-e063-4684-ab33-c360eaf64153","system_id":"levelo_inurba_marseille","lat":43.33744,"lon":5.37451,"is_reserved":false,"is_disabled":false,"rental_uris":{"android":"levelo://app?vid=493860ce-e063-4684-ab33-c360eaf64153","ios":"levelo://app?vid=493860ce-e063-4684-ab33-c360eaf64153"},"vehicle_type_id":"4","last_reported":1685320715,"current_range_meters":16400,"station_id":"","pricing_plan_id":"free"},{"bike_id":"c67b547c-3fcb-4384-8614-e15f558fec55","system_id":"levelo_inurba_marseille","lat":43.33744,"lon":5.37451,"is_reserved":false,"is_disabled":false,"rental_uris":{"android":"levelo://app?vid=c67b547c-3fcb-4384-8614-e15f558fec55","ios":"levelo://app?vid=c67b547c-3fcb-4384-8614-e15f558fec55"},"vehicle_type_id":"4","last_reported":1685320715,"current_range_meters":25600,"station_id":"","pricing_plan_id":"free"},{"bike_id":"556c6db1-2600-4c2b-9521-aae8453517c1","system_id":"levelo_inurba_marseille","lat":43.33752,"lon":5.37433,"is_reserved":false,"is_disabled":false,"rental_uris":{"android":"levelo://app?vid=556c6db1-2600-4c2b-9521-aae8453517c1","ios":"levelo://app?vid=556c6db1-2600-4c2b-9521-aae8453517c1"},"vehicle_type_id":"4","last_reported":1685320715,"current_range_meters":12000,"station_id":"","pricing_plan_id":"free"},{"bike_id":"581f04f9-263c-4371-a25f-4fa30be818ef","system_id":"levelo_inurba_marseille","lat":43.30642,"lon":5.401031,"is_reserved":false,"is_disabled":false,"rental_uris":{"android":"levelo://app?vid=581f04f9-263c-4371-a25f-4fa30be818ef","ios":"levelo://app?vid=581f04f9-263c-4371-a25f-4fa30be818ef"},"vehicle_type_id":"4","last_reported":1685320715,"current_range_meters":5200,"station_id":"ce4bh112rcd13ifvqda0","pricing_plan_id":"free"},{"bike_id":"ff1b49ea-4d67-40b1-9bcc-12af1e30efad","system_id":"levelo_inurba_marseille","lat":43.28824,"lon":5.37666,"is_reserved":false,"is_disabled":false,"rental_uris":{"android":"levelo://app?vid=ff1b49ea-4d67-40b1-9bcc-12af1e30efad","ios":"levelo://app?vid=ff1b49ea-4d67-40b1-9bcc-12af1e30efad"},"vehicle_type_id":"4","last_reported":1685320715,"current_range_meters":2000,"station_id":"","pricing_plan_id":"free"},{"bike_id":"5aaf445f-f097-4041-99e9-0b2edc8a39b1","system_id":"levelo_inurba_marseille","lat":43.33764,"lon":5.37451,"is_reserved":false,"is_disabled":false,"rental_uris":{"android":"levelo://app?vid=5aaf445f-f097-4041-99e9-0b2edc8a39b1","ios":"levelo://app?vid=5aaf445f-f097-4041-99e9-0b2edc8a39b1"},"vehicle_type_id":"4","last_reported":1685320715,"current_range_meters":28800,"station_id":"","pricing_plan_id":"free"},{"bike_id":"f4afcff2-f2b9-4f94-bdd1-6057e9fbbbf7","system_id":"levelo_inurba_marseille","lat":43.30642,"lon":5.401031,"is_reserved":false,"is_disabled":false,"rental_uris":{"android":"levelo://app?vid=f4afcff2-f2b9-4f94-bdd1-6057e9fbbbf7","ios":"levelo://app?vid=f4afcff2-f2b9-4f94-bdd1-6057e9fbbbf7"},"vehicle_type_id":"4","last_reported":1685320715,"current_range_meters":12400,"station_id":"ce4bh112rcd13ifvqda0","pricing_plan_id":"free"},{"bike_id":"2c17682d-6f02-45f0-a11e-2e1a48d4e079","system_id":"levelo_inurba_marseille","lat":43.301117,"lon":5.398795,"is_reserved":false,"is_disabled":false,"rental_uris":{"android":"levelo://app?vid=2c17682d-6f02-45f0-a11e-2e1a48d4e079","ios":"levelo://app?vid=2c17682d-6f02-45f0-a11e-2e1a48d4e079"},"vehicle_type_id":"4","last_reported":1685320715,"current_range_meters":29600,"station_id":"ce4bh0h2rcd13ifvqd40","pricing_plan_id":"free"},{"bike_id":"107d009f-9c83-4e33-bf31-2c71acd52599","system_id":"levelo_inurba_marseille","lat":43.286591,"lon":5.363346,"is_reserved":false,"is_disabled":false,"rental_uris":{"android":"levelo://app?vid=107d009f-9c83-4e33-bf31-2c71acd52599","ios":"levelo://app?vid=107d009f-9c83-4e33-bf31-2c71acd52599"},"vehicle_type_id":"4","last_reported":1685320715,"current_range_meters":30000,"station_id":"ce4bhah2rcd13ifvqej0","pricing_plan_id":"free"},{"bike_id":"3678a7ab-e98d-4e38-b857-d48a5f4ab210","system_id":"levelo_inurba_marseille","lat":43.286591,"lon":5.363346,"is_reserved":false,"is_disabled":false,"rental_uris":{"android":"levelo://app?vid=3678a7ab-e98d-4e38-b857-d48a5f4ab210","ios":"levelo://app?vid=3678a7ab-e98d-4e38-b857-d48a5f4ab210"},"vehicle_type_id":"4","last_reported":1685320715,"current_range_meters":31200,"station_id":"ce4bhah2rcd13ifvqej0","pricing_plan_id":"free"},{"bike_id":"5a63bdb5-2a76-4866-90e6-3907ef84ff0f","system_id":"levelo_inurba_marseille","lat":43.286593,"lon":5.363346,"is_reserved":false,"is_disabled":false,"rental_uris":{"android":"levelo://app?vid=5a63bdb5-2a76-4866-90e6-3907ef84ff0f","ios":"levelo://app?vid=5a63bdb5-2a76-4866-90e6-3907ef84ff0f"},"vehicle_type_id":"4","last_reported":1685320715,"current_range_meters":31200,"station_id":"ce4bhah2rcd13ifvqej0","pricing_plan_id":"free"},{"bike_id":"97988c66-f4d0-4fac-bba8-96a2b9f7e41c","system_id":"levelo_inurba_marseille","lat":43.286591,"lon":5.363346,"is_reserved":false,"is_disabled":false,"rental_uris":{"android":"levelo://app?vid=97988c66-f4d0-4fac-bba8-96a2b9f7e41c","ios":"levelo://app?vid=97988c66-f4d0-4fac-bba8-96a2b9f7e41c"},"vehicle_type_id":"4","last_reported":1685320715,"current_range_meters":27600,"station_id":"ce4bhah2rcd13ifvqej0","pricing_plan_id":"free"},{"bike_id":"ef76fac9-1dbc-4d27-897e-1048cb630683","system_id":"levelo_inurba_marseille","lat":43.286591,"lon":5.363346,"is_reserved":false,"is_disabled":false,"rental_uris":{"android":"levelo://app?vid=ef76fac9-1dbc-4d27-897e-1048cb630683","ios":"levelo://app?vid=ef76fac9-1dbc-4d27-897e-1048cb630683"},"vehicle_type_id":"4","last_reported":1685320715,"current_range_meters":27200,"station_id":"ce4bhah2rcd13ifvqej0","pricing_plan_id":"free"},{"bike_id":"e8c829d1-92f4-442d-b3bd-10c69c8f2b21","system_id":"levelo_inurba_marseille","lat":43.286593,"lon":5.363346,"is_reserved":false,"is_disabled":false,"rental_uris":{"android":"levelo://app?vid=e8c829d1-92f4-442d-b3bd-10c69c8f2b21","ios":"levelo://app?vid=e8c829d1-92f4-442d-b3bd-10c69c8f2b21"},"vehicle_type_id":"4","last_reported":1685320715,"current_range_meters":20000,"station_id":"ce4bhah2rcd13ifvqej0","pricing_plan_id":"free"},{"bike_id":"9cf7bbc1-544a-4534-86f0-6f68ccc87f64","system_id":"levelo_inurba_marseille","lat":43.295194,"lon":5.39397,"is_reserved":false,"is_disabled":false,"rental_uris":{"android":"levelo://app?vid=9cf7bbc1-544a-4534-86f0-6f68ccc87f64","ios":"levelo://app?vid=9cf7bbc1-544a-4534-86f0-6f68ccc87f64"},"vehicle_type_id":"4","last_reported":1685320715,"current_range_meters":16000,"station_id":"ce4bh292rcd13ifvqdf0","pricing_plan_id":"free"},{"bike_id":"774ff2fb-1092-45f6-970c-0f28e31ebcd4","system_id":"levelo_inurba_marseille","lat":43.290336,"lon":5.386425,"is_reserved":false,"is_disabled":false,"rental_uris":{"android":"levelo://app?vid=774ff2fb-1092-45f6-970c-0f28e31ebcd4","ios":"levelo://app?vid=774ff2fb-1092-45f6-970c-0f28e31ebcd4"},"vehicle_type_id":"4","last_reported":1685320715,"current_range_meters":0,"station_id":"ce4bh4p2rcd13ifvqe0g","pricing_plan_id":"free"},{"bike_id":"951fd62d-affc-4b24-918f-7b3043fd24ea","system_id":"levelo_inurba_marseille","lat":43.302759,"lon":5.400793,"is_reserved":false,"is_disabled":false,"rental_uris":{"android":"levelo://app?vid=951fd62d-affc-4b24-918f-7b3043fd24ea","ios":"levelo://app?vid=951fd62d-affc-4b24-918f-7b3043fd24ea"},"vehicle_type_id":"4","last_reported":1685320715,"current_range_meters":26800,"station_id":"ce4bgvh2rcd13ifvqcs0","pricing_plan_id":"free"},{"bike_id":"2aa1d91d-a0df-4e38-949d-42f4c2780f8a","system_id":"levelo_inurba_marseille","lat":43.290336,"lon":5.386425,"is_reserved":false,"is_disabled":false,"rental_uris":{"android":"levelo://app?vid=2aa1d91d-a0df-4e38-949d-42f4c2780f8a","ios":"levelo://app?vid=2aa1d91d-a0df-4e38-949d-42f4c2780f8a"},"vehicle_type_id":"4","last_reported":1685320715,"current_range_meters":26800,"station_id":"ce4bh4p2rcd13ifvqe0g","pricing_plan_id":"free"},{"bike_id":"2d97bb7e-f34d-49de-9d90-5206376db3c1","system_id":"levelo_inurba_marseille","lat":43.286039,"lon":5.370679,"is_reserved":false,"is_disabled":false,"rental_uris":{"android":"levelo://app?vid=2d97bb7e-f34d-49de-9d90-5206376db3c1","ios":"levelo://app?vid=2d97bb7e-f34d-49de-9d90-5206376db3c1"},"vehicle_type_id":"4","last_reported":1685320715,"current_range_meters":12400,"station_id":"ce4bht12rcd13ifvqi60","pricing_plan_id":"free"},{"bike_id":"ec02f902-9c39-437b-ac38-0eb440d94cd5","system_id":"levelo_inurba_marseille","lat":43.28722,"lon":5.37936,"is_reserved":false,"is_disabled":false,"rental_uris":{"android":"levelo://app?vid=ec02f902-9c39-437b-ac38-0eb440d94cd5","ios":"levelo://app?vid=ec02f902-9c39-437b-ac38-0eb440d94cd5"},"vehicle_type_id":"4","last_reported":1685320715,"current_range_meters":0,"station_id":"ce4bh9p2rcd13ifvqec0","pricing_plan_id":"free"},{"bike_id":"dba03c2a-c477-4e36-818d-68610cc1538b","system_id":"levelo_inurba_marseille","lat":43.28712,"lon":5.37937,"is_reserved":false,"is_disabled":false,"rental_uris":{"android":"levelo://app?vid=dba03c2a-c477-4e36-818d-68610cc1538b","ios":"levelo://app?vid=dba03c2a-c477-4e36-818d-68610cc1538b"},"vehicle_type_id":"4","last_reported":1685320715,"current_range_meters":28800,"station_id":"ce4bh9p2rcd13ifvqec0","pricing_plan_id":"free"},{"bike_id":"58edda7b-3a8f-4c21-bb97-da840879b230","system_id":"levelo_inurba_marseille","lat":43.316517,"lon":5.404375,"is_reserved":false,"is_disabled":false,"rental_uris":{"android":"levelo://app?vid=58edda7b-3a8f-4c21-bb97-da840879b230","ios":"levelo://app?vid=58edda7b-3a8f-4c21-bb97-da840879b230"},"vehicle_type_id":"4","last_reported":1685320715,"current_range_meters":31200,"station_id":"ce4bh012rcd13ifvqd00","pricing_plan_id":"free"},{"bike_id":"4ee859f7-22c6-4e0f-a7fc-602862f52b4a","system_id":"levelo_inurba_marseille","lat":43.316517,"lon":5.404375,"is_reserved":false,"is_disabled":false,"rental_uris":{"android":"levelo://app?vid=4ee859f7-22c6-4e0f-a7fc-602862f52b4a","ios":"levelo://app?vid=4ee859f7-22c6-4e0f-a7fc-602862f52b4a"},"vehicle_type_id":"4","last_reported":1685320715,"current_range_meters":27600,"station_id":"ce4bh012rcd13ifvqd00","pricing_plan_id":"free"},{"bike_id":"1ec4e3cf-a211-4a07-9135-4f164b3e23c9","system_id":"levelo_inurba_marseille","lat":43.31645,"lon":5.40436,"is_reserved":false,"is_disabled":false,"rental_uris":{"android":"levelo://app?vid=1ec4e3cf-a211-4a07-9135-4f164b3e23c9","ios":"levelo://app?vid=1ec4e3cf-a211-4a07-9135-4f164b3e23c9"},"vehicle_type_id":"4","last_reported":1685320715,"current_range_meters":27200,"station_id":"ce4bh012rcd13ifvqd00","pricing_plan_id":"free"},{"bike_id":"399a568f-226b-4288-b803-8add96160650","system_id":"levelo_inurba_marseille","lat":43.316517,"lon":5.404375,"is_reserved":false,"is_disabled":false,"rental_uris":{"android":"levelo://app?vid=399a568f-226b-4288-b803-8add96160650","ios":"levelo://app?vid=399a568f-226b-4288-b803-8add96160650"},"vehicle_type_id":"4","last_reported":1685320715,"current_range_meters":30400,"station_id":"ce4bh012rcd13ifvqd00","pricing_plan_id":"free"},{"bike_id":"7e1fe4f5-345b-46bd-ab0e-c6b5a3db933d","system_id":"levelo_inurba_marseille","lat":43.316517,"lon":5.404375,"is_reserved":false,"is_disabled":false,"rental_uris":{"android":"levelo://app?vid=7e1fe4f5-345b-46bd-ab0e-c6b5a3db933d","ios":"levelo://app?vid=7e1fe4f5-345b-46bd-ab0e-c6b5a3db933d"},"vehicle_type_id":"4","last_reported":1685320715,"current_range_meters":31200,"station_id":"ce4bh012rcd13ifvqd00","pricing_plan_id":"free"},{"bike_id":"2b2f6c5d-446d-4953-9831-18c4ad742753","system_id":"levelo_inurba_marseille","lat":43.31644,"lon":5.40442,"is_reserved":false,"is_disabled":false,"rental_uris":{"android":"levelo://app?vid=2b2f6c5d-446d-4953-9831-18c4ad742753","ios":"levelo://app?vid=2b2f6c5d-446d-4953-9831-18c4ad742753"},"vehicle_type_id":"4","last_reported":1685320715,"current_range_meters":31200,"station_id":"ce4bh012rcd13ifvqd00","pricing_plan_id":"free"},{"bike_id":"242958a4-64af-423a-9e7d-f6b38c93e7d4","system_id":"levelo_inurba_marseille","lat":43.29918,"lon":5.40081,"is_reserved":false,"is_disabled":false,"rental_uris":{"android":"levelo://app?vid=242958a4-64af-423a-9e7d-f6b38c93e7d4","ios":"levelo://app?vid=242958a4-64af-423a-9e7d-f6b38c93e7d4"},"vehicle_type_id":"4","last_reported":1685320715,"current_range_meters":28000,"station_id":"","pricing_plan_id":"free"},{"bike_id":"f3420b28-38cb-4707-be08-6ab02641d0e9","system_id":"levelo_inurba_marseille","lat":43.291994,"lon":5.392907,"is_reserved":false,"is_disabled":false,"rental_uris":{"android":"levelo://app?vid=f3420b28-38cb-4707-be08-6ab02641d0e9","ios":"levelo://app?vid=f3420b28-38cb-4707-be08-6ab02641d0e9"},"vehicle_type_id":"4","last_reported":1685320715,"current_range_meters":19200,"station_id":"ce4bh192rcd13ifvqdd0","pricing_plan_id":"free"},{"bike_id":"2557e15d-579f-4229-971f-71a1ad232ba6","system_id":"levelo_inurba_marseille","lat":43.284534,"lon":5.358662,"is_reserved":false,"is_disabled":false,"rental_uris":{"android":"levelo://app?vid=2557e15d-579f-4229-971f-71a1ad232ba6","ios":"levelo://app?vid=2557e15d-579f-4229-971f-71a1ad232ba6"},"vehicle_type_id":"4","last_reported":1685320715,"current_range_meters":31200,"station_id":"ce4bhah2rcd13ifvqei0","pricing_plan_id":"free"},{"bike_id":"a3cb1840-3ce4-450b-969c-beaf48b1e377","system_id":"levelo_inurba_marseille","lat":43.284534,"lon":5.358662,"is_reserved":false,"is_disabled":false,"rental_uris":{"android":"levelo://app?vid=a3cb1840-3ce4-450b-969c-beaf48b1e377","ios":"levelo://app?vid=a3cb1840-3ce4-450b-969c-beaf48b1e377"},"vehicle_type_id":"4","last_reported":1685320715,"current_range_meters":23200,"station_id":"ce4bhah2rcd13ifvqei0","pricing_plan_id":"free"},{"bike_id":"335d365a-b36d-4df0-a07b-edeffbee82ec","system_id":"levelo_inurba_marseille","lat":43.284534,"lon":5.358662,"is_reserved":false,"is_disabled":false,"rental_uris":{"android":"levelo://app?vid=335d365a-b36d-4df0-a07b-edeffbee82ec","ios":"levelo://app?vid=335d365a-b36d-4df0-a07b-edeffbee82ec"},"vehicle_type_id":"4","last_reported":1685320715,"current_range_meters":30000,"station_id":"ce4bhah2rcd13ifvqei0","pricing_plan_id":"free"},{"bike_id":"eed2e6f5-7271-45e1-8e0a-a26be284d49a","system_id":"levelo_inurba_marseille","lat":43.284534,"lon":5.358662,"is_reserved":false,"is_disabled":false,"rental_uris":{"android":"levelo://app?vid=eed2e6f5-7271-45e1-8e0a-a26be284d49a","ios":"levelo://app?vid=eed2e6f5-7271-45e1-8e0a-a26be284d49a"},"vehicle_type_id":"4","last_reported":1685320715,"current_range_meters":31200,"station_id":"ce4bhah2rcd13ifvqei0","pricing_plan_id":"free"},{"bike_id":"ad8b4fc8-be2f-4e38-92c6-d81a44512294","system_id":"levelo_inurba_marseille","lat":43.284534,"lon":5.358662,"is_reserved":false,"is_disabled":false,"rental_uris":{"android":"levelo://app?vid=ad8b4fc8-be2f-4e38-92c6-d81a44512294","ios":"levelo://app?vid=ad8b4fc8-be2f-4e38-92c6-d81a44512294"},"vehicle_type_id":"4","last_reported":1685320715,"current_range_meters":31200,"station_id":"ce4bhah2rcd13ifvqei0","pricing_plan_id":"free"},{"bike_id":"6aa0ace1-9004-409f-a870-9ef9048480f0","system_id":"levelo_inurba_marseille","lat":43.285856,"lon":5.350771,"is_reserved":false,"is_disabled":false,"rental_uris":{"android":"levelo://app?vid=6aa0ace1-9004-409f-a870-9ef9048480f0","ios":"levelo://app?vid=6aa0ace1-9004-409f-a870-9ef9048480f0"},"vehicle_type_id":"4","last_reported":1685320715,"current_range_meters":31200,"station_id":"ce4bhch2rcd13ifvqeug","pricing_plan_id":"free"},{"bike_id":"5db91f20-14ff-43aa-a162-8a380f484e30","system_id":"levelo_inurba_marseille","lat":43.285856,"lon":5.350771,"is_reserved":false,"is_disabled":false,"rental_uris":{"android":"levelo://app?vid=5db91f20-14ff-43aa-a162-8a380f484e30","ios":"levelo://app?vid=5db91f20-14ff-43aa-a162-8a380f484e30"},"vehicle_type_id":"4","last_reported":1685320715,"current_range_meters":31200,"station_id":"ce4bhch2rcd13ifvqeug","pricing_plan_id":"free"},{"bike_id":"26c9141e-1e63-4741-9e6e-1d6a42ac54f0","system_id":"levelo_inurba_marseille","lat":43.285856,"lon":5.350771,"is_reserved":false,"is_disabled":false,"rental_uris":{"android":"levelo://app?vid=26c9141e-1e63-4741-9e6e-1d6a42ac54f0","ios":"levelo://app?vid=26c9141e-1e63-4741-9e6e-1d6a42ac54f0"},"vehicle_type_id":"4","last_reported":1685320715,"current_range_meters":22400,"station_id":"ce4bhch2rcd13ifvqeug","pricing_plan_id":"free"},{"bike_id":"5def35d2-320b-4ffd-922c-4d28df7eed1f","system_id":"levelo_inurba_marseille","lat":43.285856,"lon":5.350771,"is_reserved":false,"is_disabled":false,"rental_uris":{"android":"levelo://app?vid=5def35d2-320b-4ffd-922c-4d28df7eed1f","ios":"levelo://app?vid=5def35d2-320b-4ffd-922c-4d28df7eed1f"},"vehicle_type_id":"4","last_reported":1685320715,"current_range_meters":30800,"station_id":"ce4bhch2rcd13ifvqeug","pricing_plan_id":"free"},{"bike_id":"f1796e92-0067-4c36-92a6-648f47af4223","system_id":"levelo_inurba_marseille","lat":43.286155,"lon":5.351033,"is_reserved":false,"is_disabled":false,"rental_uris":{"android":"levelo://app?vid=f1796e92-0067-4c36-92a6-648f47af4223","ios":"levelo://app?vid=f1796e92-0067-4c36-92a6-648f47af4223"},"vehicle_type_id":"4","last_reported":1685320715,"current_range_meters":13600,"station_id":"","pricing_plan_id":"free"},{"bike_id":"aac8d157-7689-419a-b210-4ec01ca3f475","system_id":"levelo_inurba_marseille","lat":43.28615,"lon":5.35102,"is_reserved":false,"is_disabled":false,"rental_uris":{"android":"levelo://app?vid=aac8d157-7689-419a-b210-4ec01ca3f475","ios":"levelo://app?vid=aac8d157-7689-419a-b210-4ec01ca3f475"},"vehicle_type_id":"4","last_reported":1685320715,"current_range_meters":31200,"station_id":"","pricing_plan_id":"free"},{"bike_id":"3b1a741f-4ea7-4782-ab6a-cb5dc80ab9e4","system_id":"levelo_inurba_marseille","lat":43.28614,"lon":5.35103,"is_reserved":false,"is_disabled":false,"rental_uris":{"android":"levelo://app?vid=3b1a741f-4ea7-4782-ab6a-cb5dc80ab9e4","ios":"levelo://app?vid=3b1a741f-4ea7-4782-ab6a-cb5dc80ab9e4"},"vehicle_type_id":"4","last_reported":1685320715,"current_range_meters":30800,"station_id":"","pricing_plan_id":"free"},{"bike_id":"54c05652-49de-43f6-b4c9-fbf1d6119344","system_id":"levelo_inurba_marseille","lat":43.285856,"lon":5.350771,"is_reserved":false,"is_disabled":false,"rental_uris":{"android":"levelo://app?vid=54c05652-49de-43f6-b4c9-fbf1d6119344","ios":"levelo://app?vid=54c05652-49de-43f6-b4c9-fbf1d6119344"},"vehicle_type_id":"4","last_reported":1685320715,"current_range_meters":30800,"station_id":"ce4bhch2rcd13ifvqeug","pricing_plan_id":"free"},{"bike_id":"12cf4a86-bd72-4040-8ff3-d7a5ea8fe284","system_id":"levelo_inurba_marseille","lat":43.28613,"lon":5.351,"is_reserved":false,"is_disabled":false,"rental_uris":{"android":"levelo://app?vid=12cf4a86-bd72-4040-8ff3-d7a5ea8fe284","ios":"levelo://app?vid=12cf4a86-bd72-4040-8ff3-d7a5ea8fe284"},"vehicle_type_id":"4","last_reported":1685320715,"current_range_meters":25600,"station_id":"","pricing_plan_id":"free"},{"bike_id":"c093bb38-7b7f-46a1-a625-b5deb2a7293f","system_id":"levelo_inurba_marseille","lat":43.28613,"lon":5.35098,"is_reserved":false,"is_disabled":false,"rental_uris":{"android":"levelo://app?vid=c093bb38-7b7f-46a1-a625-b5deb2a7293f","ios":"levelo://app?vid=c093bb38-7b7f-46a1-a625-b5deb2a7293f"},"vehicle_type_id":"4","last_reported":1685320715,"current_range_meters":24000,"station_id":"","pricing_plan_id":"free"},{"bike_id":"bcad32fa-dfca-4bff-b00d-8a27607f0acc","system_id":"levelo_inurba_marseille","lat":43.286595,"lon":5.386795,"is_reserved":false,"is_disabled":false,"rental_uris":{"android":"levelo://app?vid=bcad32fa-dfca-4bff-b00d-8a27607f0acc","ios":"levelo://app?vid=bcad32fa-dfca-4bff-b00d-8a27607f0acc"},"vehicle_type_id":"4","last_reported":1685320715,"current_range_meters":14000,"station_id":"ce4bh492rcd13ifvqdug","pricing_plan_id":"free"},{"bike_id":"84de64ae-8504-43f7-975c-5ca6c4815ff6","system_id":"levelo_inurba_marseille","lat":43.28669,"lon":5.38668,"is_reserved":false,"is_disabled":false,"rental_uris":{"android":"levelo://app?vid=84de64ae-8504-43f7-975c-5ca6c4815ff6","ios":"levelo://app?vid=84de64ae-8504-43f7-975c-5ca6c4815ff6"},"vehicle_type_id":"4","last_reported":1685320715,"current_range_meters":28400,"station_id":"ce4bh492rcd13ifvqdug","pricing_plan_id":"free"},{"bike_id":"87e3385a-2891-478d-92ae-b8f8fd28cb9a","system_id":"levelo_inurba_marseille","lat":43.288497,"lon":5.393089,"is_reserved":false,"is_disabled":false,"rental_uris":{"android":"levelo://app?vid=87e3385a-2891-478d-92ae-b8f8fd28cb9a","ios":"levelo://app?vid=87e3385a-2891-478d-92ae-b8f8fd28cb9a"},"vehicle_type_id":"4","last_reported":1685320715,"current_range_meters":3600,"station_id":"ce4bh2p2rcd13ifvqdi0","pricing_plan_id":"free"},{"bike_id":"3f78ced0-d7df-4611-a428-37b884a6e1d1","system_id":"levelo_inurba_marseille","lat":43.31057,"lon":5.40922,"is_reserved":false,"is_disabled":false,"rental_uris":{"android":"levelo://app?vid=3f78ced0-d7df-4611-a428-37b884a6e1d1","ios":"levelo://app?vid=3f78ced0-d7df-4611-a428-37b884a6e1d1"},"vehicle_type_id":"4","last_reported":1685320715,"current_range_meters":0,"station_id":"","pricing_plan_id":"free"},{"bike_id":"19d01ae7-1762-46d7-9ef1-ed00f7c0aa08","system_id":"levelo_inurba_marseille","lat":43.28357,"lon":5.38097,"is_reserved":false,"is_disabled":false,"rental_uris":{"android":"levelo://app?vid=19d01ae7-1762-46d7-9ef1-ed00f7c0aa08","ios":"levelo://app?vid=19d01ae7-1762-46d7-9ef1-ed00f7c0aa08"},"vehicle_type_id":"4","last_reported":1685320715,"current_range_meters":25200,"station_id":"ce4bh412rcd13ifvqdr0","pricing_plan_id":"free"},{"bike_id":"a06fd93c-ec5e-4396-9b3f-a9049bad7220","system_id":"levelo_inurba_marseille","lat":43.283494,"lon":5.380945,"is_reserved":false,"is_disabled":false,"rental_uris":{"android":"levelo://app?vid=a06fd93c-ec5e-4396-9b3f-a9049bad7220","ios":"levelo://app?vid=a06fd93c-ec5e-4396-9b3f-a9049bad7220"},"vehicle_type_id":"4","last_reported":1685320715,"current_range_meters":31200,"station_id":"ce4bh412rcd13ifvqdr0","pricing_plan_id":"free"},{"bike_id":"7f26a831-ef87-4067-ae81-e01f335dc546","system_id":"levelo_inurba_marseille","lat":43.28428,"lon":5.34989,"is_reserved":false,"is_disabled":false,"rental_uris":{"android":"levelo://app?vid=7f26a831-ef87-4067-ae81-e01f335dc546","ios":"levelo://app?vid=7f26a831-ef87-4067-ae81-e01f335dc546"},"vehicle_type_id":"4","last_reported":1685320715,"current_range_meters":30000,"station_id":"ce4bhbh2rcd13ifvqepg","pricing_plan_id":"free"},{"bike_id":"98c776fd-c938-4f15-9971-993075e1d5ff","system_id":"levelo_inurba_marseille","lat":43.28424,"lon":5.34971,"is_reserved":false,"is_disabled":false,"rental_uris":{"android":"levelo://app?vid=98c776fd-c938-4f15-9971-993075e1d5ff","ios":"levelo://app?vid=98c776fd-c938-4f15-9971-993075e1d5ff"},"vehicle_type_id":"4","last_reported":1685320715,"current_range_meters":14000,"station_id":"ce4bhbh2rcd13ifvqepg","pricing_plan_id":"free"},{"bike_id":"3bf3ee92-8050-491a-99b1-3155eaa59055","system_id":"levelo_inurba_marseille","lat":43.28416,"lon":5.34985,"is_reserved":false,"is_disabled":false,"rental_uris":{"android":"levelo://app?vid=3bf3ee92-8050-491a-99b1-3155eaa59055","ios":"levelo://app?vid=3bf3ee92-8050-491a-99b1-3155eaa59055"},"vehicle_type_id":"4","last_reported":1685320715,"current_range_meters":28800,"station_id":"ce4bhbh2rcd13ifvqepg","pricing_plan_id":"free"},{"bike_id":"30e4ecc1-eb5d-4031-8017-cee9b8104930","system_id":"levelo_inurba_marseille","lat":43.284219,"lon":5.3497,"is_reserved":false,"is_disabled":false,"rental_uris":{"android":"levelo://app?vid=30e4ecc1-eb5d-4031-8017-cee9b8104930","ios":"levelo://app?vid=30e4ecc1-eb5d-4031-8017-cee9b8104930"},"vehicle_type_id":"4","last_reported":1685320715,"current_range_meters":30800,"station_id":"ce4bhbh2rcd13ifvqepg","pricing_plan_id":"free"},{"bike_id":"c00bf755-034a-4160-914f-cd8a1035af91","system_id":"levelo_inurba_marseille","lat":43.284217,"lon":5.349697,"is_reserved":false,"is_disabled":false,"rental_uris":{"android":"levelo://app?vid=c00bf755-034a-4160-914f-cd8a1035af91","ios":"levelo://app?vid=c00bf755-034a-4160-914f-cd8a1035af91"},"vehicle_type_id":"4","last_reported":1685320715,"current_range_meters":30400,"station_id":"ce4bhbh2rcd13ifvqepg","pricing_plan_id":"free"},{"bike_id":"e27264b7-95a4-4bcc-8c63-0ac23b00ff65","system_id":"levelo_inurba_marseille","lat":43.289363,"lon":5.396322,"is_reserved":false,"is_disabled":false,"rental_uris":{"android":"levelo://app?vid=e27264b7-95a4-4bcc-8c63-0ac23b00ff65","ios":"levelo://app?vid=e27264b7-95a4-4bcc-8c63-0ac23b00ff65"},"vehicle_type_id":"4","last_reported":1685320715,"current_range_meters":17200,"station_id":"ce4bh3h2rcd13ifvqdn0","pricing_plan_id":"free"},{"bike_id":"ea9e91a8-b90f-4420-bc5e-584903b91b00","system_id":"levelo_inurba_marseille","lat":43.28924,"lon":5.39627,"is_reserved":false,"is_disabled":false,"rental_uris":{"android":"levelo://app?vid=ea9e91a8-b90f-4420-bc5e-584903b91b00","ios":"levelo://app?vid=ea9e91a8-b90f-4420-bc5e-584903b91b00"},"vehicle_type_id":"4","last_reported":1685320715,"current_range_meters":31200,"station_id":"ce4bh3h2rcd13ifvqdn0","pricing_plan_id":"free"},{"bike_id":"a43a0fdf-c9c8-493a-b655-b0ac921f2f7d","system_id":"levelo_inurba_marseille","lat":43.282754,"lon":5.350519,"is_reserved":false,"is_disabled":false,"rental_uris":{"android":"levelo://app?vid=a43a0fdf-c9c8-493a-b655-b0ac921f2f7d","ios":"levelo://app?vid=a43a0fdf-c9c8-493a-b655-b0ac921f2f7d"},"vehicle_type_id":"4","last_reported":1685320715,"current_range_meters":31200,"station_id":"ce4bhbp2rcd13ifvqerg","pricing_plan_id":"free"},{"bike_id":"34cdb162-082e-4278-aa15-493bdfb34d00","system_id":"levelo_inurba_marseille","lat":43.282744,"lon":5.350533,"is_reserved":false,"is_disabled":false,"rental_uris":{"android":"levelo://app?vid=34cdb162-082e-4278-aa15-493bdfb34d00","ios":"levelo://app?vid=34cdb162-082e-4278-aa15-493bdfb34d00"},"vehicle_type_id":"4","last_reported":1685320715,"current_range_meters":31200,"station_id":"ce4bhbp2rcd13ifvqerg","pricing_plan_id":"free"},{"bike_id":"50a35045-7c3f-4fb1-a168-d2e647281c29","system_id":"levelo_inurba_marseille","lat":43.282744,"lon":5.350533,"is_reserved":false,"is_disabled":false,"rental_uris":{"android":"levelo://app?vid=50a35045-7c3f-4fb1-a168-d2e647281c29","ios":"levelo://app?vid=50a35045-7c3f-4fb1-a168-d2e647281c29"},"vehicle_type_id":"4","last_reported":1685320715,"current_range_meters":29200,"station_id":"ce4bhbp2rcd13ifvqerg","pricing_plan_id":"free"},{"bike_id":"72972e2a-f2bb-41ef-81bc-97c0df001bda","system_id":"levelo_inurba_marseille","lat":43.283502,"lon":5.386471,"is_reserved":false,"is_disabled":false,"rental_uris":{"android":"levelo://app?vid=72972e2a-f2bb-41ef-81bc-97c0df001bda","ios":"levelo://app?vid=72972e2a-f2bb-41ef-81bc-97c0df001bda"},"vehicle_type_id":"4","last_reported":1685320715,"current_range_meters":3200,"station_id":"ce4bh492rcd13ifvqdvg","pricing_plan_id":"free"},{"bike_id":"e6d71f2f-d15c-43ef-b444-7e103a23d7ea","system_id":"levelo_inurba_marseille","lat":43.283502,"lon":5.386471,"is_reserved":false,"is_disabled":false,"rental_uris":{"android":"levelo://app?vid=e6d71f2f-d15c-43ef-b444-7e103a23d7ea","ios":"levelo://app?vid=e6d71f2f-d15c-43ef-b444-7e103a23d7ea"},"vehicle_type_id":"4","last_reported":1685320715,"current_range_meters":16400,"station_id":"ce4bh492rcd13ifvqdvg","pricing_plan_id":"free"},{"bike_id":"c6d1ac23-8830-41b5-b69a-7756f780af46","system_id":"levelo_inurba_marseille","lat":43.282754,"lon":5.350519,"is_reserved":false,"is_disabled":false,"rental_uris":{"android":"levelo://app?vid=c6d1ac23-8830-41b5-b69a-7756f780af46","ios":"levelo://app?vid=c6d1ac23-8830-41b5-b69a-7756f780af46"},"vehicle_type_id":"4","last_reported":1685320715,"current_range_meters":30400,"station_id":"ce4bhbp2rcd13ifvqerg","pricing_plan_id":"free"},{"bike_id":"af027aa5-cd0d-4466-bafe-b4f39adaf392","system_id":"levelo_inurba_marseille","lat":43.282754,"lon":5.350519,"is_reserved":false,"is_disabled":false,"rental_uris":{"android":"levelo://app?vid=af027aa5-cd0d-4466-bafe-b4f39adaf392","ios":"levelo://app?vid=af027aa5-cd0d-4466-bafe-b4f39adaf392"},"vehicle_type_id":"4","last_reported":1685320715,"current_range_meters":15200,"station_id":"ce4bhbp2rcd13ifvqerg","pricing_plan_id":"free"},{"bike_id":"3d16bb08-c848-4316-90fc-dc9586ad8d4c","system_id":"levelo_inurba_marseille","lat":43.283502,"lon":5.386471,"is_reserved":false,"is_disabled":false,"rental_uris":{"android":"levelo://app?vid=3d16bb08-c848-4316-90fc-dc9586ad8d4c","ios":"levelo://app?vid=3d16bb08-c848-4316-90fc-dc9586ad8d4c"},"vehicle_type_id":"4","last_reported":1685320715,"current_range_meters":26800,"station_id":"ce4bh492rcd13ifvqdvg","pricing_plan_id":"free"},{"bike_id":"e44bdc15-b29a-4fcd-95ba-df302725a67a","system_id":"levelo_inurba_marseille","lat":43.283502,"lon":5.386471,"is_reserved":false,"is_disabled":false,"rental_uris":{"android":"levelo://app?vid=e44bdc15-b29a-4fcd-95ba-df302725a67a","ios":"levelo://app?vid=e44bdc15-b29a-4fcd-95ba-df302725a67a"},"vehicle_type_id":"4","last_reported":1685320715,"current_range_meters":3600,"station_id":"ce4bh492rcd13ifvqdvg","pricing_plan_id":"free"},{"bike_id":"dd19a11b-34c8-4761-aaa4-479cd8533c04","system_id":"levelo_inurba_marseille","lat":43.28039,"lon":5.369297,"is_reserved":false,"is_disabled":false,"rental_uris":{"android":"levelo://app?vid=dd19a11b-34c8-4761-aaa4-479cd8533c04","ios":"levelo://app?vid=dd19a11b-34c8-4761-aaa4-479cd8533c04"},"vehicle_type_id":"4","last_reported":1685320715,"current_range_meters":12000,"station_id":"ce4bha12rcd13ifvqef0","pricing_plan_id":"free"},{"bike_id":"91da9236-6226-441c-830e-ca4782cddc41","system_id":"levelo_inurba_marseille","lat":43.281044,"lon":5.378308,"is_reserved":false,"is_disabled":false,"rental_uris":{"android":"levelo://app?vid=91da9236-6226-441c-830e-ca4782cddc41","ios":"levelo://app?vid=91da9236-6226-441c-830e-ca4782cddc41"},"vehicle_type_id":"4","last_reported":1685320715,"current_range_meters":26800,"station_id":"ce4bha12rcd13ifvqee0","pricing_plan_id":"free"},{"bike_id":"cd0a0863-7739-41b6-9a5c-6f2f8d653444","system_id":"levelo_inurba_marseille","lat":43.281044,"lon":5.378308,"is_reserved":false,"is_disabled":false,"rental_uris":{"android":"levelo://app?vid=cd0a0863-7739-41b6-9a5c-6f2f8d653444","ios":"levelo://app?vid=cd0a0863-7739-41b6-9a5c-6f2f8d653444"},"vehicle_type_id":"4","last_reported":1685320715,"current_range_meters":20000,"station_id":"ce4bha12rcd13ifvqee0","pricing_plan_id":"free"},{"bike_id":"3f9f3e5a-6c92-4292-bcff-8af523d57a5c","system_id":"levelo_inurba_marseille","lat":43.281044,"lon":5.378308,"is_reserved":false,"is_disabled":false,"rental_uris":{"android":"levelo://app?vid=3f9f3e5a-6c92-4292-bcff-8af523d57a5c","ios":"levelo://app?vid=3f9f3e5a-6c92-4292-bcff-8af523d57a5c"},"vehicle_type_id":"4","last_reported":1685320715,"current_range_meters":7600,"station_id":"ce4bha12rcd13ifvqee0","pricing_plan_id":"free"},{"bike_id":"75b20958-2073-4883-8438-9ccaa5291a6b","system_id":"levelo_inurba_marseille","lat":43.281044,"lon":5.378308,"is_reserved":false,"is_disabled":false,"rental_uris":{"android":"levelo://app?vid=75b20958-2073-4883-8438-9ccaa5291a6b","ios":"levelo://app?vid=75b20958-2073-4883-8438-9ccaa5291a6b"},"vehicle_type_id":"4","last_reported":1685320715,"current_range_meters":28400,"station_id":"ce4bha12rcd13ifvqee0","pricing_plan_id":"free"},{"bike_id":"a374af96-09e5-46e3-bb0c-f6625a483d3f","system_id":"levelo_inurba_marseille","lat":43.281044,"lon":5.378308,"is_reserved":false,"is_disabled":false,"rental_uris":{"android":"levelo://app?vid=a374af96-09e5-46e3-bb0c-f6625a483d3f","ios":"levelo://app?vid=a374af96-09e5-46e3-bb0c-f6625a483d3f"},"vehicle_type_id":"4","last_reported":1685320715,"current_range_meters":27200,"station_id":"ce4bha12rcd13ifvqee0","pricing_plan_id":"free"},{"bike_id":"01cd88de-e53b-4d6a-9e00-ebf484368ee8","system_id":"levelo_inurba_marseille","lat":43.28102,"lon":5.37832,"is_reserved":false,"is_disabled":false,"rental_uris":{"android":"levelo://app?vid=01cd88de-e53b-4d6a-9e00-ebf484368ee8","ios":"levelo://app?vid=01cd88de-e53b-4d6a-9e00-ebf484368ee8"},"vehicle_type_id":"4","last_reported":1685320715,"current_range_meters":26000,"station_id":"ce4bha12rcd13ifvqee0","pricing_plan_id":"free"},{"bike_id":"4ff6fea8-ccd4-4a71-b29a-e211fa884a27","system_id":"levelo_inurba_marseille","lat":43.281044,"lon":5.378308,"is_reserved":false,"is_disabled":false,"rental_uris":{"android":"levelo://app?vid=4ff6fea8-ccd4-4a71-b29a-e211fa884a27","ios":"levelo://app?vid=4ff6fea8-ccd4-4a71-b29a-e211fa884a27"},"vehicle_type_id":"4","last_reported":1685320715,"current_range_meters":26000,"station_id":"ce4bha12rcd13ifvqee0","pricing_plan_id":"free"},{"bike_id":"9928e20b-0c7b-4a0b-9d84-76d8982997f7","system_id":"levelo_inurba_marseille","lat":43.296263,"lon":5.40601,"is_reserved":false,"is_disabled":false,"rental_uris":{"android":"levelo://app?vid=9928e20b-0c7b-4a0b-9d84-76d8982997f7","ios":"levelo://app?vid=9928e20b-0c7b-4a0b-9d84-76d8982997f7"},"vehicle_type_id":"4","last_reported":1685320715,"current_range_meters":31200,"station_id":"ce4bh0h2rcd13ifvqd60","pricing_plan_id":"free"},{"bike_id":"e7c6120c-71bd-4795-a28b-2feb5d3f7ecb","system_id":"levelo_inurba_marseille","lat":43.296263,"lon":5.40601,"is_reserved":false,"is_disabled":false,"rental_uris":{"android":"levelo://app?vid=e7c6120c-71bd-4795-a28b-2feb5d3f7ecb","ios":"levelo://app?vid=e7c6120c-71bd-4795-a28b-2feb5d3f7ecb"},"vehicle_type_id":"4","last_reported":1685320715,"current_range_meters":0,"station_id":"ce4bh0h2rcd13ifvqd60","pricing_plan_id":"free"},{"bike_id":"5adf8d26-e7a7-4481-a644-23b4cc08e646","system_id":"levelo_inurba_marseille","lat":43.296263,"lon":5.40601,"is_reserved":false,"is_disabled":false,"rental_uris":{"android":"levelo://app?vid=5adf8d26-e7a7-4481-a644-23b4cc08e646","ios":"levelo://app?vid=5adf8d26-e7a7-4481-a644-23b4cc08e646"},"vehicle_type_id":"4","last_reported":1685320715,"current_range_meters":17200,"station_id":"ce4bh0h2rcd13ifvqd60","pricing_plan_id":"free"},{"bike_id":"48cdf7cb-da73-4c99-8df5-f0c860ca97d1","system_id":"levelo_inurba_marseille","lat":43.28573,"lon":5.394992,"is_reserved":false,"is_disabled":false,"rental_uris":{"android":"levelo://app?vid=48cdf7cb-da73-4c99-8df5-f0c860ca97d1","ios":"levelo://app?vid=48cdf7cb-da73-4c99-8df5-f0c860ca97d1"},"vehicle_type_id":"4","last_reported":1685320715,"current_range_meters":27200,"station_id":"ce4bh292rcd13ifvqdg0","pricing_plan_id":"free"},{"bike_id":"e548e35c-a076-454f-bd89-45d972833809","system_id":"levelo_inurba_marseille","lat":43.28573,"lon":5.394992,"is_reserved":false,"is_disabled":false,"rental_uris":{"android":"levelo://app?vid=e548e35c-a076-454f-bd89-45d972833809","ios":"levelo://app?vid=e548e35c-a076-454f-bd89-45d972833809"},"vehicle_type_id":"4","last_reported":1685320715,"current_range_meters":28400,"station_id":"ce4bh292rcd13ifvqdg0","pricing_plan_id":"free"},{"bike_id":"84fb31e2-fa2f-49a4-8473-1c7be801f3df","system_id":"levelo_inurba_marseille","lat":43.285742,"lon":5.395004,"is_reserved":false,"is_disabled":false,"rental_uris":{"android":"levelo://app?vid=84fb31e2-fa2f-49a4-8473-1c7be801f3df","ios":"levelo://app?vid=84fb31e2-fa2f-49a4-8473-1c7be801f3df"},"vehicle_type_id":"4","last_reported":1685320715,"current_range_meters":31200,"station_id":"ce4bh292rcd13ifvqdg0","pricing_plan_id":"free"},{"bike_id":"36dd5ff4-386e-42ed-a89f-d10865188b93","system_id":"levelo_inurba_marseille","lat":43.287154,"lon":5.399979,"is_reserved":false,"is_disabled":false,"rental_uris":{"android":"levelo://app?vid=36dd5ff4-386e-42ed-a89f-d10865188b93","ios":"levelo://app?vid=36dd5ff4-386e-42ed-a89f-d10865188b93"},"vehicle_type_id":"4","last_reported":1685320715,"current_range_meters":31200,"station_id":"ce4bho92rcd13ifvqh3g","pricing_plan_id":"free"},{"bike_id":"99df6d79-90f8-4014-ac51-4a8af542dc33","system_id":"levelo_inurba_marseille","lat":43.287154,"lon":5.399979,"is_reserved":false,"is_disabled":false,"rental_uris":{"android":"levelo://app?vid=99df6d79-90f8-4014-ac51-4a8af542dc33","ios":"levelo://app?vid=99df6d79-90f8-4014-ac51-4a8af542dc33"},"vehicle_type_id":"4","last_reported":1685320715,"current_range_meters":31200,"station_id":"ce4bho92rcd13ifvqh3g","pricing_plan_id":"free"},{"bike_id":"23bc9113-7a05-451f-934f-04eaef850e70","system_id":"levelo_inurba_marseille","lat":43.287154,"lon":5.399979,"is_reserved":false,"is_disabled":false,"rental_uris":{"android":"levelo://app?vid=23bc9113-7a05-451f-934f-04eaef850e70","ios":"levelo://app?vid=23bc9113-7a05-451f-934f-04eaef850e70"},"vehicle_type_id":"4","last_reported":1685320715,"current_range_meters":0,"station_id":"ce4bho92rcd13ifvqh3g","pricing_plan_id":"free"},{"bike_id":"c689499c-895a-4aae-b360-8cc3c099eb56","system_id":"levelo_inurba_marseille","lat":43.287154,"lon":5.399979,"is_reserved":false,"is_disabled":false,"rental_uris":{"android":"levelo://app?vid=c689499c-895a-4aae-b360-8cc3c099eb56","ios":"levelo://app?vid=c689499c-895a-4aae-b360-8cc3c099eb56"},"vehicle_type_id":"4","last_reported":1685320715,"current_range_meters":18000,"station_id":"ce4bho92rcd13ifvqh3g","pricing_plan_id":"free"},{"bike_id":"970f3cd1-3d58-476f-a521-b9dca6e24829","system_id":"levelo_inurba_marseille","lat":43.287154,"lon":5.399979,"is_reserved":false,"is_disabled":false,"rental_uris":{"android":"levelo://app?vid=970f3cd1-3d58-476f-a521-b9dca6e24829","ios":"levelo://app?vid=970f3cd1-3d58-476f-a521-b9dca6e24829"},"vehicle_type_id":"4","last_reported":1685320715,"current_range_meters":31200,"station_id":"ce4bho92rcd13ifvqh3g","pricing_plan_id":"free"},{"bike_id":"998f9162-3146-45d4-8743-2dd547c43873","system_id":"levelo_inurba_marseille","lat":43.287154,"lon":5.399979,"is_reserved":false,"is_disabled":false,"rental_uris":{"android":"levelo://app?vid=998f9162-3146-45d4-8743-2dd547c43873","ios":"levelo://app?vid=998f9162-3146-45d4-8743-2dd547c43873"},"vehicle_type_id":"4","last_reported":1685320715,"current_range_meters":6400,"station_id":"ce4bho92rcd13ifvqh3g","pricing_plan_id":"free"},{"bike_id":"23770266-7990-4210-b424-f8fab1d87695","system_id":"levelo_inurba_marseille","lat":43.287154,"lon":5.399979,"is_reserved":false,"is_disabled":false,"rental_uris":{"android":"levelo://app?vid=23770266-7990-4210-b424-f8fab1d87695","ios":"levelo://app?vid=23770266-7990-4210-b424-f8fab1d87695"},"vehicle_type_id":"4","last_reported":1685320715,"current_range_meters":31200,"station_id":"ce4bho92rcd13ifvqh3g","pricing_plan_id":"free"},{"bike_id":"63154aa4-9c47-4f7b-9726-f6059684ab53","system_id":"levelo_inurba_marseille","lat":43.287154,"lon":5.399979,"is_reserved":false,"is_disabled":false,"rental_uris":{"android":"levelo://app?vid=63154aa4-9c47-4f7b-9726-f6059684ab53","ios":"levelo://app?vid=63154aa4-9c47-4f7b-9726-f6059684ab53"},"vehicle_type_id":"4","last_reported":1685320715,"current_range_meters":14000,"station_id":"ce4bho92rcd13ifvqh3g","pricing_plan_id":"free"},{"bike_id":"390f9524-41d4-46fe-a23c-2d49e82040b2","system_id":"levelo_inurba_marseille","lat":43.287154,"lon":5.399979,"is_reserved":false,"is_disabled":false,"rental_uris":{"android":"levelo://app?vid=390f9524-41d4-46fe-a23c-2d49e82040b2","ios":"levelo://app?vid=390f9524-41d4-46fe-a23c-2d49e82040b2"},"vehicle_type_id":"4","last_reported":1685320715,"current_range_meters":26800,"station_id":"ce4bho92rcd13ifvqh3g","pricing_plan_id":"free"},{"bike_id":"6f9455fa-4713-4e42-85f5-88de30e099ed","system_id":"levelo_inurba_marseille","lat":43.287154,"lon":5.399979,"is_reserved":false,"is_disabled":false,"rental_uris":{"android":"levelo://app?vid=6f9455fa-4713-4e42-85f5-88de30e099ed","ios":"levelo://app?vid=6f9455fa-4713-4e42-85f5-88de30e099ed"},"vehicle_type_id":"4","last_reported":1685320715,"current_range_meters":5600,"station_id":"ce4bho92rcd13ifvqh3g","pricing_plan_id":"free"},{"bike_id":"133306e4-864e-4bb3-be4f-b8d95d51eac1","system_id":"levelo_inurba_marseille","lat":43.287154,"lon":5.399979,"is_reserved":false,"is_disabled":false,"rental_uris":{"android":"levelo://app?vid=133306e4-864e-4bb3-be4f-b8d95d51eac1","ios":"levelo://app?vid=133306e4-864e-4bb3-be4f-b8d95d51eac1"},"vehicle_type_id":"4","last_reported":1685320715,"current_range_meters":28800,"station_id":"ce4bho92rcd13ifvqh3g","pricing_plan_id":"free"},{"bike_id":"db1489de-a7c4-4c0f-8abf-73d0898bb77a","system_id":"levelo_inurba_marseille","lat":43.28168,"lon":5.39169,"is_reserved":false,"is_disabled":false,"rental_uris":{"android":"levelo://app?vid=db1489de-a7c4-4c0f-8abf-73d0898bb77a","ios":"levelo://app?vid=db1489de-a7c4-4c0f-8abf-73d0898bb77a"},"vehicle_type_id":"4","last_reported":1685320715,"current_range_meters":16400,"station_id":"","pricing_plan_id":"free"},{"bike_id":"748e0dac-e065-4177-beb9-45e4c03eb474","system_id":"levelo_inurba_marseille","lat":43.320045,"lon":5.415048,"is_reserved":false,"is_disabled":false,"rental_uris":{"android":"levelo://app?vid=748e0dac-e065-4177-beb9-45e4c03eb474","ios":"levelo://app?vid=748e0dac-e065-4177-beb9-45e4c03eb474"},"vehicle_type_id":"4","last_reported":1685320715,"current_range_meters":31200,"station_id":"ce4bhq92rcd13ifvqhkg","pricing_plan_id":"free"},{"bike_id":"78e88be0-780c-4711-af38-bc1e137d7217","system_id":"levelo_inurba_marseille","lat":43.325233,"lon":5.414318,"is_reserved":false,"is_disabled":false,"rental_uris":{"android":"levelo://app?vid=78e88be0-780c-4711-af38-bc1e137d7217","ios":"levelo://app?vid=78e88be0-780c-4711-af38-bc1e137d7217"},"vehicle_type_id":"4","last_reported":1685320715,"current_range_meters":27200,"station_id":"ce4bhq12rcd13ifvqhhg","pricing_plan_id":"free"},{"bike_id":"2bbc821f-0a6e-430f-b791-7bbf753873f5","system_id":"levelo_inurba_marseille","lat":43.292571,"lon":5.409107,"is_reserved":false,"is_disabled":false,"rental_uris":{"android":"levelo://app?vid=2bbc821f-0a6e-430f-b791-7bbf753873f5","ios":"levelo://app?vid=2bbc821f-0a6e-430f-b791-7bbf753873f5"},"vehicle_type_id":"4","last_reported":1685320715,"current_range_meters":28000,"station_id":"ce4bh192rcd13ifvqdc0","pricing_plan_id":"free"},{"bike_id":"2c73e87b-3c7d-4ba3-8edf-648242e62e06","system_id":"levelo_inurba_marseille","lat":43.292571,"lon":5.409107,"is_reserved":false,"is_disabled":false,"rental_uris":{"android":"levelo://app?vid=2c73e87b-3c7d-4ba3-8edf-648242e62e06","ios":"levelo://app?vid=2c73e87b-3c7d-4ba3-8edf-648242e62e06"},"vehicle_type_id":"4","last_reported":1685320715,"current_range_meters":26000,"station_id":"ce4bh192rcd13ifvqdc0","pricing_plan_id":"free"},{"bike_id":"64fd907c-88bf-49df-9845-471e50783e7c","system_id":"levelo_inurba_marseille","lat":43.292571,"lon":5.409107,"is_reserved":false,"is_disabled":false,"rental_uris":{"android":"levelo://app?vid=64fd907c-88bf-49df-9845-471e50783e7c","ios":"levelo://app?vid=64fd907c-88bf-49df-9845-471e50783e7c"},"vehicle_type_id":"4","last_reported":1685320715,"current_range_meters":31200,"station_id":"ce4bh192rcd13ifvqdc0","pricing_plan_id":"free"},{"bike_id":"3829f4c2-3a0c-4168-8fb8-ee280339bd4b","system_id":"levelo_inurba_marseille","lat":43.292571,"lon":5.409107,"is_reserved":false,"is_disabled":false,"rental_uris":{"android":"levelo://app?vid=3829f4c2-3a0c-4168-8fb8-ee280339bd4b","ios":"levelo://app?vid=3829f4c2-3a0c-4168-8fb8-ee280339bd4b"},"vehicle_type_id":"4","last_reported":1685320715,"current_range_meters":25200,"station_id":"ce4bh192rcd13ifvqdc0","pricing_plan_id":"free"},{"bike_id":"448e1e79-7a00-445f-9439-0c43795fce70","system_id":"levelo_inurba_marseille","lat":43.27608,"lon":5.36114,"is_reserved":false,"is_disabled":false,"rental_uris":{"android":"levelo://app?vid=448e1e79-7a00-445f-9439-0c43795fce70","ios":"levelo://app?vid=448e1e79-7a00-445f-9439-0c43795fce70"},"vehicle_type_id":"4","last_reported":1685320715,"current_range_meters":0,"station_id":"ce4bgj92rcd13ifvqbe0","pricing_plan_id":"free"},{"bike_id":"4d2ddf16-48e5-426b-9f49-7a83729058bc","system_id":"levelo_inurba_marseille","lat":43.28079,"lon":5.396664,"is_reserved":false,"is_disabled":false,"rental_uris":{"android":"levelo://app?vid=4d2ddf16-48e5-426b-9f49-7a83729058bc","ios":"levelo://app?vid=4d2ddf16-48e5-426b-9f49-7a83729058bc"},"vehicle_type_id":"4","last_reported":1685320715,"current_range_meters":1200,"station_id":"ce4bhgp2rcd13ifvqfc0","pricing_plan_id":"free"},{"bike_id":"4259c7a8-2047-47f0-a04d-85b77cbb35d0","system_id":"levelo_inurba_marseille","lat":43.30352,"lon":5.4187,"is_reserved":false,"is_disabled":false,"rental_uris":{"android":"levelo://app?vid=4259c7a8-2047-47f0-a04d-85b77cbb35d0","ios":"levelo://app?vid=4259c7a8-2047-47f0-a04d-85b77cbb35d0"},"vehicle_type_id":"4","last_reported":1685320715,"current_range_meters":24000,"station_id":"","pricing_plan_id":"free"},{"bike_id":"665abfef-ab1f-44f2-bbdc-794943aed85f","system_id":"levelo_inurba_marseille","lat":43.30355,"lon":5.41877,"is_reserved":false,"is_disabled":false,"rental_uris":{"android":"levelo://app?vid=665abfef-ab1f-44f2-bbdc-794943aed85f","ios":"levelo://app?vid=665abfef-ab1f-44f2-bbdc-794943aed85f"},"vehicle_type_id":"4","last_reported":1685320715,"current_range_meters":22400,"station_id":"","pricing_plan_id":"free"},{"bike_id":"2587def3-935d-46ed-8569-26a66756b1f2","system_id":"levelo_inurba_marseille","lat":43.33612,"lon":5.410321,"is_reserved":false,"is_disabled":false,"rental_uris":{"android":"levelo://app?vid=2587def3-935d-46ed-8569-26a66756b1f2","ios":"levelo://app?vid=2587def3-935d-46ed-8569-26a66756b1f2"},"vehicle_type_id":"4","last_reported":1685320715,"current_range_meters":14000,"station_id":"ce4bhqh2rcd13ifvqhmg","pricing_plan_id":"free"},{"bike_id":"91b49189-18df-431a-bbbf-f0b2350181de","system_id":"levelo_inurba_marseille","lat":43.28412,"lon":5.40784,"is_reserved":false,"is_disabled":false,"rental_uris":{"android":"levelo://app?vid=91b49189-18df-431a-bbbf-f0b2350181de","ios":"levelo://app?vid=91b49189-18df-431a-bbbf-f0b2350181de"},"vehicle_type_id":"4","last_reported":1685320715,"current_range_meters":5200,"station_id":"","pricing_plan_id":"free"},{"bike_id":"af87fe2d-3f05-48af-a0eb-8b91327b7b5c","system_id":"levelo_inurba_marseille","lat":43.317121,"lon":5.423936,"is_reserved":false,"is_disabled":false,"rental_uris":{"android":"levelo://app?vid=af87fe2d-3f05-48af-a0eb-8b91327b7b5c","ios":"levelo://app?vid=af87fe2d-3f05-48af-a0eb-8b91327b7b5c"},"vehicle_type_id":"4","last_reported":1685320715,"current_range_meters":22800,"station_id":"ce4bhp92rcd13ifvqhbg","pricing_plan_id":"free"},{"bike_id":"cc1cc54e-1a9a-49f4-a8bd-07697f28e60a","system_id":"levelo_inurba_marseille","lat":43.317121,"lon":5.423936,"is_reserved":false,"is_disabled":false,"rental_uris":{"android":"levelo://app?vid=cc1cc54e-1a9a-49f4-a8bd-07697f28e60a","ios":"levelo://app?vid=cc1cc54e-1a9a-49f4-a8bd-07697f28e60a"},"vehicle_type_id":"4","last_reported":1685320715,"current_range_meters":25600,"station_id":"ce4bhp92rcd13ifvqhbg","pricing_plan_id":"free"},{"bike_id":"6b586849-4cb2-4f0c-a6d8-7549b3a03b77","system_id":"levelo_inurba_marseille","lat":43.310785,"lon":5.424305,"is_reserved":false,"is_disabled":false,"rental_uris":{"android":"levelo://app?vid=6b586849-4cb2-4f0c-a6d8-7549b3a03b77","ios":"levelo://app?vid=6b586849-4cb2-4f0c-a6d8-7549b3a03b77"},"vehicle_type_id":"4","last_reported":1685320715,"current_range_meters":22400,"station_id":"ce4bhp92rcd13ifvqhag","pricing_plan_id":"free"},{"bike_id":"7c6a7675-72d6-4d71-95ad-6dcc0cbf4ce3","system_id":"levelo_inurba_marseille","lat":43.273129,"lon":5.390725,"is_reserved":false,"is_disabled":false,"rental_uris":{"android":"levelo://app?vid=7c6a7675-72d6-4d71-95ad-6dcc0cbf4ce3","ios":"levelo://app?vid=7c6a7675-72d6-4d71-95ad-6dcc0cbf4ce3"},"vehicle_type_id":"4","last_reported":1685320715,"current_range_meters":26800,"station_id":"ce4bhgp2rcd13ifvqfe0","pricing_plan_id":"free"},{"bike_id":"61975327-2901-4c46-99c0-45dcaddab9b1","system_id":"levelo_inurba_marseille","lat":43.2731,"lon":5.39084,"is_reserved":false,"is_disabled":false,"rental_uris":{"android":"levelo://app?vid=61975327-2901-4c46-99c0-45dcaddab9b1","ios":"levelo://app?vid=61975327-2901-4c46-99c0-45dcaddab9b1"},"vehicle_type_id":"4","last_reported":1685320715,"current_range_meters":0,"station_id":"ce4bhgp2rcd13ifvqfe0","pricing_plan_id":"free"},{"bike_id":"29dd7db9-268d-4e11-9de5-f9528bcd0c2c","system_id":"levelo_inurba_marseille","lat":43.295511,"lon":5.422926,"is_reserved":false,"is_disabled":false,"rental_uris":{"android":"levelo://app?vid=29dd7db9-268d-4e11-9de5-f9528bcd0c2c","ios":"levelo://app?vid=29dd7db9-268d-4e11-9de5-f9528bcd0c2c"},"vehicle_type_id":"4","last_reported":1685320715,"current_range_meters":31200,"station_id":"ce4bhph2rcd13ifvqhdg","pricing_plan_id":"free"},{"bike_id":"d7edb3f7-2835-4cf2-afc5-0c212fb31f47","system_id":"levelo_inurba_marseille","lat":43.295511,"lon":5.422926,"is_reserved":false,"is_disabled":false,"rental_uris":{"android":"levelo://app?vid=d7edb3f7-2835-4cf2-afc5-0c212fb31f47","ios":"levelo://app?vid=d7edb3f7-2835-4cf2-afc5-0c212fb31f47"},"vehicle_type_id":"4","last_reported":1685320715,"current_range_meters":31200,"station_id":"ce4bhph2rcd13ifvqhdg","pricing_plan_id":"free"},{"bike_id":"a429b482-454d-4125-b3ab-2aedb91094d1","system_id":"levelo_inurba_marseille","lat":43.295511,"lon":5.422926,"is_reserved":false,"is_disabled":false,"rental_uris":{"android":"levelo://app?vid=a429b482-454d-4125-b3ab-2aedb91094d1","ios":"levelo://app?vid=a429b482-454d-4125-b3ab-2aedb91094d1"},"vehicle_type_id":"4","last_reported":1685320715,"current_range_meters":30800,"station_id":"ce4bhph2rcd13ifvqhdg","pricing_plan_id":"free"},{"bike_id":"e245164f-83c5-43ba-ade1-4dae3fdc976a","system_id":"levelo_inurba_marseille","lat":43.27212,"lon":5.39182,"is_reserved":false,"is_disabled":false,"rental_uris":{"android":"levelo://app?vid=e245164f-83c5-43ba-ade1-4dae3fdc976a","ios":"levelo://app?vid=e245164f-83c5-43ba-ade1-4dae3fdc976a"},"vehicle_type_id":"4","last_reported":1685320715,"current_range_meters":14000,"station_id":"ce4bhhp2rcd13ifvqfm0","pricing_plan_id":"free"},{"bike_id":"c104644d-2d22-412e-896f-c2a46962ad06","system_id":"levelo_inurba_marseille","lat":43.278128,"lon":5.407195,"is_reserved":false,"is_disabled":false,"rental_uris":{"android":"levelo://app?vid=c104644d-2d22-412e-896f-c2a46962ad06","ios":"levelo://app?vid=c104644d-2d22-412e-896f-c2a46962ad06"},"vehicle_type_id":"4","last_reported":1685320715,"current_range_meters":24400,"station_id":"ce4bhnh2rcd13ifvqgtg","pricing_plan_id":"free"},{"bike_id":"68e87034-1075-470d-8d18-7ebbc411a4a8","system_id":"levelo_inurba_marseille","lat":43.278128,"lon":5.407195,"is_reserved":false,"is_disabled":false,"rental_uris":{"android":"levelo://app?vid=68e87034-1075-470d-8d18-7ebbc411a4a8","ios":"levelo://app?vid=68e87034-1075-470d-8d18-7ebbc411a4a8"},"vehicle_type_id":"4","last_reported":1685320715,"current_range_meters":24800,"station_id":"ce4bhnh2rcd13ifvqgtg","pricing_plan_id":"free"},{"bike_id":"ddc95760-a116-4496-99dd-97b4da3c060e","system_id":"levelo_inurba_marseille","lat":43.27816,"lon":5.40721,"is_reserved":false,"is_disabled":false,"rental_uris":{"android":"levelo://app?vid=ddc95760-a116-4496-99dd-97b4da3c060e","ios":"levelo://app?vid=ddc95760-a116-4496-99dd-97b4da3c060e"},"vehicle_type_id":"4","last_reported":1685320715,"current_range_meters":0,"station_id":"ce4bhnh2rcd13ifvqgtg","pricing_plan_id":"free"},{"bike_id":"40f553e7-823f-4344-bcb8-8340695ea6f6","system_id":"levelo_inurba_marseille","lat":43.269467,"lon":5.386439,"is_reserved":false,"is_disabled":false,"rental_uris":{"android":"levelo://app?vid=40f553e7-823f-4344-bcb8-8340695ea6f6","ios":"levelo://app?vid=40f553e7-823f-4344-bcb8-8340695ea6f6"},"vehicle_type_id":"4","last_reported":1685320715,"current_range_meters":9200,"station_id":"ce4bhh92rcd13ifvqfh0","pricing_plan_id":"free"},{"bike_id":"2cae4b29-7a7e-4cb5-8d25-aebd4cf71995","system_id":"levelo_inurba_marseille","lat":43.26561,"lon":5.37282,"is_reserved":false,"is_disabled":false,"rental_uris":{"android":"levelo://app?vid=2cae4b29-7a7e-4cb5-8d25-aebd4cf71995","ios":"levelo://app?vid=2cae4b29-7a7e-4cb5-8d25-aebd4cf71995"},"vehicle_type_id":"4","last_reported":1685320715,"current_range_meters":31200,"station_id":"ce4bhg12rcd13ifvqf70","pricing_plan_id":"free"},{"bike_id":"28073e52-8ac4-4b0d-83e6-dfcd5ef1bc4d","system_id":"levelo_inurba_marseille","lat":43.26559,"lon":5.37286,"is_reserved":false,"is_disabled":false,"rental_uris":{"android":"levelo://app?vid=28073e52-8ac4-4b0d-83e6-dfcd5ef1bc4d","ios":"levelo://app?vid=28073e52-8ac4-4b0d-83e6-dfcd5ef1bc4d"},"vehicle_type_id":"4","last_reported":1685320715,"current_range_meters":30800,"station_id":"ce4bhg12rcd13ifvqf70","pricing_plan_id":"free"},{"bike_id":"be43125f-3f29-4d6f-ada1-c2763dce5d88","system_id":"levelo_inurba_marseille","lat":43.26558,"lon":5.37282,"is_reserved":false,"is_disabled":false,"rental_uris":{"android":"levelo://app?vid=be43125f-3f29-4d6f-ada1-c2763dce5d88","ios":"levelo://app?vid=be43125f-3f29-4d6f-ada1-c2763dce5d88"},"vehicle_type_id":"4","last_reported":1685320715,"current_range_meters":25600,"station_id":"ce4bhg12rcd13ifvqf70","pricing_plan_id":"free"},{"bike_id":"31bcb8cb-f88d-4dcb-afba-ff381599bc09","system_id":"levelo_inurba_marseille","lat":43.26557,"lon":5.37287,"is_reserved":false,"is_disabled":false,"rental_uris":{"android":"levelo://app?vid=31bcb8cb-f88d-4dcb-afba-ff381599bc09","ios":"levelo://app?vid=31bcb8cb-f88d-4dcb-afba-ff381599bc09"},"vehicle_type_id":"4","last_reported":1685320715,"current_range_meters":31200,"station_id":"ce4bhg12rcd13ifvqf70","pricing_plan_id":"free"},{"bike_id":"f88b15eb-46a9-479d-adc4-6b398ea95550","system_id":"levelo_inurba_marseille","lat":43.26557,"lon":5.37291,"is_reserved":false,"is_disabled":false,"rental_uris":{"android":"levelo://app?vid=f88b15eb-46a9-479d-adc4-6b398ea95550","ios":"levelo://app?vid=f88b15eb-46a9-479d-adc4-6b398ea95550"},"vehicle_type_id":"4","last_reported":1685320715,"current_range_meters":29200,"station_id":"ce4bhg12rcd13ifvqf70","pricing_plan_id":"free"},{"bike_id":"d7ee2f9c-8283-4bfd-9a47-7b5c8f60fcae","system_id":"levelo_inurba_marseille","lat":43.26556,"lon":5.37283,"is_reserved":false,"is_disabled":false,"rental_uris":{"android":"levelo://app?vid=d7ee2f9c-8283-4bfd-9a47-7b5c8f60fcae","ios":"levelo://app?vid=d7ee2f9c-8283-4bfd-9a47-7b5c8f60fcae"},"vehicle_type_id":"4","last_reported":1685320715,"current_range_meters":31200,"station_id":"ce4bhg12rcd13ifvqf70","pricing_plan_id":"free"},{"bike_id":"803318ce-54db-4e25-82d9-95ac7ada0872","system_id":"levelo_inurba_marseille","lat":43.26556,"lon":5.37283,"is_reserved":false,"is_disabled":false,"rental_uris":{"android":"levelo://app?vid=803318ce-54db-4e25-82d9-95ac7ada0872","ios":"levelo://app?vid=803318ce-54db-4e25-82d9-95ac7ada0872"},"vehicle_type_id":"4","last_reported":1685320715,"current_range_meters":31200,"station_id":"ce4bhg12rcd13ifvqf70","pricing_plan_id":"free"},{"bike_id":"1ec20cc1-7363-4af0-a4b4-2ec760666506","system_id":"levelo_inurba_marseille","lat":43.265714,"lon":5.372891,"is_reserved":false,"is_disabled":false,"rental_uris":{"android":"levelo://app?vid=1ec20cc1-7363-4af0-a4b4-2ec760666506","ios":"levelo://app?vid=1ec20cc1-7363-4af0-a4b4-2ec760666506"},"vehicle_type_id":"4","last_reported":1685320715,"current_range_meters":31200,"station_id":"ce4bhg12rcd13ifvqf70","pricing_plan_id":"free"},{"bike_id":"3b55b5f7-29d4-42d7-97a3-c1e0b9ec0299","system_id":"levelo_inurba_marseille","lat":43.26555,"lon":5.37287,"is_reserved":false,"is_disabled":false,"rental_uris":{"android":"levelo://app?vid=3b55b5f7-29d4-42d7-97a3-c1e0b9ec0299","ios":"levelo://app?vid=3b55b5f7-29d4-42d7-97a3-c1e0b9ec0299"},"vehicle_type_id":"4","last_reported":1685320715,"current_range_meters":30000,"station_id":"ce4bhg12rcd13ifvqf70","pricing_plan_id":"free"},{"bike_id":"2d19076d-258b-4fc1-9595-d920cadf31bc","system_id":"levelo_inurba_marseille","lat":43.26555,"lon":5.37288,"is_reserved":false,"is_disabled":false,"rental_uris":{"android":"levelo://app?vid=2d19076d-258b-4fc1-9595-d920cadf31bc","ios":"levelo://app?vid=2d19076d-258b-4fc1-9595-d920cadf31bc"},"vehicle_type_id":"4","last_reported":1685320715,"current_range_meters":30000,"station_id":"ce4bhg12rcd13ifvqf70","pricing_plan_id":"free"},{"bike_id":"2e384398-46fa-4142-be73-294f1eadc40e","system_id":"levelo_inurba_marseille","lat":43.26681,"lon":5.382694,"is_reserved":false,"is_disabled":false,"rental_uris":{"android":"levelo://app?vid=2e384398-46fa-4142-be73-294f1eadc40e","ios":"levelo://app?vid=2e384398-46fa-4142-be73-294f1eadc40e"},"vehicle_type_id":"4","last_reported":1685320715,"current_range_meters":20400,"station_id":"ce4bhg92rcd13ifvqf90","pricing_plan_id":"free"},{"bike_id":"77210880-b717-4f38-a8cf-aeabbf781fda","system_id":"levelo_inurba_marseille","lat":43.26554,"lon":5.37288,"is_reserved":false,"is_disabled":false,"rental_uris":{"android":"levelo://app?vid=77210880-b717-4f38-a8cf-aeabbf781fda","ios":"levelo://app?vid=77210880-b717-4f38-a8cf-aeabbf781fda"},"vehicle_type_id":"4","last_reported":1685320715,"current_range_meters":31200,"station_id":"ce4bhg12rcd13ifvqf70","pricing_plan_id":"free"},{"bike_id":"1b06b6f6-af38-4173-b3a5-24403279085c","system_id":"levelo_inurba_marseille","lat":43.26553,"lon":5.37288,"is_reserved":false,"is_disabled":false,"rental_uris":{"android":"levelo://app?vid=1b06b6f6-af38-4173-b3a5-24403279085c","ios":"levelo://app?vid=1b06b6f6-af38-4173-b3a5-24403279085c"},"vehicle_type_id":"4","last_reported":1685320715,"current_range_meters":31200,"station_id":"ce4bhg12rcd13ifvqf70","pricing_plan_id":"free"},{"bike_id":"bb2f3b38-dbf8-4225-8c84-77ba430b9a58","system_id":"levelo_inurba_marseille","lat":43.26553,"lon":5.37294,"is_reserved":false,"is_disabled":false,"rental_uris":{"android":"levelo://app?vid=bb2f3b38-dbf8-4225-8c84-77ba430b9a58","ios":"levelo://app?vid=bb2f3b38-dbf8-4225-8c84-77ba430b9a58"},"vehicle_type_id":"4","last_reported":1685320715,"current_range_meters":31200,"station_id":"ce4bhg12rcd13ifvqf70","pricing_plan_id":"free"},{"bike_id":"d349e231-4e57-48f1-a7e1-e9a34b4f0d3f","system_id":"levelo_inurba_marseille","lat":43.26552,"lon":5.37284,"is_reserved":false,"is_disabled":false,"rental_uris":{"android":"levelo://app?vid=d349e231-4e57-48f1-a7e1-e9a34b4f0d3f","ios":"levelo://app?vid=d349e231-4e57-48f1-a7e1-e9a34b4f0d3f"},"vehicle_type_id":"4","last_reported":1685320715,"current_range_meters":31200,"station_id":"ce4bhg12rcd13ifvqf70","pricing_plan_id":"free"},{"bike_id":"412a78e7-67c9-4913-b579-0d1d59463a20","system_id":"levelo_inurba_marseille","lat":43.26552,"lon":5.37286,"is_reserved":false,"is_disabled":false,"rental_uris":{"android":"levelo://app?vid=412a78e7-67c9-4913-b579-0d1d59463a20","ios":"levelo://app?vid=412a78e7-67c9-4913-b579-0d1d59463a20"},"vehicle_type_id":"4","last_reported":1685320715,"current_range_meters":22800,"station_id":"ce4bhg12rcd13ifvqf70","pricing_plan_id":"free"},