{"last_updated":1713334325,"ttl":30,"version":"2.2","data":{"bikes":[{"bike_id":"3d6be93c-8ae6-453b-93a7-67bd16b27df2","system_id":"levelo_inurba_marseille","lat":43.31341,"lon":5.367098,"is_reserved":false,"is_disabled":false,"rental_uris":{"android":"levelo://app?vid=3d6be93c-8ae6-453b-93a7-67bd16b27df2","ios":"levelo://app?vid=3d6be93c-8ae6-453b-93a7-67bd16b27df2"},"vehicle_type_id":"4","last_reported":1713334325,"current_range_meters":25200,"station_id":"ce4bgr92rcd13ifvqc6g","pricing_plan_id":"cebpf4jnsgd1na2vs0mg"},{"bike_id":"55febb4d-eab8-4ea0-9774-883971d95117","system_id":"levelo_inurba_marseille","lat":43.31341,"lon":5.367098,"is_reserved":false,"is_disabled":false,"rental_uris":{"android":"levelo://app?vid=55febb4d-eab8-4ea0-9774-883971d95117","ios":"levelo://app?vid=55febb4d-eab8-4ea0-9774-883971d95117"},"vehicle_type_id":"4","last_reported":1713334325,"current_range_meters":28400,"station_id":"ce4bgr92rcd13ifvqc6g","pricing_plan_id":"cebpf4jnsgd1na2vs0mg"},{"bike_id":"fdd994b4-4eb4-40b8-b16a-cc186d63ef02","system_id":"levelo_inurba_marseille","lat":43.313391,"lon":5.36706,"is_reserved":false,"is_disabled":false,"rental_uris":{"android":"levelo://app?vid=fdd994b4-4eb4-40b8-b16a-cc186d63ef02","ios":"levelo://app?vid=fdd994b4-4eb4-40b8-b16a-cc186d63ef02"},"vehicle_type_id":"4","last_reported":1713334325,"current_range_meters":25600,"station_id":"ce4bgr92rcd13ifvqc6g","pricing_plan_id":"cebpf4jnsgd1na2vs0mg"},{"bike_id":"3c768bd8-1e46-4403-a36f-417c8d45861b","system_id":"levelo_inurba_marseille","lat":43.313391,"lon":5.36706,"is_reserved":false,"is_disabled":false,"rental_uris":{"android":"levelo://app?vid=3c768bd8-1e46-4403-a36f-417c8d45861b","ios":"levelo://app?vid=3c768bd8-1e46-4403-a36f-417c8d45861b"},"vehicle_type_id":"4","last_reported":1713334325,"current_range_meters":31200,"station_id":"ce4bgr92rcd13ifvqc6g","pricing_plan_id":"cebpf4jnsgd1na2vs0mg"},{"bike_id":"9a349d1b-d3ce-49aa-b1f2-4cddc866a4be","system_id":"levelo_inurba_marseille","lat":43.313391,"lon":5.36706,"is_reserved":false,"is_disabled":false,"rental_uris":{"android":"levelo://app?vid=9a349d1b-d3ce-49aa-b1f2-4cddc866a4be","ios":"levelo://app?vid=9a349d1b-d3ce-49aa-b1f2-4cddc866a4be"},"vehicle_type_id":"4","last_reported":1713334325,"current_range_meters":24000,"station_id":"ce4bgr92rcd13ifvqc6g","pricing_plan_id":"cebpf4jnsgd1na2vs0mg"},{"bike_id":"e1cff607-5386-4f99-b6fb-327bc96da4fb","system_id":"levelo_inurba_marseille","lat":43.313391,"lon":5.36706,"is_reserved":false,"is_disabled":false,"rental_uris":{"android":"levelo://app?vid=e1cff607-5386-4f99-b6fb-327bc96da4fb","ios":"levelo://app?vid=e1cff607-5386-4f99-b6fb-327bc96da4fb"},"vehicle_type_id":"4","last_reported":1713334325,"current_range_meters":24000,"station_id":"ce4bgr92rcd13ifvqc6g","pricing_plan_id":"cebpf4jnsgd1na2vs0mg"},{"bike_id":"fe898312-3b28-4791-b894-127dbe24008d","system_id":"levelo_inurba_marseille","lat":43.313391,"lon":5.36706,"is_reserved":false,"is_disabled":false,"rental_uris":{"android":"levelo://app?vid=fe898312-3b28-4791-b894-127dbe24008d","ios":"levelo://app?vid=fe898312-3b28-4791-b894-127dbe24008d"},"vehicle_type_id":"4","last_reported":1713334325,"current_range_meters":25200,"station_id":"ce4bgr92rcd13ifvqc6g","pricing_plan_id":"cebpf4jnsgd1na2vs0mg"},{"bike_id":"3be12e6c-b201-4dfa-abb1-61d7d1dea2ae","system_id":"levelo_inurba_marseille","lat":43.313391,"lon":5.36706,"is_reserved":false,"is_disabled":false,"rental_uris":{"android":"levelo://app?vid=3be12e6c-b201-4dfa-abb1-61d7d1dea2ae","ios":"levelo://app?vid=3be12e6c-b201-4dfa-abb1-61d7d1dea2ae"},"vehicle_type_id":"4","last_reported":1713334325,"current_range_meters":24400,"station_id":"ce4bgr92rcd13ifvqc6g","pricing_plan_id":"cebpf4jnsgd1na2vs0mg"},{"bike_id":"fe242cd8-5db0-45d8-8047-6eefcfcfd7f6","system_id":"levelo_inurba_marseille","lat":43.309076,"lon":5.368465,"is_reserved":false,"is_disabled":false,"rental_uris":{"android":"levelo://app?vid=fe242cd8-5db0-45d8-8047-6eefcfcfd7f6","ios":"levelo://app?vid=fe242cd8-5db0-45d8-8047-6eefcfcfd7f6"},"vehicle_type_id":"4","last_reported":1713334325,"current_range_meters":19600,"station_id":"ce4bgn92rcd13ifvqbvg","pricing_plan_id":"cebpf4jnsgd1na2vs0mg"},{"bike_id":"db3415b0-9528-45f7-b957-97c370250a4f","system_id":"levelo_inurba_marseille","lat":43.309076,"lon":5.368465,"is_reserved":false,"is_disabled":false,"rental_uris":{"android":"levelo://app?vid=db3415b0-9528-45f7-b957-97c370250a4f","ios":"levelo://app?vid=db3415b0-9528-45f7-b957-97c370250a4f"},"vehicle_type_id":"4","last_reported":1713334325,"current_range_meters":1600,"station_id":"ce4bgn92rcd13ifvqbvg","pricing_plan_id":"cebpf4jnsgd1na2vs0mg"},{"bike_id":"7a76ac97-9ab4-48ee-a466-9be8d7b9f7b6","system_id":"levelo_inurba_marseille","lat":43.31339,"lon":5.37282,"is_reserved":false,"is_disabled":false,"rental_uris":{"android":"levelo://app?vid=7a76ac97-9ab4-48ee-a466-9be8d7b9f7b6","ios":"levelo://app?vid=7a76ac97-9ab4-48ee-a466-9be8d7b9f7b6"},"vehicle_type_id":"4","last_reported":1713334325,"current_range_meters":18000,"station_id":"","pricing_plan_id":"cebpf4jnsgd1na2vs0mg"},{"bike_id":"8293a5b4-e9d0-4d5b-8202-62adf2e7ecaf","system_id":"levelo_inurba_marseille","lat":43.309039,"lon":5.371797,"is_reserved":false,"is_disabled":false,"rental_uris":{"android":"levelo://app?vid=8293a5b4-e9d0-4d5b-8202-62adf2e7ecaf","ios":"levelo://app?vid=8293a5b4-e9d0-4d5b-8202-62adf2e7ecaf"},"vehicle_type_id":"4","last_reported":1713334325,"current_range_meters":3600,"station_id":"ce4bguh2rcd13ifvqckg","pricing_plan_id":"cebpf4jnsgd1na2vs0mg"},{"bike_id":"a64949d2-bcfa-41ab-b665-c4113f5f69d2","system_id":"levelo_inurba_marseille","lat":43.305368,"lon":5.367343,"is_reserved":false,"is_disabled":false,"rental_uris":{"android":"levelo://app?vid=a64949d2-bcfa-41ab-b665-c4113f5f69d2","ios":"levelo://app?vid=a64949d2-bcfa-41ab-b665-c4113f5f69d2"},"vehicle_type_id":"4","last_reported":1713334325,"current_range_meters":0,"station_id":"ce4bgrp2rcd13ifvqc9g","pricing_plan_id":"cebpf4jnsgd1na2vs0mg"},{"bike_id":"7f542e72-8d3e-4fc2-bf60-cb3296c56ebd","system_id":"levelo_inurba_marseille","lat":43.30537,"lon":5.367345,"is_reserved":false,"is_disabled":false,"rental_uris":{"android":"levelo://app?vid=7f542e72-8d3e-4fc2-bf60-cb3296c56ebd","ios":"levelo://app?vid=7f542e72-8d3e-4fc2-bf60-cb3296c56ebd"},"vehicle_type_id":"4","last_reported":1713334325,"current_range_meters":7200,"station_id":"ce4bgrp2rcd13ifvqc9g","pricing_plan_id":"cebpf4jnsgd1na2vs0mg"},{"bike_id":"52f22b5a-486d-4c62-a4ac-137bfb2f235e","system_id":"levelo_inurba_marseille","lat":43.30554,"lon":5.36534,"is_reserved":false,"is_disabled":false,"rental_uris":{"android":"levelo://app?vid=52f22b5a-486d-4c62-a4ac-137bfb2f235e","ios":"levelo://app?vid=52f22b5a-486d-4c62-a4ac-137bfb2f235e"},"vehicle_type_id":"4","last_reported":1713334325,"current_range_meters":18800,"station_id":"","pricing_plan_id":"cebpf4jnsgd1na2vs0mg"},{"bike_id":"bf0ee282-92b1-459c-9584-180830e78776","system_id":"levelo_inurba_marseille","lat":43.30537,"lon":5.367345,"is_reserved":false,"is_disabled":false,"rental_uris":{"android":"levelo://app?vid=bf0ee282-92b1-459c-9584-180830e78776","ios":"levelo://app?vid=bf0ee282-92b1-459c-9584-180830e78776"},"vehicle_type_id":"4","last_reported":1713334325,"current_range_meters":3200,"station_id":"ce4bgrp2rcd13ifvqc9g","pricing_plan_id":"cebpf4jnsgd1na2vs0mg"},{"bike_id":"24dee587-4735-4908-b210-6a4c8ef8b2c5","system_id":"levelo_inurba_marseille","lat":43.30537,"lon":5.367345,"is_reserved":false,"is_disabled":false,"rental_uris":{"android":"levelo://app?vid=24dee587-4735-4908-b210-6a4c8ef8b2c5","ios":"levelo://app?vid=24dee587-4735-4908-b210-6a4c8ef8b2c5"},"vehicle_type_id":"4","last_reported":1713334325,"current_range_meters":12800,"station_id":"ce4bgrp2rcd13ifvqc9g","pricing_plan_id":"cebpf4jnsgd1na2vs0mg"},{"bike_id":"2b4386f1-9cb3-4903-80c2-7f036f572ec8","system_id":"levelo_inurba_marseille","lat":43.305706,"lon":5.365654,"is_reserved":false,"is_disabled":false,"rental_uris":{"android":"levelo://app?vid=2b4386f1-9cb3-4903-80c2-7f036f572ec8","ios":"levelo://app?vid=2b4386f1-9cb3-4903-80c2-7f036f572ec8"},"vehicle_type_id":"4","last_reported":1713334325,"current_range_meters":25200,"station_id":"ce4bgs12rcd13ifvqcag","pricing_plan_id":"cebpf4jnsgd1na2vs0mg"},{"bike_id":"8604507d-d55b-4be3-af9b-e610f4d8de8b","system_id":"levelo_inurba_marseille","lat":43.30537,"lon":5.367345,"is_reserved":false,"is_disabled":false,"rental_uris":{"android":"levelo://app?vid=8604507d-d55b-4be3-af9b-e610f4d8de8b","ios":"levelo://app?vid=8604507d-d55b-4be3-af9b-e610f4d8de8b"},"vehicle_type_id":"4","last_reported":1713334325,"current_range_meters":27200,"station_id":"ce4bgrp2rcd13ifvqc9g","pricing_plan_id":"cebpf4jnsgd1na2vs0mg"},{"bike_id":"29741511-5efe-437d-8c8d-fc1b9ace08c5","system_id":"levelo_inurba_marseille","lat":43.305368,"lon":5.367343,"is_reserved":false,"is_disabled":false,"rental_uris":{"android":"levelo://app?vid=29741511-5efe-437d-8c8d-fc1b9ace08c5","ios":"levelo://app?vid=29741511-5efe-437d-8c8d-fc1b9ace08c5"},"vehicle_type_id":"4","last_reported":1713334325,"current_range_meters":27200,"station_id":"ce4bgrp2rcd13ifvqc9g","pricing_plan_id":"cebpf4jnsgd1na2vs0mg"},{"bike_id":"db65cfdb-1879-4edb-95cb-302a1e653da5","system_id":"levelo_inurba_marseille","lat":43.305368,"lon":5.367343,"is_reserved":false,"is_disabled":false,"rental_uris":{"android":"levelo://app?vid=db65cfdb-1879-4edb-95cb-302a1e653da5","ios":"levelo://app?vid=db65cfdb-1879-4edb-95cb-302a1e653da5"},"vehicle_type_id":"4","last_reported":1713334325,"current_range_meters":29600,"station_id":"ce4bgrp2rcd13ifvqc9g","pricing_plan_id":"cebpf4jnsgd1na2vs0mg"},{"bike_id":"638353c6-f8a2-46d9-aa71-39eb6d9f2951","system_id":"levelo_inurba_marseille","lat":43.305368,"lon":5.367343,"is_reserved":false,"is_disabled":false,"rental_uris":{"android":"levelo://app?vid=638353c6-f8a2-46d9-aa71-39eb6d9f2951","ios":"levelo://app?vid=638353c6-f8a2-46d9-aa71-39eb6d9f2951"},"vehicle_type_id":"4","last_reported":1713334325,"current_range_meters":26000,"station_id":"ce4bgrp2rcd13ifvqc9g","pricing_plan_id":"cebpf4jnsgd1na2vs0mg"},{"bike_id":"f6e8ff3f-49d0-450c-bed9-38e98bb20ee1","system_id":"levelo_inurba_marseille","lat":43.311125,"lon":5.377624,"is_reserved":false,"is_disabled":false,"rental_uris":{"android":"levelo://app?vid=f6e8ff3f-49d0-450c-bed9-38e98bb20ee1","ios":"levelo://app?vid=f6e8ff3f-49d0-450c-bed9-38e98bb20ee1"},"vehicle_type_id":"4","last_reported":1713334325,"current_range_meters":28800,"station_id":"ce4bgt92rcd13ifvqcg0","pricing_plan_id":"cebpf4jnsgd1na2vs0mg"},{"bike_id":"53bf1d83-da50-4bbe-ab1a-302535e02269","system_id":"levelo_inurba_marseille","lat":43.311125,"lon":5.377624,"is_reserved":false,"is_disabled":false,"rental_uris":{"android":"levelo://app?vid=53bf1d83-da50-4bbe-ab1a-302535e02269","ios":"levelo://app?vid=53bf1d83-da50-4bbe-ab1a-302535e02269"},"vehicle_type_id":"4","last_reported":1713334325,"current_range_meters":8400,"station_id":"ce4bgt92rcd13ifvqcg0","pricing_plan_id":"cebpf4jnsgd1na2vs0mg"},{"bike_id":"90eba4e2-235d-4253-8a64-81078b46b406","system_id":"levelo_inurba_marseille","lat":43.311125,"lon":5.377624,"is_reserved":false,"is_disabled":false,"rental_uris":{"android":"levelo://app?vid=90eba4e2-235d-4253-8a64-81078b46b406","ios":"levelo://app?vid=90eba4e2-235d-4253-8a64-81078b46b406"},"vehicle_type_id":"4","last_reported":1713334325,"current_range_meters":4400,"station_id":"ce4bgt92rcd13ifvqcg0","pricing_plan_id":"cebpf4jnsgd1na2vs0mg"},{"bike_id":"ef7875dc-7fce-448e-b590-7fa50e6bc644","system_id":"levelo_inurba_marseille","lat":43.311128,"lon":5.377641,"is_reserved":false,"is_disabled":false,"rental_uris":{"android":"levelo://app?vid=ef7875dc-7fce-448e-b590-7fa50e6bc644","ios":"levelo://app?vid=ef7875dc-7fce-448e-b590-7fa50e6bc644"},"vehicle_type_id":"4","last_reported":1713334325,"current_range_meters":30800,"station_id":"ce4bgt92rcd13ifvqcg0","pricing_plan_id":"cebpf4jnsgd1na2vs0mg"},{"bike_id":"662d0f15-bc14-4fba-8ffb-3e1ade9fe039","system_id":"levelo_inurba_marseille","lat":43.311125,"lon":5.377624,"is_reserved":false,"is_disabled":false,"rental_uris":{"android":"levelo://app?vid=662d0f15-bc14-4fba-8ffb-3e1ade9fe039","ios":"levelo://app?vid=662d0f15-bc14-4fba-8ffb-3e1ade9fe039"},"vehicle_type_id":"4","last_reported":1713334325,"current_range_meters":23200,"station_id":"ce4bgt92rcd13ifvqcg0","pricing_plan_id":"cebpf4jnsgd1na2vs0mg"},{"bike_id":"b51c954d-4ce0-4b65-8b2a-f3c0ab33796c","system_id":"levelo_inurba_marseille","lat":43.307945,"lon":5.376487,"is_reserved":false,"is_disabled":false,"rental_uris":{"android":"levelo://app?vid=b51c954d-4ce0-4b65-8b2a-f3c0ab33796c","ios":"levelo://app?vid=b51c954d-4ce0-4b65-8b2a-f3c0ab33796c"},"vehicle_type_id":"4","last_reported":1713334325,"current_range_meters":25200,"station_id":"ce4bgv92rcd13ifvqcq0","pricing_plan_id":"cebpf4jnsgd1na2vs0mg"},{"bike_id":"ce01a150-d276-4ced-b9d6-f58730c3573f","system_id":"levelo_inurba_marseille","lat":43.307945,"lon":5.376487,"is_reserved":false,"is_disabled":false,"rental_uris":{"android":"levelo://app?vid=ce01a150-d276-4ced-b9d6-f58730c3573f","ios":"levelo://app?vid=ce01a150-d276-4ced-b9d6-f58730c3573f"},"vehicle_type_id":"4","last_reported":1713334325,"current_range_meters":30400,"station_id":"ce4bgv92rcd13ifvqcq0","pricing_plan_id":"cebpf4jnsgd1na2vs0mg"},{"bike_id":"69c23fa1-2fc4-4deb-a0a5-ae6da94a78c1","system_id":"levelo_inurba_marseille","lat":43.307945,"lon":5.376487,"is_reserved":false,"is_disabled":false,"rental_uris":{"android":"levelo://app?vid=69c23fa1-2fc4-4deb-a0a5-ae6da94a78c1","ios":"levelo://app?vid=69c23fa1-2fc4-4deb-a0a5-ae6da94a78c1"},"vehicle_type_id":"4","last_reported":1713334325,"current_range_meters":31600,"station_id":"ce4bgv92rcd13ifvqcq0","pricing_plan_id":"cebpf4jnsgd1na2vs0mg"},{"bike_id":"1519d763-2fbc-4ba2-8b3e-94e4a4224244","system_id":"levelo_inurba_marseille","lat":43.307945,"lon":5.376487,"is_reserved":false,"is_disabled":false,"rental_uris":{"android":"levelo://app?vid=1519d763-2fbc-4ba2-8b3e-94e4a4224244","ios":"levelo://app?vid=1519d763-2fbc-4ba2-8b3e-94e4a4224244"},"vehicle_type_id":"4","last_reported":1713334325,"current_range_meters":31200,"station_id":"ce4bgv92rcd13ifvqcq0","pricing_plan_id":"cebpf4jnsgd1na2vs0mg"},{"bike_id":"562b22dc-c73f-4b9d-bc29-afac3200a60a","system_id":"levelo_inurba_marseille","lat":43.307945,"lon":5.376487,"is_reserved":false,"is_disabled":false,"rental_uris":{"android":"levelo://app?vid=562b22dc-c73f-4b9d-bc29-afac3200a60a","ios":"levelo://app?vid=562b22dc-c73f-4b9d-bc29-afac3200a60a"},"vehicle_type_id":"4","last_reported":1713334325,"current_range_meters":17200,"station_id":"ce4bgv92rcd13ifvqcq0","pricing_plan_id":"cebpf4jnsgd1na2vs0mg"},{"bike_id":"da55d19a-71ac-446f-9432-3cbcd247199b","system_id":"levelo_inurba_marseille","lat":43.307945,"lon":5.376487,"is_reserved":false,"is_disabled":false,"rental_uris":{"android":"levelo://app?vid=da55d19a-71ac-446f-9432-3cbcd247199b","ios":"levelo://app?vid=da55d19a-71ac-446f-9432-3cbcd247199b"},"vehicle_type_id":"4","last_reported":1713334325,"current_range_meters":30000,"station_id":"ce4bgv92rcd13ifvqcq0","pricing_plan_id":"cebpf4jnsgd1na2vs0mg"},{"bike_id":"64667906-fe1b-406f-9160-ef5b8e761b5d","system_id":"levelo_inurba_marseille","lat":43.307945,"lon":5.376487,"is_reserved":false,"is_disabled":false,"rental_uris":{"android":"levelo://app?vid=64667906-fe1b-406f-9160-ef5b8e761b5d","ios":"levelo://app?vid=64667906-fe1b-406f-9160-ef5b8e761b5d"},"vehicle_type_id":"4","last_reported":1713334325,"current_range_meters":26800,"station_id":"ce4bgv92rcd13ifvqcq0","pricing_plan_id":"cebpf4jnsgd1na2vs0mg"},{"bike_id":"86a08bc4-34dd-4925-8aae-3ac3e2dd0347","system_id":"levelo_inurba_marseille","lat":43.307945,"lon":5.376487,"is_reserved":false,"is_disabled":false,"rental_uris":{"android":"levelo://app?vid=86a08bc4-34dd-4925-8aae-3ac3e2dd0347","ios":"levelo://app?vid=86a08bc4-34dd-4925-8aae-3ac3e2dd0347"},"vehicle_type_id":"4","last_reported":1713334325,"current_range_meters":15200,"station_id":"ce4bgv92rcd13ifvqcq0","pricing_plan_id":"cebpf4jnsgd1na2vs0mg"},{"bike_id":"bb047508-344d-463f-95ad-c8ba6fb141f1","system_id":"levelo_inurba_marseille","lat":43.317075,"lon":5.377367,"is_reserved":false,"is_disabled":false,"rental_uris":{"android":"levelo://app?vid=bb047508-344d-463f-95ad-c8ba6fb141f1","ios":"levelo://app?vid=bb047508-344d-463f-95ad-c8ba6fb141f1"},"vehicle_type_id":"4","last_reported":1713334325,"current_range_meters":8400,"station_id":"ce4bgth2rcd13ifvqch0","pricing_plan_id":"cebpf4jnsgd1na2vs0mg"},{"bike_id":"0c55c320-d500-4229-a966-d1b0e1724073","system_id":"levelo_inurba_marseille","lat":43.317075,"lon":5.377367,"is_reserved":false,"is_disabled":false,"rental_uris":{"android":"levelo://app?vid=0c55c320-d500-4229-a966-d1b0e1724073","ios":"levelo://app?vid=0c55c320-d500-4229-a966-d1b0e1724073"},"vehicle_type_id":"4","last_reported":1713334325,"current_range_meters":29600,"station_id":"ce4bgth2rcd13ifvqch0","pricing_plan_id":"cebpf4jnsgd1na2vs0mg"},{"bike_id":"92f4b063-325f-4195-95b4-1377e6f863b0","system_id":"levelo_inurba_marseille","lat":43.308012,"lon":5.381511,"is_reserved":false,"is_disabled":false,"rental_uris":{"android":"levelo://app?vid=92f4b063-325f-4195-95b4-1377e6f863b0","ios":"levelo://app?vid=92f4b063-325f-4195-95b4-1377e6f863b0"},"vehicle_type_id":"4","last_reported":1713334325,"current_range_meters":12400,"station_id":"ce4bgt12rcd13ifvqce0","pricing_plan_id":"cebpf4jnsgd1na2vs0mg"},{"bike_id":"e4ac2eeb-9126-4b0e-bfeb-cf8f6c1823c1","system_id":"levelo_inurba_marseille","lat":43.308012,"lon":5.381511,"is_reserved":false,"is_disabled":false,"rental_uris":{"android":"levelo://app?vid=e4ac2eeb-9126-4b0e-bfeb-cf8f6c1823c1","ios":"levelo://app?vid=e4ac2eeb-9126-4b0e-bfeb-cf8f6c1823c1"},"vehicle_type_id":"4","last_reported":1713334325,"current_range_meters":30000,"station_id":"ce4bgt12rcd13ifvqce0","pricing_plan_id":"cebpf4jnsgd1na2vs0mg"},{"bike_id":"c4a9d8a5-5831-40ab-bc25-6a4b9d00a165","system_id":"levelo_inurba_marseille","lat":43.308012,"lon":5.381511,"is_reserved":false,"is_disabled":false,"rental_uris":{"android":"levelo://app?vid=c4a9d8a5-5831-40ab-bc25-6a4b9d00a165","ios":"levelo://app?vid=c4a9d8a5-5831-40ab-bc25-6a4b9d00a165"},"vehicle_type_id":"4","last_reported":1713334325,"current_range_meters":16400,"station_id":"ce4bgt12rcd13ifvqce0","pricing_plan_id":"cebpf4jnsgd1na2vs0mg"},{"bike_id":"850da240-96d3-4066-885b-800f35c03654","system_id":"levelo_inurba_marseille","lat":43.305994,"lon":5.393687,"is_reserved":false,"is_disabled":false,"rental_uris":{"android":"levelo://app?vid=850da240-96d3-4066-885b-800f35c03654","ios":"levelo://app?vid=850da240-96d3-4066-885b-800f35c03654"},"vehicle_type_id":"4","last_reported":1713334325,"current_range_meters":10400,"station_id":"ce4bh0p2rcd13ifvqd80","pricing_plan_id":"cebpf4jnsgd1na2vs0mg"},{"bike_id":"1e7d884b-1661-471d-b9e3-da0e430fbe69","system_id":"levelo_inurba_marseille","lat":43.304606,"lon":5.379026,"is_reserved":false,"is_disabled":false,"rental_uris":{"android":"levelo://app?vid=1e7d884b-1661-471d-b9e3-da0e430fbe69","ios":"levelo://app?vid=1e7d884b-1661-471d-b9e3-da0e430fbe69"},"vehicle_type_id":"4","last_reported":1713334325,"current_range_meters":20000,"station_id":"ce4bgup2rcd13ifvqcn0","pricing_plan_id":"cebpf4jnsgd1na2vs0mg"},{"bike_id":"6d3a756a-bd85-4b59-b22b-6355c6601695","system_id":"levelo_inurba_marseille","lat":43.313571,"lon":5.384829,"is_reserved":false,"is_disabled":false,"rental_uris":{"android":"levelo://app?vid=6d3a756a-bd85-4b59-b22b-6355c6601695","ios":"levelo://app?vid=6d3a756a-bd85-4b59-b22b-6355c6601695"},"vehicle_type_id":"4","last_reported":1713334325,"current_range_meters":24800,"station_id":"ce4bgt92rcd13ifvqcf0","pricing_plan_id":"cebpf4jnsgd1na2vs0mg"},{"bike_id":"5bd6c172-994b-4ce0-90ec-b28d2852bfd0","system_id":"levelo_inurba_marseille","lat":43.304606,"lon":5.379026,"is_reserved":false,"is_disabled":false,"rental_uris":{"android":"levelo://app?vid=5bd6c172-994b-4ce0-90ec-b28d2852bfd0","ios":"levelo://app?vid=5bd6c172-994b-4ce0-90ec-b28d2852bfd0"},"vehicle_type_id":"4","last_reported":1713334325,"current_range_meters":26400,"station_id":"ce4bgup2rcd13ifvqcn0","pricing_plan_id":"cebpf4jnsgd1na2vs0mg"},{"bike_id":"50218913-cf22-4eae-baa2-d3f7d5afb41c","system_id":"levelo_inurba_marseille","lat":43.304606,"lon":5.379026,"is_reserved":false,"is_disabled":false,"rental_uris":{"android":"levelo://app?vid=50218913-cf22-4eae-baa2-d3f7d5afb41c","ios":"levelo://app?vid=50218913-cf22-4eae-baa2-d3f7d5afb41c"},"vehicle_type_id":"4","last_reported":1713334325,"current_range_meters":22000,"station_id":"ce4bgup2rcd13ifvqcn0","pricing_plan_id":"cebpf4jnsgd1na2vs0mg"},{"bike_id":"2fb9effa-7cd6-4cdf-a6b8-85b394e4c333","system_id":"levelo_inurba_marseille","lat":43.30475,"lon":5.37912,"is_reserved":false,"is_disabled":false,"rental_uris":{"android":"levelo://app?vid=2fb9effa-7cd6-4cdf-a6b8-85b394e4c333","ios":"levelo://app?vid=2fb9effa-7cd6-4cdf-a6b8-85b394e4c333"},"vehicle_type_id":"4","last_reported":1713334325,"current_range_meters":21200,"station_id":"","pricing_plan_id":"cebpf4jnsgd1na2vs0mg"},{"bike_id":"bb8ebd1e-c0f4-4714-b9f7-045f9c3f38d7","system_id":"levelo_inurba_marseille","lat":43.304606,"lon":5.379026,"is_reserved":false,"is_disabled":false,"rental_uris":{"android":"levelo://app?vid=bb8ebd1e-c0f4-4714-b9f7-045f9c3f38d7","ios":"levelo://app?vid=bb8ebd1e-c0f4-4714-b9f7-045f9c3f38d7"},"vehicle_type_id":"4","last_reported":1713334325,"current_range_meters":16800,"station_id":"ce4bgup2rcd13ifvqcn0","pricing_plan_id":"cebpf4jnsgd1na2vs0mg"},{"bike_id":"eec513a8-8210-440a-8c49-86eae8b8ac7b","system_id":"levelo_inurba_marseille","lat":43.30466,"lon":5.37907,"is_reserved":false,"is_disabled":false,"rental_uris":{"android":"levelo://app?vid=eec513a8-8210-440a-8c49-86eae8b8ac7b","ios":"levelo://app?vid=eec513a8-8210-440a-8c49-86eae8b8ac7b"},"vehicle_type_id":"4","last_reported":1713334325,"current_range_meters":10800,"station_id":"ce4bgup2rcd13ifvqcn0","pricing_plan_id":"cebpf4jnsgd1na2vs0mg"},{"bike_id":"75422206-739a-46be-9172-eac3e27c966d","system_id":"levelo_inurba_marseille","lat":43.30464,"lon":5.37905,"is_reserved":false,"is_disabled":false,"rental_uris":{"android":"levelo://app?vid=75422206-739a-46be-9172-eac3e27c966d","ios":"levelo://app?vid=75422206-739a-46be-9172-eac3e27c966d"},"vehicle_type_id":"4","last_reported":1713334325,"current_range_meters":20000,"station_id":"ce4bgup2rcd13ifvqcn0","pricing_plan_id":"cebpf4jnsgd1na2vs0mg"},{"bike_id":"f669f080-647b-4bfa-b736-e8572c381e63","system_id":"levelo_inurba_marseille","lat":43.304606,"lon":5.379026,"is_reserved":false,"is_disabled":false,"rental_uris":{"android":"levelo://app?vid=f669f080-647b-4bfa-b736-e8572c381e63","ios":"levelo://app?vid=f669f080-647b-4bfa-b736-e8572c381e63"},"vehicle_type_id":"4","last_reported":1713334325,"current_range_meters":23600,"station_id":"ce4bgup2rcd13ifvqcn0","pricing_plan_id":"cebpf4jnsgd1na2vs0mg"},{"bike_id":"a38f62f9-687b-4dda-b6c2-4cfd9f37cd2e","system_id":"levelo_inurba_marseille","lat":43.30464,"lon":5.37906,"is_reserved":false,"is_disabled":false,"rental_uris":{"android":"levelo://app?vid=a38f62f9-687b-4dda-b6c2-4cfd9f37cd2e","ios":"levelo://app?vid=a38f62f9-687b-4dda-b6c2-4cfd9f37cd2e"},"vehicle_type_id":"4","last_reported":1713334325,"current_range_meters":18000,"station_id":"ce4bgup2rcd13ifvqcn0","pricing_plan_id":"cebpf4jnsgd1na2vs0mg"},{"bike_id":"3d9be6dc-7825-459d-884f-973e287448e0","system_id":"levelo_inurba_marseille","lat":43.30463,"lon":5.37906,"is_reserved":false,"is_disabled":false,"rental_uris":{"android":"levelo://app?vid=3d9be6dc-7825-459d-884f-973e287448e0","ios":"levelo://app?vid=3d9be6dc-7825-459d-884f-973e287448e0"},"vehicle_type_id":"4","last_reported":1713334325,"current_range_meters":13600,"station_id":"","pricing_plan_id":"cebpf4jnsgd1na2vs0mg"},{"bike_id":"da156e02-9e97-45d5-a0a6-9f11bb50d4a0","system_id":"levelo_inurba_marseille","lat":43.30462,"lon":5.37905,"is_reserved":false,"is_disabled":false,"rental_uris":{"android":"levelo://app?vid=da156e02-9e97-45d5-a0a6-9f11bb50d4a0","ios":"levelo://app?vid=da156e02-9e97-45d5-a0a6-9f11bb50d4a0"},"vehicle_type_id":"4","last_reported":1713334325,"current_range_meters":25200,"station_id":"ce4bgup2rcd13ifvqcn0","pricing_plan_id":"cebpf4jnsgd1na2vs0mg"},{"bike_id":"31452e53-7eca-4468-b910-7992ba858eb3","system_id":"levelo_inurba_marseille","lat":43.304606,"lon":5.379026,"is_reserved":false,"is_disabled":false,"rental_uris":{"android":"levelo://app?vid=31452e53-7eca-4468-b910-7992ba858eb3","ios":"levelo://app?vid=31452e53-7eca-4468-b910-7992ba858eb3"},"vehicle_type_id":"4","last_reported":1713334325,"current_range_meters":28800,"station_id":"ce4bgup2rcd13ifvqcn0","pricing_plan_id":"cebpf4jnsgd1na2vs0mg"},{"bike_id":"4a9f6558-b654-4a2e-83d9-0630beb2e38f","system_id":"levelo_inurba_marseille","lat":43.304606,"lon":5.379026,"is_reserved":false,"is_disabled":false,"rental_uris":{"android":"levelo://app?vid=4a9f6558-b654-4a2e-83d9-0630beb2e38f","ios":"levelo://app?vid=4a9f6558-b654-4a2e-83d9-0630beb2e38f"},"vehicle_type_id":"4","last_reported":1713334325,"current_range_meters":11200,"station_id":"ce4bgup2rcd13ifvqcn0","pricing_plan_id":"cebpf4jnsgd1na2vs0mg"},{"bike_id":"337e2734-0669-4da0-9f30-5c6086eb8b4b","system_id":"levelo_inurba_marseille","lat":43.304606,"lon":5.379026,"is_reserved":false,"is_disabled":false,"rental_uris":{"android":"levelo://app?vid=337e2734-0669-4da0-9f30-5c6086eb8b4b","ios":"levelo://app?vid=337e2734-0669-4da0-9f30-5c6086eb8b4b"},"vehicle_type_id":"4","last_reported":1713334325,"current_range_meters":6400,"station_id":"ce4bgup2rcd13ifvqcn0","pricing_plan_id":"cebpf4jnsgd1na2vs0mg"},{"bike_id":"0ff23cce-bd17-4c52-b5a4-1dd97e63497c","system_id":"levelo_inurba_marseille","lat":43.30461,"lon":5.37907,"is_reserved":false,"is_disabled":false,"rental_uris":{"android":"levelo://app?vid=0ff23cce-bd17-4c52-b5a4-1dd97e63497c","ios":"levelo://app?vid=0ff23cce-bd17-4c52-b5a4-1dd97e63497c"},"vehicle_type_id":"4","last_reported":1713334325,"current_range_meters":26400,"station_id":"ce4bgup2rcd13ifvqcn0","pricing_plan_id":"cebpf4jnsgd1na2vs0mg"},{"bike_id":"cba43b9f-ce44-483b-89a3-174db23b7e34","system_id":"levelo_inurba_marseille","lat":43.304606,"lon":5.379026,"is_reserved":false,"is_disabled":false,"rental_uris":{"android":"levelo://app?vid=cba43b9f-ce44-483b-89a3-174db23b7e34","ios":"levelo://app?vid=cba43b9f-ce44-483b-89a3-174db23b7e34"},"vehicle_type_id":"4","last_reported":1713334325,"current_range_meters":23600,"station_id":"ce4bgup2rcd13ifvqcn0","pricing_plan_id":"cebpf4jnsgd1na2vs0mg"},{"bike_id":"637a8423-721c-4bb1-ad02-6badcce5f43a","system_id":"levelo_inurba_marseille","lat":43.304606,"lon":5.379026,"is_reserved":false,"is_disabled":false,"rental_uris":{"android":"levelo://app?vid=637a8423-721c-4bb1-ad02-6badcce5f43a","ios":"levelo://app?vid=637a8423-721c-4bb1-ad02-6badcce5f43a"},"vehicle_type_id":"4","last_reported":1713334325,"current_range_meters":22000,"station_id":"ce4bgup2rcd13ifvqcn0","pricing_plan_id":"cebpf4jnsgd1na2vs0mg"},{"bike_id":"578b250b-cda0-45e7-b858-ca4806b1dafb","system_id":"levelo_inurba_marseille","lat":43.3046,"lon":5.3791,"is_reserved":false,"is_disabled":false,"rental_uris":{"android":"levelo://app?vid=578b250b-cda0-45e7-b858-ca4806b1dafb","ios":"levelo://app?vid=578b250b-cda0-45e7-b858-ca4806b1dafb"},"vehicle_type_id":"4","last_reported":1713334325,"current_range_meters":24400,"station_id":"ce4bgup2rcd13ifvqcn0","pricing_plan_id":"cebpf4jnsgd1na2vs0mg"},{"bike_id":"bfeb04a9-4496-4b94-ba15-8d36879004b1","system_id":"levelo_inurba_marseille","lat":43.304606,"lon":5.379026,"is_reserved":false,"is_disabled":false,"rental_uris":{"android":"levelo://app?vid=bfeb04a9-4496-4b94-ba15-8d36879004b1","ios":"levelo://app?vid=bfeb04a9-4496-4b94-ba15-8d36879004b1"},"vehicle_type_id":"4","last_reported":1713334325,"current_range_meters":17600,"station_id":"ce4bgup2rcd13ifvqcn0","pricing_plan_id":"cebpf4jnsgd1na2vs0mg"},{"bike_id":"7f6ccc5a-e802-425a-b0b3-06bf495e684a","system_id":"levelo_inurba_marseille","lat":43.304606,"lon":5.379026,"is_reserved":false,"is_disabled":false,"rental_uris":{"android":"levelo://app?vid=7f6ccc5a-e802-425a-b0b3-06bf495e684a","ios":"levelo://app?vid=7f6ccc5a-e802-425a-b0b3-06bf495e684a"},"vehicle_type_id":"4","last_reported":1713334325,"current_range_meters":17600,"station_id":"ce4bgup2rcd13ifvqcn0","pricing_plan_id":"cebpf4jnsgd1na2vs0mg"},{"bike_id":"6c3173c1-7560-4bc5-86c9-013de293b9a0","system_id":"levelo_inurba_marseille","lat":43.304606,"lon":5.379026,"is_reserved":false,"is_disabled":false,"rental_uris":{"android":"levelo://app?vid=6c3173c1-7560-4bc5-86c9-013de293b9a0","ios":"levelo://app?vid=6c3173c1-7560-4bc5-86c9-013de293b9a0"},"vehicle_type_id":"4","last_reported":1713334325,"current_range_meters":3600,"station_id":"ce4bgup2rcd13ifvqcn0","pricing_plan_id":"cebpf4jnsgd1na2vs0mg"},{"bike_id":"1ff33de5-5728-4f7a-9003-10b989a4d5b2","system_id":"levelo_inurba_marseille","lat":43.304606,"lon":5.379026,"is_reserved":false,"is_disabled":false,"rental_uris":{"android":"levelo://app?vid=1ff33de5-5728-4f7a-9003-10b989a4d5b2","ios":"levelo://app?vid=1ff33de5-5728-4f7a-9003-10b989a4d5b2"},"vehicle_type_id":"4","last_reported":1713334325,"current_range_meters":13200,"station_id":"ce4bgup2rcd13ifvqcn0","pricing_plan_id":"cebpf4jnsgd1na2vs0mg"},{"bike_id":"42a646dc-8135-4262-a0f2-98e152cee0e7","system_id":"levelo_inurba_marseille","lat":43.304606,"lon":5.379026,"is_reserved":false,"is_disabled":false,"rental_uris":{"android":"levelo://app?vid=42a646dc-8135-4262-a0f2-98e152cee0e7","ios":"levelo://app?vid=42a646dc-8135-4262-a0f2-98e152cee0e7"},"vehicle_type_id":"4","last_reported":1713334325,"current_range_meters":31600,"station_id":"ce4bgup2rcd13ifvqcn0","pricing_plan_id":"cebpf4jnsgd1na2vs0mg"},{"bike_id":"b368d007-b48b-4b20-bd73-66f5f075c88e","system_id":"levelo_inurba_marseille","lat":43.304606,"lon":5.379026,"is_reserved":false,"is_disabled":false,"rental_uris":{"android":"levelo://app?vid=b368d007-b48b-4b20-bd73-66f5f075c88e","ios":"levelo://app?vid=b368d007-b48b-4b20-bd73-66f5f075c88e"},"vehicle_type_id":"4","last_reported":1713334325,"current_range_meters":18000,"station_id":"ce4bgup2rcd13ifvqcn0","pricing_plan_id":"cebpf4jnsgd1na2vs0mg"},{"bike_id":"19a86d5b-4b15-47d5-bd0b-cebf41154970","system_id":"levelo_inurba_marseille","lat":43.304606,"lon":5.379026,"is_reserved":false,"is_disabled":false,"rental_uris":{"android":"levelo://app?vid=19a86d5b-4b15-47d5-bd0b-cebf41154970","ios":"levelo://app?vid=19a86d5b-4b15-47d5-bd0b-cebf41154970"},"vehicle_type_id":"4","last_reported":1713334325,"current_range_meters":31200,"station_id":"ce4bgup2rcd13ifvqcn0","pricing_plan_id":"cebpf4jnsgd1na2vs0mg"},{"bike_id":"cc489384-ba8f-4d83-a6d0-c4fa16c3175b","system_id":"levelo_inurba_marseille","lat":43.304606,"lon":5.379026,"is_reserved":false,"is_disabled":false,"rental_uris":{"android":"levelo://app?vid=cc489384-ba8f-4d83-a6d0-c4fa16c3175b","ios":"levelo://app?vid=cc489384-ba8f-4d83-a6d0-c4fa16c3175b"},"vehicle_type_id":"4","last_reported":1713334325,"current_range_meters":29200,"station_id":"ce4bgup2rcd13ifvqcn0","pricing_plan_id":"cebpf4jnsgd1na2vs0mg"},{"bike_id":"8160d286-9f15-47bf-8c1d-cf49bd176d0c","system_id":"levelo_inurba_marseille","lat":43.304606,"lon":5.379026,"is_reserved":false,"is_disabled":false,"rental_uris":{"android":"levelo://app?vid=8160d286-9f15-47bf-8c1d-cf49bd176d0c","ios":"levelo://app?vid=8160d286-9f15-47bf-8c1d-cf49bd176d0c"},"vehicle_type_id":"4","last_reported":1713334325,"current_range_meters":25200,"station_id":"ce4bgup2rcd13ifvqcn0","pricing_plan_id":"cebpf4jnsgd1na2vs0mg"},{"bike_id":"14346b6e-7fb5-417c-875d-160fba1bbdc2","system_id":"levelo_inurba_marseille","lat":43.304551,"lon":5.379114,"is_reserved":false,"is_disabled":false,"rental_uris":{"android":"levelo://app?vid=14346b6e-7fb5-417c-875d-160fba1bbdc2","ios":"levelo://app?vid=14346b6e-7fb5-417c-875d-160fba1bbdc2"},"vehicle_type_id":"4","last_reported":1713334325,"current_range_meters":30000,"station_id":"ce4bgup2rcd13ifvqcn0","pricing_plan_id":"cebpf4jnsgd1na2vs0mg"},{"bike_id":"8137e11c-052a-4854-805d-71982b611f96","system_id":"levelo_inurba_marseille","lat":43.304606,"lon":5.379026,"is_reserved":false,"is_disabled":false,"rental_uris":{"android":"levelo://app?vid=8137e11c-052a-4854-805d-71982b611f96","ios":"levelo://app?vid=8137e11c-052a-4854-805d-71982b611f96"},"vehicle_type_id":"4","last_reported":1713334325,"current_range_meters":20000,"station_id":"ce4bgup2rcd13ifvqcn0","pricing_plan_id":"cebpf4jnsgd1na2vs0mg"},{"bike_id":"6850d3ac-6118-46b8-87a3-283cb8f13775","system_id":"levelo_inurba_marseille","lat":43.324771,"lon":5.36557,"is_reserved":false,"is_disabled":false,"rental_uris":{"android":"levelo://app?vid=6850d3ac-6118-46b8-87a3-283cb8f13775","ios":"levelo://app?vid=6850d3ac-6118-46b8-87a3-283cb8f13775"},"vehicle_type_id":"4","last_reported":1713334325,"current_range_meters":12000,"station_id":"ce4bhs12rcd13ifvqhvg","pricing_plan_id":"cebpf4jnsgd1na2vs0mg"},{"bike_id":"cba9a660-d27a-41da-b352-6655248f1870","system_id":"levelo_inurba_marseille","lat":43.30463,"lon":5.37923,"is_reserved":false,"is_disabled":false,"rental_uris":{"android":"levelo://app?vid=cba9a660-d27a-41da-b352-6655248f1870","ios":"levelo://app?vid=cba9a660-d27a-41da-b352-6655248f1870"},"vehicle_type_id":"4","last_reported":1713334325,"current_range_meters":28400,"station_id":"ce4bgup2rcd13ifvqcn0","pricing_plan_id":"cebpf4jnsgd1na2vs0mg"},{"bike_id":"5ce5fa59-9dde-4da2-912c-721155facf83","system_id":"levelo_inurba_marseille","lat":43.304606,"lon":5.379026,"is_reserved":false,"is_disabled":false,"rental_uris":{"android":"levelo://app?vid=5ce5fa59-9dde-4da2-912c-721155facf83","ios":"levelo://app?vid=5ce5fa59-9dde-4da2-912c-721155facf83"},"vehicle_type_id":"4","last_reported":1713334325,"current_range_meters":22000,"station_id":"ce4bgup2rcd13ifvqcn0","pricing_plan_id":"cebpf4jnsgd1na2vs0mg"},{"bike_id":"bdd5fc7e-d9fd-4a61-a4e9-353797c4a696","system_id":"levelo_inurba_marseille","lat":43.324771,"lon":5.36557,"is_reserved":false,"is_disabled":false,"rental_uris":{"android":"levelo://app?vid=bdd5fc7e-d9fd-4a61-a4e9-353797c4a696","ios":"levelo://app?vid=bdd5fc7e-d9fd-4a61-a4e9-353797c4a696"},"vehicle_type_id":"4","last_reported":1713334325,"current_range_meters":19600,"station_id":"ce4bhs12rcd13ifvqhvg","pricing_plan_id":"cebpf4jnsgd1na2vs0mg"},{"bike_id":"987ff266-1d7f-4a1b-bb6d-7916ef7c11cf","system_id":"levelo_inurba_marseille","lat":43.30459,"lon":5.37919,"is_reserved":false,"is_disabled":false,"rental_uris":{"android":"levelo://app?vid=987ff266-1d7f-4a1b-bb6d-7916ef7c11cf","ios":"levelo://app?vid=987ff266-1d7f-4a1b-bb6d-7916ef7c11cf"},"vehicle_type_id":"4","last_reported":1713334325,"current_range_meters":28400,"station_id":"","pricing_plan_id":"cebpf4jnsgd1na2vs0mg"},{"bike_id":"89e8f66a-6c57-4139-a479-115ef8d5cb6d","system_id":"levelo_inurba_marseille","lat":43.304606,"lon":5.379026,"is_reserved":false,"is_disabled":false,"rental_uris":{"android":"levelo://app?vid=89e8f66a-6c57-4139-a479-115ef8d5cb6d","ios":"levelo://app?vid=89e8f66a-6c57-4139-a479-115ef8d5cb6d"},"vehicle_type_id":"4","last_reported":1713334325,"current_range_meters":26400,"station_id":"ce4bgup2rcd13ifvqcn0","pricing_plan_id":"cebpf4jnsgd1na2vs0mg"},{"bike_id":"ea016da6-3b68-4476-979d-ee5724ab38b1","system_id":"levelo_inurba_marseille","lat":43.324771,"lon":5.36557,"is_reserved":false,"is_disabled":false,"rental_uris":{"android":"levelo://app?vid=ea016da6-3b68-4476-979d-ee5724ab38b1","ios":"levelo://app?vid=ea016da6-3b68-4476-979d-ee5724ab38b1"},"vehicle_type_id":"4","last_reported":1713334325,"current_range_meters":23200,"station_id":"ce4bhs12rcd13ifvqhvg","pricing_plan_id":"cebpf4jnsgd1na2vs0mg"},{"bike_id":"d9db9789-6140-45e9-938c-f6574b46093b","system_id":"levelo_inurba_marseille","lat":43.30451,"lon":5.37911,"is_reserved":false,"is_disabled":false,"rental_uris":{"android":"levelo://app?vid=d9db9789-6140-45e9-938c-f6574b46093b","ios":"levelo://app?vid=d9db9789-6140-45e9-938c-f6574b46093b"},"vehicle_type_id":"4","last_reported":1713334325,"current_range_meters":25200,"station_id":"ce4bgup2rcd13ifvqcn0","pricing_plan_id":"cebpf4jnsgd1na2vs0mg"},{"bike_id":"be165d27-a296-46f3-b1b2-83e3ac413927","system_id":"levelo_inurba_marseille","lat":43.304577,"lon":5.379195,"is_reserved":false,"is_disabled":false,"rental_uris":{"android":"levelo://app?vid=be165d27-a296-46f3-b1b2-83e3ac413927","ios":"levelo://app?vid=be165d27-a296-46f3-b1b2-83e3ac413927"},"vehicle_type_id":"4","last_reported":1713334325,"current_range_meters":20800,"station_id":"ce4bgup2rcd13ifvqcn0","pricing_plan_id":"cebpf4jnsgd1na2vs0mg"},{"bike_id":"0a08e9a4-5ccd-44e5-b785-f4dcbd928ea4","system_id":"levelo_inurba_marseille","lat":43.304606,"lon":5.379026,"is_reserved":false,"is_disabled":false,"rental_uris":{"android":"levelo://app?vid=0a08e9a4-5ccd-44e5-b785-f4dcbd928ea4","ios":"levelo://app?vid=0a08e9a4-5ccd-44e5-b785-f4dcbd928ea4"},"vehicle_type_id":"4","last_reported":1713334325,"current_range_meters":18400,"station_id":"ce4bgup2rcd13ifvqcn0","pricing_plan_id":"cebpf4jnsgd1na2vs0mg"},{"bike_id":"092e6802-f472-476a-a981-c2792ca0acdd","system_id":"levelo_inurba_marseille","lat":43.304606,"lon":5.379026,"is_reserved":false,"is_disabled":false,"rental_uris":{"android":"levelo://app?vid=092e6802-f472-476a-a981-c2792ca0acdd","ios":"levelo://app?vid=092e6802-f472-476a-a981-c2792ca0acdd"},"vehicle_type_id":"4","last_reported":1713334325,"current_range_meters":28400,"station_id":"ce4bgup2rcd13ifvqcn0","pricing_plan_id":"cebpf4jnsgd1na2vs0mg"},{"bike_id":"c2837c0e-b949-48ea-9c8f-0bbaa82518e9","system_id":"levelo_inurba_marseille","lat":43.309039,"lon":5.371797,"is_reserved":false,"is_disabled":false,"rental_uris":{"android":"levelo://app?vid=c2837c0e-b949-48ea-9c8f-0bbaa82518e9","ios":"levelo://app?vid=c2837c0e-b949-48ea-9c8f-0bbaa82518e9"},"vehicle_type_id":"4","last_reported":1713334325,"current_range_meters":2400,"station_id":"ce4bguh2rcd13ifvqckg","pricing_plan_id":"cebpf4jnsgd1na2vs0mg"},{"bike_id":"732115dd-fc36-4cea-9cd6-0e4cc350a9d7","system_id":"levelo_inurba_marseille","lat":43.324771,"lon":5.36557,"is_reserved":false,"is_disabled":false,"rental_uris":{"android":"levelo://app?vid=732115dd-fc36-4cea-9cd6-0e4cc350a9d7","ios":"levelo://app?vid=732115dd-fc36-4cea-9cd6-0e4cc350a9d7"},"vehicle_type_id":"4","last_reported":1713334325,"current_range_meters":5600,"station_id":"ce4bhs12rcd13ifvqhvg","pricing_plan_id":"cebpf4jnsgd1na2vs0mg"},{"bike_id":"b7731c9b-2794-4b40-9afd-e1fc69613d64","system_id":"levelo_inurba_marseille","lat":43.310804,"lon":5.38359,"is_reserved":false,"is_disabled":false,"rental_uris":{"android":"levelo://app?vid=b7731c9b-2794-4b40-9afd-e1fc69613d64","ios":"levelo://app?vid=b7731c9b-2794-4b40-9afd-e1fc69613d64"},"vehicle_type_id":"4","last_reported":1713334325,"current_range_meters":31200,"station_id":"ce4bgv92rcd13ifvqcr0","pricing_plan_id":"cebpf4jnsgd1na2vs0mg"},{"bike_id":"3bf0dbf7-1a46-4454-85d4-d6199fac68a8","system_id":"levelo_inurba_marseille","lat":43.324771,"lon":5.36557,"is_reserved":false,"is_disabled":false,"rental_uris":{"android":"levelo://app?vid=3bf0dbf7-1a46-4454-85d4-d6199fac68a8","ios":"levelo://app?vid=3bf0dbf7-1a46-4454-85d4-d6199fac68a8"},"vehicle_type_id":"4","last_reported":1713334325,"current_range_meters":6800,"station_id":"ce4bhs12rcd13ifvqhvg","pricing_plan_id":"cebpf4jnsgd1na2vs0mg"},{"bike_id":"ceb2e7a0-07eb-4018-b658-bc6268cc5ad0","system_id":"levelo_inurba_marseille","lat":43.324771,"lon":5.36557,"is_reserved":false,"is_disabled":false,"rental_uris":{"android":"levelo://app?vid=ceb2e7a0-07eb-4018-b658-bc6268cc5ad0","ios":"levelo://app?vid=ceb2e7a0-07eb-4018-b658-bc6268cc5ad0"},"vehicle_type_id":"4","last_reported":1713334325,"current_range_meters":5600,"station_id":"ce4bhs12rcd13ifvqhvg","pricing_plan_id":"cebpf4jnsgd1na2vs0mg"},{"bike_id":"fb961c54-d86e-4c51-9812-a80fd53cb14f","system_id":"levelo_inurba_marseille","lat":43.31078,"lon":5.38349,"is_reserved":false,"is_disabled":false,"rental_uris":{"android":"levelo://app?vid=fb961c54-d86e-4c51-9812-a80fd53cb14f","ios":"levelo://app?vid=fb961c54-d86e-4c51-9812-a80fd53cb14f"},"vehicle_type_id":"4","last_reported":1713334325,"current_range_meters":0,"station_id":"ce4bgv92rcd13ifvqcr0","pricing_plan_id":"cebpf4jnsgd1na2vs0mg"},{"bike_id":"e67152fe-28df-43ad-a7af-4d27057439ca","system_id":"levelo_inurba_marseille","lat":43.310804,"lon":5.38359,"is_reserved":false,"is_disabled":false,"rental_uris":{"android":"levelo://app?vid=e67152fe-28df-43ad-a7af-4d27057439ca","ios":"levelo://app?vid=e67152fe-28df-43ad-a7af-4d27057439ca"},"vehicle_type_id":"4","last_reported":1713334325,"current_range_meters":4000,"station_id":"ce4bgv92rcd13ifvqcr0","pricing_plan_id":"cebpf4jnsgd1na2vs0mg"},{"bike_id":"9481dcf3-7c13-482d-8b1a-c25046082cfd","system_id":"levelo_inurba_marseille","lat":43.292749,"lon":5.368402,"is_reserved":false,"is_disabled":false,"rental_uris":{"android":"levelo://app?vid=9481dcf3-7c13-482d-8b1a-c25046082cfd","ios":"levelo://app?vid=9481dcf3-7c13-482d-8b1a-c25046082cfd"},"vehicle_type_id":"4","last_reported":1713334325,"current_range_meters":22000,"station_id":"ce4bhbp2rcd13ifvqesg","pricing_plan_id":"cebpf4jnsgd1na2vs0mg"},{"bike_id":"34e17031-4fab-4c81-9465-f4bb32ce7b88","system_id":"levelo_inurba_marseille","lat":43.31082,"lon":5.38359,"is_reserved":false,"is_disabled":false,"rental_uris":{"android":"levelo://app?vid=34e17031-4fab-4c81-9465-f4bb32ce7b88","ios":"levelo://app?vid=34e17031-4fab-4c81-9465-f4bb32ce7b88"},"vehicle_type_id":"4","last_reported":1713334325,"current_range_meters":2400,"station_id":"ce4bgv92rcd13ifvqcr0","pricing_plan_id":"cebpf4jnsgd1na2vs0mg"},{"bike_id":"831471f4-aee9-4690-9ad4-4d0afa9a9648","system_id":"levelo_inurba_marseille","lat":43.310804,"lon":5.38359,"is_reserved":false,"is_disabled":false,"rental_uris":{"android":"levelo://app?vid=831471f4-aee9-4690-9ad4-4d0afa9a9648","ios":"levelo://app?vid=831471f4-aee9-4690-9ad4-4d0afa9a9648"},"vehicle_type_id":"4","last_reported":1713334325,"current_range_meters":4000,"station_id":"ce4bgv92rcd13ifvqcr0","pricing_plan_id":"cebpf4jnsgd1na2vs0mg"},{"bike_id":"f8604e2f-cb57-4f73-91e0-929640d789cb","system_id":"levelo_inurba_marseille","lat":43.302784,"lon":5.377158,"is_reserved":false,"is_disabled":false,"rental_uris":{"android":"levelo://app?vid=f8604e2f-cb57-4f73-91e0-929640d789cb","ios":"levelo://app?vid=f8604e2f-cb57-4f73-91e0-929640d789cb"},"vehicle_type_id":"4","last_reported":1713334325,"current_range_meters":29200,"station_id":"ce4bguh2rcd13ifvqcj0","pricing_plan_id":"cebpf4jnsgd1na2vs0mg"},{"bike_id":"1469bf9b-403d-48e7-b182-10e6e85328ff","system_id":"levelo_inurba_marseille","lat":43.301429,"lon":5.37413,"is_reserved":false,"is_disabled":false,"rental_uris":{"android":"levelo://app?vid=1469bf9b-403d-48e7-b182-10e6e85328ff","ios":"levelo://app?vid=1469bf9b-403d-48e7-b182-10e6e85328ff"},"vehicle_type_id":"4","last_reported":1713334325,"current_range_meters":24800,"station_id":"ce4bgs92rcd13ifvqcc0","pricing_plan_id":"cebpf4jnsgd1na2vs0mg"},{"bike_id":"5e0422c4-4db2-4cd5-8ec6-f1a5f73617e2","system_id":"levelo_inurba_marseille","lat":43.30559,"lon":5.38135,"is_reserved":false,"is_disabled":false,"rental_uris":{"android":"levelo://app?vid=5e0422c4-4db2-4cd5-8ec6-f1a5f73617e2","ios":"levelo://app?vid=5e0422c4-4db2-4cd5-8ec6-f1a5f73617e2"},"vehicle_type_id":"4","last_reported":1713334325,"current_range_meters":20400,"station_id":"","pricing_plan_id":"cebpf4jnsgd1na2vs0mg"},{"bike_id":"334e3407-4f9b-4b57-a5ef-39033f25d948","system_id":"levelo_inurba_marseille","lat":43.319935,"lon":5.381699,"is_reserved":false,"is_disabled":false,"rental_uris":{"android":"levelo://app?vid=334e3407-4f9b-4b57-a5ef-39033f25d948","ios":"levelo://app?vid=334e3407-4f9b-4b57-a5ef-39033f25d948"},"vehicle_type_id":"4","last_reported":1713334325,"current_range_meters":22400,"station_id":"ce4bhr12rcd13ifvqhpg","pricing_plan_id":"cebpf4jnsgd1na2vs0mg"},{"bike_id":"425f6628-b6f6-493e-90a9-d0a9dadab5d7","system_id":"levelo_inurba_marseille","lat":43.319935,"lon":5.381699,"is_reserved":false,"is_disabled":false,"rental_uris":{"android":"levelo://app?vid=425f6628-b6f6-493e-90a9-d0a9dadab5d7","ios":"levelo://app?vid=425f6628-b6f6-493e-90a9-d0a9dadab5d7"},"vehicle_type_id":"4","last_reported":1713334325,"current_range_meters":10000,"station_id":"ce4bhr12rcd13ifvqhpg","pricing_plan_id":"cebpf4jnsgd1na2vs0mg"},{"bike_id":"f00613ec-f56b-4110-b7f4-e096c4497746","system_id":"levelo_inurba_marseille","lat":43.319935,"lon":5.381699,"is_reserved":false,"is_disabled":false,"rental_uris":{"android":"levelo://app?vid=f00613ec-f56b-4110-b7f4-e096c4497746","ios":"levelo://app?vid=f00613ec-f56b-4110-b7f4-e096c4497746"},"vehicle_type_id":"4","last_reported":1713334325,"current_range_meters":24400,"station_id":"ce4bhr12rcd13ifvqhpg","pricing_plan_id":"cebpf4jnsgd1na2vs0mg"},{"bike_id":"252b1aad-2087-4bec-b4ef-898ffb9e27a1","system_id":"levelo_inurba_marseille","lat":43.319935,"lon":5.381699,"is_reserved":false,"is_disabled":false,"rental_uris":{"android":"levelo://app?vid=252b1aad-2087-4bec-b4ef-898ffb9e27a1","ios":"levelo://app?vid=252b1aad-2087-4bec-b4ef-898ffb9e27a1"},"vehicle_type_id":"4","last_reported":1713334325,"current_range_meters":8400,"station_id":"ce4bhr12rcd13ifvqhpg","pricing_plan_id":"cebpf4jnsgd1na2vs0mg"},{"bike_id":"c421a087-ca80-432f-a34a-3406c6300cf9","system_id":"levelo_inurba_marseille","lat":43.30537,"lon":5.367345,"is_reserved":false,"is_disabled":false,"rental_uris":{"android":"levelo://app?vid=c421a087-ca80-432f-a34a-3406c6300cf9","ios":"levelo://app?vid=c421a087-ca80-432f-a34a-3406c6300cf9"},"vehicle_type_id":"4","last_reported":1713334325,"current_range_meters":19200,"station_id":"ce4bgrp2rcd13ifvqc9g","pricing_plan_id":"cebpf4jnsgd1na2vs0mg"},{"bike_id":"cbc35039-16a8-4a5a-ab38-3e9c653bec13","system_id":"levelo_inurba_marseille","lat":43.313571,"lon":5.384829,"is_reserved":false,"is_disabled":false,"rental_uris":{"android":"levelo://app?vid=cbc35039-16a8-4a5a-ab38-3e9c653bec13","ios":"levelo://app?vid=cbc35039-16a8-4a5a-ab38-3e9c653bec13"},"vehicle_type_id":"4","last_reported":1713334325,"current_range_meters":8400,"station_id":"ce4bgt92rcd13ifvqcf0","pricing_plan_id":"cebpf4jnsgd1na2vs0mg"},{"bike_id":"0efc132e-b7bd-4dc6-b1b4-de8a4b2ea50a","system_id":"levelo_inurba_marseille","lat":43.313571,"lon":5.384829,"is_reserved":false,"is_disabled":false,"rental_uris":{"android":"levelo://app?vid=0efc132e-b7bd-4dc6-b1b4-de8a4b2ea50a","ios":"levelo://app?vid=0efc132e-b7bd-4dc6-b1b4-de8a4b2ea50a"},"vehicle_type_id":"4","last_reported":1713334325,"current_range_meters":17200,"station_id":"ce4bgt92rcd13ifvqcf0","pricing_plan_id":"cebpf4jnsgd1na2vs0mg"},{"bike_id":"9f633b85-237f-4f3a-869f-98151f1feefd","system_id":"levelo_inurba_marseille","lat":43.313571,"lon":5.384829,"is_reserved":false,"is_disabled":false,"rental_uris":{"android":"levelo://app?vid=9f633b85-237f-4f3a-869f-98151f1feefd","ios":"levelo://app?vid=9f633b85-237f-4f3a-869f-98151f1feefd"},"vehicle_type_id":"4","last_reported":1713334325,"current_range_meters":6800,"station_id":"ce4bgt92rcd13ifvqcf0","pricing_plan_id":"cebpf4jnsgd1na2vs0mg"},{"bike_id":"52edee1f-7af5-4870-87ce-ef31f514c9cf","system_id":"levelo_inurba_marseille","lat":43.313571,"lon":5.384829,"is_reserved":false,"is_disabled":false,"rental_uris":{"android":"levelo://app?vid=52edee1f-7af5-4870-87ce-ef31f514c9cf","ios":"levelo://app?vid=52edee1f-7af5-4870-87ce-ef31f514c9cf"},"vehicle_type_id":"4","last_reported":1713334325,"current_range_meters":12000,"station_id":"ce4bgt92rcd13ifvqcf0","pricing_plan_id":"cebpf4jnsgd1na2vs0mg"},{"bike_id":"abf19548-2436-41c5-b907-92b70587a53e","system_id":"levelo_inurba_marseille","lat":43.313571,"lon":5.384829,"is_reserved":false,"is_disabled":false,"rental_uris":{"android":"levelo://app?vid=abf19548-2436-41c5-b907-92b70587a53e","ios":"levelo://app?vid=abf19548-2436-41c5-b907-92b70587a53e"},"vehicle_type_id":"4","last_reported":1713334325,"current_range_meters":3600,"station_id":"ce4bgt92rcd13ifvqcf0","pricing_plan_id":"cebpf4jnsgd1na2vs0mg"},{"bike_id":"8e0d8bcd-7d53-471e-b101-b8bd0dce0d73","system_id":"levelo_inurba_marseille","lat":43.313571,"lon":5.384829,"is_reserved":false,"is_disabled":false,"rental_uris":{"android":"levelo://app?vid=8e0d8bcd-7d53-471e-b101-b8bd0dce0d73","ios":"levelo://app?vid=8e0d8bcd-7d53-471e-b101-b8bd0dce0d73"},"vehicle_type_id":"4","last_reported":1713334325,"current_range_meters":30000,"station_id":"ce4bgt92rcd13ifvqcf0","pricing_plan_id":"cebpf4jnsgd1na2vs0mg"},{"bike_id":"36db463e-bca2-4920-b8a0-0878551f9ef9","system_id":"levelo_inurba_marseille","lat":43.304606,"lon":5.379026,"is_reserved":false,"is_disabled":false,"rental_uris":{"android":"levelo://app?vid=36db463e-bca2-4920-b8a0-0878551f9ef9","ios":"levelo://app?vid=36db463e-bca2-4920-b8a0-0878551f9ef9"},"vehicle_type_id":"4","last_reported":1713334325,"current_range_meters":9200,"station_id":"ce4bgup2rcd13ifvqcn0","pricing_plan_id":"cebpf4jnsgd1na2vs0mg"},{"bike_id":"350e822c-f9eb-4eb9-bb39-42ae58d9f8f9","system_id":"levelo_inurba_marseille","lat":43.313571,"lon":5.384829,"is_reserved":false,"is_disabled":false,"rental_uris":{"android":"levelo://app?vid=350e822c-f9eb-4eb9-bb39-42ae58d9f8f9","ios":"levelo://app?vid=350e822c-f9eb-4eb9-bb39-42ae58d9f8f9"},"vehicle_type_id":"4","last_reported":1713334325,"current_range_meters":4800,"station_id":"ce4bgt92rcd13ifvqcf0","pricing_plan_id":"cebpf4jnsgd1na2vs0mg"},{"bike_id":"79b1484c-7ca2-4a8d-b15b-2987062d3cb2","system_id":"levelo_inurba_marseille","lat":43.300124,"lon":5.376568,"is_reserved":false,"is_disabled":false,"rental_uris":{"android":"levelo://app?vid=79b1484c-7ca2-4a8d-b15b-2987062d3cb2","ios":"levelo://app?vid=79b1484c-7ca2-4a8d-b15b-2987062d3cb2"},"vehicle_type_id":"4","last_reported":1713334325,"current_range_meters":26800,"station_id":"","pricing_plan_id":"cebpf4jnsgd1na2vs0mg"},{"bike_id":"2eda876e-a468-4a5f-8272-72f6e6df2007","system_id":"levelo_inurba_marseille","lat":43.305364,"lon":5.384119,"is_reserved":false,"is_disabled":false,"rental_uris":{"android":"levelo://app?vid=2eda876e-a468-4a5f-8272-72f6e6df2007","ios":"levelo://app?vid=2eda876e-a468-4a5f-8272-72f6e6df2007"},"vehicle_type_id":"4","last_reported":1713334325,"current_range_meters":22400,"station_id":"ce4bgg92rcd13ifvqb30","pricing_plan_id":"cebpf4jnsgd1na2vs0mg"},{"bike_id":"c3b2eb74-e241-47dc-8d54-c6db2e00029d","system_id":"levelo_inurba_marseille","lat":43.298433,"lon":5.362774,"is_reserved":false,"is_disabled":false,"rental_uris":{"android":"levelo://app?vid=c3b2eb74-e241-47dc-8d54-c6db2e00029d","ios":"levelo://app?vid=c3b2eb74-e241-47dc-8d54-c6db2e00029d"},"vehicle_type_id":"4","last_reported":1713334325,"current_range_meters":28400,"station_id":"ce4bgpp2rcd13ifvqc3g","pricing_plan_id":"cebpf4jnsgd1na2vs0mg"},{"bike_id":"1c0cddca-8961-479c-a332-a381bb33de9e","system_id":"levelo_inurba_marseille","lat":43.305364,"lon":5.384119,"is_reserved":false,"is_disabled":false,"rental_uris":{"android":"levelo://app?vid=1c0cddca-8961-479c-a332-a381bb33de9e","ios":"levelo://app?vid=1c0cddca-8961-479c-a332-a381bb33de9e"},"vehicle_type_id":"4","last_reported":1713334325,"current_range_meters":4000,"station_id":"ce4bgg92rcd13ifvqb30","pricing_plan_id":"cebpf4jnsgd1na2vs0mg"},{"bike_id":"99a2eb4d-7c67-44f6-be19-56a3b18d06fb","system_id":"levelo_inurba_marseille","lat":43.298433,"lon":5.362774,"is_reserved":false,"is_disabled":false,"rental_uris":{"android":"levelo://app?vid=99a2eb4d-7c67-44f6-be19-56a3b18d06fb","ios":"levelo://app?vid=99a2eb4d-7c67-44f6-be19-56a3b18d06fb"},"vehicle_type_id":"4","last_reported":1713334325,"current_range_meters":25600,"station_id":"ce4bgpp2rcd13ifvqc3g","pricing_plan_id":"cebpf4jnsgd1na2vs0mg"},{"bike_id":"b5204573-d588-440d-b467-c4ceeca322b5","system_id":"levelo_inurba_marseille","lat":43.305364,"lon":5.384119,"is_reserved":false,"is_disabled":false,"rental_uris":{"android":"levelo://app?vid=b5204573-d588-440d-b467-c4ceeca322b5","ios":"levelo://app?vid=b5204573-d588-440d-b467-c4ceeca322b5"},"vehicle_type_id":"4","last_reported":1713334325,"current_range_meters":31600,"station_id":"ce4bgg92rcd13ifvqb30","pricing_plan_id":"cebpf4jnsgd1na2vs0mg"},{"bike_id":"56a1243b-bf19-4aac-8a59-051aa3cd5c07","system_id":"levelo_inurba_marseille","lat":43.305364,"lon":5.384119,"is_reserved":false,"is_disabled":false,"rental_uris":{"android":"levelo://app?vid=56a1243b-bf19-4aac-8a59-051aa3cd5c07","ios":"levelo://app?vid=56a1243b-bf19-4aac-8a59-051aa3cd5c07"},"vehicle_type_id":"4","last_reported":1713334325,"current_range_meters":31200,"station_id":"ce4bgg92rcd13ifvqb30","pricing_plan_id":"cebpf4jnsgd1na2vs0mg"},{"bike_id":"1467c91b-76e1-4c8c-a777-477a5d1e50b2","system_id":"levelo_inurba_marseille","lat":43.298433,"lon":5.362774,"is_reserved":false,"is_disabled":false,"rental_uris":{"android":"levelo://app?vid=1467c91b-76e1-4c8c-a777-477a5d1e50b2","ios":"levelo://app?vid=1467c91b-76e1-4c8c-a777-477a5d1e50b2"},"vehicle_type_id":"4","last_reported":1713334325,"current_range_meters":28400,"station_id":"ce4bgpp2rcd13ifvqc3g","pricing_plan_id":"cebpf4jnsgd1na2vs0mg"},{"bike_id":"45c31b2d-fb90-4d01-991f-bd39869702db","system_id":"levelo_inurba_marseille","lat":43.299243,"lon":5.37481,"is_reserved":false,"is_disabled":false,"rental_uris":{"android":"levelo://app?vid=45c31b2d-fb90-4d01-991f-bd39869702db","ios":"levelo://app?vid=45c31b2d-fb90-4d01-991f-bd39869702db"},"vehicle_type_id":"4","last_reported":1713334325,"current_range_meters":16000,"station_id":"ce4bgjh2rcd13ifvqbg0","pricing_plan_id":"cebpf4jnsgd1na2vs0mg"},{"bike_id":"56233a00-8012-4d34-a985-106a75828f9c","system_id":"levelo_inurba_marseille","lat":43.305364,"lon":5.384119,"is_reserved":false,"is_disabled":false,"rental_uris":{"android":"levelo://app?vid=56233a00-8012-4d34-a985-106a75828f9c","ios":"levelo://app?vid=56233a00-8012-4d34-a985-106a75828f9c"},"vehicle_type_id":"4","last_reported":1713334325,"current_range_meters":7600,"station_id":"ce4bgg92rcd13ifvqb30","pricing_plan_id":"cebpf4jnsgd1na2vs0mg"},{"bike_id":"dd80c66f-d6cf-4d2d-a9a1-1c7d13cf0802","system_id":"levelo_inurba_marseille","lat":43.311722,"lon":5.387247,"is_reserved":false,"is_disabled":false,"rental_uris":{"android":"levelo://app?vid=dd80c66f-d6cf-4d2d-a9a1-1c7d13cf0802","ios":"levelo://app?vid=dd80c66f-d6cf-4d2d-a9a1-1c7d13cf0802"},"vehicle_type_id":"4","last_reported":1713334325,"current_range_meters":6800,"station_id":"ce4bgv12rcd13ifvqcp0","pricing_plan_id":"cebpf4jnsgd1na2vs0mg"},{"bike_id":"33334dfe-de39-4d40-bfd7-4b26a5f35e2c","system_id":"levelo_inurba_marseille","lat":43.311722,"lon":5.387247,"is_reserved":false,"is_disabled":false,"rental_uris":{"android":"levelo://app?vid=33334dfe-de39-4d40-bfd7-4b26a5f35e2c","ios":"levelo://app?vid=33334dfe-de39-4d40-bfd7-4b26a5f35e2c"},"vehicle_type_id":"4","last_reported":1713334325,"current_range_meters":21200,"station_id":"ce4bgv12rcd13ifvqcp0","pricing_plan_id":"cebpf4jnsgd1na2vs0mg"},{"bike_id":"9ab9f033-4e47-4686-9aa4-71b6e1219c34","system_id":"levelo_inurba_marseille","lat":43.297794,"lon":5.370888,"is_reserved":false,"is_disabled":false,"rental_uris":{"android":"levelo://app?vid=9ab9f033-4e47-4686-9aa4-71b6e1219c34","ios":"levelo://app?vid=9ab9f033-4e47-4686-9aa4-71b6e1219c34"},"vehicle_type_id":"4","last_reported":1713334325,"current_range_meters":26000,"station_id":"ce4bgop2rcd13ifvqc1g","pricing_plan_id":"cebpf4jnsgd1na2vs0mg"},{"bike_id":"69376404-0f07-48f5-99eb-46eab38f3abc","system_id":"levelo_inurba_marseille","lat":43.30153,"lon":5.38093,"is_reserved":false,"is_disabled":false,"rental_uris":{"android":"levelo://app?vid=69376404-0f07-48f5-99eb-46eab38f3abc","ios":"levelo://app?vid=69376404-0f07-48f5-99eb-46eab38f3abc"},"vehicle_type_id":"4","last_reported":1713334325,"current_range_meters":24800,"station_id":"","pricing_plan_id":"cebpf4jnsgd1na2vs0mg"},{"bike_id":"1b19caf9-76e3-4cd1-b782-3077259173c5","system_id":"levelo_inurba_marseille","lat":43.297774,"lon":5.370875,"is_reserved":false,"is_disabled":false,"rental_uris":{"android":"levelo://app?vid=1b19caf9-76e3-4cd1-b782-3077259173c5","ios":"levelo://app?vid=1b19caf9-76e3-4cd1-b782-3077259173c5"},"vehicle_type_id":"4","last_reported":1713334325,"current_range_meters":25600,"station_id":"ce4bgop2rcd13ifvqc1g","pricing_plan_id":"cebpf4jnsgd1na2vs0mg"},{"bike_id":"33535e52-090e-456f-aea4-9f39650afa61","system_id":"levelo_inurba_marseille","lat":43.29573,"lon":5.367355,"is_reserved":false,"is_disabled":false,"rental_uris":{"android":"levelo://app?vid=33535e52-090e-456f-aea4-9f39650afa61","ios":"levelo://app?vid=33535e52-090e-456f-aea4-9f39650afa61"},"vehicle_type_id":"4","last_reported":1713334325,"current_range_meters":31600,"station_id":"ce4bgph2rcd13ifvqc2g","pricing_plan_id":"cebpf4jnsgd1na2vs0mg"},{"bike_id":"9b0cea47-2dc3-436c-ad76-2a4fc9203532","system_id":"levelo_inurba_marseille","lat":43.295831,"lon":5.367336,"is_reserved":false,"is_disabled":false,"rental_uris":{"android":"levelo://app?vid=9b0cea47-2dc3-436c-ad76-2a4fc9203532","ios":"levelo://app?vid=9b0cea47-2dc3-436c-ad76-2a4fc9203532"},"vehicle_type_id":"4","last_reported":1713334325,"current_range_meters":30800,"station_id":"ce4bgph2rcd13ifvqc2g","pricing_plan_id":"cebpf4jnsgd1na2vs0mg"},{"bike_id":"e77aff61-9890-4bc5-9efd-2d26907e6080","system_id":"levelo_inurba_marseille","lat":43.29573,"lon":5.367355,"is_reserved":false,"is_disabled":false,"rental_uris":{"android":"levelo://app?vid=e77aff61-9890-4bc5-9efd-2d26907e6080","ios":"levelo://app?vid=e77aff61-9890-4bc5-9efd-2d26907e6080"},"vehicle_type_id":"4","last_reported":1713334325,"current_range_meters":24800,"station_id":"ce4bgph2rcd13ifvqc2g","pricing_plan_id":"cebpf4jnsgd1na2vs0mg"},{"bike_id":"b8f4d8b6-3aba-430e-bd72-e89e6968f35e","system_id":"levelo_inurba_marseille","lat":43.29573,"lon":5.367355,"is_reserved":false,"is_disabled":false,"rental_uris":{"android":"levelo://app?vid=b8f4d8b6-3aba-430e-bd72-e89e6968f35e","ios":"levelo://app?vid=b8f4d8b6-3aba-430e-bd72-e89e6968f35e"},"vehicle_type_id":"4","last_reported":1713334325,"current_range_meters":19600,"station_id":"ce4bgph2rcd13ifvqc2g","pricing_plan_id":"cebpf4jnsgd1na2vs0mg"},{"bike_id":"faa4ad67-a86b-450d-ac30-a1f324de9d30","system_id":"levelo_inurba_marseille","lat":43.29573,"lon":5.367355,"is_reserved":false,"is_disabled":false,"rental_uris":{"android":"levelo://app?vid=faa4ad67-a86b-450d-ac30-a1f324de9d30","ios":"levelo://app?vid=faa4ad67-a86b-450d-ac30-a1f324de9d30"},"vehicle_type_id":"4","last_reported":1713334325,"current_range_meters":30400,"station_id":"ce4bgph2rcd13ifvqc2g","pricing_plan_id":"cebpf4jnsgd1na2vs0mg"},{"bike_id":"455a7300-4d4c-44e4-8a1d-3d910887348f","system_id":"levelo_inurba_marseille","lat":43.29573,"lon":5.367355,"is_reserved":false,"is_disabled":false,"rental_uris":{"android":"levelo://app?vid=455a7300-4d4c-44e4-8a1d-3d910887348f","ios":"levelo://app?vid=455a7300-4d4c-44e4-8a1d-3d910887348f"},"vehicle_type_id":"4","last_reported":1713334325,"current_range_meters":16400,"station_id":"ce4bgph2rcd13ifvqc2g","pricing_plan_id":"cebpf4jnsgd1na2vs0mg"},{"bike_id":"87b460c9-cb99-43d7-b800-e7e58dfca06a","system_id":"levelo_inurba_marseille","lat":43.29573,"lon":5.367355,"is_reserved":false,"is_disabled":false,"rental_uris":{"android":"levelo://app?vid=87b460c9-cb99-43d7-b800-e7e58dfca06a","ios":"levelo://app?vid=87b460c9-cb99-43d7-b800-e7e58dfca06a"},"vehicle_type_id":"4","last_reported":1713334325,"current_range_meters":25200,"station_id":"ce4bgph2rcd13ifvqc2g","pricing_plan_id":"cebpf4jnsgd1na2vs0mg"},{"bike_id":"1b1c288b-18f4-4361-94b1-44e75151e2a5","system_id":"levelo_inurba_marseille","lat":43.309589,"lon":5.390258,"is_reserved":false,"is_disabled":false,"rental_uris":{"android":"levelo://app?vid=1b1c288b-18f4-4361-94b1-44e75151e2a5","ios":"levelo://app?vid=1b1c288b-18f4-4361-94b1-44e75151e2a5"},"vehicle_type_id":"4","last_reported":1713334325,"current_range_meters":24000,"station_id":"ce4bgup2rcd13ifvqco0","pricing_plan_id":"cebpf4jnsgd1na2vs0mg"},{"bike_id":"e4e52927-bc02-4a5c-a21b-c34fbd905dcd","system_id":"levelo_inurba_marseille","lat":43.30949,"lon":5.39036,"is_reserved":false,"is_disabled":false,"rental_uris":{"android":"levelo://app?vid=e4e52927-bc02-4a5c-a21b-c34fbd905dcd","ios":"levelo://app?vid=e4e52927-bc02-4a5c-a21b-c34fbd905dcd"},"vehicle_type_id":"4","last_reported":1713334325,"current_range_meters":31200,"station_id":"ce4bgup2rcd13ifvqco0","pricing_plan_id":"cebpf4jnsgd1na2vs0mg"},{"bike_id":"ba9e2df5-d074-4fba-8cd4-139498954d51","system_id":"levelo_inurba_marseille","lat":43.309589,"lon":5.390258,"is_reserved":false,"is_disabled":false,"rental_uris":{"android":"levelo://app?vid=ba9e2df5-d074-4fba-8cd4-139498954d51","ios":"levelo://app?vid=ba9e2df5-d074-4fba-8cd4-139498954d51"},"vehicle_type_id":"4","last_reported":1713334325,"current_range_meters":4800,"station_id":"ce4bgup2rcd13ifvqco0","pricing_plan_id":"cebpf4jnsgd1na2vs0mg"},{"bike_id":"28e2ea5f-b7d2-4e78-8675-7dd0b5e34928","system_id":"levelo_inurba_marseille","lat":43.309589,"lon":5.390258,"is_reserved":false,"is_disabled":false,"rental_uris":{"android":"levelo://app?vid=28e2ea5f-b7d2-4e78-8675-7dd0b5e34928","ios":"levelo://app?vid=28e2ea5f-b7d2-4e78-8675-7dd0b5e34928"},"vehicle_type_id":"4","last_reported":1713334325,"current_range_meters":0,"station_id":"ce4bgup2rcd13ifvqco0","pricing_plan_id":"cebpf4jnsgd1na2vs0mg"},{"bike_id":"7dd8f77f-f900-4145-8be7-b5afaf026e9a","system_id":"levelo_inurba_marseille","lat":43.309589,"lon":5.390258,"is_reserved":false,"is_disabled":false,"rental_uris":{"android":"levelo://app?vid=7dd8f77f-f900-4145-8be7-b5afaf026e9a","ios":"levelo://app?vid=7dd8f77f-f900-4145-8be7-b5afaf026e9a"},"vehicle_type_id":"4","last_reported":1713334325,"current_range_meters":2000,"station_id":"ce4bgup2rcd13ifvqco0","pricing_plan_id":"cebpf4jnsgd1na2vs0mg"},{"bike_id":"78269ca7-602f-46d4-8d85-b94199ba6512","system_id":"levelo_inurba_marseille","lat":43.317562,"lon":5.390024,"is_reserved":false,"is_disabled":false,"rental_uris":{"android":"levelo://app?vid=78269ca7-602f-46d4-8d85-b94199ba6512","ios":"levelo://app?vid=78269ca7-602f-46d4-8d85-b94199ba6512"},"vehicle_type_id":"4","last_reported":1713334325,"current_range_meters":6400,"station_id":"ce4bhqp2rcd13ifvqhng","pricing_plan_id":"cebpf4jnsgd1na2vs0mg"},{"bike_id":"afd389c0-7a1f-4448-8f6a-70ecd567a42f","system_id":"levelo_inurba_marseille","lat":43.317615,"lon":5.390043,"is_reserved":false,"is_disabled":false,"rental_uris":{"android":"levelo://app?vid=afd389c0-7a1f-4448-8f6a-70ecd567a42f","ios":"levelo://app?vid=afd389c0-7a1f-4448-8f6a-70ecd567a42f"},"vehicle_type_id":"4","last_reported":1713334325,"current_range_meters":16400,"station_id":"ce4bhqp2rcd13ifvqhng","pricing_plan_id":"cebpf4jnsgd1na2vs0mg"},{"bike_id":"0be653b8-c1d8-4fdc-8344-70e44b76290c","system_id":"levelo_inurba_marseille","lat":43.31747,"lon":5.39013,"is_reserved":false,"is_disabled":false,"rental_uris":{"android":"levelo://app?vid=0be653b8-c1d8-4fdc-8344-70e44b76290c","ios":"levelo://app?vid=0be653b8-c1d8-4fdc-8344-70e44b76290c"},"vehicle_type_id":"4","last_reported":1713334325,"current_range_meters":13200,"station_id":"ce4bhqp2rcd13ifvqhng","pricing_plan_id":"cebpf4jnsgd1na2vs0mg"},{"bike_id":"427afb0d-4139-4aeb-8ed2-57d22a6dc413","system_id":"levelo_inurba_marseille","lat":43.317574,"lon":5.390098,"is_reserved":false,"is_disabled":false,"rental_uris":{"android":"levelo://app?vid=427afb0d-4139-4aeb-8ed2-57d22a6dc413","ios":"levelo://app?vid=427afb0d-4139-4aeb-8ed2-57d22a6dc413"},"vehicle_type_id":"4","last_reported":1713334325,"current_range_meters":16000,"station_id":"ce4bhqp2rcd13ifvqhng","pricing_plan_id":"cebpf4jnsgd1na2vs0mg"},{"bike_id":"c1f9238c-c066-42fa-881a-71ff39872ee5","system_id":"levelo_inurba_marseille","lat":43.317599,"lon":5.390103,"is_reserved":false,"is_disabled":false,"rental_uris":{"android":"levelo://app?vid=c1f9238c-c066-42fa-881a-71ff39872ee5","ios":"levelo://app?vid=c1f9238c-c066-42fa-881a-71ff39872ee5"},"vehicle_type_id":"4","last_reported":1713334325,"current_range_meters":7200,"station_id":"ce4bhqp2rcd13ifvqhng","pricing_plan_id":"cebpf4jnsgd1na2vs0mg"},{"bike_id":"9225ab4b-19a0-4d0a-99ba-f1974be11c57","system_id":"levelo_inurba_marseille","lat":43.295713,"lon":5.399639,"is_reserved":false,"is_disabled":false,"rental_uris":{"android":"levelo://app?vid=9225ab4b-19a0-4d0a-99ba-f1974be11c57","ios":"levelo://app?vid=9225ab4b-19a0-4d0a-99ba-f1974be11c57"},"vehicle_type_id":"4","last_reported":1713334325,"current_range_meters":16400,"station_id":"ce4bh312rcd13ifvqdj0","pricing_plan_id":"cebpf4jnsgd1na2vs0mg"},{"bike_id":"e961bce4-adbf-46dc-90d6-14a5377e2d43","system_id":"levelo_inurba_marseille","lat":43.31756,"lon":5.39019,"is_reserved":false,"is_disabled":false,"rental_uris":{"android":"levelo://app?vid=e961bce4-adbf-46dc-90d6-14a5377e2d43","ios":"levelo://app?vid=e961bce4-adbf-46dc-90d6-14a5377e2d43"},"vehicle_type_id":"4","last_reported":1713334325,"current_range_meters":6400,"station_id":"ce4bhqp2rcd13ifvqhng","pricing_plan_id":"cebpf4jnsgd1na2vs0mg"},{"bike_id":"d700fe8c-f0ca-46cf-89ef-dc19397dd4b1","system_id":"levelo_inurba_marseille","lat":43.31749,"lon":5.39029,"is_reserved":false,"is_disabled":false,"rental_uris":{"android":"levelo://app?vid=d700fe8c-f0ca-46cf-89ef-dc19397dd4b1","ios":"levelo://app?vid=d700fe8c-f0ca-46cf-89ef-dc19397dd4b1"},"vehicle_type_id":"4","last_reported":1713334325,"current_range_meters":15200,"station_id":"ce4bhqp2rcd13ifvqhng","pricing_plan_id":"cebpf4jnsgd1na2vs0mg"},{"bike_id":"23a4a4a7-db92-461c-b0b4-26647f561a9c","system_id":"levelo_inurba_marseille","lat":43.298037,"lon":5.381066,"is_reserved":false,"is_disabled":false,"rental_uris":{"android":"levelo://app?vid=23a4a4a7-db92-461c-b0b4-26647f561a9c","ios":"levelo://app?vid=23a4a4a7-db92-461c-b0b4-26647f561a9c"},"vehicle_type_id":"4","last_reported":1713334325,"current_range_meters":23600,"station_id":"ce4bgip2rcd13ifvqbb0","pricing_plan_id":"cebpf4jnsgd1na2vs0mg"},{"bike_id":"eca79ef1-140b-44a8-b138-1677366b0ae6","system_id":"levelo_inurba_marseille","lat":43.298037,"lon":5.381066,"is_reserved":false,"is_disabled":false,"rental_uris":{"android":"levelo://app?vid=eca79ef1-140b-44a8-b138-1677366b0ae6","ios":"levelo://app?vid=eca79ef1-140b-44a8-b138-1677366b0ae6"},"vehicle_type_id":"4","last_reported":1713334325,"current_range_meters":26800,"station_id":"ce4bgip2rcd13ifvqbb0","pricing_plan_id":"cebpf4jnsgd1na2vs0mg"},{"bike_id":"becd7ef1-6d67-4773-a000-9ed08f7b1328","system_id":"levelo_inurba_marseille","lat":43.298037,"lon":5.381066,"is_reserved":false,"is_disabled":false,"rental_uris":{"android":"levelo://app?vid=becd7ef1-6d67-4773-a000-9ed08f7b1328","ios":"levelo://app?vid=becd7ef1-6d67-4773-a000-9ed08f7b1328"},"vehicle_type_id":"4","last_reported":1713334325,"current_range_meters":12000,"station_id":"ce4bgip2rcd13ifvqbb0","pricing_plan_id":"cebpf4jnsgd1na2vs0mg"},{"bike_id":"dc0b0a45-f8bf-4b02-ad21-806f19c323eb","system_id":"levelo_inurba_marseille","lat":43.298037,"lon":5.381066,"is_reserved":false,"is_disabled":false,"rental_uris":{"android":"levelo://app?vid=dc0b0a45-f8bf-4b02-ad21-806f19c323eb","ios":"levelo://app?vid=dc0b0a45-f8bf-4b02-ad21-806f19c323eb"},"vehicle_type_id":"4","last_reported":1713334325,"current_range_meters":31200,"station_id":"ce4bgip2rcd13ifvqbb0","pricing_plan_id":"cebpf4jnsgd1na2vs0mg"},{"bike_id":"5cfa5b4b-5753-471d-9921-790a5eb5be81","system_id":"levelo_inurba_marseille","lat":43.289184,"lon":5.366408,"is_reserved":false,"is_disabled":false,"rental_uris":{"android":"levelo://app?vid=5cfa5b4b-5753-471d-9921-790a5eb5be81","ios":"levelo://app?vid=5cfa5b4b-5753-471d-9921-790a5eb5be81"},"vehicle_type_id":"4","last_reported":1713334325,"current_range_meters":12000,"station_id":"ce4bhap2rcd13ifvqek0","pricing_plan_id":"cebpf4jnsgd1na2vs0mg"},{"bike_id":"2bc02d6f-5a8d-4762-a596-d724fa1d019e","system_id":"levelo_inurba_marseille","lat":43.304274,"lon":5.388873,"is_reserved":false,"is_disabled":false,"rental_uris":{"android":"levelo://app?vid=2bc02d6f-5a8d-4762-a596-d724fa1d019e","ios":"levelo://app?vid=2bc02d6f-5a8d-4762-a596-d724fa1d019e"},"vehicle_type_id":"4","last_reported":1713334325,"current_range_meters":22400,"station_id":"ce4bgk12rcd13ifvqbi0","pricing_plan_id":"cebpf4jnsgd1na2vs0mg"},{"bike_id":"2f3fbc92-4ddc-4850-9e79-6cb2d634cf89","system_id":"levelo_inurba_marseille","lat":43.304278,"lon":5.388868,"is_reserved":false,"is_disabled":false,"rental_uris":{"android":"levelo://app?vid=2f3fbc92-4ddc-4850-9e79-6cb2d634cf89","ios":"levelo://app?vid=2f3fbc92-4ddc-4850-9e79-6cb2d634cf89"},"vehicle_type_id":"4","last_reported":1713334325,"current_range_meters":27200,"station_id":"ce4bgk12rcd13ifvqbi0","pricing_plan_id":"cebpf4jnsgd1na2vs0mg"},{"bike_id":"d5e233a2-0e56-42d2-86b9-f8bcbe20cc4e","system_id":"levelo_inurba_marseille","lat":43.304278,"lon":5.388868,"is_reserved":false,"is_disabled":false,"rental_uris":{"android":"levelo://app?vid=d5e233a2-0e56-42d2-86b9-f8bcbe20cc4e","ios":"levelo://app?vid=d5e233a2-0e56-42d2-86b9-f8bcbe20cc4e"},"vehicle_type_id":"4","last_reported":1713334325,"current_range_meters":23600,"station_id":"ce4bgk12rcd13ifvqbi0","pricing_plan_id":"cebpf4jnsgd1na2vs0mg"},{"bike_id":"ee341767-6769-45e8-9b4b-e28d50151a33","system_id":"levelo_inurba_marseille","lat":43.298037,"lon":5.381066,"is_reserved":false,"is_disabled":false,"rental_uris":{"android":"levelo://app?vid=ee341767-6769-45e8-9b4b-e28d50151a33","ios":"levelo://app?vid=ee341767-6769-45e8-9b4b-e28d50151a33"},"vehicle_type_id":"4","last_reported":1713334325,"current_range_meters":24000,"station_id":"ce4bgip2rcd13ifvqbb0","pricing_plan_id":"cebpf4jnsgd1na2vs0mg"},{"bike_id":"987a28ae-3725-448a-8ae7-416ac9e76101","system_id":"levelo_inurba_marseille","lat":43.298037,"lon":5.381066,"is_reserved":false,"is_disabled":false,"rental_uris":{"android":"levelo://app?vid=987a28ae-3725-448a-8ae7-416ac9e76101","ios":"levelo://app?vid=987a28ae-3725-448a-8ae7-416ac9e76101"},"vehicle_type_id":"4","last_reported":1713334325,"current_range_meters":16800,"station_id":"ce4bgip2rcd13ifvqbb0","pricing_plan_id":"cebpf4jnsgd1na2vs0mg"},{"bike_id":"a5256d0f-b35a-4151-8bae-6ed6e9acb13a","system_id":"levelo_inurba_marseille","lat":43.295279,"lon":5.375048,"is_reserved":false,"is_disabled":false,"rental_uris":{"android":"levelo://app?vid=a5256d0f-b35a-4151-8bae-6ed6e9acb13a","ios":"levelo://app?vid=a5256d0f-b35a-4151-8bae-6ed6e9acb13a"},"vehicle_type_id":"4","last_reported":1713334325,"current_range_meters":26800,"station_id":"ce4bgkp2rcd13ifvqbmg","pricing_plan_id":"cebpf4jnsgd1na2vs0mg"},{"bike_id":"c71cf0aa-845e-4a1f-ad93-0798c111be91","system_id":"levelo_inurba_marseille","lat":43.296263,"lon":5.377094,"is_reserved":false,"is_disabled":false,"rental_uris":{"android":"levelo://app?vid=c71cf0aa-845e-4a1f-ad93-0798c111be91","ios":"levelo://app?vid=c71cf0aa-845e-4a1f-ad93-0798c111be91"},"vehicle_type_id":"4","last_reported":1713334325,"current_range_meters":3200,"station_id":"ce4bgi92rcd13ifvqb90","pricing_plan_id":"cebpf4jnsgd1na2vs0mg"},{"bike_id":"faa1f81b-6f1c-4ebf-8a8f-5a3863c39b2d","system_id":"levelo_inurba_marseille","lat":43.301242,"lon":5.387741,"is_reserved":false,"is_disabled":false,"rental_uris":{"android":"levelo://app?vid=faa1f81b-6f1c-4ebf-8a8f-5a3863c39b2d","ios":"levelo://app?vid=faa1f81b-6f1c-4ebf-8a8f-5a3863c39b2d"},"vehicle_type_id":"4","last_reported":1713334325,"current_range_meters":30000,"station_id":"","pricing_plan_id":"cebpf4jnsgd1na2vs0mg"},{"bike_id":"c37afa63-cda5-4f4c-8fd9-a0ed3a58edb6","system_id":"levelo_inurba_marseille","lat":43.32361,"lon":5.38879,"is_reserved":false,"is_disabled":false,"rental_uris":{"android":"levelo://app?vid=c37afa63-cda5-4f4c-8fd9-a0ed3a58edb6","ios":"levelo://app?vid=c37afa63-cda5-4f4c-8fd9-a0ed3a58edb6"},"vehicle_type_id":"4","last_reported":1713334325,"current_range_meters":4400,"station_id":"ce4bhqp2rcd13ifvqhog","pricing_plan_id":"cebpf4jnsgd1na2vs0mg"},{"bike_id":"6c45f13d-6e19-4b80-bce1-7dad1c3dc0a5","system_id":"levelo_inurba_marseille","lat":43.305994,"lon":5.393687,"is_reserved":false,"is_disabled":false,"rental_uris":{"android":"levelo://app?vid=6c45f13d-6e19-4b80-bce1-7dad1c3dc0a5","ios":"levelo://app?vid=6c45f13d-6e19-4b80-bce1-7dad1c3dc0a5"},"vehicle_type_id":"4","last_reported":1713334325,"current_range_meters":8000,"station_id":"ce4bh0p2rcd13ifvqd80","pricing_plan_id":"cebpf4jnsgd1na2vs0mg"},{"bike_id":"47a0dc67-d91d-45c6-9d7b-b95c2bdf2283","system_id":"levelo_inurba_marseille","lat":43.323669,"lon":5.388839,"is_reserved":false,"is_disabled":false,"rental_uris":{"android":"levelo://app?vid=47a0dc67-d91d-45c6-9d7b-b95c2bdf2283","ios":"levelo://app?vid=47a0dc67-d91d-45c6-9d7b-b95c2bdf2283"},"vehicle_type_id":"4","last_reported":1713334325,"current_range_meters":2400,"station_id":"ce4bhqp2rcd13ifvqhog","pricing_plan_id":"cebpf4jnsgd1na2vs0mg"},{"bike_id":"e3d7fe4a-b14d-4b43-9b14-9bd098a7d0a1","system_id":"levelo_inurba_marseille","lat":43.29601,"lon":5.381084,"is_reserved":false,"is_disabled":false,"rental_uris":{"android":"levelo://app?vid=e3d7fe4a-b14d-4b43-9b14-9bd098a7d0a1","ios":"levelo://app?vid=e3d7fe4a-b14d-4b43-9b14-9bd098a7d0a1"},"vehicle_type_id":"4","last_reported":1713334325,"current_range_meters":17600,"station_id":"ce4bgl12rcd13ifvqbo0","pricing_plan_id":"cebpf4jnsgd1na2vs0mg"},{"bike_id":"891482d4-0d34-412c-9293-e9d8df2227b4","system_id":"levelo_inurba_marseille","lat":43.29602,"lon":5.381084,"is_reserved":false,"is_disabled":false,"rental_uris":{"android":"levelo://app?vid=891482d4-0d34-412c-9293-e9d8df2227b4","ios":"levelo://app?vid=891482d4-0d34-412c-9293-e9d8df2227b4"},"vehicle_type_id":"4","last_reported":1713334325,"current_range_meters":25200,"station_id":"ce4bgl12rcd13ifvqbo0","pricing_plan_id":"cebpf4jnsgd1na2vs0mg"},{"bike_id":"a94fcadf-99ce-4c59-bd32-ea5f241f61ad","system_id":"levelo_inurba_marseille","lat":43.29906,"lon":5.38629,"is_reserved":false,"is_disabled":false,"rental_uris":{"android":"levelo://app?vid=a94fcadf-99ce-4c59-bd32-ea5f241f61ad","ios":"levelo://app?vid=a94fcadf-99ce-4c59-bd32-ea5f241f61ad"},"vehicle_type_id":"4","last_reported":1713334325,"current_range_meters":8400,"station_id":"","pricing_plan_id":"cebpf4jnsgd1na2vs0mg"},{"bike_id":"a4d85b88-5ccf-4656-b6d1-b592bdbf3753","system_id":"levelo_inurba_marseille","lat":43.29602,"lon":5.381084,"is_reserved":false,"is_disabled":false,"rental_uris":{"android":"levelo://app?vid=a4d85b88-5ccf-4656-b6d1-b592bdbf3753","ios":"levelo://app?vid=a4d85b88-5ccf-4656-b6d1-b592bdbf3753"},"vehicle_type_id":"4","last_reported":1713334325,"current_range_meters":31200,"station_id":"ce4bgl12rcd13ifvqbo0","pricing_plan_id":"cebpf4jnsgd1na2vs0mg"},{"bike_id":"7740bbe4-c243-4795-93b1-5d1050a7908f","system_id":"levelo_inurba_marseille","lat":43.29601,"lon":5.381084,"is_reserved":false,"is_disabled":false,"rental_uris":{"android":"levelo://app?vid=7740bbe4-c243-4795-93b1-5d1050a7908f","ios":"levelo://app?vid=7740bbe4-c243-4795-93b1-5d1050a7908f"},"vehicle_type_id":"4","last_reported":1713334325,"current_range_meters":26800,"station_id":"ce4bgl12rcd13ifvqbo0","pricing_plan_id":"cebpf4jnsgd1na2vs0mg"},{"bike_id":"404c0866-844f-4d6a-a83b-ea06d74534b9","system_id":"levelo_inurba_marseille","lat":43.29601,"lon":5.381084,"is_reserved":false,"is_disabled":false,"rental_uris":{"android":"levelo://app?vid=404c0866-844f-4d6a-a83b-ea06d74534b9","ios":"levelo://app?vid=404c0866-844f-4d6a-a83b-ea06d74534b9"},"vehicle_type_id":"4","last_reported":1713334325,"current_range_meters":18800,"station_id":"ce4bgl12rcd13ifvqbo0","pricing_plan_id":"cebpf4jnsgd1na2vs0mg"},{"bike_id":"c709297a-02f3-4914-bcbc-0cccc30ef86b","system_id":"levelo_inurba_marseille","lat":43.325508,"lon":5.387967,"is_reserved":false,"is_disabled":false,"rental_uris":{"android":"levelo://app?vid=c709297a-02f3-4914-bcbc-0cccc30ef86b","ios":"levelo://app?vid=c709297a-02f3-4914-bcbc-0cccc30ef86b"},"vehicle_type_id":"4","last_reported":1713334325,"current_range_meters":5600,"station_id":"","pricing_plan_id":"cebpf4jnsgd1na2vs0mg"},{"bike_id":"58defa52-74f0-4e1e-9379-edf91c948a02","system_id":"levelo_inurba_marseille","lat":43.292749,"lon":5.368402,"is_reserved":false,"is_disabled":false,"rental_uris":{"android":"levelo://app?vid=58defa52-74f0-4e1e-9379-edf91c948a02","ios":"levelo://app?vid=58defa52-74f0-4e1e-9379-edf91c948a02"},"vehicle_type_id":"4","last_reported":1713334325,"current_range_meters":0,"station_id":"ce4bhbp2rcd13ifvqesg","pricing_plan_id":"cebpf4jnsgd1na2vs0mg"},{"bike_id":"e406ca61-c988-4b1f-9afb-eb8208dcb038","system_id":"levelo_inurba_marseille","lat":43.292749,"lon":5.368402,"is_reserved":false,"is_disabled":false,"rental_uris":{"android":"levelo://app?vid=e406ca61-c988-4b1f-9afb-eb8208dcb038","ios":"levelo://app?vid=e406ca61-c988-4b1f-9afb-eb8208dcb038"},"vehicle_type_id":"4","last_reported":1713334325,"current_range_meters":22000,"station_id":"ce4bhbp2rcd13ifvqesg","pricing_plan_id":"cebpf4jnsgd1na2vs0mg"},{"bike_id":"7edad423-5168-44b3-9e2d-22302d8a5045","system_id":"levelo_inurba_marseille","lat":43.293259,"lon":5.371586,"is_reserved":false,"is_disabled":false,"rental_uris":{"android":"levelo://app?vid=7edad423-5168-44b3-9e2d-22302d8a5045","ios":"levelo://app?vid=7edad423-5168-44b3-9e2d-22302d8a5045"},"vehicle_type_id":"4","last_reported":1713334325,"current_range_meters":26000,"station_id":"ce4bgh92rcd13ifvqb40","pricing_plan_id":"cebpf4jnsgd1na2vs0mg"},{"bike_id":"9e6b19fc-9960-4c78-9294-3cfb21045813","system_id":"levelo_inurba_marseille","lat":43.29602,"lon":5.381084,"is_reserved":false,"is_disabled":false,"rental_uris":{"android":"levelo://app?vid=9e6b19fc-9960-4c78-9294-3cfb21045813","ios":"levelo://app?vid=9e6b19fc-9960-4c78-9294-3cfb21045813"},"vehicle_type_id":"4","last_reported":1713334325,"current_range_meters":23600,"station_id":"ce4bgl12rcd13ifvqbo0","pricing_plan_id":"cebpf4jnsgd1na2vs0mg"},{"bike_id":"1e1e2d01-0f44-411a-b297-6e84d45f3a2a","system_id":"levelo_inurba_marseille","lat":43.305994,"lon":5.393687,"is_reserved":false,"is_disabled":false,"rental_uris":{"android":"levelo://app?vid=1e1e2d01-0f44-411a-b297-6e84d45f3a2a","ios":"levelo://app?vid=1e1e2d01-0f44-411a-b297-6e84d45f3a2a"},"vehicle_type_id":"4","last_reported":1713334325,"current_range_meters":28400,"station_id":"ce4bh0p2rcd13ifvqd80","pricing_plan_id":"cebpf4jnsgd1na2vs0mg"},{"bike_id":"8db38b6c-9e83-4578-aaa3-9bdeeae647be","system_id":"levelo_inurba_marseille","lat":43.305994,"lon":5.393687,"is_reserved":false,"is_disabled":false,"rental_uris":{"android":"levelo://app?vid=8db38b6c-9e83-4578-aaa3-9bdeeae647be","ios":"levelo://app?vid=8db38b6c-9e83-4578-aaa3-9bdeeae647be"},"vehicle_type_id":"4","last_reported":1713334325,"current_range_meters":14000,"station_id":"ce4bh0p2rcd13ifvqd80","pricing_plan_id":"cebpf4jnsgd1na2vs0mg"},{"bike_id":"44861cd2-18b3-42d0-b950-7125977808b3","system_id":"levelo_inurba_marseille","lat":43.305994,"lon":5.393687,"is_reserved":false,"is_disabled":false,"rental_uris":{"android":"levelo://app?vid=44861cd2-18b3-42d0-b950-7125977808b3","ios":"levelo://app?vid=44861cd2-18b3-42d0-b950-7125977808b3"},"vehicle_type_id":"4","last_reported":1713334325,"current_range_meters":30800,"station_id":"ce4bh0p2rcd13ifvqd80","pricing_plan_id":"cebpf4jnsgd1na2vs0mg"},{"bike_id":"a59edd02-4995-44fd-9e83-7015dbb4ec21","system_id":"levelo_inurba_marseille","lat":43.305994,"lon":5.393687,"is_reserved":false,"is_disabled":false,"rental_uris":{"android":"levelo://app?vid=a59edd02-4995-44fd-9e83-7015dbb4ec21","ios":"levelo://app?vid=a59edd02-4995-44fd-9e83-7015dbb4ec21"},"vehicle_type_id":"4","last_reported":1713334325,"current_range_meters":30000,"station_id":"ce4bh0p2rcd13ifvqd80","pricing_plan_id":"cebpf4jnsgd1na2vs0mg"},{"bike_id":"3db9de2c-992a-4988-9499-19f8a7e918b3","system_id":"levelo_inurba_marseille","lat":43.30619,"lon":5.39365,"is_reserved":false,"is_disabled":false,"rental_uris":{"android":"levelo://app?vid=3db9de2c-992a-4988-9499-19f8a7e918b3","ios":"levelo://app?vid=3db9de2c-992a-4988-9499-19f8a7e918b3"},"vehicle_type_id":"4","last_reported":1713334325,"current_range_meters":28000,"station_id":"ce4bh0p2rcd13ifvqd80","pricing_plan_id":"cebpf4jnsgd1na2vs0mg"},{"bike_id":"6d957e52-a26e-46a8-99f9-32500f72354c","system_id":"levelo_inurba_marseille","lat":43.30593,"lon":5.39354,"is_reserved":false,"is_disabled":false,"rental_uris":{"android":"levelo://app?vid=6d957e52-a26e-46a8-99f9-32500f72354c","ios":"levelo://app?vid=6d957e52-a26e-46a8-99f9-32500f72354c"},"vehicle_type_id":"4","last_reported":1713334325,"current_range_meters":12800,"station_id":"ce4bh0p2rcd13ifvqd80","pricing_plan_id":"cebpf4jnsgd1na2vs0mg"},{"bike_id":"9efbc0f3-92ee-401b-aa9b-6a82b51ebff6","system_id":"levelo_inurba_marseille","lat":43.305994,"lon":5.393687,"is_reserved":false,"is_disabled":false,"rental_uris":{"android":"levelo://app?vid=9efbc0f3-92ee-401b-aa9b-6a82b51ebff6","ios":"levelo://app?vid=9efbc0f3-92ee-401b-aa9b-6a82b51ebff6"},"vehicle_type_id":"4","last_reported":1713334325,"current_range_meters":19200,"station_id":"ce4bh0p2rcd13ifvqd80","pricing_plan_id":"cebpf4jnsgd1na2vs0mg"},{"bike_id":"62387517-bc1e-4952-a35d-bfd0c562b97a","system_id":"levelo_inurba_marseille","lat":43.305994,"lon":5.393687,"is_reserved":false,"is_disabled":false,"rental_uris":{"android":"levelo://app?vid=62387517-bc1e-4952-a35d-bfd0c562b97a","ios":"levelo://app?vid=62387517-bc1e-4952-a35d-bfd0c562b97a"},"vehicle_type_id":"4","last_reported":1713334325,"current_range_meters":18800,"station_id":"ce4bh0p2rcd13ifvqd80","pricing_plan_id":"cebpf4jnsgd1na2vs0mg"},{"bike_id":"8340c7bc-191a-4337-9556-448cbdfc20e0","system_id":"levelo_inurba_marseille","lat":43.305994,"lon":5.393687,"is_reserved":false,"is_disabled":false,"rental_uris":{"android":"levelo://app?vid=8340c7bc-191a-4337-9556-448cbdfc20e0","ios":"levelo://app?vid=8340c7bc-191a-4337-9556-448cbdfc20e0"},"vehicle_type_id":"4","last_reported":1713334325,"current_range_meters":27600,"station_id":"ce4bh0p2rcd13ifvqd80","pricing_plan_id":"cebpf4jnsgd1na2vs0mg"},{"bike_id":"62fa5d27-4fd4-46e5-b27f-dbb2b2a27feb","system_id":"levelo_inurba_marseille","lat":43.305994,"lon":5.393687,"is_reserved":false,"is_disabled":false,"rental_uris":{"android":"levelo://app?vid=62fa5d27-4fd4-46e5-b27f-dbb2b2a27feb","ios":"levelo://app?vid=62fa5d27-4fd4-46e5-b27f-dbb2b2a27feb"},"vehicle_type_id":"4","last_reported":1713334325,"current_range_meters":12800,"station_id":"ce4bh0p2rcd13ifvqd80","pricing_plan_id":"cebpf4jnsgd1na2vs0mg"},{"bike_id":"21ed9ea4-51ac-406f-afd3-355c095dd6e5","system_id":"levelo_inurba_marseille","lat":43.305994,"lon":5.393687,"is_reserved":false,"is_disabled":false,"rental_uris":{"android":"levelo://app?vid=21ed9ea4-51ac-406f-afd3-355c095dd6e5","ios":"levelo://app?vid=21ed9ea4-51ac-406f-afd3-355c095dd6e5"},"vehicle_type_id":"4","last_reported":1713334325,"current_range_meters":30400,"station_id":"ce4bh0p2rcd13ifvqd80","pricing_plan_id":"cebpf4jnsgd1na2vs0mg"},{"bike_id":"6a830a5a-f537-4af0-b6ff-155f7c20b3c9","system_id":"levelo_inurba_marseille","lat":43.305994,"lon":5.393687,"is_reserved":false,"is_disabled":false,"rental_uris":{"android":"levelo://app?vid=6a830a5a-f537-4af0-b6ff-155f7c20b3c9","ios":"levelo://app?vid=6a830a5a-f537-4af0-b6ff-155f7c20b3c9"},"vehicle_type_id":"4","last_reported":1713334325,"current_range_meters":21200,"station_id":"ce4bh0p2rcd13ifvqd80","pricing_plan_id":"cebpf4jnsgd1na2vs0mg"},{"bike_id":"f4fafde1-2128-45b7-9941-401fdf29acc4","system_id":"levelo_inurba_marseille","lat":43.305994,"lon":5.393687,"is_reserved":false,"is_disabled":false,"rental_uris":{"android":"levelo://app?vid=f4fafde1-2128-45b7-9941-401fdf29acc4","ios":"levelo://app?vid=f4fafde1-2128-45b7-9941-401fdf29acc4"},"vehicle_type_id":"4","last_reported":1713334325,"current_range_meters":10000,"station_id":"ce4bh0p2rcd13ifvqd80","pricing_plan_id":"cebpf4jnsgd1na2vs0mg"},{"bike_id":"c3bdee51-b894-4205-b7d1-c2dc2ea17288","system_id":"levelo_inurba_marseille","lat":43.305994,"lon":5.393687,"is_reserved":false,"is_disabled":false,"rental_uris":{"android":"levelo://app?vid=c3bdee51-b894-4205-b7d1-c2dc2ea17288","ios":"levelo://app?vid=c3bdee51-b894-4205-b7d1-c2dc2ea17288"},"vehicle_type_id":"4","last_reported":1713334325,"current_range_meters":23200,"station_id":"ce4bh0p2rcd13ifvqd80","pricing_plan_id":"cebpf4jnsgd1na2vs0mg"},{"bike_id":"35e15cbb-1ccf-4fce-b2dd-6123b68245bf","system_id":"levelo_inurba_marseille","lat":43.30594,"lon":5.39363,"is_reserved":false,"is_disabled":false,"rental_uris":{"android":"levelo://app?vid=35e15cbb-1ccf-4fce-b2dd-6123b68245bf","ios":"levelo://app?vid=35e15cbb-1ccf-4fce-b2dd-6123b68245bf"},"vehicle_type_id":"4","last_reported":1713334325,"current_range_meters":16800,"station_id":"ce4bh0p2rcd13ifvqd80","pricing_plan_id":"cebpf4jnsgd1na2vs0mg"},{"bike_id":"e2eba180-821a-4459-94ad-5bd26d472c51","system_id":"levelo_inurba_marseille","lat":43.305994,"lon":5.393687,"is_reserved":false,"is_disabled":false,"rental_uris":{"android":"levelo://app?vid=e2eba180-821a-4459-94ad-5bd26d472c51","ios":"levelo://app?vid=e2eba180-821a-4459-94ad-5bd26d472c51"},"vehicle_type_id":"4","last_reported":1713334325,"current_range_meters":20400,"station_id":"ce4bh0p2rcd13ifvqd80","pricing_plan_id":"cebpf4jnsgd1na2vs0mg"},{"bike_id":"57776755-63fc-4b0c-9bd2-0e1dcdb71525","system_id":"levelo_inurba_marseille","lat":43.305994,"lon":5.393687,"is_reserved":false,"is_disabled":false,"rental_uris":{"android":"levelo://app?vid=57776755-63fc-4b0c-9bd2-0e1dcdb71525","ios":"levelo://app?vid=57776755-63fc-4b0c-9bd2-0e1dcdb71525"},"vehicle_type_id":"4","last_reported":1713334325,"current_range_meters":9200,"station_id":"ce4bh0p2rcd13ifvqd80","pricing_plan_id":"cebpf4jnsgd1na2vs0mg"},{"bike_id":"a0ac8947-0539-4d42-91aa-bcccd8ce797d","system_id":"levelo_inurba_marseille","lat":43.305994,"lon":5.393687,"is_reserved":false,"is_disabled":false,"rental_uris":{"android":"levelo://app?vid=a0ac8947-0539-4d42-91aa-bcccd8ce797d","ios":"levelo://app?vid=a0ac8947-0539-4d42-91aa-bcccd8ce797d"},"vehicle_type_id":"4","last_reported":1713334325,"current_range_meters":25600,"station_id":"ce4bh0p2rcd13ifvqd80","pricing_plan_id":"cebpf4jnsgd1na2vs0mg"},{"bike_id":"c3aa4df5-b616-4df8-89b5-a69503b646bc","system_id":"levelo_inurba_marseille","lat":43.303002,"lon":5.392142,"is_reserved":false,"is_disabled":false,"rental_uris":{"android":"levelo://app?vid=c3aa4df5-b616-4df8-89b5-a69503b646bc","ios":"levelo://app?vid=c3aa4df5-b616-4df8-89b5-a69503b646bc"},"vehicle_type_id":"4","last_reported":1713334325,"current_range_meters":4800,"station_id":"ce4bgkh2rcd13ifvqbk0","pricing_plan_id":"cebpf4jnsgd1na2vs0mg"},{"bike_id":"5a7a91cd-76de-4bfd-8774-56ac63a64fb6","system_id":"levelo_inurba_marseille","lat":43.302992,"lon":5.392136,"is_reserved":false,"is_disabled":false,"rental_uris":{"android":"levelo://app?vid=5a7a91cd-76de-4bfd-8774-56ac63a64fb6","ios":"levelo://app?vid=5a7a91cd-76de-4bfd-8774-56ac63a64fb6"},"vehicle_type_id":"4","last_reported":1713334325,"current_range_meters":1200,"station_id":"ce4bgkh2rcd13ifvqbk0","pricing_plan_id":"cebpf4jnsgd1na2vs0mg"},{"bike_id":"9259509c-8a15-432e-97a9-32e672127d11","system_id":"levelo_inurba_marseille","lat":43.2936,"lon":5.37835,"is_reserved":false,"is_disabled":false,"rental_uris":{"android":"levelo://app?vid=9259509c-8a15-432e-97a9-32e672127d11","ios":"levelo://app?vid=9259509c-8a15-432e-97a9-32e672127d11"},"vehicle_type_id":"4","last_reported":1713334325,"current_range_meters":7200,"station_id":"ce4bgjh2rcd13ifvqbf0","pricing_plan_id":"cebpf4jnsgd1na2vs0mg"},{"bike_id":"1d3715dd-26bd-4a6f-a3e5-f865a26c9e17","system_id":"levelo_inurba_marseille","lat":43.292311,"lon":5.360731,"is_reserved":false,"is_disabled":false,"rental_uris":{"android":"levelo://app?vid=1d3715dd-26bd-4a6f-a3e5-f865a26c9e17","ios":"levelo://app?vid=1d3715dd-26bd-4a6f-a3e5-f865a26c9e17"},"vehicle_type_id":"4","last_reported":1713334325,"current_range_meters":14400,"station_id":"ce4bhbh2rcd13ifvqeqg","pricing_plan_id":"cebpf4jnsgd1na2vs0mg"},{"bike_id":"1924727a-7b64-4f16-bf9e-03db7431e13d","system_id":"levelo_inurba_marseille","lat":43.292311,"lon":5.360731,"is_reserved":false,"is_disabled":false,"rental_uris":{"android":"levelo://app?vid=1924727a-7b64-4f16-bf9e-03db7431e13d","ios":"levelo://app?vid=1924727a-7b64-4f16-bf9e-03db7431e13d"},"vehicle_type_id":"4","last_reported":1713334325,"current_range_meters":28000,"station_id":"ce4bhbh2rcd13ifvqeqg","pricing_plan_id":"cebpf4jnsgd1na2vs0mg"},{"bike_id":"9c485301-2f5b-4f68-b201-5deef9f628ae","system_id":"levelo_inurba_marseille","lat":43.292311,"lon":5.360731,"is_reserved":false,"is_disabled":false,"rental_uris":{"android":"levelo://app?vid=9c485301-2f5b-4f68-b201-5deef9f628ae","ios":"levelo://app?vid=9c485301-2f5b-4f68-b201-5deef9f628ae"},"vehicle_type_id":"4","last_reported":1713334325,"current_range_meters":21600,"station_id":"ce4bhbh2rcd13ifvqeqg","pricing_plan_id":"cebpf4jnsgd1na2vs0mg"},{"bike_id":"8250d85d-d48c-4067-8a00-31dbe91f1a6a","system_id":"levelo_inurba_marseille","lat":43.305994,"lon":5.393687,"is_reserved":false,"is_disabled":false,"rental_uris":{"android":"levelo://app?vid=8250d85d-d48c-4067-8a00-31dbe91f1a6a","ios":"levelo://app?vid=8250d85d-d48c-4067-8a00-31dbe91f1a6a"},"vehicle_type_id":"4","last_reported":1713334325,"current_range_meters":31200,"station_id":"ce4bh0p2rcd13ifvqd80","pricing_plan_id":"cebpf4jnsgd1na2vs0mg"},{"bike_id":"37e9ea2d-7c96-408d-8881-1e7cedd2eb40","system_id":"levelo_inurba_marseille","lat":43.29223,"lon":5.36065,"is_reserved":false,"is_disabled":false,"rental_uris":{"android":"levelo://app?vid=37e9ea2d-7c96-408d-8881-1e7cedd2eb40","ios":"levelo://app?vid=37e9ea2d-7c96-408d-8881-1e7cedd2eb40"},"vehicle_type_id":"4","last_reported":1713334325,"current_range_meters":5200,"station_id":"ce4bhbh2rcd13ifvqeqg","pricing_plan_id":"cebpf4jnsgd1na2vs0mg"},{"bike_id":"1cefc748-f4ce-4e60-8554-dcebc8d4293f","system_id":"levelo_inurba_marseille","lat":43.291671,"lon":5.371575,"is_reserved":false,"is_disabled":false,"rental_uris":{"android":"levelo://app?vid=1cefc748-f4ce-4e60-8554-dcebc8d4293f","ios":"levelo://app?vid=1cefc748-f4ce-4e60-8554-dcebc8d4293f"},"vehicle_type_id":"4","last_reported":1713334325,"current_range_meters":27600,"station_id":"ce4bha92rcd13ifvqeh0","pricing_plan_id":"cebpf4jnsgd1na2vs0mg"},{"bike_id":"836b0e45-7d9f-43f2-8f7e-2ee5170cc957","system_id":"levelo_inurba_marseille","lat":43.309038,"lon":5.396546,"is_reserved":false,"is_disabled":false,"rental_uris":{"android":"levelo://app?vid=836b0e45-7d9f-43f2-8f7e-2ee5170cc957","ios":"levelo://app?vid=836b0e45-7d9f-43f2-8f7e-2ee5170cc957"},"vehicle_type_id":"4","last_reported":1713334325,"current_range_meters":28800,"station_id":"ce4bh012rcd13ifvqcv0","pricing_plan_id":"cebpf4jnsgd1na2vs0mg"},{"bike_id":"c491ee7e-8dc0-460b-beba-0594b547e041","system_id":"levelo_inurba_marseille","lat":43.309038,"lon":5.396546,"is_reserved":false,"is_disabled":false,"rental_uris":{"android":"levelo://app?vid=c491ee7e-8dc0-460b-beba-0594b547e041","ios":"levelo://app?vid=c491ee7e-8dc0-460b-beba-0594b547e041"},"vehicle_type_id":"4","last_reported":1713334325,"current_range_meters":27600,"station_id":"ce4bh012rcd13ifvqcv0","pricing_plan_id":"cebpf4jnsgd1na2vs0mg"},{"bike_id":"63ccce2b-868b-469f-8cf1-f719a32b6f7e","system_id":"levelo_inurba_marseille","lat":43.305364,"lon":5.384119,"is_reserved":false,"is_disabled":false,"rental_uris":{"android":"levelo://app?vid=63ccce2b-868b-469f-8cf1-f719a32b6f7e","ios":"levelo://app?vid=63ccce2b-868b-469f-8cf1-f719a32b6f7e"},"vehicle_type_id":"4","last_reported":1713334325,"current_range_meters":4400,"station_id":"ce4bgg92rcd13ifvqb30","pricing_plan_id":"cebpf4jnsgd1na2vs0mg"},{"bike_id":"2bf749a6-8863-4bc4-ba85-5f6df26e66d9","system_id":"levelo_inurba_marseille","lat":43.309038,"lon":5.396546,"is_reserved":false,"is_disabled":false,"rental_uris":{"android":"levelo://app?vid=2bf749a6-8863-4bc4-ba85-5f6df26e66d9","ios":"levelo://app?vid=2bf749a6-8863-4bc4-ba85-5f6df26e66d9"},"vehicle_type_id":"4","last_reported":1713334325,"current_range_meters":29600,"station_id":"ce4bh012rcd13ifvqcv0","pricing_plan_id":"cebpf4jnsgd1na2vs0mg"},{"bike_id":"31174619-56d9-4ad5-ae86-df885e76f661","system_id":"levelo_inurba_marseille","lat":43.309047,"lon":5.396551,"is_reserved":false,"is_disabled":false,"rental_uris":{"android":"levelo://app?vid=31174619-56d9-4ad5-ae86-df885e76f661","ios":"levelo://app?vid=31174619-56d9-4ad5-ae86-df885e76f661"},"vehicle_type_id":"4","last_reported":1713334325,"current_range_meters":31200,"station_id":"ce4bh012rcd13ifvqcv0","pricing_plan_id":"cebpf4jnsgd1na2vs0mg"},{"bike_id":"0e094063-62c6-49a4-9d8f-35e044b3a48f","system_id":"levelo_inurba_marseille","lat":43.313301,"lon":5.396889,"is_reserved":false,"is_disabled":false,"rental_uris":{"android":"levelo://app?vid=0e094063-62c6-49a4-9d8f-35e044b3a48f","ios":"levelo://app?vid=0e094063-62c6-49a4-9d8f-35e044b3a48f"},"vehicle_type_id":"4","last_reported":1713334325,"current_range_meters":16000,"station_id":"ce4bgvp2rcd13ifvqcu0","pricing_plan_id":"cebpf4jnsgd1na2vs0mg"},{"bike_id":"ccac7258-4fa3-4583-bc3a-f7988b2c71eb","system_id":"levelo_inurba_marseille","lat":43.308796,"lon":5.396434,"is_reserved":false,"is_disabled":false,"rental_uris":{"android":"levelo://app?vid=ccac7258-4fa3-4583-bc3a-f7988b2c71eb","ios":"levelo://app?vid=ccac7258-4fa3-4583-bc3a-f7988b2c71eb"},"vehicle_type_id":"4","last_reported":1713334325,"current_range_meters":9200,"station_id":"ce4bh012rcd13ifvqcv0","pricing_plan_id":"cebpf4jnsgd1na2vs0mg"},{"bike_id":"d82b2134-eb64-4fe6-809d-599b9b6418c2","system_id":"levelo_inurba_marseille","lat":43.291994,"lon":5.357886,"is_reserved":false,"is_disabled":false,"rental_uris":{"android":"levelo://app?vid=d82b2134-eb64-4fe6-809d-599b9b6418c2","ios":"levelo://app?vid=d82b2134-eb64-4fe6-809d-599b9b6418c2"},"vehicle_type_id":"4","last_reported":1713334325,"current_range_meters":4000,"station_id":"ce4bhb12rcd13ifvqel0","pricing_plan_id":"cebpf4jnsgd1na2vs0mg"},{"bike_id":"7a9e99b8-8fbc-486f-9101-bb428699d0c5","system_id":"levelo_inurba_marseille","lat":43.309047,"lon":5.396551,"is_reserved":false,"is_disabled":false,"rental_uris":{"android":"levelo://app?vid=7a9e99b8-8fbc-486f-9101-bb428699d0c5","ios":"levelo://app?vid=7a9e99b8-8fbc-486f-9101-bb428699d0c5"},"vehicle_type_id":"4","last_reported":1713334325,"current_range_meters":30400,"station_id":"ce4bh012rcd13ifvqcv0","pricing_plan_id":"cebpf4jnsgd1na2vs0mg"},{"bike_id":"2b281f50-c8e7-4baa-87da-2e977e52e31d","system_id":"levelo_inurba_marseille","lat":43.313291,"lon":5.396838,"is_reserved":false,"is_disabled":false,"rental_uris":{"android":"levelo://app?vid=2b281f50-c8e7-4baa-87da-2e977e52e31d","ios":"levelo://app?vid=2b281f50-c8e7-4baa-87da-2e977e52e31d"},"vehicle_type_id":"4","last_reported":1713334325,"current_range_meters":3200,"station_id":"ce4bgvp2rcd13ifvqcu0","pricing_plan_id":"cebpf4jnsgd1na2vs0mg"},{"bike_id":"f6261d38-70fb-4d93-9947-9ed998125b8e","system_id":"levelo_inurba_marseille","lat":43.29529,"lon":5.385581,"is_reserved":false,"is_disabled":false,"rental_uris":{"android":"levelo://app?vid=f6261d38-70fb-4d93-9947-9ed998125b8e","ios":"levelo://app?vid=f6261d38-70fb-4d93-9947-9ed998125b8e"},"vehicle_type_id":"4","last_reported":1713334325,"current_range_meters":19600,"station_id":"ce4bgih2rcd13ifvqba0","pricing_plan_id":"cebpf4jnsgd1na2vs0mg"},{"bike_id":"01637760-ec6b-47a5-af39-fcbd43d69881","system_id":"levelo_inurba_marseille","lat":43.302008,"lon":5.394694,"is_reserved":false,"is_disabled":false,"rental_uris":{"android":"levelo://app?vid=01637760-ec6b-47a5-af39-fcbd43d69881","ios":"levelo://app?vid=01637760-ec6b-47a5-af39-fcbd43d69881"},"vehicle_type_id":"4","last_reported":1713334325,"current_range_meters":9600,"station_id":"ce4bh0p2rcd13ifvqd70","pricing_plan_id":"cebpf4jnsgd1na2vs0mg"},{"bike_id":"41e1af72-d15f-42c8-a284-2a4d682cd483","system_id":"levelo_inurba_marseille","lat":43.302008,"lon":5.394694,"is_reserved":false,"is_disabled":false,"rental_uris":{"android":"levelo://app?vid=41e1af72-d15f-42c8-a284-2a4d682cd483","ios":"levelo://app?vid=41e1af72-d15f-42c8-a284-2a4d682cd483"},"vehicle_type_id":"4","last_reported":1713334325,"current_range_meters":24400,"station_id":"ce4bh0p2rcd13ifvqd70","pricing_plan_id":"cebpf4jnsgd1na2vs0mg"},{"bike_id":"4ca8a592-1c59-4e27-969c-7464248ae63c","system_id":"levelo_inurba_marseille","lat":43.302008,"lon":5.394694,"is_reserved":false,"is_disabled":false,"rental_uris":{"android":"levelo://app?vid=4ca8a592-1c59-4e27-969c-7464248ae63c","ios":"levelo://app?vid=4ca8a592-1c59-4e27-969c-7464248ae63c"},"vehicle_type_id":"4","last_reported":1713334325,"current_range_meters":21200,"station_id":"ce4bh0p2rcd13ifvqd70","pricing_plan_id":"cebpf4jnsgd1na2vs0mg"},{"bike_id":"f76aacd0-8d68-454e-9998-b329f1284157","system_id":"levelo_inurba_marseille","lat":43.290319,"lon":5.375732,"is_reserved":false,"is_disabled":false,"rental_uris":{"android":"levelo://app?vid=f76aacd0-8d68-454e-9998-b329f1284157","ios":"levelo://app?vid=f76aacd0-8d68-454e-9998-b329f1284157"},"vehicle_type_id":"4","last_reported":1713334325,"current_range_meters":4000,"station_id":"ce4bh692rcd13ifvqe90","pricing_plan_id":"cebpf4jnsgd1na2vs0mg"},{"bike_id":"993a7f8d-1639-4c73-84ba-98f107ea6105","system_id":"levelo_inurba_marseille","lat":43.289184,"lon":5.366408,"is_reserved":false,"is_disabled":false,"rental_uris":{"android":"levelo://app?vid=993a7f8d-1639-4c73-84ba-98f107ea6105","ios":"levelo://app?vid=993a7f8d-1639-4c73-84ba-98f107ea6105"},"vehicle_type_id":"4","last_reported":1713334325,"current_range_meters":31200,"station_id":"ce4bhap2rcd13ifvqek0","pricing_plan_id":"cebpf4jnsgd1na2vs0mg"},{"bike_id":"61f48b00-0622-4ed9-a246-b8da262d3171","system_id":"levelo_inurba_marseille","lat":43.289184,"lon":5.366408,"is_reserved":false,"is_disabled":false,"rental_uris":{"android":"levelo://app?vid=61f48b00-0622-4ed9-a246-b8da262d3171","ios":"levelo://app?vid=61f48b00-0622-4ed9-a246-b8da262d3171"},"vehicle_type_id":"4","last_reported":1713334325,"current_range_meters":24000,"station_id":"ce4bhap2rcd13ifvqek0","pricing_plan_id":"cebpf4jnsgd1na2vs0mg"},{"bike_id":"f26f8ce5-549f-4111-8935-a229445334b6","system_id":"levelo_inurba_marseille","lat":43.289184,"lon":5.366408,"is_reserved":false,"is_disabled":false,"rental_uris":{"android":"levelo://app?vid=f26f8ce5-549f-4111-8935-a229445334b6","ios":"levelo://app?vid=f26f8ce5-549f-4111-8935-a229445334b6"},"vehicle_type_id":"4","last_reported":1713334325,"current_range_meters":0,"station_id":"ce4bhap2rcd13ifvqek0","pricing_plan_id":"cebpf4jnsgd1na2vs0mg"},{"bike_id":"4da6fcb1-8c72-4a6c-8f63-fa013b632496","system_id":"levelo_inurba_marseille","lat":43.289184,"lon":5.366408,"is_reserved":false,"is_disabled":false,"rental_uris":{"android":"levelo://app?vid=4da6fcb1-8c72-4a6c-8f63-fa013b632496","ios":"levelo://app?vid=4da6fcb1-8c72-4a6c-8f63-fa013b632496"},"vehicle_type_id":"4","last_reported":1713334325,"current_range_meters":12000,"station_id":"ce4bhap2rcd13ifvqek0","pricing_plan_id":"cebpf4jnsgd1na2vs0mg"},{"bike_id":"8e5fb3ec-5b32-44de-b82a-0f30358202c3","system_id":"levelo_inurba_marseille","lat":43.289184,"lon":5.366408,"is_reserved":false,"is_disabled":false,"rental_uris":{"android":"levelo://app?vid=8e5fb3ec-5b32-44de-b82a-0f30358202c3","ios":"levelo://app?vid=8e5fb3ec-5b32-44de-b82a-0f30358202c3"},"vehicle_type_id":"4","last_reported":1713334325,"current_range_meters":18800,"station_id":"ce4bhap2rcd13ifvqek0","pricing_plan_id":"cebpf4jnsgd1na2vs0mg"},{"bike_id":"687acd55-0b7f-40b0-add9-00424d83a292","system_id":"levelo_inurba_marseille","lat":43.289184,"lon":5.366408,"is_reserved":false,"is_disabled":false,"rental_uris":{"android":"levelo://app?vid=687acd55-0b7f-40b0-add9-00424d83a292","ios":"levelo://app?vid=687acd55-0b7f-40b0-add9-00424d83a292"},"vehicle_type_id":"4","last_reported":1713334325,"current_range_meters":18800,"station_id":"ce4bhap2rcd13ifvqek0","pricing_plan_id":"cebpf4jnsgd1na2vs0mg"},