{"last_updated":1690625160,"ttl":30,"version":"2.2","data":{"bikes":[{"bike_id":"cfb186af-3014-4ad7-b593-797b1a3ee359","system_id":"levelo_inurba_marseille","lat":43.313391,"lon":5.36706,"is_reserved":false,"is_disabled":false,"rental_uris":{"android":"levelo://app?vid=cfb186af-3014-4ad7-b593-797b1a3ee359","ios":"levelo://app?vid=cfb186af-3014-4ad7-b593-797b1a3ee359"},"vehicle_type_id":"4","last_reported":1690625160,"current_range_meters":29200,"station_id":"ce4bgr92rcd13ifvqc6g","pricing_plan_id":"free"},{"bike_id":"f9c7a00e-35de-4866-a3e2-0931a9eb19a7","system_id":"levelo_inurba_marseille","lat":43.312239,"lon":5.368562,"is_reserved":false,"is_disabled":false,"rental_uris":{"android":"levelo://app?vid=f9c7a00e-35de-4866-a3e2-0931a9eb19a7","ios":"levelo://app?vid=f9c7a00e-35de-4866-a3e2-0931a9eb19a7"},"vehicle_type_id":"4","last_reported":1690625160,"current_range_meters":31200,"station_id":"ce4bgl92rcd13ifvqbq0","pricing_plan_id":"free"},{"bike_id":"10180fb1-c762-4a63-a7e5-94d669c15db5","system_id":"levelo_inurba_marseille","lat":43.312239,"lon":5.368562,"is_reserved":false,"is_disabled":false,"rental_uris":{"android":"levelo://app?vid=10180fb1-c762-4a63-a7e5-94d669c15db5","ios":"levelo://app?vid=10180fb1-c762-4a63-a7e5-94d669c15db5"},"vehicle_type_id":"4","last_reported":1690625160,"current_range_meters":31200,"station_id":"ce4bgl92rcd13ifvqbq0","pricing_plan_id":"free"},{"bike_id":"9b0994b4-329a-4dba-9328-229405480954","system_id":"levelo_inurba_marseille","lat":43.31225,"lon":5.36858,"is_reserved":false,"is_disabled":false,"rental_uris":{"android":"levelo://app?vid=9b0994b4-329a-4dba-9328-229405480954","ios":"levelo://app?vid=9b0994b4-329a-4dba-9328-229405480954"},"vehicle_type_id":"4","last_reported":1690625160,"current_range_meters":31200,"station_id":"ce4bgl92rcd13ifvqbq0","pricing_plan_id":"free"},{"bike_id":"f574c32c-cb2d-4199-8b8c-065478e4daa3","system_id":"levelo_inurba_marseille","lat":43.31218,"lon":5.36856,"is_reserved":false,"is_disabled":false,"rental_uris":{"android":"levelo://app?vid=f574c32c-cb2d-4199-8b8c-065478e4daa3","ios":"levelo://app?vid=f574c32c-cb2d-4199-8b8c-065478e4daa3"},"vehicle_type_id":"4","last_reported":1690625160,"current_range_meters":24800,"station_id":"ce4bgl92rcd13ifvqbq0","pricing_plan_id":"free"},{"bike_id":"7c18f12f-0cce-4875-942c-d4ec2c90cfca","system_id":"levelo_inurba_marseille","lat":43.31215,"lon":5.36854,"is_reserved":false,"is_disabled":false,"rental_uris":{"android":"levelo://app?vid=7c18f12f-0cce-4875-942c-d4ec2c90cfca","ios":"levelo://app?vid=7c18f12f-0cce-4875-942c-d4ec2c90cfca"},"vehicle_type_id":"4","last_reported":1690625160,"current_range_meters":26400,"station_id":"ce4bgl92rcd13ifvqbq0","pricing_plan_id":"free"},{"bike_id":"e526d4e2-849c-44ae-a0d7-5572a62df909","system_id":"levelo_inurba_marseille","lat":43.312239,"lon":5.368562,"is_reserved":false,"is_disabled":false,"rental_uris":{"android":"levelo://app?vid=e526d4e2-849c-44ae-a0d7-5572a62df909","ios":"levelo://app?vid=e526d4e2-849c-44ae-a0d7-5572a62df909"},"vehicle_type_id":"4","last_reported":1690625160,"current_range_meters":29200,"station_id":"ce4bgl92rcd13ifvqbq0","pricing_plan_id":"free"},{"bike_id":"51a48715-3d9a-4789-8578-c5f9d78f9bfe","system_id":"levelo_inurba_marseille","lat":43.3091,"lon":5.36846,"is_reserved":false,"is_disabled":false,"rental_uris":{"android":"levelo://app?vid=51a48715-3d9a-4789-8578-c5f9d78f9bfe","ios":"levelo://app?vid=51a48715-3d9a-4789-8578-c5f9d78f9bfe"},"vehicle_type_id":"4","last_reported":1690625160,"current_range_meters":6000,"station_id":"ce4bgn92rcd13ifvqbvg","pricing_plan_id":"free"},{"bike_id":"85a65c95-f06a-4a58-bd66-c5ab0e5fbab0","system_id":"levelo_inurba_marseille","lat":43.314811,"lon":5.373103,"is_reserved":false,"is_disabled":false,"rental_uris":{"android":"levelo://app?vid=85a65c95-f06a-4a58-bd66-c5ab0e5fbab0","ios":"levelo://app?vid=85a65c95-f06a-4a58-bd66-c5ab0e5fbab0"},"vehicle_type_id":"4","last_reported":1690625160,"current_range_meters":25200,"station_id":"ce4bgt12rcd13ifvqcd0","pricing_plan_id":"free"},{"bike_id":"125257bb-1e1d-4e6d-8ec3-88e3b2722cc2","system_id":"levelo_inurba_marseille","lat":43.314811,"lon":5.373103,"is_reserved":false,"is_disabled":false,"rental_uris":{"android":"levelo://app?vid=125257bb-1e1d-4e6d-8ec3-88e3b2722cc2","ios":"levelo://app?vid=125257bb-1e1d-4e6d-8ec3-88e3b2722cc2"},"vehicle_type_id":"4","last_reported":1690625160,"current_range_meters":22400,"station_id":"ce4bgt12rcd13ifvqcd0","pricing_plan_id":"free"},{"bike_id":"535e957a-1a61-41a3-90e8-b030166daccf","system_id":"levelo_inurba_marseille","lat":43.309039,"lon":5.371797,"is_reserved":false,"is_disabled":false,"rental_uris":{"android":"levelo://app?vid=535e957a-1a61-41a3-90e8-b030166daccf","ios":"levelo://app?vid=535e957a-1a61-41a3-90e8-b030166daccf"},"vehicle_type_id":"4","last_reported":1690625160,"current_range_meters":24400,"station_id":"ce4bguh2rcd13ifvqckg","pricing_plan_id":"free"},{"bike_id":"b880b51a-d461-439d-b1be-0ccb6eb1e9f2","system_id":"levelo_inurba_marseille","lat":43.30558,"lon":5.36564,"is_reserved":false,"is_disabled":false,"rental_uris":{"android":"levelo://app?vid=b880b51a-d461-439d-b1be-0ccb6eb1e9f2","ios":"levelo://app?vid=b880b51a-d461-439d-b1be-0ccb6eb1e9f2"},"vehicle_type_id":"4","last_reported":1690625160,"current_range_meters":27200,"station_id":"ce4bgs12rcd13ifvqcag","pricing_plan_id":"free"},{"bike_id":"962f07fa-a81d-49e1-94ae-6f97c25ad938","system_id":"levelo_inurba_marseille","lat":43.30547,"lon":5.36703,"is_reserved":false,"is_disabled":false,"rental_uris":{"android":"levelo://app?vid=962f07fa-a81d-49e1-94ae-6f97c25ad938","ios":"levelo://app?vid=962f07fa-a81d-49e1-94ae-6f97c25ad938"},"vehicle_type_id":"4","last_reported":1690625160,"current_range_meters":23200,"station_id":"ce4bgrp2rcd13ifvqc9g","pricing_plan_id":"free"},{"bike_id":"11051d24-7e2f-40d2-a9c9-520a779914c7","system_id":"levelo_inurba_marseille","lat":43.305714,"lon":5.365633,"is_reserved":false,"is_disabled":false,"rental_uris":{"android":"levelo://app?vid=11051d24-7e2f-40d2-a9c9-520a779914c7","ios":"levelo://app?vid=11051d24-7e2f-40d2-a9c9-520a779914c7"},"vehicle_type_id":"4","last_reported":1690625160,"current_range_meters":25600,"station_id":"ce4bgs12rcd13ifvqcag","pricing_plan_id":"free"},{"bike_id":"4c164698-c603-4d3e-a8ef-b7d49f262f4a","system_id":"levelo_inurba_marseille","lat":43.305714,"lon":5.365633,"is_reserved":false,"is_disabled":false,"rental_uris":{"android":"levelo://app?vid=4c164698-c603-4d3e-a8ef-b7d49f262f4a","ios":"levelo://app?vid=4c164698-c603-4d3e-a8ef-b7d49f262f4a"},"vehicle_type_id":"4","last_reported":1690625160,"current_range_meters":28800,"station_id":"ce4bgs12rcd13ifvqcag","pricing_plan_id":"free"},{"bike_id":"4ce65fd7-befe-49e7-9b43-94b7c2cd6fc8","system_id":"levelo_inurba_marseille","lat":43.30541,"lon":5.36704,"is_reserved":false,"is_disabled":false,"rental_uris":{"android":"levelo://app?vid=4ce65fd7-befe-49e7-9b43-94b7c2cd6fc8","ios":"levelo://app?vid=4ce65fd7-befe-49e7-9b43-94b7c2cd6fc8"},"vehicle_type_id":"4","last_reported":1690625160,"current_range_meters":26800,"station_id":"ce4bgrp2rcd13ifvqc9g","pricing_plan_id":"free"},{"bike_id":"bbf0f633-5485-4d56-9000-e0e7a8d27a6e","system_id":"levelo_inurba_marseille","lat":43.305706,"lon":5.365654,"is_reserved":false,"is_disabled":false,"rental_uris":{"android":"levelo://app?vid=bbf0f633-5485-4d56-9000-e0e7a8d27a6e","ios":"levelo://app?vid=bbf0f633-5485-4d56-9000-e0e7a8d27a6e"},"vehicle_type_id":"4","last_reported":1690625160,"current_range_meters":29600,"station_id":"ce4bgs12rcd13ifvqcag","pricing_plan_id":"free"},{"bike_id":"c8b433ff-b607-4eb5-8d34-f041d62b0dc8","system_id":"levelo_inurba_marseille","lat":43.305706,"lon":5.365654,"is_reserved":false,"is_disabled":false,"rental_uris":{"android":"levelo://app?vid=c8b433ff-b607-4eb5-8d34-f041d62b0dc8","ios":"levelo://app?vid=c8b433ff-b607-4eb5-8d34-f041d62b0dc8"},"vehicle_type_id":"4","last_reported":1690625160,"current_range_meters":29600,"station_id":"ce4bgs12rcd13ifvqcag","pricing_plan_id":"free"},{"bike_id":"5aa1f00b-4ade-4398-9b7d-eebc58a13c6a","system_id":"levelo_inurba_marseille","lat":43.305714,"lon":5.365633,"is_reserved":false,"is_disabled":false,"rental_uris":{"android":"levelo://app?vid=5aa1f00b-4ade-4398-9b7d-eebc58a13c6a","ios":"levelo://app?vid=5aa1f00b-4ade-4398-9b7d-eebc58a13c6a"},"vehicle_type_id":"4","last_reported":1690625160,"current_range_meters":30000,"station_id":"ce4bgs12rcd13ifvqcag","pricing_plan_id":"free"},{"bike_id":"42824382-9e7e-45ad-b576-1426bc784032","system_id":"levelo_inurba_marseille","lat":43.305989,"lon":5.37225,"is_reserved":false,"is_disabled":false,"rental_uris":{"android":"levelo://app?vid=42824382-9e7e-45ad-b576-1426bc784032","ios":"levelo://app?vid=42824382-9e7e-45ad-b576-1426bc784032"},"vehicle_type_id":"4","last_reported":1690625160,"current_range_meters":30000,"station_id":"ce4bgqh2rcd13ifvqc4g","pricing_plan_id":"free"},{"bike_id":"67187fba-a32e-48e7-b71a-df9066838b50","system_id":"levelo_inurba_marseille","lat":43.30605,"lon":5.37205,"is_reserved":false,"is_disabled":false,"rental_uris":{"android":"levelo://app?vid=67187fba-a32e-48e7-b71a-df9066838b50","ios":"levelo://app?vid=67187fba-a32e-48e7-b71a-df9066838b50"},"vehicle_type_id":"4","last_reported":1690625160,"current_range_meters":21600,"station_id":"ce4bgqh2rcd13ifvqc4g","pricing_plan_id":"free"},{"bike_id":"f20ea888-8740-440b-bfeb-8eb2a7c1f652","system_id":"levelo_inurba_marseille","lat":43.305989,"lon":5.37225,"is_reserved":false,"is_disabled":false,"rental_uris":{"android":"levelo://app?vid=f20ea888-8740-440b-bfeb-8eb2a7c1f652","ios":"levelo://app?vid=f20ea888-8740-440b-bfeb-8eb2a7c1f652"},"vehicle_type_id":"4","last_reported":1690625160,"current_range_meters":30400,"station_id":"ce4bgqh2rcd13ifvqc4g","pricing_plan_id":"free"},{"bike_id":"b0042553-e1b9-4f83-aafa-291f036ecd17","system_id":"levelo_inurba_marseille","lat":43.311131,"lon":5.377651,"is_reserved":false,"is_disabled":false,"rental_uris":{"android":"levelo://app?vid=b0042553-e1b9-4f83-aafa-291f036ecd17","ios":"levelo://app?vid=b0042553-e1b9-4f83-aafa-291f036ecd17"},"vehicle_type_id":"4","last_reported":1690625160,"current_range_meters":25200,"station_id":"ce4bgt92rcd13ifvqcg0","pricing_plan_id":"free"},{"bike_id":"9a0017fd-78dc-4fb5-8361-501831ee9c4c","system_id":"levelo_inurba_marseille","lat":43.31125,"lon":5.37764,"is_reserved":false,"is_disabled":false,"rental_uris":{"android":"levelo://app?vid=9a0017fd-78dc-4fb5-8361-501831ee9c4c","ios":"levelo://app?vid=9a0017fd-78dc-4fb5-8361-501831ee9c4c"},"vehicle_type_id":"4","last_reported":1690625160,"current_range_meters":800,"station_id":"ce4bgt92rcd13ifvqcg0","pricing_plan_id":"free"},{"bike_id":"a068ffbb-82a0-4c66-b63d-72ce2058a07b","system_id":"levelo_inurba_marseille","lat":43.30797,"lon":5.37648,"is_reserved":false,"is_disabled":false,"rental_uris":{"android":"levelo://app?vid=a068ffbb-82a0-4c66-b63d-72ce2058a07b","ios":"levelo://app?vid=a068ffbb-82a0-4c66-b63d-72ce2058a07b"},"vehicle_type_id":"4","last_reported":1690625160,"current_range_meters":16800,"station_id":"ce4bgv92rcd13ifvqcq0","pricing_plan_id":"free"},{"bike_id":"201396b7-4719-4ca7-a431-84dede1a53e3","system_id":"levelo_inurba_marseille","lat":43.30794,"lon":5.37651,"is_reserved":false,"is_disabled":false,"rental_uris":{"android":"levelo://app?vid=201396b7-4719-4ca7-a431-84dede1a53e3","ios":"levelo://app?vid=201396b7-4719-4ca7-a431-84dede1a53e3"},"vehicle_type_id":"4","last_reported":1690625160,"current_range_meters":20000,"station_id":"ce4bgv92rcd13ifvqcq0","pricing_plan_id":"free"},{"bike_id":"e4aa235e-43c8-4c1f-9f31-820662b3c653","system_id":"levelo_inurba_marseille","lat":43.317075,"lon":5.377367,"is_reserved":false,"is_disabled":false,"rental_uris":{"android":"levelo://app?vid=e4aa235e-43c8-4c1f-9f31-820662b3c653","ios":"levelo://app?vid=e4aa235e-43c8-4c1f-9f31-820662b3c653"},"vehicle_type_id":"4","last_reported":1690625160,"current_range_meters":30400,"station_id":"ce4bgth2rcd13ifvqch0","pricing_plan_id":"free"},{"bike_id":"d3873855-aff5-4fd1-82eb-e6cbc1326d81","system_id":"levelo_inurba_marseille","lat":43.30315,"lon":5.36897,"is_reserved":false,"is_disabled":false,"rental_uris":{"android":"levelo://app?vid=d3873855-aff5-4fd1-82eb-e6cbc1326d81","ios":"levelo://app?vid=d3873855-aff5-4fd1-82eb-e6cbc1326d81"},"vehicle_type_id":"4","last_reported":1690625160,"current_range_meters":5200,"station_id":"ce4bgqh2rcd13ifvqc5g","pricing_plan_id":"free"},{"bike_id":"09ca699e-3211-40a7-a14b-d6497acba222","system_id":"levelo_inurba_marseille","lat":43.31533,"lon":5.38025,"is_reserved":false,"is_disabled":false,"rental_uris":{"android":"levelo://app?vid=09ca699e-3211-40a7-a14b-d6497acba222","ios":"levelo://app?vid=09ca699e-3211-40a7-a14b-d6497acba222"},"vehicle_type_id":"4","last_reported":1690625160,"current_range_meters":8800,"station_id":"ce4bhsp2rcd13ifvqi50","pricing_plan_id":"free"},{"bike_id":"5a4d1e13-b684-4137-99a7-203af65f4a68","system_id":"levelo_inurba_marseille","lat":43.304606,"lon":5.379026,"is_reserved":false,"is_disabled":false,"rental_uris":{"android":"levelo://app?vid=5a4d1e13-b684-4137-99a7-203af65f4a68","ios":"levelo://app?vid=5a4d1e13-b684-4137-99a7-203af65f4a68"},"vehicle_type_id":"4","last_reported":1690625160,"current_range_meters":31200,"station_id":"ce4bgup2rcd13ifvqcn0","pricing_plan_id":"free"},{"bike_id":"04abed00-0d9e-4681-b81a-bb97682571c2","system_id":"levelo_inurba_marseille","lat":43.304606,"lon":5.379026,"is_reserved":false,"is_disabled":false,"rental_uris":{"android":"levelo://app?vid=04abed00-0d9e-4681-b81a-bb97682571c2","ios":"levelo://app?vid=04abed00-0d9e-4681-b81a-bb97682571c2"},"vehicle_type_id":"4","last_reported":1690625160,"current_range_meters":23600,"station_id":"ce4bgup2rcd13ifvqcn0","pricing_plan_id":"free"},{"bike_id":"d4d24057-bb1a-475d-a965-cecff6aee4bb","system_id":"levelo_inurba_marseille","lat":43.304606,"lon":5.379026,"is_reserved":false,"is_disabled":false,"rental_uris":{"android":"levelo://app?vid=d4d24057-bb1a-475d-a965-cecff6aee4bb","ios":"levelo://app?vid=d4d24057-bb1a-475d-a965-cecff6aee4bb"},"vehicle_type_id":"4","last_reported":1690625160,"current_range_meters":0,"station_id":"ce4bgup2rcd13ifvqcn0","pricing_plan_id":"free"},{"bike_id":"f3de447b-cf08-4923-9772-cd7995c774f5","system_id":"levelo_inurba_marseille","lat":43.304606,"lon":5.379026,"is_reserved":false,"is_disabled":false,"rental_uris":{"android":"levelo://app?vid=f3de447b-cf08-4923-9772-cd7995c774f5","ios":"levelo://app?vid=f3de447b-cf08-4923-9772-cd7995c774f5"},"vehicle_type_id":"4","last_reported":1690625160,"current_range_meters":31200,"station_id":"ce4bgup2rcd13ifvqcn0","pricing_plan_id":"free"},{"bike_id":"4fb4f3f8-1522-4033-8583-543255b474d0","system_id":"levelo_inurba_marseille","lat":43.304606,"lon":5.379026,"is_reserved":false,"is_disabled":false,"rental_uris":{"android":"levelo://app?vid=4fb4f3f8-1522-4033-8583-543255b474d0","ios":"levelo://app?vid=4fb4f3f8-1522-4033-8583-543255b474d0"},"vehicle_type_id":"4","last_reported":1690625160,"current_range_meters":31200,"station_id":"ce4bgup2rcd13ifvqcn0","pricing_plan_id":"free"},{"bike_id":"c4446ead-dc83-4a6b-8909-06dc32d644cf","system_id":"levelo_inurba_marseille","lat":43.304606,"lon":5.379026,"is_reserved":false,"is_disabled":false,"rental_uris":{"android":"levelo://app?vid=c4446ead-dc83-4a6b-8909-06dc32d644cf","ios":"levelo://app?vid=c4446ead-dc83-4a6b-8909-06dc32d644cf"},"vehicle_type_id":"4","last_reported":1690625160,"current_range_meters":31600,"station_id":"ce4bgup2rcd13ifvqcn0","pricing_plan_id":"free"},{"bike_id":"3a563c93-2c7f-4ad4-89f3-fd5d56de627f","system_id":"levelo_inurba_marseille","lat":43.304606,"lon":5.379026,"is_reserved":false,"is_disabled":false,"rental_uris":{"android":"levelo://app?vid=3a563c93-2c7f-4ad4-89f3-fd5d56de627f","ios":"levelo://app?vid=3a563c93-2c7f-4ad4-89f3-fd5d56de627f"},"vehicle_type_id":"4","last_reported":1690625160,"current_range_meters":9600,"station_id":"ce4bgup2rcd13ifvqcn0","pricing_plan_id":"free"},{"bike_id":"70c79c41-6ceb-4c76-9150-64626f42fd54","system_id":"levelo_inurba_marseille","lat":43.304606,"lon":5.379026,"is_reserved":false,"is_disabled":false,"rental_uris":{"android":"levelo://app?vid=70c79c41-6ceb-4c76-9150-64626f42fd54","ios":"levelo://app?vid=70c79c41-6ceb-4c76-9150-64626f42fd54"},"vehicle_type_id":"4","last_reported":1690625160,"current_range_meters":31200,"station_id":"ce4bgup2rcd13ifvqcn0","pricing_plan_id":"free"},{"bike_id":"df5839ff-2b74-4d6e-b9cc-bef8ed774582","system_id":"levelo_inurba_marseille","lat":43.304606,"lon":5.379026,"is_reserved":false,"is_disabled":false,"rental_uris":{"android":"levelo://app?vid=df5839ff-2b74-4d6e-b9cc-bef8ed774582","ios":"levelo://app?vid=df5839ff-2b74-4d6e-b9cc-bef8ed774582"},"vehicle_type_id":"4","last_reported":1690625160,"current_range_meters":31200,"station_id":"ce4bgup2rcd13ifvqcn0","pricing_plan_id":"free"},{"bike_id":"a3073d3e-040f-4541-9c2d-f824a5d16d6e","system_id":"levelo_inurba_marseille","lat":43.304606,"lon":5.379026,"is_reserved":false,"is_disabled":false,"rental_uris":{"android":"levelo://app?vid=a3073d3e-040f-4541-9c2d-f824a5d16d6e","ios":"levelo://app?vid=a3073d3e-040f-4541-9c2d-f824a5d16d6e"},"vehicle_type_id":"4","last_reported":1690625160,"current_range_meters":29200,"station_id":"ce4bgup2rcd13ifvqcn0","pricing_plan_id":"free"},{"bike_id":"cdfcf8c5-c64d-4867-b654-7d22699e9971","system_id":"levelo_inurba_marseille","lat":43.304606,"lon":5.379026,"is_reserved":false,"is_disabled":false,"rental_uris":{"android":"levelo://app?vid=cdfcf8c5-c64d-4867-b654-7d22699e9971","ios":"levelo://app?vid=cdfcf8c5-c64d-4867-b654-7d22699e9971"},"vehicle_type_id":"4","last_reported":1690625160,"current_range_meters":18400,"station_id":"ce4bgup2rcd13ifvqcn0","pricing_plan_id":"free"},{"bike_id":"d1539fc1-e41f-43b0-8787-2957cd3bbe89","system_id":"levelo_inurba_marseille","lat":43.304606,"lon":5.379026,"is_reserved":false,"is_disabled":false,"rental_uris":{"android":"levelo://app?vid=d1539fc1-e41f-43b0-8787-2957cd3bbe89","ios":"levelo://app?vid=d1539fc1-e41f-43b0-8787-2957cd3bbe89"},"vehicle_type_id":"4","last_reported":1690625160,"current_range_meters":26000,"station_id":"ce4bgup2rcd13ifvqcn0","pricing_plan_id":"free"},{"bike_id":"fde13309-c92a-402b-ba09-badf79b308d3","system_id":"levelo_inurba_marseille","lat":43.304606,"lon":5.379026,"is_reserved":false,"is_disabled":false,"rental_uris":{"android":"levelo://app?vid=fde13309-c92a-402b-ba09-badf79b308d3","ios":"levelo://app?vid=fde13309-c92a-402b-ba09-badf79b308d3"},"vehicle_type_id":"4","last_reported":1690625160,"current_range_meters":27600,"station_id":"ce4bgup2rcd13ifvqcn0","pricing_plan_id":"free"},{"bike_id":"f8cd79e5-7db8-42b6-a73a-c13e9609ab4f","system_id":"levelo_inurba_marseille","lat":43.304606,"lon":5.379026,"is_reserved":false,"is_disabled":false,"rental_uris":{"android":"levelo://app?vid=f8cd79e5-7db8-42b6-a73a-c13e9609ab4f","ios":"levelo://app?vid=f8cd79e5-7db8-42b6-a73a-c13e9609ab4f"},"vehicle_type_id":"4","last_reported":1690625160,"current_range_meters":31200,"station_id":"ce4bgup2rcd13ifvqcn0","pricing_plan_id":"free"},{"bike_id":"23ff1ea3-4dc3-4189-8326-9881d2d2947b","system_id":"levelo_inurba_marseille","lat":43.304606,"lon":5.379026,"is_reserved":false,"is_disabled":false,"rental_uris":{"android":"levelo://app?vid=23ff1ea3-4dc3-4189-8326-9881d2d2947b","ios":"levelo://app?vid=23ff1ea3-4dc3-4189-8326-9881d2d2947b"},"vehicle_type_id":"4","last_reported":1690625160,"current_range_meters":31200,"station_id":"ce4bgup2rcd13ifvqcn0","pricing_plan_id":"free"},{"bike_id":"2ca21045-bda7-4ff2-b018-d7aee1ead7a2","system_id":"levelo_inurba_marseille","lat":43.304606,"lon":5.379026,"is_reserved":false,"is_disabled":false,"rental_uris":{"android":"levelo://app?vid=2ca21045-bda7-4ff2-b018-d7aee1ead7a2","ios":"levelo://app?vid=2ca21045-bda7-4ff2-b018-d7aee1ead7a2"},"vehicle_type_id":"4","last_reported":1690625160,"current_range_meters":29200,"station_id":"ce4bgup2rcd13ifvqcn0","pricing_plan_id":"free"},{"bike_id":"d314d55a-13a3-4251-98b7-33583483f232","system_id":"levelo_inurba_marseille","lat":43.304606,"lon":5.379026,"is_reserved":false,"is_disabled":false,"rental_uris":{"android":"levelo://app?vid=d314d55a-13a3-4251-98b7-33583483f232","ios":"levelo://app?vid=d314d55a-13a3-4251-98b7-33583483f232"},"vehicle_type_id":"4","last_reported":1690625160,"current_range_meters":21600,"station_id":"ce4bgup2rcd13ifvqcn0","pricing_plan_id":"free"},{"bike_id":"0078dc6d-f51f-4397-90cb-ad7695196fc1","system_id":"levelo_inurba_marseille","lat":43.304606,"lon":5.379026,"is_reserved":false,"is_disabled":false,"rental_uris":{"android":"levelo://app?vid=0078dc6d-f51f-4397-90cb-ad7695196fc1","ios":"levelo://app?vid=0078dc6d-f51f-4397-90cb-ad7695196fc1"},"vehicle_type_id":"4","last_reported":1690625160,"current_range_meters":19200,"station_id":"ce4bgup2rcd13ifvqcn0","pricing_plan_id":"free"},{"bike_id":"77200071-0bc9-4ee2-9575-c6dc1ca9f043","system_id":"levelo_inurba_marseille","lat":43.304606,"lon":5.379026,"is_reserved":false,"is_disabled":false,"rental_uris":{"android":"levelo://app?vid=77200071-0bc9-4ee2-9575-c6dc1ca9f043","ios":"levelo://app?vid=77200071-0bc9-4ee2-9575-c6dc1ca9f043"},"vehicle_type_id":"4","last_reported":1690625160,"current_range_meters":31200,"station_id":"ce4bgup2rcd13ifvqcn0","pricing_plan_id":"free"},{"bike_id":"ae4d9c75-75a9-444b-a911-958243355afc","system_id":"levelo_inurba_marseille","lat":43.302784,"lon":5.377158,"is_reserved":false,"is_disabled":false,"rental_uris":{"android":"levelo://app?vid=ae4d9c75-75a9-444b-a911-958243355afc","ios":"levelo://app?vid=ae4d9c75-75a9-444b-a911-958243355afc"},"vehicle_type_id":"4","last_reported":1690625160,"current_range_meters":30800,"station_id":"ce4bguh2rcd13ifvqcj0","pricing_plan_id":"free"},{"bike_id":"f8b266c8-4107-4e33-b367-bf9de2d07ae2","system_id":"levelo_inurba_marseille","lat":43.32,"lon":5.38145,"is_reserved":false,"is_disabled":false,"rental_uris":{"android":"levelo://app?vid=f8b266c8-4107-4e33-b367-bf9de2d07ae2","ios":"levelo://app?vid=f8b266c8-4107-4e33-b367-bf9de2d07ae2"},"vehicle_type_id":"4","last_reported":1690625160,"current_range_meters":23600,"station_id":"ce4bhr12rcd13ifvqhpg","pricing_plan_id":"free"},{"bike_id":"ae575b3f-a98a-4d9e-b1e8-da8b5cb57c23","system_id":"levelo_inurba_marseille","lat":43.31999,"lon":5.38155,"is_reserved":false,"is_disabled":false,"rental_uris":{"android":"levelo://app?vid=ae575b3f-a98a-4d9e-b1e8-da8b5cb57c23","ios":"levelo://app?vid=ae575b3f-a98a-4d9e-b1e8-da8b5cb57c23"},"vehicle_type_id":"4","last_reported":1690625160,"current_range_meters":30800,"station_id":"ce4bhr12rcd13ifvqhpg","pricing_plan_id":"free"},{"bike_id":"b6bb5c2f-6727-4034-a7fa-b00dc3bab3b4","system_id":"levelo_inurba_marseille","lat":43.298433,"lon":5.362774,"is_reserved":false,"is_disabled":false,"rental_uris":{"android":"levelo://app?vid=b6bb5c2f-6727-4034-a7fa-b00dc3bab3b4","ios":"levelo://app?vid=b6bb5c2f-6727-4034-a7fa-b00dc3bab3b4"},"vehicle_type_id":"4","last_reported":1690625160,"current_range_meters":31200,"station_id":"ce4bgpp2rcd13ifvqc3g","pricing_plan_id":"free"},{"bike_id":"6184df01-d820-4966-ada5-b811f3590de7","system_id":"levelo_inurba_marseille","lat":43.305364,"lon":5.384119,"is_reserved":false,"is_disabled":false,"rental_uris":{"android":"levelo://app?vid=6184df01-d820-4966-ada5-b811f3590de7","ios":"levelo://app?vid=6184df01-d820-4966-ada5-b811f3590de7"},"vehicle_type_id":"4","last_reported":1690625160,"current_range_meters":26000,"station_id":"ce4bgg92rcd13ifvqb30","pricing_plan_id":"free"},{"bike_id":"400b3426-2f2f-4f7f-aeb2-873a719831f1","system_id":"levelo_inurba_marseille","lat":43.298433,"lon":5.362774,"is_reserved":false,"is_disabled":false,"rental_uris":{"android":"levelo://app?vid=400b3426-2f2f-4f7f-aeb2-873a719831f1","ios":"levelo://app?vid=400b3426-2f2f-4f7f-aeb2-873a719831f1"},"vehicle_type_id":"4","last_reported":1690625160,"current_range_meters":27600,"station_id":"ce4bgpp2rcd13ifvqc3g","pricing_plan_id":"free"},{"bike_id":"d2343291-3680-4824-8411-ca2dcf4e2c5c","system_id":"levelo_inurba_marseille","lat":43.298433,"lon":5.362774,"is_reserved":false,"is_disabled":false,"rental_uris":{"android":"levelo://app?vid=d2343291-3680-4824-8411-ca2dcf4e2c5c","ios":"levelo://app?vid=d2343291-3680-4824-8411-ca2dcf4e2c5c"},"vehicle_type_id":"4","last_reported":1690625160,"current_range_meters":23600,"station_id":"ce4bgpp2rcd13ifvqc3g","pricing_plan_id":"free"},{"bike_id":"976aae6c-30b4-4ad0-95d6-0ae016545ed5","system_id":"levelo_inurba_marseille","lat":43.298433,"lon":5.362774,"is_reserved":false,"is_disabled":false,"rental_uris":{"android":"levelo://app?vid=976aae6c-30b4-4ad0-95d6-0ae016545ed5","ios":"levelo://app?vid=976aae6c-30b4-4ad0-95d6-0ae016545ed5"},"vehicle_type_id":"4","last_reported":1690625160,"current_range_meters":31600,"station_id":"ce4bgpp2rcd13ifvqc3g","pricing_plan_id":"free"},{"bike_id":"60ef532a-5287-45ab-8ac5-26a2ed834bde","system_id":"levelo_inurba_marseille","lat":43.30528,"lon":5.38415,"is_reserved":false,"is_disabled":false,"rental_uris":{"android":"levelo://app?vid=60ef532a-5287-45ab-8ac5-26a2ed834bde","ios":"levelo://app?vid=60ef532a-5287-45ab-8ac5-26a2ed834bde"},"vehicle_type_id":"4","last_reported":1690625160,"current_range_meters":1200,"station_id":"ce4bgg92rcd13ifvqb30","pricing_plan_id":"free"},{"bike_id":"c38f87cf-960e-4cfb-b7f0-0b32e417ddb2","system_id":"levelo_inurba_marseille","lat":43.298433,"lon":5.362774,"is_reserved":false,"is_disabled":false,"rental_uris":{"android":"levelo://app?vid=c38f87cf-960e-4cfb-b7f0-0b32e417ddb2","ios":"levelo://app?vid=c38f87cf-960e-4cfb-b7f0-0b32e417ddb2"},"vehicle_type_id":"4","last_reported":1690625160,"current_range_meters":28000,"station_id":"ce4bgpp2rcd13ifvqc3g","pricing_plan_id":"free"},{"bike_id":"30537d43-af02-4a10-b928-7b9b8cf633d2","system_id":"levelo_inurba_marseille","lat":43.305364,"lon":5.384119,"is_reserved":false,"is_disabled":false,"rental_uris":{"android":"levelo://app?vid=30537d43-af02-4a10-b928-7b9b8cf633d2","ios":"levelo://app?vid=30537d43-af02-4a10-b928-7b9b8cf633d2"},"vehicle_type_id":"4","last_reported":1690625160,"current_range_meters":30000,"station_id":"ce4bgg92rcd13ifvqb30","pricing_plan_id":"free"},{"bike_id":"49cd5915-299b-40c8-b4b0-b663ff5ed4e2","system_id":"levelo_inurba_marseille","lat":43.298433,"lon":5.362774,"is_reserved":false,"is_disabled":false,"rental_uris":{"android":"levelo://app?vid=49cd5915-299b-40c8-b4b0-b663ff5ed4e2","ios":"levelo://app?vid=49cd5915-299b-40c8-b4b0-b663ff5ed4e2"},"vehicle_type_id":"4","last_reported":1690625160,"current_range_meters":12800,"station_id":"ce4bgpp2rcd13ifvqc3g","pricing_plan_id":"free"},{"bike_id":"bbf47ff1-4f3d-477b-a368-b055abdffc26","system_id":"levelo_inurba_marseille","lat":43.298433,"lon":5.362774,"is_reserved":false,"is_disabled":false,"rental_uris":{"android":"levelo://app?vid=bbf47ff1-4f3d-477b-a368-b055abdffc26","ios":"levelo://app?vid=bbf47ff1-4f3d-477b-a368-b055abdffc26"},"vehicle_type_id":"4","last_reported":1690625160,"current_range_meters":21600,"station_id":"ce4bgpp2rcd13ifvqc3g","pricing_plan_id":"free"},{"bike_id":"fdb92632-b91b-4ae5-99b6-aafa2d1731e2","system_id":"levelo_inurba_marseille","lat":43.298433,"lon":5.362774,"is_reserved":false,"is_disabled":false,"rental_uris":{"android":"levelo://app?vid=fdb92632-b91b-4ae5-99b6-aafa2d1731e2","ios":"levelo://app?vid=fdb92632-b91b-4ae5-99b6-aafa2d1731e2"},"vehicle_type_id":"4","last_reported":1690625160,"current_range_meters":24000,"station_id":"ce4bgpp2rcd13ifvqc3g","pricing_plan_id":"free"},{"bike_id":"4a238923-e3c0-4978-bd56-dfe7b1356bab","system_id":"levelo_inurba_marseille","lat":43.298433,"lon":5.362774,"is_reserved":false,"is_disabled":false,"rental_uris":{"android":"levelo://app?vid=4a238923-e3c0-4978-bd56-dfe7b1356bab","ios":"levelo://app?vid=4a238923-e3c0-4978-bd56-dfe7b1356bab"},"vehicle_type_id":"4","last_reported":1690625160,"current_range_meters":30000,"station_id":"ce4bgpp2rcd13ifvqc3g","pricing_plan_id":"free"},{"bike_id":"678141a6-bd87-4539-aa8e-4a9997f9921f","system_id":"levelo_inurba_marseille","lat":43.299243,"lon":5.37481,"is_reserved":false,"is_disabled":false,"rental_uris":{"android":"levelo://app?vid=678141a6-bd87-4539-aa8e-4a9997f9921f","ios":"levelo://app?vid=678141a6-bd87-4539-aa8e-4a9997f9921f"},"vehicle_type_id":"4","last_reported":1690625160,"current_range_meters":28800,"station_id":"ce4bgjh2rcd13ifvqbg0","pricing_plan_id":"free"},{"bike_id":"e74de220-6aa4-4547-87d8-01052c7e0152","system_id":"levelo_inurba_marseille","lat":43.299243,"lon":5.37481,"is_reserved":false,"is_disabled":false,"rental_uris":{"android":"levelo://app?vid=e74de220-6aa4-4547-87d8-01052c7e0152","ios":"levelo://app?vid=e74de220-6aa4-4547-87d8-01052c7e0152"},"vehicle_type_id":"4","last_reported":1690625160,"current_range_meters":14400,"station_id":"ce4bgjh2rcd13ifvqbg0","pricing_plan_id":"free"},{"bike_id":"bff5ce26-568c-47bc-89ae-ae13f32aa819","system_id":"levelo_inurba_marseille","lat":43.30139,"lon":5.38065,"is_reserved":false,"is_disabled":false,"rental_uris":{"android":"levelo://app?vid=bff5ce26-568c-47bc-89ae-ae13f32aa819","ios":"levelo://app?vid=bff5ce26-568c-47bc-89ae-ae13f32aa819"},"vehicle_type_id":"4","last_reported":1690625160,"current_range_meters":17200,"station_id":"","pricing_plan_id":"free"},{"bike_id":"88f2565f-cc1f-4af5-b2ef-fe15a8bc2dbc","system_id":"levelo_inurba_marseille","lat":43.297774,"lon":5.370875,"is_reserved":false,"is_disabled":false,"rental_uris":{"android":"levelo://app?vid=88f2565f-cc1f-4af5-b2ef-fe15a8bc2dbc","ios":"levelo://app?vid=88f2565f-cc1f-4af5-b2ef-fe15a8bc2dbc"},"vehicle_type_id":"4","last_reported":1690625160,"current_range_meters":19200,"station_id":"ce4bgop2rcd13ifvqc1g","pricing_plan_id":"free"},{"bike_id":"ae3dc407-2709-4b5d-9fee-93d9d86961a6","system_id":"levelo_inurba_marseille","lat":43.297774,"lon":5.370875,"is_reserved":false,"is_disabled":false,"rental_uris":{"android":"levelo://app?vid=ae3dc407-2709-4b5d-9fee-93d9d86961a6","ios":"levelo://app?vid=ae3dc407-2709-4b5d-9fee-93d9d86961a6"},"vehicle_type_id":"4","last_reported":1690625160,"current_range_meters":19200,"station_id":"ce4bgop2rcd13ifvqc1g","pricing_plan_id":"free"},{"bike_id":"fead3f1e-e9e6-4830-9da4-e98cba309113","system_id":"levelo_inurba_marseille","lat":43.32289,"lon":5.38254,"is_reserved":false,"is_disabled":false,"rental_uris":{"android":"levelo://app?vid=fead3f1e-e9e6-4830-9da4-e98cba309113","ios":"levelo://app?vid=fead3f1e-e9e6-4830-9da4-e98cba309113"},"vehicle_type_id":"4","last_reported":1690625160,"current_range_meters":17200,"station_id":"ce4bhr12rcd13ifvqhqg","pricing_plan_id":"free"},{"bike_id":"c8d6b985-0f59-4681-8371-a387d353cd66","system_id":"levelo_inurba_marseille","lat":43.32286,"lon":5.38263,"is_reserved":false,"is_disabled":false,"rental_uris":{"android":"levelo://app?vid=c8d6b985-0f59-4681-8371-a387d353cd66","ios":"levelo://app?vid=c8d6b985-0f59-4681-8371-a387d353cd66"},"vehicle_type_id":"4","last_reported":1690625160,"current_range_meters":28000,"station_id":"ce4bhr12rcd13ifvqhqg","pricing_plan_id":"free"},{"bike_id":"3641a761-0636-4e0b-b047-72e86565129d","system_id":"levelo_inurba_marseille","lat":43.32287,"lon":5.38264,"is_reserved":false,"is_disabled":false,"rental_uris":{"android":"levelo://app?vid=3641a761-0636-4e0b-b047-72e86565129d","ios":"levelo://app?vid=3641a761-0636-4e0b-b047-72e86565129d"},"vehicle_type_id":"4","last_reported":1690625160,"current_range_meters":28800,"station_id":"ce4bhr12rcd13ifvqhqg","pricing_plan_id":"free"},{"bike_id":"79bf6da4-5f08-488b-96b1-6e23f74ec5ec","system_id":"levelo_inurba_marseille","lat":43.322872,"lon":5.382756,"is_reserved":false,"is_disabled":false,"rental_uris":{"android":"levelo://app?vid=79bf6da4-5f08-488b-96b1-6e23f74ec5ec","ios":"levelo://app?vid=79bf6da4-5f08-488b-96b1-6e23f74ec5ec"},"vehicle_type_id":"4","last_reported":1690625160,"current_range_meters":17200,"station_id":"ce4bhr12rcd13ifvqhqg","pricing_plan_id":"free"},{"bike_id":"a196dbb0-0ca2-44b0-8b03-b7d3a734d20c","system_id":"levelo_inurba_marseille","lat":43.3229,"lon":5.38269,"is_reserved":false,"is_disabled":false,"rental_uris":{"android":"levelo://app?vid=a196dbb0-0ca2-44b0-8b03-b7d3a734d20c","ios":"levelo://app?vid=a196dbb0-0ca2-44b0-8b03-b7d3a734d20c"},"vehicle_type_id":"4","last_reported":1690625160,"current_range_meters":29600,"station_id":"ce4bhr12rcd13ifvqhqg","pricing_plan_id":"free"},{"bike_id":"09839245-aff5-4216-beaf-1eb8c568cb92","system_id":"levelo_inurba_marseille","lat":43.297774,"lon":5.370875,"is_reserved":false,"is_disabled":false,"rental_uris":{"android":"levelo://app?vid=09839245-aff5-4216-beaf-1eb8c568cb92","ios":"levelo://app?vid=09839245-aff5-4216-beaf-1eb8c568cb92"},"vehicle_type_id":"4","last_reported":1690625160,"current_range_meters":31200,"station_id":"ce4bgop2rcd13ifvqc1g","pricing_plan_id":"free"},{"bike_id":"82f1e03d-e4c3-4aac-b6f0-c9fc3950fe62","system_id":"levelo_inurba_marseille","lat":43.322948,"lon":5.3827,"is_reserved":false,"is_disabled":false,"rental_uris":{"android":"levelo://app?vid=82f1e03d-e4c3-4aac-b6f0-c9fc3950fe62","ios":"levelo://app?vid=82f1e03d-e4c3-4aac-b6f0-c9fc3950fe62"},"vehicle_type_id":"4","last_reported":1690625160,"current_range_meters":25600,"station_id":"","pricing_plan_id":"free"},{"bike_id":"6e314e9f-7fad-49e8-b7f0-9137d6637e28","system_id":"levelo_inurba_marseille","lat":43.32825,"lon":5.36684,"is_reserved":false,"is_disabled":false,"rental_uris":{"android":"levelo://app?vid=6e314e9f-7fad-49e8-b7f0-9137d6637e28","ios":"levelo://app?vid=6e314e9f-7fad-49e8-b7f0-9137d6637e28"},"vehicle_type_id":"4","last_reported":1690625160,"current_range_meters":27200,"station_id":"ce4bhs92rcd13ifvqi0g","pricing_plan_id":"free"},{"bike_id":"43e6a6cf-49a1-43c4-8aee-dc793d00bec0","system_id":"levelo_inurba_marseille","lat":43.32827,"lon":5.36684,"is_reserved":false,"is_disabled":false,"rental_uris":{"android":"levelo://app?vid=43e6a6cf-49a1-43c4-8aee-dc793d00bec0","ios":"levelo://app?vid=43e6a6cf-49a1-43c4-8aee-dc793d00bec0"},"vehicle_type_id":"4","last_reported":1690625160,"current_range_meters":12400,"station_id":"ce4bhs92rcd13ifvqi0g","pricing_plan_id":"free"},{"bike_id":"0f39a3e7-b7c7-4f3f-9c14-2250e1a537a2","system_id":"levelo_inurba_marseille","lat":43.3283,"lon":5.36678,"is_reserved":false,"is_disabled":false,"rental_uris":{"android":"levelo://app?vid=0f39a3e7-b7c7-4f3f-9c14-2250e1a537a2","ios":"levelo://app?vid=0f39a3e7-b7c7-4f3f-9c14-2250e1a537a2"},"vehicle_type_id":"4","last_reported":1690625160,"current_range_meters":22000,"station_id":"ce4bhs92rcd13ifvqi0g","pricing_plan_id":"free"},{"bike_id":"74c5562f-6569-4f28-9185-e6055467d41c","system_id":"levelo_inurba_marseille","lat":43.297163,"lon":5.365866,"is_reserved":false,"is_disabled":false,"rental_uris":{"android":"levelo://app?vid=74c5562f-6569-4f28-9185-e6055467d41c","ios":"levelo://app?vid=74c5562f-6569-4f28-9185-e6055467d41c"},"vehicle_type_id":"4","last_reported":1690625160,"current_range_meters":24000,"station_id":"ce4bgn12rcd13ifvqbt0","pricing_plan_id":"free"},{"bike_id":"0745a261-85bf-4987-a42d-1b2e2c94b357","system_id":"levelo_inurba_marseille","lat":43.29704,"lon":5.36606,"is_reserved":false,"is_disabled":false,"rental_uris":{"android":"levelo://app?vid=0745a261-85bf-4987-a42d-1b2e2c94b357","ios":"levelo://app?vid=0745a261-85bf-4987-a42d-1b2e2c94b357"},"vehicle_type_id":"4","last_reported":1690625160,"current_range_meters":30400,"station_id":"ce4bgn12rcd13ifvqbt0","pricing_plan_id":"free"},{"bike_id":"dd789220-e7b5-42c1-b9dc-dc4243148021","system_id":"levelo_inurba_marseille","lat":43.29703,"lon":5.36607,"is_reserved":false,"is_disabled":false,"rental_uris":{"android":"levelo://app?vid=dd789220-e7b5-42c1-b9dc-dc4243148021","ios":"levelo://app?vid=dd789220-e7b5-42c1-b9dc-dc4243148021"},"vehicle_type_id":"4","last_reported":1690625160,"current_range_meters":31200,"station_id":"ce4bgn12rcd13ifvqbt0","pricing_plan_id":"free"},{"bike_id":"a645c93d-46df-40b3-881a-4bd38ce75110","system_id":"levelo_inurba_marseille","lat":43.29702,"lon":5.36613,"is_reserved":false,"is_disabled":false,"rental_uris":{"android":"levelo://app?vid=a645c93d-46df-40b3-881a-4bd38ce75110","ios":"levelo://app?vid=a645c93d-46df-40b3-881a-4bd38ce75110"},"vehicle_type_id":"4","last_reported":1690625160,"current_range_meters":18000,"station_id":"ce4bgn12rcd13ifvqbt0","pricing_plan_id":"free"},{"bike_id":"30a0f95d-30c2-42e0-8418-aea2ff3f4dfc","system_id":"levelo_inurba_marseille","lat":43.29693,"lon":5.36598,"is_reserved":false,"is_disabled":false,"rental_uris":{"android":"levelo://app?vid=30a0f95d-30c2-42e0-8418-aea2ff3f4dfc","ios":"levelo://app?vid=30a0f95d-30c2-42e0-8418-aea2ff3f4dfc"},"vehicle_type_id":"4","last_reported":1690625160,"current_range_meters":28800,"station_id":"ce4bgn12rcd13ifvqbt0","pricing_plan_id":"free"},{"bike_id":"48552c5c-cde6-4d46-8fec-046ab6aac93b","system_id":"levelo_inurba_marseille","lat":43.2968,"lon":5.37291,"is_reserved":false,"is_disabled":false,"rental_uris":{"android":"levelo://app?vid=48552c5c-cde6-4d46-8fec-046ab6aac93b","ios":"levelo://app?vid=48552c5c-cde6-4d46-8fec-046ab6aac93b"},"vehicle_type_id":"4","last_reported":1690625160,"current_range_meters":31200,"station_id":"ce4bgk12rcd13ifvqbj0","pricing_plan_id":"free"},{"bike_id":"607a92dd-9096-4aea-9627-391e6822e515","system_id":"levelo_inurba_marseille","lat":43.2968,"lon":5.37291,"is_reserved":false,"is_disabled":false,"rental_uris":{"android":"levelo://app?vid=607a92dd-9096-4aea-9627-391e6822e515","ios":"levelo://app?vid=607a92dd-9096-4aea-9627-391e6822e515"},"vehicle_type_id":"4","last_reported":1690625160,"current_range_meters":30000,"station_id":"ce4bgk12rcd13ifvqbj0","pricing_plan_id":"free"},{"bike_id":"01067c4a-e550-4b91-abbb-35bdf7290a52","system_id":"levelo_inurba_marseille","lat":43.2968,"lon":5.37291,"is_reserved":false,"is_disabled":false,"rental_uris":{"android":"levelo://app?vid=01067c4a-e550-4b91-abbb-35bdf7290a52","ios":"levelo://app?vid=01067c4a-e550-4b91-abbb-35bdf7290a52"},"vehicle_type_id":"4","last_reported":1690625160,"current_range_meters":30000,"station_id":"ce4bgk12rcd13ifvqbj0","pricing_plan_id":"free"},{"bike_id":"58d1b571-8131-4007-8829-9c839d644ae8","system_id":"levelo_inurba_marseille","lat":43.296131,"lon":5.370791,"is_reserved":false,"is_disabled":false,"rental_uris":{"android":"levelo://app?vid=58d1b571-8131-4007-8829-9c839d644ae8","ios":"levelo://app?vid=58d1b571-8131-4007-8829-9c839d644ae8"},"vehicle_type_id":"4","last_reported":1690625160,"current_range_meters":26400,"station_id":"ce4bgnh2rcd13ifvqc0g","pricing_plan_id":"free"},{"bike_id":"1abce306-e15f-4be1-b290-ec280798f0d8","system_id":"levelo_inurba_marseille","lat":43.29573,"lon":5.367355,"is_reserved":false,"is_disabled":false,"rental_uris":{"android":"levelo://app?vid=1abce306-e15f-4be1-b290-ec280798f0d8","ios":"levelo://app?vid=1abce306-e15f-4be1-b290-ec280798f0d8"},"vehicle_type_id":"4","last_reported":1690625160,"current_range_meters":29600,"station_id":"ce4bgph2rcd13ifvqc2g","pricing_plan_id":"free"},{"bike_id":"7bec832b-46af-4b6d-8970-301d9ffb739e","system_id":"levelo_inurba_marseille","lat":43.29573,"lon":5.367355,"is_reserved":false,"is_disabled":false,"rental_uris":{"android":"levelo://app?vid=7bec832b-46af-4b6d-8970-301d9ffb739e","ios":"levelo://app?vid=7bec832b-46af-4b6d-8970-301d9ffb739e"},"vehicle_type_id":"4","last_reported":1690625160,"current_range_meters":31600,"station_id":"ce4bgph2rcd13ifvqc2g","pricing_plan_id":"free"},{"bike_id":"91b889f4-2ff0-4888-9d15-38310a414aae","system_id":"levelo_inurba_marseille","lat":43.29573,"lon":5.367355,"is_reserved":false,"is_disabled":false,"rental_uris":{"android":"levelo://app?vid=91b889f4-2ff0-4888-9d15-38310a414aae","ios":"levelo://app?vid=91b889f4-2ff0-4888-9d15-38310a414aae"},"vehicle_type_id":"4","last_reported":1690625160,"current_range_meters":29200,"station_id":"ce4bgph2rcd13ifvqc2g","pricing_plan_id":"free"},{"bike_id":"aac869b1-1f2a-4c32-ad42-0a3bb6d2c793","system_id":"levelo_inurba_marseille","lat":43.29573,"lon":5.367355,"is_reserved":false,"is_disabled":false,"rental_uris":{"android":"levelo://app?vid=aac869b1-1f2a-4c32-ad42-0a3bb6d2c793","ios":"levelo://app?vid=aac869b1-1f2a-4c32-ad42-0a3bb6d2c793"},"vehicle_type_id":"4","last_reported":1690625160,"current_range_meters":30000,"station_id":"ce4bgph2rcd13ifvqc2g","pricing_plan_id":"free"},{"bike_id":"a8b39518-0419-48c1-ab24-4ac6de14ace4","system_id":"levelo_inurba_marseille","lat":43.29573,"lon":5.367355,"is_reserved":false,"is_disabled":false,"rental_uris":{"android":"levelo://app?vid=a8b39518-0419-48c1-ab24-4ac6de14ace4","ios":"levelo://app?vid=a8b39518-0419-48c1-ab24-4ac6de14ace4"},"vehicle_type_id":"4","last_reported":1690625160,"current_range_meters":24400,"station_id":"ce4bgph2rcd13ifvqc2g","pricing_plan_id":"free"},{"bike_id":"077a3db2-9065-47a0-bcff-081599b43fda","system_id":"levelo_inurba_marseille","lat":43.29573,"lon":5.367355,"is_reserved":false,"is_disabled":false,"rental_uris":{"android":"levelo://app?vid=077a3db2-9065-47a0-bcff-081599b43fda","ios":"levelo://app?vid=077a3db2-9065-47a0-bcff-081599b43fda"},"vehicle_type_id":"4","last_reported":1690625160,"current_range_meters":31200,"station_id":"ce4bgph2rcd13ifvqc2g","pricing_plan_id":"free"},{"bike_id":"62e461d5-8284-47ef-8f86-1e4dff98b8d1","system_id":"levelo_inurba_marseille","lat":43.29573,"lon":5.367355,"is_reserved":false,"is_disabled":false,"rental_uris":{"android":"levelo://app?vid=62e461d5-8284-47ef-8f86-1e4dff98b8d1","ios":"levelo://app?vid=62e461d5-8284-47ef-8f86-1e4dff98b8d1"},"vehicle_type_id":"4","last_reported":1690625160,"current_range_meters":31600,"station_id":"ce4bgph2rcd13ifvqc2g","pricing_plan_id":"free"},{"bike_id":"80996baf-8597-4552-b66a-a0139bedf903","system_id":"levelo_inurba_marseille","lat":43.309502,"lon":5.390365,"is_reserved":false,"is_disabled":false,"rental_uris":{"android":"levelo://app?vid=80996baf-8597-4552-b66a-a0139bedf903","ios":"levelo://app?vid=80996baf-8597-4552-b66a-a0139bedf903"},"vehicle_type_id":"4","last_reported":1690625160,"current_range_meters":2800,"station_id":"","pricing_plan_id":"free"},{"bike_id":"f0b1921d-8fc5-42f6-8214-26455e772ce5","system_id":"levelo_inurba_marseille","lat":43.309589,"lon":5.390258,"is_reserved":false,"is_disabled":false,"rental_uris":{"android":"levelo://app?vid=f0b1921d-8fc5-42f6-8214-26455e772ce5","ios":"levelo://app?vid=f0b1921d-8fc5-42f6-8214-26455e772ce5"},"vehicle_type_id":"4","last_reported":1690625160,"current_range_meters":28000,"station_id":"ce4bgup2rcd13ifvqco0","pricing_plan_id":"free"},{"bike_id":"45a76014-724b-4125-bd43-f10b9ea7e21f","system_id":"levelo_inurba_marseille","lat":43.317557,"lon":5.390173,"is_reserved":false,"is_disabled":false,"rental_uris":{"android":"levelo://app?vid=45a76014-724b-4125-bd43-f10b9ea7e21f","ios":"levelo://app?vid=45a76014-724b-4125-bd43-f10b9ea7e21f"},"vehicle_type_id":"4","last_reported":1690625160,"current_range_meters":30000,"station_id":"ce4bhqp2rcd13ifvqhng","pricing_plan_id":"free"},{"bike_id":"cf417249-5c8b-44f3-b7f5-6fdcde0b6618","system_id":"levelo_inurba_marseille","lat":43.317557,"lon":5.390173,"is_reserved":false,"is_disabled":false,"rental_uris":{"android":"levelo://app?vid=cf417249-5c8b-44f3-b7f5-6fdcde0b6618","ios":"levelo://app?vid=cf417249-5c8b-44f3-b7f5-6fdcde0b6618"},"vehicle_type_id":"4","last_reported":1690625160,"current_range_meters":21600,"station_id":"ce4bhqp2rcd13ifvqhng","pricing_plan_id":"free"},{"bike_id":"617ed340-9cb3-48a2-8928-4784b0ddd35f","system_id":"levelo_inurba_marseille","lat":43.317557,"lon":5.390173,"is_reserved":false,"is_disabled":false,"rental_uris":{"android":"levelo://app?vid=617ed340-9cb3-48a2-8928-4784b0ddd35f","ios":"levelo://app?vid=617ed340-9cb3-48a2-8928-4784b0ddd35f"},"vehicle_type_id":"4","last_reported":1690625160,"current_range_meters":28400,"station_id":"ce4bhqp2rcd13ifvqhng","pricing_plan_id":"free"},{"bike_id":"9e3682ae-bdf1-410a-9ef7-040ab93e2f31","system_id":"levelo_inurba_marseille","lat":43.317557,"lon":5.390173,"is_reserved":false,"is_disabled":false,"rental_uris":{"android":"levelo://app?vid=9e3682ae-bdf1-410a-9ef7-040ab93e2f31","ios":"levelo://app?vid=9e3682ae-bdf1-410a-9ef7-040ab93e2f31"},"vehicle_type_id":"4","last_reported":1690625160,"current_range_meters":28000,"station_id":"ce4bhqp2rcd13ifvqhng","pricing_plan_id":"free"},{"bike_id":"f357e22f-53f9-4377-88e5-36c521b4aad2","system_id":"levelo_inurba_marseille","lat":43.298037,"lon":5.381066,"is_reserved":false,"is_disabled":false,"rental_uris":{"android":"levelo://app?vid=f357e22f-53f9-4377-88e5-36c521b4aad2","ios":"levelo://app?vid=f357e22f-53f9-4377-88e5-36c521b4aad2"},"vehicle_type_id":"4","last_reported":1690625160,"current_range_meters":29200,"station_id":"ce4bgip2rcd13ifvqbb0","pricing_plan_id":"free"},{"bike_id":"e760c261-b13b-43ac-ad3c-c6e1137309dd","system_id":"levelo_inurba_marseille","lat":43.295748,"lon":5.37522,"is_reserved":false,"is_disabled":false,"rental_uris":{"android":"levelo://app?vid=e760c261-b13b-43ac-ad3c-c6e1137309dd","ios":"levelo://app?vid=e760c261-b13b-43ac-ad3c-c6e1137309dd"},"vehicle_type_id":"4","last_reported":1690625160,"current_range_meters":31200,"station_id":"ce4bgh92rcd13ifvqb50","pricing_plan_id":"free"},{"bike_id":"eb99c5f4-1e57-4bc1-a260-01803a6a0f74","system_id":"levelo_inurba_marseille","lat":43.295748,"lon":5.37522,"is_reserved":false,"is_disabled":false,"rental_uris":{"android":"levelo://app?vid=eb99c5f4-1e57-4bc1-a260-01803a6a0f74","ios":"levelo://app?vid=eb99c5f4-1e57-4bc1-a260-01803a6a0f74"},"vehicle_type_id":"4","last_reported":1690625160,"current_range_meters":28000,"station_id":"ce4bgh92rcd13ifvqb50","pricing_plan_id":"free"},{"bike_id":"100cdbd7-5973-4b39-a2a6-e30daf4b3d62","system_id":"levelo_inurba_marseille","lat":43.296286,"lon":5.377114,"is_reserved":false,"is_disabled":false,"rental_uris":{"android":"levelo://app?vid=100cdbd7-5973-4b39-a2a6-e30daf4b3d62","ios":"levelo://app?vid=100cdbd7-5973-4b39-a2a6-e30daf4b3d62"},"vehicle_type_id":"4","last_reported":1690625160,"current_range_meters":7200,"station_id":"ce4bgi92rcd13ifvqb90","pricing_plan_id":"free"},{"bike_id":"2e97ffc7-b3f0-4360-aaf6-3e184d10c469","system_id":"levelo_inurba_marseille","lat":43.295748,"lon":5.37522,"is_reserved":false,"is_disabled":false,"rental_uris":{"android":"levelo://app?vid=2e97ffc7-b3f0-4360-aaf6-3e184d10c469","ios":"levelo://app?vid=2e97ffc7-b3f0-4360-aaf6-3e184d10c469"},"vehicle_type_id":"4","last_reported":1690625160,"current_range_meters":16400,"station_id":"ce4bgh92rcd13ifvqb50","pricing_plan_id":"free"},{"bike_id":"0b57d84c-cf69-4a22-bb62-14e9e5458c0a","system_id":"levelo_inurba_marseille","lat":43.296277,"lon":5.377108,"is_reserved":false,"is_disabled":false,"rental_uris":{"android":"levelo://app?vid=0b57d84c-cf69-4a22-bb62-14e9e5458c0a","ios":"levelo://app?vid=0b57d84c-cf69-4a22-bb62-14e9e5458c0a"},"vehicle_type_id":"4","last_reported":1690625160,"current_range_meters":31200,"station_id":"ce4bgi92rcd13ifvqb90","pricing_plan_id":"free"},{"bike_id":"ad263810-d091-47f7-8932-5b7097c9ca56","system_id":"levelo_inurba_marseille","lat":43.29614,"lon":5.37706,"is_reserved":false,"is_disabled":false,"rental_uris":{"android":"levelo://app?vid=ad263810-d091-47f7-8932-5b7097c9ca56","ios":"levelo://app?vid=ad263810-d091-47f7-8932-5b7097c9ca56"},"vehicle_type_id":"4","last_reported":1690625160,"current_range_meters":14800,"station_id":"ce4bgi92rcd13ifvqb90","pricing_plan_id":"free"},{"bike_id":"3a20101c-9498-4247-8d48-4622f2c0c057","system_id":"levelo_inurba_marseille","lat":43.296277,"lon":5.377108,"is_reserved":false,"is_disabled":false,"rental_uris":{"android":"levelo://app?vid=3a20101c-9498-4247-8d48-4622f2c0c057","ios":"levelo://app?vid=3a20101c-9498-4247-8d48-4622f2c0c057"},"vehicle_type_id":"4","last_reported":1690625160,"current_range_meters":31200,"station_id":"ce4bgi92rcd13ifvqb90","pricing_plan_id":"free"},{"bike_id":"ba4915e1-33e0-447e-81b4-918f32122545","system_id":"levelo_inurba_marseille","lat":43.296277,"lon":5.377108,"is_reserved":false,"is_disabled":false,"rental_uris":{"android":"levelo://app?vid=ba4915e1-33e0-447e-81b4-918f32122545","ios":"levelo://app?vid=ba4915e1-33e0-447e-81b4-918f32122545"},"vehicle_type_id":"4","last_reported":1690625160,"current_range_meters":31200,"station_id":"ce4bgi92rcd13ifvqb90","pricing_plan_id":"free"},{"bike_id":"2e6ba309-14f2-4add-bd2b-bba32b730e8f","system_id":"levelo_inurba_marseille","lat":43.296277,"lon":5.377108,"is_reserved":false,"is_disabled":false,"rental_uris":{"android":"levelo://app?vid=2e6ba309-14f2-4add-bd2b-bba32b730e8f","ios":"levelo://app?vid=2e6ba309-14f2-4add-bd2b-bba32b730e8f"},"vehicle_type_id":"4","last_reported":1690625160,"current_range_meters":31200,"station_id":"ce4bgi92rcd13ifvqb90","pricing_plan_id":"free"},{"bike_id":"ee04ed57-d5cf-4d1e-8174-83a38a0ca653","system_id":"levelo_inurba_marseille","lat":43.299707,"lon":5.384859,"is_reserved":false,"is_disabled":false,"rental_uris":{"android":"levelo://app?vid=ee04ed57-d5cf-4d1e-8174-83a38a0ca653","ios":"levelo://app?vid=ee04ed57-d5cf-4d1e-8174-83a38a0ca653"},"vehicle_type_id":"4","last_reported":1690625160,"current_range_meters":30400,"station_id":"ce4bgj92rcd13ifvqbd0","pricing_plan_id":"free"},{"bike_id":"45f206dc-9795-41a0-be3a-8af1176b0327","system_id":"levelo_inurba_marseille","lat":43.299707,"lon":5.384859,"is_reserved":false,"is_disabled":false,"rental_uris":{"android":"levelo://app?vid=45f206dc-9795-41a0-be3a-8af1176b0327","ios":"levelo://app?vid=45f206dc-9795-41a0-be3a-8af1176b0327"},"vehicle_type_id":"4","last_reported":1690625160,"current_range_meters":28000,"station_id":"ce4bgj92rcd13ifvqbd0","pricing_plan_id":"free"},{"bike_id":"71d25af7-d9a5-47f5-be23-727deac4a5b6","system_id":"levelo_inurba_marseille","lat":43.299717,"lon":5.384845,"is_reserved":false,"is_disabled":false,"rental_uris":{"android":"levelo://app?vid=71d25af7-d9a5-47f5-be23-727deac4a5b6","ios":"levelo://app?vid=71d25af7-d9a5-47f5-be23-727deac4a5b6"},"vehicle_type_id":"4","last_reported":1690625160,"current_range_meters":21600,"station_id":"ce4bgj92rcd13ifvqbd0","pricing_plan_id":"free"},{"bike_id":"9417d993-785e-45ed-99f6-6d6e9901a44e","system_id":"levelo_inurba_marseille","lat":43.29968,"lon":5.38493,"is_reserved":false,"is_disabled":false,"rental_uris":{"android":"levelo://app?vid=9417d993-785e-45ed-99f6-6d6e9901a44e","ios":"levelo://app?vid=9417d993-785e-45ed-99f6-6d6e9901a44e"},"vehicle_type_id":"4","last_reported":1690625160,"current_range_meters":23200,"station_id":"ce4bgj92rcd13ifvqbd0","pricing_plan_id":"free"},{"bike_id":"6c958722-d3df-4d29-b8ff-52ad97805940","system_id":"levelo_inurba_marseille","lat":43.295279,"lon":5.375048,"is_reserved":false,"is_disabled":false,"rental_uris":{"android":"levelo://app?vid=6c958722-d3df-4d29-b8ff-52ad97805940","ios":"levelo://app?vid=6c958722-d3df-4d29-b8ff-52ad97805940"},"vehicle_type_id":"4","last_reported":1690625160,"current_range_meters":27600,"station_id":"ce4bgkp2rcd13ifvqbmg","pricing_plan_id":"free"},{"bike_id":"c08aaf8f-7687-4b51-8426-6bfb68b9c544","system_id":"levelo_inurba_marseille","lat":43.295279,"lon":5.375048,"is_reserved":false,"is_disabled":false,"rental_uris":{"android":"levelo://app?vid=c08aaf8f-7687-4b51-8426-6bfb68b9c544","ios":"levelo://app?vid=c08aaf8f-7687-4b51-8426-6bfb68b9c544"},"vehicle_type_id":"4","last_reported":1690625160,"current_range_meters":25200,"station_id":"ce4bgkp2rcd13ifvqbmg","pricing_plan_id":"free"},{"bike_id":"315930d4-6e1f-4a03-9574-c599af8c98c5","system_id":"levelo_inurba_marseille","lat":43.32366,"lon":5.38876,"is_reserved":false,"is_disabled":false,"rental_uris":{"android":"levelo://app?vid=315930d4-6e1f-4a03-9574-c599af8c98c5","ios":"levelo://app?vid=315930d4-6e1f-4a03-9574-c599af8c98c5"},"vehicle_type_id":"4","last_reported":1690625160,"current_range_meters":29200,"station_id":"ce4bhqp2rcd13ifvqhog","pricing_plan_id":"free"},{"bike_id":"e1d12222-d592-4081-8c14-344c4a603ece","system_id":"levelo_inurba_marseille","lat":43.32366,"lon":5.38876,"is_reserved":false,"is_disabled":false,"rental_uris":{"android":"levelo://app?vid=e1d12222-d592-4081-8c14-344c4a603ece","ios":"levelo://app?vid=e1d12222-d592-4081-8c14-344c4a603ece"},"vehicle_type_id":"4","last_reported":1690625160,"current_range_meters":13200,"station_id":"ce4bhqp2rcd13ifvqhog","pricing_plan_id":"free"},{"bike_id":"7a5057bc-105b-43de-b6c1-172a5d63187f","system_id":"levelo_inurba_marseille","lat":43.32367,"lon":5.388836,"is_reserved":false,"is_disabled":false,"rental_uris":{"android":"levelo://app?vid=7a5057bc-105b-43de-b6c1-172a5d63187f","ios":"levelo://app?vid=7a5057bc-105b-43de-b6c1-172a5d63187f"},"vehicle_type_id":"4","last_reported":1690625160,"current_range_meters":23200,"station_id":"ce4bhqp2rcd13ifvqhog","pricing_plan_id":"free"},{"bike_id":"98301af9-88a4-468d-bc11-8bc87ab1be6f","system_id":"levelo_inurba_marseille","lat":43.32365,"lon":5.38879,"is_reserved":false,"is_disabled":false,"rental_uris":{"android":"levelo://app?vid=98301af9-88a4-468d-bc11-8bc87ab1be6f","ios":"levelo://app?vid=98301af9-88a4-468d-bc11-8bc87ab1be6f"},"vehicle_type_id":"4","last_reported":1690625160,"current_range_meters":19200,"station_id":"ce4bhqp2rcd13ifvqhog","pricing_plan_id":"free"},{"bike_id":"80b95fb3-c398-4200-9197-c07b7e0f4e3a","system_id":"levelo_inurba_marseille","lat":43.32367,"lon":5.388836,"is_reserved":false,"is_disabled":false,"rental_uris":{"android":"levelo://app?vid=80b95fb3-c398-4200-9197-c07b7e0f4e3a","ios":"levelo://app?vid=80b95fb3-c398-4200-9197-c07b7e0f4e3a"},"vehicle_type_id":"4","last_reported":1690625160,"current_range_meters":27200,"station_id":"ce4bhqp2rcd13ifvqhog","pricing_plan_id":"free"},{"bike_id":"2045403a-72e6-44bf-acc0-4fff4883b932","system_id":"levelo_inurba_marseille","lat":43.32369,"lon":5.38885,"is_reserved":false,"is_disabled":false,"rental_uris":{"android":"levelo://app?vid=2045403a-72e6-44bf-acc0-4fff4883b932","ios":"levelo://app?vid=2045403a-72e6-44bf-acc0-4fff4883b932"},"vehicle_type_id":"4","last_reported":1690625160,"current_range_meters":23200,"station_id":"ce4bhqp2rcd13ifvqhog","pricing_plan_id":"free"},{"bike_id":"a616003f-29a1-4977-a7ec-9d5c4a37a0e7","system_id":"levelo_inurba_marseille","lat":43.29273,"lon":5.36837,"is_reserved":false,"is_disabled":false,"rental_uris":{"android":"levelo://app?vid=a616003f-29a1-4977-a7ec-9d5c4a37a0e7","ios":"levelo://app?vid=a616003f-29a1-4977-a7ec-9d5c4a37a0e7"},"vehicle_type_id":"4","last_reported":1690625160,"current_range_meters":24400,"station_id":"ce4bhbp2rcd13ifvqesg","pricing_plan_id":"free"},{"bike_id":"bb47cdfc-d051-44ef-a799-37237aeb875e","system_id":"levelo_inurba_marseille","lat":43.292749,"lon":5.368402,"is_reserved":false,"is_disabled":false,"rental_uris":{"android":"levelo://app?vid=bb47cdfc-d051-44ef-a799-37237aeb875e","ios":"levelo://app?vid=bb47cdfc-d051-44ef-a799-37237aeb875e"},"vehicle_type_id":"4","last_reported":1690625160,"current_range_meters":16400,"station_id":"ce4bhbp2rcd13ifvqesg","pricing_plan_id":"free"},{"bike_id":"4abd777f-4827-4c55-85d9-62b3f7cc4dd6","system_id":"levelo_inurba_marseille","lat":43.29354,"lon":5.37599,"is_reserved":false,"is_disabled":false,"rental_uris":{"android":"levelo://app?vid=4abd777f-4827-4c55-85d9-62b3f7cc4dd6","ios":"levelo://app?vid=4abd777f-4827-4c55-85d9-62b3f7cc4dd6"},"vehicle_type_id":"4","last_reported":1690625160,"current_range_meters":17600,"station_id":"","pricing_plan_id":"free"},{"bike_id":"d2dc133d-3605-4324-8af8-44c1c0dee1cd","system_id":"levelo_inurba_marseille","lat":43.29306,"lon":5.37431,"is_reserved":false,"is_disabled":false,"rental_uris":{"android":"levelo://app?vid=d2dc133d-3605-4324-8af8-44c1c0dee1cd","ios":"levelo://app?vid=d2dc133d-3605-4324-8af8-44c1c0dee1cd"},"vehicle_type_id":"4","last_reported":1690625160,"current_range_meters":12800,"station_id":"ce4bgi12rcd13ifvqb70","pricing_plan_id":"free"},{"bike_id":"62bff839-261c-4462-9082-6af12cf268f7","system_id":"levelo_inurba_marseille","lat":43.30301,"lon":5.39209,"is_reserved":false,"is_disabled":false,"rental_uris":{"android":"levelo://app?vid=62bff839-261c-4462-9082-6af12cf268f7","ios":"levelo://app?vid=62bff839-261c-4462-9082-6af12cf268f7"},"vehicle_type_id":"4","last_reported":1690625160,"current_range_meters":24400,"station_id":"ce4bgkh2rcd13ifvqbk0","pricing_plan_id":"free"},{"bike_id":"89b345b5-d717-471e-a39e-a03c3d4d1960","system_id":"levelo_inurba_marseille","lat":43.302992,"lon":5.392136,"is_reserved":false,"is_disabled":false,"rental_uris":{"android":"levelo://app?vid=89b345b5-d717-471e-a39e-a03c3d4d1960","ios":"levelo://app?vid=89b345b5-d717-471e-a39e-a03c3d4d1960"},"vehicle_type_id":"4","last_reported":1690625160,"current_range_meters":2000,"station_id":"ce4bgkh2rcd13ifvqbk0","pricing_plan_id":"free"},{"bike_id":"88b2c7d7-065f-4960-9cdc-55d005112638","system_id":"levelo_inurba_marseille","lat":43.2936,"lon":5.37835,"is_reserved":false,"is_disabled":false,"rental_uris":{"android":"levelo://app?vid=88b2c7d7-065f-4960-9cdc-55d005112638","ios":"levelo://app?vid=88b2c7d7-065f-4960-9cdc-55d005112638"},"vehicle_type_id":"4","last_reported":1690625160,"current_range_meters":29200,"station_id":"ce4bgjh2rcd13ifvqbf0","pricing_plan_id":"free"},{"bike_id":"212a97fa-f682-4776-a1b2-2155c8a47f01","system_id":"levelo_inurba_marseille","lat":43.2936,"lon":5.37835,"is_reserved":false,"is_disabled":false,"rental_uris":{"android":"levelo://app?vid=212a97fa-f682-4776-a1b2-2155c8a47f01","ios":"levelo://app?vid=212a97fa-f682-4776-a1b2-2155c8a47f01"},"vehicle_type_id":"4","last_reported":1690625160,"current_range_meters":31200,"station_id":"ce4bgjh2rcd13ifvqbf0","pricing_plan_id":"free"},{"bike_id":"0870aa9b-a8f1-469b-8af5-795220005262","system_id":"levelo_inurba_marseille","lat":43.292311,"lon":5.360731,"is_reserved":false,"is_disabled":false,"rental_uris":{"android":"levelo://app?vid=0870aa9b-a8f1-469b-8af5-795220005262","ios":"levelo://app?vid=0870aa9b-a8f1-469b-8af5-795220005262"},"vehicle_type_id":"4","last_reported":1690625160,"current_range_meters":30400,"station_id":"ce4bhbh2rcd13ifvqeqg","pricing_plan_id":"free"},{"bike_id":"a0a9d342-8fee-4a40-83ba-54a93dd80ad3","system_id":"levelo_inurba_marseille","lat":43.29259,"lon":5.37614,"is_reserved":false,"is_disabled":false,"rental_uris":{"android":"levelo://app?vid=a0a9d342-8fee-4a40-83ba-54a93dd80ad3","ios":"levelo://app?vid=a0a9d342-8fee-4a40-83ba-54a93dd80ad3"},"vehicle_type_id":"4","last_reported":1690625160,"current_range_meters":16000,"station_id":"ce4bgi12rcd13ifvqb80","pricing_plan_id":"free"},{"bike_id":"27b1186d-dc49-4589-b6d5-6d42262e665b","system_id":"levelo_inurba_marseille","lat":43.292663,"lon":5.376389,"is_reserved":false,"is_disabled":false,"rental_uris":{"android":"levelo://app?vid=27b1186d-dc49-4589-b6d5-6d42262e665b","ios":"levelo://app?vid=27b1186d-dc49-4589-b6d5-6d42262e665b"},"vehicle_type_id":"4","last_reported":1690625160,"current_range_meters":25600,"station_id":"ce4bgi12rcd13ifvqb80","pricing_plan_id":"free"},{"bike_id":"00f62725-d026-4659-82ec-98e97e26bfca","system_id":"levelo_inurba_marseille","lat":43.292663,"lon":5.376389,"is_reserved":false,"is_disabled":false,"rental_uris":{"android":"levelo://app?vid=00f62725-d026-4659-82ec-98e97e26bfca","ios":"levelo://app?vid=00f62725-d026-4659-82ec-98e97e26bfca"},"vehicle_type_id":"4","last_reported":1690625160,"current_range_meters":28800,"station_id":"ce4bgi12rcd13ifvqb80","pricing_plan_id":"free"},{"bike_id":"7a160a28-4c4a-435d-b663-725df50f1d71","system_id":"levelo_inurba_marseille","lat":43.292663,"lon":5.376394,"is_reserved":false,"is_disabled":false,"rental_uris":{"android":"levelo://app?vid=7a160a28-4c4a-435d-b663-725df50f1d71","ios":"levelo://app?vid=7a160a28-4c4a-435d-b663-725df50f1d71"},"vehicle_type_id":"4","last_reported":1690625160,"current_range_meters":28400,"station_id":"ce4bgi12rcd13ifvqb80","pricing_plan_id":"free"},{"bike_id":"786e2416-7da5-4c80-a938-a2f0564fbdc3","system_id":"levelo_inurba_marseille","lat":43.292663,"lon":5.376389,"is_reserved":false,"is_disabled":false,"rental_uris":{"android":"levelo://app?vid=786e2416-7da5-4c80-a938-a2f0564fbdc3","ios":"levelo://app?vid=786e2416-7da5-4c80-a938-a2f0564fbdc3"},"vehicle_type_id":"4","last_reported":1690625160,"current_range_meters":24000,"station_id":"ce4bgi12rcd13ifvqb80","pricing_plan_id":"free"},{"bike_id":"1ebae2a0-63cb-44d7-be32-b14d4e380a1e","system_id":"levelo_inurba_marseille","lat":43.298764,"lon":5.388973,"is_reserved":false,"is_disabled":false,"rental_uris":{"android":"levelo://app?vid=1ebae2a0-63cb-44d7-be32-b14d4e380a1e","ios":"levelo://app?vid=1ebae2a0-63cb-44d7-be32-b14d4e380a1e"},"vehicle_type_id":"4","last_reported":1690625160,"current_range_meters":30000,"station_id":"ce4bh392rcd13ifvqdl0","pricing_plan_id":"free"},{"bike_id":"c1283aae-a5b2-4b88-b6f5-7d7481de71e2","system_id":"levelo_inurba_marseille","lat":43.29428,"lon":5.38253,"is_reserved":false,"is_disabled":false,"rental_uris":{"android":"levelo://app?vid=c1283aae-a5b2-4b88-b6f5-7d7481de71e2","ios":"levelo://app?vid=c1283aae-a5b2-4b88-b6f5-7d7481de71e2"},"vehicle_type_id":"4","last_reported":1690625160,"current_range_meters":8800,"station_id":"","pricing_plan_id":"free"},{"bike_id":"715ec307-bb10-4416-97c1-0b56ee9f28e3","system_id":"levelo_inurba_marseille","lat":43.29203,"lon":5.35812,"is_reserved":false,"is_disabled":false,"rental_uris":{"android":"levelo://app?vid=715ec307-bb10-4416-97c1-0b56ee9f28e3","ios":"levelo://app?vid=715ec307-bb10-4416-97c1-0b56ee9f28e3"},"vehicle_type_id":"4","last_reported":1690625160,"current_range_meters":31200,"station_id":"ce4bhb12rcd13ifvqel0","pricing_plan_id":"free"},{"bike_id":"e6699a67-df0a-47ba-b948-6867eebf7e4d","system_id":"levelo_inurba_marseille","lat":43.29198,"lon":5.35801,"is_reserved":false,"is_disabled":false,"rental_uris":{"android":"levelo://app?vid=e6699a67-df0a-47ba-b948-6867eebf7e4d","ios":"levelo://app?vid=e6699a67-df0a-47ba-b948-6867eebf7e4d"},"vehicle_type_id":"4","last_reported":1690625160,"current_range_meters":20000,"station_id":"ce4bhb12rcd13ifvqel0","pricing_plan_id":"free"},{"bike_id":"17f3509a-2d58-4042-a0dc-2ec66b1ede9a","system_id":"levelo_inurba_marseille","lat":43.29191,"lon":5.35801,"is_reserved":false,"is_disabled":false,"rental_uris":{"android":"levelo://app?vid=17f3509a-2d58-4042-a0dc-2ec66b1ede9a","ios":"levelo://app?vid=17f3509a-2d58-4042-a0dc-2ec66b1ede9a"},"vehicle_type_id":"4","last_reported":1690625160,"current_range_meters":18800,"station_id":"ce4bhb12rcd13ifvqel0","pricing_plan_id":"free"},{"bike_id":"40e729da-e5ce-4e62-a15f-dd93630cee1b","system_id":"levelo_inurba_marseille","lat":43.29193,"lon":5.35792,"is_reserved":false,"is_disabled":false,"rental_uris":{"android":"levelo://app?vid=40e729da-e5ce-4e62-a15f-dd93630cee1b","ios":"levelo://app?vid=40e729da-e5ce-4e62-a15f-dd93630cee1b"},"vehicle_type_id":"4","last_reported":1690625160,"current_range_meters":20000,"station_id":"ce4bhb12rcd13ifvqel0","pricing_plan_id":"free"},{"bike_id":"fa77b205-4968-4d3b-a612-06845c2c8484","system_id":"levelo_inurba_marseille","lat":43.29192,"lon":5.35793,"is_reserved":false,"is_disabled":false,"rental_uris":{"android":"levelo://app?vid=fa77b205-4968-4d3b-a612-06845c2c8484","ios":"levelo://app?vid=fa77b205-4968-4d3b-a612-06845c2c8484"},"vehicle_type_id":"4","last_reported":1690625160,"current_range_meters":22400,"station_id":"ce4bhb12rcd13ifvqel0","pricing_plan_id":"free"},{"bike_id":"338054b0-3a1f-4a05-81c6-87c48718722b","system_id":"levelo_inurba_marseille","lat":43.31329,"lon":5.39695,"is_reserved":false,"is_disabled":false,"rental_uris":{"android":"levelo://app?vid=338054b0-3a1f-4a05-81c6-87c48718722b","ios":"levelo://app?vid=338054b0-3a1f-4a05-81c6-87c48718722b"},"vehicle_type_id":"4","last_reported":1690625160,"current_range_meters":5600,"station_id":"ce4bgvp2rcd13ifvqcu0","pricing_plan_id":"free"},{"bike_id":"ab6bcc06-53e3-4556-a21d-d29e44281964","system_id":"levelo_inurba_marseille","lat":43.313271,"lon":5.396955,"is_reserved":false,"is_disabled":false,"rental_uris":{"android":"levelo://app?vid=ab6bcc06-53e3-4556-a21d-d29e44281964","ios":"levelo://app?vid=ab6bcc06-53e3-4556-a21d-d29e44281964"},"vehicle_type_id":"4","last_reported":1690625160,"current_range_meters":13200,"station_id":"ce4bh0p2rcd13ifvqd80","pricing_plan_id":"free"},{"bike_id":"7305f0ae-51cf-4ef4-882d-4aa18b9c8dd4","system_id":"levelo_inurba_marseille","lat":43.31334,"lon":5.39699,"is_reserved":false,"is_disabled":false,"rental_uris":{"android":"levelo://app?vid=7305f0ae-51cf-4ef4-882d-4aa18b9c8dd4","ios":"levelo://app?vid=7305f0ae-51cf-4ef4-882d-4aa18b9c8dd4"},"vehicle_type_id":"4","last_reported":1690625160,"current_range_meters":18000,"station_id":"ce4bgvp2rcd13ifvqcu0","pricing_plan_id":"free"},{"bike_id":"d6f0ac12-a654-414d-8c7e-7be2139bcd32","system_id":"levelo_inurba_marseille","lat":43.30889,"lon":5.39662,"is_reserved":false,"is_disabled":false,"rental_uris":{"android":"levelo://app?vid=d6f0ac12-a654-414d-8c7e-7be2139bcd32","ios":"levelo://app?vid=d6f0ac12-a654-414d-8c7e-7be2139bcd32"},"vehicle_type_id":"4","last_reported":1690625160,"current_range_meters":19200,"station_id":"ce4bh012rcd13ifvqcv0","pricing_plan_id":"free"},{"bike_id":"ce5ba002-57f6-49cd-a50a-a05182b610db","system_id":"levelo_inurba_marseille","lat":43.29532,"lon":5.38543,"is_reserved":false,"is_disabled":false,"rental_uris":{"android":"levelo://app?vid=ce5ba002-57f6-49cd-a50a-a05182b610db","ios":"levelo://app?vid=ce5ba002-57f6-49cd-a50a-a05182b610db"},"vehicle_type_id":"4","last_reported":1690625160,"current_range_meters":28000,"station_id":"ce4bgih2rcd13ifvqba0","pricing_plan_id":"free"},{"bike_id":"9c88c1ee-1cd1-4fa2-b89e-e60c2e9589b4","system_id":"levelo_inurba_marseille","lat":43.29421,"lon":5.38403,"is_reserved":false,"is_disabled":false,"rental_uris":{"android":"levelo://app?vid=9c88c1ee-1cd1-4fa2-b89e-e60c2e9589b4","ios":"levelo://app?vid=9c88c1ee-1cd1-4fa2-b89e-e60c2e9589b4"},"vehicle_type_id":"4","last_reported":1690625160,"current_range_meters":3200,"station_id":"","pricing_plan_id":"free"},{"bike_id":"c291acc0-6353-4a9b-9c4c-d32c59f9a9ac","system_id":"levelo_inurba_marseille","lat":43.302008,"lon":5.394694,"is_reserved":false,"is_disabled":false,"rental_uris":{"android":"levelo://app?vid=c291acc0-6353-4a9b-9c4c-d32c59f9a9ac","ios":"levelo://app?vid=c291acc0-6353-4a9b-9c4c-d32c59f9a9ac"},"vehicle_type_id":"4","last_reported":1690625160,"current_range_meters":19200,"station_id":"ce4bh0p2rcd13ifvqd70","pricing_plan_id":"free"},{"bike_id":"5daa6ce2-5734-43b5-b5a8-c05a7e26c702","system_id":"levelo_inurba_marseille","lat":43.294153,"lon":5.386305,"is_reserved":false,"is_disabled":false,"rental_uris":{"android":"levelo://app?vid=5daa6ce2-5734-43b5-b5a8-c05a7e26c702","ios":"levelo://app?vid=5daa6ce2-5734-43b5-b5a8-c05a7e26c702"},"vehicle_type_id":"4","last_reported":1690625160,"current_range_meters":9200,"station_id":"ce4bh2h2rcd13ifvqdh0","pricing_plan_id":"free"},{"bike_id":"438c6c1b-de83-4472-b66c-1b21645a24d7","system_id":"levelo_inurba_marseille","lat":43.294162,"lon":5.386292,"is_reserved":false,"is_disabled":false,"rental_uris":{"android":"levelo://app?vid=438c6c1b-de83-4472-b66c-1b21645a24d7","ios":"levelo://app?vid=438c6c1b-de83-4472-b66c-1b21645a24d7"},"vehicle_type_id":"4","last_reported":1690625160,"current_range_meters":25600,"station_id":"ce4bh2h2rcd13ifvqdh0","pricing_plan_id":"free"},{"bike_id":"ac3763c6-0711-49eb-a224-7e6852270b07","system_id":"levelo_inurba_marseille","lat":43.289184,"lon":5.366408,"is_reserved":false,"is_disabled":false,"rental_uris":{"android":"levelo://app?vid=ac3763c6-0711-49eb-a224-7e6852270b07","ios":"levelo://app?vid=ac3763c6-0711-49eb-a224-7e6852270b07"},"vehicle_type_id":"4","last_reported":1690625160,"current_range_meters":7200,"station_id":"ce4bhap2rcd13ifvqek0","pricing_plan_id":"free"},{"bike_id":"598c8bd2-ea7f-4d50-8005-8875b0ab63e3","system_id":"levelo_inurba_marseille","lat":43.289468,"lon":5.363719,"is_reserved":false,"is_disabled":false,"rental_uris":{"android":"levelo://app?vid=598c8bd2-ea7f-4d50-8005-8875b0ab63e3","ios":"levelo://app?vid=598c8bd2-ea7f-4d50-8005-8875b0ab63e3"},"vehicle_type_id":"4","last_reported":1690625160,"current_range_meters":27200,"station_id":"ce4bhc92rcd13ifvqetg","pricing_plan_id":"free"},{"bike_id":"c3cca570-6910-4bec-99ea-b5b3fccb7c1d","system_id":"levelo_inurba_marseille","lat":43.304274,"lon":5.397513,"is_reserved":false,"is_disabled":false,"rental_uris":{"android":"levelo://app?vid=c3cca570-6910-4bec-99ea-b5b3fccb7c1d","ios":"levelo://app?vid=c3cca570-6910-4bec-99ea-b5b3fccb7c1d"},"vehicle_type_id":"4","last_reported":1690625160,"current_range_meters":15600,"station_id":"ce4bh092rcd13ifvqd20","pricing_plan_id":"free"},{"bike_id":"682b3259-709c-4fc8-945b-c501c1d19241","system_id":"levelo_inurba_marseille","lat":43.33039,"lon":5.38914,"is_reserved":false,"is_disabled":false,"rental_uris":{"android":"levelo://app?vid=682b3259-709c-4fc8-945b-c501c1d19241","ios":"levelo://app?vid=682b3259-709c-4fc8-945b-c501c1d19241"},"vehicle_type_id":"4","last_reported":1690625160,"current_range_meters":31200,"station_id":"ce4bhr92rcd13ifvqhrg","pricing_plan_id":"free"},{"bike_id":"b53dac02-6eb0-4210-8d4c-f4327c1b6930","system_id":"levelo_inurba_marseille","lat":43.33045,"lon":5.38913,"is_reserved":false,"is_disabled":false,"rental_uris":{"android":"levelo://app?vid=b53dac02-6eb0-4210-8d4c-f4327c1b6930","ios":"levelo://app?vid=b53dac02-6eb0-4210-8d4c-f4327c1b6930"},"vehicle_type_id":"4","last_reported":1690625160,"current_range_meters":16800,"station_id":"ce4bhr92rcd13ifvqhrg","pricing_plan_id":"free"},{"bike_id":"6c5adcab-3730-49f9-aa4f-39e42420ca4b","system_id":"levelo_inurba_marseille","lat":43.290104,"lon":5.356111,"is_reserved":false,"is_disabled":false,"rental_uris":{"android":"levelo://app?vid=6c5adcab-3730-49f9-aa4f-39e42420ca4b","ios":"levelo://app?vid=6c5adcab-3730-49f9-aa4f-39e42420ca4b"},"vehicle_type_id":"4","last_reported":1690625160,"current_range_meters":17600,"station_id":"ce4bhb92rcd13ifvqen0","pricing_plan_id":"free"},{"bike_id":"a24fa290-3699-4bf8-b52b-781e84d5d80b","system_id":"levelo_inurba_marseille","lat":43.33041,"lon":5.38924,"is_reserved":false,"is_disabled":false,"rental_uris":{"android":"levelo://app?vid=a24fa290-3699-4bf8-b52b-781e84d5d80b","ios":"levelo://app?vid=a24fa290-3699-4bf8-b52b-781e84d5d80b"},"vehicle_type_id":"4","last_reported":1690625160,"current_range_meters":19200,"station_id":"ce4bhr92rcd13ifvqhrg","pricing_plan_id":"free"},{"bike_id":"7839e72f-b071-4695-93cf-29a2a1a07b7a","system_id":"levelo_inurba_marseille","lat":43.33048,"lon":5.38914,"is_reserved":false,"is_disabled":false,"rental_uris":{"android":"levelo://app?vid=7839e72f-b071-4695-93cf-29a2a1a07b7a","ios":"levelo://app?vid=7839e72f-b071-4695-93cf-29a2a1a07b7a"},"vehicle_type_id":"4","last_reported":1690625160,"current_range_meters":31200,"station_id":"ce4bhr92rcd13ifvqhrg","pricing_plan_id":"free"},{"bike_id":"d8132d11-7d1d-4eb1-907e-a79177a55510","system_id":"levelo_inurba_marseille","lat":43.330495,"lon":5.38913,"is_reserved":false,"is_disabled":false,"rental_uris":{"android":"levelo://app?vid=d8132d11-7d1d-4eb1-907e-a79177a55510","ios":"levelo://app?vid=d8132d11-7d1d-4eb1-907e-a79177a55510"},"vehicle_type_id":"4","last_reported":1690625160,"current_range_meters":16400,"station_id":"ce4bhr92rcd13ifvqhrg","pricing_plan_id":"free"},{"bike_id":"2489b70f-08d6-42c9-9d02-a4bee71d98fa","system_id":"levelo_inurba_marseille","lat":43.290103,"lon":5.356114,"is_reserved":false,"is_disabled":false,"rental_uris":{"android":"levelo://app?vid=2489b70f-08d6-42c9-9d02-a4bee71d98fa","ios":"levelo://app?vid=2489b70f-08d6-42c9-9d02-a4bee71d98fa"},"vehicle_type_id":"4","last_reported":1690625160,"current_range_meters":31200,"station_id":"ce4bhb92rcd13ifvqen0","pricing_plan_id":"free"},{"bike_id":"dcb172e2-716b-4e31-a6e3-bdc61365cc1c","system_id":"levelo_inurba_marseille","lat":43.290103,"lon":5.356114,"is_reserved":false,"is_disabled":false,"rental_uris":{"android":"levelo://app?vid=dcb172e2-716b-4e31-a6e3-bdc61365cc1c","ios":"levelo://app?vid=dcb172e2-716b-4e31-a6e3-bdc61365cc1c"},"vehicle_type_id":"4","last_reported":1690625160,"current_range_meters":30400,"station_id":"ce4bhb92rcd13ifvqen0","pricing_plan_id":"free"},{"bike_id":"a26b1757-f55b-4c58-9229-94717743657e","system_id":"levelo_inurba_marseille","lat":43.290104,"lon":5.356111,"is_reserved":false,"is_disabled":false,"rental_uris":{"android":"levelo://app?vid=a26b1757-f55b-4c58-9229-94717743657e","ios":"levelo://app?vid=a26b1757-f55b-4c58-9229-94717743657e"},"vehicle_type_id":"4","last_reported":1690625160,"current_range_meters":17600,"station_id":"ce4bhb92rcd13ifvqen0","pricing_plan_id":"free"},{"bike_id":"2c6f038e-6f1e-4693-8be5-3e2e2de6bf92","system_id":"levelo_inurba_marseille","lat":43.33045,"lon":5.38923,"is_reserved":false,"is_disabled":false,"rental_uris":{"android":"levelo://app?vid=2c6f038e-6f1e-4693-8be5-3e2e2de6bf92","ios":"levelo://app?vid=2c6f038e-6f1e-4693-8be5-3e2e2de6bf92"},"vehicle_type_id":"4","last_reported":1690625160,"current_range_meters":15200,"station_id":"ce4bhr92rcd13ifvqhrg","pricing_plan_id":"free"},{"bike_id":"47c39014-e870-45ea-852e-a146b74fad15","system_id":"levelo_inurba_marseille","lat":43.290104,"lon":5.356111,"is_reserved":false,"is_disabled":false,"rental_uris":{"android":"levelo://app?vid=47c39014-e870-45ea-852e-a146b74fad15","ios":"levelo://app?vid=47c39014-e870-45ea-852e-a146b74fad15"},"vehicle_type_id":"4","last_reported":1690625160,"current_range_meters":22400,"station_id":"ce4bhb92rcd13ifvqen0","pricing_plan_id":"free"},{"bike_id":"91fec792-a5a5-4820-af7d-3c6be3109af2","system_id":"levelo_inurba_marseille","lat":43.290104,"lon":5.356111,"is_reserved":false,"is_disabled":false,"rental_uris":{"android":"levelo://app?vid=91fec792-a5a5-4820-af7d-3c6be3109af2","ios":"levelo://app?vid=91fec792-a5a5-4820-af7d-3c6be3109af2"},"vehicle_type_id":"4","last_reported":1690625160,"current_range_meters":31200,"station_id":"ce4bhb92rcd13ifvqen0","pricing_plan_id":"free"},{"bike_id":"cadc4be8-c184-483b-96df-d61a9c00dfb6","system_id":"levelo_inurba_marseille","lat":43.290104,"lon":5.356111,"is_reserved":false,"is_disabled":false,"rental_uris":{"android":"levelo://app?vid=cadc4be8-c184-483b-96df-d61a9c00dfb6","ios":"levelo://app?vid=cadc4be8-c184-483b-96df-d61a9c00dfb6"},"vehicle_type_id":"4","last_reported":1690625160,"current_range_meters":29600,"station_id":"ce4bhb92rcd13ifvqen0","pricing_plan_id":"free"},{"bike_id":"536b877c-9edf-4597-be6e-dfa8564c454d","system_id":"levelo_inurba_marseille","lat":43.290103,"lon":5.356114,"is_reserved":false,"is_disabled":false,"rental_uris":{"android":"levelo://app?vid=536b877c-9edf-4597-be6e-dfa8564c454d","ios":"levelo://app?vid=536b877c-9edf-4597-be6e-dfa8564c454d"},"vehicle_type_id":"4","last_reported":1690625160,"current_range_meters":31200,"station_id":"ce4bhb92rcd13ifvqen0","pricing_plan_id":"free"},{"bike_id":"2c384943-214a-4153-acb8-0a7c64051c44","system_id":"levelo_inurba_marseille","lat":43.33035,"lon":5.38955,"is_reserved":false,"is_disabled":false,"rental_uris":{"android":"levelo://app?vid=2c384943-214a-4153-acb8-0a7c64051c44","ios":"levelo://app?vid=2c384943-214a-4153-acb8-0a7c64051c44"},"vehicle_type_id":"4","last_reported":1690625160,"current_range_meters":0,"station_id":"ce4bhr92rcd13ifvqhrg","pricing_plan_id":"free"},{"bike_id":"05bf2cc0-c80b-4d3b-9303-5cea93148e89","system_id":"levelo_inurba_marseille","lat":43.29099,"lon":5.38149,"is_reserved":false,"is_disabled":false,"rental_uris":{"android":"levelo://app?vid=05bf2cc0-c80b-4d3b-9303-5cea93148e89","ios":"levelo://app?vid=05bf2cc0-c80b-4d3b-9303-5cea93148e89"},"vehicle_type_id":"4","last_reported":1690625160,"current_range_meters":28000,"station_id":"ce4bh512rcd13ifvqe2g","pricing_plan_id":"free"},{"bike_id":"0446ff8d-9c50-4697-a492-ddbc3a9083d9","system_id":"levelo_inurba_marseille","lat":43.29788,"lon":5.39329,"is_reserved":false,"is_disabled":false,"rental_uris":{"android":"levelo://app?vid=0446ff8d-9c50-4697-a492-ddbc3a9083d9","ios":"levelo://app?vid=0446ff8d-9c50-4697-a492-ddbc3a9083d9"},"vehicle_type_id":"4","last_reported":1690625160,"current_range_meters":12800,"station_id":"chh1huq6cuj3fo74tm60","pricing_plan_id":"free"},{"bike_id":"45c406c0-8b4f-4aef-b1d3-5f52157ec20e","system_id":"levelo_inurba_marseille","lat":43.2899,"lon":5.37825,"is_reserved":false,"is_disabled":false,"rental_uris":{"android":"levelo://app?vid=45c406c0-8b4f-4aef-b1d3-5f52157ec20e","ios":"levelo://app?vid=45c406c0-8b4f-4aef-b1d3-5f52157ec20e"},"vehicle_type_id":"4","last_reported":1690625160,"current_range_meters":19600,"station_id":"ce4bh9p2rcd13ifvqed0","pricing_plan_id":"free"},{"bike_id":"507d7d90-b085-4e4a-b017-193d6fa82ace","system_id":"levelo_inurba_marseille","lat":43.295169,"lon":5.390426,"is_reserved":false,"is_disabled":false,"rental_uris":{"android":"levelo://app?vid=507d7d90-b085-4e4a-b017-193d6fa82ace","ios":"levelo://app?vid=507d7d90-b085-4e4a-b017-193d6fa82ace"},"vehicle_type_id":"4","last_reported":1690625160,"current_range_meters":13200,"station_id":"ce4bh3p2rcd13ifvqdp0","pricing_plan_id":"free"},{"bike_id":"9ba3c900-6f61-453b-80fb-7a77a4f3311d","system_id":"levelo_inurba_marseille","lat":43.2902,"lon":5.38141,"is_reserved":false,"is_disabled":false,"rental_uris":{"android":"levelo://app?vid=9ba3c900-6f61-453b-80fb-7a77a4f3311d","ios":"levelo://app?vid=9ba3c900-6f61-453b-80fb-7a77a4f3311d"},"vehicle_type_id":"4","last_reported":1690625160,"current_range_meters":31200,"station_id":"ce4bh4p2rcd13ifvqe1g","pricing_plan_id":"free"},{"bike_id":"e44b0fa7-dc4f-4bdb-91ff-0125d43c9f72","system_id":"levelo_inurba_marseille","lat":43.28856,"lon":5.358371,"is_reserved":false,"is_disabled":false,"rental_uris":{"android":"levelo://app?vid=e44b0fa7-dc4f-4bdb-91ff-0125d43c9f72","ios":"levelo://app?vid=e44b0fa7-dc4f-4bdb-91ff-0125d43c9f72"},"vehicle_type_id":"4","last_reported":1690625160,"current_range_meters":17600,"station_id":"ce4bhb12rcd13ifvqem0","pricing_plan_id":"free"},{"bike_id":"1d1232cb-130f-4857-ab79-eee319a282c6","system_id":"levelo_inurba_marseille","lat":43.28851,"lon":5.35856,"is_reserved":false,"is_disabled":false,"rental_uris":{"android":"levelo://app?vid=1d1232cb-130f-4857-ab79-eee319a282c6","ios":"levelo://app?vid=1d1232cb-130f-4857-ab79-eee319a282c6"},"vehicle_type_id":"4","last_reported":1690625160,"current_range_meters":28800,"station_id":"ce4bhb12rcd13ifvqem0","pricing_plan_id":"free"},{"bike_id":"c439cc3f-e7a6-47af-8984-7a3fdb0de2c3","system_id":"levelo_inurba_marseille","lat":43.31279,"lon":5.40156,"is_reserved":false,"is_disabled":false,"rental_uris":{"android":"levelo://app?vid=c439cc3f-e7a6-47af-8984-7a3fdb0de2c3","ios":"levelo://app?vid=c439cc3f-e7a6-47af-8984-7a3fdb0de2c3"},"vehicle_type_id":"4","last_reported":1690625160,"current_range_meters":22000,"station_id":"ce4bh092rcd13ifvqd30","pricing_plan_id":"free"},{"bike_id":"775646ad-43e0-4a4e-88d3-7209fe565e86","system_id":"levelo_inurba_marseille","lat":43.31277,"lon":5.4016,"is_reserved":false,"is_disabled":false,"rental_uris":{"android":"levelo://app?vid=775646ad-43e0-4a4e-88d3-7209fe565e86","ios":"levelo://app?vid=775646ad-43e0-4a4e-88d3-7209fe565e86"},"vehicle_type_id":"4","last_reported":1690625160,"current_range_meters":29600,"station_id":"ce4bh092rcd13ifvqd30","pricing_plan_id":"free"},{"bike_id":"faeccb1f-c622-429a-89f7-1c7f1b311421","system_id":"levelo_inurba_marseille","lat":43.31274,"lon":5.40163,"is_reserved":false,"is_disabled":false,"rental_uris":{"android":"levelo://app?vid=faeccb1f-c622-429a-89f7-1c7f1b311421","ios":"levelo://app?vid=faeccb1f-c622-429a-89f7-1c7f1b311421"},"vehicle_type_id":"4","last_reported":1690625160,"current_range_meters":20000,"station_id":"ce4bh092rcd13ifvqd30","pricing_plan_id":"free"},{"bike_id":"5339795f-3a20-48f5-aa16-92a6c75a1831","system_id":"levelo_inurba_marseille","lat":43.3375,"lon":5.37455,"is_reserved":false,"is_disabled":false,"rental_uris":{"android":"levelo://app?vid=5339795f-3a20-48f5-aa16-92a6c75a1831","ios":"levelo://app?vid=5339795f-3a20-48f5-aa16-92a6c75a1831"},"vehicle_type_id":"4","last_reported":1690625160,"current_range_meters":22000,"station_id":"","pricing_plan_id":"free"},{"bike_id":"c49e5aca-8c9b-496f-880e-694096a73453","system_id":"levelo_inurba_marseille","lat":43.33747,"lon":5.3748,"is_reserved":false,"is_disabled":false,"rental_uris":{"android":"levelo://app?vid=c49e5aca-8c9b-496f-880e-694096a73453","ios":"levelo://app?vid=c49e5aca-8c9b-496f-880e-694096a73453"},"vehicle_type_id":"4","last_reported":1690625160,"current_range_meters":26400,"station_id":"","pricing_plan_id":"free"},{"bike_id":"e94a40bd-41f2-4faa-866b-ac3d88837e1a","system_id":"levelo_inurba_marseille","lat":43.33754,"lon":5.37448,"is_reserved":false,"is_disabled":false,"rental_uris":{"android":"levelo://app?vid=e94a40bd-41f2-4faa-866b-ac3d88837e1a","ios":"levelo://app?vid=e94a40bd-41f2-4faa-866b-ac3d88837e1a"},"vehicle_type_id":"4","last_reported":1690625160,"current_range_meters":29600,"station_id":"","pricing_plan_id":"free"},{"bike_id":"59976df7-227f-4714-9cb2-afaf722434f6","system_id":"levelo_inurba_marseille","lat":43.33751,"lon":5.37495,"is_reserved":false,"is_disabled":false,"rental_uris":{"android":"levelo://app?vid=59976df7-227f-4714-9cb2-afaf722434f6","ios":"levelo://app?vid=59976df7-227f-4714-9cb2-afaf722434f6"},"vehicle_type_id":"4","last_reported":1690625160,"current_range_meters":9200,"station_id":"","pricing_plan_id":"free"},{"bike_id":"439811ae-eb34-42b6-abad-a6171e346734","system_id":"levelo_inurba_marseille","lat":43.30642,"lon":5.401031,"is_reserved":false,"is_disabled":false,"rental_uris":{"android":"levelo://app?vid=439811ae-eb34-42b6-abad-a6171e346734","ios":"levelo://app?vid=439811ae-eb34-42b6-abad-a6171e346734"},"vehicle_type_id":"4","last_reported":1690625160,"current_range_meters":8400,"station_id":"ce4bh112rcd13ifvqda0","pricing_plan_id":"free"},{"bike_id":"7bd35dfc-701d-4a94-84b9-312701e00f76","system_id":"levelo_inurba_marseille","lat":43.33755,"lon":5.37492,"is_reserved":false,"is_disabled":false,"rental_uris":{"android":"levelo://app?vid=7bd35dfc-701d-4a94-84b9-312701e00f76","ios":"levelo://app?vid=7bd35dfc-701d-4a94-84b9-312701e00f76"},"vehicle_type_id":"4","last_reported":1690625160,"current_range_meters":19200,"station_id":"","pricing_plan_id":"free"},{"bike_id":"408b0a09-cc02-476b-9b86-c0f586a52910","system_id":"levelo_inurba_marseille","lat":43.33758,"lon":5.37486,"is_reserved":false,"is_disabled":false,"rental_uris":{"android":"levelo://app?vid=408b0a09-cc02-476b-9b86-c0f586a52910","ios":"levelo://app?vid=408b0a09-cc02-476b-9b86-c0f586a52910"},"vehicle_type_id":"4","last_reported":1690625160,"current_range_meters":0,"station_id":"","pricing_plan_id":"free"},{"bike_id":"709c3cdd-381b-4e11-8921-cbe2c21bb354","system_id":"levelo_inurba_marseille","lat":43.33757,"lon":5.37494,"is_reserved":false,"is_disabled":false,"rental_uris":{"android":"levelo://app?vid=709c3cdd-381b-4e11-8921-cbe2c21bb354","ios":"levelo://app?vid=709c3cdd-381b-4e11-8921-cbe2c21bb354"},"vehicle_type_id":"4","last_reported":1690625160,"current_range_meters":31200,"station_id":"","pricing_plan_id":"free"},{"bike_id":"cf2ce031-6411-4f20-b5dd-63cf1e048b71","system_id":"levelo_inurba_marseille","lat":43.3065,"lon":5.40093,"is_reserved":false,"is_disabled":false,"rental_uris":{"android":"levelo://app?vid=cf2ce031-6411-4f20-b5dd-63cf1e048b71","ios":"levelo://app?vid=cf2ce031-6411-4f20-b5dd-63cf1e048b71"},"vehicle_type_id":"4","last_reported":1690625160,"current_range_meters":28800,"station_id":"ce4bh112rcd13ifvqda0","pricing_plan_id":"free"},{"bike_id":"4b7da29a-0f7e-4205-8479-fbad23a2d74a","system_id":"levelo_inurba_marseille","lat":43.30638,"lon":5.40089,"is_reserved":false,"is_disabled":false,"rental_uris":{"android":"levelo://app?vid=4b7da29a-0f7e-4205-8479-fbad23a2d74a","ios":"levelo://app?vid=4b7da29a-0f7e-4205-8479-fbad23a2d74a"},"vehicle_type_id":"4","last_reported":1690625160,"current_range_meters":26000,"station_id":"ce4bh112rcd13ifvqda0","pricing_plan_id":"free"},{"bike_id":"38e0d439-af20-4925-b8df-4d7db29cb5ac","system_id":"levelo_inurba_marseille","lat":43.30636,"lon":5.40091,"is_reserved":false,"is_disabled":false,"rental_uris":{"android":"levelo://app?vid=38e0d439-af20-4925-b8df-4d7db29cb5ac","ios":"levelo://app?vid=38e0d439-af20-4925-b8df-4d7db29cb5ac"},"vehicle_type_id":"4","last_reported":1690625160,"current_range_meters":12800,"station_id":"ce4bh112rcd13ifvqda0","pricing_plan_id":"free"},{"bike_id":"2650eb60-5101-4688-a692-d959b7814eb1","system_id":"levelo_inurba_marseille","lat":43.33763,"lon":5.37496,"is_reserved":false,"is_disabled":false,"rental_uris":{"android":"levelo://app?vid=2650eb60-5101-4688-a692-d959b7814eb1","ios":"levelo://app?vid=2650eb60-5101-4688-a692-d959b7814eb1"},"vehicle_type_id":"4","last_reported":1690625160,"current_range_meters":800,"station_id":"","pricing_plan_id":"free"},{"bike_id":"1013cca9-a69e-4eca-b24f-adcfad079ddb","system_id":"levelo_inurba_marseille","lat":43.301117,"lon":5.398795,"is_reserved":false,"is_disabled":false,"rental_uris":{"android":"levelo://app?vid=1013cca9-a69e-4eca-b24f-adcfad079ddb","ios":"levelo://app?vid=1013cca9-a69e-4eca-b24f-adcfad079ddb"},"vehicle_type_id":"4","last_reported":1690625160,"current_range_meters":22000,"station_id":"ce4bh0h2rcd13ifvqd40","pricing_plan_id":"free"},{"bike_id":"c7094d74-1f0f-41eb-b90a-36d8a9de819e","system_id":"levelo_inurba_marseille","lat":43.301117,"lon":5.398795,"is_reserved":false,"is_disabled":false,"rental_uris":{"android":"levelo://app?vid=c7094d74-1f0f-41eb-b90a-36d8a9de819e","ios":"levelo://app?vid=c7094d74-1f0f-41eb-b90a-36d8a9de819e"},"vehicle_type_id":"4","last_reported":1690625160,"current_range_meters":23600,"station_id":"ce4bh0h2rcd13ifvqd40","pricing_plan_id":"free"},{"bike_id":"5f34715a-0bce-4ebf-8518-73bbf8746395","system_id":"levelo_inurba_marseille","lat":43.301117,"lon":5.398795,"is_reserved":false,"is_disabled":false,"rental_uris":{"android":"levelo://app?vid=5f34715a-0bce-4ebf-8518-73bbf8746395","ios":"levelo://app?vid=5f34715a-0bce-4ebf-8518-73bbf8746395"},"vehicle_type_id":"4","last_reported":1690625160,"current_range_meters":30400,"station_id":"ce4bh0h2rcd13ifvqd40","pricing_plan_id":"free"},{"bike_id":"a3b05223-58d6-41cf-a78d-9ca4dbcd2515","system_id":"levelo_inurba_marseille","lat":43.301117,"lon":5.398795,"is_reserved":false,"is_disabled":false,"rental_uris":{"android":"levelo://app?vid=a3b05223-58d6-41cf-a78d-9ca4dbcd2515","ios":"levelo://app?vid=a3b05223-58d6-41cf-a78d-9ca4dbcd2515"},"vehicle_type_id":"4","last_reported":1690625160,"current_range_meters":29200,"station_id":"ce4bh0h2rcd13ifvqd40","pricing_plan_id":"free"},{"bike_id":"f91bef96-430f-4c01-bef7-864dc3dc901e","system_id":"levelo_inurba_marseille","lat":43.29877,"lon":5.39727,"is_reserved":false,"is_disabled":false,"rental_uris":{"android":"levelo://app?vid=f91bef96-430f-4c01-bef7-864dc3dc901e","ios":"levelo://app?vid=f91bef96-430f-4c01-bef7-864dc3dc901e"},"vehicle_type_id":"4","last_reported":1690625160,"current_range_meters":25200,"station_id":"ce4bh0h2rcd13ifvqd50","pricing_plan_id":"free"},{"bike_id":"98ac9492-6bd2-4d63-b903-f6c32982a71b","system_id":"levelo_inurba_marseille","lat":43.298681,"lon":5.397225,"is_reserved":false,"is_disabled":false,"rental_uris":{"android":"levelo://app?vid=98ac9492-6bd2-4d63-b903-f6c32982a71b","ios":"levelo://app?vid=98ac9492-6bd2-4d63-b903-f6c32982a71b"},"vehicle_type_id":"4","last_reported":1690625160,"current_range_meters":29200,"station_id":"ce4bh0h2rcd13ifvqd50","pricing_plan_id":"free"},{"bike_id":"edc20c40-01c9-4f3e-afca-64e99c83f739","system_id":"levelo_inurba_marseille","lat":43.298681,"lon":5.397225,"is_reserved":false,"is_disabled":false,"rental_uris":{"android":"levelo://app?vid=edc20c40-01c9-4f3e-afca-64e99c83f739","ios":"levelo://app?vid=edc20c40-01c9-4f3e-afca-64e99c83f739"},"vehicle_type_id":"4","last_reported":1690625160,"current_range_meters":31200,"station_id":"ce4bh0h2rcd13ifvqd50","pricing_plan_id":"free"},{"bike_id":"07fbe172-3fb6-4943-a68c-3b6e358e62bb","system_id":"levelo_inurba_marseille","lat":43.286593,"lon":5.363346,"is_reserved":false,"is_disabled":false,"rental_uris":{"android":"levelo://app?vid=07fbe172-3fb6-4943-a68c-3b6e358e62bb","ios":"levelo://app?vid=07fbe172-3fb6-4943-a68c-3b6e358e62bb"},"vehicle_type_id":"4","last_reported":1690625160,"current_range_meters":28400,"station_id":"ce4bhah2rcd13ifvqej0","pricing_plan_id":"free"},{"bike_id":"75199276-b705-4ad7-b6a9-49aeaa84628a","system_id":"levelo_inurba_marseille","lat":43.286593,"lon":5.363346,"is_reserved":false,"is_disabled":false,"rental_uris":{"android":"levelo://app?vid=75199276-b705-4ad7-b6a9-49aeaa84628a","ios":"levelo://app?vid=75199276-b705-4ad7-b6a9-49aeaa84628a"},"vehicle_type_id":"4","last_reported":1690625160,"current_range_meters":31200,"station_id":"ce4bhah2rcd13ifvqej0","pricing_plan_id":"free"},{"bike_id":"31d92225-0fe2-46a9-ad64-88a319bc3b25","system_id":"levelo_inurba_marseille","lat":43.295196,"lon":5.39397,"is_reserved":false,"is_disabled":false,"rental_uris":{"android":"levelo://app?vid=31d92225-0fe2-46a9-ad64-88a319bc3b25","ios":"levelo://app?vid=31d92225-0fe2-46a9-ad64-88a319bc3b25"},"vehicle_type_id":"4","last_reported":1690625160,"current_range_meters":30800,"station_id":"ce4bh292rcd13ifvqdf0","pricing_plan_id":"free"},{"bike_id":"e2ec96d2-2ab4-4723-8c4b-21614797ebe9","system_id":"levelo_inurba_marseille","lat":43.295194,"lon":5.39397,"is_reserved":false,"is_disabled":false,"rental_uris":{"android":"levelo://app?vid=e2ec96d2-2ab4-4723-8c4b-21614797ebe9","ios":"levelo://app?vid=e2ec96d2-2ab4-4723-8c4b-21614797ebe9"},"vehicle_type_id":"4","last_reported":1690625160,"current_range_meters":16800,"station_id":"ce4bh292rcd13ifvqdf0","pricing_plan_id":"free"},{"bike_id":"ab2407fc-d3b4-4a0b-a9e3-f38222fadf77","system_id":"levelo_inurba_marseille","lat":43.295194,"lon":5.39397,"is_reserved":false,"is_disabled":false,"rental_uris":{"android":"levelo://app?vid=ab2407fc-d3b4-4a0b-a9e3-f38222fadf77","ios":"levelo://app?vid=ab2407fc-d3b4-4a0b-a9e3-f38222fadf77"},"vehicle_type_id":"4","last_reported":1690625160,"current_range_meters":26800,"station_id":"ce4bh292rcd13ifvqdf0","pricing_plan_id":"free"},{"bike_id":"219873de-e7c6-4188-892a-84ebda230e93","system_id":"levelo_inurba_marseille","lat":43.295196,"lon":5.39397,"is_reserved":false,"is_disabled":false,"rental_uris":{"android":"levelo://app?vid=219873de-e7c6-4188-892a-84ebda230e93","ios":"levelo://app?vid=219873de-e7c6-4188-892a-84ebda230e93"},"vehicle_type_id":"4","last_reported":1690625160,"current_range_meters":29200,"station_id":"ce4bh292rcd13ifvqdf0","pricing_plan_id":"free"},{"bike_id":"41918487-c7f5-4ca4-8e15-28473670b6b7","system_id":"levelo_inurba_marseille","lat":43.29873,"lon":5.3978,"is_reserved":false,"is_disabled":false,"rental_uris":{"android":"levelo://app?vid=41918487-c7f5-4ca4-8e15-28473670b6b7","ios":"levelo://app?vid=41918487-c7f5-4ca4-8e15-28473670b6b7"},"vehicle_type_id":"4","last_reported":1690625160,"current_range_meters":31200,"station_id":"ce4bh0h2rcd13ifvqd50","pricing_plan_id":"free"},{"bike_id":"fa9089c5-53f9-42bc-92ba-1aa7858d16fa","system_id":"levelo_inurba_marseille","lat":43.302759,"lon":5.400793,"is_reserved":false,"is_disabled":false,"rental_uris":{"android":"levelo://app?vid=fa9089c5-53f9-42bc-92ba-1aa7858d16fa","ios":"levelo://app?vid=fa9089c5-53f9-42bc-92ba-1aa7858d16fa"},"vehicle_type_id":"4","last_reported":1690625160,"current_range_meters":15200,"station_id":"ce4bgvh2rcd13ifvqcs0","pricing_plan_id":"free"},{"bike_id":"fbd5f56c-eeb5-42c4-8883-43a393b9cb15","system_id":"levelo_inurba_marseille","lat":43.302759,"lon":5.400793,"is_reserved":false,"is_disabled":false,"rental_uris":{"android":"levelo://app?vid=fbd5f56c-eeb5-42c4-8883-43a393b9cb15","ios":"levelo://app?vid=fbd5f56c-eeb5-42c4-8883-43a393b9cb15"},"vehicle_type_id":"4","last_reported":1690625160,"current_range_meters":24800,"station_id":"ce4bgvh2rcd13ifvqcs0","pricing_plan_id":"free"},{"bike_id":"a9ba8892-dd6d-4455-8c70-a236224f5015","system_id":"levelo_inurba_marseille","lat":43.302759,"lon":5.400793,"is_reserved":false,"is_disabled":false,"rental_uris":{"android":"levelo://app?vid=a9ba8892-dd6d-4455-8c70-a236224f5015","ios":"levelo://app?vid=a9ba8892-dd6d-4455-8c70-a236224f5015"},"vehicle_type_id":"4","last_reported":1690625160,"current_range_meters":29600,"station_id":"ce4bgvh2rcd13ifvqcs0","pricing_plan_id":"free"},{"bike_id":"29b7147b-2895-4b93-af17-1cc73bdb061d","system_id":"levelo_inurba_marseille","lat":43.302759,"lon":5.400793,"is_reserved":false,"is_disabled":false,"rental_uris":{"android":"levelo://app?vid=29b7147b-2895-4b93-af17-1cc73bdb061d","ios":"levelo://app?vid=29b7147b-2895-4b93-af17-1cc73bdb061d"},"vehicle_type_id":"4","last_reported":1690625160,"current_range_meters":31600,"station_id":"ce4bgvh2rcd13ifvqcs0","pricing_plan_id":"free"},{"bike_id":"ace8acc3-aae5-4fad-8138-6467157cb797","system_id":"levelo_inurba_marseille","lat":43.302759,"lon":5.400793,"is_reserved":false,"is_disabled":false,"rental_uris":{"android":"levelo://app?vid=ace8acc3-aae5-4fad-8138-6467157cb797","ios":"levelo://app?vid=ace8acc3-aae5-4fad-8138-6467157cb797"},"vehicle_type_id":"4","last_reported":1690625160,"current_range_meters":25200,"station_id":"ce4bgvh2rcd13ifvqcs0","pricing_plan_id":"free"},{"bike_id":"f611f624-7ba7-4e11-907f-3214e6dae2de","system_id":"levelo_inurba_marseille","lat":43.316185,"lon":5.403519,"is_reserved":false,"is_disabled":false,"rental_uris":{"android":"levelo://app?vid=f611f624-7ba7-4e11-907f-3214e6dae2de","ios":"levelo://app?vid=f611f624-7ba7-4e11-907f-3214e6dae2de"},"vehicle_type_id":"4","last_reported":1690625160,"current_range_meters":24000,"station_id":"","pricing_plan_id":"free"},{"bike_id":"9118b72f-4b17-453b-b42d-b800e74d1915","system_id":"levelo_inurba_marseille","lat":43.316517,"lon":5.404375,"is_reserved":false,"is_disabled":false,"rental_uris":{"android":"levelo://app?vid=9118b72f-4b17-453b-b42d-b800e74d1915","ios":"levelo://app?vid=9118b72f-4b17-453b-b42d-b800e74d1915"},"vehicle_type_id":"4","last_reported":1690625160,"current_range_meters":31200,"station_id":"ce4bh012rcd13ifvqd00","pricing_plan_id":"free"},{"bike_id":"f51f2b5e-d311-43a0-840c-ca456a44beed","system_id":"levelo_inurba_marseille","lat":43.31648,"lon":5.40438,"is_reserved":false,"is_disabled":false,"rental_uris":{"android":"levelo://app?vid=f51f2b5e-d311-43a0-840c-ca456a44beed","ios":"levelo://app?vid=f51f2b5e-d311-43a0-840c-ca456a44beed"},"vehicle_type_id":"4","last_reported":1690625160,"current_range_meters":30400,"station_id":"ce4bh012rcd13ifvqd00","pricing_plan_id":"free"},{"bike_id":"045a0b7a-34de-40d6-a30b-e816ea32b6e8","system_id":"levelo_inurba_marseille","lat":43.29957,"lon":5.40091,"is_reserved":false,"is_disabled":false,"rental_uris":{"android":"levelo://app?vid=045a0b7a-34de-40d6-a30b-e816ea32b6e8","ios":"levelo://app?vid=045a0b7a-34de-40d6-a30b-e816ea32b6e8"},"vehicle_type_id":"4","last_reported":1690625160,"current_range_meters":31200,"station_id":"","pricing_plan_id":"free"},{"bike_id":"c8835ce8-1f12-44af-ba1d-60f210345aa2","system_id":"levelo_inurba_marseille","lat":43.291994,"lon":5.392907,"is_reserved":false,"is_disabled":false,"rental_uris":{"android":"levelo://app?vid=c8835ce8-1f12-44af-ba1d-60f210345aa2","ios":"levelo://app?vid=c8835ce8-1f12-44af-ba1d-60f210345aa2"},"vehicle_type_id":"4","last_reported":1690625160,"current_range_meters":30000,"station_id":"ce4bh192rcd13ifvqdd0","pricing_plan_id":"free"},{"bike_id":"751abd4d-c02a-4406-b27f-e81533c97d73","system_id":"levelo_inurba_marseille","lat":43.284538,"lon":5.358657,"is_reserved":false,"is_disabled":false,"rental_uris":{"android":"levelo://app?vid=751abd4d-c02a-4406-b27f-e81533c97d73","ios":"levelo://app?vid=751abd4d-c02a-4406-b27f-e81533c97d73"},"vehicle_type_id":"4","last_reported":1690625160,"current_range_meters":25200,"station_id":"ce4bhah2rcd13ifvqei0","pricing_plan_id":"free"},{"bike_id":"2fd5f152-cfa6-40d7-ad0c-8a7502a150de","system_id":"levelo_inurba_marseille","lat":43.284538,"lon":5.358657,"is_reserved":false,"is_disabled":false,"rental_uris":{"android":"levelo://app?vid=2fd5f152-cfa6-40d7-ad0c-8a7502a150de","ios":"levelo://app?vid=2fd5f152-cfa6-40d7-ad0c-8a7502a150de"},"vehicle_type_id":"4","last_reported":1690625160,"current_range_meters":29200,"station_id":"ce4bhah2rcd13ifvqei0","pricing_plan_id":"free"},{"bike_id":"fd33d149-5443-423a-a9e6-6becbeae4e4c","system_id":"levelo_inurba_marseille","lat":43.284538,"lon":5.358657,"is_reserved":false,"is_disabled":false,"rental_uris":{"android":"levelo://app?vid=fd33d149-5443-423a-a9e6-6becbeae4e4c","ios":"levelo://app?vid=fd33d149-5443-423a-a9e6-6becbeae4e4c"},"vehicle_type_id":"4","last_reported":1690625160,"current_range_meters":25200,"station_id":"ce4bhah2rcd13ifvqei0","pricing_plan_id":"free"},{"bike_id":"e833cda9-0af0-4075-aa36-71bd7d79a993","system_id":"levelo_inurba_marseille","lat":43.284538,"lon":5.358657,"is_reserved":false,"is_disabled":false,"rental_uris":{"android":"levelo://app?vid=e833cda9-0af0-4075-aa36-71bd7d79a993","ios":"levelo://app?vid=e833cda9-0af0-4075-aa36-71bd7d79a993"},"vehicle_type_id":"4","last_reported":1690625160,"current_range_meters":18800,"station_id":"ce4bhah2rcd13ifvqei0","pricing_plan_id":"free"},{"bike_id":"072893e1-5729-464f-9bce-bf079143fe7d","system_id":"levelo_inurba_marseille","lat":43.28622,"lon":5.35111,"is_reserved":false,"is_disabled":false,"rental_uris":{"android":"levelo://app?vid=072893e1-5729-464f-9bce-bf079143fe7d","ios":"levelo://app?vid=072893e1-5729-464f-9bce-bf079143fe7d"},"vehicle_type_id":"4","last_reported":1690625160,"current_range_meters":26400,"station_id":"ce4bhch2rcd13ifvqeug","pricing_plan_id":"free"},{"bike_id":"95955e16-08ae-411a-be00-1371212d73d8","system_id":"levelo_inurba_marseille","lat":43.285856,"lon":5.350771,"is_reserved":false,"is_disabled":false,"rental_uris":{"android":"levelo://app?vid=95955e16-08ae-411a-be00-1371212d73d8","ios":"levelo://app?vid=95955e16-08ae-411a-be00-1371212d73d8"},"vehicle_type_id":"4","last_reported":1690625160,"current_range_meters":14400,"station_id":"ce4bhch2rcd13ifvqeug","pricing_plan_id":"free"},{"bike_id":"da21022f-e6db-41eb-b80c-c3cb1040797c","system_id":"levelo_inurba_marseille","lat":43.285856,"lon":5.350771,"is_reserved":false,"is_disabled":false,"rental_uris":{"android":"levelo://app?vid=da21022f-e6db-41eb-b80c-c3cb1040797c","ios":"levelo://app?vid=da21022f-e6db-41eb-b80c-c3cb1040797c"},"vehicle_type_id":"4","last_reported":1690625160,"current_range_meters":26800,"station_id":"ce4bhch2rcd13ifvqeug","pricing_plan_id":"free"},{"bike_id":"4a2489be-c7be-4e4c-b2c4-62cfe6dc3ddf","system_id":"levelo_inurba_marseille","lat":43.28618,"lon":5.3511,"is_reserved":false,"is_disabled":false,"rental_uris":{"android":"levelo://app?vid=4a2489be-c7be-4e4c-b2c4-62cfe6dc3ddf","ios":"levelo://app?vid=4a2489be-c7be-4e4c-b2c4-62cfe6dc3ddf"},"vehicle_type_id":"4","last_reported":1690625160,"current_range_meters":25200,"station_id":"ce4bhch2rcd13ifvqeug","pricing_plan_id":"free"},{"bike_id":"5b112069-dd75-4a1c-a0d8-84fb8f414b25","system_id":"levelo_inurba_marseille","lat":43.285856,"lon":5.350771,"is_reserved":false,"is_disabled":false,"rental_uris":{"android":"levelo://app?vid=5b112069-dd75-4a1c-a0d8-84fb8f414b25","ios":"levelo://app?vid=5b112069-dd75-4a1c-a0d8-84fb8f414b25"},"vehicle_type_id":"4","last_reported":1690625160,"current_range_meters":31200,"station_id":"ce4bhch2rcd13ifvqeug","pricing_plan_id":"free"},{"bike_id":"09c34ccf-cef1-4936-9b42-84f57eeac1a3","system_id":"levelo_inurba_marseille","lat":43.28617,"lon":5.35107,"is_reserved":false,"is_disabled":false,"rental_uris":{"android":"levelo://app?vid=09c34ccf-cef1-4936-9b42-84f57eeac1a3","ios":"levelo://app?vid=09c34ccf-cef1-4936-9b42-84f57eeac1a3"},"vehicle_type_id":"4","last_reported":1690625160,"current_range_meters":21600,"station_id":"ce4bhch2rcd13ifvqeug","pricing_plan_id":"free"},{"bike_id":"c217e41c-1abc-46c9-9a69-fa2dab05bceb","system_id":"levelo_inurba_marseille","lat":43.28617,"lon":5.35099,"is_reserved":false,"is_disabled":false,"rental_uris":{"android":"levelo://app?vid=c217e41c-1abc-46c9-9a69-fa2dab05bceb","ios":"levelo://app?vid=c217e41c-1abc-46c9-9a69-fa2dab05bceb"},