{"last_updated":1771110798,"ttl":60,"version":"2.2","data":{"bikes":[{"bike_id":"d96f1086-8d9b-4b38-8774-136993319875","system_id":"levelo_inurba_marseille","lat":43.246411,"lon":5.388951,"is_reserved":false,"is_disabled":false,"rental_uris":{"android":"levelo://app?vid=d96f1086-8d9b-4b38-8774-136993319875","ios":"levelo://app?vid=d96f1086-8d9b-4b38-8774-136993319875"},"vehicle_type_id":"4","last_reported":1771110798,"current_range_meters":17200,"station_id":"ce4bhg12rcd13ifvqf60","pricing_plan_id":"cebpf4jnsgd1na2vs0mg"},{"bike_id":"597ba019-6a14-4724-bfeb-cc559411f270","system_id":"levelo_inurba_marseille","lat":43.27627,"lon":5.36104,"is_reserved":false,"is_disabled":false,"rental_uris":{"android":"levelo://app?vid=597ba019-6a14-4724-bfeb-cc559411f270","ios":"levelo://app?vid=597ba019-6a14-4724-bfeb-cc559411f270"},"vehicle_type_id":"4","last_reported":1771110798,"current_range_meters":39200,"station_id":"ce4bgj92rcd13ifvqbe0","pricing_plan_id":"cebpf4jnsgd1na2vs0mg"},{"bike_id":"34d70057-47d6-4c17-b6c1-e79de54e1e52","system_id":"levelo_inurba_marseille","lat":43.330307,"lon":5.390427,"is_reserved":false,"is_disabled":false,"rental_uris":{"android":"levelo://app?vid=34d70057-47d6-4c17-b6c1-e79de54e1e52","ios":"levelo://app?vid=34d70057-47d6-4c17-b6c1-e79de54e1e52"},"vehicle_type_id":"4","last_reported":1771110798,"current_range_meters":39200,"station_id":"ce4bhr92rcd13ifvqhrg","pricing_plan_id":"cebpf4jnsgd1na2vs0mg"},{"bike_id":"68ef5776-ce7e-4d76-bed7-b3b2136e9f86","system_id":"levelo_inurba_marseille","lat":43.330298,"lon":5.390484,"is_reserved":false,"is_disabled":false,"rental_uris":{"android":"levelo://app?vid=68ef5776-ce7e-4d76-bed7-b3b2136e9f86","ios":"levelo://app?vid=68ef5776-ce7e-4d76-bed7-b3b2136e9f86"},"vehicle_type_id":"4","last_reported":1771110798,"current_range_meters":39200,"station_id":"ce4bhr92rcd13ifvqhrg","pricing_plan_id":"cebpf4jnsgd1na2vs0mg"},{"bike_id":"dcf21c8a-af55-489b-ae7c-c01a8eafbc40","system_id":"levelo_inurba_marseille","lat":43.337444,"lon":5.374475,"is_reserved":false,"is_disabled":false,"rental_uris":{"android":"levelo://app?vid=dcf21c8a-af55-489b-ae7c-c01a8eafbc40","ios":"levelo://app?vid=dcf21c8a-af55-489b-ae7c-c01a8eafbc40"},"vehicle_type_id":"4","last_reported":1771110798,"current_range_meters":22000,"station_id":"","pricing_plan_id":"cebpf4jnsgd1na2vs0mg"},{"bike_id":"7017b9ea-236b-408a-9884-05979c964e9b","system_id":"levelo_inurba_marseille","lat":43.33038,"lon":5.39045,"is_reserved":false,"is_disabled":false,"rental_uris":{"android":"levelo://app?vid=7017b9ea-236b-408a-9884-05979c964e9b","ios":"levelo://app?vid=7017b9ea-236b-408a-9884-05979c964e9b"},"vehicle_type_id":"4","last_reported":1771110798,"current_range_meters":39200,"station_id":"ce4bhr92rcd13ifvqhrg","pricing_plan_id":"cebpf4jnsgd1na2vs0mg"},{"bike_id":"05431520-0744-4aff-8d56-5eda07b7d4bf","system_id":"levelo_inurba_marseille","lat":43.33023,"lon":5.39044,"is_reserved":false,"is_disabled":false,"rental_uris":{"android":"levelo://app?vid=05431520-0744-4aff-8d56-5eda07b7d4bf","ios":"levelo://app?vid=05431520-0744-4aff-8d56-5eda07b7d4bf"},"vehicle_type_id":"4","last_reported":1771110798,"current_range_meters":39200,"station_id":"ce4bhr92rcd13ifvqhrg","pricing_plan_id":"cebpf4jnsgd1na2vs0mg"},{"bike_id":"b07f3ef1-c8ed-4cbb-96c2-2cf40b5d7a28","system_id":"levelo_inurba_marseille","lat":43.33007,"lon":5.39023,"is_reserved":false,"is_disabled":false,"rental_uris":{"android":"levelo://app?vid=b07f3ef1-c8ed-4cbb-96c2-2cf40b5d7a28","ios":"levelo://app?vid=b07f3ef1-c8ed-4cbb-96c2-2cf40b5d7a28"},"vehicle_type_id":"4","last_reported":1771110798,"current_range_meters":39200,"station_id":"ce4bhr92rcd13ifvqhrg","pricing_plan_id":"cebpf4jnsgd1na2vs0mg"},{"bike_id":"866ce7df-512c-4b3a-8fef-c09b0701924c","system_id":"levelo_inurba_marseille","lat":43.341481,"lon":5.409017,"is_reserved":false,"is_disabled":false,"rental_uris":{"android":"levelo://app?vid=866ce7df-512c-4b3a-8fef-c09b0701924c","ios":"levelo://app?vid=866ce7df-512c-4b3a-8fef-c09b0701924c"},"vehicle_type_id":"4","last_reported":1771110798,"current_range_meters":39200,"station_id":"ce4bhqh2rcd13ifvqhlg","pricing_plan_id":"cebpf4jnsgd1na2vs0mg"},{"bike_id":"652a25b0-b80d-4f9a-86ce-faebcb6e1130","system_id":"levelo_inurba_marseille","lat":43.32366,"lon":5.38885,"is_reserved":false,"is_disabled":false,"rental_uris":{"android":"levelo://app?vid=652a25b0-b80d-4f9a-86ce-faebcb6e1130","ios":"levelo://app?vid=652a25b0-b80d-4f9a-86ce-faebcb6e1130"},"vehicle_type_id":"4","last_reported":1771110798,"current_range_meters":38800,"station_id":"ce4bhqp2rcd13ifvqhog","pricing_plan_id":"cebpf4jnsgd1na2vs0mg"},{"bike_id":"8ff7e5fe-aeff-4c28-befd-849a0d3b0506","system_id":"levelo_inurba_marseille","lat":43.330237,"lon":5.390781,"is_reserved":false,"is_disabled":false,"rental_uris":{"android":"levelo://app?vid=8ff7e5fe-aeff-4c28-befd-849a0d3b0506","ios":"levelo://app?vid=8ff7e5fe-aeff-4c28-befd-849a0d3b0506"},"vehicle_type_id":"4","last_reported":1771110798,"current_range_meters":39200,"station_id":"ce4bhr92rcd13ifvqhrg","pricing_plan_id":"cebpf4jnsgd1na2vs0mg"},{"bike_id":"096f020f-cc4d-47ba-9384-d819ca9e3f2c","system_id":"levelo_inurba_marseille","lat":43.34143,"lon":5.40901,"is_reserved":false,"is_disabled":false,"rental_uris":{"android":"levelo://app?vid=096f020f-cc4d-47ba-9384-d819ca9e3f2c","ios":"levelo://app?vid=096f020f-cc4d-47ba-9384-d819ca9e3f2c"},"vehicle_type_id":"4","last_reported":1771110798,"current_range_meters":39200,"station_id":"ce4bhqh2rcd13ifvqhlg","pricing_plan_id":"cebpf4jnsgd1na2vs0mg"},{"bike_id":"c96e29c7-b48d-4b1c-8020-47ce3363411b","system_id":"levelo_inurba_marseille","lat":43.34147,"lon":5.40889,"is_reserved":false,"is_disabled":false,"rental_uris":{"android":"levelo://app?vid=c96e29c7-b48d-4b1c-8020-47ce3363411b","ios":"levelo://app?vid=c96e29c7-b48d-4b1c-8020-47ce3363411b"},"vehicle_type_id":"4","last_reported":1771110798,"current_range_meters":39200,"station_id":"ce4bhqh2rcd13ifvqhlg","pricing_plan_id":"cebpf4jnsgd1na2vs0mg"},{"bike_id":"9ee88708-4e04-47f3-b19e-2f6b97784421","system_id":"levelo_inurba_marseille","lat":43.3236,"lon":5.38881,"is_reserved":false,"is_disabled":false,"rental_uris":{"android":"levelo://app?vid=9ee88708-4e04-47f3-b19e-2f6b97784421","ios":"levelo://app?vid=9ee88708-4e04-47f3-b19e-2f6b97784421"},"vehicle_type_id":"4","last_reported":1771110798,"current_range_meters":39200,"station_id":"ce4bhqp2rcd13ifvqhog","pricing_plan_id":"cebpf4jnsgd1na2vs0mg"},{"bike_id":"afdc4a07-dc35-4359-8461-be88469477c5","system_id":"levelo_inurba_marseille","lat":43.32362,"lon":5.3889,"is_reserved":false,"is_disabled":false,"rental_uris":{"android":"levelo://app?vid=afdc4a07-dc35-4359-8461-be88469477c5","ios":"levelo://app?vid=afdc4a07-dc35-4359-8461-be88469477c5"},"vehicle_type_id":"4","last_reported":1771110798,"current_range_meters":39200,"station_id":"ce4bhqp2rcd13ifvqhog","pricing_plan_id":"cebpf4jnsgd1na2vs0mg"},{"bike_id":"64f460a1-288f-42d2-88de-a92a667fff57","system_id":"levelo_inurba_marseille","lat":43.3305,"lon":5.39058,"is_reserved":false,"is_disabled":false,"rental_uris":{"android":"levelo://app?vid=64f460a1-288f-42d2-88de-a92a667fff57","ios":"levelo://app?vid=64f460a1-288f-42d2-88de-a92a667fff57"},"vehicle_type_id":"4","last_reported":1771110798,"current_range_meters":39200,"station_id":"ce4bhr92rcd13ifvqhrg","pricing_plan_id":"cebpf4jnsgd1na2vs0mg"},{"bike_id":"b23a35bf-e16c-4f97-b98c-b0c3ee910b87","system_id":"levelo_inurba_marseille","lat":43.33059,"lon":5.38961,"is_reserved":false,"is_disabled":false,"rental_uris":{"android":"levelo://app?vid=b23a35bf-e16c-4f97-b98c-b0c3ee910b87","ios":"levelo://app?vid=b23a35bf-e16c-4f97-b98c-b0c3ee910b87"},"vehicle_type_id":"4","last_reported":1771110798,"current_range_meters":39200,"station_id":"","pricing_plan_id":"cebpf4jnsgd1na2vs0mg"},{"bike_id":"4b69d9ac-5988-4e0b-b555-d4763bf81efe","system_id":"levelo_inurba_marseille","lat":43.330349,"lon":5.390538,"is_reserved":false,"is_disabled":false,"rental_uris":{"android":"levelo://app?vid=4b69d9ac-5988-4e0b-b555-d4763bf81efe","ios":"levelo://app?vid=4b69d9ac-5988-4e0b-b555-d4763bf81efe"},"vehicle_type_id":"4","last_reported":1771110798,"current_range_meters":38800,"station_id":"ce4bhr92rcd13ifvqhrg","pricing_plan_id":"cebpf4jnsgd1na2vs0mg"},{"bike_id":"9942bbc5-c241-4e8a-b7a0-e7948f4f2e45","system_id":"levelo_inurba_marseille","lat":43.32389,"lon":5.38872,"is_reserved":false,"is_disabled":false,"rental_uris":{"android":"levelo://app?vid=9942bbc5-c241-4e8a-b7a0-e7948f4f2e45","ios":"levelo://app?vid=9942bbc5-c241-4e8a-b7a0-e7948f4f2e45"},"vehicle_type_id":"4","last_reported":1771110798,"current_range_meters":38400,"station_id":"ce4bhqp2rcd13ifvqhog","pricing_plan_id":"cebpf4jnsgd1na2vs0mg"},{"bike_id":"78eafc9c-aeb1-4a3e-b6ec-c3c1210ea0e6","system_id":"levelo_inurba_marseille","lat":43.32379,"lon":5.38868,"is_reserved":false,"is_disabled":false,"rental_uris":{"android":"levelo://app?vid=78eafc9c-aeb1-4a3e-b6ec-c3c1210ea0e6","ios":"levelo://app?vid=78eafc9c-aeb1-4a3e-b6ec-c3c1210ea0e6"},"vehicle_type_id":"4","last_reported":1771110798,"current_range_meters":38400,"station_id":"ce4bhqp2rcd13ifvqhog","pricing_plan_id":"cebpf4jnsgd1na2vs0mg"},{"bike_id":"8e8e8859-a5a6-43b8-9a3a-3d7ba83a2210","system_id":"levelo_inurba_marseille","lat":43.33023,"lon":5.39052,"is_reserved":false,"is_disabled":false,"rental_uris":{"android":"levelo://app?vid=8e8e8859-a5a6-43b8-9a3a-3d7ba83a2210","ios":"levelo://app?vid=8e8e8859-a5a6-43b8-9a3a-3d7ba83a2210"},"vehicle_type_id":"4","last_reported":1771110798,"current_range_meters":39200,"station_id":"ce4bhr92rcd13ifvqhrg","pricing_plan_id":"cebpf4jnsgd1na2vs0mg"},{"bike_id":"e09b1854-500a-4103-9ded-791ea62f0cef","system_id":"levelo_inurba_marseille","lat":43.32369,"lon":5.38885,"is_reserved":false,"is_disabled":false,"rental_uris":{"android":"levelo://app?vid=e09b1854-500a-4103-9ded-791ea62f0cef","ios":"levelo://app?vid=e09b1854-500a-4103-9ded-791ea62f0cef"},"vehicle_type_id":"4","last_reported":1771110798,"current_range_meters":38400,"station_id":"ce4bhqp2rcd13ifvqhog","pricing_plan_id":"cebpf4jnsgd1na2vs0mg"},{"bike_id":"be8ecc47-b3b1-4e9a-89ec-d105b0b19936","system_id":"levelo_inurba_marseille","lat":43.32387,"lon":5.38869,"is_reserved":false,"is_disabled":false,"rental_uris":{"android":"levelo://app?vid=be8ecc47-b3b1-4e9a-89ec-d105b0b19936","ios":"levelo://app?vid=be8ecc47-b3b1-4e9a-89ec-d105b0b19936"},"vehicle_type_id":"4","last_reported":1771110798,"current_range_meters":39200,"station_id":"ce4bhqp2rcd13ifvqhog","pricing_plan_id":"cebpf4jnsgd1na2vs0mg"},{"bike_id":"40f653fd-fc41-44ea-94c9-56ee3a92aebe","system_id":"levelo_inurba_marseille","lat":43.33022,"lon":5.39016,"is_reserved":false,"is_disabled":false,"rental_uris":{"android":"levelo://app?vid=40f653fd-fc41-44ea-94c9-56ee3a92aebe","ios":"levelo://app?vid=40f653fd-fc41-44ea-94c9-56ee3a92aebe"},"vehicle_type_id":"4","last_reported":1771110798,"current_range_meters":38000,"station_id":"ce4bhr92rcd13ifvqhrg","pricing_plan_id":"cebpf4jnsgd1na2vs0mg"},{"bike_id":"3cccd3b9-43e3-4300-876c-33c46754f515","system_id":"levelo_inurba_marseille","lat":43.33018,"lon":5.39038,"is_reserved":false,"is_disabled":false,"rental_uris":{"android":"levelo://app?vid=3cccd3b9-43e3-4300-876c-33c46754f515","ios":"levelo://app?vid=3cccd3b9-43e3-4300-876c-33c46754f515"},"vehicle_type_id":"4","last_reported":1771110798,"current_range_meters":39200,"station_id":"ce4bhr92rcd13ifvqhrg","pricing_plan_id":"cebpf4jnsgd1na2vs0mg"},{"bike_id":"e6e08f6b-466b-497d-99fe-10096f8ca89b","system_id":"levelo_inurba_marseille","lat":43.3301,"lon":5.39001,"is_reserved":false,"is_disabled":false,"rental_uris":{"android":"levelo://app?vid=e6e08f6b-466b-497d-99fe-10096f8ca89b","ios":"levelo://app?vid=e6e08f6b-466b-497d-99fe-10096f8ca89b"},"vehicle_type_id":"4","last_reported":1771110798,"current_range_meters":38400,"station_id":"ce4bhr92rcd13ifvqhrg","pricing_plan_id":"cebpf4jnsgd1na2vs0mg"},{"bike_id":"6e473d3d-5713-40bd-bcf2-0bc8a3c35473","system_id":"levelo_inurba_marseille","lat":43.30785,"lon":5.38176,"is_reserved":false,"is_disabled":false,"rental_uris":{"android":"levelo://app?vid=6e473d3d-5713-40bd-bcf2-0bc8a3c35473","ios":"levelo://app?vid=6e473d3d-5713-40bd-bcf2-0bc8a3c35473"},"vehicle_type_id":"4","last_reported":1771110798,"current_range_meters":24400,"station_id":"ce4bgt12rcd13ifvqce0","pricing_plan_id":"cebpf4jnsgd1na2vs0mg"},{"bike_id":"49e812e7-aea6-429d-beb3-118505c6a61b","system_id":"levelo_inurba_marseille","lat":43.28371,"lon":5.38638,"is_reserved":false,"is_disabled":false,"rental_uris":{"android":"levelo://app?vid=49e812e7-aea6-429d-beb3-118505c6a61b","ios":"levelo://app?vid=49e812e7-aea6-429d-beb3-118505c6a61b"},"vehicle_type_id":"4","last_reported":1771110798,"current_range_meters":28800,"station_id":"ce4bh492rcd13ifvqdvg","pricing_plan_id":"cebpf4jnsgd1na2vs0mg"},{"bike_id":"bdf72b80-d7a9-4303-9f7f-d62bd85c9012","system_id":"levelo_inurba_marseille","lat":43.30532,"lon":5.36688,"is_reserved":false,"is_disabled":false,"rental_uris":{"android":"levelo://app?vid=bdf72b80-d7a9-4303-9f7f-d62bd85c9012","ios":"levelo://app?vid=bdf72b80-d7a9-4303-9f7f-d62bd85c9012"},"vehicle_type_id":"4","last_reported":1771110798,"current_range_meters":39200,"station_id":"ce4bgrp2rcd13ifvqc9g","pricing_plan_id":"cebpf4jnsgd1na2vs0mg"},{"bike_id":"2ee2501b-b2dd-4e3f-bff3-a91ee1254efa","system_id":"levelo_inurba_marseille","lat":43.289373,"lon":5.396337,"is_reserved":false,"is_disabled":true,"rental_uris":{"android":"levelo://app?vid=2ee2501b-b2dd-4e3f-bff3-a91ee1254efa","ios":"levelo://app?vid=2ee2501b-b2dd-4e3f-bff3-a91ee1254efa"},"vehicle_type_id":"4","last_reported":1771110798,"current_range_meters":24000,"station_id":"ce4bh3h2rcd13ifvqdn0","pricing_plan_id":"cebpf4jnsgd1na2vs0mg"},{"bike_id":"e28b54de-af57-425f-96ed-b1caac28166f","system_id":"levelo_inurba_marseille","lat":43.33206,"lon":5.37486,"is_reserved":false,"is_disabled":false,"rental_uris":{"android":"levelo://app?vid=e28b54de-af57-425f-96ed-b1caac28166f","ios":"levelo://app?vid=e28b54de-af57-425f-96ed-b1caac28166f"},"vehicle_type_id":"4","last_reported":1771110798,"current_range_meters":36800,"station_id":"","pricing_plan_id":"cebpf4jnsgd1na2vs0mg"},{"bike_id":"c0c1c696-e921-4d4f-909f-46c10656f9f4","system_id":"levelo_inurba_marseille","lat":43.30154,"lon":5.38028,"is_reserved":false,"is_disabled":false,"rental_uris":{"android":"levelo://app?vid=c0c1c696-e921-4d4f-909f-46c10656f9f4","ios":"levelo://app?vid=c0c1c696-e921-4d4f-909f-46c10656f9f4"},"vehicle_type_id":"4","last_reported":1771110798,"current_range_meters":24000,"station_id":"ce4bgjp2rcd13ifvqbh0","pricing_plan_id":"cebpf4jnsgd1na2vs0mg"},{"bike_id":"a32279df-9b05-429b-993b-59fe7cac8dcd","system_id":"levelo_inurba_marseille","lat":43.29429,"lon":5.39752,"is_reserved":false,"is_disabled":false,"rental_uris":{"android":"levelo://app?vid=a32279df-9b05-429b-993b-59fe7cac8dcd","ios":"levelo://app?vid=a32279df-9b05-429b-993b-59fe7cac8dcd"},"vehicle_type_id":"4","last_reported":1771110798,"current_range_meters":32400,"station_id":"ce4bh3h2rcd13ifvqdo0","pricing_plan_id":"cebpf4jnsgd1na2vs0mg"},{"bike_id":"99384fa8-8131-47f2-9fd1-057dab2586bd","system_id":"levelo_inurba_marseille","lat":43.26184,"lon":5.37455,"is_reserved":false,"is_disabled":false,"rental_uris":{"android":"levelo://app?vid=99384fa8-8131-47f2-9fd1-057dab2586bd","ios":"levelo://app?vid=99384fa8-8131-47f2-9fd1-057dab2586bd"},"vehicle_type_id":"4","last_reported":1771110798,"current_range_meters":8000,"station_id":"ce4bhgp2rcd13ifvqfc0","pricing_plan_id":"cebpf4jnsgd1na2vs0mg"},{"bike_id":"b829afcc-9b72-4b0e-9514-8b2754aea185","system_id":"levelo_inurba_marseille","lat":43.29951,"lon":5.37443,"is_reserved":false,"is_disabled":false,"rental_uris":{"android":"levelo://app?vid=b829afcc-9b72-4b0e-9514-8b2754aea185","ios":"levelo://app?vid=b829afcc-9b72-4b0e-9514-8b2754aea185"},"vehicle_type_id":"4","last_reported":1771110798,"current_range_meters":13600,"station_id":"ce4bgjh2rcd13ifvqbg0","pricing_plan_id":"cebpf4jnsgd1na2vs0mg"},{"bike_id":"fa20edca-9954-4bdd-b2b9-9694aaa84d68","system_id":"levelo_inurba_marseille","lat":43.29933,"lon":5.36566,"is_reserved":false,"is_disabled":false,"rental_uris":{"android":"levelo://app?vid=fa20edca-9954-4bdd-b2b9-9694aaa84d68","ios":"levelo://app?vid=fa20edca-9954-4bdd-b2b9-9694aaa84d68"},"vehicle_type_id":"4","last_reported":1771110798,"current_range_meters":22400,"station_id":"ce4bgm92rcd13ifvqbr0","pricing_plan_id":"cebpf4jnsgd1na2vs0mg"},{"bike_id":"f9b7ecb3-1b5d-4df7-8ede-b80d1f79d210","system_id":"levelo_inurba_marseille","lat":43.304207,"lon":5.412811,"is_reserved":false,"is_disabled":false,"rental_uris":{"android":"levelo://app?vid=f9b7ecb3-1b5d-4df7-8ede-b80d1f79d210","ios":"levelo://app?vid=f9b7ecb3-1b5d-4df7-8ede-b80d1f79d210"},"vehicle_type_id":"4","last_reported":1771110798,"current_range_meters":20000,"station_id":"ce4bhop2rcd13ifvqh8g","pricing_plan_id":"cebpf4jnsgd1na2vs0mg"},{"bike_id":"51edabd8-d880-4933-94c4-df692d07b113","system_id":"levelo_inurba_marseille","lat":43.288461,"lon":5.393114,"is_reserved":false,"is_disabled":false,"rental_uris":{"android":"levelo://app?vid=51edabd8-d880-4933-94c4-df692d07b113","ios":"levelo://app?vid=51edabd8-d880-4933-94c4-df692d07b113"},"vehicle_type_id":"4","last_reported":1771110798,"current_range_meters":36800,"station_id":"ce4bh2p2rcd13ifvqdi0","pricing_plan_id":"cebpf4jnsgd1na2vs0mg"},{"bike_id":"d6d5d12a-80c0-4acd-bbde-41f77c6e52d4","system_id":"levelo_inurba_marseille","lat":43.27203,"lon":5.39204,"is_reserved":false,"is_disabled":true,"rental_uris":{"android":"levelo://app?vid=d6d5d12a-80c0-4acd-bbde-41f77c6e52d4","ios":"levelo://app?vid=d6d5d12a-80c0-4acd-bbde-41f77c6e52d4"},"vehicle_type_id":"4","last_reported":1771110798,"current_range_meters":22800,"station_id":"ce4bhhp2rcd13ifvqfm0","pricing_plan_id":"cebpf4jnsgd1na2vs0mg"},{"bike_id":"fcdc8164-8974-4034-a4c9-bef73e1a1a6f","system_id":"levelo_inurba_marseille","lat":43.286921,"lon":5.386446,"is_reserved":false,"is_disabled":true,"rental_uris":{"android":"levelo://app?vid=fcdc8164-8974-4034-a4c9-bef73e1a1a6f","ios":"levelo://app?vid=fcdc8164-8974-4034-a4c9-bef73e1a1a6f"},"vehicle_type_id":"4","last_reported":1771110798,"current_range_meters":39200,"station_id":"ce4bh492rcd13ifvqdug","pricing_plan_id":"cebpf4jnsgd1na2vs0mg"},{"bike_id":"9e9bde6e-784b-42b8-a576-035499c1e654","system_id":"levelo_inurba_marseille","lat":43.310408,"lon":5.371731,"is_reserved":false,"is_disabled":false,"rental_uris":{"android":"levelo://app?vid=9e9bde6e-784b-42b8-a576-035499c1e654","ios":"levelo://app?vid=9e9bde6e-784b-42b8-a576-035499c1e654"},"vehicle_type_id":"4","last_reported":1771110798,"current_range_meters":37600,"station_id":"st_d4kl2rp97mjs73e7tdfg","pricing_plan_id":"cebpf4jnsgd1na2vs0mg"},{"bike_id":"460264f3-8bc6-4c77-beaf-ea8534482f84","system_id":"levelo_inurba_marseille","lat":43.249546,"lon":5.405076,"is_reserved":false,"is_disabled":false,"rental_uris":{"android":"levelo://app?vid=460264f3-8bc6-4c77-beaf-ea8534482f84","ios":"levelo://app?vid=460264f3-8bc6-4c77-beaf-ea8534482f84"},"vehicle_type_id":"4","last_reported":1771110798,"current_range_meters":34000,"station_id":"st_d2ngiaodas8pm72gd1h0","pricing_plan_id":"cebpf4jnsgd1na2vs0mg"},{"bike_id":"bfd89baa-fbc2-45c5-8b74-3d61cb004f40","system_id":"levelo_inurba_marseille","lat":43.23799,"lon":5.36628,"is_reserved":false,"is_disabled":false,"rental_uris":{"android":"levelo://app?vid=bfd89baa-fbc2-45c5-8b74-3d61cb004f40","ios":"levelo://app?vid=bfd89baa-fbc2-45c5-8b74-3d61cb004f40"},"vehicle_type_id":"4","last_reported":1771110798,"current_range_meters":38000,"station_id":"","pricing_plan_id":"cebpf4jnsgd1na2vs0mg"},{"bike_id":"013e9e96-8726-4b53-8270-2c90ec0c2339","system_id":"levelo_inurba_marseille","lat":43.28616,"lon":5.35131,"is_reserved":false,"is_disabled":false,"rental_uris":{"android":"levelo://app?vid=013e9e96-8726-4b53-8270-2c90ec0c2339","ios":"levelo://app?vid=013e9e96-8726-4b53-8270-2c90ec0c2339"},"vehicle_type_id":"4","last_reported":1771110798,"current_range_meters":31200,"station_id":"ce4bhch2rcd13ifvqeug","pricing_plan_id":"cebpf4jnsgd1na2vs0mg"},{"bike_id":"a261d69d-cd06-47ff-bc6e-b66e5159e474","system_id":"levelo_inurba_marseille","lat":43.279026,"lon":5.380126,"is_reserved":false,"is_disabled":false,"rental_uris":{"android":"levelo://app?vid=a261d69d-cd06-47ff-bc6e-b66e5159e474","ios":"levelo://app?vid=a261d69d-cd06-47ff-bc6e-b66e5159e474"},"vehicle_type_id":"4","last_reported":1771110798,"current_range_meters":39200,"station_id":"ce4bhf92rcd13ifvqf50","pricing_plan_id":"cebpf4jnsgd1na2vs0mg"},{"bike_id":"f5434e60-9872-4540-b63c-36364c85354e","system_id":"levelo_inurba_marseille","lat":43.27951,"lon":5.41044,"is_reserved":false,"is_disabled":false,"rental_uris":{"android":"levelo://app?vid=f5434e60-9872-4540-b63c-36364c85354e","ios":"levelo://app?vid=f5434e60-9872-4540-b63c-36364c85354e"},"vehicle_type_id":"4","last_reported":1771110798,"current_range_meters":25200,"station_id":"ce4bhnp2rcd13ifvqh0g","pricing_plan_id":"cebpf4jnsgd1na2vs0mg"},{"bike_id":"73746e6b-3a17-44f4-8dd7-7ef243b28100","system_id":"levelo_inurba_marseille","lat":43.30149,"lon":5.38091,"is_reserved":false,"is_disabled":false,"rental_uris":{"android":"levelo://app?vid=73746e6b-3a17-44f4-8dd7-7ef243b28100","ios":"levelo://app?vid=73746e6b-3a17-44f4-8dd7-7ef243b28100"},"vehicle_type_id":"4","last_reported":1771110798,"current_range_meters":36800,"station_id":"ce4bgjp2rcd13ifvqbh0","pricing_plan_id":"cebpf4jnsgd1na2vs0mg"},{"bike_id":"0f348861-a63a-4c58-a4a6-4e6046ace397","system_id":"levelo_inurba_marseille","lat":43.28452,"lon":5.39211,"is_reserved":false,"is_disabled":false,"rental_uris":{"android":"levelo://app?vid=0f348861-a63a-4c58-a4a6-4e6046ace397","ios":"levelo://app?vid=0f348861-a63a-4c58-a4a6-4e6046ace397"},"vehicle_type_id":"4","last_reported":1771110798,"current_range_meters":27600,"station_id":"ce4bhoh2rcd13ifvqh5g","pricing_plan_id":"cebpf4jnsgd1na2vs0mg"},{"bike_id":"898a8ca9-6705-4da8-8ec2-d4fe3b517c7c","system_id":"levelo_inurba_marseille","lat":43.28083,"lon":5.37896,"is_reserved":false,"is_disabled":false,"rental_uris":{"android":"levelo://app?vid=898a8ca9-6705-4da8-8ec2-d4fe3b517c7c","ios":"levelo://app?vid=898a8ca9-6705-4da8-8ec2-d4fe3b517c7c"},"vehicle_type_id":"4","last_reported":1771110798,"current_range_meters":11600,"station_id":"","pricing_plan_id":"cebpf4jnsgd1na2vs0mg"},{"bike_id":"ecd273f0-a6f0-460f-9618-3f807a1dc212","system_id":"levelo_inurba_marseille","lat":43.30509,"lon":5.36553,"is_reserved":false,"is_disabled":false,"rental_uris":{"android":"levelo://app?vid=ecd273f0-a6f0-460f-9618-3f807a1dc212","ios":"levelo://app?vid=ecd273f0-a6f0-460f-9618-3f807a1dc212"},"vehicle_type_id":"4","last_reported":1771110798,"current_range_meters":32800,"station_id":"ce4bgs12rcd13ifvqcag","pricing_plan_id":"cebpf4jnsgd1na2vs0mg"},{"bike_id":"a4bc2102-f4bb-46b4-bcb1-22c0936b606b","system_id":"levelo_inurba_marseille","lat":43.253367,"lon":5.421753,"is_reserved":false,"is_disabled":false,"rental_uris":{"android":"levelo://app?vid=a4bc2102-f4bb-46b4-bcb1-22c0936b606b","ios":"levelo://app?vid=a4bc2102-f4bb-46b4-bcb1-22c0936b606b"},"vehicle_type_id":"4","last_reported":1771110798,"current_range_meters":9600,"station_id":"st_d2m65c5bi1j21697t3ng","pricing_plan_id":"cebpf4jnsgd1na2vs0mg"},{"bike_id":"5ebe73de-2cf7-4bc4-9047-e5658e66ceb9","system_id":"levelo_inurba_marseille","lat":43.24163,"lon":5.36406,"is_reserved":false,"is_disabled":true,"rental_uris":{"android":"levelo://app?vid=5ebe73de-2cf7-4bc4-9047-e5658e66ceb9","ios":"levelo://app?vid=5ebe73de-2cf7-4bc4-9047-e5658e66ceb9"},"vehicle_type_id":"4","last_reported":1771110798,"current_range_meters":18800,"station_id":"cpo36qri1sfpv3e86is0","pricing_plan_id":"cebpf4jnsgd1na2vs0mg"},{"bike_id":"11aa1de8-c2d3-407d-bb33-61409df04ca8","system_id":"levelo_inurba_marseille","lat":43.30052,"lon":5.37821,"is_reserved":false,"is_disabled":false,"rental_uris":{"android":"levelo://app?vid=11aa1de8-c2d3-407d-bb33-61409df04ca8","ios":"levelo://app?vid=11aa1de8-c2d3-407d-bb33-61409df04ca8"},"vehicle_type_id":"4","last_reported":1771110798,"current_range_meters":5600,"station_id":"","pricing_plan_id":"cebpf4jnsgd1na2vs0mg"},{"bike_id":"fd349898-8923-4020-b279-1a0fc544c78c","system_id":"levelo_inurba_marseille","lat":43.27565,"lon":5.38425,"is_reserved":false,"is_disabled":false,"rental_uris":{"android":"levelo://app?vid=fd349898-8923-4020-b279-1a0fc544c78c","ios":"levelo://app?vid=fd349898-8923-4020-b279-1a0fc544c78c"},"vehicle_type_id":"4","last_reported":1771110798,"current_range_meters":19600,"station_id":"ce4bhh92rcd13ifvqfi0","pricing_plan_id":"cebpf4jnsgd1na2vs0mg"},{"bike_id":"ed8b5fe8-1920-4dfd-97af-072031019259","system_id":"levelo_inurba_marseille","lat":43.26371,"lon":5.41067,"is_reserved":false,"is_disabled":false,"rental_uris":{"android":"levelo://app?vid=ed8b5fe8-1920-4dfd-97af-072031019259","ios":"levelo://app?vid=ed8b5fe8-1920-4dfd-97af-072031019259"},"vehicle_type_id":"4","last_reported":1771110798,"current_range_meters":35600,"station_id":"st_d4e5ca6na9uc73bfl5fg","pricing_plan_id":"cebpf4jnsgd1na2vs0mg"},{"bike_id":"dbf3adce-f756-48be-8142-94bd2d254eea","system_id":"levelo_inurba_marseille","lat":43.26551,"lon":5.37296,"is_reserved":false,"is_disabled":false,"rental_uris":{"android":"levelo://app?vid=dbf3adce-f756-48be-8142-94bd2d254eea","ios":"levelo://app?vid=dbf3adce-f756-48be-8142-94bd2d254eea"},"vehicle_type_id":"4","last_reported":1771110798,"current_range_meters":16000,"station_id":"ce4bhg12rcd13ifvqf70","pricing_plan_id":"cebpf4jnsgd1na2vs0mg"},{"bike_id":"06acae32-0d8a-4180-a9a6-21dfa17e43cc","system_id":"levelo_inurba_marseille","lat":43.28645,"lon":5.38671,"is_reserved":false,"is_disabled":false,"rental_uris":{"android":"levelo://app?vid=06acae32-0d8a-4180-a9a6-21dfa17e43cc","ios":"levelo://app?vid=06acae32-0d8a-4180-a9a6-21dfa17e43cc"},"vehicle_type_id":"4","last_reported":1771110798,"current_range_meters":8000,"station_id":"ce4bh492rcd13ifvqdug","pricing_plan_id":"cebpf4jnsgd1na2vs0mg"},{"bike_id":"988b0672-cdd9-4693-9979-18d1861e595f","system_id":"levelo_inurba_marseille","lat":43.299132,"lon":5.374643,"is_reserved":false,"is_disabled":false,"rental_uris":{"android":"levelo://app?vid=988b0672-cdd9-4693-9979-18d1861e595f","ios":"levelo://app?vid=988b0672-cdd9-4693-9979-18d1861e595f"},"vehicle_type_id":"4","last_reported":1771110798,"current_range_meters":38000,"station_id":"ce4bgjh2rcd13ifvqbg0","pricing_plan_id":"cebpf4jnsgd1na2vs0mg"},{"bike_id":"d97604ce-364c-459d-8875-8f54c335d253","system_id":"levelo_inurba_marseille","lat":43.24707,"lon":5.41711,"is_reserved":false,"is_disabled":false,"rental_uris":{"android":"levelo://app?vid=d97604ce-364c-459d-8875-8f54c335d253","ios":"levelo://app?vid=d97604ce-364c-459d-8875-8f54c335d253"},"vehicle_type_id":"4","last_reported":1771110798,"current_range_meters":9200,"station_id":"","pricing_plan_id":"cebpf4jnsgd1na2vs0mg"},{"bike_id":"3278fe3f-c52a-4d2d-864d-2639ee13a3d3","system_id":"levelo_inurba_marseille","lat":43.2985,"lon":5.36288,"is_reserved":false,"is_disabled":false,"rental_uris":{"android":"levelo://app?vid=3278fe3f-c52a-4d2d-864d-2639ee13a3d3","ios":"levelo://app?vid=3278fe3f-c52a-4d2d-864d-2639ee13a3d3"},"vehicle_type_id":"4","last_reported":1771110798,"current_range_meters":34800,"station_id":"ce4bgpp2rcd13ifvqc3g","pricing_plan_id":"cebpf4jnsgd1na2vs0mg"},{"bike_id":"79a7e591-1b27-4aab-b9f7-840e2732a2bc","system_id":"levelo_inurba_marseille","lat":43.31737,"lon":5.40385,"is_reserved":false,"is_disabled":false,"rental_uris":{"android":"levelo://app?vid=79a7e591-1b27-4aab-b9f7-840e2732a2bc","ios":"levelo://app?vid=79a7e591-1b27-4aab-b9f7-840e2732a2bc"},"vehicle_type_id":"4","last_reported":1771110798,"current_range_meters":7200,"station_id":"","pricing_plan_id":"cebpf4jnsgd1na2vs0mg"},{"bike_id":"c23d4cd6-13c8-4bcf-aed4-157f819492c2","system_id":"levelo_inurba_marseille","lat":43.25077,"lon":5.39499,"is_reserved":false,"is_disabled":false,"rental_uris":{"android":"levelo://app?vid=c23d4cd6-13c8-4bcf-aed4-157f819492c2","ios":"levelo://app?vid=c23d4cd6-13c8-4bcf-aed4-157f819492c2"},"vehicle_type_id":"4","last_reported":1771110798,"current_range_meters":32000,"station_id":"ce4bhm12rcd13ifvqgkg","pricing_plan_id":"cebpf4jnsgd1na2vs0mg"},{"bike_id":"d9ac65ca-3fcc-4a4a-9622-b63c7de6b93c","system_id":"levelo_inurba_marseille","lat":43.29221,"lon":5.36045,"is_reserved":false,"is_disabled":false,"rental_uris":{"android":"levelo://app?vid=d9ac65ca-3fcc-4a4a-9622-b63c7de6b93c","ios":"levelo://app?vid=d9ac65ca-3fcc-4a4a-9622-b63c7de6b93c"},"vehicle_type_id":"4","last_reported":1771110798,"current_range_meters":22000,"station_id":"ce4bhbh2rcd13ifvqeqg","pricing_plan_id":"cebpf4jnsgd1na2vs0mg"},{"bike_id":"1ad77ced-14d0-46cf-b66c-4187336859fd","system_id":"levelo_inurba_marseille","lat":43.32294,"lon":5.38266,"is_reserved":false,"is_disabled":false,"rental_uris":{"android":"levelo://app?vid=1ad77ced-14d0-46cf-b66c-4187336859fd","ios":"levelo://app?vid=1ad77ced-14d0-46cf-b66c-4187336859fd"},"vehicle_type_id":"4","last_reported":1771110798,"current_range_meters":36400,"station_id":"ce4bhr12rcd13ifvqhqg","pricing_plan_id":"cebpf4jnsgd1na2vs0mg"},{"bike_id":"2c4854a2-3ab2-4878-9090-25b64bf190a8","system_id":"levelo_inurba_marseille","lat":43.29224,"lon":5.39299,"is_reserved":false,"is_disabled":false,"rental_uris":{"android":"levelo://app?vid=2c4854a2-3ab2-4878-9090-25b64bf190a8","ios":"levelo://app?vid=2c4854a2-3ab2-4878-9090-25b64bf190a8"},"vehicle_type_id":"4","last_reported":1771110798,"current_range_meters":4000,"station_id":"ce4bh192rcd13ifvqdd0","pricing_plan_id":"cebpf4jnsgd1na2vs0mg"},{"bike_id":"1a4d09d3-2e07-4421-b53b-defdf8256512","system_id":"levelo_inurba_marseille","lat":43.31261,"lon":5.36866,"is_reserved":false,"is_disabled":false,"rental_uris":{"android":"levelo://app?vid=1a4d09d3-2e07-4421-b53b-defdf8256512","ios":"levelo://app?vid=1a4d09d3-2e07-4421-b53b-defdf8256512"},"vehicle_type_id":"4","last_reported":1771110798,"current_range_meters":39200,"station_id":"ce4bgl92rcd13ifvqbq0","pricing_plan_id":"cebpf4jnsgd1na2vs0mg"},{"bike_id":"0108cb5f-db41-4a3c-afbe-cc105c668228","system_id":"levelo_inurba_marseille","lat":43.28733,"lon":5.36082,"is_reserved":false,"is_disabled":false,"rental_uris":{"android":"levelo://app?vid=0108cb5f-db41-4a3c-afbe-cc105c668228","ios":"levelo://app?vid=0108cb5f-db41-4a3c-afbe-cc105c668228"},"vehicle_type_id":"4","last_reported":1771110798,"current_range_meters":37600,"station_id":"cki0cbj6b192h4jlfktg","pricing_plan_id":"cebpf4jnsgd1na2vs0mg"},{"bike_id":"b7fcb2da-5243-440b-926b-4edc89af4b76","system_id":"levelo_inurba_marseille","lat":43.27989,"lon":5.40007,"is_reserved":false,"is_disabled":false,"rental_uris":{"android":"levelo://app?vid=b7fcb2da-5243-440b-926b-4edc89af4b76","ios":"levelo://app?vid=b7fcb2da-5243-440b-926b-4edc89af4b76"},"vehicle_type_id":"4","last_reported":1771110798,"current_range_meters":25200,"station_id":"ce4bho92rcd13ifvqh4g","pricing_plan_id":"cebpf4jnsgd1na2vs0mg"},{"bike_id":"de23c09b-999d-4731-91c0-faf2e4461159","system_id":"levelo_inurba_marseille","lat":43.292125,"lon":5.360656,"is_reserved":false,"is_disabled":false,"rental_uris":{"android":"levelo://app?vid=de23c09b-999d-4731-91c0-faf2e4461159","ios":"levelo://app?vid=de23c09b-999d-4731-91c0-faf2e4461159"},"vehicle_type_id":"4","last_reported":1771110798,"current_range_meters":12400,"station_id":"ce4bhbh2rcd13ifvqeqg","pricing_plan_id":"cebpf4jnsgd1na2vs0mg"},{"bike_id":"48d4a83c-c716-41c6-8fd3-cb0153dd2afb","system_id":"levelo_inurba_marseille","lat":43.312223,"lon":5.368439,"is_reserved":false,"is_disabled":false,"rental_uris":{"android":"levelo://app?vid=48d4a83c-c716-41c6-8fd3-cb0153dd2afb","ios":"levelo://app?vid=48d4a83c-c716-41c6-8fd3-cb0153dd2afb"},"vehicle_type_id":"4","last_reported":1771110798,"current_range_meters":20400,"station_id":"ce4bgl92rcd13ifvqbq0","pricing_plan_id":"cebpf4jnsgd1na2vs0mg"},{"bike_id":"d8ba5cb8-9eb5-4cf4-8dd4-1eaa29dd9715","system_id":"levelo_inurba_marseille","lat":43.28974,"lon":5.3785,"is_reserved":false,"is_disabled":false,"rental_uris":{"android":"levelo://app?vid=d8ba5cb8-9eb5-4cf4-8dd4-1eaa29dd9715","ios":"levelo://app?vid=d8ba5cb8-9eb5-4cf4-8dd4-1eaa29dd9715"},"vehicle_type_id":"4","last_reported":1771110798,"current_range_meters":39200,"station_id":"ce4bh9p2rcd13ifvqed0","pricing_plan_id":"cebpf4jnsgd1na2vs0mg"},{"bike_id":"602bffae-9ab4-4754-bc46-a33d75afb6ef","system_id":"levelo_inurba_marseille","lat":43.29041,"lon":5.3996,"is_reserved":false,"is_disabled":false,"rental_uris":{"android":"levelo://app?vid=602bffae-9ab4-4754-bc46-a33d75afb6ef","ios":"levelo://app?vid=602bffae-9ab4-4754-bc46-a33d75afb6ef"},"vehicle_type_id":"4","last_reported":1771110798,"current_range_meters":9200,"station_id":"ce4bh392rcd13ifvqdm0","pricing_plan_id":"cebpf4jnsgd1na2vs0mg"},{"bike_id":"3b97e5bb-dbba-4f44-a70d-85c7f4a8b4d3","system_id":"levelo_inurba_marseille","lat":43.25869,"lon":5.39875,"is_reserved":false,"is_disabled":false,"rental_uris":{"android":"levelo://app?vid=3b97e5bb-dbba-4f44-a70d-85c7f4a8b4d3","ios":"levelo://app?vid=3b97e5bb-dbba-4f44-a70d-85c7f4a8b4d3"},"vehicle_type_id":"4","last_reported":1771110798,"current_range_meters":38400,"station_id":"ce4bhl92rcd13ifvqghg","pricing_plan_id":"cebpf4jnsgd1na2vs0mg"},{"bike_id":"7cdae2e1-5306-459b-96ab-2c3aaae39e37","system_id":"levelo_inurba_marseille","lat":43.25001,"lon":5.38932,"is_reserved":false,"is_disabled":false,"rental_uris":{"android":"levelo://app?vid=7cdae2e1-5306-459b-96ab-2c3aaae39e37","ios":"levelo://app?vid=7cdae2e1-5306-459b-96ab-2c3aaae39e37"},"vehicle_type_id":"4","last_reported":1771110798,"current_range_meters":36800,"station_id":"ce4bhgp2rcd13ifvqfd0","pricing_plan_id":"cebpf4jnsgd1na2vs0mg"},{"bike_id":"9664a5c4-41bd-49a0-bca7-ccecab569b6a","system_id":"levelo_inurba_marseille","lat":43.32142,"lon":5.4149,"is_reserved":false,"is_disabled":false,"rental_uris":{"android":"levelo://app?vid=9664a5c4-41bd-49a0-bca7-ccecab569b6a","ios":"levelo://app?vid=9664a5c4-41bd-49a0-bca7-ccecab569b6a"},"vehicle_type_id":"4","last_reported":1771110798,"current_range_meters":36400,"station_id":"","pricing_plan_id":"cebpf4jnsgd1na2vs0mg"},{"bike_id":"c58c81f2-0db6-4be4-826c-23c74da1d419","system_id":"levelo_inurba_marseille","lat":43.28669,"lon":5.3865,"is_reserved":false,"is_disabled":false,"rental_uris":{"android":"levelo://app?vid=c58c81f2-0db6-4be4-826c-23c74da1d419","ios":"levelo://app?vid=c58c81f2-0db6-4be4-826c-23c74da1d419"},"vehicle_type_id":"4","last_reported":1771110798,"current_range_meters":38000,"station_id":"ce4bh492rcd13ifvqdug","pricing_plan_id":"cebpf4jnsgd1na2vs0mg"},{"bike_id":"0664bc9f-767f-467e-a2c8-c71096fcbc2b","system_id":"levelo_inurba_marseille","lat":43.30579,"lon":5.36562,"is_reserved":false,"is_disabled":false,"rental_uris":{"android":"levelo://app?vid=0664bc9f-767f-467e-a2c8-c71096fcbc2b","ios":"levelo://app?vid=0664bc9f-767f-467e-a2c8-c71096fcbc2b"},"vehicle_type_id":"4","last_reported":1771110798,"current_range_meters":32800,"station_id":"ce4bgs12rcd13ifvqcag","pricing_plan_id":"cebpf4jnsgd1na2vs0mg"},{"bike_id":"06ca1e50-0c57-4308-ab33-37f48737feed","system_id":"levelo_inurba_marseille","lat":43.331579,"lon":5.376914,"is_reserved":false,"is_disabled":false,"rental_uris":{"android":"levelo://app?vid=06ca1e50-0c57-4308-ab33-37f48737feed","ios":"levelo://app?vid=06ca1e50-0c57-4308-ab33-37f48737feed"},"vehicle_type_id":"4","last_reported":1771110798,"current_range_meters":20800,"station_id":"st_d46cu089ee8s73dldbu0","pricing_plan_id":"cebpf4jnsgd1na2vs0mg"},{"bike_id":"a40147a5-bbf0-4381-a348-9cea87200b78","system_id":"levelo_inurba_marseille","lat":43.26067,"lon":5.39399,"is_reserved":false,"is_disabled":false,"rental_uris":{"android":"levelo://app?vid=a40147a5-bbf0-4381-a348-9cea87200b78","ios":"levelo://app?vid=a40147a5-bbf0-4381-a348-9cea87200b78"},"vehicle_type_id":"4","last_reported":1771110798,"current_range_meters":17200,"station_id":"ce4bhh92rcd13ifvqfj0","pricing_plan_id":"cebpf4jnsgd1na2vs0mg"},{"bike_id":"cb83813a-9d6f-41e9-a57c-6a0591f5f823","system_id":"levelo_inurba_marseille","lat":43.24145,"lon":5.36414,"is_reserved":false,"is_disabled":false,"rental_uris":{"android":"levelo://app?vid=cb83813a-9d6f-41e9-a57c-6a0591f5f823","ios":"levelo://app?vid=cb83813a-9d6f-41e9-a57c-6a0591f5f823"},"vehicle_type_id":"4","last_reported":1771110798,"current_range_meters":6000,"station_id":"cpo36qri1sfpv3e86is0","pricing_plan_id":"cebpf4jnsgd1na2vs0mg"},{"bike_id":"abb5386c-aa85-45f1-b3a9-55f4ea4e4b5b","system_id":"levelo_inurba_marseille","lat":43.24938,"lon":5.40507,"is_reserved":false,"is_disabled":true,"rental_uris":{"android":"levelo://app?vid=abb5386c-aa85-45f1-b3a9-55f4ea4e4b5b","ios":"levelo://app?vid=abb5386c-aa85-45f1-b3a9-55f4ea4e4b5b"},"vehicle_type_id":"4","last_reported":1771110798,"current_range_meters":37600,"station_id":"st_d2ngiaodas8pm72gd1h0","pricing_plan_id":"cebpf4jnsgd1na2vs0mg"},{"bike_id":"04d98b6b-9f2d-4112-8e98-7c6f7a03ce58","system_id":"levelo_inurba_marseille","lat":43.29599,"lon":5.3773,"is_reserved":false,"is_disabled":false,"rental_uris":{"android":"levelo://app?vid=04d98b6b-9f2d-4112-8e98-7c6f7a03ce58","ios":"levelo://app?vid=04d98b6b-9f2d-4112-8e98-7c6f7a03ce58"},"vehicle_type_id":"4","last_reported":1771110798,"current_range_meters":36000,"station_id":"ce4bgi92rcd13ifvqb90","pricing_plan_id":"cebpf4jnsgd1na2vs0mg"},{"bike_id":"bdf0a52e-f1d1-4c55-9d73-86b0418e5ed4","system_id":"levelo_inurba_marseille","lat":43.29805,"lon":5.38105,"is_reserved":false,"is_disabled":false,"rental_uris":{"android":"levelo://app?vid=bdf0a52e-f1d1-4c55-9d73-86b0418e5ed4","ios":"levelo://app?vid=bdf0a52e-f1d1-4c55-9d73-86b0418e5ed4"},"vehicle_type_id":"4","last_reported":1771110798,"current_range_meters":38000,"station_id":"ce4bgip2rcd13ifvqbb0","pricing_plan_id":"cebpf4jnsgd1na2vs0mg"},{"bike_id":"61d8a691-71b0-4744-89ad-3ec8de31271f","system_id":"levelo_inurba_marseille","lat":43.24791,"lon":5.3747,"is_reserved":false,"is_disabled":false,"rental_uris":{"android":"levelo://app?vid=61d8a691-71b0-4744-89ad-3ec8de31271f","ios":"levelo://app?vid=61d8a691-71b0-4744-89ad-3ec8de31271f"},"vehicle_type_id":"4","last_reported":1771110798,"current_range_meters":39200,"station_id":"ce4bhgh2rcd13ifvqfb0","pricing_plan_id":"cebpf4jnsgd1na2vs0mg"},{"bike_id":"1c552d2a-5637-49d5-bd03-c19868d9f5f0","system_id":"levelo_inurba_marseille","lat":43.27487,"lon":5.42468,"is_reserved":false,"is_disabled":false,"rental_uris":{"android":"levelo://app?vid=1c552d2a-5637-49d5-bd03-c19868d9f5f0","ios":"levelo://app?vid=1c552d2a-5637-49d5-bd03-c19868d9f5f0"},"vehicle_type_id":"4","last_reported":1771110798,"current_range_meters":17600,"station_id":"ce4bhn92rcd13ifvqgrg","pricing_plan_id":"cebpf4jnsgd1na2vs0mg"},{"bike_id":"1c376293-36a4-4bd9-a121-a0f5ce367cc0","system_id":"levelo_inurba_marseille","lat":43.29618,"lon":5.38094,"is_reserved":false,"is_disabled":false,"rental_uris":{"android":"levelo://app?vid=1c376293-36a4-4bd9-a121-a0f5ce367cc0","ios":"levelo://app?vid=1c376293-36a4-4bd9-a121-a0f5ce367cc0"},"vehicle_type_id":"4","last_reported":1771110798,"current_range_meters":3200,"station_id":"ce4bgl12rcd13ifvqbo0","pricing_plan_id":"cebpf4jnsgd1na2vs0mg"},{"bike_id":"d3bb1dd4-4509-4a8a-a808-fed1cde6d0cb","system_id":"levelo_inurba_marseille","lat":43.25126,"lon":5.4038,"is_reserved":false,"is_disabled":false,"rental_uris":{"android":"levelo://app?vid=d3bb1dd4-4509-4a8a-a808-fed1cde6d0cb","ios":"levelo://app?vid=d3bb1dd4-4509-4a8a-a808-fed1cde6d0cb"},"vehicle_type_id":"4","last_reported":1771110798,"current_range_meters":19200,"station_id":"","pricing_plan_id":"cebpf4jnsgd1na2vs0mg"},{"bike_id":"f2b35d2f-f9c2-4b91-9306-e6c35500ac88","system_id":"levelo_inurba_marseille","lat":43.30383,"lon":5.42481,"is_reserved":false,"is_disabled":false,"rental_uris":{"android":"levelo://app?vid=f2b35d2f-f9c2-4b91-9306-e6c35500ac88","ios":"levelo://app?vid=f2b35d2f-f9c2-4b91-9306-e6c35500ac88"},"vehicle_type_id":"4","last_reported":1771110798,"current_range_meters":6400,"station_id":"ce4bhoh2rcd13ifvqh6g","pricing_plan_id":"cebpf4jnsgd1na2vs0mg"},{"bike_id":"5ef67a63-635b-44b6-aec9-966f703fca84","system_id":"levelo_inurba_marseille","lat":43.246656,"lon":5.381512,"is_reserved":false,"is_disabled":false,"rental_uris":{"android":"levelo://app?vid=5ef67a63-635b-44b6-aec9-966f703fca84","ios":"levelo://app?vid=5ef67a63-635b-44b6-aec9-966f703fca84"},"vehicle_type_id":"4","last_reported":1771110798,"current_range_meters":25200,"station_id":"ce4bhih2rcd13ifvqfr0","pricing_plan_id":"cebpf4jnsgd1na2vs0mg"},{"bike_id":"59f4a58a-abd3-4fe9-b641-e78fa30129d6","system_id":"levelo_inurba_marseille","lat":43.30482,"lon":5.40192,"is_reserved":false,"is_disabled":false,"rental_uris":{"android":"levelo://app?vid=59f4a58a-abd3-4fe9-b641-e78fa30129d6","ios":"levelo://app?vid=59f4a58a-abd3-4fe9-b641-e78fa30129d6"},"vehicle_type_id":"4","last_reported":1771110798,"current_range_meters":17200,"station_id":"","pricing_plan_id":"cebpf4jnsgd1na2vs0mg"},{"bike_id":"145e6984-28ea-4666-b90f-7d63cfee56d4","system_id":"levelo_inurba_marseille","lat":43.27497,"lon":5.42445,"is_reserved":false,"is_disabled":false,"rental_uris":{"android":"levelo://app?vid=145e6984-28ea-4666-b90f-7d63cfee56d4","ios":"levelo://app?vid=145e6984-28ea-4666-b90f-7d63cfee56d4"},"vehicle_type_id":"4","last_reported":1771110798,"current_range_meters":36000,"station_id":"ce4bhn92rcd13ifvqgrg","pricing_plan_id":"cebpf4jnsgd1na2vs0mg"},{"bike_id":"361472a9-140d-4e92-9e16-c96fbc664522","system_id":"levelo_inurba_marseille","lat":43.241705,"lon":5.364014,"is_reserved":false,"is_disabled":false,"rental_uris":{"android":"levelo://app?vid=361472a9-140d-4e92-9e16-c96fbc664522","ios":"levelo://app?vid=361472a9-140d-4e92-9e16-c96fbc664522"},"vehicle_type_id":"4","last_reported":1771110798,"current_range_meters":12000,"station_id":"cpo36qri1sfpv3e86is0","pricing_plan_id":"cebpf4jnsgd1na2vs0mg"},{"bike_id":"64df615d-ecd9-4b17-a4e3-61d304f85c40","system_id":"levelo_inurba_marseille","lat":43.309053,"lon":5.368434,"is_reserved":false,"is_disabled":false,"rental_uris":{"android":"levelo://app?vid=64df615d-ecd9-4b17-a4e3-61d304f85c40","ios":"levelo://app?vid=64df615d-ecd9-4b17-a4e3-61d304f85c40"},"vehicle_type_id":"4","last_reported":1771110798,"current_range_meters":22400,"station_id":"","pricing_plan_id":"cebpf4jnsgd1na2vs0mg"},{"bike_id":"847181f6-0876-4abe-8fdf-0eed5c53dc66","system_id":"levelo_inurba_marseille","lat":43.29003,"lon":5.35612,"is_reserved":false,"is_disabled":false,"rental_uris":{"android":"levelo://app?vid=847181f6-0876-4abe-8fdf-0eed5c53dc66","ios":"levelo://app?vid=847181f6-0876-4abe-8fdf-0eed5c53dc66"},"vehicle_type_id":"4","last_reported":1771110798,"current_range_meters":37600,"station_id":"ce4bhb92rcd13ifvqen0","pricing_plan_id":"cebpf4jnsgd1na2vs0mg"},{"bike_id":"49a391b4-4a87-46fa-a21c-cc41412de409","system_id":"levelo_inurba_marseille","lat":43.27065,"lon":5.38312,"is_reserved":false,"is_disabled":false,"rental_uris":{"android":"levelo://app?vid=49a391b4-4a87-46fa-a21c-cc41412de409","ios":"levelo://app?vid=49a391b4-4a87-46fa-a21c-cc41412de409"},"vehicle_type_id":"4","last_reported":1771110798,"current_range_meters":4400,"station_id":"st_d3n2fo6cfp8s73cte1j0","pricing_plan_id":"cebpf4jnsgd1na2vs0mg"},{"bike_id":"d7c5fdee-2602-490a-9d69-969ff4ce5ada","system_id":"levelo_inurba_marseille","lat":43.30777,"lon":5.37664,"is_reserved":false,"is_disabled":false,"rental_uris":{"android":"levelo://app?vid=d7c5fdee-2602-490a-9d69-969ff4ce5ada","ios":"levelo://app?vid=d7c5fdee-2602-490a-9d69-969ff4ce5ada"},"vehicle_type_id":"4","last_reported":1771110798,"current_range_meters":25200,"station_id":"ce4bgv92rcd13ifvqcq0","pricing_plan_id":"cebpf4jnsgd1na2vs0mg"},{"bike_id":"9eb348cd-00ff-4549-b490-b176db59ef62","system_id":"levelo_inurba_marseille","lat":43.30948,"lon":5.39002,"is_reserved":false,"is_disabled":false,"rental_uris":{"android":"levelo://app?vid=9eb348cd-00ff-4549-b490-b176db59ef62","ios":"levelo://app?vid=9eb348cd-00ff-4549-b490-b176db59ef62"},"vehicle_type_id":"4","last_reported":1771110798,"current_range_meters":28000,"station_id":"ce4bgup2rcd13ifvqco0","pricing_plan_id":"cebpf4jnsgd1na2vs0mg"},{"bike_id":"14e2d3fb-6c68-42f9-a053-741cc12027ec","system_id":"levelo_inurba_marseille","lat":43.24542,"lon":5.39526,"is_reserved":false,"is_disabled":true,"rental_uris":{"android":"levelo://app?vid=14e2d3fb-6c68-42f9-a053-741cc12027ec","ios":"levelo://app?vid=14e2d3fb-6c68-42f9-a053-741cc12027ec"},"vehicle_type_id":"4","last_reported":1771110798,"current_range_meters":9600,"station_id":"ce4bhlp2rcd13ifvqgjg","pricing_plan_id":"cebpf4jnsgd1na2vs0mg"},{"bike_id":"73543d5f-6f9c-459a-aefb-7a4e0887aaf6","system_id":"levelo_inurba_marseille","lat":43.26029,"lon":5.3752,"is_reserved":false,"is_disabled":false,"rental_uris":{"android":"levelo://app?vid=73543d5f-6f9c-459a-aefb-7a4e0887aaf6","ios":"levelo://app?vid=73543d5f-6f9c-459a-aefb-7a4e0887aaf6"},"vehicle_type_id":"4","last_reported":1771110798,"current_range_meters":24400,"station_id":"ce4bhgh2rcd13ifvqfa0","pricing_plan_id":"cebpf4jnsgd1na2vs0mg"},{"bike_id":"b3c53512-ce8b-45c6-8fec-85f9905a50ea","system_id":"levelo_inurba_marseille","lat":43.29164,"lon":5.37147,"is_reserved":false,"is_disabled":false,"rental_uris":{"android":"levelo://app?vid=b3c53512-ce8b-45c6-8fec-85f9905a50ea","ios":"levelo://app?vid=b3c53512-ce8b-45c6-8fec-85f9905a50ea"},"vehicle_type_id":"4","last_reported":1771110798,"current_range_meters":34800,"station_id":"ce4bha92rcd13ifvqeh0","pricing_plan_id":"cebpf4jnsgd1na2vs0mg"},{"bike_id":"ea242731-bb24-458a-9022-43fb4748f728","system_id":"levelo_inurba_marseille","lat":43.241659,"lon":5.363969,"is_reserved":false,"is_disabled":false,"rental_uris":{"android":"levelo://app?vid=ea242731-bb24-458a-9022-43fb4748f728","ios":"levelo://app?vid=ea242731-bb24-458a-9022-43fb4748f728"},"vehicle_type_id":"4","last_reported":1771110798,"current_range_meters":13600,"station_id":"cpo36qri1sfpv3e86is0","pricing_plan_id":"cebpf4jnsgd1na2vs0mg"},{"bike_id":"91551ca7-df3c-46ae-b740-97d8aad399d4","system_id":"levelo_inurba_marseille","lat":43.26057,"lon":5.3939,"is_reserved":false,"is_disabled":false,"rental_uris":{"android":"levelo://app?vid=91551ca7-df3c-46ae-b740-97d8aad399d4","ios":"levelo://app?vid=91551ca7-df3c-46ae-b740-97d8aad399d4"},"vehicle_type_id":"4","last_reported":1771110798,"current_range_meters":38000,"station_id":"ce4bhh92rcd13ifvqfj0","pricing_plan_id":"cebpf4jnsgd1na2vs0mg"},{"bike_id":"e723a4fd-e349-4d5f-bf97-7d0c070b4f89","system_id":"levelo_inurba_marseille","lat":43.255123,"lon":5.376484,"is_reserved":false,"is_disabled":false,"rental_uris":{"android":"levelo://app?vid=e723a4fd-e349-4d5f-bf97-7d0c070b4f89","ios":"levelo://app?vid=e723a4fd-e349-4d5f-bf97-7d0c070b4f89"},"vehicle_type_id":"4","last_reported":1771110798,"current_range_meters":38000,"station_id":"ce4bhh12rcd13ifvqff0","pricing_plan_id":"cebpf4jnsgd1na2vs0mg"},{"bike_id":"8bd0a92f-17cd-4bc9-99eb-6b0f4346de24","system_id":"levelo_inurba_marseille","lat":43.23974,"lon":5.36629,"is_reserved":false,"is_disabled":false,"rental_uris":{"android":"levelo://app?vid=8bd0a92f-17cd-4bc9-99eb-6b0f4346de24","ios":"levelo://app?vid=8bd0a92f-17cd-4bc9-99eb-6b0f4346de24"},"vehicle_type_id":"4","last_reported":1771110798,"current_range_meters":27200,"station_id":"ce4bhi12rcd13ifvqfp0","pricing_plan_id":"cebpf4jnsgd1na2vs0mg"},{"bike_id":"cc9be124-54a5-4927-a146-e3a08ef99a81","system_id":"levelo_inurba_marseille","lat":43.304598,"lon":5.37902,"is_reserved":false,"is_disabled":false,"rental_uris":{"android":"levelo://app?vid=cc9be124-54a5-4927-a146-e3a08ef99a81","ios":"levelo://app?vid=cc9be124-54a5-4927-a146-e3a08ef99a81"},"vehicle_type_id":"4","last_reported":1771110798,"current_range_meters":7200,"station_id":"ce4bgup2rcd13ifvqcn0","pricing_plan_id":"cebpf4jnsgd1na2vs0mg"},{"bike_id":"9f1e45d0-8af6-4136-8554-bbdf416cd8e5","system_id":"levelo_inurba_marseille","lat":43.30886,"lon":5.39654,"is_reserved":false,"is_disabled":false,"rental_uris":{"android":"levelo://app?vid=9f1e45d0-8af6-4136-8554-bbdf416cd8e5","ios":"levelo://app?vid=9f1e45d0-8af6-4136-8554-bbdf416cd8e5"},"vehicle_type_id":"4","last_reported":1771110798,"current_range_meters":14000,"station_id":"ce4bh012rcd13ifvqcv0","pricing_plan_id":"cebpf4jnsgd1na2vs0mg"},{"bike_id":"e5866f9c-7f01-4f68-826c-5019be0d6644","system_id":"levelo_inurba_marseille","lat":43.2871,"lon":5.35501,"is_reserved":false,"is_disabled":false,"rental_uris":{"android":"levelo://app?vid=e5866f9c-7f01-4f68-826c-5019be0d6644","ios":"levelo://app?vid=e5866f9c-7f01-4f68-826c-5019be0d6644"},"vehicle_type_id":"4","last_reported":1771110798,"current_range_meters":9200,"station_id":"","pricing_plan_id":"cebpf4jnsgd1na2vs0mg"},{"bike_id":"16b683d9-ea9a-466c-bb33-1a19c77810a8","system_id":"levelo_inurba_marseille","lat":43.26946,"lon":5.38925,"is_reserved":false,"is_disabled":false,"rental_uris":{"android":"levelo://app?vid=16b683d9-ea9a-466c-bb33-1a19c77810a8","ios":"levelo://app?vid=16b683d9-ea9a-466c-bb33-1a19c77810a8"},"vehicle_type_id":"4","last_reported":1771110798,"current_range_meters":18800,"station_id":"ce4bhhh2rcd13ifvqfl0","pricing_plan_id":"cebpf4jnsgd1na2vs0mg"},{"bike_id":"934caa29-0161-4971-84cb-62c254c7612b","system_id":"levelo_inurba_marseille","lat":43.28079,"lon":5.37855,"is_reserved":false,"is_disabled":false,"rental_uris":{"android":"levelo://app?vid=934caa29-0161-4971-84cb-62c254c7612b","ios":"levelo://app?vid=934caa29-0161-4971-84cb-62c254c7612b"},"vehicle_type_id":"4","last_reported":1771110798,"current_range_meters":30400,"station_id":"ce4bha12rcd13ifvqee0","pricing_plan_id":"cebpf4jnsgd1na2vs0mg"},{"bike_id":"333ac3f2-d598-4322-8aaf-ae40241095fa","system_id":"levelo_inurba_marseille","lat":43.2862,"lon":5.35098,"is_reserved":false,"is_disabled":false,"rental_uris":{"android":"levelo://app?vid=333ac3f2-d598-4322-8aaf-ae40241095fa","ios":"levelo://app?vid=333ac3f2-d598-4322-8aaf-ae40241095fa"},"vehicle_type_id":"4","last_reported":1771110798,"current_range_meters":20000,"station_id":"ce4bhch2rcd13ifvqeug","pricing_plan_id":"cebpf4jnsgd1na2vs0mg"},{"bike_id":"10c2514e-3e10-48b8-b25f-5593fed86aaf","system_id":"levelo_inurba_marseille","lat":43.28616,"lon":5.35106,"is_reserved":false,"is_disabled":false,"rental_uris":{"android":"levelo://app?vid=10c2514e-3e10-48b8-b25f-5593fed86aaf","ios":"levelo://app?vid=10c2514e-3e10-48b8-b25f-5593fed86aaf"},"vehicle_type_id":"4","last_reported":1771110798,"current_range_meters":28400,"station_id":"ce4bhch2rcd13ifvqeug","pricing_plan_id":"cebpf4jnsgd1na2vs0mg"},{"bike_id":"77d97ba8-97db-4bc9-8294-a1d06adce358","system_id":"levelo_inurba_marseille","lat":43.27469,"lon":5.42388,"is_reserved":false,"is_disabled":false,"rental_uris":{"android":"levelo://app?vid=77d97ba8-97db-4bc9-8294-a1d06adce358","ios":"levelo://app?vid=77d97ba8-97db-4bc9-8294-a1d06adce358"},"vehicle_type_id":"4","last_reported":1771110798,"current_range_meters":24000,"station_id":"","pricing_plan_id":"cebpf4jnsgd1na2vs0mg"},{"bike_id":"2e890998-6b11-4d43-89b1-bf06a6d503ec","system_id":"levelo_inurba_marseille","lat":43.25123,"lon":5.40327,"is_reserved":false,"is_disabled":false,"rental_uris":{"android":"levelo://app?vid=2e890998-6b11-4d43-89b1-bf06a6d503ec","ios":"levelo://app?vid=2e890998-6b11-4d43-89b1-bf06a6d503ec"},"vehicle_type_id":"4","last_reported":1771110798,"current_range_meters":39200,"station_id":"ce4bhlh2rcd13ifvqgig","pricing_plan_id":"cebpf4jnsgd1na2vs0mg"},{"bike_id":"a75398a4-d0b6-4900-9674-fe78395921f4","system_id":"levelo_inurba_marseille","lat":43.30572,"lon":5.36707,"is_reserved":false,"is_disabled":false,"rental_uris":{"android":"levelo://app?vid=a75398a4-d0b6-4900-9674-fe78395921f4","ios":"levelo://app?vid=a75398a4-d0b6-4900-9674-fe78395921f4"},"vehicle_type_id":"4","last_reported":1771110798,"current_range_meters":35600,"station_id":"ce4bgrp2rcd13ifvqc9g","pricing_plan_id":"cebpf4jnsgd1na2vs0mg"},{"bike_id":"a77345a9-e5b0-4403-ada7-987def1f512a","system_id":"levelo_inurba_marseille","lat":43.312041,"lon":5.368552,"is_reserved":false,"is_disabled":false,"rental_uris":{"android":"levelo://app?vid=a77345a9-e5b0-4403-ada7-987def1f512a","ios":"levelo://app?vid=a77345a9-e5b0-4403-ada7-987def1f512a"},"vehicle_type_id":"4","last_reported":1771110798,"current_range_meters":32000,"station_id":"ce4bgl92rcd13ifvqbq0","pricing_plan_id":"cebpf4jnsgd1na2vs0mg"},{"bike_id":"8b0a29bc-236a-41ce-99d2-63a4c94bcd49","system_id":"levelo_inurba_marseille","lat":43.28352,"lon":5.38638,"is_reserved":false,"is_disabled":false,"rental_uris":{"android":"levelo://app?vid=8b0a29bc-236a-41ce-99d2-63a4c94bcd49","ios":"levelo://app?vid=8b0a29bc-236a-41ce-99d2-63a4c94bcd49"},"vehicle_type_id":"4","last_reported":1771110798,"current_range_meters":30800,"station_id":"ce4bh492rcd13ifvqdvg","pricing_plan_id":"cebpf4jnsgd1na2vs0mg"},{"bike_id":"899ca28e-3727-433f-b491-eafb0d972b92","system_id":"levelo_inurba_marseille","lat":43.30153,"lon":5.38087,"is_reserved":false,"is_disabled":false,"rental_uris":{"android":"levelo://app?vid=899ca28e-3727-433f-b491-eafb0d972b92","ios":"levelo://app?vid=899ca28e-3727-433f-b491-eafb0d972b92"},"vehicle_type_id":"4","last_reported":1771110798,"current_range_meters":26800,"station_id":"ce4bgjp2rcd13ifvqbh0","pricing_plan_id":"cebpf4jnsgd1na2vs0mg"},{"bike_id":"cf6ef408-8a1a-4303-bd6d-466ea0d58ae4","system_id":"levelo_inurba_marseille","lat":43.211867,"lon":5.350824,"is_reserved":false,"is_disabled":false,"rental_uris":{"android":"levelo://app?vid=cf6ef408-8a1a-4303-bd6d-466ea0d58ae4","ios":"levelo://app?vid=cf6ef408-8a1a-4303-bd6d-466ea0d58ae4"},"vehicle_type_id":"4","last_reported":1771110798,"current_range_meters":6400,"station_id":"st_cvj6sg6p6f1abm77japg","pricing_plan_id":"cebpf4jnsgd1na2vs0mg"},{"bike_id":"8adce05a-7545-4733-b9a9-d2cc52d076ff","system_id":"levelo_inurba_marseille","lat":43.31763,"lon":5.39017,"is_reserved":false,"is_disabled":false,"rental_uris":{"android":"levelo://app?vid=8adce05a-7545-4733-b9a9-d2cc52d076ff","ios":"levelo://app?vid=8adce05a-7545-4733-b9a9-d2cc52d076ff"},"vehicle_type_id":"4","last_reported":1771110798,"current_range_meters":32400,"station_id":"ce4bhqp2rcd13ifvqhng","pricing_plan_id":"cebpf4jnsgd1na2vs0mg"},{"bike_id":"f701ba25-3eaa-466f-9865-720a85c70fd4","system_id":"levelo_inurba_marseille","lat":43.30588,"lon":5.39361,"is_reserved":false,"is_disabled":false,"rental_uris":{"android":"levelo://app?vid=f701ba25-3eaa-466f-9865-720a85c70fd4","ios":"levelo://app?vid=f701ba25-3eaa-466f-9865-720a85c70fd4"},"vehicle_type_id":"4","last_reported":1771110798,"current_range_meters":40000,"station_id":"ce4bh0p2rcd13ifvqd80","pricing_plan_id":"cebpf4jnsgd1na2vs0mg"},{"bike_id":"a7130ffe-4d61-43e7-a861-09cec3ea2729","system_id":"levelo_inurba_marseille","lat":43.26808,"lon":5.40281,"is_reserved":false,"is_disabled":false,"rental_uris":{"android":"levelo://app?vid=a7130ffe-4d61-43e7-a861-09cec3ea2729","ios":"levelo://app?vid=a7130ffe-4d61-43e7-a861-09cec3ea2729"},"vehicle_type_id":"4","last_reported":1771110798,"current_range_meters":20000,"station_id":"ce501612rcd8frsf0b60","pricing_plan_id":"cebpf4jnsgd1na2vs0mg"},{"bike_id":"43d02f52-40bd-4f03-925e-b51c0244b8a1","system_id":"levelo_inurba_marseille","lat":43.29909,"lon":5.38142,"is_reserved":false,"is_disabled":false,"rental_uris":{"android":"levelo://app?vid=43d02f52-40bd-4f03-925e-b51c0244b8a1","ios":"levelo://app?vid=43d02f52-40bd-4f03-925e-b51c0244b8a1"},"vehicle_type_id":"4","last_reported":1771110798,"current_range_meters":36400,"station_id":"ce4bgj12rcd13ifvqbc0","pricing_plan_id":"cebpf4jnsgd1na2vs0mg"},{"bike_id":"766ba40c-080a-46d0-a08f-660e07520b61","system_id":"levelo_inurba_marseille","lat":43.29272,"lon":5.36835,"is_reserved":false,"is_disabled":false,"rental_uris":{"android":"levelo://app?vid=766ba40c-080a-46d0-a08f-660e07520b61","ios":"levelo://app?vid=766ba40c-080a-46d0-a08f-660e07520b61"},"vehicle_type_id":"4","last_reported":1771110798,"current_range_meters":39200,"station_id":"ce4bhbp2rcd13ifvqesg","pricing_plan_id":"cebpf4jnsgd1na2vs0mg"},{"bike_id":"057c0106-9231-4a98-a8ee-326750bf26a3","system_id":"levelo_inurba_marseille","lat":43.2536,"lon":5.42155,"is_reserved":false,"is_disabled":false,"rental_uris":{"android":"levelo://app?vid=057c0106-9231-4a98-a8ee-326750bf26a3","ios":"levelo://app?vid=057c0106-9231-4a98-a8ee-326750bf26a3"},"vehicle_type_id":"4","last_reported":1771110798,"current_range_meters":16000,"station_id":"st_d2m65c5bi1j21697t3ng","pricing_plan_id":"cebpf4jnsgd1na2vs0mg"},{"bike_id":"924d7c55-9e75-41cb-9a3e-b7f57a435ae8","system_id":"levelo_inurba_marseille","lat":43.26345,"lon":5.3961,"is_reserved":false,"is_disabled":false,"rental_uris":{"android":"levelo://app?vid=924d7c55-9e75-41cb-9a3e-b7f57a435ae8","ios":"levelo://app?vid=924d7c55-9e75-41cb-9a3e-b7f57a435ae8"},"vehicle_type_id":"4","last_reported":1771110798,"current_range_meters":8400,"station_id":"","pricing_plan_id":"cebpf4jnsgd1na2vs0mg"},{"bike_id":"094ecace-aeec-47a9-b93d-5574ce157e27","system_id":"levelo_inurba_marseille","lat":43.26027,"lon":5.37546,"is_reserved":false,"is_disabled":false,"rental_uris":{"android":"levelo://app?vid=094ecace-aeec-47a9-b93d-5574ce157e27","ios":"levelo://app?vid=094ecace-aeec-47a9-b93d-5574ce157e27"},"vehicle_type_id":"4","last_reported":1771110798,"current_range_meters":16400,"station_id":"ce4bhgh2rcd13ifvqfa0","pricing_plan_id":"cebpf4jnsgd1na2vs0mg"},{"bike_id":"5097b477-7ecc-42ee-8c40-d0062ef0833b","system_id":"levelo_inurba_marseille","lat":43.29903,"lon":5.37472,"is_reserved":false,"is_disabled":false,"rental_uris":{"android":"levelo://app?vid=5097b477-7ecc-42ee-8c40-d0062ef0833b","ios":"levelo://app?vid=5097b477-7ecc-42ee-8c40-d0062ef0833b"},"vehicle_type_id":"4","last_reported":1771110798,"current_range_meters":40000,"station_id":"ce4bgjh2rcd13ifvqbg0","pricing_plan_id":"cebpf4jnsgd1na2vs0mg"},{"bike_id":"91dd6860-d8b6-48df-9afd-382ab92b6bc0","system_id":"levelo_inurba_marseille","lat":43.289195,"lon":5.384034,"is_reserved":false,"is_disabled":true,"rental_uris":{"android":"levelo://app?vid=91dd6860-d8b6-48df-9afd-382ab92b6bc0","ios":"levelo://app?vid=91dd6860-d8b6-48df-9afd-382ab92b6bc0"},"vehicle_type_id":"4","last_reported":1771110798,"current_range_meters":32000,"station_id":"ce4bh612rcd13ifvqe6g","pricing_plan_id":"cebpf4jnsgd1na2vs0mg"},{"bike_id":"75e66a17-6430-46d3-a143-8d18968c8731","system_id":"levelo_inurba_marseille","lat":43.28607,"lon":5.35119,"is_reserved":false,"is_disabled":false,"rental_uris":{"android":"levelo://app?vid=75e66a17-6430-46d3-a143-8d18968c8731","ios":"levelo://app?vid=75e66a17-6430-46d3-a143-8d18968c8731"},"vehicle_type_id":"4","last_reported":1771110798,"current_range_meters":8800,"station_id":"ce4bhch2rcd13ifvqeug","pricing_plan_id":"cebpf4jnsgd1na2vs0mg"},{"bike_id":"4ef3fea8-855b-4ccb-be6e-2c8185c4a670","system_id":"levelo_inurba_marseille","lat":43.33605,"lon":5.41032,"is_reserved":false,"is_disabled":false,"rental_uris":{"android":"levelo://app?vid=4ef3fea8-855b-4ccb-be6e-2c8185c4a670","ios":"levelo://app?vid=4ef3fea8-855b-4ccb-be6e-2c8185c4a670"},"vehicle_type_id":"4","last_reported":1771110798,"current_range_meters":4400,"station_id":"ce4bhqh2rcd13ifvqhmg","pricing_plan_id":"cebpf4jnsgd1na2vs0mg"},{"bike_id":"524b8461-d679-46b1-a83d-b4bfe7dba6c3","system_id":"levelo_inurba_marseille","lat":43.2175,"lon":5.34597,"is_reserved":false,"is_disabled":false,"rental_uris":{"android":"levelo://app?vid=524b8461-d679-46b1-a83d-b4bfe7dba6c3","ios":"levelo://app?vid=524b8461-d679-46b1-a83d-b4bfe7dba6c3"},"vehicle_type_id":"4","last_reported":1771110798,"current_range_meters":6000,"station_id":"st_cvj6r9ubvosntc0bgbag","pricing_plan_id":"cebpf4jnsgd1na2vs0mg"},{"bike_id":"53bb3863-680c-45ee-b078-75f6bac40aa9","system_id":"levelo_inurba_marseille","lat":43.3263,"lon":5.40977,"is_reserved":false,"is_disabled":false,"rental_uris":{"android":"levelo://app?vid=53bb3863-680c-45ee-b078-75f6bac40aa9","ios":"levelo://app?vid=53bb3863-680c-45ee-b078-75f6bac40aa9"},"vehicle_type_id":"4","last_reported":1771110798,"current_range_meters":38400,"station_id":"ce4bhpp2rcd13ifvqhgg","pricing_plan_id":"cebpf4jnsgd1na2vs0mg"},{"bike_id":"80098677-e509-453f-9fc6-0838a503fcfa","system_id":"levelo_inurba_marseille","lat":43.305472,"lon":5.365373,"is_reserved":false,"is_disabled":false,"rental_uris":{"android":"levelo://app?vid=80098677-e509-453f-9fc6-0838a503fcfa","ios":"levelo://app?vid=80098677-e509-453f-9fc6-0838a503fcfa"},"vehicle_type_id":"4","last_reported":1771110798,"current_range_meters":20800,"station_id":"ce4bgs12rcd13ifvqcag","pricing_plan_id":"cebpf4jnsgd1na2vs0mg"},{"bike_id":"b2793bda-e545-4722-bf36-91387796c790","system_id":"levelo_inurba_marseille","lat":43.25513,"lon":5.37659,"is_reserved":false,"is_disabled":false,"rental_uris":{"android":"levelo://app?vid=b2793bda-e545-4722-bf36-91387796c790","ios":"levelo://app?vid=b2793bda-e545-4722-bf36-91387796c790"},"vehicle_type_id":"4","last_reported":1771110798,"current_range_meters":38800,"station_id":"ce4bhh12rcd13ifvqff0","pricing_plan_id":"cebpf4jnsgd1na2vs0mg"},{"bike_id":"014613de-69aa-4aca-9291-67750cce2e69","system_id":"levelo_inurba_marseille","lat":43.28487,"lon":5.48388,"is_reserved":false,"is_disabled":false,"rental_uris":{"android":"levelo://app?vid=014613de-69aa-4aca-9291-67750cce2e69","ios":"levelo://app?vid=014613de-69aa-4aca-9291-67750cce2e69"},"vehicle_type_id":"4","last_reported":1771110798,"current_range_meters":38800,"station_id":"st_d3svhcjqgbts73a3dn0g","pricing_plan_id":"cebpf4jnsgd1na2vs0mg"},{"bike_id":"ceafdd97-9709-4666-acdc-c6b8a34aace5","system_id":"levelo_inurba_marseille","lat":43.27199,"lon":5.40965,"is_reserved":false,"is_disabled":true,"rental_uris":{"android":"levelo://app?vid=ceafdd97-9709-4666-acdc-c6b8a34aace5","ios":"levelo://app?vid=ceafdd97-9709-4666-acdc-c6b8a34aace5"},"vehicle_type_id":"4","last_reported":1771110798,"current_range_meters":4000,"station_id":"ce4bhl12rcd13ifvqgf0","pricing_plan_id":"cebpf4jnsgd1na2vs0mg"},{"bike_id":"7f51aea8-ca75-4e60-afb9-d43ee3a8536e","system_id":"levelo_inurba_marseille","lat":43.31281,"lon":5.40157,"is_reserved":false,"is_disabled":false,"rental_uris":{"android":"levelo://app?vid=7f51aea8-ca75-4e60-afb9-d43ee3a8536e","ios":"levelo://app?vid=7f51aea8-ca75-4e60-afb9-d43ee3a8536e"},"vehicle_type_id":"4","last_reported":1771110798,"current_range_meters":21600,"station_id":"ce4bh092rcd13ifvqd30","pricing_plan_id":"cebpf4jnsgd1na2vs0mg"},{"bike_id":"9ed7300e-a4d4-493c-95a2-a0b857cf6348","system_id":"levelo_inurba_marseille","lat":43.22549,"lon":5.41654,"is_reserved":false,"is_disabled":false,"rental_uris":{"android":"levelo://app?vid=9ed7300e-a4d4-493c-95a2-a0b857cf6348","ios":"levelo://app?vid=9ed7300e-a4d4-493c-95a2-a0b857cf6348"},"vehicle_type_id":"4","last_reported":1771110798,"current_range_meters":17200,"station_id":"st_d2o4gvlbi1j2169b742g","pricing_plan_id":"cebpf4jnsgd1na2vs0mg"},{"bike_id":"b8d0dbff-fb51-43c9-8f40-12fc94ab2020","system_id":"levelo_inurba_marseille","lat":43.284249,"lon":5.349848,"is_reserved":false,"is_disabled":false,"rental_uris":{"android":"levelo://app?vid=b8d0dbff-fb51-43c9-8f40-12fc94ab2020","ios":"levelo://app?vid=b8d0dbff-fb51-43c9-8f40-12fc94ab2020"},"vehicle_type_id":"4","last_reported":1771110798,"current_range_meters":18800,"station_id":"ce4bhbh2rcd13ifvqepg","pricing_plan_id":"cebpf4jnsgd1na2vs0mg"},{"bike_id":"484c11c0-30ee-4bb6-83c7-f3256dfcfb63","system_id":"levelo_inurba_marseille","lat":43.31291,"lon":5.36867,"is_reserved":false,"is_disabled":false,"rental_uris":{"android":"levelo://app?vid=484c11c0-30ee-4bb6-83c7-f3256dfcfb63","ios":"levelo://app?vid=484c11c0-30ee-4bb6-83c7-f3256dfcfb63"},"vehicle_type_id":"4","last_reported":1771110798,"current_range_meters":39200,"station_id":"","pricing_plan_id":"cebpf4jnsgd1na2vs0mg"},{"bike_id":"188a925b-967f-485e-b032-a21ca739ec13","system_id":"levelo_inurba_marseille","lat":43.25872,"lon":5.39874,"is_reserved":false,"is_disabled":false,"rental_uris":{"android":"levelo://app?vid=188a925b-967f-485e-b032-a21ca739ec13","ios":"levelo://app?vid=188a925b-967f-485e-b032-a21ca739ec13"},"vehicle_type_id":"4","last_reported":1771110798,"current_range_meters":39200,"station_id":"ce4bhl92rcd13ifvqghg","pricing_plan_id":"cebpf4jnsgd1na2vs0mg"},{"bike_id":"c9509313-6232-40d4-9c17-6bed5ef38be1","system_id":"levelo_inurba_marseille","lat":43.30306,"lon":5.36886,"is_reserved":false,"is_disabled":false,"rental_uris":{"android":"levelo://app?vid=c9509313-6232-40d4-9c17-6bed5ef38be1","ios":"levelo://app?vid=c9509313-6232-40d4-9c17-6bed5ef38be1"},"vehicle_type_id":"4","last_reported":1771110798,"current_range_meters":35600,"station_id":"ce4bgqh2rcd13ifvqc5g","pricing_plan_id":"cebpf4jnsgd1na2vs0mg"},{"bike_id":"99f08690-585a-47f4-b2a1-76d9c33e9f98","system_id":"levelo_inurba_marseille","lat":43.3102,"lon":5.37177,"is_reserved":false,"is_disabled":false,"rental_uris":{"android":"levelo://app?vid=99f08690-585a-47f4-b2a1-76d9c33e9f98","ios":"levelo://app?vid=99f08690-585a-47f4-b2a1-76d9c33e9f98"},"vehicle_type_id":"4","last_reported":1771110798,"current_range_meters":22000,"station_id":"st_d4kl2rp97mjs73e7tdfg","pricing_plan_id":"cebpf4jnsgd1na2vs0mg"},{"bike_id":"61eb7f07-1c63-4179-84d2-2a4e738d2c5a","system_id":"levelo_inurba_marseille","lat":43.25258,"lon":5.42414,"is_reserved":false,"is_disabled":false,"rental_uris":{"android":"levelo://app?vid=61eb7f07-1c63-4179-84d2-2a4e738d2c5a","ios":"levelo://app?vid=61eb7f07-1c63-4179-84d2-2a4e738d2c5a"},"vehicle_type_id":"4","last_reported":1771110798,"current_range_meters":16000,"station_id":"","pricing_plan_id":"cebpf4jnsgd1na2vs0mg"},{"bike_id":"034224b6-2279-4cbc-9caa-f9a79eebd08e","system_id":"levelo_inurba_marseille","lat":43.31207,"lon":5.36896,"is_reserved":false,"is_disabled":false,"rental_uris":{"android":"levelo://app?vid=034224b6-2279-4cbc-9caa-f9a79eebd08e","ios":"levelo://app?vid=034224b6-2279-4cbc-9caa-f9a79eebd08e"},"vehicle_type_id":"4","last_reported":1771110798,"current_range_meters":40000,"station_id":"ce4bgl92rcd13ifvqbq0","pricing_plan_id":"cebpf4jnsgd1na2vs0mg"},{"bike_id":"136dbaca-c69a-4575-b2ac-4a027c33a56f","system_id":"levelo_inurba_marseille","lat":43.23199,"lon":5.39971,"is_reserved":false,"is_disabled":false,"rental_uris":{"android":"levelo://app?vid=136dbaca-c69a-4575-b2ac-4a027c33a56f","ios":"levelo://app?vid=136dbaca-c69a-4575-b2ac-4a027c33a56f"},"vehicle_type_id":"4","last_reported":1771110798,"current_range_meters":4400,"station_id":"ce4bhn12rcd13ifvqgqg","pricing_plan_id":"cebpf4jnsgd1na2vs0mg"},{"bike_id":"9302394c-c606-4dfa-9b4b-2dcb8efad8f0","system_id":"levelo_inurba_marseille","lat":43.29307,"lon":5.37175,"is_reserved":false,"is_disabled":false,"rental_uris":{"android":"levelo://app?vid=9302394c-c606-4dfa-9b4b-2dcb8efad8f0","ios":"levelo://app?vid=9302394c-c606-4dfa-9b4b-2dcb8efad8f0"},"vehicle_type_id":"4","last_reported":1771110798,"current_range_meters":28400,"station_id":"ce4bgh92rcd13ifvqb40","pricing_plan_id":"cebpf4jnsgd1na2vs0mg"},{"bike_id":"b010c6c3-6e4a-43ec-b344-ff56111dfe6e","system_id":"levelo_inurba_marseille","lat":43.24666,"lon":5.38159,"is_reserved":false,"is_disabled":false,"rental_uris":{"android":"levelo://app?vid=b010c6c3-6e4a-43ec-b344-ff56111dfe6e","ios":"levelo://app?vid=b010c6c3-6e4a-43ec-b344-ff56111dfe6e"},"vehicle_type_id":"4","last_reported":1771110798,"current_range_meters":23200,"station_id":"ce4bhih2rcd13ifvqfr0","pricing_plan_id":"cebpf4jnsgd1na2vs0mg"},{"bike_id":"7cb9d4bb-817c-477e-b821-2482d90489fa","system_id":"levelo_inurba_marseille","lat":43.33011,"lon":5.39041,"is_reserved":false,"is_disabled":false,"rental_uris":{"android":"levelo://app?vid=7cb9d4bb-817c-477e-b821-2482d90489fa","ios":"levelo://app?vid=7cb9d4bb-817c-477e-b821-2482d90489fa"},"vehicle_type_id":"4","last_reported":1771110798,"current_range_meters":12400,"station_id":"ce4bhr92rcd13ifvqhrg","pricing_plan_id":"cebpf4jnsgd1na2vs0mg"},{"bike_id":"ffe3fbd4-6746-48bb-b0b5-fa7f3d6ff56c","system_id":"levelo_inurba_marseille","lat":43.31038,"lon":5.37163,"is_reserved":false,"is_disabled":false,"rental_uris":{"android":"levelo://app?vid=ffe3fbd4-6746-48bb-b0b5-fa7f3d6ff56c","ios":"levelo://app?vid=ffe3fbd4-6746-48bb-b0b5-fa7f3d6ff56c"},"vehicle_type_id":"4","last_reported":1771110798,"current_range_meters":14000,"station_id":"st_d4kl2rp97mjs73e7tdfg","pricing_plan_id":"cebpf4jnsgd1na2vs0mg"},{"bike_id":"f4f4c39c-d293-4a83-92fd-f36bbc65fe4a","system_id":"levelo_inurba_marseille","lat":43.28275,"lon":5.35091,"is_reserved":false,"is_disabled":true,"rental_uris":{"android":"levelo://app?vid=f4f4c39c-d293-4a83-92fd-f36bbc65fe4a","ios":"levelo://app?vid=f4f4c39c-d293-4a83-92fd-f36bbc65fe4a"},"vehicle_type_id":"4","last_reported":1771110798,"current_range_meters":37600,"station_id":"ce4bhbp2rcd13ifvqerg","pricing_plan_id":"cebpf4jnsgd1na2vs0mg"},{"bike_id":"bceefbcb-6e12-4584-ae1a-2e6369cea0a2","system_id":"levelo_inurba_marseille","lat":43.31857,"lon":5.38424,"is_reserved":false,"is_disabled":false,"rental_uris":{"android":"levelo://app?vid=bceefbcb-6e12-4584-ae1a-2e6369cea0a2","ios":"levelo://app?vid=bceefbcb-6e12-4584-ae1a-2e6369cea0a2"},"vehicle_type_id":"4","last_reported":1771110798,"current_range_meters":26000,"station_id":"","pricing_plan_id":"cebpf4jnsgd1na2vs0mg"},{"bike_id":"2fadaefb-d7be-40bc-b8c2-dfba0bb4802c","system_id":"levelo_inurba_marseille","lat":43.30233,"lon":5.40066,"is_reserved":false,"is_disabled":true,"rental_uris":{"android":"levelo://app?vid=2fadaefb-d7be-40bc-b8c2-dfba0bb4802c","ios":"levelo://app?vid=2fadaefb-d7be-40bc-b8c2-dfba0bb4802c"},"vehicle_type_id":"4","last_reported":1771110798,"current_range_meters":36800,"station_id":"ce4bgvh2rcd13ifvqcs0","pricing_plan_id":"cebpf4jnsgd1na2vs0mg"},{"bike_id":"17a13aba-6c04-45ad-9e00-bff2a4d6d4d0","system_id":"levelo_inurba_marseille","lat":43.31728,"lon":5.38994,"is_reserved":false,"is_disabled":false,"rental_uris":{"android":"levelo://app?vid=17a13aba-6c04-45ad-9e00-bff2a4d6d4d0","ios":"levelo://app?vid=17a13aba-6c04-45ad-9e00-bff2a4d6d4d0"},"vehicle_type_id":"4","last_reported":1771110798,"current_range_meters":40000,"station_id":"ce4bhqp2rcd13ifvqhng","pricing_plan_id":"cebpf4jnsgd1na2vs0mg"},{"bike_id":"362bf92e-b2dc-420e-aae8-2c8ad88723f1","system_id":"levelo_inurba_marseille","lat":43.309045,"lon":5.368412,"is_reserved":false,"is_disabled":false,"rental_uris":{"android":"levelo://app?vid=362bf92e-b2dc-420e-aae8-2c8ad88723f1","ios":"levelo://app?vid=362bf92e-b2dc-420e-aae8-2c8ad88723f1"},"vehicle_type_id":"4","last_reported":1771110798,"current_range_meters":39200,"station_id":"ce4bgn92rcd13ifvqbvg","pricing_plan_id":"cebpf4jnsgd1na2vs0mg"},{"bike_id":"2aa05e06-5366-4cfd-80c1-a6e66487250b","system_id":"levelo_inurba_marseille","lat":43.284971,"lon":5.483972,"is_reserved":false,"is_disabled":false,"rental_uris":{"android":"levelo://app?vid=2aa05e06-5366-4cfd-80c1-a6e66487250b","ios":"levelo://app?vid=2aa05e06-5366-4cfd-80c1-a6e66487250b"},"vehicle_type_id":"4","last_reported":1771110798,"current_range_meters":26800,"station_id":"st_d3svhcjqgbts73a3dn0g","pricing_plan_id":"cebpf4jnsgd1na2vs0mg"},{"bike_id":"c4e3ac5d-17d5-49c3-b6d1-991deb2d2d9f","system_id":"levelo_inurba_marseille","lat":43.29014,"lon":5.38635,"is_reserved":false,"is_disabled":false,"rental_uris":{"android":"levelo://app?vid=c4e3ac5d-17d5-49c3-b6d1-991deb2d2d9f","ios":"levelo://app?vid=c4e3ac5d-17d5-49c3-b6d1-991deb2d2d9f"},"vehicle_type_id":"4","last_reported":1771110798,"current_range_meters":4800,"station_id":"ce4bh4p2rcd13ifvqe0g","pricing_plan_id":"cebpf4jnsgd1na2vs0mg"},{"bike_id":"963b299c-f0ed-46b7-9014-29e17db68b1b","system_id":"levelo_inurba_marseille","lat":43.26709,"lon":5.3827,"is_reserved":false,"is_disabled":false,"rental_uris":{"android":"levelo://app?vid=963b299c-f0ed-46b7-9014-29e17db68b1b","ios":"levelo://app?vid=963b299c-f0ed-46b7-9014-29e17db68b1b"},"vehicle_type_id":"4","last_reported":1771110798,"current_range_meters":16800,"station_id":"ce4bhg92rcd13ifvqf90","pricing_plan_id":"cebpf4jnsgd1na2vs0mg"},{"bike_id":"9d0335d2-3051-4637-a59f-b5a4ffc47957","system_id":"levelo_inurba_marseille","lat":43.326633,"lon":5.409901,"is_reserved":false,"is_disabled":false,"rental_uris":{"android":"levelo://app?vid=9d0335d2-3051-4637-a59f-b5a4ffc47957","ios":"levelo://app?vid=9d0335d2-3051-4637-a59f-b5a4ffc47957"},"vehicle_type_id":"4","last_reported":1771110798,"current_range_meters":10800,"station_id":"ce4bhpp2rcd13ifvqhgg","pricing_plan_id":"cebpf4jnsgd1na2vs0mg"},{"bike_id":"148defd0-571c-49d8-acfc-96d9453a55ba","system_id":"levelo_inurba_marseille","lat":43.286721,"lon":5.386663,"is_reserved":false,"is_disabled":false,"rental_uris":{"android":"levelo://app?vid=148defd0-571c-49d8-acfc-96d9453a55ba","ios":"levelo://app?vid=148defd0-571c-49d8-acfc-96d9453a55ba"},"vehicle_type_id":"4","last_reported":1771110798,"current_range_meters":29600,"station_id":"ce4bh492rcd13ifvqdug","pricing_plan_id":"cebpf4jnsgd1na2vs0mg"},{"bike_id":"6fb6e675-460f-4429-987e-5c8d5ca05444","system_id":"levelo_inurba_marseille","lat":43.323502,"lon":5.36742,"is_reserved":false,"is_disabled":false,"rental_uris":{"android":"levelo://app?vid=6fb6e675-460f-4429-987e-5c8d5ca05444","ios":"levelo://app?vid=6fb6e675-460f-4429-987e-5c8d5ca05444"},"vehicle_type_id":"4","last_reported":1771110798,"current_range_meters":14000,"station_id":"ce4bhsh2rcd13ifvqi2g","pricing_plan_id":"cebpf4jnsgd1na2vs0mg"},{"bike_id":"13d75d5f-6e2b-42dc-978e-af2177641671","system_id":"levelo_inurba_marseille","lat":43.30313,"lon":5.36894,"is_reserved":false,"is_disabled":false,"rental_uris":{"android":"levelo://app?vid=13d75d5f-6e2b-42dc-978e-af2177641671","ios":"levelo://app?vid=13d75d5f-6e2b-42dc-978e-af2177641671"},"vehicle_type_id":"4","last_reported":1771110798,"current_range_meters":27600,"station_id":"ce4bgqh2rcd13ifvqc5g","pricing_plan_id":"cebpf4jnsgd1na2vs0mg"},{"bike_id":"c7dc1044-a4da-496a-a386-521f9de5f9ec","system_id":"levelo_inurba_marseille","lat":43.28159,"lon":5.42677,"is_reserved":false,"is_disabled":false,"rental_uris":{"android":"levelo://app?vid=c7dc1044-a4da-496a-a386-521f9de5f9ec","ios":"levelo://app?vid=c7dc1044-a4da-496a-a386-521f9de5f9ec"},"vehicle_type_id":"4","last_reported":1771110798,"current_range_meters":7200,"station_id":"ce4bhnh2rcd13ifvqgug","pricing_plan_id":"cebpf4jnsgd1na2vs0mg"},{"bike_id":"32970ac4-1746-4d64-913c-72a1346864f7","system_id":"levelo_inurba_marseille","lat":43.29002,"lon":5.356,"is_reserved":false,"is_disabled":false,"rental_uris":{"android":"levelo://app?vid=32970ac4-1746-4d64-913c-72a1346864f7","ios":"levelo://app?vid=32970ac4-1746-4d64-913c-72a1346864f7"},"vehicle_type_id":"4","last_reported":1771110798,"current_range_meters":39200,"station_id":"ce4bhb92rcd13ifvqen0","pricing_plan_id":"cebpf4jnsgd1na2vs0mg"},{"bike_id":"7a6fa51c-f3a6-4ec7-898a-e0c27ec99600","system_id":"levelo_inurba_marseille","lat":43.30878,"lon":5.37208,"is_reserved":false,"is_disabled":false,"rental_uris":{"android":"levelo://app?vid=7a6fa51c-f3a6-4ec7-898a-e0c27ec99600","ios":"levelo://app?vid=7a6fa51c-f3a6-4ec7-898a-e0c27ec99600"},"vehicle_type_id":"4","last_reported":1771110798,"current_range_meters":39200,"station_id":"ce4bguh2rcd13ifvqckg","pricing_plan_id":"cebpf4jnsgd1na2vs0mg"},{"bike_id":"d30c7395-ce5f-404c-a40c-5fc4c6b38177","system_id":"levelo_inurba_marseille","lat":43.265557,"lon":5.372999,"is_reserved":false,"is_disabled":false,"rental_uris":{"android":"levelo://app?vid=d30c7395-ce5f-404c-a40c-5fc4c6b38177","ios":"levelo://app?vid=d30c7395-ce5f-404c-a40c-5fc4c6b38177"},"vehicle_type_id":"4","last_reported":1771110798,"current_range_meters":6400,"station_id":"ce4bhg12rcd13ifvqf70","pricing_plan_id":"cebpf4jnsgd1na2vs0mg"},{"bike_id":"0dcbfb34-f6c7-453b-94e1-446182b0f008","system_id":"levelo_inurba_marseille","lat":43.29027,"lon":5.38664,"is_reserved":false,"is_disabled":false,"rental_uris":{"android":"levelo://app?vid=0dcbfb34-f6c7-453b-94e1-446182b0f008","ios":"levelo://app?vid=0dcbfb34-f6c7-453b-94e1-446182b0f008"},"vehicle_type_id":"4","last_reported":1771110798,"current_range_meters":7200,"station_id":"ce4bh4p2rcd13ifvqe0g","pricing_plan_id":"cebpf4jnsgd1na2vs0mg"},{"bike_id":"9ef6e3b0-91bd-49e5-be83-22259e01d004","system_id":"levelo_inurba_marseille","lat":43.30445,"lon":5.38851,"is_reserved":false,"is_disabled":false,"rental_uris":{"android":"levelo://app?vid=9ef6e3b0-91bd-49e5-be83-22259e01d004","ios":"levelo://app?vid=9ef6e3b0-91bd-49e5-be83-22259e01d004"},"vehicle_type_id":"4","last_reported":1771110798,"current_range_meters":27600,"station_id":"ce4bgk12rcd13ifvqbi0","pricing_plan_id":"cebpf4jnsgd1na2vs0mg"},{"bike_id":"47f18ee9-838a-4e13-8672-4f73e3c8ac20","system_id":"levelo_inurba_marseille","lat":43.311957,"lon":5.368721,"is_reserved":false,"is_disabled":false,"rental_uris":{"android":"levelo://app?vid=47f18ee9-838a-4e13-8672-4f73e3c8ac20","ios":"levelo://app?vid=47f18ee9-838a-4e13-8672-4f73e3c8ac20"},"vehicle_type_id":"4","last_reported":1771110798,"current_range_meters":40000,"station_id":"ce4bgl92rcd13ifvqbq0","pricing_plan_id":"cebpf4jnsgd1na2vs0mg"},{"bike_id":"bb140c5d-b91b-4628-bd81-0ca98148c8c3","system_id":"levelo_inurba_marseille","lat":43.29089,"lon":5.38133,"is_reserved":false,"is_disabled":false,"rental_uris":{"android":"levelo://app?vid=bb140c5d-b91b-4628-bd81-0ca98148c8c3","ios":"levelo://app?vid=bb140c5d-b91b-4628-bd81-0ca98148c8c3"},"vehicle_type_id":"4","last_reported":1771110798,"current_range_meters":38800,"station_id":"ce4bh512rcd13ifvqe2g","pricing_plan_id":"cebpf4jnsgd1na2vs0mg"},{"bike_id":"67dfb204-00be-4177-8b9d-f63a27579f92","system_id":"levelo_inurba_marseille","lat":43.29899,"lon":5.38135,"is_reserved":false,"is_disabled":false,"rental_uris":{"android":"levelo://app?vid=67dfb204-00be-4177-8b9d-f63a27579f92","ios":"levelo://app?vid=67dfb204-00be-4177-8b9d-f63a27579f92"},"vehicle_type_id":"4","last_reported":1771110798,"current_range_meters":34000,"station_id":"","pricing_plan_id":"cebpf4jnsgd1na2vs0mg"},{"bike_id":"445f4184-5c55-4ef9-bcc3-7d4b28b0853c","system_id":"levelo_inurba_marseille","lat":43.29121,"lon":5.38148,"is_reserved":false,"is_disabled":false,"rental_uris":{"android":"levelo://app?vid=445f4184-5c55-4ef9-bcc3-7d4b28b0853c","ios":"levelo://app?vid=445f4184-5c55-4ef9-bcc3-7d4b28b0853c"},"vehicle_type_id":"4","last_reported":1771110798,"current_range_meters":27200,"station_id":"ce4bh512rcd13ifvqe2g","pricing_plan_id":"cebpf4jnsgd1na2vs0mg"},{"bike_id":"d70be5f9-0be2-4755-a5b2-e31793c34d56","system_id":"levelo_inurba_marseille","lat":43.2836,"lon":5.38629,"is_reserved":false,"is_disabled":false,"rental_uris":{"android":"levelo://app?vid=d70be5f9-0be2-4755-a5b2-e31793c34d56","ios":"levelo://app?vid=d70be5f9-0be2-4755-a5b2-e31793c34d56"},"vehicle_type_id":"4","last_reported":1771110798,"current_range_meters":16800,"station_id":"ce4bh492rcd13ifvqdvg","pricing_plan_id":"cebpf4jnsgd1na2vs0mg"},{"bike_id":"a26a6608-23e4-46ce-bb00-ef5bd34cdc6d","system_id":"levelo_inurba_marseille","lat":43.28944,"lon":5.39597,"is_reserved":false,"is_disabled":false,"rental_uris":{"android":"levelo://app?vid=a26a6608-23e4-46ce-bb00-ef5bd34cdc6d","ios":"levelo://app?vid=a26a6608-23e4-46ce-bb00-ef5bd34cdc6d"},"vehicle_type_id":"4","last_reported":1771110798,"current_range_meters":39200,"station_id":"ce4bh3h2rcd13ifvqdn0","pricing_plan_id":"cebpf4jnsgd1na2vs0mg"},{"bike_id":"e29024b3-288c-4d8b-ba32-8553041a7294","system_id":"levelo_inurba_marseille","lat":43.259418,"lon":5.408966,"is_reserved":false,"is_disabled":false,"rental_uris":{"android":"levelo://app?vid=e29024b3-288c-4d8b-ba32-8553041a7294","ios":"levelo://app?vid=e29024b3-288c-4d8b-ba32-8553041a7294"},"vehicle_type_id":"4","last_reported":1771110798,"current_range_meters":4800,"station_id":"ce4bhm92rcd13ifvqglg","pricing_plan_id":"cebpf4jnsgd1na2vs0mg"},{"bike_id":"b576ebe4-17cb-453a-91ae-7f9328ed50d0","system_id":"levelo_inurba_marseille","lat":43.29179,"lon":5.37146,"is_reserved":false,"is_disabled":false,"rental_uris":{"android":"levelo://app?vid=b576ebe4-17cb-453a-91ae-7f9328ed50d0","ios":"levelo://app?vid=b576ebe4-17cb-453a-91ae-7f9328ed50d0"},"vehicle_type_id":"4","last_reported":1771110798,"current_range_meters":37600,"station_id":"ce4bha92rcd13ifvqeh0","pricing_plan_id":"cebpf4jnsgd1na2vs0mg"},{"bike_id":"563037d3-7108-43f4-9824-3cbb130d2a47","system_id":"levelo_inurba_marseille","lat":43.30156,"lon":5.38101,"is_reserved":false,"is_disabled":false,"rental_uris":{"android":"levelo://app?vid=563037d3-7108-43f4-9824-3cbb130d2a47","ios":"levelo://app?vid=563037d3-7108-43f4-9824-3cbb130d2a47"},"vehicle_type_id":"4","last_reported":1771110798,"current_range_meters":8400,"station_id":"ce4bgjp2rcd13ifvqbh0","pricing_plan_id":"cebpf4jnsgd1na2vs0mg"},{"bike_id":"d33adf25-865e-4d8a-b514-8032961e7cb8","system_id":"levelo_inurba_marseille","lat":43.28716,"lon":5.36075,"is_reserved":false,"is_disabled":false,"rental_uris":{"android":"levelo://app?vid=d33adf25-865e-4d8a-b514-8032961e7cb8","ios":"levelo://app?vid=d33adf25-865e-4d8a-b514-8032961e7cb8"},"vehicle_type_id":"4","last_reported":1771110798,"current_range_meters":39200,"station_id":"cki0cbj6b192h4jlfktg","pricing_plan_id":"cebpf4jnsgd1na2vs0mg"},{"bike_id":"084a723e-7e6a-4dde-a4d4-2f24d43933be","system_id":"levelo_inurba_marseille","lat":43.29971,"lon":5.41296,"is_reserved":false,"is_disabled":false,"rental_uris":{"android":"levelo://app?vid=084a723e-7e6a-4dde-a4d4-2f24d43933be","ios":"levelo://app?vid=084a723e-7e6a-4dde-a4d4-2f24d43933be"},"vehicle_type_id":"4","last_reported":1771110798,"current_range_meters":36400,"station_id":"ce4bhp12rcd13ifvqh9g","pricing_plan_id":"cebpf4jnsgd1na2vs0mg"},{"bike_id":"3029fd03-fcab-4cd9-9277-025369248c19","system_id":"levelo_inurba_marseille","lat":43.26188,"lon":5.37446,"is_reserved":false,"is_disabled":false,"rental_uris":{"android":"levelo://app?vid=3029fd03-fcab-4cd9-9277-025369248c19","ios":"levelo://app?vid=3029fd03-fcab-4cd9-9277-025369248c19"},"vehicle_type_id":"4","last_reported":1771110798,"current_range_meters":17200,"station_id":"ce4bhgp2rcd13ifvqfc0","pricing_plan_id":"cebpf4jnsgd1na2vs0mg"},{"bike_id":"61bb927d-5d5f-4cd0-8823-8d8185e702fb","system_id":"levelo_inurba_marseille","lat":43.29274,"lon":5.36849,"is_reserved":false,"is_disabled":false,"rental_uris":{"android":"levelo://app?vid=61bb927d-5d5f-4cd0-8823-8d8185e702fb","ios":"levelo://app?vid=61bb927d-5d5f-4cd0-8823-8d8185e702fb"},"vehicle_type_id":"4","last_reported":1771110798,"current_range_meters":34800,"station_id":"ce4bhbp2rcd13ifvqesg","pricing_plan_id":"cebpf4jnsgd1na2vs0mg"},{"bike_id":"4cb2a9d8-8a61-4838-80c1-000f896cc9a0","system_id":"levelo_inurba_marseille","lat":43.28421,"lon":5.34991,"is_reserved":false,"is_disabled":false,"rental_uris":{"android":"levelo://app?vid=4cb2a9d8-8a61-4838-80c1-000f896cc9a0","ios":"levelo://app?vid=4cb2a9d8-8a61-4838-80c1-000f896cc9a0"},"vehicle_type_id":"4","last_reported":1771110798,"current_range_meters":12000,"station_id":"ce4bhbh2rcd13ifvqepg","pricing_plan_id":"cebpf4jnsgd1na2vs0mg"},{"bike_id":"61eff903-483f-41ec-a514-0f580cd1a431","system_id":"levelo_inurba_marseille","lat":43.249539,"lon":5.405121,"is_reserved":false,"is_disabled":false,"rental_uris":{"android":"levelo://app?vid=61eff903-483f-41ec-a514-0f580cd1a431","ios":"levelo://app?vid=61eff903-483f-41ec-a514-0f580cd1a431"},"vehicle_type_id":"4","last_reported":1771110798,"current_range_meters":28000,"station_id":"st_d2ngiaodas8pm72gd1h0","pricing_plan_id":"cebpf4jnsgd1na2vs0mg"},{"bike_id":"c6e79aa8-ef69-40a5-8fc9-2b23a00b5528","system_id":"levelo_inurba_marseille","lat":43.31327,"lon":5.39706,"is_reserved":false,"is_disabled":false,"rental_uris":{"android":"levelo://app?vid=c6e79aa8-ef69-40a5-8fc9-2b23a00b5528","ios":"levelo://app?vid=c6e79aa8-ef69-40a5-8fc9-2b23a00b5528"},"vehicle_type_id":"4","last_reported":1771110798,"current_range_meters":16400,"station_id":"ce4bgvp2rcd13ifvqcu0","pricing_plan_id":"cebpf4jnsgd1na2vs0mg"},{"bike_id":"aaaacc78-adce-439a-a555-9223cd6acada","system_id":"levelo_inurba_marseille","lat":43.28663,"lon":5.36355,"is_reserved":false,"is_disabled":false,"rental_uris":{"android":"levelo://app?vid=aaaacc78-adce-439a-a555-9223cd6acada","ios":"levelo://app?vid=aaaacc78-adce-439a-a555-9223cd6acada"},"vehicle_type_id":"4","last_reported":1771110798,"current_range_meters":35200,"station_id":"ce4bhah2rcd13ifvqej0","pricing_plan_id":"cebpf4jnsgd1na2vs0mg"},{"bike_id":"3ac8d135-347a-4bac-b4fe-99d4725f5344","system_id":"levelo_inurba_marseille","lat":43.31044,"lon":5.40179,"is_reserved":false,"is_disabled":false,"rental_uris":{"android":"levelo://app?vid=3ac8d135-347a-4bac-b4fe-99d4725f5344","ios":"levelo://app?vid=3ac8d135-347a-4bac-b4fe-99d4725f5344"},"vehicle_type_id":"4","last_reported":1771110798,"current_range_meters":4800,"station_id":"","pricing_plan_id":"cebpf4jnsgd1na2vs0mg"},{"bike_id":"1b44e9f1-9ac1-414a-89ba-b380bd73f251","system_id":"levelo_inurba_marseille","lat":43.29263,"lon":5.36863,"is_reserved":false,"is_disabled":false,"rental_uris":{"android":"levelo://app?vid=1b44e9f1-9ac1-414a-89ba-b380bd73f251","ios":"levelo://app?vid=1b44e9f1-9ac1-414a-89ba-b380bd73f251"},"vehicle_type_id":"4","last_reported":1771110798,"current_range_meters":38000,"station_id":"ce4bhbp2rcd13ifvqesg","pricing_plan_id":"cebpf4jnsgd1na2vs0mg"},{"bike_id":"11bbe498-cd8f-4b2e-8e45-54529a7a0a47","system_id":"levelo_inurba_marseille","lat":43.29739,"lon":5.42829,"is_reserved":false,"is_disabled":false,"rental_uris":{"android":"levelo://app?vid=11bbe498-cd8f-4b2e-8e45-54529a7a0a47","ios":"levelo://app?vid=11bbe498-cd8f-4b2e-8e45-54529a7a0a47"},"vehicle_type_id":"4","last_reported":1771110798,"current_range_meters":8400,"station_id":"","pricing_plan_id":"cebpf4jnsgd1na2vs0mg"},{"bike_id":"f921ecaf-65c6-4c31-a956-ae002ea6af96","system_id":"levelo_inurba_marseille","lat":43.28589,"lon":5.395,"is_reserved":false,"is_disabled":false,"rental_uris":{"android":"levelo://app?vid=f921ecaf-65c6-4c31-a956-ae002ea6af96","ios":"levelo://app?vid=f921ecaf-65c6-4c31-a956-ae002ea6af96"},"vehicle_type_id":"4","last_reported":1771110798,"current_range_meters":38000,"station_id":"ce4bh292rcd13ifvqdg0","pricing_plan_id":"cebpf4jnsgd1na2vs0mg"},{"bike_id":"db85d612-2486-4180-a7a9-4b56d8d31f7d","system_id":"levelo_inurba_marseille","lat":43.292744,"lon":5.368425,"is_reserved":false,"is_disabled":false,"rental_uris":{"android":"levelo://app?vid=db85d612-2486-4180-a7a9-4b56d8d31f7d","ios":"levelo://app?vid=db85d612-2486-4180-a7a9-4b56d8d31f7d"},"vehicle_type_id":"4","last_reported":1771110798,"current_range_meters":35200,"station_id":"ce4bhbp2rcd13ifvqesg","pricing_plan_id":"cebpf4jnsgd1na2vs0mg"},{"bike_id":"40b55d1f-cd2a-49e3-a68f-ebc1c2fa2c71","system_id":"levelo_inurba_marseille","lat":43.301058,"lon":5.390757,"is_reserved":false,"is_disabled":false,"rental_uris":{"android":"levelo://app?vid=40b55d1f-cd2a-49e3-a68f-ebc1c2fa2c71","ios":"levelo://app?vid=40b55d1f-cd2a-49e3-a68f-ebc1c2fa2c71"},"vehicle_type_id":"4","last_reported":1771110798,"current_range_meters":37600,"station_id":"ce4bh192rcd13ifvqdb0","pricing_plan_id":"cebpf4jnsgd1na2vs0mg"},{"bike_id":"6f6a04ad-dd00-4f4a-bdfd-a835cfa0cc11","system_id":"levelo_inurba_marseille","lat":43.27064,"lon":5.38324,"is_reserved":false,"is_disabled":false,"rental_uris":{"android":"levelo://app?vid=6f6a04ad-dd00-4f4a-bdfd-a835cfa0cc11","ios":"levelo://app?vid=6f6a04ad-dd00-4f4a-bdfd-a835cfa0cc11"},"vehicle_type_id":"4","last_reported":1771110798,"current_range_meters":35200,"station_id":"st_d3n2fo6cfp8s73cte1j0","pricing_plan_id":"cebpf4jnsgd1na2vs0mg"},{"bike_id":"4e4c79b4-286f-458a-a494-98664f2e8591","system_id":"levelo_inurba_marseille","lat":43.33125,"lon":5.39271,"is_reserved":false,"is_disabled":false,"rental_uris":{"android":"levelo://app?vid=4e4c79b4-286f-458a-a494-98664f2e8591","ios":"levelo://app?vid=4e4c79b4-286f-458a-a494-98664f2e8591"},"vehicle_type_id":"4","last_reported":1771110798,"current_range_meters":32400,"station_id":"","pricing_plan_id":"cebpf4jnsgd1na2vs0mg"},{"bike_id":"fcdee124-54c2-45c2-866c-075925635f0c","system_id":"levelo_inurba_marseille","lat":43.28604,"lon":5.35104,"is_reserved":false,"is_disabled":false,"rental_uris":{"android":"levelo://app?vid=fcdee124-54c2-45c2-866c-075925635f0c","ios":"levelo://app?vid=fcdee124-54c2-45c2-866c-075925635f0c"},"vehicle_type_id":"4","last_reported":1771110798,"current_range_meters":26800,"station_id":"ce4bhch2rcd13ifvqeug","pricing_plan_id":"cebpf4jnsgd1na2vs0mg"},{"bike_id":"3466503b-af29-415c-826a-265b92625e7e","system_id":"levelo_inurba_marseille","lat":43.32085,"lon":5.36826,"is_reserved":false,"is_disabled":false,"rental_uris":{"android":"levelo://app?vid=3466503b-af29-415c-826a-265b92625e7e","ios":"levelo://app?vid=3466503b-af29-415c-826a-265b92625e7e"},"vehicle_type_id":"4","last_reported":1771110798,"current_range_meters":32000,"station_id":"ce4bhrh2rcd13ifvqhug","pricing_plan_id":"cebpf4jnsgd1na2vs0mg"},{"bike_id":"c9f77bd5-3b72-4ebb-a545-fb878718f487","system_id":"levelo_inurba_marseille","lat":43.31523,"lon":5.38044,"is_reserved":false,"is_disabled":false,"rental_uris":{"android":"levelo://app?vid=c9f77bd5-3b72-4ebb-a545-fb878718f487","ios":"levelo://app?vid=c9f77bd5-3b72-4ebb-a545-fb878718f487"},"vehicle_type_id":"4","last_reported":1771110798,"current_range_meters":23200,"station_id":"ce4bhsp2rcd13ifvqi50","pricing_plan_id":"cebpf4jnsgd1na2vs0mg"},{"bike_id":"1b06f4c1-1732-43e9-b160-23e4e376a773","system_id":"levelo_inurba_marseille","lat":43.28601,"lon":5.37073,"is_reserved":false,"is_disabled":false,"rental_uris":{"android":"levelo://app?vid=1b06f4c1-1732-43e9-b160-23e4e376a773","ios":"levelo://app?vid=1b06f4c1-1732-43e9-b160-23e4e376a773"},"vehicle_type_id":"4","last_reported":1771110798,"current_range_meters":33600,"station_id":"ce4bht12rcd13ifvqi60","pricing_plan_id":"cebpf4jnsgd1na2vs0mg"},{"bike_id":"6cda80fc-75a4-4720-a3a4-4b2c5db48d5b","system_id":"levelo_inurba_marseille","lat":43.286156,"lon":5.351058,"is_reserved":false,"is_disabled":false,"rental_uris":{"android":"levelo://app?vid=6cda80fc-75a4-4720-a3a4-4b2c5db48d5b","ios":"levelo://app?vid=6cda80fc-75a4-4720-a3a4-4b2c5db48d5b"},"vehicle_type_id":"4","last_reported":1771110798,"current_range_meters":8400,"station_id":"ce4bhch2rcd13ifvqeug","pricing_plan_id":"cebpf4jnsgd1na2vs0mg"},{"bike_id":"ac89198c-c702-4d3c-9029-266a18e0ed53","system_id":"levelo_inurba_marseille","lat":43.30912,"lon":5.36907,"is_reserved":false,"is_disabled":false,"rental_uris":{"android":"levelo://app?vid=ac89198c-c702-4d3c-9029-266a18e0ed53","ios":"levelo://app?vid=ac89198c-c702-4d3c-9029-266a18e0ed53"},"vehicle_type_id":"4","last_reported":1771110798,"current_range_meters":26800,"station_id":"ce4bgn92rcd13ifvqbvg","pricing_plan_id":"cebpf4jnsgd1na2vs0mg"},{"bike_id":"21e70bb8-72b4-4af2-b830-0eb0edb3996e","system_id":"levelo_inurba_marseille","lat":43.29589,"lon":5.38136,"is_reserved":false,"is_disabled":false,"rental_uris":{"android":"levelo://app?vid=21e70bb8-72b4-4af2-b830-0eb0edb3996e","ios":"levelo://app?vid=21e70bb8-72b4-4af2-b830-0eb0edb3996e"},"vehicle_type_id":"4","last_reported":1771110798,"current_range_meters":33600,"station_id":"ce4bgl12rcd13ifvqbo0","pricing_plan_id":"cebpf4jnsgd1na2vs0mg"},{"bike_id":"eaa5a20b-1cfb-4952-b36f-41363341fdee","system_id":"levelo_inurba_marseille","lat":43.2399,"lon":5.36601,"is_reserved":false,"is_disabled":false,"rental_uris":{"android":"levelo://app?vid=eaa5a20b-1cfb-4952-b36f-41363341fdee","ios":"levelo://app?vid=eaa5a20b-1cfb-4952-b36f-41363341fdee"},"vehicle_type_id":"4","last_reported":1771110798,"current_range_meters":15200,"station_id":"ce4bhi12rcd13ifvqfp0","pricing_plan_id":"cebpf4jnsgd1na2vs0mg"},{"bike_id":"728a8600-c06b-4447-9a71-a43a2371fd54","system_id":"levelo_inurba_marseille","lat":43.25075,"lon":5.3952,"is_reserved":false,"is_disabled":false,"rental_uris":{"android":"levelo://app?vid=728a8600-c06b-4447-9a71-a43a2371fd54","ios":"levelo://app?vid=728a8600-c06b-4447-9a71-a43a2371fd54"},"vehicle_type_id":"4","last_reported":1771110798,"current_range_meters":12800,"station_id":"ce4bhm12rcd13ifvqgkg","pricing_plan_id":"cebpf4jnsgd1na2vs0mg"},{"bike_id":"e35dfe0f-27bc-4d3c-8e69-fd2c35f9c5ee","system_id":"levelo_inurba_marseille","lat":43.27487,"lon":5.42469,"is_reserved":false,"is_disabled":false,"rental_uris":{"android":"levelo://app?vid=e35dfe0f-27bc-4d3c-8e69-fd2c35f9c5ee","ios":"levelo://app?vid=e35dfe0f-27bc-4d3c-8e69-fd2c35f9c5ee"},"vehicle_type_id":"4","last_reported":1771110798,"current_range_meters":4000,"station_id":"ce4bhn92rcd13ifvqgrg","pricing_plan_id":"cebpf4jnsgd1na2vs0mg"},{"bike_id":"a086cee7-6b50-49d0-aa07-eca269c8bcf7","system_id":"levelo_inurba_marseille","lat":43.298,"lon":5.3712,"is_reserved":false,"is_disabled":false,"rental_uris":{"android":"levelo://app?vid=a086cee7-6b50-49d0-aa07-eca269c8bcf7","ios":"levelo://app?vid=a086cee7-6b50-49d0-aa07-eca269c8bcf7"},"vehicle_type_id":"4","last_reported":1771110798,"current_range_meters":20400,"station_id":"ce4bgop2rcd13ifvqc1g","pricing_plan_id":"cebpf4jnsgd1na2vs0mg"},{"bike_id":"2f0b85aa-c457-4958-914e-08f5ab13887b","system_id":"levelo_inurba_marseille","lat":43.24085,"lon":5.3773,"is_reserved":false,"is_disabled":false,"rental_uris":{"android":"levelo://app?vid=2f0b85aa-c457-4958-914e-08f5ab13887b","ios":"levelo://app?vid=2f0b85aa-c457-4958-914e-08f5ab13887b"},"vehicle_type_id":"4","last_reported":1771110798,"current_range_meters":28400,"station_id":"ce4bhnp2rcd13ifvqgvg","pricing_plan_id":"cebpf4jnsgd1na2vs0mg"},{"bike_id":"978d2f99-2f31-4c4e-be2a-4e68224c9eda","system_id":"levelo_inurba_marseille","lat":43.26869,"lon":5.4015,"is_reserved":false,"is_disabled":false,"rental_uris":{"android":"levelo://app?vid=978d2f99-2f31-4c4e-be2a-4e68224c9eda","ios":"levelo://app?vid=978d2f99-2f31-4c4e-be2a-4e68224c9eda"},"vehicle_type_id":"4","last_reported":1771110798,"current_range_meters":26800,"station_id":"ce501612rcd8frsf0b60","pricing_plan_id":"cebpf4jnsgd1na2vs0mg"},{"bike_id":"61fd5862-50ca-4e52-b3bd-80889f2096bf","system_id":"levelo_inurba_marseille","lat":43.30776,"lon":5.37659,"is_reserved":false,"is_disabled":false,"rental_uris":{"android":"levelo://app?vid=61fd5862-50ca-4e52-b3bd-80889f2096bf","ios":"levelo://app?vid=61fd5862-50ca-4e52-b3bd-80889f2096bf"},"vehicle_type_id":"4","last_reported":1771110798,"current_range_meters":14400,"station_id":"ce4bgv92rcd13ifvqcq0","pricing_plan_id":"cebpf4jnsgd1na2vs0mg"},{"bike_id":"f2d1b094-781e-4355-b5c2-3d02a6975d88","system_id":"levelo_inurba_marseille","lat":43.29717,"lon":5.36609,"is_reserved":false,"is_disabled":false,"rental_uris":{"android":"levelo://app?vid=f2d1b094-781e-4355-b5c2-3d02a6975d88","ios":"levelo://app?vid=f2d1b094-781e-4355-b5c2-3d02a6975d88"},"vehicle_type_id":"4","last_reported":1771110798,"current_range_meters":38800,"station_id":"ce4bgn12rcd13ifvqbt0","pricing_plan_id":"cebpf4jnsgd1na2vs0mg"},{"bike_id":"5975ebad-0463-4175-9b0b-6b17a6988f6b","system_id":"levelo_inurba_marseille","lat":43.25334,"lon":5.42175,"is_reserved":false,"is_disabled":false,"rental_uris":{"android":"levelo://app?vid=5975ebad-0463-4175-9b0b-6b17a6988f6b","ios":"levelo://app?vid=5975ebad-0463-4175-9b0b-6b17a6988f6b"},"vehicle_type_id":"4","last_reported":1771110798,"current_range_meters":22000,"station_id":"st_d2m65c5bi1j21697t3ng","pricing_plan_id":"cebpf4jnsgd1na2vs0mg"},{"bike_id":"85c48cd4-29fb-400b-8834-9362d4a8d35f","system_id":"levelo_inurba_marseille","lat":43.30185,"lon":5.366433,"is_reserved":false,"is_disabled":false,"rental_uris":{"android":"levelo://app?vid=85c48cd4-29fb-400b-8834-9362d4a8d35f","ios":"levelo://app?vid=85c48cd4-29fb-400b-8834-9362d4a8d35f"},"vehicle_type_id":"4","last_reported":1771110798,"current_range_meters":36800,"station_id":"ce4bgrh2rcd13ifvqc8g","pricing_plan_id":"cebpf4jnsgd1na2vs0mg"},{"bike_id":"cf8b7d0a-9a5a-4f97-92c3-931492bbfb02","system_id":"levelo_inurba_marseille","lat":43.27212,"lon":5.40967,"is_reserved":false,"is_disabled":false,"rental_uris":{"android":"levelo://app?vid=cf8b7d0a-9a5a-4f97-92c3-931492bbfb02","ios":"levelo://app?vid=cf8b7d0a-9a5a-4f97-92c3-931492bbfb02"},"vehicle_type_id":"4","last_reported":1771110798,"current_range_meters":32400,"station_id":"","pricing_plan_id":"cebpf4jnsgd1na2vs0mg"},{"bike_id":"8267bf70-ccdb-4d38-b521-e691e3e39ee7","system_id":"levelo_inurba_marseille","lat":43.287215,"lon":5.360955,"is_reserved":false,"is_disabled":false,"rental_uris":{"android":"levelo://app?vid=8267bf70-ccdb-4d38-b521-e691e3e39ee7","ios":"levelo://app?vid=8267bf70-ccdb-4d38-b521-e691e3e39ee7"},"vehicle_type_id":"4","last_reported":1771110798,"current_range_meters":38400,"station_id":"cki0cbj6b192h4jlfktg","pricing_plan_id":"cebpf4jnsgd1na2vs0mg"},{"bike_id":"07ce1f5d-6f17-46fa-a2c3-775082efdead","system_id":"levelo_inurba_marseille","lat":43.273248,"lon":5.390778,"is_reserved":false,"is_disabled":false,"rental_uris":{"android":"levelo://app?vid=07ce1f5d-6f17-46fa-a2c3-775082efdead","ios":"levelo://app?vid=07ce1f5d-6f17-46fa-a2c3-775082efdead"},"vehicle_type_id":"4","last_reported":1771110798,"current_range_meters":6800,"station_id":"ce4bhgp2rcd13ifvqfe0","pricing_plan_id":"cebpf4jnsgd1na2vs0mg"},{"bike_id":"88ff9439-db02-4be2-a9f2-dbfd8e7a5968","system_id":"levelo_inurba_marseille","lat":43.25858,"lon":5.39921,"is_reserved":false,"is_disabled":false,"rental_uris":{"android":"levelo://app?vid=88ff9439-db02-4be2-a9f2-dbfd8e7a5968","ios":"levelo://app?vid=88ff9439-db02-4be2-a9f2-dbfd8e7a5968"},"vehicle_type_id":"4","last_reported":1771110798,"current_range_meters":34000,"station_id":"ce4bhl92rcd13ifvqghg","pricing_plan_id":"cebpf4jnsgd1na2vs0mg"},{"bike_id":"cfae685f-c63c-4f49-9c1b-ab3959e7fdd6","system_id":"levelo_inurba_marseille","lat":43.24942,"lon":5.40497,"is_reserved":false,"is_disabled":false,"rental_uris":{"android":"levelo://app?vid=cfae685f-c63c-4f49-9c1b-ab3959e7fdd6","ios":"levelo://app?vid=cfae685f-c63c-4f49-9c1b-ab3959e7fdd6"},"vehicle_type_id":"4","last_reported":1771110798,"current_range_meters":37600,"station_id":"st_d2ngiaodas8pm72gd1h0","pricing_plan_id":"cebpf4jnsgd1na2vs0mg"},{"bike_id":"106a74bb-4181-4477-8571-9f054fddfeae","system_id":"levelo_inurba_marseille","lat":43.27913,"lon":5.39577,"is_reserved":false,"is_disabled":false,"rental_uris":{"android":"levelo://app?vid=106a74bb-4181-4477-8571-9f054fddfeae","ios":"levelo://app?vid=106a74bb-4181-4477-8571-9f054fddfeae"},"vehicle_type_id":"4","last_reported":1771110798,"current_range_meters":34000,"station_id":"ce4bhf92rcd13ifvqf40","pricing_plan_id":"cebpf4jnsgd1na2vs0mg"},{"bike_id":"382754c3-027b-415f-bddc-cccefe731d3e","system_id":"levelo_inurba_marseille","lat":43.29306,"lon":5.37467,"is_reserved":false,"is_disabled":false,"rental_uris":{"android":"levelo://app?vid=382754c3-027b-415f-bddc-cccefe731d3e","ios":"levelo://app?vid=382754c3-027b-415f-bddc-cccefe731d3e"},"vehicle_type_id":"4","last_reported":1771110798,"current_range_meters":30000,"station_id":"ce4bgi12rcd13ifvqb70","pricing_plan_id":"cebpf4jnsgd1na2vs0mg"},{"bike_id":"a08e432b-50d2-4ce1-b298-be02f429a7ad","system_id":"levelo_inurba_marseille","lat":43.25497,"lon":5.37655,"is_reserved":false,"is_disabled":false,"rental_uris":{"android":"levelo://app?vid=a08e432b-50d2-4ce1-b298-be02f429a7ad","ios":"levelo://app?vid=a08e432b-50d2-4ce1-b298-be02f429a7ad"},"vehicle_type_id":"4","last_reported":1771110798,"current_range_meters":38400,"station_id":"ce4bhh12rcd13ifvqff0","pricing_plan_id":"cebpf4jnsgd1na2vs0mg"},{"bike_id":"8821e2d6-7987-4a8c-8761-071927c90366","system_id":"levelo_inurba_marseille","lat":43.31315,"lon":5.39711,"is_reserved":false,"is_disabled":false,"rental_uris":{"android":"levelo://app?vid=8821e2d6-7987-4a8c-8761-071927c90366","ios":"levelo://app?vid=8821e2d6-7987-4a8c-8761-071927c90366"},"vehicle_type_id":"4","last_reported":1771110798,"current_range_meters":34000,"station_id":"ce4bgvp2rcd13ifvqcu0","pricing_plan_id":"cebpf4jnsgd1na2vs0mg"},