{"last_updated":1767674419,"ttl":60,"version":"2.2","data":{"bikes":[{"bike_id":"d7927a0c-acc6-4dbc-b121-3fe1c24d45cd","system_id":"levelo_inurba_marseille","lat":43.23951,"lon":5.36635,"is_reserved":false,"is_disabled":false,"rental_uris":{"android":"levelo://app?vid=d7927a0c-acc6-4dbc-b121-3fe1c24d45cd","ios":"levelo://app?vid=d7927a0c-acc6-4dbc-b121-3fe1c24d45cd"},"vehicle_type_id":"4","last_reported":1767674420,"current_range_meters":2800,"station_id":"ce4bhi12rcd13ifvqfp0","pricing_plan_id":"cebpf4jnsgd1na2vs0mg"},{"bike_id":"0e471836-29c5-4d70-93bc-4b375d486538","system_id":"levelo_inurba_marseille","lat":43.294524,"lon":5.39746,"is_reserved":false,"is_disabled":false,"rental_uris":{"android":"levelo://app?vid=0e471836-29c5-4d70-93bc-4b375d486538","ios":"levelo://app?vid=0e471836-29c5-4d70-93bc-4b375d486538"},"vehicle_type_id":"4","last_reported":1767674420,"current_range_meters":2800,"station_id":"ce4bh3h2rcd13ifvqdo0","pricing_plan_id":"cebpf4jnsgd1na2vs0mg"},{"bike_id":"a5b43210-115e-4bbb-8725-85c9bddc9f1b","system_id":"levelo_inurba_marseille","lat":43.25893,"lon":5.40909,"is_reserved":false,"is_disabled":false,"rental_uris":{"android":"levelo://app?vid=a5b43210-115e-4bbb-8725-85c9bddc9f1b","ios":"levelo://app?vid=a5b43210-115e-4bbb-8725-85c9bddc9f1b"},"vehicle_type_id":"4","last_reported":1767674420,"current_range_meters":2800,"station_id":"ce4bhm92rcd13ifvqglg","pricing_plan_id":"cebpf4jnsgd1na2vs0mg"},{"bike_id":"86f4117e-bfd7-4a5f-b403-eeb9a7153bb3","system_id":"levelo_inurba_marseille","lat":43.225317,"lon":5.348337,"is_reserved":false,"is_disabled":false,"rental_uris":{"android":"levelo://app?vid=86f4117e-bfd7-4a5f-b403-eeb9a7153bb3","ios":"levelo://app?vid=86f4117e-bfd7-4a5f-b403-eeb9a7153bb3"},"vehicle_type_id":"4","last_reported":1767674420,"current_range_meters":2800,"station_id":"st_cvj5dfep6f1abm77gieg","pricing_plan_id":"cebpf4jnsgd1na2vs0mg"},{"bike_id":"2a61f7a8-d2f7-4b6f-8828-528b5bab141c","system_id":"levelo_inurba_marseille","lat":43.271835,"lon":5.409876,"is_reserved":false,"is_disabled":false,"rental_uris":{"android":"levelo://app?vid=2a61f7a8-d2f7-4b6f-8828-528b5bab141c","ios":"levelo://app?vid=2a61f7a8-d2f7-4b6f-8828-528b5bab141c"},"vehicle_type_id":"4","last_reported":1767674420,"current_range_meters":2800,"station_id":"ce4bhl12rcd13ifvqgf0","pricing_plan_id":"cebpf4jnsgd1na2vs0mg"},{"bike_id":"5682ec9e-1fb3-4778-987f-f30ba2f1f3bc","system_id":"levelo_inurba_marseille","lat":43.31062,"lon":5.3836,"is_reserved":false,"is_disabled":false,"rental_uris":{"android":"levelo://app?vid=5682ec9e-1fb3-4778-987f-f30ba2f1f3bc","ios":"levelo://app?vid=5682ec9e-1fb3-4778-987f-f30ba2f1f3bc"},"vehicle_type_id":"4","last_reported":1767674420,"current_range_meters":2800,"station_id":"ce4bgv92rcd13ifvqcr0","pricing_plan_id":"cebpf4jnsgd1na2vs0mg"},{"bike_id":"8f67289a-c445-41d3-a7c1-2b5874f96ec2","system_id":"levelo_inurba_marseille","lat":43.31329,"lon":5.40446,"is_reserved":false,"is_disabled":false,"rental_uris":{"android":"levelo://app?vid=8f67289a-c445-41d3-a7c1-2b5874f96ec2","ios":"levelo://app?vid=8f67289a-c445-41d3-a7c1-2b5874f96ec2"},"vehicle_type_id":"4","last_reported":1767674420,"current_range_meters":2800,"station_id":"","pricing_plan_id":"cebpf4jnsgd1na2vs0mg"},{"bike_id":"baa79fc4-2655-4469-8f14-c5bbb27af8fc","system_id":"levelo_inurba_marseille","lat":43.27674,"lon":5.38917,"is_reserved":false,"is_disabled":false,"rental_uris":{"android":"levelo://app?vid=baa79fc4-2655-4469-8f14-c5bbb27af8fc","ios":"levelo://app?vid=baa79fc4-2655-4469-8f14-c5bbb27af8fc"},"vehicle_type_id":"4","last_reported":1767674420,"current_range_meters":2800,"station_id":"ce4bhi12rcd13ifvqfo0","pricing_plan_id":"cebpf4jnsgd1na2vs0mg"},{"bike_id":"0e920fea-401a-4fec-a702-867e99d7a0b7","system_id":"levelo_inurba_marseille","lat":43.26229,"lon":5.40442,"is_reserved":false,"is_disabled":false,"rental_uris":{"android":"levelo://app?vid=0e920fea-401a-4fec-a702-867e99d7a0b7","ios":"levelo://app?vid=0e920fea-401a-4fec-a702-867e99d7a0b7"},"vehicle_type_id":"4","last_reported":1767674420,"current_range_meters":2800,"station_id":"ce4bhmh2rcd13ifvqgmg","pricing_plan_id":"cebpf4jnsgd1na2vs0mg"},{"bike_id":"8c3e87fb-1d28-47b4-8c2c-d2b9f5aa74c7","system_id":"levelo_inurba_marseille","lat":43.28157,"lon":5.4265,"is_reserved":false,"is_disabled":false,"rental_uris":{"android":"levelo://app?vid=8c3e87fb-1d28-47b4-8c2c-d2b9f5aa74c7","ios":"levelo://app?vid=8c3e87fb-1d28-47b4-8c2c-d2b9f5aa74c7"},"vehicle_type_id":"4","last_reported":1767674420,"current_range_meters":2800,"station_id":"ce4bhnh2rcd13ifvqgug","pricing_plan_id":"cebpf4jnsgd1na2vs0mg"},{"bike_id":"5d25bf72-a7cf-4012-b1cb-6b355d611212","system_id":"levelo_inurba_marseille","lat":43.27998,"lon":5.40011,"is_reserved":false,"is_disabled":false,"rental_uris":{"android":"levelo://app?vid=5d25bf72-a7cf-4012-b1cb-6b355d611212","ios":"levelo://app?vid=5d25bf72-a7cf-4012-b1cb-6b355d611212"},"vehicle_type_id":"4","last_reported":1767674420,"current_range_meters":2800,"station_id":"ce4bho92rcd13ifvqh4g","pricing_plan_id":"cebpf4jnsgd1na2vs0mg"},{"bike_id":"254a6c59-5f0c-4c52-8628-8e7efad88c7e","system_id":"levelo_inurba_marseille","lat":43.24162,"lon":5.36395,"is_reserved":false,"is_disabled":false,"rental_uris":{"android":"levelo://app?vid=254a6c59-5f0c-4c52-8628-8e7efad88c7e","ios":"levelo://app?vid=254a6c59-5f0c-4c52-8628-8e7efad88c7e"},"vehicle_type_id":"4","last_reported":1767674420,"current_range_meters":2800,"station_id":"cpo36qri1sfpv3e86is0","pricing_plan_id":"cebpf4jnsgd1na2vs0mg"},{"bike_id":"689e1e25-96b9-418c-bbe1-0e8f9558c52f","system_id":"levelo_inurba_marseille","lat":43.31357,"lon":5.37621,"is_reserved":false,"is_disabled":false,"rental_uris":{"android":"levelo://app?vid=689e1e25-96b9-418c-bbe1-0e8f9558c52f","ios":"levelo://app?vid=689e1e25-96b9-418c-bbe1-0e8f9558c52f"},"vehicle_type_id":"4","last_reported":1767674420,"current_range_meters":2800,"station_id":"","pricing_plan_id":"cebpf4jnsgd1na2vs0mg"},{"bike_id":"ce5b50c4-8b7f-4836-923c-9b6bb4694e91","system_id":"levelo_inurba_marseille","lat":43.29911,"lon":5.37562,"is_reserved":false,"is_disabled":false,"rental_uris":{"android":"levelo://app?vid=ce5b50c4-8b7f-4836-923c-9b6bb4694e91","ios":"levelo://app?vid=ce5b50c4-8b7f-4836-923c-9b6bb4694e91"},"vehicle_type_id":"4","last_reported":1767674420,"current_range_meters":2800,"station_id":"","pricing_plan_id":"cebpf4jnsgd1na2vs0mg"},{"bike_id":"3115bbd7-1c85-4603-a617-db0a037ecab5","system_id":"levelo_inurba_marseille","lat":43.29426,"lon":5.4323,"is_reserved":false,"is_disabled":false,"rental_uris":{"android":"levelo://app?vid=3115bbd7-1c85-4603-a617-db0a037ecab5","ios":"levelo://app?vid=3115bbd7-1c85-4603-a617-db0a037ecab5"},"vehicle_type_id":"4","last_reported":1767674420,"current_range_meters":3200,"station_id":"","pricing_plan_id":"cebpf4jnsgd1na2vs0mg"},{"bike_id":"3f8b91dc-4190-44ac-a53a-0db98b9d9ad9","system_id":"levelo_inurba_marseille","lat":43.2442,"lon":5.37053,"is_reserved":false,"is_disabled":false,"rental_uris":{"android":"levelo://app?vid=3f8b91dc-4190-44ac-a53a-0db98b9d9ad9","ios":"levelo://app?vid=3f8b91dc-4190-44ac-a53a-0db98b9d9ad9"},"vehicle_type_id":"4","last_reported":1767674420,"current_range_meters":3200,"station_id":"ce4bhhh2rcd13ifvqfk0","pricing_plan_id":"cebpf4jnsgd1na2vs0mg"},{"bike_id":"fad88370-eff2-40ad-91f9-be30e2fbd51d","system_id":"levelo_inurba_marseille","lat":43.29443,"lon":5.39772,"is_reserved":false,"is_disabled":true,"rental_uris":{"android":"levelo://app?vid=fad88370-eff2-40ad-91f9-be30e2fbd51d","ios":"levelo://app?vid=fad88370-eff2-40ad-91f9-be30e2fbd51d"},"vehicle_type_id":"4","last_reported":1767674420,"current_range_meters":3200,"station_id":"ce4bh3h2rcd13ifvqdo0","pricing_plan_id":"cebpf4jnsgd1na2vs0mg"},{"bike_id":"417b0ac5-3f92-446b-954d-4b45d2e8bb67","system_id":"levelo_inurba_marseille","lat":43.25855,"lon":5.3989,"is_reserved":false,"is_disabled":false,"rental_uris":{"android":"levelo://app?vid=417b0ac5-3f92-446b-954d-4b45d2e8bb67","ios":"levelo://app?vid=417b0ac5-3f92-446b-954d-4b45d2e8bb67"},"vehicle_type_id":"4","last_reported":1767674420,"current_range_meters":3200,"station_id":"ce4bhl92rcd13ifvqghg","pricing_plan_id":"cebpf4jnsgd1na2vs0mg"},{"bike_id":"d1a8582c-3d84-4b4e-ace7-3ba06413c6cb","system_id":"levelo_inurba_marseille","lat":43.31231,"lon":5.36846,"is_reserved":false,"is_disabled":false,"rental_uris":{"android":"levelo://app?vid=d1a8582c-3d84-4b4e-ace7-3ba06413c6cb","ios":"levelo://app?vid=d1a8582c-3d84-4b4e-ace7-3ba06413c6cb"},"vehicle_type_id":"4","last_reported":1767674420,"current_range_meters":3200,"station_id":"ce4bgl92rcd13ifvqbq0","pricing_plan_id":"cebpf4jnsgd1na2vs0mg"},{"bike_id":"edbb502a-babb-4b56-b7b2-69e8e10c7c11","system_id":"levelo_inurba_marseille","lat":43.2852,"lon":5.48363,"is_reserved":false,"is_disabled":false,"rental_uris":{"android":"levelo://app?vid=edbb502a-babb-4b56-b7b2-69e8e10c7c11","ios":"levelo://app?vid=edbb502a-babb-4b56-b7b2-69e8e10c7c11"},"vehicle_type_id":"4","last_reported":1767674420,"current_range_meters":3200,"station_id":"","pricing_plan_id":"cebpf4jnsgd1na2vs0mg"},{"bike_id":"c48b8ab0-3aed-485b-9e87-5ea8f52478d4","system_id":"levelo_inurba_marseille","lat":43.31593,"lon":5.38405,"is_reserved":false,"is_disabled":false,"rental_uris":{"android":"levelo://app?vid=c48b8ab0-3aed-485b-9e87-5ea8f52478d4","ios":"levelo://app?vid=c48b8ab0-3aed-485b-9e87-5ea8f52478d4"},"vehicle_type_id":"4","last_reported":1767674420,"current_range_meters":3200,"station_id":"","pricing_plan_id":"cebpf4jnsgd1na2vs0mg"},{"bike_id":"2972406d-51d8-45d2-9547-23c812d25ec7","system_id":"levelo_inurba_marseille","lat":43.31228,"lon":5.36896,"is_reserved":false,"is_disabled":false,"rental_uris":{"android":"levelo://app?vid=2972406d-51d8-45d2-9547-23c812d25ec7","ios":"levelo://app?vid=2972406d-51d8-45d2-9547-23c812d25ec7"},"vehicle_type_id":"4","last_reported":1767674420,"current_range_meters":3200,"station_id":"ce4bgl92rcd13ifvqbq0","pricing_plan_id":"cebpf4jnsgd1na2vs0mg"},{"bike_id":"9eb9f2a9-0def-423d-bc04-f48d9e280ab5","system_id":"levelo_inurba_marseille","lat":43.30537,"lon":5.36708,"is_reserved":false,"is_disabled":false,"rental_uris":{"android":"levelo://app?vid=9eb9f2a9-0def-423d-bc04-f48d9e280ab5","ios":"levelo://app?vid=9eb9f2a9-0def-423d-bc04-f48d9e280ab5"},"vehicle_type_id":"4","last_reported":1767674420,"current_range_meters":3600,"station_id":"ce4bgrp2rcd13ifvqc9g","pricing_plan_id":"cebpf4jnsgd1na2vs0mg"},{"bike_id":"cdf28833-4598-4404-9b25-788c2c032e72","system_id":"levelo_inurba_marseille","lat":43.31124,"lon":5.3774,"is_reserved":false,"is_disabled":false,"rental_uris":{"android":"levelo://app?vid=cdf28833-4598-4404-9b25-788c2c032e72","ios":"levelo://app?vid=cdf28833-4598-4404-9b25-788c2c032e72"},"vehicle_type_id":"4","last_reported":1767674420,"current_range_meters":3600,"station_id":"ce4bgt92rcd13ifvqcg0","pricing_plan_id":"cebpf4jnsgd1na2vs0mg"},{"bike_id":"89cdcc0f-6abe-433f-a6b7-588bb41bee1d","system_id":"levelo_inurba_marseille","lat":43.290677,"lon":5.371628,"is_reserved":false,"is_disabled":false,"rental_uris":{"android":"levelo://app?vid=89cdcc0f-6abe-433f-a6b7-588bb41bee1d","ios":"levelo://app?vid=89cdcc0f-6abe-433f-a6b7-588bb41bee1d"},"vehicle_type_id":"4","last_reported":1767674420,"current_range_meters":3600,"station_id":"ce4bh5p2rcd13ifvqe4g","pricing_plan_id":"cebpf4jnsgd1na2vs0mg"},{"bike_id":"85e63a3c-0a42-4442-8bd8-e76297dfbb4f","system_id":"levelo_inurba_marseille","lat":43.26558,"lon":5.37286,"is_reserved":false,"is_disabled":false,"rental_uris":{"android":"levelo://app?vid=85e63a3c-0a42-4442-8bd8-e76297dfbb4f","ios":"levelo://app?vid=85e63a3c-0a42-4442-8bd8-e76297dfbb4f"},"vehicle_type_id":"4","last_reported":1767674420,"current_range_meters":3600,"station_id":"ce4bhg12rcd13ifvqf70","pricing_plan_id":"cebpf4jnsgd1na2vs0mg"},{"bike_id":"f3b4d634-902f-494f-ac75-5bbe54b9827c","system_id":"levelo_inurba_marseille","lat":43.29372,"lon":5.37861,"is_reserved":false,"is_disabled":false,"rental_uris":{"android":"levelo://app?vid=f3b4d634-902f-494f-ac75-5bbe54b9827c","ios":"levelo://app?vid=f3b4d634-902f-494f-ac75-5bbe54b9827c"},"vehicle_type_id":"4","last_reported":1767674420,"current_range_meters":3600,"station_id":"ce4bgjh2rcd13ifvqbf0","pricing_plan_id":"cebpf4jnsgd1na2vs0mg"},{"bike_id":"c916e23f-69cf-4763-8e6a-30df04016fcd","system_id":"levelo_inurba_marseille","lat":43.24683,"lon":5.3818,"is_reserved":false,"is_disabled":false,"rental_uris":{"android":"levelo://app?vid=c916e23f-69cf-4763-8e6a-30df04016fcd","ios":"levelo://app?vid=c916e23f-69cf-4763-8e6a-30df04016fcd"},"vehicle_type_id":"4","last_reported":1767674420,"current_range_meters":3600,"station_id":"ce4bhih2rcd13ifvqfr0","pricing_plan_id":"cebpf4jnsgd1na2vs0mg"},{"bike_id":"a37d40f7-6a7a-463a-8f5a-b25737a5a4f2","system_id":"levelo_inurba_marseille","lat":43.299,"lon":5.38004,"is_reserved":false,"is_disabled":false,"rental_uris":{"android":"levelo://app?vid=a37d40f7-6a7a-463a-8f5a-b25737a5a4f2","ios":"levelo://app?vid=a37d40f7-6a7a-463a-8f5a-b25737a5a4f2"},"vehicle_type_id":"4","last_reported":1767674420,"current_range_meters":3600,"station_id":"","pricing_plan_id":"cebpf4jnsgd1na2vs0mg"},{"bike_id":"472e5e0d-f825-4a8c-bee5-1f8f18239ca8","system_id":"levelo_inurba_marseille","lat":43.25828,"lon":5.39913,"is_reserved":false,"is_disabled":false,"rental_uris":{"android":"levelo://app?vid=472e5e0d-f825-4a8c-bee5-1f8f18239ca8","ios":"levelo://app?vid=472e5e0d-f825-4a8c-bee5-1f8f18239ca8"},"vehicle_type_id":"4","last_reported":1767674420,"current_range_meters":3600,"station_id":"ce4bhl92rcd13ifvqghg","pricing_plan_id":"cebpf4jnsgd1na2vs0mg"},{"bike_id":"bbc52f9d-58c0-4a25-aafe-221d02bf47d5","system_id":"levelo_inurba_marseille","lat":43.31372,"lon":5.38502,"is_reserved":false,"is_disabled":false,"rental_uris":{"android":"levelo://app?vid=bbc52f9d-58c0-4a25-aafe-221d02bf47d5","ios":"levelo://app?vid=bbc52f9d-58c0-4a25-aafe-221d02bf47d5"},"vehicle_type_id":"4","last_reported":1767674420,"current_range_meters":3600,"station_id":"ce4bgt92rcd13ifvqcf0","pricing_plan_id":"cebpf4jnsgd1na2vs0mg"},{"bike_id":"ee777e48-7b1d-477a-8aa7-246572e50a4f","system_id":"levelo_inurba_marseille","lat":43.23782,"lon":5.36625,"is_reserved":false,"is_disabled":false,"rental_uris":{"android":"levelo://app?vid=ee777e48-7b1d-477a-8aa7-246572e50a4f","ios":"levelo://app?vid=ee777e48-7b1d-477a-8aa7-246572e50a4f"},"vehicle_type_id":"4","last_reported":1767674420,"current_range_meters":4000,"station_id":"st_d3nk18o9ro0c73en2l3g","pricing_plan_id":"cebpf4jnsgd1na2vs0mg"},{"bike_id":"3bc151a5-6a42-4f15-984e-e4dbbdbf3b09","system_id":"levelo_inurba_marseille","lat":43.323572,"lon":5.367351,"is_reserved":false,"is_disabled":false,"rental_uris":{"android":"levelo://app?vid=3bc151a5-6a42-4f15-984e-e4dbbdbf3b09","ios":"levelo://app?vid=3bc151a5-6a42-4f15-984e-e4dbbdbf3b09"},"vehicle_type_id":"4","last_reported":1767674420,"current_range_meters":4000,"station_id":"ce4bhsh2rcd13ifvqi2g","pricing_plan_id":"cebpf4jnsgd1na2vs0mg"},{"bike_id":"5c208eb7-cfe0-4db6-8dff-e4e21273e139","system_id":"levelo_inurba_marseille","lat":43.26936,"lon":5.40233,"is_reserved":false,"is_disabled":false,"rental_uris":{"android":"levelo://app?vid=5c208eb7-cfe0-4db6-8dff-e4e21273e139","ios":"levelo://app?vid=5c208eb7-cfe0-4db6-8dff-e4e21273e139"},"vehicle_type_id":"4","last_reported":1767674420,"current_range_meters":4000,"station_id":"cjm6bp8fraef2m0cb0m0","pricing_plan_id":"cebpf4jnsgd1na2vs0mg"},{"bike_id":"e3aa32d8-6703-4bb5-89dd-c6404061fee0","system_id":"levelo_inurba_marseille","lat":43.31385,"lon":5.3804,"is_reserved":false,"is_disabled":false,"rental_uris":{"android":"levelo://app?vid=e3aa32d8-6703-4bb5-89dd-c6404061fee0","ios":"levelo://app?vid=e3aa32d8-6703-4bb5-89dd-c6404061fee0"},"vehicle_type_id":"4","last_reported":1767674420,"current_range_meters":4000,"station_id":"","pricing_plan_id":"cebpf4jnsgd1na2vs0mg"},{"bike_id":"94631d93-b069-40b3-983b-fd97171222ce","system_id":"levelo_inurba_marseille","lat":43.279495,"lon":5.410449,"is_reserved":false,"is_disabled":false,"rental_uris":{"android":"levelo://app?vid=94631d93-b069-40b3-983b-fd97171222ce","ios":"levelo://app?vid=94631d93-b069-40b3-983b-fd97171222ce"},"vehicle_type_id":"4","last_reported":1767674420,"current_range_meters":4000,"station_id":"ce4bhnp2rcd13ifvqh0g","pricing_plan_id":"cebpf4jnsgd1na2vs0mg"},{"bike_id":"fd8f368a-790a-472f-8659-a02b635b9f3b","system_id":"levelo_inurba_marseille","lat":43.31082,"lon":5.37477,"is_reserved":false,"is_disabled":false,"rental_uris":{"android":"levelo://app?vid=fd8f368a-790a-472f-8659-a02b635b9f3b","ios":"levelo://app?vid=fd8f368a-790a-472f-8659-a02b635b9f3b"},"vehicle_type_id":"4","last_reported":1767674420,"current_range_meters":4000,"station_id":"","pricing_plan_id":"cebpf4jnsgd1na2vs0mg"},{"bike_id":"0abda507-827b-4ba6-b5d5-a4467158d662","system_id":"levelo_inurba_marseille","lat":43.23189,"lon":5.40001,"is_reserved":false,"is_disabled":false,"rental_uris":{"android":"levelo://app?vid=0abda507-827b-4ba6-b5d5-a4467158d662","ios":"levelo://app?vid=0abda507-827b-4ba6-b5d5-a4467158d662"},"vehicle_type_id":"4","last_reported":1767674420,"current_range_meters":4000,"station_id":"ce4bhn12rcd13ifvqgqg","pricing_plan_id":"cebpf4jnsgd1na2vs0mg"},{"bike_id":"7409f8d2-dfa9-4964-9bc6-c3a46a1923df","system_id":"levelo_inurba_marseille","lat":43.27364,"lon":5.36246,"is_reserved":false,"is_disabled":false,"rental_uris":{"android":"levelo://app?vid=7409f8d2-dfa9-4964-9bc6-c3a46a1923df","ios":"levelo://app?vid=7409f8d2-dfa9-4964-9bc6-c3a46a1923df"},"vehicle_type_id":"4","last_reported":1767674420,"current_range_meters":4000,"station_id":"ce4bhbh2rcd13ifvqeo0","pricing_plan_id":"cebpf4jnsgd1na2vs0mg"},{"bike_id":"85f65327-244d-4e0f-989f-0ca631a03630","system_id":"levelo_inurba_marseille","lat":43.28162,"lon":5.42636,"is_reserved":false,"is_disabled":false,"rental_uris":{"android":"levelo://app?vid=85f65327-244d-4e0f-989f-0ca631a03630","ios":"levelo://app?vid=85f65327-244d-4e0f-989f-0ca631a03630"},"vehicle_type_id":"4","last_reported":1767674420,"current_range_meters":4400,"station_id":"ce4bhnh2rcd13ifvqgug","pricing_plan_id":"cebpf4jnsgd1na2vs0mg"},{"bike_id":"6931475d-2e9f-45d6-89bf-e7806014b592","system_id":"levelo_inurba_marseille","lat":43.307851,"lon":5.376507,"is_reserved":false,"is_disabled":true,"rental_uris":{"android":"levelo://app?vid=6931475d-2e9f-45d6-89bf-e7806014b592","ios":"levelo://app?vid=6931475d-2e9f-45d6-89bf-e7806014b592"},"vehicle_type_id":"4","last_reported":1767674420,"current_range_meters":4400,"station_id":"ce4bgv92rcd13ifvqcq0","pricing_plan_id":"cebpf4jnsgd1na2vs0mg"},{"bike_id":"4800367d-e6a8-4d6c-8dbc-3efd4d9dd597","system_id":"levelo_inurba_marseille","lat":43.29552,"lon":5.38993,"is_reserved":false,"is_disabled":false,"rental_uris":{"android":"levelo://app?vid=4800367d-e6a8-4d6c-8dbc-3efd4d9dd597","ios":"levelo://app?vid=4800367d-e6a8-4d6c-8dbc-3efd4d9dd597"},"vehicle_type_id":"4","last_reported":1767674420,"current_range_meters":4400,"station_id":"","pricing_plan_id":"cebpf4jnsgd1na2vs0mg"},{"bike_id":"531abd47-c764-4dab-af3d-db82b5886b8e","system_id":"levelo_inurba_marseille","lat":43.30362,"lon":5.43064,"is_reserved":false,"is_disabled":false,"rental_uris":{"android":"levelo://app?vid=531abd47-c764-4dab-af3d-db82b5886b8e","ios":"levelo://app?vid=531abd47-c764-4dab-af3d-db82b5886b8e"},"vehicle_type_id":"4","last_reported":1767674420,"current_range_meters":4400,"station_id":"","pricing_plan_id":"cebpf4jnsgd1na2vs0mg"},{"bike_id":"b3f49f2b-f95f-44e5-a65b-8e9f1b995079","system_id":"levelo_inurba_marseille","lat":43.28219,"lon":5.39059,"is_reserved":false,"is_disabled":false,"rental_uris":{"android":"levelo://app?vid=b3f49f2b-f95f-44e5-a65b-8e9f1b995079","ios":"levelo://app?vid=b3f49f2b-f95f-44e5-a65b-8e9f1b995079"},"vehicle_type_id":"4","last_reported":1767674420,"current_range_meters":4400,"station_id":"ce4bhn92rcd13ifvqgsg","pricing_plan_id":"cebpf4jnsgd1na2vs0mg"},{"bike_id":"c5365846-c619-4f12-8c92-97c9f9725a15","system_id":"levelo_inurba_marseille","lat":43.29533,"lon":5.37916,"is_reserved":false,"is_disabled":false,"rental_uris":{"android":"levelo://app?vid=c5365846-c619-4f12-8c92-97c9f9725a15","ios":"levelo://app?vid=c5365846-c619-4f12-8c92-97c9f9725a15"},"vehicle_type_id":"4","last_reported":1767674420,"current_range_meters":4400,"station_id":"","pricing_plan_id":"cebpf4jnsgd1na2vs0mg"},{"bike_id":"55654a27-5cd8-4223-b844-2fc4c9f1600a","system_id":"levelo_inurba_marseille","lat":43.31363,"lon":5.37924,"is_reserved":false,"is_disabled":false,"rental_uris":{"android":"levelo://app?vid=55654a27-5cd8-4223-b844-2fc4c9f1600a","ios":"levelo://app?vid=55654a27-5cd8-4223-b844-2fc4c9f1600a"},"vehicle_type_id":"4","last_reported":1767674420,"current_range_meters":4400,"station_id":"","pricing_plan_id":"cebpf4jnsgd1na2vs0mg"},{"bike_id":"d938298d-16c1-4fcf-a2a1-90f5a487d129","system_id":"levelo_inurba_marseille","lat":43.28112,"lon":5.36016,"is_reserved":false,"is_disabled":false,"rental_uris":{"android":"levelo://app?vid=d938298d-16c1-4fcf-a2a1-90f5a487d129","ios":"levelo://app?vid=d938298d-16c1-4fcf-a2a1-90f5a487d129"},"vehicle_type_id":"4","last_reported":1767674420,"current_range_meters":4400,"station_id":"","pricing_plan_id":"cebpf4jnsgd1na2vs0mg"},{"bike_id":"7f0effc9-a455-4ad1-9f50-585d68dccc8b","system_id":"levelo_inurba_marseille","lat":43.28805,"lon":5.36383,"is_reserved":false,"is_disabled":false,"rental_uris":{"android":"levelo://app?vid=7f0effc9-a455-4ad1-9f50-585d68dccc8b","ios":"levelo://app?vid=7f0effc9-a455-4ad1-9f50-585d68dccc8b"},"vehicle_type_id":"4","last_reported":1767674420,"current_range_meters":4800,"station_id":"","pricing_plan_id":"cebpf4jnsgd1na2vs0mg"},{"bike_id":"799baf21-a08b-4a99-a9eb-bb046d6f86b1","system_id":"levelo_inurba_marseille","lat":43.296304,"lon":5.405981,"is_reserved":false,"is_disabled":false,"rental_uris":{"android":"levelo://app?vid=799baf21-a08b-4a99-a9eb-bb046d6f86b1","ios":"levelo://app?vid=799baf21-a08b-4a99-a9eb-bb046d6f86b1"},"vehicle_type_id":"4","last_reported":1767674420,"current_range_meters":4800,"station_id":"ce4bh0h2rcd13ifvqd60","pricing_plan_id":"cebpf4jnsgd1na2vs0mg"},{"bike_id":"7fb60e4c-351d-4c82-b949-05a0c6795968","system_id":"levelo_inurba_marseille","lat":43.29963,"lon":5.37138,"is_reserved":false,"is_disabled":false,"rental_uris":{"android":"levelo://app?vid=7fb60e4c-351d-4c82-b949-05a0c6795968","ios":"levelo://app?vid=7fb60e4c-351d-4c82-b949-05a0c6795968"},"vehicle_type_id":"4","last_reported":1767674420,"current_range_meters":4800,"station_id":"ce4bgr92rcd13ifvqc7g","pricing_plan_id":"cebpf4jnsgd1na2vs0mg"},{"bike_id":"a346bc68-538a-4c08-a956-8c993271e9f9","system_id":"levelo_inurba_marseille","lat":43.31599,"lon":5.38442,"is_reserved":false,"is_disabled":false,"rental_uris":{"android":"levelo://app?vid=a346bc68-538a-4c08-a956-8c993271e9f9","ios":"levelo://app?vid=a346bc68-538a-4c08-a956-8c993271e9f9"},"vehicle_type_id":"4","last_reported":1767674420,"current_range_meters":4800,"station_id":"","pricing_plan_id":"cebpf4jnsgd1na2vs0mg"},{"bike_id":"577a8429-e907-45de-a0fc-b8c3d38163f6","system_id":"levelo_inurba_marseille","lat":43.27911,"lon":5.38258,"is_reserved":false,"is_disabled":false,"rental_uris":{"android":"levelo://app?vid=577a8429-e907-45de-a0fc-b8c3d38163f6","ios":"levelo://app?vid=577a8429-e907-45de-a0fc-b8c3d38163f6"},"vehicle_type_id":"4","last_reported":1767674420,"current_range_meters":4800,"station_id":"","pricing_plan_id":"cebpf4jnsgd1na2vs0mg"},{"bike_id":"506403bb-f5d1-4958-a710-37acfa7c195c","system_id":"levelo_inurba_marseille","lat":43.312463,"lon":5.381243,"is_reserved":false,"is_disabled":false,"rental_uris":{"android":"levelo://app?vid=506403bb-f5d1-4958-a710-37acfa7c195c","ios":"levelo://app?vid=506403bb-f5d1-4958-a710-37acfa7c195c"},"vehicle_type_id":"4","last_reported":1767674420,"current_range_meters":4800,"station_id":"","pricing_plan_id":"cebpf4jnsgd1na2vs0mg"},{"bike_id":"a7ddf1fe-a380-4005-be9c-254f57d4d0b0","system_id":"levelo_inurba_marseille","lat":43.337444,"lon":5.374475,"is_reserved":false,"is_disabled":true,"rental_uris":{"android":"levelo://app?vid=a7ddf1fe-a380-4005-be9c-254f57d4d0b0","ios":"levelo://app?vid=a7ddf1fe-a380-4005-be9c-254f57d4d0b0"},"vehicle_type_id":"4","last_reported":1767674420,"current_range_meters":4800,"station_id":"","pricing_plan_id":"cebpf4jnsgd1na2vs0mg"},{"bike_id":"5c752d77-7b25-48ba-99ef-9b278d0c9e59","system_id":"levelo_inurba_marseille","lat":43.24386,"lon":5.37046,"is_reserved":false,"is_disabled":false,"rental_uris":{"android":"levelo://app?vid=5c752d77-7b25-48ba-99ef-9b278d0c9e59","ios":"levelo://app?vid=5c752d77-7b25-48ba-99ef-9b278d0c9e59"},"vehicle_type_id":"4","last_reported":1767674420,"current_range_meters":4800,"station_id":"ce4bhhh2rcd13ifvqfk0","pricing_plan_id":"cebpf4jnsgd1na2vs0mg"},{"bike_id":"8f3e537d-e514-408a-bb87-1ef66add8f2f","system_id":"levelo_inurba_marseille","lat":43.29217,"lon":5.3607,"is_reserved":false,"is_disabled":false,"rental_uris":{"android":"levelo://app?vid=8f3e537d-e514-408a-bb87-1ef66add8f2f","ios":"levelo://app?vid=8f3e537d-e514-408a-bb87-1ef66add8f2f"},"vehicle_type_id":"4","last_reported":1767674420,"current_range_meters":4800,"station_id":"ce4bhbh2rcd13ifvqeqg","pricing_plan_id":"cebpf4jnsgd1na2vs0mg"},{"bike_id":"2aef254a-0519-4115-b834-d932ebcb603b","system_id":"levelo_inurba_marseille","lat":43.24159,"lon":5.39704,"is_reserved":false,"is_disabled":false,"rental_uris":{"android":"levelo://app?vid=2aef254a-0519-4115-b834-d932ebcb603b","ios":"levelo://app?vid=2aef254a-0519-4115-b834-d932ebcb603b"},"vehicle_type_id":"4","last_reported":1767674420,"current_range_meters":4800,"station_id":"ce4bhn12rcd13ifvqgpg","pricing_plan_id":"cebpf4jnsgd1na2vs0mg"},{"bike_id":"9a898d8c-cf91-4640-acfb-d3be64781fb9","system_id":"levelo_inurba_marseille","lat":43.28474,"lon":5.48408,"is_reserved":false,"is_disabled":false,"rental_uris":{"android":"levelo://app?vid=9a898d8c-cf91-4640-acfb-d3be64781fb9","ios":"levelo://app?vid=9a898d8c-cf91-4640-acfb-d3be64781fb9"},"vehicle_type_id":"4","last_reported":1767674420,"current_range_meters":4800,"station_id":"","pricing_plan_id":"cebpf4jnsgd1na2vs0mg"},{"bike_id":"801e0e40-fac2-4fbc-9636-b8eb982b0989","system_id":"levelo_inurba_marseille","lat":43.23958,"lon":5.36618,"is_reserved":false,"is_disabled":false,"rental_uris":{"android":"levelo://app?vid=801e0e40-fac2-4fbc-9636-b8eb982b0989","ios":"levelo://app?vid=801e0e40-fac2-4fbc-9636-b8eb982b0989"},"vehicle_type_id":"4","last_reported":1767674420,"current_range_meters":5600,"station_id":"ce4bhi12rcd13ifvqfp0","pricing_plan_id":"cebpf4jnsgd1na2vs0mg"},{"bike_id":"803689f6-700f-46ea-893e-250f914f8390","system_id":"levelo_inurba_marseille","lat":43.30209,"lon":5.39469,"is_reserved":false,"is_disabled":false,"rental_uris":{"android":"levelo://app?vid=803689f6-700f-46ea-893e-250f914f8390","ios":"levelo://app?vid=803689f6-700f-46ea-893e-250f914f8390"},"vehicle_type_id":"4","last_reported":1767674420,"current_range_meters":5600,"station_id":"ce4bh0p2rcd13ifvqd70","pricing_plan_id":"cebpf4jnsgd1na2vs0mg"},{"bike_id":"78b11bb5-5700-4fb6-b0c1-d37e13475e71","system_id":"levelo_inurba_marseille","lat":43.29361,"lon":5.37862,"is_reserved":false,"is_disabled":false,"rental_uris":{"android":"levelo://app?vid=78b11bb5-5700-4fb6-b0c1-d37e13475e71","ios":"levelo://app?vid=78b11bb5-5700-4fb6-b0c1-d37e13475e71"},"vehicle_type_id":"4","last_reported":1767674420,"current_range_meters":5600,"station_id":"ce4bgjh2rcd13ifvqbf0","pricing_plan_id":"cebpf4jnsgd1na2vs0mg"},{"bike_id":"d19e7d8f-8d39-4e32-b60a-b3305948b30b","system_id":"levelo_inurba_marseille","lat":43.24174,"lon":5.36389,"is_reserved":false,"is_disabled":false,"rental_uris":{"android":"levelo://app?vid=d19e7d8f-8d39-4e32-b60a-b3305948b30b","ios":"levelo://app?vid=d19e7d8f-8d39-4e32-b60a-b3305948b30b"},"vehicle_type_id":"4","last_reported":1767674420,"current_range_meters":5600,"station_id":"cpo36qri1sfpv3e86is0","pricing_plan_id":"cebpf4jnsgd1na2vs0mg"},{"bike_id":"624def88-3290-4b1b-8e34-827eb7187f9b","system_id":"levelo_inurba_marseille","lat":43.27084,"lon":5.4228,"is_reserved":false,"is_disabled":false,"rental_uris":{"android":"levelo://app?vid=624def88-3290-4b1b-8e34-827eb7187f9b","ios":"levelo://app?vid=624def88-3290-4b1b-8e34-827eb7187f9b"},"vehicle_type_id":"4","last_reported":1767674420,"current_range_meters":5600,"station_id":"ce4bhk92rcd13ifvqgb0","pricing_plan_id":"cebpf4jnsgd1na2vs0mg"},{"bike_id":"504c62db-8dc0-4d03-9c83-c1acce2e5fab","system_id":"levelo_inurba_marseille","lat":43.29147,"lon":5.37972,"is_reserved":false,"is_disabled":false,"rental_uris":{"android":"levelo://app?vid=504c62db-8dc0-4d03-9c83-c1acce2e5fab","ios":"levelo://app?vid=504c62db-8dc0-4d03-9c83-c1acce2e5fab"},"vehicle_type_id":"4","last_reported":1767674420,"current_range_meters":5600,"station_id":"","pricing_plan_id":"cebpf4jnsgd1na2vs0mg"},{"bike_id":"bded8fdd-ec77-4f6c-ac80-640892e88778","system_id":"levelo_inurba_marseille","lat":43.27818,"lon":5.40749,"is_reserved":false,"is_disabled":false,"rental_uris":{"android":"levelo://app?vid=bded8fdd-ec77-4f6c-ac80-640892e88778","ios":"levelo://app?vid=bded8fdd-ec77-4f6c-ac80-640892e88778"},"vehicle_type_id":"4","last_reported":1767674420,"current_range_meters":5600,"station_id":"ce4bhnh2rcd13ifvqgtg","pricing_plan_id":"cebpf4jnsgd1na2vs0mg"},{"bike_id":"a6248263-4151-4dff-b458-df25bb85e19b","system_id":"levelo_inurba_marseille","lat":43.29441,"lon":5.39753,"is_reserved":false,"is_disabled":false,"rental_uris":{"android":"levelo://app?vid=a6248263-4151-4dff-b458-df25bb85e19b","ios":"levelo://app?vid=a6248263-4151-4dff-b458-df25bb85e19b"},"vehicle_type_id":"4","last_reported":1767674420,"current_range_meters":5600,"station_id":"ce4bh3h2rcd13ifvqdo0","pricing_plan_id":"cebpf4jnsgd1na2vs0mg"},{"bike_id":"8c1916f3-9874-4eb0-8987-deefc3073e14","system_id":"levelo_inurba_marseille","lat":43.29108,"lon":5.38155,"is_reserved":false,"is_disabled":false,"rental_uris":{"android":"levelo://app?vid=8c1916f3-9874-4eb0-8987-deefc3073e14","ios":"levelo://app?vid=8c1916f3-9874-4eb0-8987-deefc3073e14"},"vehicle_type_id":"4","last_reported":1767674420,"current_range_meters":6000,"station_id":"ce4bh512rcd13ifvqe2g","pricing_plan_id":"cebpf4jnsgd1na2vs0mg"},{"bike_id":"dca9a712-a982-44b1-8cbd-17efb24372eb","system_id":"levelo_inurba_marseille","lat":43.30178,"lon":5.36624,"is_reserved":false,"is_disabled":false,"rental_uris":{"android":"levelo://app?vid=dca9a712-a982-44b1-8cbd-17efb24372eb","ios":"levelo://app?vid=dca9a712-a982-44b1-8cbd-17efb24372eb"},"vehicle_type_id":"4","last_reported":1767674420,"current_range_meters":6000,"station_id":"ce4bgrh2rcd13ifvqc8g","pricing_plan_id":"cebpf4jnsgd1na2vs0mg"},{"bike_id":"ad07f6f2-b9d1-4608-8a7c-61b053feae0c","system_id":"levelo_inurba_marseille","lat":43.2842,"lon":5.37518,"is_reserved":false,"is_disabled":false,"rental_uris":{"android":"levelo://app?vid=ad07f6f2-b9d1-4608-8a7c-61b053feae0c","ios":"levelo://app?vid=ad07f6f2-b9d1-4608-8a7c-61b053feae0c"},"vehicle_type_id":"4","last_reported":1767674420,"current_range_meters":6000,"station_id":"ce4bh412rcd13ifvqds0","pricing_plan_id":"cebpf4jnsgd1na2vs0mg"},{"bike_id":"0e22fed4-cc8e-4c96-9cf2-c02ee7fd65a9","system_id":"levelo_inurba_marseille","lat":43.310529,"lon":5.393431,"is_reserved":false,"is_disabled":false,"rental_uris":{"android":"levelo://app?vid=0e22fed4-cc8e-4c96-9cf2-c02ee7fd65a9","ios":"levelo://app?vid=0e22fed4-cc8e-4c96-9cf2-c02ee7fd65a9"},"vehicle_type_id":"4","last_reported":1767674420,"current_range_meters":6000,"station_id":"","pricing_plan_id":"cebpf4jnsgd1na2vs0mg"},{"bike_id":"e5080626-6fd3-465a-95fc-ffeeb81121ed","system_id":"levelo_inurba_marseille","lat":43.305373,"lon":5.367102,"is_reserved":false,"is_disabled":false,"rental_uris":{"android":"levelo://app?vid=e5080626-6fd3-465a-95fc-ffeeb81121ed","ios":"levelo://app?vid=e5080626-6fd3-465a-95fc-ffeeb81121ed"},"vehicle_type_id":"4","last_reported":1767674420,"current_range_meters":6000,"station_id":"ce4bgrp2rcd13ifvqc9g","pricing_plan_id":"cebpf4jnsgd1na2vs0mg"},{"bike_id":"58aa433d-6523-48fb-83cc-9676ed151533","system_id":"levelo_inurba_marseille","lat":43.27927,"lon":5.39584,"is_reserved":false,"is_disabled":false,"rental_uris":{"android":"levelo://app?vid=58aa433d-6523-48fb-83cc-9676ed151533","ios":"levelo://app?vid=58aa433d-6523-48fb-83cc-9676ed151533"},"vehicle_type_id":"4","last_reported":1767674420,"current_range_meters":6000,"station_id":"ce4bhf92rcd13ifvqf40","pricing_plan_id":"cebpf4jnsgd1na2vs0mg"},{"bike_id":"0f7eefdf-8972-4dc8-89aa-952cc1944736","system_id":"levelo_inurba_marseille","lat":43.27813,"lon":5.407306,"is_reserved":false,"is_disabled":false,"rental_uris":{"android":"levelo://app?vid=0f7eefdf-8972-4dc8-89aa-952cc1944736","ios":"levelo://app?vid=0f7eefdf-8972-4dc8-89aa-952cc1944736"},"vehicle_type_id":"4","last_reported":1767674420,"current_range_meters":6000,"station_id":"ce4bhnh2rcd13ifvqgtg","pricing_plan_id":"cebpf4jnsgd1na2vs0mg"},{"bike_id":"0e918b68-9ad7-4fa7-a25b-8a5f660aa768","system_id":"levelo_inurba_marseille","lat":43.291794,"lon":5.3715,"is_reserved":false,"is_disabled":false,"rental_uris":{"android":"levelo://app?vid=0e918b68-9ad7-4fa7-a25b-8a5f660aa768","ios":"levelo://app?vid=0e918b68-9ad7-4fa7-a25b-8a5f660aa768"},"vehicle_type_id":"4","last_reported":1767674420,"current_range_meters":6000,"station_id":"ce4bha92rcd13ifvqeh0","pricing_plan_id":"cebpf4jnsgd1na2vs0mg"},{"bike_id":"bd300446-e87a-42b8-9a81-aff40a2f3d1f","system_id":"levelo_inurba_marseille","lat":43.28711,"lon":5.374032,"is_reserved":false,"is_disabled":false,"rental_uris":{"android":"levelo://app?vid=bd300446-e87a-42b8-9a81-aff40a2f3d1f","ios":"levelo://app?vid=bd300446-e87a-42b8-9a81-aff40a2f3d1f"},"vehicle_type_id":"4","last_reported":1767674420,"current_range_meters":6000,"station_id":"ce4bh3p2rcd13ifvqdq0","pricing_plan_id":"cebpf4jnsgd1na2vs0mg"},{"bike_id":"9b6d4335-5c89-40cd-a57b-155467c3599f","system_id":"levelo_inurba_marseille","lat":43.28065,"lon":5.39659,"is_reserved":false,"is_disabled":false,"rental_uris":{"android":"levelo://app?vid=9b6d4335-5c89-40cd-a57b-155467c3599f","ios":"levelo://app?vid=9b6d4335-5c89-40cd-a57b-155467c3599f"},"vehicle_type_id":"4","last_reported":1767674420,"current_range_meters":6000,"station_id":"ce4bho12rcd13ifvqh2g","pricing_plan_id":"cebpf4jnsgd1na2vs0mg"},{"bike_id":"f5f1c002-e48d-481d-ba20-3f1c13126e6b","system_id":"levelo_inurba_marseille","lat":43.29048,"lon":5.38682,"is_reserved":false,"is_disabled":false,"rental_uris":{"android":"levelo://app?vid=f5f1c002-e48d-481d-ba20-3f1c13126e6b","ios":"levelo://app?vid=f5f1c002-e48d-481d-ba20-3f1c13126e6b"},"vehicle_type_id":"4","last_reported":1767674420,"current_range_meters":6000,"station_id":"ce4bh4p2rcd13ifvqe0g","pricing_plan_id":"cebpf4jnsgd1na2vs0mg"},{"bike_id":"bf5aaa97-9258-436f-934d-edcef9bf7954","system_id":"levelo_inurba_marseille","lat":43.31715,"lon":5.39974,"is_reserved":false,"is_disabled":false,"rental_uris":{"android":"levelo://app?vid=bf5aaa97-9258-436f-934d-edcef9bf7954","ios":"levelo://app?vid=bf5aaa97-9258-436f-934d-edcef9bf7954"},"vehicle_type_id":"4","last_reported":1767674420,"current_range_meters":6000,"station_id":"","pricing_plan_id":"cebpf4jnsgd1na2vs0mg"},{"bike_id":"8674a0fb-2929-4fee-a4ac-adb3c958d8ee","system_id":"levelo_inurba_marseille","lat":43.29215,"lon":5.36071,"is_reserved":false,"is_disabled":false,"rental_uris":{"android":"levelo://app?vid=8674a0fb-2929-4fee-a4ac-adb3c958d8ee","ios":"levelo://app?vid=8674a0fb-2929-4fee-a4ac-adb3c958d8ee"},"vehicle_type_id":"4","last_reported":1767674420,"current_range_meters":6000,"station_id":"ce4bhbh2rcd13ifvqeqg","pricing_plan_id":"cebpf4jnsgd1na2vs0mg"},{"bike_id":"cfd96779-ac06-41e3-84f7-a5ca7fe9eaab","system_id":"levelo_inurba_marseille","lat":43.28479,"lon":5.48395,"is_reserved":false,"is_disabled":false,"rental_uris":{"android":"levelo://app?vid=cfd96779-ac06-41e3-84f7-a5ca7fe9eaab","ios":"levelo://app?vid=cfd96779-ac06-41e3-84f7-a5ca7fe9eaab"},"vehicle_type_id":"4","last_reported":1767674420,"current_range_meters":6000,"station_id":"","pricing_plan_id":"cebpf4jnsgd1na2vs0mg"},{"bike_id":"f191a03b-f238-4b08-9e6f-cfcdf5b41fcf","system_id":"levelo_inurba_marseille","lat":43.25079,"lon":5.39504,"is_reserved":false,"is_disabled":false,"rental_uris":{"android":"levelo://app?vid=f191a03b-f238-4b08-9e6f-cfcdf5b41fcf","ios":"levelo://app?vid=f191a03b-f238-4b08-9e6f-cfcdf5b41fcf"},"vehicle_type_id":"4","last_reported":1767674420,"current_range_meters":6000,"station_id":"ce4bhm12rcd13ifvqgkg","pricing_plan_id":"cebpf4jnsgd1na2vs0mg"},{"bike_id":"49a70347-36ae-4442-a0c3-32c4ed4b4ff4","system_id":"levelo_inurba_marseille","lat":43.28856,"lon":5.42524,"is_reserved":false,"is_disabled":false,"rental_uris":{"android":"levelo://app?vid=49a70347-36ae-4442-a0c3-32c4ed4b4ff4","ios":"levelo://app?vid=49a70347-36ae-4442-a0c3-32c4ed4b4ff4"},"vehicle_type_id":"4","last_reported":1767674420,"current_range_meters":6400,"station_id":"st_d3b462108ojc7389ooeg","pricing_plan_id":"cebpf4jnsgd1na2vs0mg"},{"bike_id":"423890d3-f014-4ad2-9883-d1880b33351e","system_id":"levelo_inurba_marseille","lat":43.31325,"lon":5.39681,"is_reserved":false,"is_disabled":false,"rental_uris":{"android":"levelo://app?vid=423890d3-f014-4ad2-9883-d1880b33351e","ios":"levelo://app?vid=423890d3-f014-4ad2-9883-d1880b33351e"},"vehicle_type_id":"4","last_reported":1767674420,"current_range_meters":6400,"station_id":"ce4bgvp2rcd13ifvqcu0","pricing_plan_id":"cebpf4jnsgd1na2vs0mg"},{"bike_id":"2ad11e8b-6525-4219-97fa-e942c570f9bd","system_id":"levelo_inurba_marseille","lat":43.27041,"lon":5.38317,"is_reserved":false,"is_disabled":false,"rental_uris":{"android":"levelo://app?vid=2ad11e8b-6525-4219-97fa-e942c570f9bd","ios":"levelo://app?vid=2ad11e8b-6525-4219-97fa-e942c570f9bd"},"vehicle_type_id":"4","last_reported":1767674420,"current_range_meters":6400,"station_id":"st_d3n2fo6cfp8s73cte1j0","pricing_plan_id":"cebpf4jnsgd1na2vs0mg"},{"bike_id":"093f3379-cf7d-4260-b2a9-7ae528f92dcb","system_id":"levelo_inurba_marseille","lat":43.29614,"lon":5.37745,"is_reserved":false,"is_disabled":false,"rental_uris":{"android":"levelo://app?vid=093f3379-cf7d-4260-b2a9-7ae528f92dcb","ios":"levelo://app?vid=093f3379-cf7d-4260-b2a9-7ae528f92dcb"},"vehicle_type_id":"4","last_reported":1767674420,"current_range_meters":6400,"station_id":"ce4bgi92rcd13ifvqb90","pricing_plan_id":"cebpf4jnsgd1na2vs0mg"},{"bike_id":"f97c9d69-08f3-4e6e-837a-e318a0cb9742","system_id":"levelo_inurba_marseille","lat":43.29297,"lon":5.36828,"is_reserved":false,"is_disabled":false,"rental_uris":{"android":"levelo://app?vid=f97c9d69-08f3-4e6e-837a-e318a0cb9742","ios":"levelo://app?vid=f97c9d69-08f3-4e6e-837a-e318a0cb9742"},"vehicle_type_id":"4","last_reported":1767674420,"current_range_meters":6400,"station_id":"ce4bhbp2rcd13ifvqesg","pricing_plan_id":"cebpf4jnsgd1na2vs0mg"},{"bike_id":"6d144e18-c317-45d2-a70f-5ce6eec5adda","system_id":"levelo_inurba_marseille","lat":43.26702,"lon":5.40213,"is_reserved":false,"is_disabled":false,"rental_uris":{"android":"levelo://app?vid=6d144e18-c317-45d2-a70f-5ce6eec5adda","ios":"levelo://app?vid=6d144e18-c317-45d2-a70f-5ce6eec5adda"},"vehicle_type_id":"4","last_reported":1767674420,"current_range_meters":6400,"station_id":"","pricing_plan_id":"cebpf4jnsgd1na2vs0mg"},{"bike_id":"19ae9f94-2604-4ea1-9b89-2cfef13f757c","system_id":"levelo_inurba_marseille","lat":43.25341,"lon":5.42162,"is_reserved":false,"is_disabled":false,"rental_uris":{"android":"levelo://app?vid=19ae9f94-2604-4ea1-9b89-2cfef13f757c","ios":"levelo://app?vid=19ae9f94-2604-4ea1-9b89-2cfef13f757c"},"vehicle_type_id":"4","last_reported":1767674420,"current_range_meters":6400,"station_id":"st_d2m65c5bi1j21697t3ng","pricing_plan_id":"cebpf4jnsgd1na2vs0mg"},{"bike_id":"00da6500-68b4-4b45-be1f-48d675212bd1","system_id":"levelo_inurba_marseille","lat":43.3049,"lon":5.36539,"is_reserved":false,"is_disabled":false,"rental_uris":{"android":"levelo://app?vid=00da6500-68b4-4b45-be1f-48d675212bd1","ios":"levelo://app?vid=00da6500-68b4-4b45-be1f-48d675212bd1"},"vehicle_type_id":"4","last_reported":1767674420,"current_range_meters":6400,"station_id":"","pricing_plan_id":"cebpf4jnsgd1na2vs0mg"},{"bike_id":"4d3ddcb3-cc8f-4e3d-93e5-673f0eb4bf33","system_id":"levelo_inurba_marseille","lat":43.280748,"lon":5.396586,"is_reserved":false,"is_disabled":false,"rental_uris":{"android":"levelo://app?vid=4d3ddcb3-cc8f-4e3d-93e5-673f0eb4bf33","ios":"levelo://app?vid=4d3ddcb3-cc8f-4e3d-93e5-673f0eb4bf33"},"vehicle_type_id":"4","last_reported":1767674420,"current_range_meters":6400,"station_id":"ce4bho12rcd13ifvqh2g","pricing_plan_id":"cebpf4jnsgd1na2vs0mg"},{"bike_id":"e3a366e7-432a-4c86-8fda-c24791fb1ce5","system_id":"levelo_inurba_marseille","lat":43.29763,"lon":5.37764,"is_reserved":false,"is_disabled":false,"rental_uris":{"android":"levelo://app?vid=e3a366e7-432a-4c86-8fda-c24791fb1ce5","ios":"levelo://app?vid=e3a366e7-432a-4c86-8fda-c24791fb1ce5"},"vehicle_type_id":"4","last_reported":1767674420,"current_range_meters":6400,"station_id":"","pricing_plan_id":"cebpf4jnsgd1na2vs0mg"},{"bike_id":"8299be8b-6e8b-4ca4-ad90-3349d456df65","system_id":"levelo_inurba_marseille","lat":43.2716,"lon":5.40995,"is_reserved":false,"is_disabled":false,"rental_uris":{"android":"levelo://app?vid=8299be8b-6e8b-4ca4-ad90-3349d456df65","ios":"levelo://app?vid=8299be8b-6e8b-4ca4-ad90-3349d456df65"},"vehicle_type_id":"4","last_reported":1767674420,"current_range_meters":6400,"station_id":"ce4bhl12rcd13ifvqgf0","pricing_plan_id":"cebpf4jnsgd1na2vs0mg"},{"bike_id":"28abf1e2-a38c-4481-b948-880e95850eb2","system_id":"levelo_inurba_marseille","lat":43.30528,"lon":5.36691,"is_reserved":false,"is_disabled":false,"rental_uris":{"android":"levelo://app?vid=28abf1e2-a38c-4481-b948-880e95850eb2","ios":"levelo://app?vid=28abf1e2-a38c-4481-b948-880e95850eb2"},"vehicle_type_id":"4","last_reported":1767674420,"current_range_meters":6400,"station_id":"ce4bgrp2rcd13ifvqc9g","pricing_plan_id":"cebpf4jnsgd1na2vs0mg"},{"bike_id":"fde24df3-addb-4a7b-b0e7-f2e289c22e5d","system_id":"levelo_inurba_marseille","lat":43.310354,"lon":5.39377,"is_reserved":false,"is_disabled":false,"rental_uris":{"android":"levelo://app?vid=fde24df3-addb-4a7b-b0e7-f2e289c22e5d","ios":"levelo://app?vid=fde24df3-addb-4a7b-b0e7-f2e289c22e5d"},"vehicle_type_id":"4","last_reported":1767674420,"current_range_meters":6400,"station_id":"","pricing_plan_id":"cebpf4jnsgd1na2vs0mg"},{"bike_id":"531ba190-2d4e-4722-99ab-7185252e6433","system_id":"levelo_inurba_marseille","lat":43.22597,"lon":5.41653,"is_reserved":false,"is_disabled":false,"rental_uris":{"android":"levelo://app?vid=531ba190-2d4e-4722-99ab-7185252e6433","ios":"levelo://app?vid=531ba190-2d4e-4722-99ab-7185252e6433"},"vehicle_type_id":"4","last_reported":1767674420,"current_range_meters":6400,"station_id":"st_d2o4gvlbi1j2169b742g","pricing_plan_id":"cebpf4jnsgd1na2vs0mg"},{"bike_id":"0e56497d-2fdb-4797-b5b0-2fbc698bc20a","system_id":"levelo_inurba_marseille","lat":43.293735,"lon":5.378661,"is_reserved":false,"is_disabled":false,"rental_uris":{"android":"levelo://app?vid=0e56497d-2fdb-4797-b5b0-2fbc698bc20a","ios":"levelo://app?vid=0e56497d-2fdb-4797-b5b0-2fbc698bc20a"},"vehicle_type_id":"4","last_reported":1767674420,"current_range_meters":6400,"station_id":"ce4bgjh2rcd13ifvqbf0","pricing_plan_id":"cebpf4jnsgd1na2vs0mg"},{"bike_id":"6978fec3-7553-4c88-b8a0-53d7a29ef142","system_id":"levelo_inurba_marseille","lat":43.26277,"lon":5.398,"is_reserved":false,"is_disabled":false,"rental_uris":{"android":"levelo://app?vid=6978fec3-7553-4c88-b8a0-53d7a29ef142","ios":"levelo://app?vid=6978fec3-7553-4c88-b8a0-53d7a29ef142"},"vehicle_type_id":"4","last_reported":1767674420,"current_range_meters":6400,"station_id":"","pricing_plan_id":"cebpf4jnsgd1na2vs0mg"},{"bike_id":"a49ccc60-1c05-455f-b690-8b6829c4966b","system_id":"levelo_inurba_marseille","lat":43.24076,"lon":5.37755,"is_reserved":false,"is_disabled":false,"rental_uris":{"android":"levelo://app?vid=a49ccc60-1c05-455f-b690-8b6829c4966b","ios":"levelo://app?vid=a49ccc60-1c05-455f-b690-8b6829c4966b"},"vehicle_type_id":"4","last_reported":1767674420,"current_range_meters":6400,"station_id":"ce4bhnp2rcd13ifvqgvg","pricing_plan_id":"cebpf4jnsgd1na2vs0mg"},{"bike_id":"bd370c67-7ebd-4b98-b04e-decd496cefe6","system_id":"levelo_inurba_marseille","lat":43.301,"lon":5.39084,"is_reserved":false,"is_disabled":true,"rental_uris":{"android":"levelo://app?vid=bd370c67-7ebd-4b98-b04e-decd496cefe6","ios":"levelo://app?vid=bd370c67-7ebd-4b98-b04e-decd496cefe6"},"vehicle_type_id":"4","last_reported":1767674420,"current_range_meters":6800,"station_id":"ce4bh192rcd13ifvqdb0","pricing_plan_id":"cebpf4jnsgd1na2vs0mg"},{"bike_id":"ece91064-8675-490a-b853-1cfa2d016560","system_id":"levelo_inurba_marseille","lat":43.239561,"lon":5.36642,"is_reserved":false,"is_disabled":false,"rental_uris":{"android":"levelo://app?vid=ece91064-8675-490a-b853-1cfa2d016560","ios":"levelo://app?vid=ece91064-8675-490a-b853-1cfa2d016560"},"vehicle_type_id":"4","last_reported":1767674420,"current_range_meters":6800,"station_id":"ce4bhi12rcd13ifvqfp0","pricing_plan_id":"cebpf4jnsgd1na2vs0mg"},{"bike_id":"1e8f5205-973a-43e9-90dc-afde1e68dc83","system_id":"levelo_inurba_marseille","lat":43.31053,"lon":5.40095,"is_reserved":false,"is_disabled":false,"rental_uris":{"android":"levelo://app?vid=1e8f5205-973a-43e9-90dc-afde1e68dc83","ios":"levelo://app?vid=1e8f5205-973a-43e9-90dc-afde1e68dc83"},"vehicle_type_id":"4","last_reported":1767674420,"current_range_meters":6800,"station_id":"","pricing_plan_id":"cebpf4jnsgd1na2vs0mg"},{"bike_id":"39bf0acd-4f70-47d3-a144-ba9f5f687ddd","system_id":"levelo_inurba_marseille","lat":43.2553,"lon":5.37648,"is_reserved":false,"is_disabled":false,"rental_uris":{"android":"levelo://app?vid=39bf0acd-4f70-47d3-a144-ba9f5f687ddd","ios":"levelo://app?vid=39bf0acd-4f70-47d3-a144-ba9f5f687ddd"},"vehicle_type_id":"4","last_reported":1767674420,"current_range_meters":6800,"station_id":"ce4bhh12rcd13ifvqff0","pricing_plan_id":"cebpf4jnsgd1na2vs0mg"},{"bike_id":"1ae92490-659a-4b31-9282-3be4a846553c","system_id":"levelo_inurba_marseille","lat":43.316953,"lon":5.398552,"is_reserved":false,"is_disabled":false,"rental_uris":{"android":"levelo://app?vid=1ae92490-659a-4b31-9282-3be4a846553c","ios":"levelo://app?vid=1ae92490-659a-4b31-9282-3be4a846553c"},"vehicle_type_id":"4","last_reported":1767674420,"current_range_meters":6800,"station_id":"","pricing_plan_id":"cebpf4jnsgd1na2vs0mg"},{"bike_id":"c1694b41-e18e-46a6-ad0f-1cad09925867","system_id":"levelo_inurba_marseille","lat":43.28866,"lon":5.42511,"is_reserved":false,"is_disabled":false,"rental_uris":{"android":"levelo://app?vid=c1694b41-e18e-46a6-ad0f-1cad09925867","ios":"levelo://app?vid=c1694b41-e18e-46a6-ad0f-1cad09925867"},"vehicle_type_id":"4","last_reported":1767674420,"current_range_meters":6800,"station_id":"st_d3b462108ojc7389ooeg","pricing_plan_id":"cebpf4jnsgd1na2vs0mg"},{"bike_id":"139e13a1-e72b-4a5d-ab11-5f421c44da57","system_id":"levelo_inurba_marseille","lat":43.30374,"lon":5.42545,"is_reserved":false,"is_disabled":false,"rental_uris":{"android":"levelo://app?vid=139e13a1-e72b-4a5d-ab11-5f421c44da57","ios":"levelo://app?vid=139e13a1-e72b-4a5d-ab11-5f421c44da57"},"vehicle_type_id":"4","last_reported":1767674420,"current_range_meters":6800,"station_id":"","pricing_plan_id":"cebpf4jnsgd1na2vs0mg"},{"bike_id":"6f46e1b4-663e-4c43-9cc4-4c8a983f164f","system_id":"levelo_inurba_marseille","lat":43.23138,"lon":5.43697,"is_reserved":false,"is_disabled":false,"rental_uris":{"android":"levelo://app?vid=6f46e1b4-663e-4c43-9cc4-4c8a983f164f","ios":"levelo://app?vid=6f46e1b4-663e-4c43-9cc4-4c8a983f164f"},"vehicle_type_id":"4","last_reported":1767674420,"current_range_meters":6800,"station_id":"ce4bhmp2rcd13ifvqgog","pricing_plan_id":"cebpf4jnsgd1na2vs0mg"},{"bike_id":"aff7ede2-d3c6-4426-827e-a4ce14157f34","system_id":"levelo_inurba_marseille","lat":43.30754,"lon":5.38144,"is_reserved":false,"is_disabled":false,"rental_uris":{"android":"levelo://app?vid=aff7ede2-d3c6-4426-827e-a4ce14157f34","ios":"levelo://app?vid=aff7ede2-d3c6-4426-827e-a4ce14157f34"},"vehicle_type_id":"4","last_reported":1767674420,"current_range_meters":6800,"station_id":"","pricing_plan_id":"cebpf4jnsgd1na2vs0mg"},{"bike_id":"8888b60a-8078-401c-9213-eda80077f961","system_id":"levelo_inurba_marseille","lat":43.28615,"lon":5.35125,"is_reserved":false,"is_disabled":false,"rental_uris":{"android":"levelo://app?vid=8888b60a-8078-401c-9213-eda80077f961","ios":"levelo://app?vid=8888b60a-8078-401c-9213-eda80077f961"},"vehicle_type_id":"4","last_reported":1767674420,"current_range_meters":6800,"station_id":"ce4bhch2rcd13ifvqeug","pricing_plan_id":"cebpf4jnsgd1na2vs0mg"},{"bike_id":"6b322d1c-13b4-4164-9464-e25ade04017e","system_id":"levelo_inurba_marseille","lat":43.30133,"lon":5.39863,"is_reserved":false,"is_disabled":false,"rental_uris":{"android":"levelo://app?vid=6b322d1c-13b4-4164-9464-e25ade04017e","ios":"levelo://app?vid=6b322d1c-13b4-4164-9464-e25ade04017e"},"vehicle_type_id":"4","last_reported":1767674420,"current_range_meters":6800,"station_id":"ce4bh0h2rcd13ifvqd40","pricing_plan_id":"cebpf4jnsgd1na2vs0mg"},{"bike_id":"53fbe8d7-5e1a-4a63-b3fe-3b66cff7b3ba","system_id":"levelo_inurba_marseille","lat":43.30183,"lon":5.36618,"is_reserved":false,"is_disabled":false,"rental_uris":{"android":"levelo://app?vid=53fbe8d7-5e1a-4a63-b3fe-3b66cff7b3ba","ios":"levelo://app?vid=53fbe8d7-5e1a-4a63-b3fe-3b66cff7b3ba"},"vehicle_type_id":"4","last_reported":1767674420,"current_range_meters":6800,"station_id":"ce4bgrh2rcd13ifvqc8g","pricing_plan_id":"cebpf4jnsgd1na2vs0mg"},{"bike_id":"28fc6bcc-e465-48e9-ad1d-810f9d62680e","system_id":"levelo_inurba_marseille","lat":43.3033,"lon":5.36916,"is_reserved":false,"is_disabled":false,"rental_uris":{"android":"levelo://app?vid=28fc6bcc-e465-48e9-ad1d-810f9d62680e","ios":"levelo://app?vid=28fc6bcc-e465-48e9-ad1d-810f9d62680e"},"vehicle_type_id":"4","last_reported":1767674420,"current_range_meters":6800,"station_id":"ce4bgqh2rcd13ifvqc5g","pricing_plan_id":"cebpf4jnsgd1na2vs0mg"},{"bike_id":"e95ce2d0-07e6-408c-94e5-1989f12b6691","system_id":"levelo_inurba_marseille","lat":43.24394,"lon":5.37062,"is_reserved":false,"is_disabled":false,"rental_uris":{"android":"levelo://app?vid=e95ce2d0-07e6-408c-94e5-1989f12b6691","ios":"levelo://app?vid=e95ce2d0-07e6-408c-94e5-1989f12b6691"},"vehicle_type_id":"4","last_reported":1767674420,"current_range_meters":6800,"station_id":"ce4bhhh2rcd13ifvqfk0","pricing_plan_id":"cebpf4jnsgd1na2vs0mg"},{"bike_id":"fb7d2000-511d-4e1f-b651-b3d8692adce4","system_id":"levelo_inurba_marseille","lat":43.249478,"lon":5.405009,"is_reserved":false,"is_disabled":false,"rental_uris":{"android":"levelo://app?vid=fb7d2000-511d-4e1f-b651-b3d8692adce4","ios":"levelo://app?vid=fb7d2000-511d-4e1f-b651-b3d8692adce4"},"vehicle_type_id":"4","last_reported":1767674420,"current_range_meters":6800,"station_id":"st_d2ngiaodas8pm72gd1h0","pricing_plan_id":"cebpf4jnsgd1na2vs0mg"},{"bike_id":"00ebedf9-0c96-49ce-bb80-7f39d448d3e4","system_id":"levelo_inurba_marseille","lat":43.291752,"lon":5.357981,"is_reserved":false,"is_disabled":false,"rental_uris":{"android":"levelo://app?vid=00ebedf9-0c96-49ce-bb80-7f39d448d3e4","ios":"levelo://app?vid=00ebedf9-0c96-49ce-bb80-7f39d448d3e4"},"vehicle_type_id":"4","last_reported":1767674420,"current_range_meters":6800,"station_id":"ce4bhb12rcd13ifvqel0","pricing_plan_id":"cebpf4jnsgd1na2vs0mg"},{"bike_id":"d63adab8-fe33-47d0-bef7-72b9f680ef30","system_id":"levelo_inurba_marseille","lat":43.28869,"lon":5.42521,"is_reserved":false,"is_disabled":false,"rental_uris":{"android":"levelo://app?vid=d63adab8-fe33-47d0-bef7-72b9f680ef30","ios":"levelo://app?vid=d63adab8-fe33-47d0-bef7-72b9f680ef30"},"vehicle_type_id":"4","last_reported":1767674420,"current_range_meters":6800,"station_id":"st_d3b462108ojc7389ooeg","pricing_plan_id":"cebpf4jnsgd1na2vs0mg"},{"bike_id":"da033954-77a4-4a42-af93-ddd0b90806cb","system_id":"levelo_inurba_marseille","lat":43.31278,"lon":5.37396,"is_reserved":false,"is_disabled":false,"rental_uris":{"android":"levelo://app?vid=da033954-77a4-4a42-af93-ddd0b90806cb","ios":"levelo://app?vid=da033954-77a4-4a42-af93-ddd0b90806cb"},"vehicle_type_id":"4","last_reported":1767674420,"current_range_meters":7200,"station_id":"","pricing_plan_id":"cebpf4jnsgd1na2vs0mg"},{"bike_id":"fc24e154-126f-487a-abd8-81f2874cd1b6","system_id":"levelo_inurba_marseille","lat":43.271872,"lon":5.409893,"is_reserved":false,"is_disabled":false,"rental_uris":{"android":"levelo://app?vid=fc24e154-126f-487a-abd8-81f2874cd1b6","ios":"levelo://app?vid=fc24e154-126f-487a-abd8-81f2874cd1b6"},"vehicle_type_id":"4","last_reported":1767674420,"current_range_meters":7200,"station_id":"ce4bhl12rcd13ifvqgf0","pricing_plan_id":"cebpf4jnsgd1na2vs0mg"},{"bike_id":"b54e5aa3-f80c-415f-8398-f57ed95bfed2","system_id":"levelo_inurba_marseille","lat":43.225503,"lon":5.416341,"is_reserved":false,"is_disabled":false,"rental_uris":{"android":"levelo://app?vid=b54e5aa3-f80c-415f-8398-f57ed95bfed2","ios":"levelo://app?vid=b54e5aa3-f80c-415f-8398-f57ed95bfed2"},"vehicle_type_id":"4","last_reported":1767674420,"current_range_meters":7200,"station_id":"st_d2o4gvlbi1j2169b742g","pricing_plan_id":"cebpf4jnsgd1na2vs0mg"},{"bike_id":"363d24ec-7f56-48ba-afb4-d6a61684329e","system_id":"levelo_inurba_marseille","lat":43.30485,"lon":5.41066,"is_reserved":false,"is_disabled":false,"rental_uris":{"android":"levelo://app?vid=363d24ec-7f56-48ba-afb4-d6a61684329e","ios":"levelo://app?vid=363d24ec-7f56-48ba-afb4-d6a61684329e"},"vehicle_type_id":"4","last_reported":1767674420,"current_range_meters":7200,"station_id":"","pricing_plan_id":"cebpf4jnsgd1na2vs0mg"},{"bike_id":"f195a72e-e4f7-4129-808a-cab5b6257fad","system_id":"levelo_inurba_marseille","lat":43.21195,"lon":5.35072,"is_reserved":false,"is_disabled":false,"rental_uris":{"android":"levelo://app?vid=f195a72e-e4f7-4129-808a-cab5b6257fad","ios":"levelo://app?vid=f195a72e-e4f7-4129-808a-cab5b6257fad"},"vehicle_type_id":"4","last_reported":1767674420,"current_range_meters":7200,"station_id":"st_cvj6sg6p6f1abm77japg","pricing_plan_id":"cebpf4jnsgd1na2vs0mg"},{"bike_id":"1a6e1c7c-9ed2-4166-8162-ade6bcac84e8","system_id":"levelo_inurba_marseille","lat":43.23952,"lon":5.36642,"is_reserved":false,"is_disabled":false,"rental_uris":{"android":"levelo://app?vid=1a6e1c7c-9ed2-4166-8162-ade6bcac84e8","ios":"levelo://app?vid=1a6e1c7c-9ed2-4166-8162-ade6bcac84e8"},"vehicle_type_id":"4","last_reported":1767674420,"current_range_meters":7200,"station_id":"ce4bhi12rcd13ifvqfp0","pricing_plan_id":"cebpf4jnsgd1na2vs0mg"},{"bike_id":"d479a5e7-3cbe-4ebf-a3e1-182f6667dcef","system_id":"levelo_inurba_marseille","lat":43.24393,"lon":5.37071,"is_reserved":false,"is_disabled":false,"rental_uris":{"android":"levelo://app?vid=d479a5e7-3cbe-4ebf-a3e1-182f6667dcef","ios":"levelo://app?vid=d479a5e7-3cbe-4ebf-a3e1-182f6667dcef"},"vehicle_type_id":"4","last_reported":1767674420,"current_range_meters":7200,"station_id":"ce4bhhh2rcd13ifvqfk0","pricing_plan_id":"cebpf4jnsgd1na2vs0mg"},{"bike_id":"1b152ae5-9ff7-4d57-b381-b6d23a851225","system_id":"levelo_inurba_marseille","lat":43.335607,"lon":5.374557,"is_reserved":false,"is_disabled":false,"rental_uris":{"android":"levelo://app?vid=1b152ae5-9ff7-4d57-b381-b6d23a851225","ios":"levelo://app?vid=1b152ae5-9ff7-4d57-b381-b6d23a851225"},"vehicle_type_id":"4","last_reported":1767674420,"current_range_meters":7200,"station_id":"st_d46tts09ee8s73dlu43g","pricing_plan_id":"cebpf4jnsgd1na2vs0mg"},{"bike_id":"82866fe7-628d-412e-a722-bf250d7406b8","system_id":"levelo_inurba_marseille","lat":43.26688,"lon":5.38293,"is_reserved":false,"is_disabled":false,"rental_uris":{"android":"levelo://app?vid=82866fe7-628d-412e-a722-bf250d7406b8","ios":"levelo://app?vid=82866fe7-628d-412e-a722-bf250d7406b8"},"vehicle_type_id":"4","last_reported":1767674420,"current_range_meters":7200,"station_id":"ce4bhg92rcd13ifvqf90","pricing_plan_id":"cebpf4jnsgd1na2vs0mg"},{"bike_id":"a414d67b-9afa-4a87-9fac-f67cdff12698","system_id":"levelo_inurba_marseille","lat":43.29451,"lon":5.37934,"is_reserved":false,"is_disabled":false,"rental_uris":{"android":"levelo://app?vid=a414d67b-9afa-4a87-9fac-f67cdff12698","ios":"levelo://app?vid=a414d67b-9afa-4a87-9fac-f67cdff12698"},"vehicle_type_id":"4","last_reported":1767674420,"current_range_meters":7200,"station_id":"","pricing_plan_id":"cebpf4jnsgd1na2vs0mg"},{"bike_id":"ca1c79ce-974b-40ad-b835-57728989428f","system_id":"levelo_inurba_marseille","lat":43.30104,"lon":5.39066,"is_reserved":false,"is_disabled":false,"rental_uris":{"android":"levelo://app?vid=ca1c79ce-974b-40ad-b835-57728989428f","ios":"levelo://app?vid=ca1c79ce-974b-40ad-b835-57728989428f"},"vehicle_type_id":"4","last_reported":1767674420,"current_range_meters":7200,"station_id":"ce4bh192rcd13ifvqdb0","pricing_plan_id":"cebpf4jnsgd1na2vs0mg"},{"bike_id":"f3f9e90a-7a70-44ed-b22c-538fa428e8ed","system_id":"levelo_inurba_marseille","lat":43.28709,"lon":5.37383,"is_reserved":false,"is_disabled":false,"rental_uris":{"android":"levelo://app?vid=f3f9e90a-7a70-44ed-b22c-538fa428e8ed","ios":"levelo://app?vid=f3f9e90a-7a70-44ed-b22c-538fa428e8ed"},"vehicle_type_id":"4","last_reported":1767674420,"current_range_meters":7200,"station_id":"ce4bh3p2rcd13ifvqdq0","pricing_plan_id":"cebpf4jnsgd1na2vs0mg"},{"bike_id":"150aba92-ff82-4e7d-aa4f-4d9583997907","system_id":"levelo_inurba_marseille","lat":43.22925,"lon":5.35376,"is_reserved":false,"is_disabled":false,"rental_uris":{"android":"levelo://app?vid=150aba92-ff82-4e7d-aa4f-4d9583997907","ios":"levelo://app?vid=150aba92-ff82-4e7d-aa4f-4d9583997907"},"vehicle_type_id":"4","last_reported":1767674420,"current_range_meters":7200,"station_id":"cpo3532slgdg3j2ikp40","pricing_plan_id":"cebpf4jnsgd1na2vs0mg"},{"bike_id":"b2606257-53d8-4eda-9c19-28cbdd366e57","system_id":"levelo_inurba_marseille","lat":43.29515,"lon":5.3904,"is_reserved":false,"is_disabled":true,"rental_uris":{"android":"levelo://app?vid=b2606257-53d8-4eda-9c19-28cbdd366e57","ios":"levelo://app?vid=b2606257-53d8-4eda-9c19-28cbdd366e57"},"vehicle_type_id":"4","last_reported":1767674420,"current_range_meters":7200,"station_id":"ce4bh3p2rcd13ifvqdp0","pricing_plan_id":"cebpf4jnsgd1na2vs0mg"},{"bike_id":"aaf8f526-d023-4b38-bf56-10367dc9309b","system_id":"levelo_inurba_marseille","lat":43.27996,"lon":5.41664,"is_reserved":false,"is_disabled":false,"rental_uris":{"android":"levelo://app?vid=aaf8f526-d023-4b38-bf56-10367dc9309b","ios":"levelo://app?vid=aaf8f526-d023-4b38-bf56-10367dc9309b"},"vehicle_type_id":"4","last_reported":1767674420,"current_range_meters":7200,"station_id":"ce4bho12rcd13ifvqh1g","pricing_plan_id":"cebpf4jnsgd1na2vs0mg"},{"bike_id":"e99dab34-17f6-423d-b33b-48ac939b33ed","system_id":"levelo_inurba_marseille","lat":43.24048,"lon":5.40735,"is_reserved":false,"is_disabled":false,"rental_uris":{"android":"levelo://app?vid=e99dab34-17f6-423d-b33b-48ac939b33ed","ios":"levelo://app?vid=e99dab34-17f6-423d-b33b-48ac939b33ed"},"vehicle_type_id":"4","last_reported":1767674420,"current_range_meters":7200,"station_id":"","pricing_plan_id":"cebpf4jnsgd1na2vs0mg"},{"bike_id":"7c66cd5b-1ea7-4bc0-8234-30b50d6f8f8b","system_id":"levelo_inurba_marseille","lat":43.33151,"lon":5.37701,"is_reserved":false,"is_disabled":false,"rental_uris":{"android":"levelo://app?vid=7c66cd5b-1ea7-4bc0-8234-30b50d6f8f8b","ios":"levelo://app?vid=7c66cd5b-1ea7-4bc0-8234-30b50d6f8f8b"},"vehicle_type_id":"4","last_reported":1767674420,"current_range_meters":7200,"station_id":"st_d46cu089ee8s73dldbu0","pricing_plan_id":"cebpf4jnsgd1na2vs0mg"},{"bike_id":"e684172b-ec09-41ca-b7fc-943b8d49c82b","system_id":"levelo_inurba_marseille","lat":43.26559,"lon":5.39003,"is_reserved":false,"is_disabled":false,"rental_uris":{"android":"levelo://app?vid=e684172b-ec09-41ca-b7fc-943b8d49c82b","ios":"levelo://app?vid=e684172b-ec09-41ca-b7fc-943b8d49c82b"},"vehicle_type_id":"4","last_reported":1767674420,"current_range_meters":7200,"station_id":"ce4bhe12rcd13ifvqf30","pricing_plan_id":"cebpf4jnsgd1na2vs0mg"},{"bike_id":"4f197866-80d3-4126-b564-260c9c967362","system_id":"levelo_inurba_marseille","lat":43.27323,"lon":5.39117,"is_reserved":false,"is_disabled":false,"rental_uris":{"android":"levelo://app?vid=4f197866-80d3-4126-b564-260c9c967362","ios":"levelo://app?vid=4f197866-80d3-4126-b564-260c9c967362"},"vehicle_type_id":"4","last_reported":1767674420,"current_range_meters":7200,"station_id":"ce4bhgp2rcd13ifvqfe0","pricing_plan_id":"cebpf4jnsgd1na2vs0mg"},{"bike_id":"5ea8c758-8d88-4a0d-8adf-3234df9934ae","system_id":"levelo_inurba_marseille","lat":43.29753,"lon":5.37734,"is_reserved":false,"is_disabled":false,"rental_uris":{"android":"levelo://app?vid=5ea8c758-8d88-4a0d-8adf-3234df9934ae","ios":"levelo://app?vid=5ea8c758-8d88-4a0d-8adf-3234df9934ae"},"vehicle_type_id":"4","last_reported":1767674420,"current_range_meters":7200,"station_id":"","pricing_plan_id":"cebpf4jnsgd1na2vs0mg"},{"bike_id":"a8cd7802-144d-4c11-af29-be2259acf14c","system_id":"levelo_inurba_marseille","lat":43.24391,"lon":5.37073,"is_reserved":false,"is_disabled":false,"rental_uris":{"android":"levelo://app?vid=a8cd7802-144d-4c11-af29-be2259acf14c","ios":"levelo://app?vid=a8cd7802-144d-4c11-af29-be2259acf14c"},"vehicle_type_id":"4","last_reported":1767674420,"current_range_meters":7200,"station_id":"","pricing_plan_id":"cebpf4jnsgd1na2vs0mg"},{"bike_id":"d279c8f1-2aca-445d-9302-00d4fa05021b","system_id":"levelo_inurba_marseille","lat":43.316731,"lon":5.374521,"is_reserved":false,"is_disabled":false,"rental_uris":{"android":"levelo://app?vid=d279c8f1-2aca-445d-9302-00d4fa05021b","ios":"levelo://app?vid=d279c8f1-2aca-445d-9302-00d4fa05021b"},"vehicle_type_id":"4","last_reported":1767674420,"current_range_meters":7200,"station_id":"","pricing_plan_id":"cebpf4jnsgd1na2vs0mg"},{"bike_id":"08597d3b-78bf-4d1d-84e3-67cebc91408d","system_id":"levelo_inurba_marseille","lat":43.25582,"lon":5.38234,"is_reserved":false,"is_disabled":false,"rental_uris":{"android":"levelo://app?vid=08597d3b-78bf-4d1d-84e3-67cebc91408d","ios":"levelo://app?vid=08597d3b-78bf-4d1d-84e3-67cebc91408d"},"vehicle_type_id":"4","last_reported":1767674420,"current_range_meters":7200,"station_id":"ce4bhih2rcd13ifvqfs0","pricing_plan_id":"cebpf4jnsgd1na2vs0mg"},{"bike_id":"0ab915a5-aa3e-44ed-b898-e07671cade81","system_id":"levelo_inurba_marseille","lat":43.25334,"lon":5.421688,"is_reserved":false,"is_disabled":false,"rental_uris":{"android":"levelo://app?vid=0ab915a5-aa3e-44ed-b898-e07671cade81","ios":"levelo://app?vid=0ab915a5-aa3e-44ed-b898-e07671cade81"},"vehicle_type_id":"4","last_reported":1767674420,"current_range_meters":7200,"station_id":"st_d2m65c5bi1j21697t3ng","pricing_plan_id":"cebpf4jnsgd1na2vs0mg"},{"bike_id":"687755bb-10fb-4901-ae22-36a6ae269729","system_id":"levelo_inurba_marseille","lat":43.2795,"lon":5.38682,"is_reserved":false,"is_disabled":false,"rental_uris":{"android":"levelo://app?vid=687755bb-10fb-4901-ae22-36a6ae269729","ios":"levelo://app?vid=687755bb-10fb-4901-ae22-36a6ae269729"},"vehicle_type_id":"4","last_reported":1767674420,"current_range_meters":7200,"station_id":"","pricing_plan_id":"cebpf4jnsgd1na2vs0mg"},{"bike_id":"7691ecae-e3bc-4c1e-bb4e-7b24a1d8adc3","system_id":"levelo_inurba_marseille","lat":43.23959,"lon":5.36643,"is_reserved":false,"is_disabled":false,"rental_uris":{"android":"levelo://app?vid=7691ecae-e3bc-4c1e-bb4e-7b24a1d8adc3","ios":"levelo://app?vid=7691ecae-e3bc-4c1e-bb4e-7b24a1d8adc3"},"vehicle_type_id":"4","last_reported":1767674420,"current_range_meters":7200,"station_id":"ce4bhi12rcd13ifvqfp0","pricing_plan_id":"cebpf4jnsgd1na2vs0mg"},{"bike_id":"8f968c9d-e057-45ea-898c-8595b6240a39","system_id":"levelo_inurba_marseille","lat":43.29695,"lon":5.37913,"is_reserved":false,"is_disabled":false,"rental_uris":{"android":"levelo://app?vid=8f968c9d-e057-45ea-898c-8595b6240a39","ios":"levelo://app?vid=8f968c9d-e057-45ea-898c-8595b6240a39"},"vehicle_type_id":"4","last_reported":1767674420,"current_range_meters":8000,"station_id":"","pricing_plan_id":"cebpf4jnsgd1na2vs0mg"},{"bike_id":"58327590-a8e0-4c00-9f2e-f934f6672946","system_id":"levelo_inurba_marseille","lat":43.27849,"lon":5.39222,"is_reserved":false,"is_disabled":false,"rental_uris":{"android":"levelo://app?vid=58327590-a8e0-4c00-9f2e-f934f6672946","ios":"levelo://app?vid=58327590-a8e0-4c00-9f2e-f934f6672946"},"vehicle_type_id":"4","last_reported":1767674420,"current_range_meters":8000,"station_id":"ce4bhjp2rcd13ifvqga0","pricing_plan_id":"cebpf4jnsgd1na2vs0mg"},{"bike_id":"8b3ac315-2885-4111-ba33-ec1516cc1aa3","system_id":"levelo_inurba_marseille","lat":43.31176,"lon":5.38728,"is_reserved":false,"is_disabled":false,"rental_uris":{"android":"levelo://app?vid=8b3ac315-2885-4111-ba33-ec1516cc1aa3","ios":"levelo://app?vid=8b3ac315-2885-4111-ba33-ec1516cc1aa3"},"vehicle_type_id":"4","last_reported":1767674420,"current_range_meters":8000,"station_id":"ce4bgv12rcd13ifvqcp0","pricing_plan_id":"cebpf4jnsgd1na2vs0mg"},{"bike_id":"a2705467-58d0-47d8-8aee-544b6d032199","system_id":"levelo_inurba_marseille","lat":43.24463,"lon":5.42535,"is_reserved":false,"is_disabled":false,"rental_uris":{"android":"levelo://app?vid=a2705467-58d0-47d8-8aee-544b6d032199","ios":"levelo://app?vid=a2705467-58d0-47d8-8aee-544b6d032199"},"vehicle_type_id":"4","last_reported":1767674420,"current_range_meters":8000,"station_id":"st_d4a3vfp97mjs738cd8kg","pricing_plan_id":"cebpf4jnsgd1na2vs0mg"},{"bike_id":"0e1237f5-c526-48aa-8d6e-d4762d4905eb","system_id":"levelo_inurba_marseille","lat":43.288806,"lon":5.425104,"is_reserved":false,"is_disabled":false,"rental_uris":{"android":"levelo://app?vid=0e1237f5-c526-48aa-8d6e-d4762d4905eb","ios":"levelo://app?vid=0e1237f5-c526-48aa-8d6e-d4762d4905eb"},"vehicle_type_id":"4","last_reported":1767674420,"current_range_meters":8000,"station_id":"st_d3b462108ojc7389ooeg","pricing_plan_id":"cebpf4jnsgd1na2vs0mg"},{"bike_id":"9c1f964b-63f3-482b-b8aa-946aa8840ac2","system_id":"levelo_inurba_marseille","lat":43.246343,"lon":5.431363,"is_reserved":false,"is_disabled":false,"rental_uris":{"android":"levelo://app?vid=9c1f964b-63f3-482b-b8aa-946aa8840ac2","ios":"levelo://app?vid=9c1f964b-63f3-482b-b8aa-946aa8840ac2"},"vehicle_type_id":"4","last_reported":1767674420,"current_range_meters":8000,"station_id":"st_d2m6c4gdas8pm72e190g","pricing_plan_id":"cebpf4jnsgd1na2vs0mg"},{"bike_id":"355c1d25-ff0d-43f2-abc7-da11db998286","system_id":"levelo_inurba_marseille","lat":43.23181,"lon":5.35566,"is_reserved":false,"is_disabled":false,"rental_uris":{"android":"levelo://app?vid=355c1d25-ff0d-43f2-abc7-da11db998286","ios":"levelo://app?vid=355c1d25-ff0d-43f2-abc7-da11db998286"},"vehicle_type_id":"4","last_reported":1767674420,"current_range_meters":8000,"station_id":"ce4bhu92rcd13ifvqi70","pricing_plan_id":"cebpf4jnsgd1na2vs0mg"},{"bike_id":"69b54c5e-99fd-4b4a-a8fa-07e156c09108","system_id":"levelo_inurba_marseille","lat":43.27948,"lon":5.41049,"is_reserved":false,"is_disabled":false,"rental_uris":{"android":"levelo://app?vid=69b54c5e-99fd-4b4a-a8fa-07e156c09108","ios":"levelo://app?vid=69b54c5e-99fd-4b4a-a8fa-07e156c09108"},"vehicle_type_id":"4","last_reported":1767674420,"current_range_meters":8000,"station_id":"ce4bhnp2rcd13ifvqh0g","pricing_plan_id":"cebpf4jnsgd1na2vs0mg"},{"bike_id":"b3210e81-09d9-486e-b51e-83859801ecb9","system_id":"levelo_inurba_marseille","lat":43.246332,"lon":5.431407,"is_reserved":false,"is_disabled":false,"rental_uris":{"android":"levelo://app?vid=b3210e81-09d9-486e-b51e-83859801ecb9","ios":"levelo://app?vid=b3210e81-09d9-486e-b51e-83859801ecb9"},"vehicle_type_id":"4","last_reported":1767674420,"current_range_meters":8000,"station_id":"st_d2m6c4gdas8pm72e190g","pricing_plan_id":"cebpf4jnsgd1na2vs0mg"},{"bike_id":"2375141c-46f9-4ef6-890b-4fbb983a553c","system_id":"levelo_inurba_marseille","lat":43.29306,"lon":5.37178,"is_reserved":false,"is_disabled":true,"rental_uris":{"android":"levelo://app?vid=2375141c-46f9-4ef6-890b-4fbb983a553c","ios":"levelo://app?vid=2375141c-46f9-4ef6-890b-4fbb983a553c"},"vehicle_type_id":"4","last_reported":1767674420,"current_range_meters":8000,"station_id":"ce4bgh92rcd13ifvqb40","pricing_plan_id":"cebpf4jnsgd1na2vs0mg"},{"bike_id":"40f2de2e-f0cb-4446-9f43-80012f17f8ce","system_id":"levelo_inurba_marseille","lat":43.323529,"lon":5.367445,"is_reserved":false,"is_disabled":false,"rental_uris":{"android":"levelo://app?vid=40f2de2e-f0cb-4446-9f43-80012f17f8ce","ios":"levelo://app?vid=40f2de2e-f0cb-4446-9f43-80012f17f8ce"},"vehicle_type_id":"4","last_reported":1767674420,"current_range_meters":8000,"station_id":"ce4bhsh2rcd13ifvqi2g","pricing_plan_id":"cebpf4jnsgd1na2vs0mg"},{"bike_id":"47377072-bd80-416c-a61b-557514cde97a","system_id":"levelo_inurba_marseille","lat":43.29729,"lon":5.37668,"is_reserved":false,"is_disabled":false,"rental_uris":{"android":"levelo://app?vid=47377072-bd80-416c-a61b-557514cde97a","ios":"levelo://app?vid=47377072-bd80-416c-a61b-557514cde97a"},"vehicle_type_id":"4","last_reported":1767674420,"current_range_meters":8000,"station_id":"ce4bgkh2rcd13ifvqbl0","pricing_plan_id":"cebpf4jnsgd1na2vs0mg"},{"bike_id":"09dd03c7-b8fd-46b8-99cd-062943175452","system_id":"levelo_inurba_marseille","lat":43.23194,"lon":5.35553,"is_reserved":false,"is_disabled":false,"rental_uris":{"android":"levelo://app?vid=09dd03c7-b8fd-46b8-99cd-062943175452","ios":"levelo://app?vid=09dd03c7-b8fd-46b8-99cd-062943175452"},"vehicle_type_id":"4","last_reported":1767674420,"current_range_meters":8000,"station_id":"ce4bhu92rcd13ifvqi70","pricing_plan_id":"cebpf4jnsgd1na2vs0mg"},{"bike_id":"8c0cfe8d-397e-430a-8fdc-041338a3c227","system_id":"levelo_inurba_marseille","lat":43.28613,"lon":5.39865,"is_reserved":false,"is_disabled":false,"rental_uris":{"android":"levelo://app?vid=8c0cfe8d-397e-430a-8fdc-041338a3c227","ios":"levelo://app?vid=8c0cfe8d-397e-430a-8fdc-041338a3c227"},"vehicle_type_id":"4","last_reported":1767674420,"current_range_meters":8000,"station_id":"st_d4a7ka997mjs738ck50g","pricing_plan_id":"cebpf4jnsgd1na2vs0mg"},{"bike_id":"9ffd8e4e-6671-4e68-b198-26c59cc5e3d1","system_id":"levelo_inurba_marseille","lat":43.32652,"lon":5.41944,"is_reserved":false,"is_disabled":false,"rental_uris":{"android":"levelo://app?vid=9ffd8e4e-6671-4e68-b198-26c59cc5e3d1","ios":"levelo://app?vid=9ffd8e4e-6671-4e68-b198-26c59cc5e3d1"},"vehicle_type_id":"4","last_reported":1767674420,"current_range_meters":8000,"station_id":"","pricing_plan_id":"cebpf4jnsgd1na2vs0mg"},{"bike_id":"5eb9d049-497c-49ad-9dab-0cd5459065b5","system_id":"levelo_inurba_marseille","lat":43.28463,"lon":5.38412,"is_reserved":false,"is_disabled":false,"rental_uris":{"android":"levelo://app?vid=5eb9d049-497c-49ad-9dab-0cd5459065b5","ios":"levelo://app?vid=5eb9d049-497c-49ad-9dab-0cd5459065b5"},"vehicle_type_id":"4","last_reported":1767674420,"current_range_meters":8000,"station_id":"ce4bh512rcd13ifvqe3g","pricing_plan_id":"cebpf4jnsgd1na2vs0mg"},{"bike_id":"3836b4a8-93e4-4aeb-8fc2-55643106b2c7","system_id":"levelo_inurba_marseille","lat":43.27053,"lon":5.40268,"is_reserved":false,"is_disabled":false,"rental_uris":{"android":"levelo://app?vid=3836b4a8-93e4-4aeb-8fc2-55643106b2c7","ios":"levelo://app?vid=3836b4a8-93e4-4aeb-8fc2-55643106b2c7"},"vehicle_type_id":"4","last_reported":1767674420,"current_range_meters":8000,"station_id":"ce4bhk92rcd13ifvqgc0","pricing_plan_id":"cebpf4jnsgd1na2vs0mg"},{"bike_id":"61f49521-8b5c-4174-93f3-ac307392a905","system_id":"levelo_inurba_marseille","lat":43.31362,"lon":5.37166,"is_reserved":false,"is_disabled":false,"rental_uris":{"android":"levelo://app?vid=61f49521-8b5c-4174-93f3-ac307392a905","ios":"levelo://app?vid=61f49521-8b5c-4174-93f3-ac307392a905"},"vehicle_type_id":"4","last_reported":1767674420,"current_range_meters":8000,"station_id":"","pricing_plan_id":"cebpf4jnsgd1na2vs0mg"},{"bike_id":"b1a2f940-bab8-4b53-812e-ccc6b0d1d1b8","system_id":"levelo_inurba_marseille","lat":43.2841,"lon":5.37514,"is_reserved":false,"is_disabled":false,"rental_uris":{"android":"levelo://app?vid=b1a2f940-bab8-4b53-812e-ccc6b0d1d1b8","ios":"levelo://app?vid=b1a2f940-bab8-4b53-812e-ccc6b0d1d1b8"},"vehicle_type_id":"4","last_reported":1767674420,"current_range_meters":8000,"station_id":"ce4bh412rcd13ifvqds0","pricing_plan_id":"cebpf4jnsgd1na2vs0mg"},{"bike_id":"57bbb0aa-9d5e-4756-b714-bbc0dbf7b8d5","system_id":"levelo_inurba_marseille","lat":43.29289,"lon":5.37451,"is_reserved":false,"is_disabled":false,"rental_uris":{"android":"levelo://app?vid=57bbb0aa-9d5e-4756-b714-bbc0dbf7b8d5","ios":"levelo://app?vid=57bbb0aa-9d5e-4756-b714-bbc0dbf7b8d5"},"vehicle_type_id":"4","last_reported":1767674420,"current_range_meters":8000,"station_id":"ce4bgi12rcd13ifvqb70","pricing_plan_id":"cebpf4jnsgd1na2vs0mg"},{"bike_id":"3d8062de-4bd0-49c7-86a6-7bf3b5df4845","system_id":"levelo_inurba_marseille","lat":43.28476,"lon":5.48401,"is_reserved":false,"is_disabled":false,"rental_uris":{"android":"levelo://app?vid=3d8062de-4bd0-49c7-86a6-7bf3b5df4845","ios":"levelo://app?vid=3d8062de-4bd0-49c7-86a6-7bf3b5df4845"},"vehicle_type_id":"4","last_reported":1767674420,"current_range_meters":8000,"station_id":"","pricing_plan_id":"cebpf4jnsgd1na2vs0mg"},{"bike_id":"48cb5e65-0874-43c1-81b7-43be0bcb9709","system_id":"levelo_inurba_marseille","lat":43.24798,"lon":5.37465,"is_reserved":false,"is_disabled":false,"rental_uris":{"android":"levelo://app?vid=48cb5e65-0874-43c1-81b7-43be0bcb9709","ios":"levelo://app?vid=48cb5e65-0874-43c1-81b7-43be0bcb9709"},"vehicle_type_id":"4","last_reported":1767674420,"current_range_meters":8000,"station_id":"ce4bhgh2rcd13ifvqfb0","pricing_plan_id":"cebpf4jnsgd1na2vs0mg"},{"bike_id":"efa425c6-cbf6-4941-b4e5-f9d843f1f6fe","system_id":"levelo_inurba_marseille","lat":43.26926,"lon":5.40255,"is_reserved":false,"is_disabled":false,"rental_uris":{"android":"levelo://app?vid=efa425c6-cbf6-4941-b4e5-f9d843f1f6fe","ios":"levelo://app?vid=efa425c6-cbf6-4941-b4e5-f9d843f1f6fe"},"vehicle_type_id":"4","last_reported":1767674420,"current_range_meters":8000,"station_id":"cjm6bp8fraef2m0cb0m0","pricing_plan_id":"cebpf4jnsgd1na2vs0mg"},{"bike_id":"256d892c-80b7-4dcf-b490-44e1146ff28f","system_id":"levelo_inurba_marseille","lat":43.28533,"lon":5.44101,"is_reserved":false,"is_disabled":false,"rental_uris":{"android":"levelo://app?vid=256d892c-80b7-4dcf-b490-44e1146ff28f","ios":"levelo://app?vid=256d892c-80b7-4dcf-b490-44e1146ff28f"},"vehicle_type_id":"4","last_reported":1767674420,"current_range_meters":8000,"station_id":"st_d3j3df2ikq2c7380ej80","pricing_plan_id":"cebpf4jnsgd1na2vs0mg"},{"bike_id":"63cd53d7-b9e4-4b4e-9379-bf3843c04565","system_id":"levelo_inurba_marseille","lat":43.28527,"lon":5.44115,"is_reserved":false,"is_disabled":false,"rental_uris":{"android":"levelo://app?vid=63cd53d7-b9e4-4b4e-9379-bf3843c04565","ios":"levelo://app?vid=63cd53d7-b9e4-4b4e-9379-bf3843c04565"},"vehicle_type_id":"4","last_reported":1767674420,"current_range_meters":8000,"station_id":"st_d3j3df2ikq2c7380ej80","pricing_plan_id":"cebpf4jnsgd1na2vs0mg"},{"bike_id":"5d5497ef-b65a-4cae-8f60-cff9661679f2","system_id":"levelo_inurba_marseille","lat":43.28293,"lon":5.3891,"is_reserved":false,"is_disabled":false,"rental_uris":{"android":"levelo://app?vid=5d5497ef-b65a-4cae-8f60-cff9661679f2","ios":"levelo://app?vid=5d5497ef-b65a-4cae-8f60-cff9661679f2"},"vehicle_type_id":"4","last_reported":1767674420,"current_range_meters":8000,"station_id":"","pricing_plan_id":"cebpf4jnsgd1na2vs0mg"},{"bike_id":"ca62b965-aa44-45f4-8af6-6631050856ac","system_id":"levelo_inurba_marseille","lat":43.289266,"lon":5.363856,"is_reserved":false,"is_disabled":false,"rental_uris":{"android":"levelo://app?vid=ca62b965-aa44-45f4-8af6-6631050856ac","ios":"levelo://app?vid=ca62b965-aa44-45f4-8af6-6631050856ac"},"vehicle_type_id":"4","last_reported":1767674420,"current_range_meters":8400,"station_id":"ce4bhc92rcd13ifvqetg","pricing_plan_id":"cebpf4jnsgd1na2vs0mg"},{"bike_id":"af601a35-d80a-41bb-ac39-f45cf7219279","system_id":"levelo_inurba_marseille","lat":43.29872,"lon":5.38904,"is_reserved":false,"is_disabled":false,"rental_uris":{"android":"levelo://app?vid=af601a35-d80a-41bb-ac39-f45cf7219279","ios":"levelo://app?vid=af601a35-d80a-41bb-ac39-f45cf7219279"},"vehicle_type_id":"4","last_reported":1767674420,"current_range_meters":8400,"station_id":"ce4bh392rcd13ifvqdl0","pricing_plan_id":"cebpf4jnsgd1na2vs0mg"},{"bike_id":"4935536b-bd9a-4a04-acc0-8338e8db4fa7","system_id":"levelo_inurba_marseille","lat":43.27823,"lon":5.40738,"is_reserved":false,"is_disabled":false,"rental_uris":{"android":"levelo://app?vid=4935536b-bd9a-4a04-acc0-8338e8db4fa7","ios":"levelo://app?vid=4935536b-bd9a-4a04-acc0-8338e8db4fa7"},"vehicle_type_id":"4","last_reported":1767674420,"current_range_meters":8400,"station_id":"ce4bhnh2rcd13ifvqgtg","pricing_plan_id":"cebpf4jnsgd1na2vs0mg"},{"bike_id":"b0405c1f-3452-4f34-9f4d-79f9b8ddb38f","system_id":"levelo_inurba_marseille","lat":43.27842,"lon":5.39199,"is_reserved":false,"is_disabled":false,"rental_uris":{"android":"levelo://app?vid=b0405c1f-3452-4f34-9f4d-79f9b8ddb38f","ios":"levelo://app?vid=b0405c1f-3452-4f34-9f4d-79f9b8ddb38f"},"vehicle_type_id":"4","last_reported":1767674420,"current_range_meters":8400,"station_id":"ce4bhjp2rcd13ifvqga0","pricing_plan_id":"cebpf4jnsgd1na2vs0mg"},{"bike_id":"070101d6-40a0-434e-9541-f1fc17be1902","system_id":"levelo_inurba_marseille","lat":43.28919,"lon":5.38382,"is_reserved":false,"is_disabled":false,"rental_uris":{"android":"levelo://app?vid=070101d6-40a0-434e-9541-f1fc17be1902","ios":"levelo://app?vid=070101d6-40a0-434e-9541-f1fc17be1902"},"vehicle_type_id":"4","last_reported":1767674420,"current_range_meters":8400,"station_id":"ce4bh612rcd13ifvqe6g","pricing_plan_id":"cebpf4jnsgd1na2vs0mg"},{"bike_id":"8c36c95e-44f9-4494-942c-e8a98d6f94b4","system_id":"levelo_inurba_marseille","lat":43.24638,"lon":5.43153,"is_reserved":false,"is_disabled":false,"rental_uris":{"android":"levelo://app?vid=8c36c95e-44f9-4494-942c-e8a98d6f94b4","ios":"levelo://app?vid=8c36c95e-44f9-4494-942c-e8a98d6f94b4"},"vehicle_type_id":"4","last_reported":1767674420,"current_range_meters":8400,"station_id":"st_d2m6c4gdas8pm72e190g","pricing_plan_id":"cebpf4jnsgd1na2vs0mg"},{"bike_id":"6b6d8f9f-6e00-4965-a447-66d7628c7986","system_id":"levelo_inurba_marseille","lat":43.25121,"lon":5.40324,"is_reserved":false,"is_disabled":false,"rental_uris":{"android":"levelo://app?vid=6b6d8f9f-6e00-4965-a447-66d7628c7986","ios":"levelo://app?vid=6b6d8f9f-6e00-4965-a447-66d7628c7986"},"vehicle_type_id":"4","last_reported":1767674420,"current_range_meters":8400,"station_id":"ce4bhlh2rcd13ifvqgig","pricing_plan_id":"cebpf4jnsgd1na2vs0mg"},{"bike_id":"00389c66-d10b-4f85-8b89-cd1629e9774d","system_id":"levelo_inurba_marseille","lat":43.31498,"lon":5.38633,"is_reserved":false,"is_disabled":false,"rental_uris":{"android":"levelo://app?vid=00389c66-d10b-4f85-8b89-cd1629e9774d","ios":"levelo://app?vid=00389c66-d10b-4f85-8b89-cd1629e9774d"},"vehicle_type_id":"4","last_reported":1767674420,"current_range_meters":8400,"station_id":"","pricing_plan_id":"cebpf4jnsgd1na2vs0mg"},{"bike_id":"2b6b5472-bf4d-4858-81ea-712597b78b9c","system_id":"levelo_inurba_marseille","lat":43.289456,"lon":5.396254,"is_reserved":false,"is_disabled":false,"rental_uris":{"android":"levelo://app?vid=2b6b5472-bf4d-4858-81ea-712597b78b9c","ios":"levelo://app?vid=2b6b5472-bf4d-4858-81ea-712597b78b9c"},"vehicle_type_id":"4","last_reported":1767674420,"current_range_meters":8400,"station_id":"ce4bh3h2rcd13ifvqdn0","pricing_plan_id":"cebpf4jnsgd1na2vs0mg"},{"bike_id":"433d1b20-0a2d-4e0f-98b5-65f53b0b7541","system_id":"levelo_inurba_marseille","lat":43.31172,"lon":5.38718,"is_reserved":false,"is_disabled":false,"rental_uris":{"android":"levelo://app?vid=433d1b20-0a2d-4e0f-98b5-65f53b0b7541","ios":"levelo://app?vid=433d1b20-0a2d-4e0f-98b5-65f53b0b7541"},"vehicle_type_id":"4","last_reported":1767674420,"current_range_meters":8400,"station_id":"ce4bgv12rcd13ifvqcp0","pricing_plan_id":"cebpf4jnsgd1na2vs0mg"},{"bike_id":"3a8eae66-603b-4cc6-a47a-5e999d573fad","system_id":"levelo_inurba_marseille","lat":43.27003,"lon":5.38755,"is_reserved":false,"is_disabled":false,"rental_uris":{"android":"levelo://app?vid=3a8eae66-603b-4cc6-a47a-5e999d573fad","ios":"levelo://app?vid=3a8eae66-603b-4cc6-a47a-5e999d573fad"},"vehicle_type_id":"4","last_reported":1767674420,"current_range_meters":8400,"station_id":"","pricing_plan_id":"cebpf4jnsgd1na2vs0mg"},{"bike_id":"feaa8378-fac9-460d-b058-b1573970eace","system_id":"levelo_inurba_marseille","lat":43.29927,"lon":5.38603,"is_reserved":false,"is_disabled":false,"rental_uris":{"android":"levelo://app?vid=feaa8378-fac9-460d-b058-b1573970eace","ios":"levelo://app?vid=feaa8378-fac9-460d-b058-b1573970eace"},"vehicle_type_id":"4","last_reported":1767674420,"current_range_meters":8400,"station_id":"","pricing_plan_id":"cebpf4jnsgd1na2vs0mg"},{"bike_id":"b0980a67-1a01-4ac3-8cf4-81a1cb81abd2","system_id":"levelo_inurba_marseille","lat":43.25817,"lon":5.39408,"is_reserved":false,"is_disabled":false,"rental_uris":{"android":"levelo://app?vid=b0980a67-1a01-4ac3-8cf4-81a1cb81abd2","ios":"levelo://app?vid=b0980a67-1a01-4ac3-8cf4-81a1cb81abd2"},"vehicle_type_id":"4","last_reported":1767674420,"current_range_meters":8400,"station_id":"ce4bhip2rcd13ifvqft0","pricing_plan_id":"cebpf4jnsgd1na2vs0mg"},{"bike_id":"49a51c2b-e6e9-4224-8a36-f6fcfb3bf9e7","system_id":"levelo_inurba_marseille","lat":43.284804,"lon":5.483857,"is_reserved":false,"is_disabled":false,"rental_uris":{"android":"levelo://app?vid=49a51c2b-e6e9-4224-8a36-f6fcfb3bf9e7","ios":"levelo://app?vid=49a51c2b-e6e9-4224-8a36-f6fcfb3bf9e7"},"vehicle_type_id":"4","last_reported":1767674420,"current_range_meters":8400,"station_id":"","pricing_plan_id":"cebpf4jnsgd1na2vs0mg"},{"bike_id":"f5918fd1-e76a-41a6-9b3d-0261fab958fa","system_id":"levelo_inurba_marseille","lat":43.31192,"lon":5.387,"is_reserved":false,"is_disabled":false,"rental_uris":{"android":"levelo://app?vid=f5918fd1-e76a-41a6-9b3d-0261fab958fa","ios":"levelo://app?vid=f5918fd1-e76a-41a6-9b3d-0261fab958fa"},"vehicle_type_id":"4","last_reported":1767674420,"current_range_meters":8400,"station_id":"ce4bgv12rcd13ifvqcp0","pricing_plan_id":"cebpf4jnsgd1na2vs0mg"},{"bike_id":"401599ae-e2a4-4b4a-8836-eb6feb2d0e4b","system_id":"levelo_inurba_marseille","lat":43.284554,"lon":5.358906,"is_reserved":false,"is_disabled":false,"rental_uris":{"android":"levelo://app?vid=401599ae-e2a4-4b4a-8836-eb6feb2d0e4b","ios":"levelo://app?vid=401599ae-e2a4-4b4a-8836-eb6feb2d0e4b"},"vehicle_type_id":"4","last_reported":1767674420,"current_range_meters":8400,"station_id":"ce4bhah2rcd13ifvqei0","pricing_plan_id":"cebpf4jnsgd1na2vs0mg"},{"bike_id":"186f2fa8-9d13-45c5-bc32-0ad3d6ed2a48","system_id":"levelo_inurba_marseille","lat":43.253393,"lon":5.421679,"is_reserved":false,"is_disabled":false,"rental_uris":{"android":"levelo://app?vid=186f2fa8-9d13-45c5-bc32-0ad3d6ed2a48","ios":"levelo://app?vid=186f2fa8-9d13-45c5-bc32-0ad3d6ed2a48"},"vehicle_type_id":"4","last_reported":1767674420,"current_range_meters":8400,"station_id":"st_d2m65c5bi1j21697t3ng","pricing_plan_id":"cebpf4jnsgd1na2vs0mg"},{"bike_id":"35e08880-df71-4ce5-90d6-5ad22f3d1f69","system_id":"levelo_inurba_marseille","lat":43.311332,"lon":5.377632,"is_reserved":false,"is_disabled":false,"rental_uris":{"android":"levelo://app?vid=35e08880-df71-4ce5-90d6-5ad22f3d1f69","ios":"levelo://app?vid=35e08880-df71-4ce5-90d6-5ad22f3d1f69"},"vehicle_type_id":"4","last_reported":1767674420,"current_range_meters":8400,"station_id":"ce4bgt92rcd13ifvqcg0","pricing_plan_id":"cebpf4jnsgd1na2vs0mg"},{"bike_id":"185a9e57-705a-4211-b642-4f93dd08ee85","system_id":"levelo_inurba_marseille","lat":43.28492,"lon":5.3858,"is_reserved":false,"is_disabled":false,"rental_uris":{"android":"levelo://app?vid=185a9e57-705a-4211-b642-4f93dd08ee85","ios":"levelo://app?vid=185a9e57-705a-4211-b642-4f93dd08ee85"},"vehicle_type_id":"4","last_reported":1767674420,"current_range_meters":8400,"station_id":"ce4bh8p2rcd13ifvqeb0","pricing_plan_id":"cebpf4jnsgd1na2vs0mg"},{"bike_id":"25b4a46c-3f40-4b71-ba37-731e8865f96d","system_id":"levelo_inurba_marseille","lat":43.29032,"lon":5.375575,"is_reserved":false,"is_disabled":false,"rental_uris":{"android":"levelo://app?vid=25b4a46c-3f40-4b71-ba37-731e8865f96d","ios":"levelo://app?vid=25b4a46c-3f40-4b71-ba37-731e8865f96d"},"vehicle_type_id":"4","last_reported":1767674420,"current_range_meters":8400,"station_id":"ce4bh692rcd13ifvqe90","pricing_plan_id":"cebpf4jnsgd1na2vs0mg"},{"bike_id":"0669a486-1e35-4993-8c57-0773a050daef","system_id":"levelo_inurba_marseille","lat":43.26234,"lon":5.41615,"is_reserved":false,"is_disabled":false,"rental_uris":{"android":"levelo://app?vid=0669a486-1e35-4993-8c57-0773a050daef","ios":"levelo://app?vid=0669a486-1e35-4993-8c57-0773a050daef"},"vehicle_type_id":"4","last_reported":1767674420,"current_range_meters":8800,"station_id":"","pricing_plan_id":"cebpf4jnsgd1na2vs0mg"},{"bike_id":"15146725-de08-4e0d-adeb-5883b023eca1","system_id":"levelo_inurba_marseille","lat":43.29608,"lon":5.36723,"is_reserved":false,"is_disabled":false,"rental_uris":{"android":"levelo://app?vid=15146725-de08-4e0d-adeb-5883b023eca1","ios":"levelo://app?vid=15146725-de08-4e0d-adeb-5883b023eca1"},"vehicle_type_id":"4","last_reported":1767674420,"current_range_meters":8800,"station_id":"ce4bgph2rcd13ifvqc2g","pricing_plan_id":"cebpf4jnsgd1na2vs0mg"},{"bike_id":"330d4ba7-c5f2-4d83-947c-8c0cc6747825","system_id":"levelo_inurba_marseille","lat":43.30547,"lon":5.3668,"is_reserved":false,"is_disabled":false,"rental_uris":{"android":"levelo://app?vid=330d4ba7-c5f2-4d83-947c-8c0cc6747825","ios":"levelo://app?vid=330d4ba7-c5f2-4d83-947c-8c0cc6747825"},"vehicle_type_id":"4","last_reported":1767674420,"current_range_meters":8800,"station_id":"ce4bgrp2rcd13ifvqc9g","pricing_plan_id":"cebpf4jnsgd1na2vs0mg"},{"bike_id":"787d7e25-1d4e-4b9b-9a41-18331fa60325","system_id":"levelo_inurba_marseille","lat":43.282689,"lon":5.350743,"is_reserved":false,"is_disabled":false,"rental_uris":{"android":"levelo://app?vid=787d7e25-1d4e-4b9b-9a41-18331fa60325","ios":"levelo://app?vid=787d7e25-1d4e-4b9b-9a41-18331fa60325"},"vehicle_type_id":"4","last_reported":1767674420,"current_range_meters":8800,"station_id":"ce4bhbp2rcd13ifvqerg","pricing_plan_id":"cebpf4jnsgd1na2vs0mg"},{"bike_id":"6362d2e9-b1aa-4dc0-b92d-936be0445a44","system_id":"levelo_inurba_marseille","lat":43.24818,"lon":5.37442,"is_reserved":false,"is_disabled":false,"rental_uris":{"android":"levelo://app?vid=6362d2e9-b1aa-4dc0-b92d-936be0445a44","ios":"levelo://app?vid=6362d2e9-b1aa-4dc0-b92d-936be0445a44"},"vehicle_type_id":"4","last_reported":1767674420,"current_range_meters":8800,"station_id":"ce4bhgh2rcd13ifvqfb0","pricing_plan_id":"cebpf4jnsgd1na2vs0mg"},{"bike_id":"08e7d044-a859-4a5a-90d4-366b263d7407","system_id":"levelo_inurba_marseille","lat":43.27683,"lon":5.42047,"is_reserved":false,"is_disabled":false,"rental_uris":{"android":"levelo://app?vid=08e7d044-a859-4a5a-90d4-366b263d7407","ios":"levelo://app?vid=08e7d044-a859-4a5a-90d4-366b263d7407"},"vehicle_type_id":"4","last_reported":1767674420,"current_range_meters":8800,"station_id":"","pricing_plan_id":"cebpf4jnsgd1na2vs0mg"},{"bike_id":"b67f4710-3d69-4d45-b21f-6b71ebaaeb7d","system_id":"levelo_inurba_marseille","lat":43.31369,"lon":5.36678,"is_reserved":false,"is_disabled":false,"rental_uris":{"android":"levelo://app?vid=b67f4710-3d69-4d45-b21f-6b71ebaaeb7d","ios":"levelo://app?vid=b67f4710-3d69-4d45-b21f-6b71ebaaeb7d"},"vehicle_type_id":"4","last_reported":1767674420,"current_range_meters":8800,"station_id":"ce4bgr92rcd13ifvqc6g","pricing_plan_id":"cebpf4jnsgd1na2vs0mg"},{"bike_id":"3e18d3c2-0e26-4ccd-8f3e-24c938dce9c0","system_id":"levelo_inurba_marseille","lat":43.28518,"lon":5.38626,"is_reserved":false,"is_disabled":false,"rental_uris":{"android":"levelo://app?vid=3e18d3c2-0e26-4ccd-8f3e-24c938dce9c0","ios":"levelo://app?vid=3e18d3c2-0e26-4ccd-8f3e-24c938dce9c0"},"vehicle_type_id":"4","last_reported":1767674420,"current_range_meters":8800,"station_id":"","pricing_plan_id":"cebpf4jnsgd1na2vs0mg"},{"bike_id":"792e1e2e-f71f-47ee-9471-2778171764aa","system_id":"levelo_inurba_marseille","lat":43.27841,"lon":5.40695,"is_reserved":false,"is_disabled":false,"rental_uris":{"android":"levelo://app?vid=792e1e2e-f71f-47ee-9471-2778171764aa","ios":"levelo://app?vid=792e1e2e-f71f-47ee-9471-2778171764aa"},"vehicle_type_id":"4","last_reported":1767674420,"current_range_meters":8800,"station_id":"ce4bhnh2rcd13ifvqgtg","pricing_plan_id":"cebpf4jnsgd1na2vs0mg"},{"bike_id":"fbe615c7-395f-45e4-952e-5c258fb1b5f0","system_id":"levelo_inurba_marseille","lat":43.28999,"lon":5.35608,"is_reserved":false,"is_disabled":false,"rental_uris":{"android":"levelo://app?vid=fbe615c7-395f-45e4-952e-5c258fb1b5f0","ios":"levelo://app?vid=fbe615c7-395f-45e4-952e-5c258fb1b5f0"},"vehicle_type_id":"4","last_reported":1767674420,"current_range_meters":8800,"station_id":"ce4bhb92rcd13ifvqen0","pricing_plan_id":"cebpf4jnsgd1na2vs0mg"},{"bike_id":"0724d8ea-4b25-40a4-aa82-62aedb38be0b","system_id":"levelo_inurba_marseille","lat":43.31322,"lon":5.39705,"is_reserved":false,"is_disabled":false,"rental_uris":{"android":"levelo://app?vid=0724d8ea-4b25-40a4-aa82-62aedb38be0b","ios":"levelo://app?vid=0724d8ea-4b25-40a4-aa82-62aedb38be0b"},"vehicle_type_id":"4","last_reported":1767674420,"current_range_meters":8800,"station_id":"ce4bgvp2rcd13ifvqcu0","pricing_plan_id":"cebpf4jnsgd1na2vs0mg"},{"bike_id":"b2e816c5-9b60-4dbf-9f39-7c8d6a115207","system_id":"levelo_inurba_marseille","lat":43.32105,"lon":5.36766,"is_reserved":false,"is_disabled":false,"rental_uris":{"android":"levelo://app?vid=b2e816c5-9b60-4dbf-9f39-7c8d6a115207","ios":"levelo://app?vid=b2e816c5-9b60-4dbf-9f39-7c8d6a115207"},"vehicle_type_id":"4","last_reported":1767674420,"current_range_meters":8800,"station_id":"ce4bhrh2rcd13ifvqhug","pricing_plan_id":"cebpf4jnsgd1na2vs0mg"},{"bike_id":"8b14cd5a-7d76-43a2-a46e-a705820146ab","system_id":"levelo_inurba_marseille","lat":43.28076,"lon":5.39643,"is_reserved":false,"is_disabled":false,"rental_uris":{"android":"levelo://app?vid=8b14cd5a-7d76-43a2-a46e-a705820146ab","ios":"levelo://app?vid=8b14cd5a-7d76-43a2-a46e-a705820146ab"},"vehicle_type_id":"4","last_reported":1767674420,"current_range_meters":8800,"station_id":"ce4bho12rcd13ifvqh2g","pricing_plan_id":"cebpf4jnsgd1na2vs0mg"},{"bike_id":"ad50377a-7552-4540-b3a2-64867f58981e","system_id":"levelo_inurba_marseille","lat":43.29183,"lon":5.39569,"is_reserved":false,"is_disabled":false,"rental_uris":{"android":"levelo://app?vid=ad50377a-7552-4540-b3a2-64867f58981e","ios":"levelo://app?vid=ad50377a-7552-4540-b3a2-64867f58981e"},"vehicle_type_id":"4","last_reported":1767674420,"current_range_meters":8800,"station_id":"","pricing_plan_id":"cebpf4jnsgd1na2vs0mg"},{"bike_id":"8ee4b4d7-91ed-4f73-ba76-d3d52bc870c2","system_id":"levelo_inurba_marseille","lat":43.297797,"lon":5.377647,"is_reserved":false,"is_disabled":false,"rental_uris":{"android":"levelo://app?vid=8ee4b4d7-91ed-4f73-ba76-d3d52bc870c2","ios":"levelo://app?vid=8ee4b4d7-91ed-4f73-ba76-d3d52bc870c2"},"vehicle_type_id":"4","last_reported":1767674420,"current_range_meters":8800,"station_id":"","pricing_plan_id":"cebpf4jnsgd1na2vs0mg"},{"bike_id":"dd854dc8-7e11-4bd0-8a36-c7988426f001","system_id":"levelo_inurba_marseille","lat":43.28705,"lon":5.37383,"is_reserved":false,"is_disabled":false,"rental_uris":{"android":"levelo://app?vid=dd854dc8-7e11-4bd0-8a36-c7988426f001","ios":"levelo://app?vid=dd854dc8-7e11-4bd0-8a36-c7988426f001"},"vehicle_type_id":"4","last_reported":1767674420,"current_range_meters":8800,"station_id":"ce4bh3p2rcd13ifvqdq0","pricing_plan_id":"cebpf4jnsgd1na2vs0mg"},{"bike_id":"042aca96-0bcc-4b72-8a8d-ea43e5d85ee4","system_id":"levelo_inurba_marseille","lat":43.31273,"lon":5.3776,"is_reserved":false,"is_disabled":false,"rental_uris":{"android":"levelo://app?vid=042aca96-0bcc-4b72-8a8d-ea43e5d85ee4","ios":"levelo://app?vid=042aca96-0bcc-4b72-8a8d-ea43e5d85ee4"},"vehicle_type_id":"4","last_reported":1767674420,"current_range_meters":8800,"station_id":"","pricing_plan_id":"cebpf4jnsgd1na2vs0mg"},{"bike_id":"deb75a9f-e8d9-4537-a4d4-e56d55771a46","system_id":"levelo_inurba_marseille","lat":43.281051,"lon":5.378462,"is_reserved":false,"is_disabled":false,"rental_uris":{"android":"levelo://app?vid=deb75a9f-e8d9-4537-a4d4-e56d55771a46","ios":"levelo://app?vid=deb75a9f-e8d9-4537-a4d4-e56d55771a46"},"vehicle_type_id":"4","last_reported":1767674420,"current_range_meters":8800,"station_id":"ce4bha12rcd13ifvqee0","pricing_plan_id":"cebpf4jnsgd1na2vs0mg"},{"bike_id":"c8c1f8d2-6c88-4f8a-8c50-54fe9ff592fd","system_id":"levelo_inurba_marseille","lat":43.24674,"lon":5.38177,"is_reserved":false,"is_disabled":false,"rental_uris":{"android":"levelo://app?vid=c8c1f8d2-6c88-4f8a-8c50-54fe9ff592fd","ios":"levelo://app?vid=c8c1f8d2-6c88-4f8a-8c50-54fe9ff592fd"},"vehicle_type_id":"4","last_reported":1767674420,"current_range_meters":8800,"station_id":"ce4bhih2rcd13ifvqfr0","pricing_plan_id":"cebpf4jnsgd1na2vs0mg"},{"bike_id":"87e389ee-1985-4b49-be6d-abd8bb105d12","system_id":"levelo_inurba_marseille","lat":43.27911,"lon":5.39574,"is_reserved":false,"is_disabled":false,"rental_uris":{"android":"levelo://app?vid=87e389ee-1985-4b49-be6d-abd8bb105d12","ios":"levelo://app?vid=87e389ee-1985-4b49-be6d-abd8bb105d12"},"vehicle_type_id":"4","last_reported":1767674420,"current_range_meters":8800,"station_id":"ce4bhf92rcd13ifvqf40","pricing_plan_id":"cebpf4jnsgd1na2vs0mg"},{"bike_id":"1581330e-c183-40f3-9c23-a712c19eaa61","system_id":"levelo_inurba_marseille","lat":43.27942,"lon":5.41043,"is_reserved":false,"is_disabled":false,"rental_uris":{"android":"levelo://app?vid=1581330e-c183-40f3-9c23-a712c19eaa61","ios":"levelo://app?vid=1581330e-c183-40f3-9c23-a712c19eaa61"},"vehicle_type_id":"4","last_reported":1767674420,"current_range_meters":8800,"station_id":"ce4bhnp2rcd13ifvqh0g","pricing_plan_id":"cebpf4jnsgd1na2vs0mg"},{"bike_id":"95eef2fc-be24-452d-b1ad-1286363d1af4","system_id":"levelo_inurba_marseille","lat":43.30097,"lon":5.36958,"is_reserved":false,"is_disabled":false,"rental_uris":{"android":"levelo://app?vid=95eef2fc-be24-452d-b1ad-1286363d1af4","ios":"levelo://app?vid=95eef2fc-be24-452d-b1ad-1286363d1af4"},"vehicle_type_id":"4","last_reported":1767674420,"current_range_meters":8800,"station_id":"","pricing_plan_id":"cebpf4jnsgd1na2vs0mg"},{"bike_id":"c0723a55-d0d0-493e-a4c5-9479bcaeff93","system_id":"levelo_inurba_marseille","lat":43.28481,"lon":5.48392,"is_reserved":false,"is_disabled":false,"rental_uris":{"android":"levelo://app?vid=c0723a55-d0d0-493e-a4c5-9479bcaeff93","ios":"levelo://app?vid=c0723a55-d0d0-493e-a4c5-9479bcaeff93"},"vehicle_type_id":"4","last_reported":1767674420,"current_range_meters":8800,"station_id":"st_d3svhcjqgbts73a3dn0g","pricing_plan_id":"cebpf4jnsgd1na2vs0mg"},{"bike_id":"9b6b7efc-b94d-4891-ad8f-12a39bd6f282","system_id":"levelo_inurba_marseille","lat":43.271685,"lon":5.409937,"is_reserved":false,"is_disabled":false,"rental_uris":{"android":"levelo://app?vid=9b6b7efc-b94d-4891-ad8f-12a39bd6f282","ios":"levelo://app?vid=9b6b7efc-b94d-4891-ad8f-12a39bd6f282"},"vehicle_type_id":"4","last_reported":1767674420,"current_range_meters":8800,"station_id":"ce4bhl12rcd13ifvqgf0","pricing_plan_id":"cebpf4jnsgd1na2vs0mg"},{"bike_id":"1ab87b03-b050-4230-809d-69fbeeb81b42","system_id":"levelo_inurba_marseille","lat":43.3316,"lon":5.37676,"is_reserved":false,"is_disabled":false,"rental_uris":{"android":"levelo://app?vid=1ab87b03-b050-4230-809d-69fbeeb81b42","ios":"levelo://app?vid=1ab87b03-b050-4230-809d-69fbeeb81b42"},"vehicle_type_id":"4","last_reported":1767674420,"current_range_meters":8800,"station_id":"st_d46cu089ee8s73dldbu0","pricing_plan_id":"cebpf4jnsgd1na2vs0mg"},{"bike_id":"295f66cb-f55b-4ce9-ade0-ce7565d398b9","system_id":"levelo_inurba_marseille","lat":43.30456,"lon":5.37913,"is_reserved":false,"is_disabled":false,"rental_uris":{"android":"levelo://app?vid=295f66cb-f55b-4ce9-ade0-ce7565d398b9","ios":"levelo://app?vid=295f66cb-f55b-4ce9-ade0-ce7565d398b9"},"vehicle_type_id":"4","last_reported":1767674420,"current_range_meters":8800,"station_id":"ce4bgup2rcd13ifvqcn0","pricing_plan_id":"cebpf4jnsgd1na2vs0mg"},{"bike_id":"3b465cf0-7e0f-4919-8de2-76e493d53c54","system_id":"levelo_inurba_marseille","lat":43.272,"lon":5.40991,"is_reserved":false,"is_disabled":false,"rental_uris":{"android":"levelo://app?vid=3b465cf0-7e0f-4919-8de2-76e493d53c54","ios":"levelo://app?vid=3b465cf0-7e0f-4919-8de2-76e493d53c54"},"vehicle_type_id":"4","last_reported":1767674420,"current_range_meters":8800,"station_id":"ce4bhl12rcd13ifvqgf0","pricing_plan_id":"cebpf4jnsgd1na2vs0mg"},{"bike_id":"af1f9193-90aa-4f34-b2c4-fb0bbaea183c","system_id":"levelo_inurba_marseille","lat":43.28477,"lon":5.48394,"is_reserved":false,"is_disabled":false,"rental_uris":{"android":"levelo://app?vid=af1f9193-90aa-4f34-b2c4-fb0bbaea183c","ios":"levelo://app?vid=af1f9193-90aa-4f34-b2c4-fb0bbaea183c"},"vehicle_type_id":"4","last_reported":1767674420,"current_range_meters":8800,"station_id":"","pricing_plan_id":"cebpf4jnsgd1na2vs0mg"},{"bike_id":"d9af73a0-2f63-4b3e-8964-f0034091ca3d","system_id":"levelo_inurba_marseille","lat":43.2734,"lon":5.39117,"is_reserved":false,"is_disabled":false,"rental_uris":{"android":"levelo://app?vid=d9af73a0-2f63-4b3e-8964-f0034091ca3d","ios":"levelo://app?vid=d9af73a0-2f63-4b3e-8964-f0034091ca3d"},"vehicle_type_id":"4","last_reported":1767674420,"current_range_meters":8800,"station_id":"ce4bhgp2rcd13ifvqfe0","pricing_plan_id":"cebpf4jnsgd1na2vs0mg"},{"bike_id":"f9c54d67-52ad-41a1-a71d-d18b594fec8c","system_id":"levelo_inurba_marseille","lat":43.23956,"lon":5.36653,"is_reserved":false,"is_disabled":false,"rental_uris":{"android":"levelo://app?vid=f9c54d67-52ad-41a1-a71d-d18b594fec8c","ios":"levelo://app?vid=f9c54d67-52ad-41a1-a71d-d18b594fec8c"},"vehicle_type_id":"4","last_reported":1767674420,"current_range_meters":8800,"station_id":"ce4bhi12rcd13ifvqfp0","pricing_plan_id":"cebpf4jnsgd1na2vs0mg"},{"bike_id":"d10b7e7e-9c34-4685-8c8c-ab766cfc897f","system_id":"levelo_inurba_marseille","lat":43.26937,"lon":5.40252,"is_reserved":false,"is_disabled":false,"rental_uris":{"android":"levelo://app?vid=d10b7e7e-9c34-4685-8c8c-ab766cfc897f","ios":"levelo://app?vid=d10b7e7e-9c34-4685-8c8c-ab766cfc897f"},"vehicle_type_id":"4","last_reported":1767674420,"current_range_meters":8800,"station_id":"cjm6bp8fraef2m0cb0m0","pricing_plan_id":"cebpf4jnsgd1na2vs0mg"},{"bike_id":"269514c1-c953-46ba-88f1-a459ae151a7f","system_id":"levelo_inurba_marseille","lat":43.31479,"lon":5.373,"is_reserved":false,"is_disabled":false,"rental_uris":{"android":"levelo://app?vid=269514c1-c953-46ba-88f1-a459ae151a7f","ios":"levelo://app?vid=269514c1-c953-46ba-88f1-a459ae151a7f"},"vehicle_type_id":"4","last_reported":1767674420,"current_range_meters":8800,"station_id":"ce4bgt12rcd13ifvqcd0","pricing_plan_id":"cebpf4jnsgd1na2vs0mg"},{"bike_id":"7103c3dd-48a2-41c6-9969-082f2a213528","system_id":"levelo_inurba_marseille","lat":43.32,"lon":5.38156,"is_reserved":false,"is_disabled":false,"rental_uris":{"android":"levelo://app?vid=7103c3dd-48a2-41c6-9969-082f2a213528","ios":"levelo://app?vid=7103c3dd-48a2-41c6-9969-082f2a213528"},"vehicle_type_id":"4","last_reported":1767674420,"current_range_meters":8800,"station_id":"ce4bhr12rcd13ifvqhpg","pricing_plan_id":"cebpf4jnsgd1na2vs0mg"},{"bike_id":"87ad74c9-6a6e-42a2-96a8-ed84f1428998","system_id":"levelo_inurba_marseille","lat":43.32155,"lon":5.36839,"is_reserved":false,"is_disabled":false,"rental_uris":{"android":"levelo://app?vid=87ad74c9-6a6e-42a2-96a8-ed84f1428998","ios":"levelo://app?vid=87ad74c9-6a6e-42a2-96a8-ed84f1428998"},"vehicle_type_id":"4","last_reported":1767674420,"current_range_meters":8800,"station_id":"ce4bhrh2rcd13ifvqhug","pricing_plan_id":"cebpf4jnsgd1na2vs0mg"},