{"last_updated":1751404182,"ttl":60,"version":"2.2","data":{"bikes":[{"bike_id":"3da29fb8-fc97-44c6-b9ac-31dd456b2fd4","system_id":"levelo_inurba_marseille","lat":43.33771,"lon":5.37424,"is_reserved":false,"is_disabled":true,"rental_uris":{"android":"levelo://app?vid=3da29fb8-fc97-44c6-b9ac-31dd456b2fd4","ios":"levelo://app?vid=3da29fb8-fc97-44c6-b9ac-31dd456b2fd4"},"vehicle_type_id":"4","last_reported":1751404182,"current_range_meters":0,"station_id":"","pricing_plan_id":"cebpf4jnsgd1na2vs0mg"},{"bike_id":"01861ad8-a8d7-4be6-816e-651927c87584","system_id":"levelo_inurba_marseille","lat":43.33751,"lon":5.37456,"is_reserved":false,"is_disabled":true,"rental_uris":{"android":"levelo://app?vid=01861ad8-a8d7-4be6-816e-651927c87584","ios":"levelo://app?vid=01861ad8-a8d7-4be6-816e-651927c87584"},"vehicle_type_id":"4","last_reported":1751404182,"current_range_meters":0,"station_id":"","pricing_plan_id":"cebpf4jnsgd1na2vs0mg"},{"bike_id":"3168b9fb-97d2-4a0e-b7ee-673bb8cf7525","system_id":"levelo_inurba_marseille","lat":43.27771,"lon":5.3555,"is_reserved":false,"is_disabled":true,"rental_uris":{"android":"levelo://app?vid=3168b9fb-97d2-4a0e-b7ee-673bb8cf7525","ios":"levelo://app?vid=3168b9fb-97d2-4a0e-b7ee-673bb8cf7525"},"vehicle_type_id":"4","last_reported":1751404182,"current_range_meters":0,"station_id":"","pricing_plan_id":"cebpf4jnsgd1na2vs0mg"},{"bike_id":"d9ff6e9f-639f-40d8-85fa-0d0a1ef2cd49","system_id":"levelo_inurba_marseille","lat":43.269382,"lon":5.402714,"is_reserved":false,"is_disabled":true,"rental_uris":{"android":"levelo://app?vid=d9ff6e9f-639f-40d8-85fa-0d0a1ef2cd49","ios":"levelo://app?vid=d9ff6e9f-639f-40d8-85fa-0d0a1ef2cd49"},"vehicle_type_id":"4","last_reported":1751404182,"current_range_meters":0,"station_id":"","pricing_plan_id":"cebpf4jnsgd1na2vs0mg"},{"bike_id":"07a2a7d8-215f-4466-afe6-42f753fa97d7","system_id":"levelo_inurba_marseille","lat":43.30756,"lon":5.42532,"is_reserved":false,"is_disabled":true,"rental_uris":{"android":"levelo://app?vid=07a2a7d8-215f-4466-afe6-42f753fa97d7","ios":"levelo://app?vid=07a2a7d8-215f-4466-afe6-42f753fa97d7"},"vehicle_type_id":"4","last_reported":1751404182,"current_range_meters":0,"station_id":"","pricing_plan_id":"cebpf4jnsgd1na2vs0mg"},{"bike_id":"6fa70ec9-6f0e-4f3b-bdc4-86476675540a","system_id":"levelo_inurba_marseille","lat":43.273823,"lon":5.362491,"is_reserved":false,"is_disabled":true,"rental_uris":{"android":"levelo://app?vid=6fa70ec9-6f0e-4f3b-bdc4-86476675540a","ios":"levelo://app?vid=6fa70ec9-6f0e-4f3b-bdc4-86476675540a"},"vehicle_type_id":"4","last_reported":1751404182,"current_range_meters":0,"station_id":"","pricing_plan_id":"cebpf4jnsgd1na2vs0mg"},{"bike_id":"a0fee4a0-d255-44d8-85d9-fd32ba974a7f","system_id":"levelo_inurba_marseille","lat":43.24702,"lon":5.40264,"is_reserved":false,"is_disabled":true,"rental_uris":{"android":"levelo://app?vid=a0fee4a0-d255-44d8-85d9-fd32ba974a7f","ios":"levelo://app?vid=a0fee4a0-d255-44d8-85d9-fd32ba974a7f"},"vehicle_type_id":"4","last_reported":1751404182,"current_range_meters":0,"station_id":"","pricing_plan_id":"cebpf4jnsgd1na2vs0mg"},{"bike_id":"3378c13c-e4e0-45be-9bfe-f3a4bc2c600e","system_id":"levelo_inurba_marseille","lat":43.2976,"lon":5.45998,"is_reserved":false,"is_disabled":true,"rental_uris":{"android":"levelo://app?vid=3378c13c-e4e0-45be-9bfe-f3a4bc2c600e","ios":"levelo://app?vid=3378c13c-e4e0-45be-9bfe-f3a4bc2c600e"},"vehicle_type_id":"4","last_reported":1751404182,"current_range_meters":0,"station_id":"","pricing_plan_id":"cebpf4jnsgd1na2vs0mg"},{"bike_id":"2ccccc82-c8a9-4c3b-909d-52c0bf697aa3","system_id":"levelo_inurba_marseille","lat":43.27604,"lon":5.35851,"is_reserved":false,"is_disabled":true,"rental_uris":{"android":"levelo://app?vid=2ccccc82-c8a9-4c3b-909d-52c0bf697aa3","ios":"levelo://app?vid=2ccccc82-c8a9-4c3b-909d-52c0bf697aa3"},"vehicle_type_id":"4","last_reported":1751404182,"current_range_meters":0,"station_id":"","pricing_plan_id":"cebpf4jnsgd1na2vs0mg"},{"bike_id":"c9700359-7f1e-4ea5-8eb5-d9c4ea1b8ef7","system_id":"levelo_inurba_marseille","lat":43.26309,"lon":5.37413,"is_reserved":false,"is_disabled":true,"rental_uris":{"android":"levelo://app?vid=c9700359-7f1e-4ea5-8eb5-d9c4ea1b8ef7","ios":"levelo://app?vid=c9700359-7f1e-4ea5-8eb5-d9c4ea1b8ef7"},"vehicle_type_id":"4","last_reported":1751404182,"current_range_meters":0,"station_id":"","pricing_plan_id":"cebpf4jnsgd1na2vs0mg"},{"bike_id":"95c69415-2845-4124-9fbc-8e2f89cb3a35","system_id":"levelo_inurba_marseille","lat":43.337444,"lon":5.374475,"is_reserved":false,"is_disabled":true,"rental_uris":{"android":"levelo://app?vid=95c69415-2845-4124-9fbc-8e2f89cb3a35","ios":"levelo://app?vid=95c69415-2845-4124-9fbc-8e2f89cb3a35"},"vehicle_type_id":"4","last_reported":1751404182,"current_range_meters":0,"station_id":"","pricing_plan_id":"cebpf4jnsgd1na2vs0mg"},{"bike_id":"3035be0e-7c3d-4f7d-a1cb-7a1af59e497b","system_id":"levelo_inurba_marseille","lat":43.2987,"lon":5.36261,"is_reserved":false,"is_disabled":true,"rental_uris":{"android":"levelo://app?vid=3035be0e-7c3d-4f7d-a1cb-7a1af59e497b","ios":"levelo://app?vid=3035be0e-7c3d-4f7d-a1cb-7a1af59e497b"},"vehicle_type_id":"4","last_reported":1751404182,"current_range_meters":0,"station_id":"ce4bgpp2rcd13ifvqc3g","pricing_plan_id":"cebpf4jnsgd1na2vs0mg"},{"bike_id":"8738cc3d-466e-455c-bb3b-3d2126a9eadb","system_id":"levelo_inurba_marseille","lat":43.31172,"lon":5.3871,"is_reserved":false,"is_disabled":true,"rental_uris":{"android":"levelo://app?vid=8738cc3d-466e-455c-bb3b-3d2126a9eadb","ios":"levelo://app?vid=8738cc3d-466e-455c-bb3b-3d2126a9eadb"},"vehicle_type_id":"4","last_reported":1751404182,"current_range_meters":0,"station_id":"ce4bgv12rcd13ifvqcp0","pricing_plan_id":"cebpf4jnsgd1na2vs0mg"},{"bike_id":"bde0c56f-c7d8-4fbd-bb12-b961cd90ce24","system_id":"levelo_inurba_marseille","lat":43.29252,"lon":5.40903,"is_reserved":false,"is_disabled":true,"rental_uris":{"android":"levelo://app?vid=bde0c56f-c7d8-4fbd-bb12-b961cd90ce24","ios":"levelo://app?vid=bde0c56f-c7d8-4fbd-bb12-b961cd90ce24"},"vehicle_type_id":"4","last_reported":1751404182,"current_range_meters":0,"station_id":"ce4bh192rcd13ifvqdc0","pricing_plan_id":"cebpf4jnsgd1na2vs0mg"},{"bike_id":"d5ee263d-2eea-4fc9-a112-3f60028a8c8a","system_id":"levelo_inurba_marseille","lat":43.29577,"lon":5.39988,"is_reserved":false,"is_disabled":true,"rental_uris":{"android":"levelo://app?vid=d5ee263d-2eea-4fc9-a112-3f60028a8c8a","ios":"levelo://app?vid=d5ee263d-2eea-4fc9-a112-3f60028a8c8a"},"vehicle_type_id":"4","last_reported":1751404182,"current_range_meters":0,"station_id":"ce4bh312rcd13ifvqdj0","pricing_plan_id":"cebpf4jnsgd1na2vs0mg"},{"bike_id":"21078292-0bc5-4756-88ab-30f16bb93b77","system_id":"levelo_inurba_marseille","lat":43.28934,"lon":5.36636,"is_reserved":false,"is_disabled":true,"rental_uris":{"android":"levelo://app?vid=21078292-0bc5-4756-88ab-30f16bb93b77","ios":"levelo://app?vid=21078292-0bc5-4756-88ab-30f16bb93b77"},"vehicle_type_id":"4","last_reported":1751404182,"current_range_meters":0,"station_id":"ce4bhap2rcd13ifvqek0","pricing_plan_id":"cebpf4jnsgd1na2vs0mg"},{"bike_id":"5fe35577-b85f-4e0a-a077-245cc4000f39","system_id":"levelo_inurba_marseille","lat":43.26032,"lon":5.37542,"is_reserved":false,"is_disabled":true,"rental_uris":{"android":"levelo://app?vid=5fe35577-b85f-4e0a-a077-245cc4000f39","ios":"levelo://app?vid=5fe35577-b85f-4e0a-a077-245cc4000f39"},"vehicle_type_id":"4","last_reported":1751404182,"current_range_meters":0,"station_id":"ce4bhgh2rcd13ifvqfa0","pricing_plan_id":"cebpf4jnsgd1na2vs0mg"},{"bike_id":"b80adc8a-da9d-4306-99ff-b0582a6f9a42","system_id":"levelo_inurba_marseille","lat":43.26204,"lon":5.37442,"is_reserved":false,"is_disabled":true,"rental_uris":{"android":"levelo://app?vid=b80adc8a-da9d-4306-99ff-b0582a6f9a42","ios":"levelo://app?vid=b80adc8a-da9d-4306-99ff-b0582a6f9a42"},"vehicle_type_id":"4","last_reported":1751404182,"current_range_meters":0,"station_id":"ce4bhgp2rcd13ifvqfc0","pricing_plan_id":"cebpf4jnsgd1na2vs0mg"},{"bike_id":"08f026c1-6584-428f-a655-f3fdbe8622ef","system_id":"levelo_inurba_marseille","lat":43.29622,"lon":5.3772,"is_reserved":false,"is_disabled":true,"rental_uris":{"android":"levelo://app?vid=08f026c1-6584-428f-a655-f3fdbe8622ef","ios":"levelo://app?vid=08f026c1-6584-428f-a655-f3fdbe8622ef"},"vehicle_type_id":"4","last_reported":1751404182,"current_range_meters":400,"station_id":"ce4bgi92rcd13ifvqb90","pricing_plan_id":"cebpf4jnsgd1na2vs0mg"},{"bike_id":"6346854d-967c-470e-9bcf-0ee9cbb31745","system_id":"levelo_inurba_marseille","lat":43.26927,"lon":5.42029,"is_reserved":false,"is_disabled":true,"rental_uris":{"android":"levelo://app?vid=6346854d-967c-470e-9bcf-0ee9cbb31745","ios":"levelo://app?vid=6346854d-967c-470e-9bcf-0ee9cbb31745"},"vehicle_type_id":"4","last_reported":1751404182,"current_range_meters":800,"station_id":"","pricing_plan_id":"cebpf4jnsgd1na2vs0mg"},{"bike_id":"67e1343b-75fe-43ae-85a4-ebf3c4e95990","system_id":"levelo_inurba_marseille","lat":43.29036,"lon":5.35915,"is_reserved":false,"is_disabled":true,"rental_uris":{"android":"levelo://app?vid=67e1343b-75fe-43ae-85a4-ebf3c4e95990","ios":"levelo://app?vid=67e1343b-75fe-43ae-85a4-ebf3c4e95990"},"vehicle_type_id":"4","last_reported":1751404182,"current_range_meters":800,"station_id":"ce4bha92rcd13ifvqeg0","pricing_plan_id":"cebpf4jnsgd1na2vs0mg"},{"bike_id":"23dabb6a-b30f-4115-84e2-e0e3be07c95c","system_id":"levelo_inurba_marseille","lat":43.26371,"lon":5.37819,"is_reserved":false,"is_disabled":true,"rental_uris":{"android":"levelo://app?vid=23dabb6a-b30f-4115-84e2-e0e3be07c95c","ios":"levelo://app?vid=23dabb6a-b30f-4115-84e2-e0e3be07c95c"},"vehicle_type_id":"4","last_reported":1751404182,"current_range_meters":1200,"station_id":"","pricing_plan_id":"cebpf4jnsgd1na2vs0mg"},{"bike_id":"7547e1e4-2d85-4907-971d-6c8e5c4cb529","system_id":"levelo_inurba_marseille","lat":43.25303,"lon":5.37514,"is_reserved":false,"is_disabled":true,"rental_uris":{"android":"levelo://app?vid=7547e1e4-2d85-4907-971d-6c8e5c4cb529","ios":"levelo://app?vid=7547e1e4-2d85-4907-971d-6c8e5c4cb529"},"vehicle_type_id":"4","last_reported":1751404182,"current_range_meters":1600,"station_id":"","pricing_plan_id":"cebpf4jnsgd1na2vs0mg"},{"bike_id":"a9d18681-d4bf-4cf2-b325-9af2876dc18f","system_id":"levelo_inurba_marseille","lat":43.30866,"lon":5.39649,"is_reserved":false,"is_disabled":true,"rental_uris":{"android":"levelo://app?vid=a9d18681-d4bf-4cf2-b325-9af2876dc18f","ios":"levelo://app?vid=a9d18681-d4bf-4cf2-b325-9af2876dc18f"},"vehicle_type_id":"4","last_reported":1751404182,"current_range_meters":1600,"station_id":"ce4bh012rcd13ifvqcv0","pricing_plan_id":"cebpf4jnsgd1na2vs0mg"},{"bike_id":"853c351e-6e26-4b3d-a958-8b61d333ee8c","system_id":"levelo_inurba_marseille","lat":43.27374,"lon":5.36262,"is_reserved":false,"is_disabled":true,"rental_uris":{"android":"levelo://app?vid=853c351e-6e26-4b3d-a958-8b61d333ee8c","ios":"levelo://app?vid=853c351e-6e26-4b3d-a958-8b61d333ee8c"},"vehicle_type_id":"4","last_reported":1751404182,"current_range_meters":1600,"station_id":"ce4bhbh2rcd13ifvqeo0","pricing_plan_id":"cebpf4jnsgd1na2vs0mg"},{"bike_id":"a5b9b559-2e03-43c2-a5e8-b0f1984d17e8","system_id":"levelo_inurba_marseille","lat":43.24995,"lon":5.38932,"is_reserved":false,"is_disabled":true,"rental_uris":{"android":"levelo://app?vid=a5b9b559-2e03-43c2-a5e8-b0f1984d17e8","ios":"levelo://app?vid=a5b9b559-2e03-43c2-a5e8-b0f1984d17e8"},"vehicle_type_id":"4","last_reported":1751404182,"current_range_meters":1600,"station_id":"ce4bhgp2rcd13ifvqfd0","pricing_plan_id":"cebpf4jnsgd1na2vs0mg"},{"bike_id":"093aeb85-c7d1-4afe-ab35-70c9d95038fb","system_id":"levelo_inurba_marseille","lat":43.27054,"lon":5.40264,"is_reserved":false,"is_disabled":true,"rental_uris":{"android":"levelo://app?vid=093aeb85-c7d1-4afe-ab35-70c9d95038fb","ios":"levelo://app?vid=093aeb85-c7d1-4afe-ab35-70c9d95038fb"},"vehicle_type_id":"4","last_reported":1751404182,"current_range_meters":1600,"station_id":"ce4bhk92rcd13ifvqgc0","pricing_plan_id":"cebpf4jnsgd1na2vs0mg"},{"bike_id":"174b59cd-958d-49ff-99c3-de6f8673461c","system_id":"levelo_inurba_marseille","lat":43.33722,"lon":5.39196,"is_reserved":false,"is_disabled":true,"rental_uris":{"android":"levelo://app?vid=174b59cd-958d-49ff-99c3-de6f8673461c","ios":"levelo://app?vid=174b59cd-958d-49ff-99c3-de6f8673461c"},"vehicle_type_id":"4","last_reported":1751404182,"current_range_meters":1600,"station_id":"ce4bhr92rcd13ifvqhsg","pricing_plan_id":"cebpf4jnsgd1na2vs0mg"},{"bike_id":"bb468528-fffd-42bd-b607-10452ce83063","system_id":"levelo_inurba_marseille","lat":43.323707,"lon":5.406912,"is_reserved":false,"is_disabled":false,"rental_uris":{"android":"levelo://app?vid=bb468528-fffd-42bd-b607-10452ce83063","ios":"levelo://app?vid=bb468528-fffd-42bd-b607-10452ce83063"},"vehicle_type_id":"4","last_reported":1751404182,"current_range_meters":2800,"station_id":"ce4bgih2rcd13ifvqba0","pricing_plan_id":"cebpf4jnsgd1na2vs0mg"},{"bike_id":"6e96ddc2-6fb8-43d4-8ffe-7bc1841a0b99","system_id":"levelo_inurba_marseille","lat":43.31357,"lon":5.38494,"is_reserved":false,"is_disabled":false,"rental_uris":{"android":"levelo://app?vid=6e96ddc2-6fb8-43d4-8ffe-7bc1841a0b99","ios":"levelo://app?vid=6e96ddc2-6fb8-43d4-8ffe-7bc1841a0b99"},"vehicle_type_id":"4","last_reported":1751404182,"current_range_meters":3200,"station_id":"ce4bgt92rcd13ifvqcf0","pricing_plan_id":"cebpf4jnsgd1na2vs0mg"},{"bike_id":"5a19097c-d196-4b1a-9cc9-402b3edb59b0","system_id":"levelo_inurba_marseille","lat":43.28571,"lon":5.39491,"is_reserved":false,"is_disabled":false,"rental_uris":{"android":"levelo://app?vid=5a19097c-d196-4b1a-9cc9-402b3edb59b0","ios":"levelo://app?vid=5a19097c-d196-4b1a-9cc9-402b3edb59b0"},"vehicle_type_id":"4","last_reported":1751404182,"current_range_meters":3600,"station_id":"ce4bh292rcd13ifvqdg0","pricing_plan_id":"cebpf4jnsgd1na2vs0mg"},{"bike_id":"897cf961-b80d-4642-b6bb-094974cfb42f","system_id":"levelo_inurba_marseille","lat":43.284428,"lon":5.39192,"is_reserved":false,"is_disabled":false,"rental_uris":{"android":"levelo://app?vid=897cf961-b80d-4642-b6bb-094974cfb42f","ios":"levelo://app?vid=897cf961-b80d-4642-b6bb-094974cfb42f"},"vehicle_type_id":"4","last_reported":1751404182,"current_range_meters":3600,"station_id":"ce4bhoh2rcd13ifvqh5g","pricing_plan_id":"cebpf4jnsgd1na2vs0mg"},{"bike_id":"4f937482-8266-4c46-a788-862b969cb257","system_id":"levelo_inurba_marseille","lat":43.32356,"lon":5.3676,"is_reserved":false,"is_disabled":false,"rental_uris":{"android":"levelo://app?vid=4f937482-8266-4c46-a788-862b969cb257","ios":"levelo://app?vid=4f937482-8266-4c46-a788-862b969cb257"},"vehicle_type_id":"4","last_reported":1751404182,"current_range_meters":3600,"station_id":"ce4bhsh2rcd13ifvqi2g","pricing_plan_id":"cebpf4jnsgd1na2vs0mg"},{"bike_id":"1364a141-3fd2-4858-885b-b38960be3c05","system_id":"levelo_inurba_marseille","lat":43.31849,"lon":5.38434,"is_reserved":false,"is_disabled":false,"rental_uris":{"android":"levelo://app?vid=1364a141-3fd2-4858-885b-b38960be3c05","ios":"levelo://app?vid=1364a141-3fd2-4858-885b-b38960be3c05"},"vehicle_type_id":"4","last_reported":1751404182,"current_range_meters":4000,"station_id":"","pricing_plan_id":"cebpf4jnsgd1na2vs0mg"},{"bike_id":"9b3bf80d-3a8b-47ba-8399-7faf8b69641a","system_id":"levelo_inurba_marseille","lat":43.30166,"lon":5.373155,"is_reserved":false,"is_disabled":false,"rental_uris":{"android":"levelo://app?vid=9b3bf80d-3a8b-47ba-8399-7faf8b69641a","ios":"levelo://app?vid=9b3bf80d-3a8b-47ba-8399-7faf8b69641a"},"vehicle_type_id":"4","last_reported":1751404182,"current_range_meters":4000,"station_id":"ce4bgs92rcd13ifvqcc0","pricing_plan_id":"cebpf4jnsgd1na2vs0mg"},{"bike_id":"94a43244-f717-4d28-a079-ee4081aaddf9","system_id":"levelo_inurba_marseille","lat":43.287411,"lon":5.388962,"is_reserved":false,"is_disabled":false,"rental_uris":{"android":"levelo://app?vid=94a43244-f717-4d28-a079-ee4081aaddf9","ios":"levelo://app?vid=94a43244-f717-4d28-a079-ee4081aaddf9"},"vehicle_type_id":"4","last_reported":1751404182,"current_range_meters":4000,"station_id":"ce4bhf92rcd13ifvqf50","pricing_plan_id":"cebpf4jnsgd1na2vs0mg"},{"bike_id":"855fdc8d-18be-4122-99d4-271aaa5d6f18","system_id":"levelo_inurba_marseille","lat":43.25106,"lon":5.4032,"is_reserved":false,"is_disabled":false,"rental_uris":{"android":"levelo://app?vid=855fdc8d-18be-4122-99d4-271aaa5d6f18","ios":"levelo://app?vid=855fdc8d-18be-4122-99d4-271aaa5d6f18"},"vehicle_type_id":"4","last_reported":1751404182,"current_range_meters":4000,"station_id":"ce4bhlh2rcd13ifvqgig","pricing_plan_id":"cebpf4jnsgd1na2vs0mg"},{"bike_id":"162af4e6-d224-4240-aeac-6cb0ae06de53","system_id":"levelo_inurba_marseille","lat":43.29899,"lon":5.37829,"is_reserved":false,"is_disabled":false,"rental_uris":{"android":"levelo://app?vid=162af4e6-d224-4240-aeac-6cb0ae06de53","ios":"levelo://app?vid=162af4e6-d224-4240-aeac-6cb0ae06de53"},"vehicle_type_id":"4","last_reported":1751404182,"current_range_meters":4400,"station_id":"","pricing_plan_id":"cebpf4jnsgd1na2vs0mg"},{"bike_id":"a286e8d1-5c8b-4714-9cd3-ca2dc7ab738f","system_id":"levelo_inurba_marseille","lat":43.28355,"lon":5.38109,"is_reserved":false,"is_disabled":false,"rental_uris":{"android":"levelo://app?vid=a286e8d1-5c8b-4714-9cd3-ca2dc7ab738f","ios":"levelo://app?vid=a286e8d1-5c8b-4714-9cd3-ca2dc7ab738f"},"vehicle_type_id":"4","last_reported":1751404182,"current_range_meters":4400,"station_id":"ce4bh412rcd13ifvqdr0","pricing_plan_id":"cebpf4jnsgd1na2vs0mg"},{"bike_id":"24b81a6c-8914-45ef-a4b3-0c07474121e3","system_id":"levelo_inurba_marseille","lat":43.26564,"lon":5.37293,"is_reserved":false,"is_disabled":false,"rental_uris":{"android":"levelo://app?vid=24b81a6c-8914-45ef-a4b3-0c07474121e3","ios":"levelo://app?vid=24b81a6c-8914-45ef-a4b3-0c07474121e3"},"vehicle_type_id":"4","last_reported":1751404182,"current_range_meters":4400,"station_id":"ce4bhg12rcd13ifvqf70","pricing_plan_id":"cebpf4jnsgd1na2vs0mg"},{"bike_id":"1b90b982-157e-4079-93f7-e0ab099a226f","system_id":"levelo_inurba_marseille","lat":43.27965,"lon":5.3875,"is_reserved":false,"is_disabled":false,"rental_uris":{"android":"levelo://app?vid=1b90b982-157e-4079-93f7-e0ab099a226f","ios":"levelo://app?vid=1b90b982-157e-4079-93f7-e0ab099a226f"},"vehicle_type_id":"4","last_reported":1751404182,"current_range_meters":4800,"station_id":"ce4bhg12rcd13ifvqf80","pricing_plan_id":"cebpf4jnsgd1na2vs0mg"},{"bike_id":"21e2c51d-4563-4efd-afbf-0ddeff93c862","system_id":"levelo_inurba_marseille","lat":43.21749,"lon":5.34603,"is_reserved":false,"is_disabled":false,"rental_uris":{"android":"levelo://app?vid=21e2c51d-4563-4efd-afbf-0ddeff93c862","ios":"levelo://app?vid=21e2c51d-4563-4efd-afbf-0ddeff93c862"},"vehicle_type_id":"4","last_reported":1751404182,"current_range_meters":5600,"station_id":"","pricing_plan_id":"cebpf4jnsgd1na2vs0mg"},{"bike_id":"b72c80d1-2411-479c-9f73-214d8794eec8","system_id":"levelo_inurba_marseille","lat":43.27998,"lon":5.36923,"is_reserved":false,"is_disabled":false,"rental_uris":{"android":"levelo://app?vid=b72c80d1-2411-479c-9f73-214d8794eec8","ios":"levelo://app?vid=b72c80d1-2411-479c-9f73-214d8794eec8"},"vehicle_type_id":"4","last_reported":1751404182,"current_range_meters":5600,"station_id":"ce4bha12rcd13ifvqef0","pricing_plan_id":"cebpf4jnsgd1na2vs0mg"},{"bike_id":"1e735d5a-767b-45aa-a2f5-98a8f3a64f40","system_id":"levelo_inurba_marseille","lat":43.27311,"lon":5.39079,"is_reserved":false,"is_disabled":false,"rental_uris":{"android":"levelo://app?vid=1e735d5a-767b-45aa-a2f5-98a8f3a64f40","ios":"levelo://app?vid=1e735d5a-767b-45aa-a2f5-98a8f3a64f40"},"vehicle_type_id":"4","last_reported":1751404182,"current_range_meters":5600,"station_id":"ce4bhgp2rcd13ifvqfe0","pricing_plan_id":"cebpf4jnsgd1na2vs0mg"},{"bike_id":"515796cb-d08f-4772-bd80-df433a51387e","system_id":"levelo_inurba_marseille","lat":43.31379,"lon":5.385,"is_reserved":false,"is_disabled":false,"rental_uris":{"android":"levelo://app?vid=515796cb-d08f-4772-bd80-df433a51387e","ios":"levelo://app?vid=515796cb-d08f-4772-bd80-df433a51387e"},"vehicle_type_id":"4","last_reported":1751404182,"current_range_meters":6000,"station_id":"ce4bgt92rcd13ifvqcf0","pricing_plan_id":"cebpf4jnsgd1na2vs0mg"},{"bike_id":"544c11d1-874b-4125-81a6-313bbd11e64c","system_id":"levelo_inurba_marseille","lat":43.31321,"lon":5.39695,"is_reserved":false,"is_disabled":false,"rental_uris":{"android":"levelo://app?vid=544c11d1-874b-4125-81a6-313bbd11e64c","ios":"levelo://app?vid=544c11d1-874b-4125-81a6-313bbd11e64c"},"vehicle_type_id":"4","last_reported":1751404182,"current_range_meters":6000,"station_id":"ce4bgvp2rcd13ifvqcu0","pricing_plan_id":"cebpf4jnsgd1na2vs0mg"},{"bike_id":"e95b3f5f-7ee9-4b6f-95c1-4874cdb40eed","system_id":"levelo_inurba_marseille","lat":43.26675,"lon":5.38259,"is_reserved":false,"is_disabled":false,"rental_uris":{"android":"levelo://app?vid=e95b3f5f-7ee9-4b6f-95c1-4874cdb40eed","ios":"levelo://app?vid=e95b3f5f-7ee9-4b6f-95c1-4874cdb40eed"},"vehicle_type_id":"4","last_reported":1751404182,"current_range_meters":6000,"station_id":"ce4bhg92rcd13ifvqf90","pricing_plan_id":"cebpf4jnsgd1na2vs0mg"},{"bike_id":"43fcb430-53f7-4349-b49c-62f8e6ea8db4","system_id":"levelo_inurba_marseille","lat":43.28392,"lon":5.43755,"is_reserved":false,"is_disabled":false,"rental_uris":{"android":"levelo://app?vid=43fcb430-53f7-4349-b49c-62f8e6ea8db4","ios":"levelo://app?vid=43fcb430-53f7-4349-b49c-62f8e6ea8db4"},"vehicle_type_id":"4","last_reported":1751404182,"current_range_meters":6400,"station_id":"","pricing_plan_id":"cebpf4jnsgd1na2vs0mg"},{"bike_id":"4009e35a-e8b0-44c1-9657-f8a3160a4efd","system_id":"levelo_inurba_marseille","lat":43.2706,"lon":5.42245,"is_reserved":false,"is_disabled":false,"rental_uris":{"android":"levelo://app?vid=4009e35a-e8b0-44c1-9657-f8a3160a4efd","ios":"levelo://app?vid=4009e35a-e8b0-44c1-9657-f8a3160a4efd"},"vehicle_type_id":"4","last_reported":1751404182,"current_range_meters":6400,"station_id":"ce4bhk92rcd13ifvqgb0","pricing_plan_id":"cebpf4jnsgd1na2vs0mg"},{"bike_id":"df3fc099-0305-4871-a513-0c72c351bb57","system_id":"levelo_inurba_marseille","lat":43.31954,"lon":5.40366,"is_reserved":false,"is_disabled":false,"rental_uris":{"android":"levelo://app?vid=df3fc099-0305-4871-a513-0c72c351bb57","ios":"levelo://app?vid=df3fc099-0305-4871-a513-0c72c351bb57"},"vehicle_type_id":"4","last_reported":1751404182,"current_range_meters":6800,"station_id":"","pricing_plan_id":"cebpf4jnsgd1na2vs0mg"},{"bike_id":"10b39b0f-6003-418d-8995-44dd7eec436b","system_id":"levelo_inurba_marseille","lat":43.30785,"lon":5.3763,"is_reserved":false,"is_disabled":false,"rental_uris":{"android":"levelo://app?vid=10b39b0f-6003-418d-8995-44dd7eec436b","ios":"levelo://app?vid=10b39b0f-6003-418d-8995-44dd7eec436b"},"vehicle_type_id":"4","last_reported":1751404182,"current_range_meters":6800,"station_id":"ce4bgv92rcd13ifvqcq0","pricing_plan_id":"cebpf4jnsgd1na2vs0mg"},{"bike_id":"a2017121-8342-439c-9853-789b6ff0806f","system_id":"levelo_inurba_marseille","lat":43.21184,"lon":5.35062,"is_reserved":false,"is_disabled":false,"rental_uris":{"android":"levelo://app?vid=a2017121-8342-439c-9853-789b6ff0806f","ios":"levelo://app?vid=a2017121-8342-439c-9853-789b6ff0806f"},"vehicle_type_id":"4","last_reported":1751404182,"current_range_meters":6800,"station_id":"st_cvj6sg6p6f1abm77japg","pricing_plan_id":"cebpf4jnsgd1na2vs0mg"},{"bike_id":"585174d6-536a-4952-940e-a77f3cf4bd1d","system_id":"levelo_inurba_marseille","lat":43.29704,"lon":5.36142,"is_reserved":false,"is_disabled":false,"rental_uris":{"android":"levelo://app?vid=585174d6-536a-4952-940e-a77f3cf4bd1d","ios":"levelo://app?vid=585174d6-536a-4952-940e-a77f3cf4bd1d"},"vehicle_type_id":"4","last_reported":1751404182,"current_range_meters":7200,"station_id":"","pricing_plan_id":"cebpf4jnsgd1na2vs0mg"},{"bike_id":"06720856-2688-4953-8fcd-ef86831286c9","system_id":"levelo_inurba_marseille","lat":43.30273,"lon":5.37719,"is_reserved":false,"is_disabled":false,"rental_uris":{"android":"levelo://app?vid=06720856-2688-4953-8fcd-ef86831286c9","ios":"levelo://app?vid=06720856-2688-4953-8fcd-ef86831286c9"},"vehicle_type_id":"4","last_reported":1751404182,"current_range_meters":7200,"station_id":"ce4bguh2rcd13ifvqcj0","pricing_plan_id":"cebpf4jnsgd1na2vs0mg"},{"bike_id":"5683d2b4-d960-4ce6-8162-df1a4f7e1426","system_id":"levelo_inurba_marseille","lat":43.31063,"lon":5.3836,"is_reserved":false,"is_disabled":false,"rental_uris":{"android":"levelo://app?vid=5683d2b4-d960-4ce6-8162-df1a4f7e1426","ios":"levelo://app?vid=5683d2b4-d960-4ce6-8162-df1a4f7e1426"},"vehicle_type_id":"4","last_reported":1751404182,"current_range_meters":7200,"station_id":"ce4bgv92rcd13ifvqcr0","pricing_plan_id":"cebpf4jnsgd1na2vs0mg"},{"bike_id":"ac071897-d5f8-45a4-8e76-54c7cfda3b1a","system_id":"levelo_inurba_marseille","lat":43.32337,"lon":5.40626,"is_reserved":false,"is_disabled":false,"rental_uris":{"android":"levelo://app?vid=ac071897-d5f8-45a4-8e76-54c7cfda3b1a","ios":"levelo://app?vid=ac071897-d5f8-45a4-8e76-54c7cfda3b1a"},"vehicle_type_id":"4","last_reported":1751404182,"current_range_meters":7200,"station_id":"ce4bhq92rcd13ifvqhjg","pricing_plan_id":"cebpf4jnsgd1na2vs0mg"},{"bike_id":"25ca3ae2-b4c4-49a7-bbe5-ca13bceedd9b","system_id":"levelo_inurba_marseille","lat":43.30848,"lon":5.37088,"is_reserved":false,"is_disabled":false,"rental_uris":{"android":"levelo://app?vid=25ca3ae2-b4c4-49a7-bbe5-ca13bceedd9b","ios":"levelo://app?vid=25ca3ae2-b4c4-49a7-bbe5-ca13bceedd9b"},"vehicle_type_id":"4","last_reported":1751404182,"current_range_meters":8000,"station_id":"","pricing_plan_id":"cebpf4jnsgd1na2vs0mg"},{"bike_id":"f364bc95-9456-4377-b488-b8232c65c321","system_id":"levelo_inurba_marseille","lat":43.29966,"lon":5.3718,"is_reserved":false,"is_disabled":false,"rental_uris":{"android":"levelo://app?vid=f364bc95-9456-4377-b488-b8232c65c321","ios":"levelo://app?vid=f364bc95-9456-4377-b488-b8232c65c321"},"vehicle_type_id":"4","last_reported":1751404182,"current_range_meters":8000,"station_id":"ce4bgr92rcd13ifvqc7g","pricing_plan_id":"cebpf4jnsgd1na2vs0mg"},{"bike_id":"31917f7a-b66c-43b0-8d5d-9dbffc8528b9","system_id":"levelo_inurba_marseille","lat":43.307024,"lon":5.382667,"is_reserved":false,"is_disabled":false,"rental_uris":{"android":"levelo://app?vid=31917f7a-b66c-43b0-8d5d-9dbffc8528b9","ios":"levelo://app?vid=31917f7a-b66c-43b0-8d5d-9dbffc8528b9"},"vehicle_type_id":"4","last_reported":1751404182,"current_range_meters":8000,"station_id":"ce4bgt12rcd13ifvqce0","pricing_plan_id":"cebpf4jnsgd1na2vs0mg"},{"bike_id":"7163b7cf-32e0-45a8-83fe-dc5fe91a5243","system_id":"levelo_inurba_marseille","lat":43.32103,"lon":5.36786,"is_reserved":false,"is_disabled":false,"rental_uris":{"android":"levelo://app?vid=7163b7cf-32e0-45a8-83fe-dc5fe91a5243","ios":"levelo://app?vid=7163b7cf-32e0-45a8-83fe-dc5fe91a5243"},"vehicle_type_id":"4","last_reported":1751404182,"current_range_meters":8000,"station_id":"ce4bhrh2rcd13ifvqhug","pricing_plan_id":"cebpf4jnsgd1na2vs0mg"},{"bike_id":"8252b44a-d048-4379-9209-2efa2e627825","system_id":"levelo_inurba_marseille","lat":43.292346,"lon":5.40567,"is_reserved":false,"is_disabled":false,"rental_uris":{"android":"levelo://app?vid=8252b44a-d048-4379-9209-2efa2e627825","ios":"levelo://app?vid=8252b44a-d048-4379-9209-2efa2e627825"},"vehicle_type_id":"4","last_reported":1751404182,"current_range_meters":8400,"station_id":"","pricing_plan_id":"cebpf4jnsgd1na2vs0mg"},{"bike_id":"5e9b0be5-81b7-41eb-9e43-3711c5852d6f","system_id":"levelo_inurba_marseille","lat":43.31709,"lon":5.43711,"is_reserved":false,"is_disabled":false,"rental_uris":{"android":"levelo://app?vid=5e9b0be5-81b7-41eb-9e43-3711c5852d6f","ios":"levelo://app?vid=5e9b0be5-81b7-41eb-9e43-3711c5852d6f"},"vehicle_type_id":"4","last_reported":1751404182,"current_range_meters":8400,"station_id":"ce4bhp92rcd13ifvqhcg","pricing_plan_id":"cebpf4jnsgd1na2vs0mg"},{"bike_id":"58e8b1e0-da6c-4e3d-a9b0-d1e850a6b512","system_id":"levelo_inurba_marseille","lat":43.32359,"lon":5.38889,"is_reserved":false,"is_disabled":false,"rental_uris":{"android":"levelo://app?vid=58e8b1e0-da6c-4e3d-a9b0-d1e850a6b512","ios":"levelo://app?vid=58e8b1e0-da6c-4e3d-a9b0-d1e850a6b512"},"vehicle_type_id":"4","last_reported":1751404182,"current_range_meters":8400,"station_id":"ce4bhqp2rcd13ifvqhog","pricing_plan_id":"cebpf4jnsgd1na2vs0mg"},{"bike_id":"da077c3c-9fd7-4958-a42e-811bdb56f07b","system_id":"levelo_inurba_marseille","lat":43.30781,"lon":5.37643,"is_reserved":false,"is_disabled":false,"rental_uris":{"android":"levelo://app?vid=da077c3c-9fd7-4958-a42e-811bdb56f07b","ios":"levelo://app?vid=da077c3c-9fd7-4958-a42e-811bdb56f07b"},"vehicle_type_id":"4","last_reported":1751404182,"current_range_meters":8800,"station_id":"ce4bgv92rcd13ifvqcq0","pricing_plan_id":"cebpf4jnsgd1na2vs0mg"},{"bike_id":"5f6a64b4-4aa7-434b-9ae4-3eac212d6e3d","system_id":"levelo_inurba_marseille","lat":43.27838,"lon":5.39208,"is_reserved":false,"is_disabled":false,"rental_uris":{"android":"levelo://app?vid=5f6a64b4-4aa7-434b-9ae4-3eac212d6e3d","ios":"levelo://app?vid=5f6a64b4-4aa7-434b-9ae4-3eac212d6e3d"},"vehicle_type_id":"4","last_reported":1751404182,"current_range_meters":8800,"station_id":"ce4bhjp2rcd13ifvqga0","pricing_plan_id":"cebpf4jnsgd1na2vs0mg"},{"bike_id":"1aef026b-d489-4aa5-bf7e-89f611aac7b7","system_id":"levelo_inurba_marseille","lat":43.28434,"lon":5.392,"is_reserved":false,"is_disabled":false,"rental_uris":{"android":"levelo://app?vid=1aef026b-d489-4aa5-bf7e-89f611aac7b7","ios":"levelo://app?vid=1aef026b-d489-4aa5-bf7e-89f611aac7b7"},"vehicle_type_id":"4","last_reported":1751404182,"current_range_meters":8800,"station_id":"ce4bhoh2rcd13ifvqh5g","pricing_plan_id":"cebpf4jnsgd1na2vs0mg"},{"bike_id":"83015633-1b29-4bf9-9024-4fe2ee97954a","system_id":"levelo_inurba_marseille","lat":43.32357,"lon":5.38885,"is_reserved":false,"is_disabled":false,"rental_uris":{"android":"levelo://app?vid=83015633-1b29-4bf9-9024-4fe2ee97954a","ios":"levelo://app?vid=83015633-1b29-4bf9-9024-4fe2ee97954a"},"vehicle_type_id":"4","last_reported":1751404182,"current_range_meters":8800,"station_id":"ce4bhqp2rcd13ifvqhog","pricing_plan_id":"cebpf4jnsgd1na2vs0mg"},{"bike_id":"306eb33e-8f50-4c2b-8c1d-e3c1d1d6a295","system_id":"levelo_inurba_marseille","lat":43.31541,"lon":5.38037,"is_reserved":false,"is_disabled":false,"rental_uris":{"android":"levelo://app?vid=306eb33e-8f50-4c2b-8c1d-e3c1d1d6a295","ios":"levelo://app?vid=306eb33e-8f50-4c2b-8c1d-e3c1d1d6a295"},"vehicle_type_id":"4","last_reported":1751404182,"current_range_meters":9200,"station_id":"ce4bhsp2rcd13ifvqi50","pricing_plan_id":"cebpf4jnsgd1na2vs0mg"},{"bike_id":"28477ccc-cb48-44f2-8ac3-dc21d395da4f","system_id":"levelo_inurba_marseille","lat":43.22734,"lon":5.36568,"is_reserved":false,"is_disabled":false,"rental_uris":{"android":"levelo://app?vid=28477ccc-cb48-44f2-8ac3-dc21d395da4f","ios":"levelo://app?vid=28477ccc-cb48-44f2-8ac3-dc21d395da4f"},"vehicle_type_id":"4","last_reported":1751404182,"current_range_meters":9600,"station_id":"","pricing_plan_id":"cebpf4jnsgd1na2vs0mg"},{"bike_id":"eda38e49-c14b-432c-b1da-cd7489f23eb8","system_id":"levelo_inurba_marseille","lat":43.31115,"lon":5.37766,"is_reserved":false,"is_disabled":false,"rental_uris":{"android":"levelo://app?vid=eda38e49-c14b-432c-b1da-cd7489f23eb8","ios":"levelo://app?vid=eda38e49-c14b-432c-b1da-cd7489f23eb8"},"vehicle_type_id":"4","last_reported":1751404182,"current_range_meters":9600,"station_id":"ce4bgt92rcd13ifvqcg0","pricing_plan_id":"cebpf4jnsgd1na2vs0mg"},{"bike_id":"fd658628-a052-4578-ab3d-afa4e524d5dd","system_id":"levelo_inurba_marseille","lat":43.31071,"lon":5.38352,"is_reserved":false,"is_disabled":false,"rental_uris":{"android":"levelo://app?vid=fd658628-a052-4578-ab3d-afa4e524d5dd","ios":"levelo://app?vid=fd658628-a052-4578-ab3d-afa4e524d5dd"},"vehicle_type_id":"4","last_reported":1751404182,"current_range_meters":9600,"station_id":"ce4bgv92rcd13ifvqcr0","pricing_plan_id":"cebpf4jnsgd1na2vs0mg"},{"bike_id":"c0d83e2b-ec48-4547-9efe-585cfde24f4a","system_id":"levelo_inurba_marseille","lat":43.31073,"lon":5.38356,"is_reserved":false,"is_disabled":false,"rental_uris":{"android":"levelo://app?vid=c0d83e2b-ec48-4547-9efe-585cfde24f4a","ios":"levelo://app?vid=c0d83e2b-ec48-4547-9efe-585cfde24f4a"},"vehicle_type_id":"4","last_reported":1751404182,"current_range_meters":9600,"station_id":"ce4bgv92rcd13ifvqcr0","pricing_plan_id":"cebpf4jnsgd1na2vs0mg"},{"bike_id":"b2ec7371-4e1a-4f7b-ae6c-60c5a54c237b","system_id":"levelo_inurba_marseille","lat":43.21184,"lon":5.35075,"is_reserved":false,"is_disabled":false,"rental_uris":{"android":"levelo://app?vid=b2ec7371-4e1a-4f7b-ae6c-60c5a54c237b","ios":"levelo://app?vid=b2ec7371-4e1a-4f7b-ae6c-60c5a54c237b"},"vehicle_type_id":"4","last_reported":1751404182,"current_range_meters":9600,"station_id":"st_cvj6sg6p6f1abm77japg","pricing_plan_id":"cebpf4jnsgd1na2vs0mg"},{"bike_id":"58b71408-f898-419b-889f-04fdbb4fb40c","system_id":"levelo_inurba_marseille","lat":43.30255,"lon":5.40077,"is_reserved":false,"is_disabled":false,"rental_uris":{"android":"levelo://app?vid=58b71408-f898-419b-889f-04fdbb4fb40c","ios":"levelo://app?vid=58b71408-f898-419b-889f-04fdbb4fb40c"},"vehicle_type_id":"4","last_reported":1751404182,"current_range_meters":10000,"station_id":"ce4bgvh2rcd13ifvqcs0","pricing_plan_id":"cebpf4jnsgd1na2vs0mg"},{"bike_id":"572efbd4-3040-4e29-aba0-53d59c23467f","system_id":"levelo_inurba_marseille","lat":43.30232,"lon":5.40049,"is_reserved":false,"is_disabled":false,"rental_uris":{"android":"levelo://app?vid=572efbd4-3040-4e29-aba0-53d59c23467f","ios":"levelo://app?vid=572efbd4-3040-4e29-aba0-53d59c23467f"},"vehicle_type_id":"4","last_reported":1751404182,"current_range_meters":10000,"station_id":"ce4bgvh2rcd13ifvqcs0","pricing_plan_id":"cebpf4jnsgd1na2vs0mg"},{"bike_id":"3edec0ad-709f-4d39-8b3b-d6a047306d41","system_id":"levelo_inurba_marseille","lat":43.29038,"lon":5.39966,"is_reserved":false,"is_disabled":false,"rental_uris":{"android":"levelo://app?vid=3edec0ad-709f-4d39-8b3b-d6a047306d41","ios":"levelo://app?vid=3edec0ad-709f-4d39-8b3b-d6a047306d41"},"vehicle_type_id":"4","last_reported":1751404182,"current_range_meters":10000,"station_id":"ce4bh392rcd13ifvqdm0","pricing_plan_id":"cebpf4jnsgd1na2vs0mg"},{"bike_id":"dbd93b23-f777-44a4-9639-a8020fd43ab4","system_id":"levelo_inurba_marseille","lat":43.28958,"lon":5.3964,"is_reserved":false,"is_disabled":false,"rental_uris":{"android":"levelo://app?vid=dbd93b23-f777-44a4-9639-a8020fd43ab4","ios":"levelo://app?vid=dbd93b23-f777-44a4-9639-a8020fd43ab4"},"vehicle_type_id":"4","last_reported":1751404182,"current_range_meters":10000,"station_id":"ce4bh3h2rcd13ifvqdn0","pricing_plan_id":"cebpf4jnsgd1na2vs0mg"},{"bike_id":"c87ddcfd-233c-47bc-9bcc-7964b504dd92","system_id":"levelo_inurba_marseille","lat":43.25723,"lon":5.41112,"is_reserved":false,"is_disabled":false,"rental_uris":{"android":"levelo://app?vid=c87ddcfd-233c-47bc-9bcc-7964b504dd92","ios":"levelo://app?vid=c87ddcfd-233c-47bc-9bcc-7964b504dd92"},"vehicle_type_id":"4","last_reported":1751404182,"current_range_meters":10000,"station_id":"ce4bhkp2rcd13ifvqgd0","pricing_plan_id":"cebpf4jnsgd1na2vs0mg"},{"bike_id":"e6124f2e-6549-40f5-a858-28b95f0b7f11","system_id":"levelo_inurba_marseille","lat":43.25724,"lon":5.41104,"is_reserved":false,"is_disabled":false,"rental_uris":{"android":"levelo://app?vid=e6124f2e-6549-40f5-a858-28b95f0b7f11","ios":"levelo://app?vid=e6124f2e-6549-40f5-a858-28b95f0b7f11"},"vehicle_type_id":"4","last_reported":1751404182,"current_range_meters":10000,"station_id":"ce4bhkp2rcd13ifvqgd0","pricing_plan_id":"cebpf4jnsgd1na2vs0mg"},{"bike_id":"a022608b-431c-4556-b561-e973b3a849e7","system_id":"levelo_inurba_marseille","lat":43.25107,"lon":5.4033,"is_reserved":false,"is_disabled":false,"rental_uris":{"android":"levelo://app?vid=a022608b-431c-4556-b561-e973b3a849e7","ios":"levelo://app?vid=a022608b-431c-4556-b561-e973b3a849e7"},"vehicle_type_id":"4","last_reported":1751404182,"current_range_meters":10000,"station_id":"ce4bhlh2rcd13ifvqgig","pricing_plan_id":"cebpf4jnsgd1na2vs0mg"},{"bike_id":"d8ac9dc4-3aea-4a75-b80a-06ed716d8844","system_id":"levelo_inurba_marseille","lat":43.2987,"lon":5.39735,"is_reserved":false,"is_disabled":false,"rental_uris":{"android":"levelo://app?vid=d8ac9dc4-3aea-4a75-b80a-06ed716d8844","ios":"levelo://app?vid=d8ac9dc4-3aea-4a75-b80a-06ed716d8844"},"vehicle_type_id":"4","last_reported":1751404182,"current_range_meters":10800,"station_id":"ce4bh0h2rcd13ifvqd50","pricing_plan_id":"cebpf4jnsgd1na2vs0mg"},{"bike_id":"96b6b043-817e-45a0-a067-97c1bfcd6862","system_id":"levelo_inurba_marseille","lat":43.27492,"lon":5.42449,"is_reserved":false,"is_disabled":false,"rental_uris":{"android":"levelo://app?vid=96b6b043-817e-45a0-a067-97c1bfcd6862","ios":"levelo://app?vid=96b6b043-817e-45a0-a067-97c1bfcd6862"},"vehicle_type_id":"4","last_reported":1751404182,"current_range_meters":10800,"station_id":"ce4bhn92rcd13ifvqgrg","pricing_plan_id":"cebpf4jnsgd1na2vs0mg"},{"bike_id":"2726f14f-8d32-4e17-9b3e-62cc809675e1","system_id":"levelo_inurba_marseille","lat":43.321074,"lon":5.367719,"is_reserved":false,"is_disabled":false,"rental_uris":{"android":"levelo://app?vid=2726f14f-8d32-4e17-9b3e-62cc809675e1","ios":"levelo://app?vid=2726f14f-8d32-4e17-9b3e-62cc809675e1"},"vehicle_type_id":"4","last_reported":1751404182,"current_range_meters":10800,"station_id":"ce4bhrh2rcd13ifvqhug","pricing_plan_id":"cebpf4jnsgd1na2vs0mg"},{"bike_id":"b28aa0a0-791c-4a08-9a16-c7bf6ea0ed5a","system_id":"levelo_inurba_marseille","lat":43.22505,"lon":5.34779,"is_reserved":false,"is_disabled":false,"rental_uris":{"android":"levelo://app?vid=b28aa0a0-791c-4a08-9a16-c7bf6ea0ed5a","ios":"levelo://app?vid=b28aa0a0-791c-4a08-9a16-c7bf6ea0ed5a"},"vehicle_type_id":"4","last_reported":1751404182,"current_range_meters":10800,"station_id":"st_cvj5dfep6f1abm77gieg","pricing_plan_id":"cebpf4jnsgd1na2vs0mg"},{"bike_id":"8f10a9ab-b2d1-48a1-84c5-75424f1b18f7","system_id":"levelo_inurba_marseille","lat":43.21182,"lon":5.35072,"is_reserved":false,"is_disabled":false,"rental_uris":{"android":"levelo://app?vid=8f10a9ab-b2d1-48a1-84c5-75424f1b18f7","ios":"levelo://app?vid=8f10a9ab-b2d1-48a1-84c5-75424f1b18f7"},"vehicle_type_id":"4","last_reported":1751404182,"current_range_meters":10800,"station_id":"st_cvj6sg6p6f1abm77japg","pricing_plan_id":"cebpf4jnsgd1na2vs0mg"},{"bike_id":"6a711d0b-3349-4524-aed2-6be34f734af5","system_id":"levelo_inurba_marseille","lat":43.29911,"lon":5.38151,"is_reserved":false,"is_disabled":false,"rental_uris":{"android":"levelo://app?vid=6a711d0b-3349-4524-aed2-6be34f734af5","ios":"levelo://app?vid=6a711d0b-3349-4524-aed2-6be34f734af5"},"vehicle_type_id":"4","last_reported":1751404182,"current_range_meters":11200,"station_id":"ce4bgj12rcd13ifvqbc0","pricing_plan_id":"cebpf4jnsgd1na2vs0mg"},{"bike_id":"c2b72fe0-bae6-4c7b-ad48-9e771b203dc8","system_id":"levelo_inurba_marseille","lat":43.31325,"lon":5.38517,"is_reserved":false,"is_disabled":false,"rental_uris":{"android":"levelo://app?vid=c2b72fe0-bae6-4c7b-ad48-9e771b203dc8","ios":"levelo://app?vid=c2b72fe0-bae6-4c7b-ad48-9e771b203dc8"},"vehicle_type_id":"4","last_reported":1751404182,"current_range_meters":11200,"station_id":"ce4bgt92rcd13ifvqcf0","pricing_plan_id":"cebpf4jnsgd1na2vs0mg"},{"bike_id":"d473a61d-2236-4606-b280-9b4db20ca78b","system_id":"levelo_inurba_marseille","lat":43.30276,"lon":5.37708,"is_reserved":false,"is_disabled":false,"rental_uris":{"android":"levelo://app?vid=d473a61d-2236-4606-b280-9b4db20ca78b","ios":"levelo://app?vid=d473a61d-2236-4606-b280-9b4db20ca78b"},"vehicle_type_id":"4","last_reported":1751404182,"current_range_meters":11200,"station_id":"ce4bguh2rcd13ifvqcj0","pricing_plan_id":"cebpf4jnsgd1na2vs0mg"},{"bike_id":"974fbe3d-8c91-465e-8b62-f2388a60ae3c","system_id":"levelo_inurba_marseille","lat":43.284,"lon":5.37523,"is_reserved":false,"is_disabled":false,"rental_uris":{"android":"levelo://app?vid=974fbe3d-8c91-465e-8b62-f2388a60ae3c","ios":"levelo://app?vid=974fbe3d-8c91-465e-8b62-f2388a60ae3c"},"vehicle_type_id":"4","last_reported":1751404182,"current_range_meters":11200,"station_id":"ce4bh412rcd13ifvqds0","pricing_plan_id":"cebpf4jnsgd1na2vs0mg"},{"bike_id":"bc13c791-2ea6-4c66-877b-696e0b8a23a5","system_id":"levelo_inurba_marseille","lat":43.29267,"lon":5.3845,"is_reserved":false,"is_disabled":false,"rental_uris":{"android":"levelo://app?vid=bc13c791-2ea6-4c66-877b-696e0b8a23a5","ios":"levelo://app?vid=bc13c791-2ea6-4c66-877b-696e0b8a23a5"},"vehicle_type_id":"4","last_reported":1751404182,"current_range_meters":11200,"station_id":"ce4bh692rcd13ifvqea0","pricing_plan_id":"cebpf4jnsgd1na2vs0mg"},{"bike_id":"d2d55e75-a889-4bd6-8a57-8c335d9c06f2","system_id":"levelo_inurba_marseille","lat":43.29262,"lon":5.38451,"is_reserved":false,"is_disabled":false,"rental_uris":{"android":"levelo://app?vid=d2d55e75-a889-4bd6-8a57-8c335d9c06f2","ios":"levelo://app?vid=d2d55e75-a889-4bd6-8a57-8c335d9c06f2"},"vehicle_type_id":"4","last_reported":1751404182,"current_range_meters":11200,"station_id":"ce4bh692rcd13ifvqea0","pricing_plan_id":"cebpf4jnsgd1na2vs0mg"},{"bike_id":"a6421fcf-2207-47cf-9e3e-818c0e3f51fe","system_id":"levelo_inurba_marseille","lat":43.28103,"lon":5.37835,"is_reserved":false,"is_disabled":false,"rental_uris":{"android":"levelo://app?vid=a6421fcf-2207-47cf-9e3e-818c0e3f51fe","ios":"levelo://app?vid=a6421fcf-2207-47cf-9e3e-818c0e3f51fe"},"vehicle_type_id":"4","last_reported":1751404182,"current_range_meters":11200,"station_id":"ce4bha12rcd13ifvqee0","pricing_plan_id":"cebpf4jnsgd1na2vs0mg"},{"bike_id":"3f0d1be3-df8c-406a-874a-8ed33449ff76","system_id":"levelo_inurba_marseille","lat":43.304993,"lon":5.372912,"is_reserved":false,"is_disabled":false,"rental_uris":{"android":"levelo://app?vid=3f0d1be3-df8c-406a-874a-8ed33449ff76","ios":"levelo://app?vid=3f0d1be3-df8c-406a-874a-8ed33449ff76"},"vehicle_type_id":"4","last_reported":1751404182,"current_range_meters":11600,"station_id":"","pricing_plan_id":"cebpf4jnsgd1na2vs0mg"},{"bike_id":"81d32f79-d191-4049-a32b-6a78344f4fd3","system_id":"levelo_inurba_marseille","lat":43.31271,"lon":5.40174,"is_reserved":false,"is_disabled":false,"rental_uris":{"android":"levelo://app?vid=81d32f79-d191-4049-a32b-6a78344f4fd3","ios":"levelo://app?vid=81d32f79-d191-4049-a32b-6a78344f4fd3"},"vehicle_type_id":"4","last_reported":1751404182,"current_range_meters":11600,"station_id":"ce4bh092rcd13ifvqd30","pricing_plan_id":"cebpf4jnsgd1na2vs0mg"},{"bike_id":"9100c131-294f-4378-9b77-c233ecbccf9d","system_id":"levelo_inurba_marseille","lat":43.29041,"lon":5.39943,"is_reserved":false,"is_disabled":false,"rental_uris":{"android":"levelo://app?vid=9100c131-294f-4378-9b77-c233ecbccf9d","ios":"levelo://app?vid=9100c131-294f-4378-9b77-c233ecbccf9d"},"vehicle_type_id":"4","last_reported":1751404182,"current_range_meters":11600,"station_id":"ce4bh392rcd13ifvqdm0","pricing_plan_id":"cebpf4jnsgd1na2vs0mg"},{"bike_id":"b5cb9e61-dd08-4033-bb12-a914e3a6f65e","system_id":"levelo_inurba_marseille","lat":43.27942,"lon":5.41034,"is_reserved":false,"is_disabled":false,"rental_uris":{"android":"levelo://app?vid=b5cb9e61-dd08-4033-bb12-a914e3a6f65e","ios":"levelo://app?vid=b5cb9e61-dd08-4033-bb12-a914e3a6f65e"},"vehicle_type_id":"4","last_reported":1751404182,"current_range_meters":11600,"station_id":"ce4bhnp2rcd13ifvqh0g","pricing_plan_id":"cebpf4jnsgd1na2vs0mg"},{"bike_id":"34ef8d19-abd3-418b-af23-9942dadb071a","system_id":"levelo_inurba_marseille","lat":43.21158,"lon":5.35096,"is_reserved":false,"is_disabled":false,"rental_uris":{"android":"levelo://app?vid=34ef8d19-abd3-418b-af23-9942dadb071a","ios":"levelo://app?vid=34ef8d19-abd3-418b-af23-9942dadb071a"},"vehicle_type_id":"4","last_reported":1751404182,"current_range_meters":11600,"station_id":"st_cvj6sg6p6f1abm77japg","pricing_plan_id":"cebpf4jnsgd1na2vs0mg"},{"bike_id":"3d64f2b6-68f4-4b5e-b336-121bc5116e11","system_id":"levelo_inurba_marseille","lat":43.30929,"lon":5.4015,"is_reserved":false,"is_disabled":false,"rental_uris":{"android":"levelo://app?vid=3d64f2b6-68f4-4b5e-b336-121bc5116e11","ios":"levelo://app?vid=3d64f2b6-68f4-4b5e-b336-121bc5116e11"},"vehicle_type_id":"4","last_reported":1751404182,"current_range_meters":12000,"station_id":"ce4bgvp2rcd13ifvqct0","pricing_plan_id":"cebpf4jnsgd1na2vs0mg"},{"bike_id":"b46ed3a4-667d-4356-9ad2-8038ada04b28","system_id":"levelo_inurba_marseille","lat":43.29259,"lon":5.38439,"is_reserved":false,"is_disabled":false,"rental_uris":{"android":"levelo://app?vid=b46ed3a4-667d-4356-9ad2-8038ada04b28","ios":"levelo://app?vid=b46ed3a4-667d-4356-9ad2-8038ada04b28"},"vehicle_type_id":"4","last_reported":1751404182,"current_range_meters":12000,"station_id":"ce4bh692rcd13ifvqea0","pricing_plan_id":"cebpf4jnsgd1na2vs0mg"},{"bike_id":"56d3de08-12a7-4dea-a817-9cf3afdd62f6","system_id":"levelo_inurba_marseille","lat":43.25509,"lon":5.37622,"is_reserved":false,"is_disabled":false,"rental_uris":{"android":"levelo://app?vid=56d3de08-12a7-4dea-a817-9cf3afdd62f6","ios":"levelo://app?vid=56d3de08-12a7-4dea-a817-9cf3afdd62f6"},"vehicle_type_id":"4","last_reported":1751404182,"current_range_meters":12000,"station_id":"ce4bhh12rcd13ifvqff0","pricing_plan_id":"cebpf4jnsgd1na2vs0mg"},{"bike_id":"8686853f-4c76-42d4-853a-8b0762870909","system_id":"levelo_inurba_marseille","lat":43.28672,"lon":5.39986,"is_reserved":false,"is_disabled":false,"rental_uris":{"android":"levelo://app?vid=8686853f-4c76-42d4-853a-8b0762870909","ios":"levelo://app?vid=8686853f-4c76-42d4-853a-8b0762870909"},"vehicle_type_id":"4","last_reported":1751404182,"current_range_meters":12000,"station_id":"ce4bho92rcd13ifvqh3g","pricing_plan_id":"cebpf4jnsgd1na2vs0mg"},{"bike_id":"c0228700-5312-4a39-89af-ec53a5d729c5","system_id":"levelo_inurba_marseille","lat":43.28311,"lon":5.43216,"is_reserved":false,"is_disabled":false,"rental_uris":{"android":"levelo://app?vid=c0228700-5312-4a39-89af-ec53a5d729c5","ios":"levelo://app?vid=c0228700-5312-4a39-89af-ec53a5d729c5"},"vehicle_type_id":"4","last_reported":1751404182,"current_range_meters":12400,"station_id":"","pricing_plan_id":"cebpf4jnsgd1na2vs0mg"},{"bike_id":"69a69162-3a59-4e0e-887c-1000646cf77b","system_id":"levelo_inurba_marseille","lat":43.2846,"lon":5.35893,"is_reserved":false,"is_disabled":false,"rental_uris":{"android":"levelo://app?vid=69a69162-3a59-4e0e-887c-1000646cf77b","ios":"levelo://app?vid=69a69162-3a59-4e0e-887c-1000646cf77b"},"vehicle_type_id":"4","last_reported":1751404182,"current_range_meters":12400,"station_id":"ce4bhah2rcd13ifvqei0","pricing_plan_id":"cebpf4jnsgd1na2vs0mg"},{"bike_id":"a0ffdf28-d659-45dc-b870-b2d591eeef83","system_id":"levelo_inurba_marseille","lat":43.2572,"lon":5.4112,"is_reserved":false,"is_disabled":false,"rental_uris":{"android":"levelo://app?vid=a0ffdf28-d659-45dc-b870-b2d591eeef83","ios":"levelo://app?vid=a0ffdf28-d659-45dc-b870-b2d591eeef83"},"vehicle_type_id":"4","last_reported":1751404182,"current_range_meters":12400,"station_id":"ce4bhkp2rcd13ifvqgd0","pricing_plan_id":"cebpf4jnsgd1na2vs0mg"},{"bike_id":"28c513f7-31ec-4258-b651-19113fb8c06e","system_id":"levelo_inurba_marseille","lat":43.25107,"lon":5.40323,"is_reserved":false,"is_disabled":false,"rental_uris":{"android":"levelo://app?vid=28c513f7-31ec-4258-b651-19113fb8c06e","ios":"levelo://app?vid=28c513f7-31ec-4258-b651-19113fb8c06e"},"vehicle_type_id":"4","last_reported":1751404182,"current_range_meters":12400,"station_id":"ce4bhlh2rcd13ifvqgig","pricing_plan_id":"cebpf4jnsgd1na2vs0mg"},{"bike_id":"bb5b67ec-f0ce-4c69-9def-b83c5bf1bcf7","system_id":"levelo_inurba_marseille","lat":43.27937,"lon":5.41052,"is_reserved":false,"is_disabled":false,"rental_uris":{"android":"levelo://app?vid=bb5b67ec-f0ce-4c69-9def-b83c5bf1bcf7","ios":"levelo://app?vid=bb5b67ec-f0ce-4c69-9def-b83c5bf1bcf7"},"vehicle_type_id":"4","last_reported":1751404182,"current_range_meters":12400,"station_id":"ce4bhnp2rcd13ifvqh0g","pricing_plan_id":"cebpf4jnsgd1na2vs0mg"},{"bike_id":"2d84ef55-01c4-461c-a14e-b9729d605433","system_id":"levelo_inurba_marseille","lat":43.31885,"lon":5.40742,"is_reserved":false,"is_disabled":false,"rental_uris":{"android":"levelo://app?vid=2d84ef55-01c4-461c-a14e-b9729d605433","ios":"levelo://app?vid=2d84ef55-01c4-461c-a14e-b9729d605433"},"vehicle_type_id":"4","last_reported":1751404182,"current_range_meters":12400,"station_id":"ce4bhq12rcd13ifvqhig","pricing_plan_id":"cebpf4jnsgd1na2vs0mg"},{"bike_id":"c61036a9-1a66-4480-8bd4-cd2fb585b287","system_id":"levelo_inurba_marseille","lat":43.269763,"lon":5.405471,"is_reserved":false,"is_disabled":false,"rental_uris":{"android":"levelo://app?vid=c61036a9-1a66-4480-8bd4-cd2fb585b287","ios":"levelo://app?vid=c61036a9-1a66-4480-8bd4-cd2fb585b287"},"vehicle_type_id":"4","last_reported":1751404182,"current_range_meters":12800,"station_id":"","pricing_plan_id":"cebpf4jnsgd1na2vs0mg"},{"bike_id":"2e98dc25-5dc5-45dd-9cad-94c98181c445","system_id":"levelo_inurba_marseille","lat":43.30252,"lon":5.40062,"is_reserved":false,"is_disabled":false,"rental_uris":{"android":"levelo://app?vid=2e98dc25-5dc5-45dd-9cad-94c98181c445","ios":"levelo://app?vid=2e98dc25-5dc5-45dd-9cad-94c98181c445"},"vehicle_type_id":"4","last_reported":1751404182,"current_range_meters":12800,"station_id":"ce4bgvh2rcd13ifvqcs0","pricing_plan_id":"cebpf4jnsgd1na2vs0mg"},{"bike_id":"2091657d-ce46-428e-8545-3d62e7c74486","system_id":"levelo_inurba_marseille","lat":43.29433,"lon":5.39754,"is_reserved":false,"is_disabled":false,"rental_uris":{"android":"levelo://app?vid=2091657d-ce46-428e-8545-3d62e7c74486","ios":"levelo://app?vid=2091657d-ce46-428e-8545-3d62e7c74486"},"vehicle_type_id":"4","last_reported":1751404182,"current_range_meters":12800,"station_id":"ce4bh3h2rcd13ifvqdo0","pricing_plan_id":"cebpf4jnsgd1na2vs0mg"},{"bike_id":"837a3c1f-a8f9-4622-8091-1be58dfc5d2f","system_id":"levelo_inurba_marseille","lat":43.25834,"lon":5.39418,"is_reserved":false,"is_disabled":false,"rental_uris":{"android":"levelo://app?vid=837a3c1f-a8f9-4622-8091-1be58dfc5d2f","ios":"levelo://app?vid=837a3c1f-a8f9-4622-8091-1be58dfc5d2f"},"vehicle_type_id":"4","last_reported":1751404182,"current_range_meters":12800,"station_id":"ce4bhip2rcd13ifvqft0","pricing_plan_id":"cebpf4jnsgd1na2vs0mg"},{"bike_id":"9bbbb3ff-ab23-4bb5-ab4c-2d21cbed926e","system_id":"levelo_inurba_marseille","lat":43.29714,"lon":5.36615,"is_reserved":false,"is_disabled":false,"rental_uris":{"android":"levelo://app?vid=9bbbb3ff-ab23-4bb5-ab4c-2d21cbed926e","ios":"levelo://app?vid=9bbbb3ff-ab23-4bb5-ab4c-2d21cbed926e"},"vehicle_type_id":"4","last_reported":1751404182,"current_range_meters":13600,"station_id":"ce4bgn12rcd13ifvqbt0","pricing_plan_id":"cebpf4jnsgd1na2vs0mg"},{"bike_id":"08f72eef-76a0-46bf-af97-b2df83bc160f","system_id":"levelo_inurba_marseille","lat":43.250628,"lon":5.388232,"is_reserved":false,"is_disabled":false,"rental_uris":{"android":"levelo://app?vid=08f72eef-76a0-46bf-af97-b2df83bc160f","ios":"levelo://app?vid=08f72eef-76a0-46bf-af97-b2df83bc160f"},"vehicle_type_id":"4","last_reported":1751404182,"current_range_meters":13600,"station_id":"ce4bhgp2rcd13ifvqfd0","pricing_plan_id":"cebpf4jnsgd1na2vs0mg"},{"bike_id":"53c8e5da-f5e3-4b38-adc1-6a8af76880b0","system_id":"levelo_inurba_marseille","lat":43.25109,"lon":5.4032,"is_reserved":false,"is_disabled":false,"rental_uris":{"android":"levelo://app?vid=53c8e5da-f5e3-4b38-adc1-6a8af76880b0","ios":"levelo://app?vid=53c8e5da-f5e3-4b38-adc1-6a8af76880b0"},"vehicle_type_id":"4","last_reported":1751404182,"current_range_meters":13600,"station_id":"ce4bhlh2rcd13ifvqgig","pricing_plan_id":"cebpf4jnsgd1na2vs0mg"},{"bike_id":"bbe4ccb3-7aa4-4da0-9051-c7c2900e028d","system_id":"levelo_inurba_marseille","lat":43.31535,"lon":5.38028,"is_reserved":false,"is_disabled":false,"rental_uris":{"android":"levelo://app?vid=bbe4ccb3-7aa4-4da0-9051-c7c2900e028d","ios":"levelo://app?vid=bbe4ccb3-7aa4-4da0-9051-c7c2900e028d"},"vehicle_type_id":"4","last_reported":1751404182,"current_range_meters":13600,"station_id":"ce4bhsp2rcd13ifvqi50","pricing_plan_id":"cebpf4jnsgd1na2vs0mg"},{"bike_id":"86fa6ce7-8cbe-47ff-b5d3-c2b4938fd05c","system_id":"levelo_inurba_marseille","lat":43.21221,"lon":5.35041,"is_reserved":false,"is_disabled":false,"rental_uris":{"android":"levelo://app?vid=86fa6ce7-8cbe-47ff-b5d3-c2b4938fd05c","ios":"levelo://app?vid=86fa6ce7-8cbe-47ff-b5d3-c2b4938fd05c"},"vehicle_type_id":"4","last_reported":1751404182,"current_range_meters":14000,"station_id":"","pricing_plan_id":"cebpf4jnsgd1na2vs0mg"},{"bike_id":"14a8345c-1a0a-4f1d-bc10-2f4e01109d1c","system_id":"levelo_inurba_marseille","lat":43.30642,"lon":5.40103,"is_reserved":false,"is_disabled":false,"rental_uris":{"android":"levelo://app?vid=14a8345c-1a0a-4f1d-bc10-2f4e01109d1c","ios":"levelo://app?vid=14a8345c-1a0a-4f1d-bc10-2f4e01109d1c"},"vehicle_type_id":"4","last_reported":1751404182,"current_range_meters":14000,"station_id":"ce4bh112rcd13ifvqda0","pricing_plan_id":"cebpf4jnsgd1na2vs0mg"},{"bike_id":"26bbf697-59e6-488a-8c6d-3643a1ecb4bb","system_id":"levelo_inurba_marseille","lat":43.27905,"lon":5.38014,"is_reserved":false,"is_disabled":false,"rental_uris":{"android":"levelo://app?vid=26bbf697-59e6-488a-8c6d-3643a1ecb4bb","ios":"levelo://app?vid=26bbf697-59e6-488a-8c6d-3643a1ecb4bb"},"vehicle_type_id":"4","last_reported":1751404182,"current_range_meters":14000,"station_id":"ce4bhf92rcd13ifvqf50","pricing_plan_id":"cebpf4jnsgd1na2vs0mg"},{"bike_id":"a8403a11-7708-4518-9856-372a31d0dbd6","system_id":"levelo_inurba_marseille","lat":43.28695,"lon":5.39982,"is_reserved":false,"is_disabled":false,"rental_uris":{"android":"levelo://app?vid=a8403a11-7708-4518-9856-372a31d0dbd6","ios":"levelo://app?vid=a8403a11-7708-4518-9856-372a31d0dbd6"},"vehicle_type_id":"4","last_reported":1751404182,"current_range_meters":14000,"station_id":"ce4bho92rcd13ifvqh3g","pricing_plan_id":"cebpf4jnsgd1na2vs0mg"},{"bike_id":"6335e18e-9829-4571-82f7-23b6ce10fe5e","system_id":"levelo_inurba_marseille","lat":43.24159,"lon":5.36396,"is_reserved":false,"is_disabled":false,"rental_uris":{"android":"levelo://app?vid=6335e18e-9829-4571-82f7-23b6ce10fe5e","ios":"levelo://app?vid=6335e18e-9829-4571-82f7-23b6ce10fe5e"},"vehicle_type_id":"4","last_reported":1751404182,"current_range_meters":14000,"station_id":"cpo36qri1sfpv3e86is0","pricing_plan_id":"cebpf4jnsgd1na2vs0mg"},{"bike_id":"41f9c994-87b5-4dcf-b4e1-6c1d1aca6419","system_id":"levelo_inurba_marseille","lat":43.302709,"lon":5.390049,"is_reserved":false,"is_disabled":false,"rental_uris":{"android":"levelo://app?vid=41f9c994-87b5-4dcf-b4e1-6c1d1aca6419","ios":"levelo://app?vid=41f9c994-87b5-4dcf-b4e1-6c1d1aca6419"},"vehicle_type_id":"4","last_reported":1751404182,"current_range_meters":14400,"station_id":"ce4bgk12rcd13ifvqbi0","pricing_plan_id":"cebpf4jnsgd1na2vs0mg"},{"bike_id":"5bd496cd-d382-4458-bbf8-a2670d3478ed","system_id":"levelo_inurba_marseille","lat":43.29705,"lon":5.36609,"is_reserved":false,"is_disabled":false,"rental_uris":{"android":"levelo://app?vid=5bd496cd-d382-4458-bbf8-a2670d3478ed","ios":"levelo://app?vid=5bd496cd-d382-4458-bbf8-a2670d3478ed"},"vehicle_type_id":"4","last_reported":1751404182,"current_range_meters":14400,"station_id":"ce4bgn12rcd13ifvqbt0","pricing_plan_id":"cebpf4jnsgd1na2vs0mg"},{"bike_id":"7e918440-88b2-46bb-b33c-27dbfad1b4ca","system_id":"levelo_inurba_marseille","lat":43.28408,"lon":5.37515,"is_reserved":false,"is_disabled":false,"rental_uris":{"android":"levelo://app?vid=7e918440-88b2-46bb-b33c-27dbfad1b4ca","ios":"levelo://app?vid=7e918440-88b2-46bb-b33c-27dbfad1b4ca"},"vehicle_type_id":"4","last_reported":1751404182,"current_range_meters":14400,"station_id":"ce4bh412rcd13ifvqds0","pricing_plan_id":"cebpf4jnsgd1na2vs0mg"},{"bike_id":"b98bee34-1614-4e50-8142-da019bc78b5f","system_id":"levelo_inurba_marseille","lat":43.28482,"lon":5.38417,"is_reserved":false,"is_disabled":false,"rental_uris":{"android":"levelo://app?vid=b98bee34-1614-4e50-8142-da019bc78b5f","ios":"levelo://app?vid=b98bee34-1614-4e50-8142-da019bc78b5f"},"vehicle_type_id":"4","last_reported":1751404182,"current_range_meters":14400,"station_id":"ce4bh512rcd13ifvqe3g","pricing_plan_id":"cebpf4jnsgd1na2vs0mg"},{"bike_id":"041fe519-bfd1-4015-b729-770ed2c40c8c","system_id":"levelo_inurba_marseille","lat":43.28441,"lon":5.39207,"is_reserved":false,"is_disabled":false,"rental_uris":{"android":"levelo://app?vid=041fe519-bfd1-4015-b729-770ed2c40c8c","ios":"levelo://app?vid=041fe519-bfd1-4015-b729-770ed2c40c8c"},"vehicle_type_id":"4","last_reported":1751404182,"current_range_meters":14400,"station_id":"ce4bhoh2rcd13ifvqh5g","pricing_plan_id":"cebpf4jnsgd1na2vs0mg"},{"bike_id":"938580f6-2c67-4ba5-9473-0f360b68511c","system_id":"levelo_inurba_marseille","lat":43.30892,"lon":5.39658,"is_reserved":false,"is_disabled":false,"rental_uris":{"android":"levelo://app?vid=938580f6-2c67-4ba5-9473-0f360b68511c","ios":"levelo://app?vid=938580f6-2c67-4ba5-9473-0f360b68511c"},"vehicle_type_id":"4","last_reported":1751404182,"current_range_meters":14800,"station_id":"ce4bh012rcd13ifvqcv0","pricing_plan_id":"cebpf4jnsgd1na2vs0mg"},{"bike_id":"8517bff2-d754-47c1-9530-1d0d611131d2","system_id":"levelo_inurba_marseille","lat":43.3009,"lon":5.39074,"is_reserved":false,"is_disabled":false,"rental_uris":{"android":"levelo://app?vid=8517bff2-d754-47c1-9530-1d0d611131d2","ios":"levelo://app?vid=8517bff2-d754-47c1-9530-1d0d611131d2"},"vehicle_type_id":"4","last_reported":1751404182,"current_range_meters":14800,"station_id":"ce4bh192rcd13ifvqdb0","pricing_plan_id":"cebpf4jnsgd1na2vs0mg"},{"bike_id":"0f568930-d4a8-4e13-b43d-9a6410fee462","system_id":"levelo_inurba_marseille","lat":43.28708,"lon":5.37371,"is_reserved":false,"is_disabled":false,"rental_uris":{"android":"levelo://app?vid=0f568930-d4a8-4e13-b43d-9a6410fee462","ios":"levelo://app?vid=0f568930-d4a8-4e13-b43d-9a6410fee462"},"vehicle_type_id":"4","last_reported":1751404182,"current_range_meters":14800,"station_id":"ce4bh3p2rcd13ifvqdq0","pricing_plan_id":"cebpf4jnsgd1na2vs0mg"},{"bike_id":"5d118b4f-58ea-4de8-8aba-9280737a04c7","system_id":"levelo_inurba_marseille","lat":43.246672,"lon":5.381622,"is_reserved":false,"is_disabled":false,"rental_uris":{"android":"levelo://app?vid=5d118b4f-58ea-4de8-8aba-9280737a04c7","ios":"levelo://app?vid=5d118b4f-58ea-4de8-8aba-9280737a04c7"},"vehicle_type_id":"4","last_reported":1751404182,"current_range_meters":14800,"station_id":"ce4bhih2rcd13ifvqfr0","pricing_plan_id":"cebpf4jnsgd1na2vs0mg"},{"bike_id":"d38af30c-1d6a-42ea-aa5f-0f2c52db0ec4","system_id":"levelo_inurba_marseille","lat":43.27069,"lon":5.4228,"is_reserved":false,"is_disabled":false,"rental_uris":{"android":"levelo://app?vid=d38af30c-1d6a-42ea-aa5f-0f2c52db0ec4","ios":"levelo://app?vid=d38af30c-1d6a-42ea-aa5f-0f2c52db0ec4"},"vehicle_type_id":"4","last_reported":1751404182,"current_range_meters":14800,"station_id":"ce4bhk92rcd13ifvqgb0","pricing_plan_id":"cebpf4jnsgd1na2vs0mg"},{"bike_id":"e035ed4c-2f31-4629-8c24-dbd0031dc99e","system_id":"levelo_inurba_marseille","lat":43.27808,"lon":5.40719,"is_reserved":false,"is_disabled":false,"rental_uris":{"android":"levelo://app?vid=e035ed4c-2f31-4629-8c24-dbd0031dc99e","ios":"levelo://app?vid=e035ed4c-2f31-4629-8c24-dbd0031dc99e"},"vehicle_type_id":"4","last_reported":1751404182,"current_range_meters":14800,"station_id":"ce4bhnh2rcd13ifvqgtg","pricing_plan_id":"cebpf4jnsgd1na2vs0mg"},{"bike_id":"670352d3-ba5f-4bd2-a411-8499634517d3","system_id":"levelo_inurba_marseille","lat":43.32348,"lon":5.40617,"is_reserved":false,"is_disabled":false,"rental_uris":{"android":"levelo://app?vid=670352d3-ba5f-4bd2-a411-8499634517d3","ios":"levelo://app?vid=670352d3-ba5f-4bd2-a411-8499634517d3"},"vehicle_type_id":"4","last_reported":1751404182,"current_range_meters":14800,"station_id":"ce4bhq92rcd13ifvqhjg","pricing_plan_id":"cebpf4jnsgd1na2vs0mg"},{"bike_id":"3f70fc3e-3d9b-46ca-b5e4-c0da7c760ff7","system_id":"levelo_inurba_marseille","lat":43.2978,"lon":5.39338,"is_reserved":false,"is_disabled":false,"rental_uris":{"android":"levelo://app?vid=3f70fc3e-3d9b-46ca-b5e4-c0da7c760ff7","ios":"levelo://app?vid=3f70fc3e-3d9b-46ca-b5e4-c0da7c760ff7"},"vehicle_type_id":"4","last_reported":1751404182,"current_range_meters":14800,"station_id":"chh1huq6cuj3fo74tm60","pricing_plan_id":"cebpf4jnsgd1na2vs0mg"},{"bike_id":"5ea1dd93-3c49-4f8f-bb7f-00d3c982b0ae","system_id":"levelo_inurba_marseille","lat":43.229273,"lon":5.353773,"is_reserved":false,"is_disabled":false,"rental_uris":{"android":"levelo://app?vid=5ea1dd93-3c49-4f8f-bb7f-00d3c982b0ae","ios":"levelo://app?vid=5ea1dd93-3c49-4f8f-bb7f-00d3c982b0ae"},"vehicle_type_id":"4","last_reported":1751404182,"current_range_meters":14800,"station_id":"cpo3532slgdg3j2ikp40","pricing_plan_id":"cebpf4jnsgd1na2vs0mg"},{"bike_id":"539ed013-9e80-448a-999f-a7819f54786a","system_id":"levelo_inurba_marseille","lat":43.290309,"lon":5.375668,"is_reserved":false,"is_disabled":false,"rental_uris":{"android":"levelo://app?vid=539ed013-9e80-448a-999f-a7819f54786a","ios":"levelo://app?vid=539ed013-9e80-448a-999f-a7819f54786a"},"vehicle_type_id":"4","last_reported":1751404182,"current_range_meters":15200,"station_id":"","pricing_plan_id":"cebpf4jnsgd1na2vs0mg"},{"bike_id":"29004bc0-2d69-4d3b-907e-1bd27c27cccd","system_id":"levelo_inurba_marseille","lat":43.29499,"lon":5.39039,"is_reserved":false,"is_disabled":false,"rental_uris":{"android":"levelo://app?vid=29004bc0-2d69-4d3b-907e-1bd27c27cccd","ios":"levelo://app?vid=29004bc0-2d69-4d3b-907e-1bd27c27cccd"},"vehicle_type_id":"4","last_reported":1751404182,"current_range_meters":15200,"station_id":"ce4bh3p2rcd13ifvqdp0","pricing_plan_id":"cebpf4jnsgd1na2vs0mg"},{"bike_id":"fb483259-f8d8-4817-a5a1-ce63ef37a957","system_id":"levelo_inurba_marseille","lat":43.29028,"lon":5.38132,"is_reserved":false,"is_disabled":false,"rental_uris":{"android":"levelo://app?vid=fb483259-f8d8-4817-a5a1-ce63ef37a957","ios":"levelo://app?vid=fb483259-f8d8-4817-a5a1-ce63ef37a957"},"vehicle_type_id":"4","last_reported":1751404182,"current_range_meters":15200,"station_id":"ce4bh4p2rcd13ifvqe1g","pricing_plan_id":"cebpf4jnsgd1na2vs0mg"},{"bike_id":"d228a2de-fb4c-4320-b05c-05b5cb386beb","system_id":"levelo_inurba_marseille","lat":43.29264,"lon":5.38436,"is_reserved":false,"is_disabled":false,"rental_uris":{"android":"levelo://app?vid=d228a2de-fb4c-4320-b05c-05b5cb386beb","ios":"levelo://app?vid=d228a2de-fb4c-4320-b05c-05b5cb386beb"},"vehicle_type_id":"4","last_reported":1751404182,"current_range_meters":15200,"station_id":"ce4bh692rcd13ifvqea0","pricing_plan_id":"cebpf4jnsgd1na2vs0mg"},{"bike_id":"7abd57d7-8a11-4444-9378-033bab972da5","system_id":"levelo_inurba_marseille","lat":43.26208,"lon":5.3744,"is_reserved":false,"is_disabled":false,"rental_uris":{"android":"levelo://app?vid=7abd57d7-8a11-4444-9378-033bab972da5","ios":"levelo://app?vid=7abd57d7-8a11-4444-9378-033bab972da5"},"vehicle_type_id":"4","last_reported":1751404182,"current_range_meters":15200,"station_id":"ce4bhgp2rcd13ifvqfc0","pricing_plan_id":"cebpf4jnsgd1na2vs0mg"},{"bike_id":"a0cef316-ad95-4855-8f78-a31341a2b90e","system_id":"levelo_inurba_marseille","lat":43.31279,"lon":5.37823,"is_reserved":false,"is_disabled":false,"rental_uris":{"android":"levelo://app?vid=a0cef316-ad95-4855-8f78-a31341a2b90e","ios":"levelo://app?vid=a0cef316-ad95-4855-8f78-a31341a2b90e"},"vehicle_type_id":"4","last_reported":1751404182,"current_range_meters":16000,"station_id":"","pricing_plan_id":"cebpf4jnsgd1na2vs0mg"},{"bike_id":"f1b6bdd0-6e44-43a0-a0d1-4c967470767c","system_id":"levelo_inurba_marseille","lat":43.27609,"lon":5.36101,"is_reserved":false,"is_disabled":false,"rental_uris":{"android":"levelo://app?vid=f1b6bdd0-6e44-43a0-a0d1-4c967470767c","ios":"levelo://app?vid=f1b6bdd0-6e44-43a0-a0d1-4c967470767c"},"vehicle_type_id":"4","last_reported":1751404182,"current_range_meters":16000,"station_id":"ce4bgj92rcd13ifvqbe0","pricing_plan_id":"cebpf4jnsgd1na2vs0mg"},{"bike_id":"12c8f0e5-0eb8-4779-b094-556c6faf06b5","system_id":"levelo_inurba_marseille","lat":43.31061,"lon":5.38356,"is_reserved":false,"is_disabled":false,"rental_uris":{"android":"levelo://app?vid=12c8f0e5-0eb8-4779-b094-556c6faf06b5","ios":"levelo://app?vid=12c8f0e5-0eb8-4779-b094-556c6faf06b5"},"vehicle_type_id":"4","last_reported":1751404182,"current_range_meters":16000,"station_id":"ce4bgv92rcd13ifvqcr0","pricing_plan_id":"cebpf4jnsgd1na2vs0mg"},{"bike_id":"3dd8d489-fe79-4223-a783-0d6d2754524b","system_id":"levelo_inurba_marseille","lat":43.2963,"lon":5.40597,"is_reserved":false,"is_disabled":false,"rental_uris":{"android":"levelo://app?vid=3dd8d489-fe79-4223-a783-0d6d2754524b","ios":"levelo://app?vid=3dd8d489-fe79-4223-a783-0d6d2754524b"},"vehicle_type_id":"4","last_reported":1751404182,"current_range_meters":16000,"station_id":"ce4bh0h2rcd13ifvqd60","pricing_plan_id":"cebpf4jnsgd1na2vs0mg"},{"bike_id":"061444bc-17d0-4335-96dc-bf4ae975cee8","system_id":"levelo_inurba_marseille","lat":43.28429,"lon":5.39196,"is_reserved":false,"is_disabled":false,"rental_uris":{"android":"levelo://app?vid=061444bc-17d0-4335-96dc-bf4ae975cee8","ios":"levelo://app?vid=061444bc-17d0-4335-96dc-bf4ae975cee8"},"vehicle_type_id":"4","last_reported":1751404182,"current_range_meters":16000,"station_id":"ce4bhoh2rcd13ifvqh5g","pricing_plan_id":"cebpf4jnsgd1na2vs0mg"},{"bike_id":"d4c73a67-6ae9-4da7-86b1-c540a417377a","system_id":"levelo_inurba_marseille","lat":43.323407,"lon":5.406163,"is_reserved":false,"is_disabled":false,"rental_uris":{"android":"levelo://app?vid=d4c73a67-6ae9-4da7-86b1-c540a417377a","ios":"levelo://app?vid=d4c73a67-6ae9-4da7-86b1-c540a417377a"},"vehicle_type_id":"4","last_reported":1751404182,"current_range_meters":16000,"station_id":"ce4bhq92rcd13ifvqhjg","pricing_plan_id":"cebpf4jnsgd1na2vs0mg"},{"bike_id":"0c1b4f74-5294-4b59-932d-b742ce647d9e","system_id":"levelo_inurba_marseille","lat":43.211879,"lon":5.350744,"is_reserved":false,"is_disabled":false,"rental_uris":{"android":"levelo://app?vid=0c1b4f74-5294-4b59-932d-b742ce647d9e","ios":"levelo://app?vid=0c1b4f74-5294-4b59-932d-b742ce647d9e"},"vehicle_type_id":"4","last_reported":1751404182,"current_range_meters":16000,"station_id":"st_cvj6sg6p6f1abm77japg","pricing_plan_id":"cebpf4jnsgd1na2vs0mg"},{"bike_id":"8a74f5cd-9efa-4362-bea7-a32db4dcc85c","system_id":"levelo_inurba_marseille","lat":43.211859,"lon":5.350694,"is_reserved":false,"is_disabled":false,"rental_uris":{"android":"levelo://app?vid=8a74f5cd-9efa-4362-bea7-a32db4dcc85c","ios":"levelo://app?vid=8a74f5cd-9efa-4362-bea7-a32db4dcc85c"},"vehicle_type_id":"4","last_reported":1751404182,"current_range_meters":16000,"station_id":"st_cvj6sg6p6f1abm77japg","pricing_plan_id":"cebpf4jnsgd1na2vs0mg"},{"bike_id":"8783beea-eabc-4c19-b6eb-37f31b538208","system_id":"levelo_inurba_marseille","lat":43.33017,"lon":5.39446,"is_reserved":false,"is_disabled":false,"rental_uris":{"android":"levelo://app?vid=8783beea-eabc-4c19-b6eb-37f31b538208","ios":"levelo://app?vid=8783beea-eabc-4c19-b6eb-37f31b538208"},"vehicle_type_id":"4","last_reported":1751404182,"current_range_meters":16400,"station_id":"","pricing_plan_id":"cebpf4jnsgd1na2vs0mg"},{"bike_id":"60aed5b4-04a7-4930-a9c4-5540cdbcfb8b","system_id":"levelo_inurba_marseille","lat":43.3377,"lon":5.37449,"is_reserved":false,"is_disabled":false,"rental_uris":{"android":"levelo://app?vid=60aed5b4-04a7-4930-a9c4-5540cdbcfb8b","ios":"levelo://app?vid=60aed5b4-04a7-4930-a9c4-5540cdbcfb8b"},"vehicle_type_id":"4","last_reported":1751404182,"current_range_meters":16400,"station_id":"","pricing_plan_id":"cebpf4jnsgd1na2vs0mg"},{"bike_id":"c3aed83c-f975-45a0-a4bc-f5c4e0bbb76a","system_id":"levelo_inurba_marseille","lat":43.309544,"lon":5.390311,"is_reserved":false,"is_disabled":false,"rental_uris":{"android":"levelo://app?vid=c3aed83c-f975-45a0-a4bc-f5c4e0bbb76a","ios":"levelo://app?vid=c3aed83c-f975-45a0-a4bc-f5c4e0bbb76a"},"vehicle_type_id":"4","last_reported":1751404182,"current_range_meters":16400,"station_id":"ce4bgup2rcd13ifvqco0","pricing_plan_id":"cebpf4jnsgd1na2vs0mg"},{"bike_id":"8b44a078-25b6-4fc7-a0ee-3b325d289415","system_id":"levelo_inurba_marseille","lat":43.30931,"lon":5.40146,"is_reserved":false,"is_disabled":false,"rental_uris":{"android":"levelo://app?vid=8b44a078-25b6-4fc7-a0ee-3b325d289415","ios":"levelo://app?vid=8b44a078-25b6-4fc7-a0ee-3b325d289415"},"vehicle_type_id":"4","last_reported":1751404182,"current_range_meters":16400,"station_id":"ce4bgvp2rcd13ifvqct0","pricing_plan_id":"cebpf4jnsgd1na2vs0mg"},{"bike_id":"b8c91516-b548-4a73-9681-e305426bcf4d","system_id":"levelo_inurba_marseille","lat":43.29415,"lon":5.38597,"is_reserved":false,"is_disabled":false,"rental_uris":{"android":"levelo://app?vid=b8c91516-b548-4a73-9681-e305426bcf4d","ios":"levelo://app?vid=b8c91516-b548-4a73-9681-e305426bcf4d"},"vehicle_type_id":"4","last_reported":1751404182,"current_range_meters":16400,"station_id":"ce4bh2h2rcd13ifvqdh0","pricing_plan_id":"cebpf4jnsgd1na2vs0mg"},{"bike_id":"16fe4b8f-aa54-4e34-9437-7dd47aac9baf","system_id":"levelo_inurba_marseille","lat":43.29066,"lon":5.39946,"is_reserved":false,"is_disabled":false,"rental_uris":{"android":"levelo://app?vid=16fe4b8f-aa54-4e34-9437-7dd47aac9baf","ios":"levelo://app?vid=16fe4b8f-aa54-4e34-9437-7dd47aac9baf"},"vehicle_type_id":"4","last_reported":1751404182,"current_range_meters":16400,"station_id":"ce4bh392rcd13ifvqdm0","pricing_plan_id":"cebpf4jnsgd1na2vs0mg"},{"bike_id":"00d4b252-59fb-4a29-ae45-f25f818e6498","system_id":"levelo_inurba_marseille","lat":43.2901,"lon":5.38138,"is_reserved":false,"is_disabled":false,"rental_uris":{"android":"levelo://app?vid=00d4b252-59fb-4a29-ae45-f25f818e6498","ios":"levelo://app?vid=00d4b252-59fb-4a29-ae45-f25f818e6498"},"vehicle_type_id":"4","last_reported":1751404182,"current_range_meters":16400,"station_id":"ce4bh4p2rcd13ifvqe1g","pricing_plan_id":"cebpf4jnsgd1na2vs0mg"},{"bike_id":"dc181342-43fd-406f-a486-80643e0b4761","system_id":"levelo_inurba_marseille","lat":43.27905,"lon":5.38009,"is_reserved":false,"is_disabled":false,"rental_uris":{"android":"levelo://app?vid=dc181342-43fd-406f-a486-80643e0b4761","ios":"levelo://app?vid=dc181342-43fd-406f-a486-80643e0b4761"},"vehicle_type_id":"4","last_reported":1751404182,"current_range_meters":16400,"station_id":"ce4bhf92rcd13ifvqf50","pricing_plan_id":"cebpf4jnsgd1na2vs0mg"},{"bike_id":"c2cc3873-3136-4ba7-984d-6514f2a6bcc2","system_id":"levelo_inurba_marseille","lat":43.26692,"lon":5.3827,"is_reserved":false,"is_disabled":false,"rental_uris":{"android":"levelo://app?vid=c2cc3873-3136-4ba7-984d-6514f2a6bcc2","ios":"levelo://app?vid=c2cc3873-3136-4ba7-984d-6514f2a6bcc2"},"vehicle_type_id":"4","last_reported":1751404182,"current_range_meters":16400,"station_id":"ce4bhg92rcd13ifvqf90","pricing_plan_id":"cebpf4jnsgd1na2vs0mg"},{"bike_id":"123151f9-e0da-445b-a812-be8e6dbad2e5","system_id":"levelo_inurba_marseille","lat":43.2668,"lon":5.3827,"is_reserved":false,"is_disabled":false,"rental_uris":{"android":"levelo://app?vid=123151f9-e0da-445b-a812-be8e6dbad2e5","ios":"levelo://app?vid=123151f9-e0da-445b-a812-be8e6dbad2e5"},"vehicle_type_id":"4","last_reported":1751404182,"current_range_meters":16400,"station_id":"ce4bhg92rcd13ifvqf90","pricing_plan_id":"cebpf4jnsgd1na2vs0mg"},{"bike_id":"3642c280-285b-47e8-a725-58ec4d5f8930","system_id":"levelo_inurba_marseille","lat":43.24801,"lon":5.3746,"is_reserved":false,"is_disabled":false,"rental_uris":{"android":"levelo://app?vid=3642c280-285b-47e8-a725-58ec4d5f8930","ios":"levelo://app?vid=3642c280-285b-47e8-a725-58ec4d5f8930"},"vehicle_type_id":"4","last_reported":1751404182,"current_range_meters":16400,"station_id":"ce4bhgh2rcd13ifvqfb0","pricing_plan_id":"cebpf4jnsgd1na2vs0mg"},{"bike_id":"ee0317a9-0b3d-4631-9294-b4dddc155611","system_id":"levelo_inurba_marseille","lat":43.32356,"lon":5.36756,"is_reserved":false,"is_disabled":false,"rental_uris":{"android":"levelo://app?vid=ee0317a9-0b3d-4631-9294-b4dddc155611","ios":"levelo://app?vid=ee0317a9-0b3d-4631-9294-b4dddc155611"},"vehicle_type_id":"4","last_reported":1751404182,"current_range_meters":16400,"station_id":"ce4bhsh2rcd13ifvqi2g","pricing_plan_id":"cebpf4jnsgd1na2vs0mg"},{"bike_id":"f2f4d984-5460-4e1e-a60d-14e2b345a288","system_id":"levelo_inurba_marseille","lat":43.27616,"lon":5.36111,"is_reserved":false,"is_disabled":false,"rental_uris":{"android":"levelo://app?vid=f2f4d984-5460-4e1e-a60d-14e2b345a288","ios":"levelo://app?vid=f2f4d984-5460-4e1e-a60d-14e2b345a288"},"vehicle_type_id":"4","last_reported":1751404182,"current_range_meters":16800,"station_id":"ce4bgj92rcd13ifvqbe0","pricing_plan_id":"cebpf4jnsgd1na2vs0mg"},{"bike_id":"3bf1ad33-5834-4021-a6ec-6e4c334489d1","system_id":"levelo_inurba_marseille","lat":43.31358,"lon":5.38491,"is_reserved":false,"is_disabled":false,"rental_uris":{"android":"levelo://app?vid=3bf1ad33-5834-4021-a6ec-6e4c334489d1","ios":"levelo://app?vid=3bf1ad33-5834-4021-a6ec-6e4c334489d1"},"vehicle_type_id":"4","last_reported":1751404182,"current_range_meters":16800,"station_id":"ce4bgt92rcd13ifvqcf0","pricing_plan_id":"cebpf4jnsgd1na2vs0mg"},{"bike_id":"6ba8a57f-2c6b-4a87-bda0-73da836b1382","system_id":"levelo_inurba_marseille","lat":43.29413,"lon":5.38604,"is_reserved":false,"is_disabled":false,"rental_uris":{"android":"levelo://app?vid=6ba8a57f-2c6b-4a87-bda0-73da836b1382","ios":"levelo://app?vid=6ba8a57f-2c6b-4a87-bda0-73da836b1382"},"vehicle_type_id":"4","last_reported":1751404182,"current_range_meters":16800,"station_id":"ce4bh2h2rcd13ifvqdh0","pricing_plan_id":"cebpf4jnsgd1na2vs0mg"},{"bike_id":"54d07b9c-15ee-4d3e-a003-17a1d66cb9b0","system_id":"levelo_inurba_marseille","lat":43.248,"lon":5.37451,"is_reserved":false,"is_disabled":false,"rental_uris":{"android":"levelo://app?vid=54d07b9c-15ee-4d3e-a003-17a1d66cb9b0","ios":"levelo://app?vid=54d07b9c-15ee-4d3e-a003-17a1d66cb9b0"},"vehicle_type_id":"4","last_reported":1751404182,"current_range_meters":16800,"station_id":"ce4bhgh2rcd13ifvqfb0","pricing_plan_id":"cebpf4jnsgd1na2vs0mg"},{"bike_id":"fdcc33b3-b27b-4fd9-90cb-c9421efe9db6","system_id":"levelo_inurba_marseille","lat":43.27815,"lon":5.41442,"is_reserved":false,"is_disabled":false,"rental_uris":{"android":"levelo://app?vid=fdcc33b3-b27b-4fd9-90cb-c9421efe9db6","ios":"levelo://app?vid=fdcc33b3-b27b-4fd9-90cb-c9421efe9db6"},"vehicle_type_id":"4","last_reported":1751404182,"current_range_meters":17200,"station_id":"","pricing_plan_id":"cebpf4jnsgd1na2vs0mg"},{"bike_id":"f00e3044-9bd1-48b5-b342-151af21b34fa","system_id":"levelo_inurba_marseille","lat":43.299815,"lon":5.374195,"is_reserved":false,"is_disabled":false,"rental_uris":{"android":"levelo://app?vid=f00e3044-9bd1-48b5-b342-151af21b34fa","ios":"levelo://app?vid=f00e3044-9bd1-48b5-b342-151af21b34fa"},"vehicle_type_id":"4","last_reported":1751404182,"current_range_meters":17200,"station_id":"","pricing_plan_id":"cebpf4jnsgd1na2vs0mg"},{"bike_id":"8c0314c5-b8c2-4a4f-9dab-a36b868a8546","system_id":"levelo_inurba_marseille","lat":43.29533,"lon":5.39032,"is_reserved":false,"is_disabled":false,"rental_uris":{"android":"levelo://app?vid=8c0314c5-b8c2-4a4f-9dab-a36b868a8546","ios":"levelo://app?vid=8c0314c5-b8c2-4a4f-9dab-a36b868a8546"},"vehicle_type_id":"4","last_reported":1751404182,"current_range_meters":17200,"station_id":"ce4bh3p2rcd13ifvqdp0","pricing_plan_id":"cebpf4jnsgd1na2vs0mg"},{"bike_id":"1e3ce196-39e7-477b-8440-ed408280b2b0","system_id":"levelo_inurba_marseille","lat":43.25492,"lon":5.37657,"is_reserved":false,"is_disabled":false,"rental_uris":{"android":"levelo://app?vid=1e3ce196-39e7-477b-8440-ed408280b2b0","ios":"levelo://app?vid=1e3ce196-39e7-477b-8440-ed408280b2b0"},"vehicle_type_id":"4","last_reported":1751404182,"current_range_meters":17200,"station_id":"ce4bhh12rcd13ifvqff0","pricing_plan_id":"cebpf4jnsgd1na2vs0mg"},{"bike_id":"d0f90c24-dd03-411b-9731-55305f76b7c8","system_id":"levelo_inurba_marseille","lat":43.21182,"lon":5.35096,"is_reserved":false,"is_disabled":false,"rental_uris":{"android":"levelo://app?vid=d0f90c24-dd03-411b-9731-55305f76b7c8","ios":"levelo://app?vid=d0f90c24-dd03-411b-9731-55305f76b7c8"},"vehicle_type_id":"4","last_reported":1751404182,"current_range_meters":17200,"station_id":"st_cvj6sg6p6f1abm77japg","pricing_plan_id":"cebpf4jnsgd1na2vs0mg"},{"bike_id":"cfc0aa67-590a-4038-b894-cb7b8f074cc7","system_id":"levelo_inurba_marseille","lat":43.217525,"lon":5.345941,"is_reserved":false,"is_disabled":false,"rental_uris":{"android":"levelo://app?vid=cfc0aa67-590a-4038-b894-cb7b8f074cc7","ios":"levelo://app?vid=cfc0aa67-590a-4038-b894-cb7b8f074cc7"},"vehicle_type_id":"4","last_reported":1751404182,"current_range_meters":17600,"station_id":"st_cvj6r9ubvosntc0bgbag","pricing_plan_id":"cebpf4jnsgd1na2vs0mg"},{"bike_id":"0649e8da-2d76-4967-9ab7-a699abd43552","system_id":"levelo_inurba_marseille","lat":43.299038,"lon":5.376366,"is_reserved":false,"is_disabled":false,"rental_uris":{"android":"levelo://app?vid=0649e8da-2d76-4967-9ab7-a699abd43552","ios":"levelo://app?vid=0649e8da-2d76-4967-9ab7-a699abd43552"},"vehicle_type_id":"4","last_reported":1751404182,"current_range_meters":18000,"station_id":"","pricing_plan_id":"cebpf4jnsgd1na2vs0mg"},{"bike_id":"dbe6a7d8-6edc-4015-8658-f68eeb46a661","system_id":"levelo_inurba_marseille","lat":43.33566,"lon":5.3985,"is_reserved":false,"is_disabled":false,"rental_uris":{"android":"levelo://app?vid=dbe6a7d8-6edc-4015-8658-f68eeb46a661","ios":"levelo://app?vid=dbe6a7d8-6edc-4015-8658-f68eeb46a661"},"vehicle_type_id":"4","last_reported":1751404182,"current_range_meters":18000,"station_id":"","pricing_plan_id":"cebpf4jnsgd1na2vs0mg"},{"bike_id":"7e62b058-a7ed-4634-80f1-04d3de596de7","system_id":"levelo_inurba_marseille","lat":43.29803,"lon":5.3685,"is_reserved":false,"is_disabled":false,"rental_uris":{"android":"levelo://app?vid=7e62b058-a7ed-4634-80f1-04d3de596de7","ios":"levelo://app?vid=7e62b058-a7ed-4634-80f1-04d3de596de7"},"vehicle_type_id":"4","last_reported":1751404182,"current_range_meters":18000,"station_id":"","pricing_plan_id":"cebpf4jnsgd1na2vs0mg"},{"bike_id":"180ae7df-6cbc-4cef-808d-fb1228228d59","system_id":"levelo_inurba_marseille","lat":43.30277,"lon":5.37691,"is_reserved":false,"is_disabled":false,"rental_uris":{"android":"levelo://app?vid=180ae7df-6cbc-4cef-808d-fb1228228d59","ios":"levelo://app?vid=180ae7df-6cbc-4cef-808d-fb1228228d59"},"vehicle_type_id":"4","last_reported":1751404182,"current_range_meters":18000,"station_id":"ce4bguh2rcd13ifvqcj0","pricing_plan_id":"cebpf4jnsgd1na2vs0mg"},{"bike_id":"7d856829-ce84-4f0a-9bc1-0a7be8b12e09","system_id":"levelo_inurba_marseille","lat":43.29516,"lon":5.39404,"is_reserved":false,"is_disabled":false,"rental_uris":{"android":"levelo://app?vid=7d856829-ce84-4f0a-9bc1-0a7be8b12e09","ios":"levelo://app?vid=7d856829-ce84-4f0a-9bc1-0a7be8b12e09"},"vehicle_type_id":"4","last_reported":1751404182,"current_range_meters":18000,"station_id":"ce4bh292rcd13ifvqdf0","pricing_plan_id":"cebpf4jnsgd1na2vs0mg"},{"bike_id":"cd8547c4-8307-43c3-8707-3ecf564c3dbe","system_id":"levelo_inurba_marseille","lat":43.29022,"lon":5.38646,"is_reserved":false,"is_disabled":false,"rental_uris":{"android":"levelo://app?vid=cd8547c4-8307-43c3-8707-3ecf564c3dbe","ios":"levelo://app?vid=cd8547c4-8307-43c3-8707-3ecf564c3dbe"},"vehicle_type_id":"4","last_reported":1751404182,"current_range_meters":18000,"station_id":"ce4bh4p2rcd13ifvqe0g","pricing_plan_id":"cebpf4jnsgd1na2vs0mg"},{"bike_id":"11a4b8c2-a422-41ca-ac0f-d658fbbf2def","system_id":"levelo_inurba_marseille","lat":43.28721,"lon":5.3793,"is_reserved":false,"is_disabled":false,"rental_uris":{"android":"levelo://app?vid=11a4b8c2-a422-41ca-ac0f-d658fbbf2def","ios":"levelo://app?vid=11a4b8c2-a422-41ca-ac0f-d658fbbf2def"},"vehicle_type_id":"4","last_reported":1751404182,"current_range_meters":18000,"station_id":"ce4bh9p2rcd13ifvqec0","pricing_plan_id":"cebpf4jnsgd1na2vs0mg"},{"bike_id":"755b12ad-e5aa-4a8f-87f8-64585fb1ce89","system_id":"levelo_inurba_marseille","lat":43.27917,"lon":5.39573,"is_reserved":false,"is_disabled":false,"rental_uris":{"android":"levelo://app?vid=755b12ad-e5aa-4a8f-87f8-64585fb1ce89","ios":"levelo://app?vid=755b12ad-e5aa-4a8f-87f8-64585fb1ce89"},"vehicle_type_id":"4","last_reported":1751404182,"current_range_meters":18000,"station_id":"ce4bhf92rcd13ifvqf40","pricing_plan_id":"cebpf4jnsgd1na2vs0mg"},{"bike_id":"0b952b41-063f-44fd-8039-09856d22ee45","system_id":"levelo_inurba_marseille","lat":43.24803,"lon":5.37455,"is_reserved":false,"is_disabled":false,"rental_uris":{"android":"levelo://app?vid=0b952b41-063f-44fd-8039-09856d22ee45","ios":"levelo://app?vid=0b952b41-063f-44fd-8039-09856d22ee45"},"vehicle_type_id":"4","last_reported":1751404182,"current_range_meters":18000,"station_id":"ce4bhgh2rcd13ifvqfb0","pricing_plan_id":"cebpf4jnsgd1na2vs0mg"},{"bike_id":"c3f456d1-6cf9-4261-9cd1-10da9e7efd97","system_id":"levelo_inurba_marseille","lat":43.27564,"lon":5.384177,"is_reserved":false,"is_disabled":false,"rental_uris":{"android":"levelo://app?vid=c3f456d1-6cf9-4261-9cd1-10da9e7efd97","ios":"levelo://app?vid=c3f456d1-6cf9-4261-9cd1-10da9e7efd97"},"vehicle_type_id":"4","last_reported":1751404182,"current_range_meters":18000,"station_id":"ce4bhh92rcd13ifvqfi0","pricing_plan_id":"cebpf4jnsgd1na2vs0mg"},{"bike_id":"d68dacc3-2ebb-4596-94df-9035662fd853","system_id":"levelo_inurba_marseille","lat":43.257,"lon":5.41119,"is_reserved":false,"is_disabled":false,"rental_uris":{"android":"levelo://app?vid=d68dacc3-2ebb-4596-94df-9035662fd853","ios":"levelo://app?vid=d68dacc3-2ebb-4596-94df-9035662fd853"},"vehicle_type_id":"4","last_reported":1751404182,"current_range_meters":18000,"station_id":"ce4bhkp2rcd13ifvqgd0","pricing_plan_id":"cebpf4jnsgd1na2vs0mg"},{"bike_id":"41c08a91-7a76-4144-a69a-b012b059bb06","system_id":"levelo_inurba_marseille","lat":43.26808,"lon":5.40269,"is_reserved":false,"is_disabled":false,"rental_uris":{"android":"levelo://app?vid=41c08a91-7a76-4144-a69a-b012b059bb06","ios":"levelo://app?vid=41c08a91-7a76-4144-a69a-b012b059bb06"},"vehicle_type_id":"4","last_reported":1751404182,"current_range_meters":18000,"station_id":"ce501612rcd8frsf0b60","pricing_plan_id":"cebpf4jnsgd1na2vs0mg"},{"bike_id":"ae1c182d-0a5a-4871-b62e-0240f515d4fd","system_id":"levelo_inurba_marseille","lat":43.21749,"lon":5.346013,"is_reserved":false,"is_disabled":false,"rental_uris":{"android":"levelo://app?vid=ae1c182d-0a5a-4871-b62e-0240f515d4fd","ios":"levelo://app?vid=ae1c182d-0a5a-4871-b62e-0240f515d4fd"},"vehicle_type_id":"4","last_reported":1751404182,"current_range_meters":18000,"station_id":"st_cvj6r9ubvosntc0bgbag","pricing_plan_id":"cebpf4jnsgd1na2vs0mg"},{"bike_id":"c856a7c0-474e-40db-8de2-de5b1d948146","system_id":"levelo_inurba_marseille","lat":43.31362,"lon":5.38503,"is_reserved":false,"is_disabled":false,"rental_uris":{"android":"levelo://app?vid=c856a7c0-474e-40db-8de2-de5b1d948146","ios":"levelo://app?vid=c856a7c0-474e-40db-8de2-de5b1d948146"},"vehicle_type_id":"4","last_reported":1751404182,"current_range_meters":18800,"station_id":"ce4bgt92rcd13ifvqcf0","pricing_plan_id":"cebpf4jnsgd1na2vs0mg"},{"bike_id":"0e030323-4386-4e72-9a0d-0f6a2ff539de","system_id":"levelo_inurba_marseille","lat":43.29633,"lon":5.40551,"is_reserved":false,"is_disabled":false,"rental_uris":{"android":"levelo://app?vid=0e030323-4386-4e72-9a0d-0f6a2ff539de","ios":"levelo://app?vid=0e030323-4386-4e72-9a0d-0f6a2ff539de"},"vehicle_type_id":"4","last_reported":1751404182,"current_range_meters":18800,"station_id":"ce4bh0h2rcd13ifvqd60","pricing_plan_id":"cebpf4jnsgd1na2vs0mg"},{"bike_id":"cbf87622-22a6-4bb2-b43e-d869a06e52a1","system_id":"levelo_inurba_marseille","lat":43.29243,"lon":5.38448,"is_reserved":false,"is_disabled":false,"rental_uris":{"android":"levelo://app?vid=cbf87622-22a6-4bb2-b43e-d869a06e52a1","ios":"levelo://app?vid=cbf87622-22a6-4bb2-b43e-d869a06e52a1"},"vehicle_type_id":"4","last_reported":1751404182,"current_range_meters":18800,"station_id":"ce4bh692rcd13ifvqea0","pricing_plan_id":"cebpf4jnsgd1na2vs0mg"},{"bike_id":"a9c84572-7f9c-4fe2-af34-9288548a808b","system_id":"levelo_inurba_marseille","lat":43.25494,"lon":5.37652,"is_reserved":false,"is_disabled":false,"rental_uris":{"android":"levelo://app?vid=a9c84572-7f9c-4fe2-af34-9288548a808b","ios":"levelo://app?vid=a9c84572-7f9c-4fe2-af34-9288548a808b"},"vehicle_type_id":"4","last_reported":1751404182,"current_range_meters":18800,"station_id":"ce4bhh12rcd13ifvqff0","pricing_plan_id":"cebpf4jnsgd1na2vs0mg"},{"bike_id":"3b27d145-1095-4dd1-92cc-52df15da8e80","system_id":"levelo_inurba_marseille","lat":43.24083,"lon":5.37723,"is_reserved":false,"is_disabled":false,"rental_uris":{"android":"levelo://app?vid=3b27d145-1095-4dd1-92cc-52df15da8e80","ios":"levelo://app?vid=3b27d145-1095-4dd1-92cc-52df15da8e80"},"vehicle_type_id":"4","last_reported":1751404182,"current_range_meters":18800,"station_id":"ce4bhnp2rcd13ifvqgvg","pricing_plan_id":"cebpf4jnsgd1na2vs0mg"},{"bike_id":"bcfd0eda-b9ab-4bec-9ca3-3f2b86617415","system_id":"levelo_inurba_marseille","lat":43.21193,"lon":5.35076,"is_reserved":false,"is_disabled":false,"rental_uris":{"android":"levelo://app?vid=bcfd0eda-b9ab-4bec-9ca3-3f2b86617415","ios":"levelo://app?vid=bcfd0eda-b9ab-4bec-9ca3-3f2b86617415"},"vehicle_type_id":"4","last_reported":1751404182,"current_range_meters":18800,"station_id":"st_cvj6sg6p6f1abm77japg","pricing_plan_id":"cebpf4jnsgd1na2vs0mg"},{"bike_id":"16a8afe6-e43e-4d1b-a7bd-ed83d113735a","system_id":"levelo_inurba_marseille","lat":43.32436,"lon":5.41185,"is_reserved":false,"is_disabled":false,"rental_uris":{"android":"levelo://app?vid=16a8afe6-e43e-4d1b-a7bd-ed83d113735a","ios":"levelo://app?vid=16a8afe6-e43e-4d1b-a7bd-ed83d113735a"},"vehicle_type_id":"4","last_reported":1751404182,"current_range_meters":19200,"station_id":"","pricing_plan_id":"cebpf4jnsgd1na2vs0mg"},{"bike_id":"12968da4-6587-4337-b41d-8c292aea852f","system_id":"levelo_inurba_marseille","lat":43.31977,"lon":5.37109,"is_reserved":false,"is_disabled":false,"rental_uris":{"android":"levelo://app?vid=12968da4-6587-4337-b41d-8c292aea852f","ios":"levelo://app?vid=12968da4-6587-4337-b41d-8c292aea852f"},"vehicle_type_id":"4","last_reported":1751404182,"current_range_meters":19200,"station_id":"","pricing_plan_id":"cebpf4jnsgd1na2vs0mg"},{"bike_id":"4e718405-785a-4e6c-8429-1b43948dc487","system_id":"levelo_inurba_marseille","lat":43.2953,"lon":5.38542,"is_reserved":false,"is_disabled":false,"rental_uris":{"android":"levelo://app?vid=4e718405-785a-4e6c-8429-1b43948dc487","ios":"levelo://app?vid=4e718405-785a-4e6c-8429-1b43948dc487"},"vehicle_type_id":"4","last_reported":1751404182,"current_range_meters":19200,"station_id":"ce4bgih2rcd13ifvqba0","pricing_plan_id":"cebpf4jnsgd1na2vs0mg"},{"bike_id":"2cf2b5df-98cc-4d96-967a-b4e8bd3736c0","system_id":"levelo_inurba_marseille","lat":43.29781,"lon":5.37104,"is_reserved":false,"is_disabled":false,"rental_uris":{"android":"levelo://app?vid=2cf2b5df-98cc-4d96-967a-b4e8bd3736c0","ios":"levelo://app?vid=2cf2b5df-98cc-4d96-967a-b4e8bd3736c0"},"vehicle_type_id":"4","last_reported":1751404182,"current_range_meters":19200,"station_id":"ce4bgop2rcd13ifvqc1g","pricing_plan_id":"cebpf4jnsgd1na2vs0mg"},{"bike_id":"b705e657-24d3-487a-97ed-063f3185644e","system_id":"levelo_inurba_marseille","lat":43.28482,"lon":5.38418,"is_reserved":false,"is_disabled":false,"rental_uris":{"android":"levelo://app?vid=b705e657-24d3-487a-97ed-063f3185644e","ios":"levelo://app?vid=b705e657-24d3-487a-97ed-063f3185644e"},"vehicle_type_id":"4","last_reported":1751404182,"current_range_meters":19200,"station_id":"ce4bh512rcd13ifvqe3g","pricing_plan_id":"cebpf4jnsgd1na2vs0mg"},{"bike_id":"7440a83d-d2eb-4aec-843d-e9a2bc12e9e7","system_id":"levelo_inurba_marseille","lat":43.24177,"lon":5.39727,"is_reserved":false,"is_disabled":false,"rental_uris":{"android":"levelo://app?vid=7440a83d-d2eb-4aec-843d-e9a2bc12e9e7","ios":"levelo://app?vid=7440a83d-d2eb-4aec-843d-e9a2bc12e9e7"},"vehicle_type_id":"4","last_reported":1751404182,"current_range_meters":19200,"station_id":"ce4bhn12rcd13ifvqgpg","pricing_plan_id":"cebpf4jnsgd1na2vs0mg"},{"bike_id":"e4934567-cad3-40c7-9359-785f2a03b2f0","system_id":"levelo_inurba_marseille","lat":43.32296,"lon":5.38263,"is_reserved":false,"is_disabled":false,"rental_uris":{"android":"levelo://app?vid=e4934567-cad3-40c7-9359-785f2a03b2f0","ios":"levelo://app?vid=e4934567-cad3-40c7-9359-785f2a03b2f0"},"vehicle_type_id":"4","last_reported":1751404182,"current_range_meters":19200,"station_id":"ce4bhr12rcd13ifvqhqg","pricing_plan_id":"cebpf4jnsgd1na2vs0mg"},{"bike_id":"959e6f20-8ed0-4d36-bc1d-3efb82d6190b","system_id":"levelo_inurba_marseille","lat":43.21184,"lon":5.35077,"is_reserved":false,"is_disabled":false,"rental_uris":{"android":"levelo://app?vid=959e6f20-8ed0-4d36-bc1d-3efb82d6190b","ios":"levelo://app?vid=959e6f20-8ed0-4d36-bc1d-3efb82d6190b"},"vehicle_type_id":"4","last_reported":1751404182,"current_range_meters":19200,"station_id":"st_cvj6sg6p6f1abm77japg","pricing_plan_id":"cebpf4jnsgd1na2vs0mg"},{"bike_id":"d91e2c7b-4f22-4d8c-a5e8-d52455f5d8ec","system_id":"levelo_inurba_marseille","lat":43.30891,"lon":5.37196,"is_reserved":false,"is_disabled":false,"rental_uris":{"android":"levelo://app?vid=d91e2c7b-4f22-4d8c-a5e8-d52455f5d8ec","ios":"levelo://app?vid=d91e2c7b-4f22-4d8c-a5e8-d52455f5d8ec"},"vehicle_type_id":"4","last_reported":1751404182,"current_range_meters":19600,"station_id":"ce4bguh2rcd13ifvqckg","pricing_plan_id":"cebpf4jnsgd1na2vs0mg"},{"bike_id":"de24dc3c-f75a-41d6-b628-3fd3eef52fea","system_id":"levelo_inurba_marseille","lat":43.29255,"lon":5.38429,"is_reserved":false,"is_disabled":false,"rental_uris":{"android":"levelo://app?vid=de24dc3c-f75a-41d6-b628-3fd3eef52fea","ios":"levelo://app?vid=de24dc3c-f75a-41d6-b628-3fd3eef52fea"},"vehicle_type_id":"4","last_reported":1751404182,"current_range_meters":19600,"station_id":"ce4bh692rcd13ifvqea0","pricing_plan_id":"cebpf4jnsgd1na2vs0mg"},{"bike_id":"12cd4c62-b26f-425a-bf74-acf85daa5e01","system_id":"levelo_inurba_marseille","lat":43.27887,"lon":5.38046,"is_reserved":false,"is_disabled":false,"rental_uris":{"android":"levelo://app?vid=12cd4c62-b26f-425a-bf74-acf85daa5e01","ios":"levelo://app?vid=12cd4c62-b26f-425a-bf74-acf85daa5e01"},"vehicle_type_id":"4","last_reported":1751404182,"current_range_meters":19600,"station_id":"ce4bhf92rcd13ifvqf50","pricing_plan_id":"cebpf4jnsgd1na2vs0mg"},{"bike_id":"d8f4e68a-05c3-4caa-aa92-c12d8cb440f9","system_id":"levelo_inurba_marseille","lat":43.23968,"lon":5.36626,"is_reserved":false,"is_disabled":false,"rental_uris":{"android":"levelo://app?vid=d8f4e68a-05c3-4caa-aa92-c12d8cb440f9","ios":"levelo://app?vid=d8f4e68a-05c3-4caa-aa92-c12d8cb440f9"},"vehicle_type_id":"4","last_reported":1751404182,"current_range_meters":19600,"station_id":"ce4bhi12rcd13ifvqfp0","pricing_plan_id":"cebpf4jnsgd1na2vs0mg"},{"bike_id":"eec7b02a-461b-41f7-b40b-680625481db1","system_id":"levelo_inurba_marseille","lat":43.245697,"lon":5.395089,"is_reserved":false,"is_disabled":false,"rental_uris":{"android":"levelo://app?vid=eec7b02a-461b-41f7-b40b-680625481db1","ios":"levelo://app?vid=eec7b02a-461b-41f7-b40b-680625481db1"},"vehicle_type_id":"4","last_reported":1751404182,"current_range_meters":19600,"station_id":"ce4bhlp2rcd13ifvqgjg","pricing_plan_id":"cebpf4jnsgd1na2vs0mg"},{"bike_id":"110be0f7-19b6-4419-935c-8afdb1f29359","system_id":"levelo_inurba_marseille","lat":43.212008,"lon":5.350661,"is_reserved":false,"is_disabled":false,"rental_uris":{"android":"levelo://app?vid=110be0f7-19b6-4419-935c-8afdb1f29359","ios":"levelo://app?vid=110be0f7-19b6-4419-935c-8afdb1f29359"},"vehicle_type_id":"4","last_reported":1751404182,"current_range_meters":19600,"station_id":"st_cvj6sg6p6f1abm77japg","pricing_plan_id":"cebpf4jnsgd1na2vs0mg"},{"bike_id":"09a94feb-8911-4d3d-9f22-a7f611710ea1","system_id":"levelo_inurba_marseille","lat":43.21196,"lon":5.35065,"is_reserved":false,"is_disabled":false,"rental_uris":{"android":"levelo://app?vid=09a94feb-8911-4d3d-9f22-a7f611710ea1","ios":"levelo://app?vid=09a94feb-8911-4d3d-9f22-a7f611710ea1"},"vehicle_type_id":"4","last_reported":1751404182,"current_range_meters":19600,"station_id":"st_cvj6sg6p6f1abm77japg","pricing_plan_id":"cebpf4jnsgd1na2vs0mg"},{"bike_id":"8bf0d992-d2a0-428e-940a-091ee9b7c2a4","system_id":"levelo_inurba_marseille","lat":43.21191,"lon":5.35067,"is_reserved":false,"is_disabled":false,"rental_uris":{"android":"levelo://app?vid=8bf0d992-d2a0-428e-940a-091ee9b7c2a4","ios":"levelo://app?vid=8bf0d992-d2a0-428e-940a-091ee9b7c2a4"},"vehicle_type_id":"4","last_reported":1751404182,"current_range_meters":19600,"station_id":"st_cvj6sg6p6f1abm77japg","pricing_plan_id":"cebpf4jnsgd1na2vs0mg"},{"bike_id":"a3da8f72-804a-4507-94f0-c6928d78ec9c","system_id":"levelo_inurba_marseille","lat":43.26553,"lon":5.37275,"is_reserved":false,"is_disabled":false,"rental_uris":{"android":"levelo://app?vid=a3da8f72-804a-4507-94f0-c6928d78ec9c","ios":"levelo://app?vid=a3da8f72-804a-4507-94f0-c6928d78ec9c"},"vehicle_type_id":"4","last_reported":1751404182,"current_range_meters":20000,"station_id":"ce4bhg12rcd13ifvqf70","pricing_plan_id":"cebpf4jnsgd1na2vs0mg"},{"bike_id":"c68c4db6-9729-444b-98f9-c8b33032e7bb","system_id":"levelo_inurba_marseille","lat":43.25,"lon":5.38926,"is_reserved":false,"is_disabled":false,"rental_uris":{"android":"levelo://app?vid=c68c4db6-9729-444b-98f9-c8b33032e7bb","ios":"levelo://app?vid=c68c4db6-9729-444b-98f9-c8b33032e7bb"},"vehicle_type_id":"4","last_reported":1751404182,"current_range_meters":20000,"station_id":"ce4bhgp2rcd13ifvqfd0","pricing_plan_id":"cebpf4jnsgd1na2vs0mg"},{"bike_id":"1f2bcccf-a9b6-4e5a-93fc-4f85a2449142","system_id":"levelo_inurba_marseille","lat":43.25501,"lon":5.37653,"is_reserved":false,"is_disabled":false,"rental_uris":{"android":"levelo://app?vid=1f2bcccf-a9b6-4e5a-93fc-4f85a2449142","ios":"levelo://app?vid=1f2bcccf-a9b6-4e5a-93fc-4f85a2449142"},"vehicle_type_id":"4","last_reported":1751404182,"current_range_meters":20000,"station_id":"ce4bhh12rcd13ifvqff0","pricing_plan_id":"cebpf4jnsgd1na2vs0mg"},{"bike_id":"c10a4283-320d-4e64-8d75-ff83e94026ba","system_id":"levelo_inurba_marseille","lat":43.21126,"lon":5.35084,"is_reserved":false,"is_disabled":false,"rental_uris":{"android":"levelo://app?vid=c10a4283-320d-4e64-8d75-ff83e94026ba","ios":"levelo://app?vid=c10a4283-320d-4e64-8d75-ff83e94026ba"},"vehicle_type_id":"4","last_reported":1751404182,"current_range_meters":20400,"station_id":"","pricing_plan_id":"cebpf4jnsgd1na2vs0mg"},{"bike_id":"542b9ada-b71a-4ccd-9453-1b22b04f41bf","system_id":"levelo_inurba_marseille","lat":43.27614,"lon":5.36123,"is_reserved":false,"is_disabled":false,"rental_uris":{"android":"levelo://app?vid=542b9ada-b71a-4ccd-9453-1b22b04f41bf","ios":"levelo://app?vid=542b9ada-b71a-4ccd-9453-1b22b04f41bf"},"vehicle_type_id":"4","last_reported":1751404182,"current_range_meters":20400,"station_id":"ce4bgj92rcd13ifvqbe0","pricing_plan_id":"cebpf4jnsgd1na2vs0mg"},{"bike_id":"8e4147e3-1b40-4975-a726-63764f255202","system_id":"levelo_inurba_marseille","lat":43.27616,"lon":5.36099,"is_reserved":false,"is_disabled":false,"rental_uris":{"android":"levelo://app?vid=8e4147e3-1b40-4975-a726-63764f255202","ios":"levelo://app?vid=8e4147e3-1b40-4975-a726-63764f255202"},"vehicle_type_id":"4","last_reported":1751404182,"current_range_meters":20400,"station_id":"ce4bgj92rcd13ifvqbe0","pricing_plan_id":"cebpf4jnsgd1na2vs0mg"},{"bike_id":"7f43a27f-f361-460c-87f2-38184c0d6036","system_id":"levelo_inurba_marseille","lat":43.30328,"lon":5.40435,"is_reserved":false,"is_disabled":false,"rental_uris":{"android":"levelo://app?vid=7f43a27f-f361-460c-87f2-38184c0d6036","ios":"levelo://app?vid=7f43a27f-f361-460c-87f2-38184c0d6036"},"vehicle_type_id":"4","last_reported":1751404182,"current_range_meters":20400,"station_id":"ce4bh012rcd13ifvqd10","pricing_plan_id":"cebpf4jnsgd1na2vs0mg"},{"bike_id":"4680fad7-e462-47e9-ab93-7ceb5449ba1c","system_id":"levelo_inurba_marseille","lat":43.286173,"lon":5.384513,"is_reserved":false,"is_disabled":false,"rental_uris":{"android":"levelo://app?vid=4680fad7-e462-47e9-ab93-7ceb5449ba1c","ios":"levelo://app?vid=4680fad7-e462-47e9-ab93-7ceb5449ba1c"},"vehicle_type_id":"4","last_reported":1751404182,"current_range_meters":20400,"station_id":"ce4bhf92rcd13ifvqf50","pricing_plan_id":"cebpf4jnsgd1na2vs0mg"},{"bike_id":"10559361-f3b0-4e8f-9264-c477ac355365","system_id":"levelo_inurba_marseille","lat":43.27184,"lon":5.40988,"is_reserved":false,"is_disabled":false,"rental_uris":{"android":"levelo://app?vid=10559361-f3b0-4e8f-9264-c477ac355365","ios":"levelo://app?vid=10559361-f3b0-4e8f-9264-c477ac355365"},"vehicle_type_id":"4","last_reported":1751404182,"current_range_meters":20400,"station_id":"ce4bhl12rcd13ifvqgf0","pricing_plan_id":"cebpf4jnsgd1na2vs0mg"},{"bike_id":"2b855a6c-42a7-4e90-8687-8bb69f94374c","system_id":"levelo_inurba_marseille","lat":43.26206,"lon":5.40421,"is_reserved":false,"is_disabled":false,"rental_uris":{"android":"levelo://app?vid=2b855a6c-42a7-4e90-8687-8bb69f94374c","ios":"levelo://app?vid=2b855a6c-42a7-4e90-8687-8bb69f94374c"},"vehicle_type_id":"4","last_reported":1751404182,"current_range_meters":20400,"station_id":"ce4bhmh2rcd13ifvqgmg","pricing_plan_id":"cebpf4jnsgd1na2vs0mg"},{"bike_id":"615570c7-b4b7-4e0c-ab91-fe6bef6f5ac4","system_id":"levelo_inurba_marseille","lat":43.29257,"lon":5.40907,"is_reserved":false,"is_disabled":false,"rental_uris":{"android":"levelo://app?vid=615570c7-b4b7-4e0c-ab91-fe6bef6f5ac4","ios":"levelo://app?vid=615570c7-b4b7-4e0c-ab91-fe6bef6f5ac4"},"vehicle_type_id":"4","last_reported":1751404182,"current_range_meters":20800,"station_id":"ce4bh192rcd13ifvqdc0","pricing_plan_id":"cebpf4jnsgd1na2vs0mg"},{"bike_id":"595ed421-c667-4d12-8435-e4f5c5c56b01","system_id":"levelo_inurba_marseille","lat":43.28835,"lon":5.39334,"is_reserved":false,"is_disabled":false,"rental_uris":{"android":"levelo://app?vid=595ed421-c667-4d12-8435-e4f5c5c56b01","ios":"levelo://app?vid=595ed421-c667-4d12-8435-e4f5c5c56b01"},"vehicle_type_id":"4","last_reported":1751404182,"current_range_meters":20800,"station_id":"ce4bh2p2rcd13ifvqdi0","pricing_plan_id":"cebpf4jnsgd1na2vs0mg"},{"bike_id":"0e921e93-ca3f-4dd7-aee9-d208c321cdbd","system_id":"levelo_inurba_marseille","lat":43.290364,"lon":5.399647,"is_reserved":false,"is_disabled":false,"rental_uris":{"android":"levelo://app?vid=0e921e93-ca3f-4dd7-aee9-d208c321cdbd","ios":"levelo://app?vid=0e921e93-ca3f-4dd7-aee9-d208c321cdbd"},"vehicle_type_id":"4","last_reported":1751404182,"current_range_meters":20800,"station_id":"ce4bh392rcd13ifvqdm0","pricing_plan_id":"cebpf4jnsgd1na2vs0mg"},{"bike_id":"3bef9d28-8e65-4339-b9d6-eb432eb9ee64","system_id":"levelo_inurba_marseille","lat":43.27991,"lon":5.3696,"is_reserved":false,"is_disabled":false,"rental_uris":{"android":"levelo://app?vid=3bef9d28-8e65-4339-b9d6-eb432eb9ee64","ios":"levelo://app?vid=3bef9d28-8e65-4339-b9d6-eb432eb9ee64"},"vehicle_type_id":"4","last_reported":1751404182,"current_range_meters":20800,"station_id":"ce4bha12rcd13ifvqef0","pricing_plan_id":"cebpf4jnsgd1na2vs0mg"},{"bike_id":"53357e14-8322-41ce-9b6a-e5c7b975dff4","system_id":"levelo_inurba_marseille","lat":43.26217,"lon":5.40472,"is_reserved":false,"is_disabled":false,"rental_uris":{"android":"levelo://app?vid=53357e14-8322-41ce-9b6a-e5c7b975dff4","ios":"levelo://app?vid=53357e14-8322-41ce-9b6a-e5c7b975dff4"},"vehicle_type_id":"4","last_reported":1751404182,"current_range_meters":20800,"station_id":"ce4bhmh2rcd13ifvqgmg","pricing_plan_id":"cebpf4jnsgd1na2vs0mg"},{"bike_id":"a3425247-2e1f-41e3-b2b5-8d55d89461d3","system_id":"levelo_inurba_marseille","lat":43.28707,"lon":5.3999,"is_reserved":false,"is_disabled":false,"rental_uris":{"android":"levelo://app?vid=a3425247-2e1f-41e3-b2b5-8d55d89461d3","ios":"levelo://app?vid=a3425247-2e1f-41e3-b2b5-8d55d89461d3"},"vehicle_type_id":"4","last_reported":1751404182,"current_range_meters":20800,"station_id":"ce4bho92rcd13ifvqh3g","pricing_plan_id":"cebpf4jnsgd1na2vs0mg"},