{"last_updated":1736435381,"ttl":60,"version":"2.2","data":{"bikes":[{"bike_id":"502ea0ff-d435-4e36-ba3d-0d03eaa55dbc","system_id":"levelo_inurba_marseille","lat":43.29807,"lon":5.38074,"is_reserved":false,"is_disabled":false,"rental_uris":{"android":"levelo://app?vid=502ea0ff-d435-4e36-ba3d-0d03eaa55dbc","ios":"levelo://app?vid=502ea0ff-d435-4e36-ba3d-0d03eaa55dbc"},"vehicle_type_id":"4","last_reported":1736435381,"current_range_meters":32000,"station_id":"ce4bgip2rcd13ifvqbb0","pricing_plan_id":"cebpf4jnsgd1na2vs0mg"},{"bike_id":"474d5d92-62e0-4d47-ad23-63330d03e38b","system_id":"levelo_inurba_marseille","lat":43.32043,"lon":5.41537,"is_reserved":false,"is_disabled":false,"rental_uris":{"android":"levelo://app?vid=474d5d92-62e0-4d47-ad23-63330d03e38b","ios":"levelo://app?vid=474d5d92-62e0-4d47-ad23-63330d03e38b"},"vehicle_type_id":"4","last_reported":1736435381,"current_range_meters":27600,"station_id":"ce4bhq92rcd13ifvqhkg","pricing_plan_id":"cebpf4jnsgd1na2vs0mg"},{"bike_id":"75d87b10-e255-43ff-b26a-cb295f47d643","system_id":"levelo_inurba_marseille","lat":43.27318,"lon":5.39088,"is_reserved":false,"is_disabled":false,"rental_uris":{"android":"levelo://app?vid=75d87b10-e255-43ff-b26a-cb295f47d643","ios":"levelo://app?vid=75d87b10-e255-43ff-b26a-cb295f47d643"},"vehicle_type_id":"4","last_reported":1736435381,"current_range_meters":37600,"station_id":"ce4bhgp2rcd13ifvqfe0","pricing_plan_id":"cebpf4jnsgd1na2vs0mg"},{"bike_id":"87c59741-1f05-4e3d-8c14-38f01f8816a9","system_id":"levelo_inurba_marseille","lat":43.23232,"lon":5.35488,"is_reserved":false,"is_disabled":false,"rental_uris":{"android":"levelo://app?vid=87c59741-1f05-4e3d-8c14-38f01f8816a9","ios":"levelo://app?vid=87c59741-1f05-4e3d-8c14-38f01f8816a9"},"vehicle_type_id":"4","last_reported":1736435381,"current_range_meters":17200,"station_id":"ce4bhu92rcd13ifvqi70","pricing_plan_id":"cebpf4jnsgd1na2vs0mg"},{"bike_id":"e3ed715f-8540-4a0c-8d1a-84fadaf0dd0f","system_id":"levelo_inurba_marseille","lat":43.31668,"lon":5.37397,"is_reserved":false,"is_disabled":false,"rental_uris":{"android":"levelo://app?vid=e3ed715f-8540-4a0c-8d1a-84fadaf0dd0f","ios":"levelo://app?vid=e3ed715f-8540-4a0c-8d1a-84fadaf0dd0f"},"vehicle_type_id":"4","last_reported":1736435381,"current_range_meters":38400,"station_id":"","pricing_plan_id":"cebpf4jnsgd1na2vs0mg"},{"bike_id":"079a2489-d193-414b-8b47-82e93bfb4b65","system_id":"levelo_inurba_marseille","lat":43.28903,"lon":5.38007,"is_reserved":false,"is_disabled":false,"rental_uris":{"android":"levelo://app?vid=079a2489-d193-414b-8b47-82e93bfb4b65","ios":"levelo://app?vid=079a2489-d193-414b-8b47-82e93bfb4b65"},"vehicle_type_id":"4","last_reported":1736435381,"current_range_meters":32400,"station_id":"","pricing_plan_id":"cebpf4jnsgd1na2vs0mg"},{"bike_id":"4db8df72-e91e-4df3-bbfd-430afaeb23e0","system_id":"levelo_inurba_marseille","lat":43.26951,"lon":5.3864,"is_reserved":false,"is_disabled":false,"rental_uris":{"android":"levelo://app?vid=4db8df72-e91e-4df3-bbfd-430afaeb23e0","ios":"levelo://app?vid=4db8df72-e91e-4df3-bbfd-430afaeb23e0"},"vehicle_type_id":"4","last_reported":1736435381,"current_range_meters":38800,"station_id":"ce4bhh92rcd13ifvqfh0","pricing_plan_id":"cebpf4jnsgd1na2vs0mg"},{"bike_id":"cb489c6a-2371-4da3-be4a-5c64a7054d0b","system_id":"levelo_inurba_marseille","lat":43.32491,"lon":5.36539,"is_reserved":false,"is_disabled":false,"rental_uris":{"android":"levelo://app?vid=cb489c6a-2371-4da3-be4a-5c64a7054d0b","ios":"levelo://app?vid=cb489c6a-2371-4da3-be4a-5c64a7054d0b"},"vehicle_type_id":"4","last_reported":1736435381,"current_range_meters":27600,"station_id":"ce4bhs12rcd13ifvqhvg","pricing_plan_id":"cebpf4jnsgd1na2vs0mg"},{"bike_id":"10e00646-42c8-4b77-bc3c-9b579ed5686c","system_id":"levelo_inurba_marseille","lat":43.31738,"lon":5.38119,"is_reserved":false,"is_disabled":false,"rental_uris":{"android":"levelo://app?vid=10e00646-42c8-4b77-bc3c-9b579ed5686c","ios":"levelo://app?vid=10e00646-42c8-4b77-bc3c-9b579ed5686c"},"vehicle_type_id":"4","last_reported":1736435381,"current_range_meters":34800,"station_id":"","pricing_plan_id":"cebpf4jnsgd1na2vs0mg"},{"bike_id":"967641b0-ae42-4492-9399-d82097e82562","system_id":"levelo_inurba_marseille","lat":43.27183,"lon":5.41005,"is_reserved":false,"is_disabled":false,"rental_uris":{"android":"levelo://app?vid=967641b0-ae42-4492-9399-d82097e82562","ios":"levelo://app?vid=967641b0-ae42-4492-9399-d82097e82562"},"vehicle_type_id":"4","last_reported":1736435381,"current_range_meters":27200,"station_id":"ce4bhl12rcd13ifvqgf0","pricing_plan_id":"cebpf4jnsgd1na2vs0mg"},{"bike_id":"051ee3d7-17a2-401e-9bd5-08261edf66ab","system_id":"levelo_inurba_marseille","lat":43.2594,"lon":5.40876,"is_reserved":false,"is_disabled":false,"rental_uris":{"android":"levelo://app?vid=051ee3d7-17a2-401e-9bd5-08261edf66ab","ios":"levelo://app?vid=051ee3d7-17a2-401e-9bd5-08261edf66ab"},"vehicle_type_id":"4","last_reported":1736435381,"current_range_meters":22000,"station_id":"ce4bhm92rcd13ifvqglg","pricing_plan_id":"cebpf4jnsgd1na2vs0mg"},{"bike_id":"4f400886-cade-4e67-91bd-ad76069b39eb","system_id":"levelo_inurba_marseille","lat":43.30437,"lon":5.39741,"is_reserved":false,"is_disabled":false,"rental_uris":{"android":"levelo://app?vid=4f400886-cade-4e67-91bd-ad76069b39eb","ios":"levelo://app?vid=4f400886-cade-4e67-91bd-ad76069b39eb"},"vehicle_type_id":"4","last_reported":1736435381,"current_range_meters":37600,"station_id":"ce4bh092rcd13ifvqd20","pricing_plan_id":"cebpf4jnsgd1na2vs0mg"},{"bike_id":"b5883893-bf20-4922-aca2-f937c9d39041","system_id":"levelo_inurba_marseille","lat":43.3027,"lon":5.37706,"is_reserved":false,"is_disabled":false,"rental_uris":{"android":"levelo://app?vid=b5883893-bf20-4922-aca2-f937c9d39041","ios":"levelo://app?vid=b5883893-bf20-4922-aca2-f937c9d39041"},"vehicle_type_id":"4","last_reported":1736435381,"current_range_meters":38800,"station_id":"ce4bguh2rcd13ifvqcj0","pricing_plan_id":"cebpf4jnsgd1na2vs0mg"},{"bike_id":"7f3298f8-5c3b-4910-aecf-1b0d2e9c45ae","system_id":"levelo_inurba_marseille","lat":43.2594,"lon":5.40901,"is_reserved":false,"is_disabled":false,"rental_uris":{"android":"levelo://app?vid=7f3298f8-5c3b-4910-aecf-1b0d2e9c45ae","ios":"levelo://app?vid=7f3298f8-5c3b-4910-aecf-1b0d2e9c45ae"},"vehicle_type_id":"4","last_reported":1736435381,"current_range_meters":20400,"station_id":"ce4bhm92rcd13ifvqglg","pricing_plan_id":"cebpf4jnsgd1na2vs0mg"},{"bike_id":"4f439c6b-4554-4213-8983-cec78740d5f8","system_id":"levelo_inurba_marseille","lat":43.23214,"lon":5.35549,"is_reserved":false,"is_disabled":false,"rental_uris":{"android":"levelo://app?vid=4f439c6b-4554-4213-8983-cec78740d5f8","ios":"levelo://app?vid=4f439c6b-4554-4213-8983-cec78740d5f8"},"vehicle_type_id":"4","last_reported":1736435381,"current_range_meters":25600,"station_id":"ce4bhu92rcd13ifvqi70","pricing_plan_id":"cebpf4jnsgd1na2vs0mg"},{"bike_id":"ece82557-6569-4215-9027-5b44a37fe52e","system_id":"levelo_inurba_marseille","lat":43.29093,"lon":5.38018,"is_reserved":false,"is_disabled":true,"rental_uris":{"android":"levelo://app?vid=ece82557-6569-4215-9027-5b44a37fe52e","ios":"levelo://app?vid=ece82557-6569-4215-9027-5b44a37fe52e"},"vehicle_type_id":"4","last_reported":1736435381,"current_range_meters":0,"station_id":"","pricing_plan_id":"cebpf4jnsgd1na2vs0mg"},{"bike_id":"de711fd4-00fe-4608-ba1c-de62f0796dda","system_id":"levelo_inurba_marseille","lat":43.2842,"lon":5.3752,"is_reserved":false,"is_disabled":false,"rental_uris":{"android":"levelo://app?vid=de711fd4-00fe-4608-ba1c-de62f0796dda","ios":"levelo://app?vid=de711fd4-00fe-4608-ba1c-de62f0796dda"},"vehicle_type_id":"4","last_reported":1736435381,"current_range_meters":32400,"station_id":"ce4bh412rcd13ifvqds0","pricing_plan_id":"cebpf4jnsgd1na2vs0mg"},{"bike_id":"27867ec6-dc38-4e93-906a-9fa049ef4236","system_id":"levelo_inurba_marseille","lat":43.30552,"lon":5.36706,"is_reserved":false,"is_disabled":false,"rental_uris":{"android":"levelo://app?vid=27867ec6-dc38-4e93-906a-9fa049ef4236","ios":"levelo://app?vid=27867ec6-dc38-4e93-906a-9fa049ef4236"},"vehicle_type_id":"4","last_reported":1736435381,"current_range_meters":38800,"station_id":"ce4bgrp2rcd13ifvqc9g","pricing_plan_id":"cebpf4jnsgd1na2vs0mg"},{"bike_id":"dbf69a6d-88c5-42d2-b271-06c7a122ec44","system_id":"levelo_inurba_marseille","lat":43.29898,"lon":5.37468,"is_reserved":false,"is_disabled":true,"rental_uris":{"android":"levelo://app?vid=dbf69a6d-88c5-42d2-b271-06c7a122ec44","ios":"levelo://app?vid=dbf69a6d-88c5-42d2-b271-06c7a122ec44"},"vehicle_type_id":"4","last_reported":1736435381,"current_range_meters":0,"station_id":"ce4bgjh2rcd13ifvqbg0","pricing_plan_id":"cebpf4jnsgd1na2vs0mg"},{"bike_id":"7e633a1a-b31e-4f4c-ac99-ede151c7b7c5","system_id":"levelo_inurba_marseille","lat":43.27375,"lon":5.36249,"is_reserved":false,"is_disabled":false,"rental_uris":{"android":"levelo://app?vid=7e633a1a-b31e-4f4c-ac99-ede151c7b7c5","ios":"levelo://app?vid=7e633a1a-b31e-4f4c-ac99-ede151c7b7c5"},"vehicle_type_id":"4","last_reported":1736435381,"current_range_meters":17600,"station_id":"ce4bhbh2rcd13ifvqeo0","pricing_plan_id":"cebpf4jnsgd1na2vs0mg"},{"bike_id":"e5ae5768-3dcb-4f0f-ba65-26b56a33ed41","system_id":"levelo_inurba_marseille","lat":43.24092,"lon":5.37741,"is_reserved":false,"is_disabled":true,"rental_uris":{"android":"levelo://app?vid=e5ae5768-3dcb-4f0f-ba65-26b56a33ed41","ios":"levelo://app?vid=e5ae5768-3dcb-4f0f-ba65-26b56a33ed41"},"vehicle_type_id":"4","last_reported":1736435381,"current_range_meters":800,"station_id":"ce4bhnp2rcd13ifvqgvg","pricing_plan_id":"cebpf4jnsgd1na2vs0mg"},{"bike_id":"70d58a4c-ec75-4994-9019-a1127b4f9398","system_id":"levelo_inurba_marseille","lat":43.2942,"lon":5.38626,"is_reserved":false,"is_disabled":false,"rental_uris":{"android":"levelo://app?vid=70d58a4c-ec75-4994-9019-a1127b4f9398","ios":"levelo://app?vid=70d58a4c-ec75-4994-9019-a1127b4f9398"},"vehicle_type_id":"4","last_reported":1736435381,"current_range_meters":33600,"station_id":"ce4bh2h2rcd13ifvqdh0","pricing_plan_id":"cebpf4jnsgd1na2vs0mg"},{"bike_id":"004c2ac5-7f25-4e48-8a80-9a02537f6ba6","system_id":"levelo_inurba_marseille","lat":43.32121,"lon":5.36785,"is_reserved":false,"is_disabled":false,"rental_uris":{"android":"levelo://app?vid=004c2ac5-7f25-4e48-8a80-9a02537f6ba6","ios":"levelo://app?vid=004c2ac5-7f25-4e48-8a80-9a02537f6ba6"},"vehicle_type_id":"4","last_reported":1736435381,"current_range_meters":38800,"station_id":"ce4bhrh2rcd13ifvqhug","pricing_plan_id":"cebpf4jnsgd1na2vs0mg"},{"bike_id":"e9ca9ffc-62cf-4744-95c2-12b0950f0bdc","system_id":"levelo_inurba_marseille","lat":43.273067,"lon":5.391127,"is_reserved":false,"is_disabled":false,"rental_uris":{"android":"levelo://app?vid=e9ca9ffc-62cf-4744-95c2-12b0950f0bdc","ios":"levelo://app?vid=e9ca9ffc-62cf-4744-95c2-12b0950f0bdc"},"vehicle_type_id":"4","last_reported":1736435381,"current_range_meters":32400,"station_id":"ce4bhgp2rcd13ifvqfe0","pricing_plan_id":"cebpf4jnsgd1na2vs0mg"},{"bike_id":"acf3df7b-f083-4692-997a-4f534a4a5e66","system_id":"levelo_inurba_marseille","lat":43.28712,"lon":5.37941,"is_reserved":false,"is_disabled":false,"rental_uris":{"android":"levelo://app?vid=acf3df7b-f083-4692-997a-4f534a4a5e66","ios":"levelo://app?vid=acf3df7b-f083-4692-997a-4f534a4a5e66"},"vehicle_type_id":"4","last_reported":1736435381,"current_range_meters":31200,"station_id":"ce4bh9p2rcd13ifvqec0","pricing_plan_id":"cebpf4jnsgd1na2vs0mg"},{"bike_id":"99ed20f4-03db-4a39-a00a-188ecb3fb63a","system_id":"levelo_inurba_marseille","lat":43.23196,"lon":5.43667,"is_reserved":false,"is_disabled":false,"rental_uris":{"android":"levelo://app?vid=99ed20f4-03db-4a39-a00a-188ecb3fb63a","ios":"levelo://app?vid=99ed20f4-03db-4a39-a00a-188ecb3fb63a"},"vehicle_type_id":"4","last_reported":1736435381,"current_range_meters":38800,"station_id":"ce4bhmp2rcd13ifvqgog","pricing_plan_id":"cebpf4jnsgd1na2vs0mg"},{"bike_id":"8716db54-126d-408a-8960-149e8432745d","system_id":"levelo_inurba_marseille","lat":43.25994,"lon":5.40946,"is_reserved":false,"is_disabled":false,"rental_uris":{"android":"levelo://app?vid=8716db54-126d-408a-8960-149e8432745d","ios":"levelo://app?vid=8716db54-126d-408a-8960-149e8432745d"},"vehicle_type_id":"4","last_reported":1736435381,"current_range_meters":34000,"station_id":"","pricing_plan_id":"cebpf4jnsgd1na2vs0mg"},{"bike_id":"4bcbd14e-036d-4508-bf48-a8d7b67772d8","system_id":"levelo_inurba_marseille","lat":43.29268,"lon":5.38447,"is_reserved":false,"is_disabled":false,"rental_uris":{"android":"levelo://app?vid=4bcbd14e-036d-4508-bf48-a8d7b67772d8","ios":"levelo://app?vid=4bcbd14e-036d-4508-bf48-a8d7b67772d8"},"vehicle_type_id":"4","last_reported":1736435381,"current_range_meters":30800,"station_id":"ce4bh692rcd13ifvqea0","pricing_plan_id":"cebpf4jnsgd1na2vs0mg"},{"bike_id":"17c42b0d-cd52-4958-9e35-b9a316e54870","system_id":"levelo_inurba_marseille","lat":43.29589,"lon":5.38113,"is_reserved":false,"is_disabled":false,"rental_uris":{"android":"levelo://app?vid=17c42b0d-cd52-4958-9e35-b9a316e54870","ios":"levelo://app?vid=17c42b0d-cd52-4958-9e35-b9a316e54870"},"vehicle_type_id":"4","last_reported":1736435381,"current_range_meters":4400,"station_id":"ce4bgl12rcd13ifvqbo0","pricing_plan_id":"cebpf4jnsgd1na2vs0mg"},{"bike_id":"c75d4175-c9eb-4dc6-a6fe-60d1e39a072b","system_id":"levelo_inurba_marseille","lat":43.27448,"lon":5.39402,"is_reserved":false,"is_disabled":false,"rental_uris":{"android":"levelo://app?vid=c75d4175-c9eb-4dc6-a6fe-60d1e39a072b","ios":"levelo://app?vid=c75d4175-c9eb-4dc6-a6fe-60d1e39a072b"},"vehicle_type_id":"4","last_reported":1736435381,"current_range_meters":32000,"station_id":"ce4bhdp2rcd13ifvqf20","pricing_plan_id":"cebpf4jnsgd1na2vs0mg"},{"bike_id":"c59c87e6-421d-4251-89bb-d94aa90ce9ad","system_id":"levelo_inurba_marseille","lat":43.23151,"lon":5.43721,"is_reserved":false,"is_disabled":false,"rental_uris":{"android":"levelo://app?vid=c59c87e6-421d-4251-89bb-d94aa90ce9ad","ios":"levelo://app?vid=c59c87e6-421d-4251-89bb-d94aa90ce9ad"},"vehicle_type_id":"4","last_reported":1736435381,"current_range_meters":38800,"station_id":"ce4bhmp2rcd13ifvqgog","pricing_plan_id":"cebpf4jnsgd1na2vs0mg"},{"bike_id":"f0da7c67-89bc-42d5-8de1-b30e0113d6d0","system_id":"levelo_inurba_marseille","lat":43.29684,"lon":5.37287,"is_reserved":false,"is_disabled":false,"rental_uris":{"android":"levelo://app?vid=f0da7c67-89bc-42d5-8de1-b30e0113d6d0","ios":"levelo://app?vid=f0da7c67-89bc-42d5-8de1-b30e0113d6d0"},"vehicle_type_id":"4","last_reported":1736435381,"current_range_meters":38000,"station_id":"ce4bgk12rcd13ifvqbj0","pricing_plan_id":"cebpf4jnsgd1na2vs0mg"},{"bike_id":"f9c7acbd-5345-46d3-af4c-70b33f8a316e","system_id":"levelo_inurba_marseille","lat":43.27971,"lon":5.41668,"is_reserved":false,"is_disabled":true,"rental_uris":{"android":"levelo://app?vid=f9c7acbd-5345-46d3-af4c-70b33f8a316e","ios":"levelo://app?vid=f9c7acbd-5345-46d3-af4c-70b33f8a316e"},"vehicle_type_id":"4","last_reported":1736435381,"current_range_meters":16000,"station_id":"ce4bho12rcd13ifvqh1g","pricing_plan_id":"cebpf4jnsgd1na2vs0mg"},{"bike_id":"cca42cb0-3cf2-4e79-b830-5ebb5e0b64b4","system_id":"levelo_inurba_marseille","lat":43.29421,"lon":5.38624,"is_reserved":false,"is_disabled":false,"rental_uris":{"android":"levelo://app?vid=cca42cb0-3cf2-4e79-b830-5ebb5e0b64b4","ios":"levelo://app?vid=cca42cb0-3cf2-4e79-b830-5ebb5e0b64b4"},"vehicle_type_id":"4","last_reported":1736435381,"current_range_meters":17200,"station_id":"ce4bh2h2rcd13ifvqdh0","pricing_plan_id":"cebpf4jnsgd1na2vs0mg"},{"bike_id":"2634abfc-01f8-494a-a5bb-53a04091b575","system_id":"levelo_inurba_marseille","lat":43.32663,"lon":5.41,"is_reserved":false,"is_disabled":false,"rental_uris":{"android":"levelo://app?vid=2634abfc-01f8-494a-a5bb-53a04091b575","ios":"levelo://app?vid=2634abfc-01f8-494a-a5bb-53a04091b575"},"vehicle_type_id":"4","last_reported":1736435381,"current_range_meters":34800,"station_id":"ce4bhpp2rcd13ifvqhgg","pricing_plan_id":"cebpf4jnsgd1na2vs0mg"},{"bike_id":"67eebbdd-1551-4992-9741-a866f96bf22f","system_id":"levelo_inurba_marseille","lat":43.28358,"lon":5.38099,"is_reserved":false,"is_disabled":false,"rental_uris":{"android":"levelo://app?vid=67eebbdd-1551-4992-9741-a866f96bf22f","ios":"levelo://app?vid=67eebbdd-1551-4992-9741-a866f96bf22f"},"vehicle_type_id":"4","last_reported":1736435381,"current_range_meters":17600,"station_id":"ce4bh412rcd13ifvqdr0","pricing_plan_id":"cebpf4jnsgd1na2vs0mg"},{"bike_id":"fbc948fd-800b-47a4-b506-9bfa509551bf","system_id":"levelo_inurba_marseille","lat":43.29314,"lon":5.37172,"is_reserved":false,"is_disabled":false,"rental_uris":{"android":"levelo://app?vid=fbc948fd-800b-47a4-b506-9bfa509551bf","ios":"levelo://app?vid=fbc948fd-800b-47a4-b506-9bfa509551bf"},"vehicle_type_id":"4","last_reported":1736435381,"current_range_meters":35600,"station_id":"ce4bhb12rcd13ifvqel0","pricing_plan_id":"cebpf4jnsgd1na2vs0mg"},{"bike_id":"64b15e4f-4089-45af-9b53-9a7fa82abf72","system_id":"levelo_inurba_marseille","lat":43.28425,"lon":5.34982,"is_reserved":false,"is_disabled":false,"rental_uris":{"android":"levelo://app?vid=64b15e4f-4089-45af-9b53-9a7fa82abf72","ios":"levelo://app?vid=64b15e4f-4089-45af-9b53-9a7fa82abf72"},"vehicle_type_id":"4","last_reported":1736435381,"current_range_meters":38000,"station_id":"ce4bhbh2rcd13ifvqepg","pricing_plan_id":"cebpf4jnsgd1na2vs0mg"},{"bike_id":"feeeae9a-4bcc-477a-bc8c-e9391fa8aedd","system_id":"levelo_inurba_marseille","lat":43.29179,"lon":5.39322,"is_reserved":false,"is_disabled":true,"rental_uris":{"android":"levelo://app?vid=feeeae9a-4bcc-477a-bc8c-e9391fa8aedd","ios":"levelo://app?vid=feeeae9a-4bcc-477a-bc8c-e9391fa8aedd"},"vehicle_type_id":"4","last_reported":1736435381,"current_range_meters":0,"station_id":"ce4bh192rcd13ifvqdd0","pricing_plan_id":"cebpf4jnsgd1na2vs0mg"},{"bike_id":"bbb42691-618e-438b-93dc-2acd2c34e075","system_id":"levelo_inurba_marseille","lat":43.30796,"lon":5.435249,"is_reserved":false,"is_disabled":false,"rental_uris":{"android":"levelo://app?vid=bbb42691-618e-438b-93dc-2acd2c34e075","ios":"levelo://app?vid=bbb42691-618e-438b-93dc-2acd2c34e075"},"vehicle_type_id":"4","last_reported":1736435381,"current_range_meters":38800,"station_id":"ce4bhph2rcd13ifvqheg","pricing_plan_id":"cebpf4jnsgd1na2vs0mg"},{"bike_id":"dbe4d7d2-95f9-4a28-b000-f9ac7c3f52eb","system_id":"levelo_inurba_marseille","lat":43.2921,"lon":5.39316,"is_reserved":false,"is_disabled":true,"rental_uris":{"android":"levelo://app?vid=dbe4d7d2-95f9-4a28-b000-f9ac7c3f52eb","ios":"levelo://app?vid=dbe4d7d2-95f9-4a28-b000-f9ac7c3f52eb"},"vehicle_type_id":"4","last_reported":1736435381,"current_range_meters":0,"station_id":"ce4bh192rcd13ifvqdd0","pricing_plan_id":"cebpf4jnsgd1na2vs0mg"},{"bike_id":"10863837-e66d-4ce3-be4e-82d45dfa8bfa","system_id":"levelo_inurba_marseille","lat":43.29902,"lon":5.38142,"is_reserved":false,"is_disabled":false,"rental_uris":{"android":"levelo://app?vid=10863837-e66d-4ce3-be4e-82d45dfa8bfa","ios":"levelo://app?vid=10863837-e66d-4ce3-be4e-82d45dfa8bfa"},"vehicle_type_id":"4","last_reported":1736435381,"current_range_meters":18000,"station_id":"ce4bgj12rcd13ifvqbc0","pricing_plan_id":"cebpf4jnsgd1na2vs0mg"},{"bike_id":"bc51dc04-a6f6-46bc-8627-1954fd72d704","system_id":"levelo_inurba_marseille","lat":43.309,"lon":5.36871,"is_reserved":false,"is_disabled":false,"rental_uris":{"android":"levelo://app?vid=bc51dc04-a6f6-46bc-8627-1954fd72d704","ios":"levelo://app?vid=bc51dc04-a6f6-46bc-8627-1954fd72d704"},"vehicle_type_id":"4","last_reported":1736435381,"current_range_meters":38800,"station_id":"ce4bgn92rcd13ifvqbvg","pricing_plan_id":"cebpf4jnsgd1na2vs0mg"},{"bike_id":"21ac5e54-b86e-470f-a57e-12ed6c77d304","system_id":"levelo_inurba_marseille","lat":43.30416,"lon":5.41289,"is_reserved":false,"is_disabled":false,"rental_uris":{"android":"levelo://app?vid=21ac5e54-b86e-470f-a57e-12ed6c77d304","ios":"levelo://app?vid=21ac5e54-b86e-470f-a57e-12ed6c77d304"},"vehicle_type_id":"4","last_reported":1736435381,"current_range_meters":19600,"station_id":"ce4bhop2rcd13ifvqh8g","pricing_plan_id":"cebpf4jnsgd1na2vs0mg"},{"bike_id":"850c8c32-31ea-45fe-8c48-610c59d15175","system_id":"levelo_inurba_marseille","lat":43.25576,"lon":5.3822,"is_reserved":false,"is_disabled":false,"rental_uris":{"android":"levelo://app?vid=850c8c32-31ea-45fe-8c48-610c59d15175","ios":"levelo://app?vid=850c8c32-31ea-45fe-8c48-610c59d15175"},"vehicle_type_id":"4","last_reported":1736435381,"current_range_meters":38800,"station_id":"ce4bhih2rcd13ifvqfs0","pricing_plan_id":"cebpf4jnsgd1na2vs0mg"},{"bike_id":"bb574482-1966-4a4c-94fd-4f6844db76aa","system_id":"levelo_inurba_marseille","lat":43.25601,"lon":5.38236,"is_reserved":false,"is_disabled":false,"rental_uris":{"android":"levelo://app?vid=bb574482-1966-4a4c-94fd-4f6844db76aa","ios":"levelo://app?vid=bb574482-1966-4a4c-94fd-4f6844db76aa"},"vehicle_type_id":"4","last_reported":1736435381,"current_range_meters":30400,"station_id":"ce4bhih2rcd13ifvqfs0","pricing_plan_id":"cebpf4jnsgd1na2vs0mg"},{"bike_id":"dc68a765-9bcf-4be4-9f8a-3d55ce3bbd60","system_id":"levelo_inurba_marseille","lat":43.26786,"lon":5.39419,"is_reserved":false,"is_disabled":false,"rental_uris":{"android":"levelo://app?vid=dc68a765-9bcf-4be4-9f8a-3d55ce3bbd60","ios":"levelo://app?vid=dc68a765-9bcf-4be4-9f8a-3d55ce3bbd60"},"vehicle_type_id":"4","last_reported":1736435381,"current_range_meters":25600,"station_id":"ce4bhh12rcd13ifvqfg0","pricing_plan_id":"cebpf4jnsgd1na2vs0mg"},{"bike_id":"4e491390-63a3-4127-bd2a-135d511ec258","system_id":"levelo_inurba_marseille","lat":43.26947,"lon":5.38627,"is_reserved":false,"is_disabled":false,"rental_uris":{"android":"levelo://app?vid=4e491390-63a3-4127-bd2a-135d511ec258","ios":"levelo://app?vid=4e491390-63a3-4127-bd2a-135d511ec258"},"vehicle_type_id":"4","last_reported":1736435381,"current_range_meters":7200,"station_id":"ce4bhh92rcd13ifvqfh0","pricing_plan_id":"cebpf4jnsgd1na2vs0mg"},{"bike_id":"4f608113-602b-4fcd-a2fb-5a45e549eb1e","system_id":"levelo_inurba_marseille","lat":43.31491,"lon":5.37309,"is_reserved":false,"is_disabled":false,"rental_uris":{"android":"levelo://app?vid=4f608113-602b-4fcd-a2fb-5a45e549eb1e","ios":"levelo://app?vid=4f608113-602b-4fcd-a2fb-5a45e549eb1e"},"vehicle_type_id":"4","last_reported":1736435381,"current_range_meters":33200,"station_id":"ce4bgt12rcd13ifvqcd0","pricing_plan_id":"cebpf4jnsgd1na2vs0mg"},{"bike_id":"07e82d96-2b36-4368-a217-0bee627ae6e1","system_id":"levelo_inurba_marseille","lat":43.30533,"lon":5.36557,"is_reserved":false,"is_disabled":false,"rental_uris":{"android":"levelo://app?vid=07e82d96-2b36-4368-a217-0bee627ae6e1","ios":"levelo://app?vid=07e82d96-2b36-4368-a217-0bee627ae6e1"},"vehicle_type_id":"4","last_reported":1736435381,"current_range_meters":36400,"station_id":"ce4bgs12rcd13ifvqcag","pricing_plan_id":"cebpf4jnsgd1na2vs0mg"},{"bike_id":"e752ded6-6fdb-4c56-b252-c79f0149665e","system_id":"levelo_inurba_marseille","lat":43.26571,"lon":5.39013,"is_reserved":false,"is_disabled":false,"rental_uris":{"android":"levelo://app?vid=e752ded6-6fdb-4c56-b252-c79f0149665e","ios":"levelo://app?vid=e752ded6-6fdb-4c56-b252-c79f0149665e"},"vehicle_type_id":"4","last_reported":1736435381,"current_range_meters":28800,"station_id":"ce4bhe12rcd13ifvqf30","pricing_plan_id":"cebpf4jnsgd1na2vs0mg"},{"bike_id":"a816258e-3246-4099-b421-3c9b784b731d","system_id":"levelo_inurba_marseille","lat":43.24194,"lon":5.39693,"is_reserved":false,"is_disabled":false,"rental_uris":{"android":"levelo://app?vid=a816258e-3246-4099-b421-3c9b784b731d","ios":"levelo://app?vid=a816258e-3246-4099-b421-3c9b784b731d"},"vehicle_type_id":"4","last_reported":1736435381,"current_range_meters":38800,"station_id":"ce4bhn12rcd13ifvqgpg","pricing_plan_id":"cebpf4jnsgd1na2vs0mg"},{"bike_id":"b1ff03aa-5a34-4190-b780-a63ebad8a633","system_id":"levelo_inurba_marseille","lat":43.29424,"lon":5.3863,"is_reserved":false,"is_disabled":false,"rental_uris":{"android":"levelo://app?vid=b1ff03aa-5a34-4190-b780-a63ebad8a633","ios":"levelo://app?vid=b1ff03aa-5a34-4190-b780-a63ebad8a633"},"vehicle_type_id":"4","last_reported":1736435381,"current_range_meters":28800,"station_id":"ce4bh2h2rcd13ifvqdh0","pricing_plan_id":"cebpf4jnsgd1na2vs0mg"},{"bike_id":"854fb3d8-2739-44b8-9230-f7dd4d7bebe4","system_id":"levelo_inurba_marseille","lat":43.30888,"lon":5.39659,"is_reserved":false,"is_disabled":false,"rental_uris":{"android":"levelo://app?vid=854fb3d8-2739-44b8-9230-f7dd4d7bebe4","ios":"levelo://app?vid=854fb3d8-2739-44b8-9230-f7dd4d7bebe4"},"vehicle_type_id":"4","last_reported":1736435381,"current_range_meters":19200,"station_id":"ce4bh012rcd13ifvqcv0","pricing_plan_id":"cebpf4jnsgd1na2vs0mg"},{"bike_id":"4c4b803a-8067-4208-8a52-209170454aea","system_id":"levelo_inurba_marseille","lat":43.30193,"lon":5.39439,"is_reserved":false,"is_disabled":false,"rental_uris":{"android":"levelo://app?vid=4c4b803a-8067-4208-8a52-209170454aea","ios":"levelo://app?vid=4c4b803a-8067-4208-8a52-209170454aea"},"vehicle_type_id":"4","last_reported":1736435381,"current_range_meters":29600,"station_id":"ce4bh0p2rcd13ifvqd70","pricing_plan_id":"cebpf4jnsgd1na2vs0mg"},{"bike_id":"b2f5a796-7933-46f1-9a54-868543f46da7","system_id":"levelo_inurba_marseille","lat":43.23134,"lon":5.43747,"is_reserved":false,"is_disabled":false,"rental_uris":{"android":"levelo://app?vid=b2f5a796-7933-46f1-9a54-868543f46da7","ios":"levelo://app?vid=b2f5a796-7933-46f1-9a54-868543f46da7"},"vehicle_type_id":"4","last_reported":1736435381,"current_range_meters":32000,"station_id":"","pricing_plan_id":"cebpf4jnsgd1na2vs0mg"},{"bike_id":"f95faca0-6ebf-4d1d-86d7-c181df75653d","system_id":"levelo_inurba_marseille","lat":43.27682,"lon":5.3887,"is_reserved":false,"is_disabled":false,"rental_uris":{"android":"levelo://app?vid=f95faca0-6ebf-4d1d-86d7-c181df75653d","ios":"levelo://app?vid=f95faca0-6ebf-4d1d-86d7-c181df75653d"},"vehicle_type_id":"4","last_reported":1736435381,"current_range_meters":27200,"station_id":"ce4bhi12rcd13ifvqfo0","pricing_plan_id":"cebpf4jnsgd1na2vs0mg"},{"bike_id":"38d0c53e-a765-4eb8-9fcf-204c9744ffd4","system_id":"levelo_inurba_marseille","lat":43.26202,"lon":5.37922,"is_reserved":false,"is_disabled":false,"rental_uris":{"android":"levelo://app?vid=38d0c53e-a765-4eb8-9fcf-204c9744ffd4","ios":"levelo://app?vid=38d0c53e-a765-4eb8-9fcf-204c9744ffd4"},"vehicle_type_id":"4","last_reported":1736435381,"current_range_meters":28800,"station_id":"ce4bhjp2rcd13ifvqg90","pricing_plan_id":"cebpf4jnsgd1na2vs0mg"},{"bike_id":"8e90ed06-28d2-46d9-8d8f-f5e9bc21030d","system_id":"levelo_inurba_marseille","lat":43.2857,"lon":5.39492,"is_reserved":false,"is_disabled":false,"rental_uris":{"android":"levelo://app?vid=8e90ed06-28d2-46d9-8d8f-f5e9bc21030d","ios":"levelo://app?vid=8e90ed06-28d2-46d9-8d8f-f5e9bc21030d"},"vehicle_type_id":"4","last_reported":1736435381,"current_range_meters":30400,"station_id":"ce4bh292rcd13ifvqdg0","pricing_plan_id":"cebpf4jnsgd1na2vs0mg"},{"bike_id":"2efead72-824c-45ef-8cf3-b657af317181","system_id":"levelo_inurba_marseille","lat":43.29846,"lon":5.36295,"is_reserved":false,"is_disabled":false,"rental_uris":{"android":"levelo://app?vid=2efead72-824c-45ef-8cf3-b657af317181","ios":"levelo://app?vid=2efead72-824c-45ef-8cf3-b657af317181"},"vehicle_type_id":"4","last_reported":1736435381,"current_range_meters":38800,"station_id":"ce4bgpp2rcd13ifvqc3g","pricing_plan_id":"cebpf4jnsgd1na2vs0mg"},{"bike_id":"5ae4301f-30a3-453b-96e7-45a8c5425f2b","system_id":"levelo_inurba_marseille","lat":43.30877,"lon":5.39624,"is_reserved":false,"is_disabled":false,"rental_uris":{"android":"levelo://app?vid=5ae4301f-30a3-453b-96e7-45a8c5425f2b","ios":"levelo://app?vid=5ae4301f-30a3-453b-96e7-45a8c5425f2b"},"vehicle_type_id":"4","last_reported":1736435381,"current_range_meters":39200,"station_id":"ce4bh012rcd13ifvqcv0","pricing_plan_id":"cebpf4jnsgd1na2vs0mg"},{"bike_id":"3965b4bc-83b0-48b6-8bba-edbef38dd6c5","system_id":"levelo_inurba_marseille","lat":43.294163,"lon":5.386079,"is_reserved":false,"is_disabled":false,"rental_uris":{"android":"levelo://app?vid=3965b4bc-83b0-48b6-8bba-edbef38dd6c5","ios":"levelo://app?vid=3965b4bc-83b0-48b6-8bba-edbef38dd6c5"},"vehicle_type_id":"4","last_reported":1736435381,"current_range_meters":37600,"station_id":"ce4bh2h2rcd13ifvqdh0","pricing_plan_id":"cebpf4jnsgd1na2vs0mg"},{"bike_id":"24181dd3-0787-4379-b3c6-dd5adf68524c","system_id":"levelo_inurba_marseille","lat":43.30427,"lon":5.38885,"is_reserved":false,"is_disabled":false,"rental_uris":{"android":"levelo://app?vid=24181dd3-0787-4379-b3c6-dd5adf68524c","ios":"levelo://app?vid=24181dd3-0787-4379-b3c6-dd5adf68524c"},"vehicle_type_id":"4","last_reported":1736435381,"current_range_meters":33200,"station_id":"ce4bgk12rcd13ifvqbi0","pricing_plan_id":"cebpf4jnsgd1na2vs0mg"},{"bike_id":"d0b63980-ee75-4159-99b8-45fbe5cb8173","system_id":"levelo_inurba_marseille","lat":43.28495,"lon":5.38536,"is_reserved":false,"is_disabled":false,"rental_uris":{"android":"levelo://app?vid=d0b63980-ee75-4159-99b8-45fbe5cb8173","ios":"levelo://app?vid=d0b63980-ee75-4159-99b8-45fbe5cb8173"},"vehicle_type_id":"4","last_reported":1736435381,"current_range_meters":31200,"station_id":"ce4bh8p2rcd13ifvqeb0","pricing_plan_id":"cebpf4jnsgd1na2vs0mg"},{"bike_id":"bddc92f9-418c-42a4-b603-fd1aa029af3b","system_id":"levelo_inurba_marseille","lat":43.30606,"lon":5.37229,"is_reserved":false,"is_disabled":false,"rental_uris":{"android":"levelo://app?vid=bddc92f9-418c-42a4-b603-fd1aa029af3b","ios":"levelo://app?vid=bddc92f9-418c-42a4-b603-fd1aa029af3b"},"vehicle_type_id":"4","last_reported":1736435381,"current_range_meters":30400,"station_id":"ce4bgqh2rcd13ifvqc4g","pricing_plan_id":"cebpf4jnsgd1na2vs0mg"},{"bike_id":"ef55feca-657c-488b-9e32-b2fe658b0af8","system_id":"levelo_inurba_marseille","lat":43.27211,"lon":5.39135,"is_reserved":false,"is_disabled":false,"rental_uris":{"android":"levelo://app?vid=ef55feca-657c-488b-9e32-b2fe658b0af8","ios":"levelo://app?vid=ef55feca-657c-488b-9e32-b2fe658b0af8"},"vehicle_type_id":"4","last_reported":1736435381,"current_range_meters":38400,"station_id":"ce4bhhp2rcd13ifvqfm0","pricing_plan_id":"cebpf4jnsgd1na2vs0mg"},{"bike_id":"3ab8d55f-cd99-43b5-8de5-aca855307202","system_id":"levelo_inurba_marseille","lat":43.31691,"lon":5.40473,"is_reserved":false,"is_disabled":false,"rental_uris":{"android":"levelo://app?vid=3ab8d55f-cd99-43b5-8de5-aca855307202","ios":"levelo://app?vid=3ab8d55f-cd99-43b5-8de5-aca855307202"},"vehicle_type_id":"4","last_reported":1736435381,"current_range_meters":12400,"station_id":"ce4bh012rcd13ifvqd00","pricing_plan_id":"cebpf4jnsgd1na2vs0mg"},{"bike_id":"4445bdac-50b8-4b63-9a1d-60360f86ae93","system_id":"levelo_inurba_marseille","lat":43.31089,"lon":5.42425,"is_reserved":false,"is_disabled":false,"rental_uris":{"android":"levelo://app?vid=4445bdac-50b8-4b63-9a1d-60360f86ae93","ios":"levelo://app?vid=4445bdac-50b8-4b63-9a1d-60360f86ae93"},"vehicle_type_id":"4","last_reported":1736435381,"current_range_meters":12000,"station_id":"ce4bhp92rcd13ifvqhag","pricing_plan_id":"cebpf4jnsgd1na2vs0mg"},{"bike_id":"7e647b87-ee39-48c8-8a57-8ca415c7293d","system_id":"levelo_inurba_marseille","lat":43.230535,"lon":5.354975,"is_reserved":false,"is_disabled":false,"rental_uris":{"android":"levelo://app?vid=7e647b87-ee39-48c8-8a57-8ca415c7293d","ios":"levelo://app?vid=7e647b87-ee39-48c8-8a57-8ca415c7293d"},"vehicle_type_id":"4","last_reported":1736435381,"current_range_meters":33200,"station_id":"cpo3342slgdg3j2ifvpg","pricing_plan_id":"cebpf4jnsgd1na2vs0mg"},{"bike_id":"a0df9193-55f6-4a03-826a-744e803b6ed4","system_id":"levelo_inurba_marseille","lat":43.24684,"lon":5.38145,"is_reserved":false,"is_disabled":false,"rental_uris":{"android":"levelo://app?vid=a0df9193-55f6-4a03-826a-744e803b6ed4","ios":"levelo://app?vid=a0df9193-55f6-4a03-826a-744e803b6ed4"},"vehicle_type_id":"4","last_reported":1736435381,"current_range_meters":32000,"station_id":"ce4bhih2rcd13ifvqfr0","pricing_plan_id":"cebpf4jnsgd1na2vs0mg"},{"bike_id":"b3235d33-613c-4817-b2d7-f386fe4e079a","system_id":"levelo_inurba_marseille","lat":43.30926,"lon":5.3686,"is_reserved":false,"is_disabled":false,"rental_uris":{"android":"levelo://app?vid=b3235d33-613c-4817-b2d7-f386fe4e079a","ios":"levelo://app?vid=b3235d33-613c-4817-b2d7-f386fe4e079a"},"vehicle_type_id":"4","last_reported":1736435381,"current_range_meters":28400,"station_id":"ce4bgn92rcd13ifvqbvg","pricing_plan_id":"cebpf4jnsgd1na2vs0mg"},{"bike_id":"1f50cc2d-c6ef-46fb-9c7f-27b6608a6555","system_id":"levelo_inurba_marseille","lat":43.30916,"lon":5.3685,"is_reserved":false,"is_disabled":false,"rental_uris":{"android":"levelo://app?vid=1f50cc2d-c6ef-46fb-9c7f-27b6608a6555","ios":"levelo://app?vid=1f50cc2d-c6ef-46fb-9c7f-27b6608a6555"},"vehicle_type_id":"4","last_reported":1736435381,"current_range_meters":31200,"station_id":"ce4bgn92rcd13ifvqbvg","pricing_plan_id":"cebpf4jnsgd1na2vs0mg"},{"bike_id":"dab7b5a4-fd32-4a18-b0de-c0293e64c27b","system_id":"levelo_inurba_marseille","lat":43.30298,"lon":5.37708,"is_reserved":false,"is_disabled":false,"rental_uris":{"android":"levelo://app?vid=dab7b5a4-fd32-4a18-b0de-c0293e64c27b","ios":"levelo://app?vid=dab7b5a4-fd32-4a18-b0de-c0293e64c27b"},"vehicle_type_id":"4","last_reported":1736435381,"current_range_meters":38400,"station_id":"ce4bguh2rcd13ifvqcj0","pricing_plan_id":"cebpf4jnsgd1na2vs0mg"},{"bike_id":"8b3f1b37-2108-4da6-b739-d9638408221c","system_id":"levelo_inurba_marseille","lat":43.28411,"lon":5.37507,"is_reserved":false,"is_disabled":false,"rental_uris":{"android":"levelo://app?vid=8b3f1b37-2108-4da6-b739-d9638408221c","ios":"levelo://app?vid=8b3f1b37-2108-4da6-b739-d9638408221c"},"vehicle_type_id":"4","last_reported":1736435381,"current_range_meters":34000,"station_id":"ce4bh412rcd13ifvqds0","pricing_plan_id":"cebpf4jnsgd1na2vs0mg"},{"bike_id":"95080515-c909-4d80-b47e-bd910cceccba","system_id":"levelo_inurba_marseille","lat":43.27404,"lon":5.39402,"is_reserved":false,"is_disabled":false,"rental_uris":{"android":"levelo://app?vid=95080515-c909-4d80-b47e-bd910cceccba","ios":"levelo://app?vid=95080515-c909-4d80-b47e-bd910cceccba"},"vehicle_type_id":"4","last_reported":1736435381,"current_range_meters":6800,"station_id":"ce4bhdp2rcd13ifvqf20","pricing_plan_id":"cebpf4jnsgd1na2vs0mg"},{"bike_id":"9a0c6ba7-d54a-431a-a3e0-f5987cae63fe","system_id":"levelo_inurba_marseille","lat":43.30943,"lon":5.40146,"is_reserved":false,"is_disabled":false,"rental_uris":{"android":"levelo://app?vid=9a0c6ba7-d54a-431a-a3e0-f5987cae63fe","ios":"levelo://app?vid=9a0c6ba7-d54a-431a-a3e0-f5987cae63fe"},"vehicle_type_id":"4","last_reported":1736435381,"current_range_meters":11200,"station_id":"ce4bgvp2rcd13ifvqct0","pricing_plan_id":"cebpf4jnsgd1na2vs0mg"},{"bike_id":"73ea2294-304a-4239-9dec-907efb67650c","system_id":"levelo_inurba_marseille","lat":43.30551,"lon":5.36522,"is_reserved":false,"is_disabled":false,"rental_uris":{"android":"levelo://app?vid=73ea2294-304a-4239-9dec-907efb67650c","ios":"levelo://app?vid=73ea2294-304a-4239-9dec-907efb67650c"},"vehicle_type_id":"4","last_reported":1736435381,"current_range_meters":23200,"station_id":"ce4bgs12rcd13ifvqcag","pricing_plan_id":"cebpf4jnsgd1na2vs0mg"},{"bike_id":"4c08a384-a1d9-4f1d-b004-e4beec10ac44","system_id":"levelo_inurba_marseille","lat":43.25116,"lon":5.40322,"is_reserved":false,"is_disabled":false,"rental_uris":{"android":"levelo://app?vid=4c08a384-a1d9-4f1d-b004-e4beec10ac44","ios":"levelo://app?vid=4c08a384-a1d9-4f1d-b004-e4beec10ac44"},"vehicle_type_id":"4","last_reported":1736435381,"current_range_meters":14800,"station_id":"ce4bhlh2rcd13ifvqgig","pricing_plan_id":"cebpf4jnsgd1na2vs0mg"},{"bike_id":"2ae0350c-b656-46dc-8589-99337fa57bba","system_id":"levelo_inurba_marseille","lat":43.30541,"lon":5.36703,"is_reserved":false,"is_disabled":false,"rental_uris":{"android":"levelo://app?vid=2ae0350c-b656-46dc-8589-99337fa57bba","ios":"levelo://app?vid=2ae0350c-b656-46dc-8589-99337fa57bba"},"vehicle_type_id":"4","last_reported":1736435381,"current_range_meters":38400,"station_id":"ce4bgrp2rcd13ifvqc9g","pricing_plan_id":"cebpf4jnsgd1na2vs0mg"},{"bike_id":"48a87bca-d525-453d-8aaf-673ab33c0ab7","system_id":"levelo_inurba_marseille","lat":43.25495,"lon":5.37647,"is_reserved":false,"is_disabled":false,"rental_uris":{"android":"levelo://app?vid=48a87bca-d525-453d-8aaf-673ab33c0ab7","ios":"levelo://app?vid=48a87bca-d525-453d-8aaf-673ab33c0ab7"},"vehicle_type_id":"4","last_reported":1736435381,"current_range_meters":24000,"station_id":"ce4bhh12rcd13ifvqff0","pricing_plan_id":"cebpf4jnsgd1na2vs0mg"},{"bike_id":"d869e99a-5247-447b-b0a6-048f0b878487","system_id":"levelo_inurba_marseille","lat":43.29798,"lon":5.38074,"is_reserved":false,"is_disabled":false,"rental_uris":{"android":"levelo://app?vid=d869e99a-5247-447b-b0a6-048f0b878487","ios":"levelo://app?vid=d869e99a-5247-447b-b0a6-048f0b878487"},"vehicle_type_id":"4","last_reported":1736435381,"current_range_meters":38800,"station_id":"ce4bgip2rcd13ifvqbb0","pricing_plan_id":"cebpf4jnsgd1na2vs0mg"},{"bike_id":"fccbecdc-7f6b-4c85-b510-cd5a92912b79","system_id":"levelo_inurba_marseille","lat":43.29673,"lon":5.3729,"is_reserved":false,"is_disabled":false,"rental_uris":{"android":"levelo://app?vid=fccbecdc-7f6b-4c85-b510-cd5a92912b79","ios":"levelo://app?vid=fccbecdc-7f6b-4c85-b510-cd5a92912b79"},"vehicle_type_id":"4","last_reported":1736435381,"current_range_meters":38800,"station_id":"ce4bgk12rcd13ifvqbj0","pricing_plan_id":"cebpf4jnsgd1na2vs0mg"},{"bike_id":"2d1536de-ed9a-4813-bbd6-10bda74ca621","system_id":"levelo_inurba_marseille","lat":43.248,"lon":5.37445,"is_reserved":false,"is_disabled":false,"rental_uris":{"android":"levelo://app?vid=2d1536de-ed9a-4813-bbd6-10bda74ca621","ios":"levelo://app?vid=2d1536de-ed9a-4813-bbd6-10bda74ca621"},"vehicle_type_id":"4","last_reported":1736435381,"current_range_meters":37600,"station_id":"ce4bhgh2rcd13ifvqfb0","pricing_plan_id":"cebpf4jnsgd1na2vs0mg"},{"bike_id":"dd95b172-24fd-4056-9bb1-1ba37d74b460","system_id":"levelo_inurba_marseille","lat":43.2559,"lon":5.38229,"is_reserved":false,"is_disabled":false,"rental_uris":{"android":"levelo://app?vid=dd95b172-24fd-4056-9bb1-1ba37d74b460","ios":"levelo://app?vid=dd95b172-24fd-4056-9bb1-1ba37d74b460"},"vehicle_type_id":"4","last_reported":1736435381,"current_range_meters":19600,"station_id":"ce4bhih2rcd13ifvqfs0","pricing_plan_id":"cebpf4jnsgd1na2vs0mg"},{"bike_id":"c805142b-1ce4-4316-aec5-0d0e6e7f344d","system_id":"levelo_inurba_marseille","lat":43.295479,"lon":5.422856,"is_reserved":false,"is_disabled":false,"rental_uris":{"android":"levelo://app?vid=c805142b-1ce4-4316-aec5-0d0e6e7f344d","ios":"levelo://app?vid=c805142b-1ce4-4316-aec5-0d0e6e7f344d"},"vehicle_type_id":"4","last_reported":1736435381,"current_range_meters":32400,"station_id":"ce4bhph2rcd13ifvqhdg","pricing_plan_id":"cebpf4jnsgd1na2vs0mg"},{"bike_id":"2d1407f8-7a0a-4438-a238-ab6db6fdea21","system_id":"levelo_inurba_marseille","lat":43.310705,"lon":5.38362,"is_reserved":false,"is_disabled":false,"rental_uris":{"android":"levelo://app?vid=2d1407f8-7a0a-4438-a238-ab6db6fdea21","ios":"levelo://app?vid=2d1407f8-7a0a-4438-a238-ab6db6fdea21"},"vehicle_type_id":"4","last_reported":1736435381,"current_range_meters":28800,"station_id":"ce4bgv92rcd13ifvqcr0","pricing_plan_id":"cebpf4jnsgd1na2vs0mg"},{"bike_id":"1565e8de-a7c0-4b5d-bab6-a5c2edfdb606","system_id":"levelo_inurba_marseille","lat":43.29706,"lon":5.37703,"is_reserved":false,"is_disabled":false,"rental_uris":{"android":"levelo://app?vid=1565e8de-a7c0-4b5d-bab6-a5c2edfdb606","ios":"levelo://app?vid=1565e8de-a7c0-4b5d-bab6-a5c2edfdb606"},"vehicle_type_id":"4","last_reported":1736435381,"current_range_meters":36400,"station_id":"ce4bgkh2rcd13ifvqbl0","pricing_plan_id":"cebpf4jnsgd1na2vs0mg"},{"bike_id":"3b4478aa-aa08-44e3-8c3e-0ca0badb5e7a","system_id":"levelo_inurba_marseille","lat":43.31329,"lon":5.39692,"is_reserved":false,"is_disabled":false,"rental_uris":{"android":"levelo://app?vid=3b4478aa-aa08-44e3-8c3e-0ca0badb5e7a","ios":"levelo://app?vid=3b4478aa-aa08-44e3-8c3e-0ca0badb5e7a"},"vehicle_type_id":"4","last_reported":1736435381,"current_range_meters":8400,"station_id":"ce4bgvp2rcd13ifvqcu0","pricing_plan_id":"cebpf4jnsgd1na2vs0mg"},{"bike_id":"23abe2bf-84e3-41fe-972c-4918ef8d82a9","system_id":"levelo_inurba_marseille","lat":43.27211,"lon":5.39175,"is_reserved":false,"is_disabled":false,"rental_uris":{"android":"levelo://app?vid=23abe2bf-84e3-41fe-972c-4918ef8d82a9","ios":"levelo://app?vid=23abe2bf-84e3-41fe-972c-4918ef8d82a9"},"vehicle_type_id":"4","last_reported":1736435381,"current_range_meters":38000,"station_id":"ce4bhhp2rcd13ifvqfm0","pricing_plan_id":"cebpf4jnsgd1na2vs0mg"},{"bike_id":"8bae5f33-78f7-4346-b7d2-3626418fa38c","system_id":"levelo_inurba_marseille","lat":43.23187,"lon":5.3554,"is_reserved":false,"is_disabled":false,"rental_uris":{"android":"levelo://app?vid=8bae5f33-78f7-4346-b7d2-3626418fa38c","ios":"levelo://app?vid=8bae5f33-78f7-4346-b7d2-3626418fa38c"},"vehicle_type_id":"4","last_reported":1736435381,"current_range_meters":7200,"station_id":"ce4bhu92rcd13ifvqi70","pricing_plan_id":"cebpf4jnsgd1na2vs0mg"},{"bike_id":"98acfbe9-5036-4f04-be90-e65f01ce50b5","system_id":"levelo_inurba_marseille","lat":43.24095,"lon":5.37741,"is_reserved":false,"is_disabled":false,"rental_uris":{"android":"levelo://app?vid=98acfbe9-5036-4f04-be90-e65f01ce50b5","ios":"levelo://app?vid=98acfbe9-5036-4f04-be90-e65f01ce50b5"},"vehicle_type_id":"4","last_reported":1736435381,"current_range_meters":24800,"station_id":"ce4bhnp2rcd13ifvqgvg","pricing_plan_id":"cebpf4jnsgd1na2vs0mg"},{"bike_id":"58318a90-7640-4f3f-b193-62a2764b3df1","system_id":"levelo_inurba_marseille","lat":43.23198,"lon":5.3555,"is_reserved":false,"is_disabled":false,"rental_uris":{"android":"levelo://app?vid=58318a90-7640-4f3f-b193-62a2764b3df1","ios":"levelo://app?vid=58318a90-7640-4f3f-b193-62a2764b3df1"},"vehicle_type_id":"4","last_reported":1736435381,"current_range_meters":12800,"station_id":"ce4bhu92rcd13ifvqi70","pricing_plan_id":"cebpf4jnsgd1na2vs0mg"},{"bike_id":"7525d5bc-d5cb-4998-a508-14f64c28c58c","system_id":"levelo_inurba_marseille","lat":43.25865,"lon":5.39882,"is_reserved":false,"is_disabled":false,"rental_uris":{"android":"levelo://app?vid=7525d5bc-d5cb-4998-a508-14f64c28c58c","ios":"levelo://app?vid=7525d5bc-d5cb-4998-a508-14f64c28c58c"},"vehicle_type_id":"4","last_reported":1736435381,"current_range_meters":36400,"station_id":"ce4bhl92rcd13ifvqghg","pricing_plan_id":"cebpf4jnsgd1na2vs0mg"},{"bike_id":"40dddf57-3075-4105-b319-5562a16fa801","system_id":"levelo_inurba_marseille","lat":43.23156,"lon":5.43717,"is_reserved":false,"is_disabled":false,"rental_uris":{"android":"levelo://app?vid=40dddf57-3075-4105-b319-5562a16fa801","ios":"levelo://app?vid=40dddf57-3075-4105-b319-5562a16fa801"},"vehicle_type_id":"4","last_reported":1736435381,"current_range_meters":26800,"station_id":"ce4bhmp2rcd13ifvqgog","pricing_plan_id":"cebpf4jnsgd1na2vs0mg"},{"bike_id":"5d78c106-a971-4198-af25-0346c1dbcb17","system_id":"levelo_inurba_marseille","lat":43.28277,"lon":5.35081,"is_reserved":false,"is_disabled":false,"rental_uris":{"android":"levelo://app?vid=5d78c106-a971-4198-af25-0346c1dbcb17","ios":"levelo://app?vid=5d78c106-a971-4198-af25-0346c1dbcb17"},"vehicle_type_id":"4","last_reported":1736435381,"current_range_meters":38800,"station_id":"ce4bhbp2rcd13ifvqerg","pricing_plan_id":"cebpf4jnsgd1na2vs0mg"},{"bike_id":"a023b9e2-2413-4b3d-a218-b9727e7097b5","system_id":"levelo_inurba_marseille","lat":43.292991,"lon":5.374633,"is_reserved":false,"is_disabled":true,"rental_uris":{"android":"levelo://app?vid=a023b9e2-2413-4b3d-a218-b9727e7097b5","ios":"levelo://app?vid=a023b9e2-2413-4b3d-a218-b9727e7097b5"},"vehicle_type_id":"4","last_reported":1736435381,"current_range_meters":29600,"station_id":"ce4bgi12rcd13ifvqb70","pricing_plan_id":"cebpf4jnsgd1na2vs0mg"},{"bike_id":"0674d2ef-86ed-4426-8d32-8e7450b119f1","system_id":"levelo_inurba_marseille","lat":43.33022,"lon":5.39036,"is_reserved":false,"is_disabled":false,"rental_uris":{"android":"levelo://app?vid=0674d2ef-86ed-4426-8d32-8e7450b119f1","ios":"levelo://app?vid=0674d2ef-86ed-4426-8d32-8e7450b119f1"},"vehicle_type_id":"4","last_reported":1736435381,"current_range_meters":24000,"station_id":"ce4bhr92rcd13ifvqhrg","pricing_plan_id":"cebpf4jnsgd1na2vs0mg"},{"bike_id":"b61410a3-14e1-4aff-ac94-d44098cd6c7f","system_id":"levelo_inurba_marseille","lat":43.31353,"lon":5.38494,"is_reserved":false,"is_disabled":false,"rental_uris":{"android":"levelo://app?vid=b61410a3-14e1-4aff-ac94-d44098cd6c7f","ios":"levelo://app?vid=b61410a3-14e1-4aff-ac94-d44098cd6c7f"},"vehicle_type_id":"4","last_reported":1736435381,"current_range_meters":38800,"station_id":"ce4bgt92rcd13ifvqcf0","pricing_plan_id":"cebpf4jnsgd1na2vs0mg"},{"bike_id":"dca00bba-2f39-40a8-ad4d-72c38ee8461a","system_id":"levelo_inurba_marseille","lat":43.27457,"lon":5.39399,"is_reserved":false,"is_disabled":false,"rental_uris":{"android":"levelo://app?vid=dca00bba-2f39-40a8-ad4d-72c38ee8461a","ios":"levelo://app?vid=dca00bba-2f39-40a8-ad4d-72c38ee8461a"},"vehicle_type_id":"4","last_reported":1736435381,"current_range_meters":32800,"station_id":"ce4bhdp2rcd13ifvqf20","pricing_plan_id":"cebpf4jnsgd1na2vs0mg"},{"bike_id":"e2b50226-9fde-4544-853e-aad92a8a6c78","system_id":"levelo_inurba_marseille","lat":43.28429,"lon":5.35002,"is_reserved":false,"is_disabled":false,"rental_uris":{"android":"levelo://app?vid=e2b50226-9fde-4544-853e-aad92a8a6c78","ios":"levelo://app?vid=e2b50226-9fde-4544-853e-aad92a8a6c78"},"vehicle_type_id":"4","last_reported":1736435381,"current_range_meters":13600,"station_id":"ce4bhbh2rcd13ifvqepg","pricing_plan_id":"cebpf4jnsgd1na2vs0mg"},{"bike_id":"fcda1bf7-c69b-4557-a8f1-0ada65d0d425","system_id":"levelo_inurba_marseille","lat":43.29914,"lon":5.38149,"is_reserved":false,"is_disabled":false,"rental_uris":{"android":"levelo://app?vid=fcda1bf7-c69b-4557-a8f1-0ada65d0d425","ios":"levelo://app?vid=fcda1bf7-c69b-4557-a8f1-0ada65d0d425"},"vehicle_type_id":"4","last_reported":1736435381,"current_range_meters":38800,"station_id":"ce4bgj12rcd13ifvqbc0","pricing_plan_id":"cebpf4jnsgd1na2vs0mg"},{"bike_id":"e9ec0a66-1ceb-493f-9f5c-d3fdb8ffafe5","system_id":"levelo_inurba_marseille","lat":43.284424,"lon":5.392064,"is_reserved":false,"is_disabled":false,"rental_uris":{"android":"levelo://app?vid=e9ec0a66-1ceb-493f-9f5c-d3fdb8ffafe5","ios":"levelo://app?vid=e9ec0a66-1ceb-493f-9f5c-d3fdb8ffafe5"},"vehicle_type_id":"4","last_reported":1736435381,"current_range_meters":36400,"station_id":"ce4bhoh2rcd13ifvqh5g","pricing_plan_id":"cebpf4jnsgd1na2vs0mg"},{"bike_id":"cb9e88a2-0f49-4702-87dd-06d2b1648625","system_id":"levelo_inurba_marseille","lat":43.29911,"lon":5.37484,"is_reserved":false,"is_disabled":false,"rental_uris":{"android":"levelo://app?vid=cb9e88a2-0f49-4702-87dd-06d2b1648625","ios":"levelo://app?vid=cb9e88a2-0f49-4702-87dd-06d2b1648625"},"vehicle_type_id":"4","last_reported":1736435381,"current_range_meters":35600,"station_id":"ce4bgjh2rcd13ifvqbg0","pricing_plan_id":"cebpf4jnsgd1na2vs0mg"},{"bike_id":"5e498754-bb3d-4823-a378-a06f7dd04975","system_id":"levelo_inurba_marseille","lat":43.28282,"lon":5.35074,"is_reserved":false,"is_disabled":false,"rental_uris":{"android":"levelo://app?vid=5e498754-bb3d-4823-a378-a06f7dd04975","ios":"levelo://app?vid=5e498754-bb3d-4823-a378-a06f7dd04975"},"vehicle_type_id":"4","last_reported":1736435381,"current_range_meters":29600,"station_id":"ce4bhbp2rcd13ifvqerg","pricing_plan_id":"cebpf4jnsgd1na2vs0mg"},{"bike_id":"96020aae-c176-4097-a04b-4d31225989df","system_id":"levelo_inurba_marseille","lat":43.31394,"lon":5.38509,"is_reserved":false,"is_disabled":false,"rental_uris":{"android":"levelo://app?vid=96020aae-c176-4097-a04b-4d31225989df","ios":"levelo://app?vid=96020aae-c176-4097-a04b-4d31225989df"},"vehicle_type_id":"4","last_reported":1736435381,"current_range_meters":38800,"station_id":"ce4bgt92rcd13ifvqcf0","pricing_plan_id":"cebpf4jnsgd1na2vs0mg"},{"bike_id":"7326962c-7804-42f7-a9d0-d0b52a1b4636","system_id":"levelo_inurba_marseille","lat":43.27079,"lon":5.42279,"is_reserved":false,"is_disabled":false,"rental_uris":{"android":"levelo://app?vid=7326962c-7804-42f7-a9d0-d0b52a1b4636","ios":"levelo://app?vid=7326962c-7804-42f7-a9d0-d0b52a1b4636"},"vehicle_type_id":"4","last_reported":1736435381,"current_range_meters":28400,"station_id":"ce4bhk92rcd13ifvqgb0","pricing_plan_id":"cebpf4jnsgd1na2vs0mg"},{"bike_id":"3402ac95-fc9f-4aa7-8d06-c5e0b4779208","system_id":"levelo_inurba_marseille","lat":43.24392,"lon":5.37054,"is_reserved":false,"is_disabled":false,"rental_uris":{"android":"levelo://app?vid=3402ac95-fc9f-4aa7-8d06-c5e0b4779208","ios":"levelo://app?vid=3402ac95-fc9f-4aa7-8d06-c5e0b4779208"},"vehicle_type_id":"4","last_reported":1736435381,"current_range_meters":39200,"station_id":"ce4bhhh2rcd13ifvqfk0","pricing_plan_id":"cebpf4jnsgd1na2vs0mg"},{"bike_id":"5d74df1b-17fb-413c-af71-518f552eb1a8","system_id":"levelo_inurba_marseille","lat":43.25495,"lon":5.37647,"is_reserved":false,"is_disabled":false,"rental_uris":{"android":"levelo://app?vid=5d74df1b-17fb-413c-af71-518f552eb1a8","ios":"levelo://app?vid=5d74df1b-17fb-413c-af71-518f552eb1a8"},"vehicle_type_id":"4","last_reported":1736435381,"current_range_meters":18800,"station_id":"ce4bhh12rcd13ifvqff0","pricing_plan_id":"cebpf4jnsgd1na2vs0mg"},{"bike_id":"4efd2084-9715-446a-aae8-df22bb0734d5","system_id":"levelo_inurba_marseille","lat":43.25929,"lon":5.4091,"is_reserved":false,"is_disabled":false,"rental_uris":{"android":"levelo://app?vid=4efd2084-9715-446a-aae8-df22bb0734d5","ios":"levelo://app?vid=4efd2084-9715-446a-aae8-df22bb0734d5"},"vehicle_type_id":"4","last_reported":1736435381,"current_range_meters":22000,"station_id":"ce4bhm92rcd13ifvqglg","pricing_plan_id":"cebpf4jnsgd1na2vs0mg"},{"bike_id":"8e75df86-e49b-4f3c-8f63-cab9d97e50e9","system_id":"levelo_inurba_marseille","lat":43.28685,"lon":5.36355,"is_reserved":false,"is_disabled":false,"rental_uris":{"android":"levelo://app?vid=8e75df86-e49b-4f3c-8f63-cab9d97e50e9","ios":"levelo://app?vid=8e75df86-e49b-4f3c-8f63-cab9d97e50e9"},"vehicle_type_id":"4","last_reported":1736435381,"current_range_meters":38800,"station_id":"ce4bhah2rcd13ifvqej0","pricing_plan_id":"cebpf4jnsgd1na2vs0mg"},{"bike_id":"7a0a8a69-615c-43f3-a001-073b74f4a57b","system_id":"levelo_inurba_marseille","lat":43.25594,"lon":5.38234,"is_reserved":false,"is_disabled":false,"rental_uris":{"android":"levelo://app?vid=7a0a8a69-615c-43f3-a001-073b74f4a57b","ios":"levelo://app?vid=7a0a8a69-615c-43f3-a001-073b74f4a57b"},"vehicle_type_id":"4","last_reported":1736435381,"current_range_meters":30000,"station_id":"ce4bhih2rcd13ifvqfs0","pricing_plan_id":"cebpf4jnsgd1na2vs0mg"},{"bike_id":"54d881c1-9733-41b1-bcb8-a3547a618e6d","system_id":"levelo_inurba_marseille","lat":43.26583,"lon":5.39003,"is_reserved":false,"is_disabled":false,"rental_uris":{"android":"levelo://app?vid=54d881c1-9733-41b1-bcb8-a3547a618e6d","ios":"levelo://app?vid=54d881c1-9733-41b1-bcb8-a3547a618e6d"},"vehicle_type_id":"4","last_reported":1736435381,"current_range_meters":6400,"station_id":"ce4bhe12rcd13ifvqf30","pricing_plan_id":"cebpf4jnsgd1na2vs0mg"},{"bike_id":"d03baa4e-a1ff-4dbb-aa3a-8f7610789178","system_id":"levelo_inurba_marseille","lat":43.33751,"lon":5.3918,"is_reserved":false,"is_disabled":false,"rental_uris":{"android":"levelo://app?vid=d03baa4e-a1ff-4dbb-aa3a-8f7610789178","ios":"levelo://app?vid=d03baa4e-a1ff-4dbb-aa3a-8f7610789178"},"vehicle_type_id":"4","last_reported":1736435381,"current_range_meters":38800,"station_id":"ce4bhr92rcd13ifvqhsg","pricing_plan_id":"cebpf4jnsgd1na2vs0mg"},{"bike_id":"373f9adc-1c85-4ead-bb1d-5a706b5c55e3","system_id":"levelo_inurba_marseille","lat":43.30162,"lon":5.38084,"is_reserved":false,"is_disabled":false,"rental_uris":{"android":"levelo://app?vid=373f9adc-1c85-4ead-bb1d-5a706b5c55e3","ios":"levelo://app?vid=373f9adc-1c85-4ead-bb1d-5a706b5c55e3"},"vehicle_type_id":"4","last_reported":1736435381,"current_range_meters":35600,"station_id":"ce4bgjp2rcd13ifvqbh0","pricing_plan_id":"cebpf4jnsgd1na2vs0mg"},{"bike_id":"adee9202-8b82-499b-9feb-52bb6b87fba6","system_id":"levelo_inurba_marseille","lat":43.25499,"lon":5.37649,"is_reserved":false,"is_disabled":false,"rental_uris":{"android":"levelo://app?vid=adee9202-8b82-499b-9feb-52bb6b87fba6","ios":"levelo://app?vid=adee9202-8b82-499b-9feb-52bb6b87fba6"},"vehicle_type_id":"4","last_reported":1736435381,"current_range_meters":38800,"station_id":"ce4bhh12rcd13ifvqff0","pricing_plan_id":"cebpf4jnsgd1na2vs0mg"},{"bike_id":"2b68127b-8c99-46f9-b65f-98bf288dc9b7","system_id":"levelo_inurba_marseille","lat":43.25578,"lon":5.38236,"is_reserved":false,"is_disabled":false,"rental_uris":{"android":"levelo://app?vid=2b68127b-8c99-46f9-b65f-98bf288dc9b7","ios":"levelo://app?vid=2b68127b-8c99-46f9-b65f-98bf288dc9b7"},"vehicle_type_id":"4","last_reported":1736435381,"current_range_meters":9600,"station_id":"ce4bhih2rcd13ifvqfs0","pricing_plan_id":"cebpf4jnsgd1na2vs0mg"},{"bike_id":"a2ef05b1-945f-456e-85f3-69eb692d39bd","system_id":"levelo_inurba_marseille","lat":43.31598,"lon":5.40389,"is_reserved":false,"is_disabled":false,"rental_uris":{"android":"levelo://app?vid=a2ef05b1-945f-456e-85f3-69eb692d39bd","ios":"levelo://app?vid=a2ef05b1-945f-456e-85f3-69eb692d39bd"},"vehicle_type_id":"4","last_reported":1736435381,"current_range_meters":13600,"station_id":"ce4bh3h2rcd13ifvqdn0","pricing_plan_id":"cebpf4jnsgd1na2vs0mg"},{"bike_id":"03150058-0a35-42f2-a29e-9a2d94dc6c68","system_id":"levelo_inurba_marseille","lat":43.2782,"lon":5.40727,"is_reserved":false,"is_disabled":false,"rental_uris":{"android":"levelo://app?vid=03150058-0a35-42f2-a29e-9a2d94dc6c68","ios":"levelo://app?vid=03150058-0a35-42f2-a29e-9a2d94dc6c68"},"vehicle_type_id":"4","last_reported":1736435381,"current_range_meters":3200,"station_id":"ce4bhnh2rcd13ifvqgtg","pricing_plan_id":"cebpf4jnsgd1na2vs0mg"},{"bike_id":"166c466e-3bf4-4e93-9f61-e2e316ee1bfa","system_id":"levelo_inurba_marseille","lat":43.26502,"lon":5.39538,"is_reserved":false,"is_disabled":false,"rental_uris":{"android":"levelo://app?vid=166c466e-3bf4-4e93-9f61-e2e316ee1bfa","ios":"levelo://app?vid=166c466e-3bf4-4e93-9f61-e2e316ee1bfa"},"vehicle_type_id":"4","last_reported":1736435381,"current_range_meters":38000,"station_id":"ce4bhi12rcd13ifvqfq0","pricing_plan_id":"cebpf4jnsgd1na2vs0mg"},{"bike_id":"ec319423-7fa8-45ee-b7f8-ab3cf86bce10","system_id":"levelo_inurba_marseille","lat":43.29935,"lon":5.36536,"is_reserved":false,"is_disabled":false,"rental_uris":{"android":"levelo://app?vid=ec319423-7fa8-45ee-b7f8-ab3cf86bce10","ios":"levelo://app?vid=ec319423-7fa8-45ee-b7f8-ab3cf86bce10"},"vehicle_type_id":"4","last_reported":1736435381,"current_range_meters":38800,"station_id":"ce4bgm92rcd13ifvqbr0","pricing_plan_id":"cebpf4jnsgd1na2vs0mg"},{"bike_id":"340e8ee4-8e6c-460b-808b-42c72823ba6c","system_id":"levelo_inurba_marseille","lat":43.30121,"lon":5.38793,"is_reserved":false,"is_disabled":false,"rental_uris":{"android":"levelo://app?vid=340e8ee4-8e6c-460b-808b-42c72823ba6c","ios":"levelo://app?vid=340e8ee4-8e6c-460b-808b-42c72823ba6c"},"vehicle_type_id":"4","last_reported":1736435381,"current_range_meters":32000,"station_id":"ce4bghh2rcd13ifvqb60","pricing_plan_id":"cebpf4jnsgd1na2vs0mg"},{"bike_id":"c8715b1d-b413-4b2c-b6c2-dc7edfd3607d","system_id":"levelo_inurba_marseille","lat":43.31334,"lon":5.39697,"is_reserved":false,"is_disabled":false,"rental_uris":{"android":"levelo://app?vid=c8715b1d-b413-4b2c-b6c2-dc7edfd3607d","ios":"levelo://app?vid=c8715b1d-b413-4b2c-b6c2-dc7edfd3607d"},"vehicle_type_id":"4","last_reported":1736435381,"current_range_meters":38800,"station_id":"ce4bgvp2rcd13ifvqcu0","pricing_plan_id":"cebpf4jnsgd1na2vs0mg"},{"bike_id":"e93f83ab-0e3e-4fd9-8d9e-6775678c8e02","system_id":"levelo_inurba_marseille","lat":43.33008,"lon":5.39047,"is_reserved":false,"is_disabled":false,"rental_uris":{"android":"levelo://app?vid=e93f83ab-0e3e-4fd9-8d9e-6775678c8e02","ios":"levelo://app?vid=e93f83ab-0e3e-4fd9-8d9e-6775678c8e02"},"vehicle_type_id":"4","last_reported":1736435381,"current_range_meters":38800,"station_id":"ce4bhr92rcd13ifvqhrg","pricing_plan_id":"cebpf4jnsgd1na2vs0mg"},{"bike_id":"1aed0b10-d09f-4238-99ef-b7a85b74aeaf","system_id":"levelo_inurba_marseille","lat":43.27921,"lon":5.39584,"is_reserved":false,"is_disabled":false,"rental_uris":{"android":"levelo://app?vid=1aed0b10-d09f-4238-99ef-b7a85b74aeaf","ios":"levelo://app?vid=1aed0b10-d09f-4238-99ef-b7a85b74aeaf"},"vehicle_type_id":"4","last_reported":1736435381,"current_range_meters":36400,"station_id":"ce4bhf92rcd13ifvqf40","pricing_plan_id":"cebpf4jnsgd1na2vs0mg"},{"bike_id":"2a688222-c53a-43b7-8662-6814af84e9d9","system_id":"levelo_inurba_marseille","lat":43.25617,"lon":5.38222,"is_reserved":false,"is_disabled":false,"rental_uris":{"android":"levelo://app?vid=2a688222-c53a-43b7-8662-6814af84e9d9","ios":"levelo://app?vid=2a688222-c53a-43b7-8662-6814af84e9d9"},"vehicle_type_id":"4","last_reported":1736435381,"current_range_meters":28800,"station_id":"ce4bhih2rcd13ifvqfs0","pricing_plan_id":"cebpf4jnsgd1na2vs0mg"},{"bike_id":"380532f5-9862-43e2-9bc8-8d4dae90d2a6","system_id":"levelo_inurba_marseille","lat":43.29798,"lon":5.40414,"is_reserved":false,"is_disabled":false,"rental_uris":{"android":"levelo://app?vid=380532f5-9862-43e2-9bc8-8d4dae90d2a6","ios":"levelo://app?vid=380532f5-9862-43e2-9bc8-8d4dae90d2a6"},"vehicle_type_id":"4","last_reported":1736435381,"current_range_meters":38800,"station_id":"ce4bh112rcd13ifvqd90","pricing_plan_id":"cebpf4jnsgd1na2vs0mg"},{"bike_id":"bb5f7b1b-fafb-45b0-a6b7-306e5a25c30d","system_id":"levelo_inurba_marseille","lat":43.23151,"lon":5.43723,"is_reserved":false,"is_disabled":false,"rental_uris":{"android":"levelo://app?vid=bb5f7b1b-fafb-45b0-a6b7-306e5a25c30d","ios":"levelo://app?vid=bb5f7b1b-fafb-45b0-a6b7-306e5a25c30d"},"vehicle_type_id":"4","last_reported":1736435381,"current_range_meters":38800,"station_id":"ce4bhmp2rcd13ifvqgog","pricing_plan_id":"cebpf4jnsgd1na2vs0mg"},{"bike_id":"945846a1-273e-4ff7-b4fa-22eab695956b","system_id":"levelo_inurba_marseille","lat":43.24085,"lon":5.37756,"is_reserved":false,"is_disabled":false,"rental_uris":{"android":"levelo://app?vid=945846a1-273e-4ff7-b4fa-22eab695956b","ios":"levelo://app?vid=945846a1-273e-4ff7-b4fa-22eab695956b"},"vehicle_type_id":"4","last_reported":1736435381,"current_range_meters":33200,"station_id":"ce4bhnp2rcd13ifvqgvg","pricing_plan_id":"cebpf4jnsgd1na2vs0mg"},{"bike_id":"b84ad2f0-77c9-4c66-8db7-45028f709db6","system_id":"levelo_inurba_marseille","lat":43.29711,"lon":5.37704,"is_reserved":false,"is_disabled":false,"rental_uris":{"android":"levelo://app?vid=b84ad2f0-77c9-4c66-8db7-45028f709db6","ios":"levelo://app?vid=b84ad2f0-77c9-4c66-8db7-45028f709db6"},"vehicle_type_id":"4","last_reported":1736435381,"current_range_meters":20000,"station_id":"ce4bgkh2rcd13ifvqbl0","pricing_plan_id":"cebpf4jnsgd1na2vs0mg"},{"bike_id":"22ef06b5-960c-4594-a9ce-bdfe76cc1abf","system_id":"levelo_inurba_marseille","lat":43.3092,"lon":5.40147,"is_reserved":false,"is_disabled":false,"rental_uris":{"android":"levelo://app?vid=22ef06b5-960c-4594-a9ce-bdfe76cc1abf","ios":"levelo://app?vid=22ef06b5-960c-4594-a9ce-bdfe76cc1abf"},"vehicle_type_id":"4","last_reported":1736435381,"current_range_meters":39200,"station_id":"ce4bgvp2rcd13ifvqct0","pricing_plan_id":"cebpf4jnsgd1na2vs0mg"},{"bike_id":"e6155068-d754-4b21-b11e-387150571add","system_id":"levelo_inurba_marseille","lat":43.31282,"lon":5.40168,"is_reserved":false,"is_disabled":false,"rental_uris":{"android":"levelo://app?vid=e6155068-d754-4b21-b11e-387150571add","ios":"levelo://app?vid=e6155068-d754-4b21-b11e-387150571add"},"vehicle_type_id":"4","last_reported":1736435381,"current_range_meters":26800,"station_id":"ce4bh092rcd13ifvqd30","pricing_plan_id":"cebpf4jnsgd1na2vs0mg"},{"bike_id":"7f997185-de2d-429b-905f-c78aea2ef8a1","system_id":"levelo_inurba_marseille","lat":43.27569,"lon":5.3841,"is_reserved":false,"is_disabled":false,"rental_uris":{"android":"levelo://app?vid=7f997185-de2d-429b-905f-c78aea2ef8a1","ios":"levelo://app?vid=7f997185-de2d-429b-905f-c78aea2ef8a1"},"vehicle_type_id":"4","last_reported":1736435381,"current_range_meters":38000,"station_id":"ce4bhh92rcd13ifvqfi0","pricing_plan_id":"cebpf4jnsgd1na2vs0mg"},{"bike_id":"9c034c72-3b9e-49ce-9a4d-4c4d5e20e5dd","system_id":"levelo_inurba_marseille","lat":43.33002,"lon":5.39016,"is_reserved":false,"is_disabled":false,"rental_uris":{"android":"levelo://app?vid=9c034c72-3b9e-49ce-9a4d-4c4d5e20e5dd","ios":"levelo://app?vid=9c034c72-3b9e-49ce-9a4d-4c4d5e20e5dd"},"vehicle_type_id":"4","last_reported":1736435381,"current_range_meters":13600,"station_id":"ce4bhr92rcd13ifvqhrg","pricing_plan_id":"cebpf4jnsgd1na2vs0mg"},{"bike_id":"2795c2e9-d044-406a-8297-30226e78fe6b","system_id":"levelo_inurba_marseille","lat":43.32548,"lon":5.41429,"is_reserved":false,"is_disabled":false,"rental_uris":{"android":"levelo://app?vid=2795c2e9-d044-406a-8297-30226e78fe6b","ios":"levelo://app?vid=2795c2e9-d044-406a-8297-30226e78fe6b"},"vehicle_type_id":"4","last_reported":1736435381,"current_range_meters":27600,"station_id":"ce4bhq12rcd13ifvqhhg","pricing_plan_id":"cebpf4jnsgd1na2vs0mg"},{"bike_id":"37d8e1ef-d932-49d7-b893-49542cf44d13","system_id":"levelo_inurba_marseille","lat":43.32345,"lon":5.40629,"is_reserved":false,"is_disabled":true,"rental_uris":{"android":"levelo://app?vid=37d8e1ef-d932-49d7-b893-49542cf44d13","ios":"levelo://app?vid=37d8e1ef-d932-49d7-b893-49542cf44d13"},"vehicle_type_id":"4","last_reported":1736435381,"current_range_meters":0,"station_id":"ce4bhq92rcd13ifvqhjg","pricing_plan_id":"cebpf4jnsgd1na2vs0mg"},{"bike_id":"458c3d58-e6a5-4d1a-8df2-05d9cb3e0072","system_id":"levelo_inurba_marseille","lat":43.25593,"lon":5.38231,"is_reserved":false,"is_disabled":false,"rental_uris":{"android":"levelo://app?vid=458c3d58-e6a5-4d1a-8df2-05d9cb3e0072","ios":"levelo://app?vid=458c3d58-e6a5-4d1a-8df2-05d9cb3e0072"},"vehicle_type_id":"4","last_reported":1736435381,"current_range_meters":20800,"station_id":"ce4bhih2rcd13ifvqfs0","pricing_plan_id":"cebpf4jnsgd1na2vs0mg"},{"bike_id":"7de8d9ac-4f29-46dc-a2a1-c043eb579698","system_id":"levelo_inurba_marseille","lat":43.26069,"lon":5.39402,"is_reserved":false,"is_disabled":false,"rental_uris":{"android":"levelo://app?vid=7de8d9ac-4f29-46dc-a2a1-c043eb579698","ios":"levelo://app?vid=7de8d9ac-4f29-46dc-a2a1-c043eb579698"},"vehicle_type_id":"4","last_reported":1736435381,"current_range_meters":25200,"station_id":"ce4bhh92rcd13ifvqfj0","pricing_plan_id":"cebpf4jnsgd1na2vs0mg"},{"bike_id":"da6743bd-ba20-40f9-8840-fa3f640bc022","system_id":"levelo_inurba_marseille","lat":43.31365,"lon":5.38494,"is_reserved":false,"is_disabled":false,"rental_uris":{"android":"levelo://app?vid=da6743bd-ba20-40f9-8840-fa3f640bc022","ios":"levelo://app?vid=da6743bd-ba20-40f9-8840-fa3f640bc022"},"vehicle_type_id":"4","last_reported":1736435381,"current_range_meters":38800,"station_id":"ce4bgt92rcd13ifvqcf0","pricing_plan_id":"cebpf4jnsgd1na2vs0mg"},{"bike_id":"9a4f5b41-60a6-4eaa-b293-4af55f6b32ed","system_id":"levelo_inurba_marseille","lat":43.24663,"lon":5.38167,"is_reserved":false,"is_disabled":false,"rental_uris":{"android":"levelo://app?vid=9a4f5b41-60a6-4eaa-b293-4af55f6b32ed","ios":"levelo://app?vid=9a4f5b41-60a6-4eaa-b293-4af55f6b32ed"},"vehicle_type_id":"4","last_reported":1736435381,"current_range_meters":30800,"station_id":"ce4bhih2rcd13ifvqfr0","pricing_plan_id":"cebpf4jnsgd1na2vs0mg"},{"bike_id":"a9846cc1-8eef-45e7-8d83-ac25a55fb13b","system_id":"levelo_inurba_marseille","lat":43.29379,"lon":5.37855,"is_reserved":false,"is_disabled":true,"rental_uris":{"android":"levelo://app?vid=a9846cc1-8eef-45e7-8d83-ac25a55fb13b","ios":"levelo://app?vid=a9846cc1-8eef-45e7-8d83-ac25a55fb13b"},"vehicle_type_id":"4","last_reported":1736435381,"current_range_meters":0,"station_id":"ce4bgjh2rcd13ifvqbf0","pricing_plan_id":"cebpf4jnsgd1na2vs0mg"},{"bike_id":"263d3f02-c0ce-4595-baad-e0e05c6a3c4c","system_id":"levelo_inurba_marseille","lat":43.25583,"lon":5.38235,"is_reserved":false,"is_disabled":false,"rental_uris":{"android":"levelo://app?vid=263d3f02-c0ce-4595-baad-e0e05c6a3c4c","ios":"levelo://app?vid=263d3f02-c0ce-4595-baad-e0e05c6a3c4c"},"vehicle_type_id":"4","last_reported":1736435381,"current_range_meters":28000,"station_id":"ce4bhih2rcd13ifvqfs0","pricing_plan_id":"cebpf4jnsgd1na2vs0mg"},{"bike_id":"8cfd7e90-9cc2-4f6e-8f50-df450bfe3c1c","system_id":"levelo_inurba_marseille","lat":43.29566,"lon":5.42302,"is_reserved":false,"is_disabled":false,"rental_uris":{"android":"levelo://app?vid=8cfd7e90-9cc2-4f6e-8f50-df450bfe3c1c","ios":"levelo://app?vid=8cfd7e90-9cc2-4f6e-8f50-df450bfe3c1c"},"vehicle_type_id":"4","last_reported":1736435381,"current_range_meters":38800,"station_id":"ce4bhph2rcd13ifvqhdg","pricing_plan_id":"cebpf4jnsgd1na2vs0mg"},{"bike_id":"9e609453-36fa-4f20-a62a-03d90bea0a99","system_id":"levelo_inurba_marseille","lat":43.2974,"lon":5.37727,"is_reserved":false,"is_disabled":false,"rental_uris":{"android":"levelo://app?vid=9e609453-36fa-4f20-a62a-03d90bea0a99","ios":"levelo://app?vid=9e609453-36fa-4f20-a62a-03d90bea0a99"},"vehicle_type_id":"4","last_reported":1736435381,"current_range_meters":9200,"station_id":"ce4bgkh2rcd13ifvqbl0","pricing_plan_id":"cebpf4jnsgd1na2vs0mg"},{"bike_id":"73506a2a-d06c-45de-92d0-b96c574a5cbc","system_id":"levelo_inurba_marseille","lat":43.2937,"lon":5.37863,"is_reserved":false,"is_disabled":false,"rental_uris":{"android":"levelo://app?vid=73506a2a-d06c-45de-92d0-b96c574a5cbc","ios":"levelo://app?vid=73506a2a-d06c-45de-92d0-b96c574a5cbc"},"vehicle_type_id":"4","last_reported":1736435381,"current_range_meters":30000,"station_id":"ce4bgjh2rcd13ifvqbf0","pricing_plan_id":"cebpf4jnsgd1na2vs0mg"},{"bike_id":"385264b1-4061-488d-8853-f978ac44f3cb","system_id":"levelo_inurba_marseille","lat":43.29268,"lon":5.40918,"is_reserved":false,"is_disabled":false,"rental_uris":{"android":"levelo://app?vid=385264b1-4061-488d-8853-f978ac44f3cb","ios":"levelo://app?vid=385264b1-4061-488d-8853-f978ac44f3cb"},"vehicle_type_id":"4","last_reported":1736435381,"current_range_meters":37600,"station_id":"ce4bh192rcd13ifvqdc0","pricing_plan_id":"cebpf4jnsgd1na2vs0mg"},{"bike_id":"4b9552e7-7313-44cc-ba72-6ebb3cfea997","system_id":"levelo_inurba_marseille","lat":43.26037,"lon":5.39319,"is_reserved":false,"is_disabled":false,"rental_uris":{"android":"levelo://app?vid=4b9552e7-7313-44cc-ba72-6ebb3cfea997","ios":"levelo://app?vid=4b9552e7-7313-44cc-ba72-6ebb3cfea997"},"vehicle_type_id":"4","last_reported":1736435381,"current_range_meters":38400,"station_id":"ce4bhh92rcd13ifvqfj0","pricing_plan_id":"cebpf4jnsgd1na2vs0mg"},{"bike_id":"c150f8af-fc8f-4eb5-ac98-0b06dadf4ce0","system_id":"levelo_inurba_marseille","lat":43.25582,"lon":5.3824,"is_reserved":false,"is_disabled":false,"rental_uris":{"android":"levelo://app?vid=c150f8af-fc8f-4eb5-ac98-0b06dadf4ce0","ios":"levelo://app?vid=c150f8af-fc8f-4eb5-ac98-0b06dadf4ce0"},"vehicle_type_id":"4","last_reported":1736435381,"current_range_meters":37600,"station_id":"ce4bhih2rcd13ifvqfs0","pricing_plan_id":"cebpf4jnsgd1na2vs0mg"},{"bike_id":"98516c6c-770c-419d-b009-47d399b69de8","system_id":"levelo_inurba_marseille","lat":43.280347,"lon":5.369438,"is_reserved":false,"is_disabled":false,"rental_uris":{"android":"levelo://app?vid=98516c6c-770c-419d-b009-47d399b69de8","ios":"levelo://app?vid=98516c6c-770c-419d-b009-47d399b69de8"},"vehicle_type_id":"4","last_reported":1736435381,"current_range_meters":18800,"station_id":"ce4bha12rcd13ifvqef0","pricing_plan_id":"cebpf4jnsgd1na2vs0mg"},{"bike_id":"cda8dba7-8728-4d79-a420-078e266d4f84","system_id":"levelo_inurba_marseille","lat":43.29808,"lon":5.38102,"is_reserved":false,"is_disabled":false,"rental_uris":{"android":"levelo://app?vid=cda8dba7-8728-4d79-a420-078e266d4f84","ios":"levelo://app?vid=cda8dba7-8728-4d79-a420-078e266d4f84"},"vehicle_type_id":"4","last_reported":1736435381,"current_range_meters":19600,"station_id":"ce4bgip2rcd13ifvqbb0","pricing_plan_id":"cebpf4jnsgd1na2vs0mg"},{"bike_id":"2d4b1739-f87e-4a45-85d6-423323145453","system_id":"levelo_inurba_marseille","lat":43.290797,"lon":5.371688,"is_reserved":false,"is_disabled":false,"rental_uris":{"android":"levelo://app?vid=2d4b1739-f87e-4a45-85d6-423323145453","ios":"levelo://app?vid=2d4b1739-f87e-4a45-85d6-423323145453"},"vehicle_type_id":"4","last_reported":1736435381,"current_range_meters":25600,"station_id":"ce4bh5p2rcd13ifvqe4g","pricing_plan_id":"cebpf4jnsgd1na2vs0mg"},{"bike_id":"9efac901-bf05-47a6-be53-2721fa3149b4","system_id":"levelo_inurba_marseille","lat":43.29842,"lon":5.36268,"is_reserved":false,"is_disabled":false,"rental_uris":{"android":"levelo://app?vid=9efac901-bf05-47a6-be53-2721fa3149b4","ios":"levelo://app?vid=9efac901-bf05-47a6-be53-2721fa3149b4"},"vehicle_type_id":"4","last_reported":1736435381,"current_range_meters":38000,"station_id":"ce4bgpp2rcd13ifvqc3g","pricing_plan_id":"cebpf4jnsgd1na2vs0mg"},{"bike_id":"fed92a13-70aa-452f-a972-2bde53cef417","system_id":"levelo_inurba_marseille","lat":43.25864,"lon":5.39903,"is_reserved":false,"is_disabled":false,"rental_uris":{"android":"levelo://app?vid=fed92a13-70aa-452f-a972-2bde53cef417","ios":"levelo://app?vid=fed92a13-70aa-452f-a972-2bde53cef417"},"vehicle_type_id":"4","last_reported":1736435381,"current_range_meters":38400,"station_id":"ce4bhl92rcd13ifvqghg","pricing_plan_id":"cebpf4jnsgd1na2vs0mg"},{"bike_id":"60ce1b70-e47d-4caf-abee-52e7d5bfe299","system_id":"levelo_inurba_marseille","lat":43.246447,"lon":5.388995,"is_reserved":false,"is_disabled":false,"rental_uris":{"android":"levelo://app?vid=60ce1b70-e47d-4caf-abee-52e7d5bfe299","ios":"levelo://app?vid=60ce1b70-e47d-4caf-abee-52e7d5bfe299"},"vehicle_type_id":"4","last_reported":1736435381,"current_range_meters":38000,"station_id":"ce4bhg12rcd13ifvqf60","pricing_plan_id":"cebpf4jnsgd1na2vs0mg"},{"bike_id":"7627c0f8-e30b-4018-a991-3dd21750fc78","system_id":"levelo_inurba_marseille","lat":43.28724,"lon":5.37941,"is_reserved":false,"is_disabled":true,"rental_uris":{"android":"levelo://app?vid=7627c0f8-e30b-4018-a991-3dd21750fc78","ios":"levelo://app?vid=7627c0f8-e30b-4018-a991-3dd21750fc78"},"vehicle_type_id":"4","last_reported":1736435381,"current_range_meters":38800,"station_id":"ce4bh9p2rcd13ifvqec0","pricing_plan_id":"cebpf4jnsgd1na2vs0mg"},{"bike_id":"a96a5f7a-7cdf-4228-afcd-f0fd0c7343c1","system_id":"levelo_inurba_marseille","lat":43.25581,"lon":5.38231,"is_reserved":false,"is_disabled":false,"rental_uris":{"android":"levelo://app?vid=a96a5f7a-7cdf-4228-afcd-f0fd0c7343c1","ios":"levelo://app?vid=a96a5f7a-7cdf-4228-afcd-f0fd0c7343c1"},"vehicle_type_id":"4","last_reported":1736435381,"current_range_meters":30800,"station_id":"ce4bhih2rcd13ifvqfs0","pricing_plan_id":"cebpf4jnsgd1na2vs0mg"},{"bike_id":"66471134-25e4-4211-abd7-23c33d84503b","system_id":"levelo_inurba_marseille","lat":43.25955,"lon":5.40898,"is_reserved":false,"is_disabled":false,"rental_uris":{"android":"levelo://app?vid=66471134-25e4-4211-abd7-23c33d84503b","ios":"levelo://app?vid=66471134-25e4-4211-abd7-23c33d84503b"},"vehicle_type_id":"4","last_reported":1736435381,"current_range_meters":38800,"station_id":"ce4bhm92rcd13ifvqglg","pricing_plan_id":"cebpf4jnsgd1na2vs0mg"},{"bike_id":"fccb27bf-abbb-42b8-8c71-be1ef504107f","system_id":"levelo_inurba_marseille","lat":43.28438,"lon":5.39179,"is_reserved":false,"is_disabled":false,"rental_uris":{"android":"levelo://app?vid=fccb27bf-abbb-42b8-8c71-be1ef504107f","ios":"levelo://app?vid=fccb27bf-abbb-42b8-8c71-be1ef504107f"},"vehicle_type_id":"4","last_reported":1736435381,"current_range_meters":39200,"station_id":"ce4bhoh2rcd13ifvqh5g","pricing_plan_id":"cebpf4jnsgd1na2vs0mg"},{"bike_id":"a04c750d-c2a3-4826-bb16-b9d8bd34b860","system_id":"levelo_inurba_marseille","lat":43.2559,"lon":5.38237,"is_reserved":false,"is_disabled":false,"rental_uris":{"android":"levelo://app?vid=a04c750d-c2a3-4826-bb16-b9d8bd34b860","ios":"levelo://app?vid=a04c750d-c2a3-4826-bb16-b9d8bd34b860"},"vehicle_type_id":"4","last_reported":1736435381,"current_range_meters":38800,"station_id":"ce4bhih2rcd13ifvqfs0","pricing_plan_id":"cebpf4jnsgd1na2vs0mg"},{"bike_id":"59945a34-9fc4-4c5c-b856-da1b5d52a473","system_id":"levelo_inurba_marseille","lat":43.29623,"lon":5.40594,"is_reserved":false,"is_disabled":false,"rental_uris":{"android":"levelo://app?vid=59945a34-9fc4-4c5c-b856-da1b5d52a473","ios":"levelo://app?vid=59945a34-9fc4-4c5c-b856-da1b5d52a473"},"vehicle_type_id":"4","last_reported":1736435381,"current_range_meters":18800,"station_id":"ce4bh0h2rcd13ifvqd60","pricing_plan_id":"cebpf4jnsgd1na2vs0mg"},{"bike_id":"d1b092d3-a407-46bf-b987-f5eda0e6e805","system_id":"levelo_inurba_marseille","lat":43.29809,"lon":5.37129,"is_reserved":false,"is_disabled":false,"rental_uris":{"android":"levelo://app?vid=d1b092d3-a407-46bf-b987-f5eda0e6e805","ios":"levelo://app?vid=d1b092d3-a407-46bf-b987-f5eda0e6e805"},"vehicle_type_id":"4","last_reported":1736435381,"current_range_meters":36800,"station_id":"ce4bgop2rcd13ifvqc1g","pricing_plan_id":"cebpf4jnsgd1na2vs0mg"},{"bike_id":"eb9e7f11-40b0-4740-a3cf-085cd019d8d1","system_id":"levelo_inurba_marseille","lat":43.30161,"lon":5.38089,"is_reserved":false,"is_disabled":false,"rental_uris":{"android":"levelo://app?vid=eb9e7f11-40b0-4740-a3cf-085cd019d8d1","ios":"levelo://app?vid=eb9e7f11-40b0-4740-a3cf-085cd019d8d1"},"vehicle_type_id":"4","last_reported":1736435381,"current_range_meters":38800,"station_id":"ce4bgjp2rcd13ifvqbh0","pricing_plan_id":"cebpf4jnsgd1na2vs0mg"},{"bike_id":"b1d394e4-03db-464c-9f53-0ab94ab7a06a","system_id":"levelo_inurba_marseille","lat":43.31076,"lon":5.38349,"is_reserved":false,"is_disabled":true,"rental_uris":{"android":"levelo://app?vid=b1d394e4-03db-464c-9f53-0ab94ab7a06a","ios":"levelo://app?vid=b1d394e4-03db-464c-9f53-0ab94ab7a06a"},"vehicle_type_id":"4","last_reported":1736435381,"current_range_meters":28400,"station_id":"ce4bgv92rcd13ifvqcr0","pricing_plan_id":"cebpf4jnsgd1na2vs0mg"},{"bike_id":"51e8f2a4-f64b-4d7a-bcaf-c62d9d723ade","system_id":"levelo_inurba_marseille","lat":43.26578,"lon":5.39002,"is_reserved":false,"is_disabled":false,"rental_uris":{"android":"levelo://app?vid=51e8f2a4-f64b-4d7a-bcaf-c62d9d723ade","ios":"levelo://app?vid=51e8f2a4-f64b-4d7a-bcaf-c62d9d723ade"},"vehicle_type_id":"4","last_reported":1736435381,"current_range_meters":15200,"station_id":"ce4bhe12rcd13ifvqf30","pricing_plan_id":"cebpf4jnsgd1na2vs0mg"},{"bike_id":"3cbd5e48-3669-47e0-a3b4-efb92db61728","system_id":"levelo_inurba_marseille","lat":43.28031,"lon":5.36942,"is_reserved":false,"is_disabled":false,"rental_uris":{"android":"levelo://app?vid=3cbd5e48-3669-47e0-a3b4-efb92db61728","ios":"levelo://app?vid=3cbd5e48-3669-47e0-a3b4-efb92db61728"},"vehicle_type_id":"4","last_reported":1736435381,"current_range_meters":36400,"station_id":"ce4bha12rcd13ifvqef0","pricing_plan_id":"cebpf4jnsgd1na2vs0mg"},{"bike_id":"6c9daffc-e174-4a9a-8b3e-30a6cf4027c8","system_id":"levelo_inurba_marseille","lat":43.321456,"lon":5.36822,"is_reserved":false,"is_disabled":false,"rental_uris":{"android":"levelo://app?vid=6c9daffc-e174-4a9a-8b3e-30a6cf4027c8","ios":"levelo://app?vid=6c9daffc-e174-4a9a-8b3e-30a6cf4027c8"},"vehicle_type_id":"4","last_reported":1736435381,"current_range_meters":38800,"station_id":"ce4bhrh2rcd13ifvqhug","pricing_plan_id":"cebpf4jnsgd1na2vs0mg"},{"bike_id":"bae7722c-9e8e-4be5-8496-d92680933c44","system_id":"levelo_inurba_marseille","lat":43.29425,"lon":5.38624,"is_reserved":false,"is_disabled":false,"rental_uris":{"android":"levelo://app?vid=bae7722c-9e8e-4be5-8496-d92680933c44","ios":"levelo://app?vid=bae7722c-9e8e-4be5-8496-d92680933c44"},"vehicle_type_id":"4","last_reported":1736435381,"current_range_meters":36000,"station_id":"ce4bh2h2rcd13ifvqdh0","pricing_plan_id":"cebpf4jnsgd1na2vs0mg"},{"bike_id":"355798b5-9f19-4468-ab35-5d5928887f31","system_id":"levelo_inurba_marseille","lat":43.26697,"lon":5.38273,"is_reserved":false,"is_disabled":false,"rental_uris":{"android":"levelo://app?vid=355798b5-9f19-4468-ab35-5d5928887f31","ios":"levelo://app?vid=355798b5-9f19-4468-ab35-5d5928887f31"},"vehicle_type_id":"4","last_reported":1736435381,"current_range_meters":20000,"station_id":"ce4bhg92rcd13ifvqf90","pricing_plan_id":"cebpf4jnsgd1na2vs0mg"},{"bike_id":"feb1c606-2341-4918-8abd-da8a12f4e1f7","system_id":"levelo_inurba_marseille","lat":43.313622,"lon":5.385006,"is_reserved":false,"is_disabled":false,"rental_uris":{"android":"levelo://app?vid=feb1c606-2341-4918-8abd-da8a12f4e1f7","ios":"levelo://app?vid=feb1c606-2341-4918-8abd-da8a12f4e1f7"},"vehicle_type_id":"4","last_reported":1736435381,"current_range_meters":36800,"station_id":"ce4bgt92rcd13ifvqcf0","pricing_plan_id":"cebpf4jnsgd1na2vs0mg"},{"bike_id":"e86cbc87-58c3-410c-ae52-7432f28a850c","system_id":"levelo_inurba_marseille","lat":43.30548,"lon":5.38427,"is_reserved":false,"is_disabled":false,"rental_uris":{"android":"levelo://app?vid=e86cbc87-58c3-410c-ae52-7432f28a850c","ios":"levelo://app?vid=e86cbc87-58c3-410c-ae52-7432f28a850c"},"vehicle_type_id":"4","last_reported":1736435381,"current_range_meters":37600,"station_id":"ce4bgg92rcd13ifvqb30","pricing_plan_id":"cebpf4jnsgd1na2vs0mg"},{"bike_id":"e010a2f7-7fab-4f1a-9437-24236c7402ad","system_id":"levelo_inurba_marseille","lat":43.30549,"lon":5.36534,"is_reserved":false,"is_disabled":false,"rental_uris":{"android":"levelo://app?vid=e010a2f7-7fab-4f1a-9437-24236c7402ad","ios":"levelo://app?vid=e010a2f7-7fab-4f1a-9437-24236c7402ad"},"vehicle_type_id":"4","last_reported":1736435381,"current_range_meters":24800,"station_id":"ce4bgs12rcd13ifvqcag","pricing_plan_id":"cebpf4jnsgd1na2vs0mg"},{"bike_id":"cfb415c6-da59-4905-81c1-91453da2b754","system_id":"levelo_inurba_marseille","lat":43.22944,"lon":5.35375,"is_reserved":false,"is_disabled":false,"rental_uris":{"android":"levelo://app?vid=cfb415c6-da59-4905-81c1-91453da2b754","ios":"levelo://app?vid=cfb415c6-da59-4905-81c1-91453da2b754"},"vehicle_type_id":"4","last_reported":1736435381,"current_range_meters":11200,"station_id":"cpo3532slgdg3j2ikp40","pricing_plan_id":"cebpf4jnsgd1na2vs0mg"},{"bike_id":"f969a66a-d74a-48f4-a748-7c610741fda3","system_id":"levelo_inurba_marseille","lat":43.29734,"lon":5.37621,"is_reserved":false,"is_disabled":false,"rental_uris":{"android":"levelo://app?vid=f969a66a-d74a-48f4-a748-7c610741fda3","ios":"levelo://app?vid=f969a66a-d74a-48f4-a748-7c610741fda3"},"vehicle_type_id":"4","last_reported":1736435381,"current_range_meters":9200,"station_id":"","pricing_plan_id":"cebpf4jnsgd1na2vs0mg"},{"bike_id":"3d97d3e0-d45c-47c2-9a56-3b2182dc5b15","system_id":"levelo_inurba_marseille","lat":43.27955,"lon":5.387026,"is_reserved":false,"is_disabled":true,"rental_uris":{"android":"levelo://app?vid=3d97d3e0-d45c-47c2-9a56-3b2182dc5b15","ios":"levelo://app?vid=3d97d3e0-d45c-47c2-9a56-3b2182dc5b15"},"vehicle_type_id":"4","last_reported":1736435381,"current_range_meters":0,"station_id":"","pricing_plan_id":"cebpf4jnsgd1na2vs0mg"},{"bike_id":"8fb4a4e8-d912-4ace-b88c-b341c0ed27e0","system_id":"levelo_inurba_marseille","lat":43.28446,"lon":5.39193,"is_reserved":false,"is_disabled":false,"rental_uris":{"android":"levelo://app?vid=8fb4a4e8-d912-4ace-b88c-b341c0ed27e0","ios":"levelo://app?vid=8fb4a4e8-d912-4ace-b88c-b341c0ed27e0"},"vehicle_type_id":"4","last_reported":1736435381,"current_range_meters":10000,"station_id":"ce4bhoh2rcd13ifvqh5g","pricing_plan_id":"cebpf4jnsgd1na2vs0mg"},{"bike_id":"84a3f1ee-3180-41aa-aa15-79874a2b8920","system_id":"levelo_inurba_marseille","lat":43.27835,"lon":5.39211,"is_reserved":false,"is_disabled":false,"rental_uris":{"android":"levelo://app?vid=84a3f1ee-3180-41aa-aa15-79874a2b8920","ios":"levelo://app?vid=84a3f1ee-3180-41aa-aa15-79874a2b8920"},"vehicle_type_id":"4","last_reported":1736435381,"current_range_meters":6800,"station_id":"ce4bhjp2rcd13ifvqga0","pricing_plan_id":"cebpf4jnsgd1na2vs0mg"},{"bike_id":"6e20dfee-83c0-4948-8f03-0e256ff8b823","system_id":"levelo_inurba_marseille","lat":43.28504,"lon":5.38554,"is_reserved":false,"is_disabled":false,"rental_uris":{"android":"levelo://app?vid=6e20dfee-83c0-4948-8f03-0e256ff8b823","ios":"levelo://app?vid=6e20dfee-83c0-4948-8f03-0e256ff8b823"},"vehicle_type_id":"4","last_reported":1736435381,"current_range_meters":39200,"station_id":"ce4bh8p2rcd13ifvqeb0","pricing_plan_id":"cebpf4jnsgd1na2vs0mg"},{"bike_id":"b4218fd3-7ee2-4838-85c8-eab51d852aad","system_id":"levelo_inurba_marseille","lat":43.308,"lon":5.38152,"is_reserved":false,"is_disabled":false,"rental_uris":{"android":"levelo://app?vid=b4218fd3-7ee2-4838-85c8-eab51d852aad","ios":"levelo://app?vid=b4218fd3-7ee2-4838-85c8-eab51d852aad"},"vehicle_type_id":"4","last_reported":1736435381,"current_range_meters":20400,"station_id":"ce4bgt12rcd13ifvqce0","pricing_plan_id":"cebpf4jnsgd1na2vs0mg"},{"bike_id":"2eb264c8-1e8d-4f17-a831-3cda07857865","system_id":"levelo_inurba_marseille","lat":43.32092,"lon":5.36737,"is_reserved":false,"is_disabled":false,"rental_uris":{"android":"levelo://app?vid=2eb264c8-1e8d-4f17-a831-3cda07857865","ios":"levelo://app?vid=2eb264c8-1e8d-4f17-a831-3cda07857865"},"vehicle_type_id":"4","last_reported":1736435381,"current_range_meters":38000,"station_id":"ce4bhrh2rcd13ifvqhug","pricing_plan_id":"cebpf4jnsgd1na2vs0mg"},{"bike_id":"f0e09f4a-4446-48a3-bf8b-add99a0f92bb","system_id":"levelo_inurba_marseille","lat":43.28345,"lon":5.41506,"is_reserved":false,"is_disabled":false,"rental_uris":{"android":"levelo://app?vid=f0e09f4a-4446-48a3-bf8b-add99a0f92bb","ios":"levelo://app?vid=f0e09f4a-4446-48a3-bf8b-add99a0f92bb"},"vehicle_type_id":"4","last_reported":1736435381,"current_range_meters":30000,"station_id":"","pricing_plan_id":"cebpf4jnsgd1na2vs0mg"},{"bike_id":"1e2223a2-c032-49e7-8dbf-982df86a0520","system_id":"levelo_inurba_marseille","lat":43.22934,"lon":5.35373,"is_reserved":false,"is_disabled":false,"rental_uris":{"android":"levelo://app?vid=1e2223a2-c032-49e7-8dbf-982df86a0520","ios":"levelo://app?vid=1e2223a2-c032-49e7-8dbf-982df86a0520"},"vehicle_type_id":"4","last_reported":1736435381,"current_range_meters":36400,"station_id":"cpo3532slgdg3j2ikp40","pricing_plan_id":"cebpf4jnsgd1na2vs0mg"},{"bike_id":"c0cfb3fd-aab9-46ac-b398-46602c60a0fc","system_id":"levelo_inurba_marseille","lat":43.28349,"lon":5.39259,"is_reserved":false,"is_disabled":false,"rental_uris":{"android":"levelo://app?vid=c0cfb3fd-aab9-46ac-b398-46602c60a0fc","ios":"levelo://app?vid=c0cfb3fd-aab9-46ac-b398-46602c60a0fc"},"vehicle_type_id":"4","last_reported":1736435381,"current_range_meters":38800,"station_id":"ce4bhoh2rcd13ifvqh5g","pricing_plan_id":"cebpf4jnsgd1na2vs0mg"},{"bike_id":"ae56d76d-14b6-4639-87c1-ba0aa6e02203","system_id":"levelo_inurba_marseille","lat":43.30538,"lon":5.38396,"is_reserved":false,"is_disabled":false,"rental_uris":{"android":"levelo://app?vid=ae56d76d-14b6-4639-87c1-ba0aa6e02203","ios":"levelo://app?vid=ae56d76d-14b6-4639-87c1-ba0aa6e02203"},"vehicle_type_id":"4","last_reported":1736435381,"current_range_meters":38800,"station_id":"ce4bgg92rcd13ifvqb30","pricing_plan_id":"cebpf4jnsgd1na2vs0mg"},{"bike_id":"3aefb9c1-3e4a-487c-b413-b90ef97c7063","system_id":"levelo_inurba_marseille","lat":43.23158,"lon":5.43706,"is_reserved":false,"is_disabled":false,"rental_uris":{"android":"levelo://app?vid=3aefb9c1-3e4a-487c-b413-b90ef97c7063","ios":"levelo://app?vid=3aefb9c1-3e4a-487c-b413-b90ef97c7063"},"vehicle_type_id":"4","last_reported":1736435381,"current_range_meters":14800,"station_id":"ce4bhmp2rcd13ifvqgog","pricing_plan_id":"cebpf4jnsgd1na2vs0mg"},{"bike_id":"be8a233f-ad85-41b2-af03-bfa1e3033438","system_id":"levelo_inurba_marseille","lat":43.23214,"lon":5.3557,"is_reserved":false,"is_disabled":false,"rental_uris":{"android":"levelo://app?vid=be8a233f-ad85-41b2-af03-bfa1e3033438","ios":"levelo://app?vid=be8a233f-ad85-41b2-af03-bfa1e3033438"},"vehicle_type_id":"4","last_reported":1736435381,"current_range_meters":28000,"station_id":"ce4bhu92rcd13ifvqi70","pricing_plan_id":"cebpf4jnsgd1na2vs0mg"},{"bike_id":"b124ca2f-2fd0-4c56-960f-1b8a90949c3b","system_id":"levelo_inurba_marseille","lat":43.29546,"lon":5.37493,"is_reserved":false,"is_disabled":true,"rental_uris":{"android":"levelo://app?vid=b124ca2f-2fd0-4c56-960f-1b8a90949c3b","ios":"levelo://app?vid=b124ca2f-2fd0-4c56-960f-1b8a90949c3b"},"vehicle_type_id":"4","last_reported":1736435381,"current_range_meters":28800,"station_id":"ce4bgkp2rcd13ifvqbmg","pricing_plan_id":"cebpf4jnsgd1na2vs0mg"},{"bike_id":"4e961a78-0f5c-4fc7-98ca-40069191b9f0","system_id":"levelo_inurba_marseille","lat":43.28425,"lon":5.34979,"is_reserved":false,"is_disabled":false,"rental_uris":{"android":"levelo://app?vid=4e961a78-0f5c-4fc7-98ca-40069191b9f0","ios":"levelo://app?vid=4e961a78-0f5c-4fc7-98ca-40069191b9f0"},"vehicle_type_id":"4","last_reported":1736435381,"current_range_meters":37600,"station_id":"ce4bhbh2rcd13ifvqepg","pricing_plan_id":"cebpf4jnsgd1na2vs0mg"},{"bike_id":"2bf137df-75b1-44ad-8782-8d7ae5906911","system_id":"levelo_inurba_marseille","lat":43.30442,"lon":5.38897,"is_reserved":false,"is_disabled":false,"rental_uris":{"android":"levelo://app?vid=2bf137df-75b1-44ad-8782-8d7ae5906911","ios":"levelo://app?vid=2bf137df-75b1-44ad-8782-8d7ae5906911"},"vehicle_type_id":"4","last_reported":1736435381,"current_range_meters":37600,"station_id":"ce4bgk12rcd13ifvqbi0","pricing_plan_id":"cebpf4jnsgd1na2vs0mg"},{"bike_id":"ea0719f3-eceb-440b-85a2-c16b31e4d610","system_id":"levelo_inurba_marseille","lat":43.2923,"lon":5.36076,"is_reserved":false,"is_disabled":true,"rental_uris":{"android":"levelo://app?vid=ea0719f3-eceb-440b-85a2-c16b31e4d610","ios":"levelo://app?vid=ea0719f3-eceb-440b-85a2-c16b31e4d610"},"vehicle_type_id":"4","last_reported":1736435381,"current_range_meters":0,"station_id":"ce4bhbh2rcd13ifvqeqg","pricing_plan_id":"cebpf4jnsgd1na2vs0mg"},{"bike_id":"94c02afb-9760-4eea-9611-074184d4b1de","system_id":"levelo_inurba_marseille","lat":43.29933,"lon":5.36538,"is_reserved":false,"is_disabled":false,"rental_uris":{"android":"levelo://app?vid=94c02afb-9760-4eea-9611-074184d4b1de","ios":"levelo://app?vid=94c02afb-9760-4eea-9611-074184d4b1de"},"vehicle_type_id":"4","last_reported":1736435381,"current_range_meters":38000,"station_id":"ce4bgm92rcd13ifvqbr0","pricing_plan_id":"cebpf4jnsgd1na2vs0mg"},{"bike_id":"4cb6c51e-bcc6-45c7-b90a-f3f4de54283b","system_id":"levelo_inurba_marseille","lat":43.29015,"lon":5.38438,"is_reserved":false,"is_disabled":false,"rental_uris":{"android":"levelo://app?vid=4cb6c51e-bcc6-45c7-b90a-f3f4de54283b","ios":"levelo://app?vid=4cb6c51e-bcc6-45c7-b90a-f3f4de54283b"},"vehicle_type_id":"4","last_reported":1736435381,"current_range_meters":8400,"station_id":"ce4bh192rcd13ifvqdd0","pricing_plan_id":"cebpf4jnsgd1na2vs0mg"},{"bike_id":"2ac4f896-827d-4637-9fa3-c38d9ebf1ebf","system_id":"levelo_inurba_marseille","lat":43.26199,"lon":5.37932,"is_reserved":false,"is_disabled":false,"rental_uris":{"android":"levelo://app?vid=2ac4f896-827d-4637-9fa3-c38d9ebf1ebf","ios":"levelo://app?vid=2ac4f896-827d-4637-9fa3-c38d9ebf1ebf"},"vehicle_type_id":"4","last_reported":1736435381,"current_range_meters":38000,"station_id":"ce4bhjp2rcd13ifvqg90","pricing_plan_id":"cebpf4jnsgd1na2vs0mg"},{"bike_id":"54135c59-405f-4165-a05a-78ca8b78fedf","system_id":"levelo_inurba_marseille","lat":43.23153,"lon":5.43716,"is_reserved":false,"is_disabled":true,"rental_uris":{"android":"levelo://app?vid=54135c59-405f-4165-a05a-78ca8b78fedf","ios":"levelo://app?vid=54135c59-405f-4165-a05a-78ca8b78fedf"},"vehicle_type_id":"4","last_reported":1736435381,"current_range_meters":1600,"station_id":"ce4bhmp2rcd13ifvqgog","pricing_plan_id":"cebpf4jnsgd1na2vs0mg"},{"bike_id":"aca58d84-ee45-42b2-bfa7-a284870e32cc","system_id":"levelo_inurba_marseille","lat":43.30959,"lon":5.36863,"is_reserved":false,"is_disabled":false,"rental_uris":{"android":"levelo://app?vid=aca58d84-ee45-42b2-bfa7-a284870e32cc","ios":"levelo://app?vid=aca58d84-ee45-42b2-bfa7-a284870e32cc"},"vehicle_type_id":"4","last_reported":1736435381,"current_range_meters":38800,"station_id":"ce4bgn92rcd13ifvqbvg","pricing_plan_id":"cebpf4jnsgd1na2vs0mg"},{"bike_id":"661421ef-43d8-4a9a-9b63-a317032c4e73","system_id":"levelo_inurba_marseille","lat":43.30139,"lon":5.38838,"is_reserved":false,"is_disabled":true,"rental_uris":{"android":"levelo://app?vid=661421ef-43d8-4a9a-9b63-a317032c4e73","ios":"levelo://app?vid=661421ef-43d8-4a9a-9b63-a317032c4e73"},"vehicle_type_id":"4","last_reported":1736435381,"current_range_meters":38800,"station_id":"ce4bghh2rcd13ifvqb60","pricing_plan_id":"cebpf4jnsgd1na2vs0mg"},{"bike_id":"bf15ac2a-ee0d-4d28-828b-b126f9c0e9d3","system_id":"levelo_inurba_marseille","lat":43.30424,"lon":5.39754,"is_reserved":false,"is_disabled":false,"rental_uris":{"android":"levelo://app?vid=bf15ac2a-ee0d-4d28-828b-b126f9c0e9d3","ios":"levelo://app?vid=bf15ac2a-ee0d-4d28-828b-b126f9c0e9d3"},"vehicle_type_id":"4","last_reported":1736435381,"current_range_meters":20000,"station_id":"ce4bh092rcd13ifvqd20","pricing_plan_id":"cebpf4jnsgd1na2vs0mg"},{"bike_id":"fc9288ed-9da0-4c7f-9aba-d64070cdbf51","system_id":"levelo_inurba_marseille","lat":43.23171,"lon":5.43688,"is_reserved":false,"is_disabled":true,"rental_uris":{"android":"levelo://app?vid=fc9288ed-9da0-4c7f-9aba-d64070cdbf51","ios":"levelo://app?vid=fc9288ed-9da0-4c7f-9aba-d64070cdbf51"},"vehicle_type_id":"4","last_reported":1736435381,"current_range_meters":1600,"station_id":"ce4bhmp2rcd13ifvqgog","pricing_plan_id":"cebpf4jnsgd1na2vs0mg"},{"bike_id":"4dfda42e-1405-4547-80de-12e4b56057f8","system_id":"levelo_inurba_marseille","lat":43.24076,"lon":5.37751,"is_reserved":false,"is_disabled":false,"rental_uris":{"android":"levelo://app?vid=4dfda42e-1405-4547-80de-12e4b56057f8","ios":"levelo://app?vid=4dfda42e-1405-4547-80de-12e4b56057f8"},"vehicle_type_id":"4","last_reported":1736435381,"current_range_meters":32400,"station_id":"ce4bhnp2rcd13ifvqgvg","pricing_plan_id":"cebpf4jnsgd1na2vs0mg"},{"bike_id":"ad28bd53-1c8c-44ea-9a1c-1e5a5b2498fe","system_id":"levelo_inurba_marseille","lat":43.24171,"lon":5.36403,"is_reserved":false,"is_disabled":false,"rental_uris":{"android":"levelo://app?vid=ad28bd53-1c8c-44ea-9a1c-1e5a5b2498fe","ios":"levelo://app?vid=ad28bd53-1c8c-44ea-9a1c-1e5a5b2498fe"},"vehicle_type_id":"4","last_reported":1736435381,"current_range_meters":14400,"station_id":"cpo36qri1sfpv3e86is0","pricing_plan_id":"cebpf4jnsgd1na2vs0mg"},{"bike_id":"c6f5202e-f115-4b0f-953e-5b95cb1987d4","system_id":"levelo_inurba_marseille","lat":43.26809,"lon":5.40261,"is_reserved":false,"is_disabled":false,"rental_uris":{"android":"levelo://app?vid=c6f5202e-f115-4b0f-953e-5b95cb1987d4","ios":"levelo://app?vid=c6f5202e-f115-4b0f-953e-5b95cb1987d4"},"vehicle_type_id":"4","last_reported":1736435381,"current_range_meters":32000,"station_id":"ce501612rcd8frsf0b60","pricing_plan_id":"cebpf4jnsgd1na2vs0mg"},{"bike_id":"2d2fbc61-7484-43d8-82f1-4c77f4e113dc","system_id":"levelo_inurba_marseille","lat":43.24066,"lon":5.37688,"is_reserved":false,"is_disabled":false,"rental_uris":{"android":"levelo://app?vid=2d2fbc61-7484-43d8-82f1-4c77f4e113dc","ios":"levelo://app?vid=2d2fbc61-7484-43d8-82f1-4c77f4e113dc"},"vehicle_type_id":"4","last_reported":1736435381,"current_range_meters":22000,"station_id":"ce4bhnp2rcd13ifvqgvg","pricing_plan_id":"cebpf4jnsgd1na2vs0mg"},{"bike_id":"3f634eef-006f-450a-8804-c61d85614ac9","system_id":"levelo_inurba_marseille","lat":43.25498,"lon":5.37655,"is_reserved":false,"is_disabled":false,"rental_uris":{"android":"levelo://app?vid=3f634eef-006f-450a-8804-c61d85614ac9","ios":"levelo://app?vid=3f634eef-006f-450a-8804-c61d85614ac9"},"vehicle_type_id":"4","last_reported":1736435381,"current_range_meters":22800,"station_id":"ce4bhh12rcd13ifvqff0","pricing_plan_id":"cebpf4jnsgd1na2vs0mg"},{"bike_id":"beceaf1c-b3bb-4418-826f-ccba131c6a10","system_id":"levelo_inurba_marseille","lat":43.23161,"lon":5.43716,"is_reserved":false,"is_disabled":false,"rental_uris":{"android":"levelo://app?vid=beceaf1c-b3bb-4418-826f-ccba131c6a10","ios":"levelo://app?vid=beceaf1c-b3bb-4418-826f-ccba131c6a10"},"vehicle_type_id":"4","last_reported":1736435381,"current_range_meters":38800,"station_id":"ce4bhmp2rcd13ifvqgog","pricing_plan_id":"cebpf4jnsgd1na2vs0mg"},{"bike_id":"22acbce7-7e2c-47bb-acb1-a7a79607de7c","system_id":"levelo_inurba_marseille","lat":43.26683,"lon":5.38269,"is_reserved":false,"is_disabled":false,"rental_uris":{"android":"levelo://app?vid=22acbce7-7e2c-47bb-acb1-a7a79607de7c","ios":"levelo://app?vid=22acbce7-7e2c-47bb-acb1-a7a79607de7c"},"vehicle_type_id":"4","last_reported":1736435381,"current_range_meters":38800,"station_id":"ce4bhg92rcd13ifvqf90","pricing_plan_id":"cebpf4jnsgd1na2vs0mg"},{"bike_id":"191a0eb2-979a-4128-9acf-a4bcca5411ca","system_id":"levelo_inurba_marseille","lat":43.30288,"lon":5.37707,"is_reserved":false,"is_disabled":false,"rental_uris":{"android":"levelo://app?vid=191a0eb2-979a-4128-9acf-a4bcca5411ca","ios":"levelo://app?vid=191a0eb2-979a-4128-9acf-a4bcca5411ca"},"vehicle_type_id":"4","last_reported":1736435381,"current_range_meters":38800,"station_id":"ce4bguh2rcd13ifvqcj0","pricing_plan_id":"cebpf4jnsgd1na2vs0mg"},{"bike_id":"b8acbba0-a715-4ced-a2aa-0517db10ac9d","system_id":"levelo_inurba_marseille","lat":43.229274,"lon":5.35381,"is_reserved":false,"is_disabled":false,"rental_uris":{"android":"levelo://app?vid=b8acbba0-a715-4ced-a2aa-0517db10ac9d","ios":"levelo://app?vid=b8acbba0-a715-4ced-a2aa-0517db10ac9d"},"vehicle_type_id":"4","last_reported":1736435381,"current_range_meters":10800,"station_id":"cpo3532slgdg3j2ikp40","pricing_plan_id":"cebpf4jnsgd1na2vs0mg"},{"bike_id":"24310845-dd7b-4d25-a99d-65d599b0ee35","system_id":"levelo_inurba_marseille","lat":43.26027,"lon":5.37545,"is_reserved":false,"is_disabled":false,"rental_uris":{"android":"levelo://app?vid=24310845-dd7b-4d25-a99d-65d599b0ee35","ios":"levelo://app?vid=24310845-dd7b-4d25-a99d-65d599b0ee35"},"vehicle_type_id":"4","last_reported":1736435381,"current_range_meters":38000,"station_id":"ce4bhgh2rcd13ifvqfa0","pricing_plan_id":"cebpf4jnsgd1na2vs0mg"},{"bike_id":"eb869bf6-940d-4ebe-a53f-e2d1592b775d","system_id":"levelo_inurba_marseille","lat":43.30558,"lon":5.36583,"is_reserved":false,"is_disabled":false,"rental_uris":{"android":"levelo://app?vid=eb869bf6-940d-4ebe-a53f-e2d1592b775d","ios":"levelo://app?vid=eb869bf6-940d-4ebe-a53f-e2d1592b775d"},"vehicle_type_id":"4","last_reported":1736435381,"current_range_meters":28800,"station_id":"ce4bgs12rcd13ifvqcag","pricing_plan_id":"cebpf4jnsgd1na2vs0mg"},{"bike_id":"ca28c05e-bfc5-443c-b699-0afa6d6ec689","system_id":"levelo_inurba_marseille","lat":43.29851,"lon":5.362877,"is_reserved":false,"is_disabled":false,"rental_uris":{"android":"levelo://app?vid=ca28c05e-bfc5-443c-b699-0afa6d6ec689","ios":"levelo://app?vid=ca28c05e-bfc5-443c-b699-0afa6d6ec689"},"vehicle_type_id":"4","last_reported":1736435381,"current_range_meters":34800,"station_id":"ce4bgpp2rcd13ifvqc3g","pricing_plan_id":"cebpf4jnsgd1na2vs0mg"},{"bike_id":"94d7f15d-c2eb-48e0-ab06-c718661b3572","system_id":"levelo_inurba_marseille","lat":43.30912,"lon":5.36853,"is_reserved":false,"is_disabled":false,"rental_uris":{"android":"levelo://app?vid=94d7f15d-c2eb-48e0-ab06-c718661b3572","ios":"levelo://app?vid=94d7f15d-c2eb-48e0-ab06-c718661b3572"},"vehicle_type_id":"4","last_reported":1736435381,"current_range_meters":35200,"station_id":"ce4bgn92rcd13ifvqbvg","pricing_plan_id":"cebpf4jnsgd1na2vs0mg"},{"bike_id":"9f45806b-0439-44e8-9147-35b59088d5f3","system_id":"levelo_inurba_marseille","lat":43.24163,"lon":5.36414,"is_reserved":false,"is_disabled":false,"rental_uris":{"android":"levelo://app?vid=9f45806b-0439-44e8-9147-35b59088d5f3","ios":"levelo://app?vid=9f45806b-0439-44e8-9147-35b59088d5f3"},"vehicle_type_id":"4","last_reported":1736435381,"current_range_meters":18800,"station_id":"cpo36qri1sfpv3e86is0","pricing_plan_id":"cebpf4jnsgd1na2vs0mg"},{"bike_id":"cbe61088-8cda-4b9a-b6fc-038219455931","system_id":"levelo_inurba_marseille","lat":43.30547,"lon":5.36701,"is_reserved":false,"is_disabled":false,"rental_uris":{"android":"levelo://app?vid=cbe61088-8cda-4b9a-b6fc-038219455931","ios":"levelo://app?vid=cbe61088-8cda-4b9a-b6fc-038219455931"},"vehicle_type_id":"4","last_reported":1736435381,"current_range_meters":39200,"station_id":"ce4bgrp2rcd13ifvqc9g","pricing_plan_id":"cebpf4jnsgd1na2vs0mg"},{"bike_id":"9b72e67d-1f67-48fa-986a-30ed58099a02","system_id":"levelo_inurba_marseille","lat":43.26809,"lon":5.4026,"is_reserved":false,"is_disabled":false,"rental_uris":{"android":"levelo://app?vid=9b72e67d-1f67-48fa-986a-30ed58099a02","ios":"levelo://app?vid=9b72e67d-1f67-48fa-986a-30ed58099a02"},"vehicle_type_id":"4","last_reported":1736435381,"current_range_meters":30400,"station_id":"ce501612rcd8frsf0b60","pricing_plan_id":"cebpf4jnsgd1na2vs0mg"},{"bike_id":"c0844158-4fb1-4ef7-ad06-a01804611734","system_id":"levelo_inurba_marseille","lat":43.30282,"lon":5.37679,"is_reserved":false,"is_disabled":false,"rental_uris":{"android":"levelo://app?vid=c0844158-4fb1-4ef7-ad06-a01804611734","ios":"levelo://app?vid=c0844158-4fb1-4ef7-ad06-a01804611734"},"vehicle_type_id":"4","last_reported":1736435381,"current_range_meters":38800,"station_id":"ce4bguh2rcd13ifvqcj0","pricing_plan_id":"cebpf4jnsgd1na2vs0mg"},{"bike_id":"3108c230-0b71-48c3-ac34-2963912f8e96","system_id":"levelo_inurba_marseille","lat":43.259362,"lon":5.409088,"is_reserved":false,"is_disabled":false,"rental_uris":{"android":"levelo://app?vid=3108c230-0b71-48c3-ac34-2963912f8e96","ios":"levelo://app?vid=3108c230-0b71-48c3-ac34-2963912f8e96"},"vehicle_type_id":"4","last_reported":1736435381,"current_range_meters":16000,"station_id":"ce4bhm92rcd13ifvqglg","pricing_plan_id":"cebpf4jnsgd1na2vs0mg"},{"bike_id":"02549678-af99-46b3-963d-4149fd59e615","system_id":"levelo_inurba_marseille","lat":43.3149,"lon":5.37309,"is_reserved":false,"is_disabled":false,"rental_uris":{"android":"levelo://app?vid=02549678-af99-46b3-963d-4149fd59e615","ios":"levelo://app?vid=02549678-af99-46b3-963d-4149fd59e615"},"vehicle_type_id":"4","last_reported":1736435381,"current_range_meters":36800,"station_id":"ce4bgt12rcd13ifvqcd0","pricing_plan_id":"cebpf4jnsgd1na2vs0mg"},{"bike_id":"fca7aa83-9566-473c-a0db-4f38beb60448","system_id":"levelo_inurba_marseille","lat":43.31294,"lon":5.36844,"is_reserved":false,"is_disabled":false,"rental_uris":{"android":"levelo://app?vid=fca7aa83-9566-473c-a0db-4f38beb60448","ios":"levelo://app?vid=fca7aa83-9566-473c-a0db-4f38beb60448"},"vehicle_type_id":"4","last_reported":1736435381,"current_range_meters":30400,"station_id":"ce4bgl92rcd13ifvqbq0","pricing_plan_id":"cebpf4jnsgd1na2vs0mg"},{"bike_id":"ad1e33ea-f08a-4191-816c-2f08214bd77b","system_id":"levelo_inurba_marseille","lat":43.27315,"lon":5.39083,"is_reserved":false,"is_disabled":false,"rental_uris":{"android":"levelo://app?vid=ad1e33ea-f08a-4191-816c-2f08214bd77b","ios":"levelo://app?vid=ad1e33ea-f08a-4191-816c-2f08214bd77b"},"vehicle_type_id":"4","last_reported":1736435381,"current_range_meters":38800,"station_id":"ce4bhgp2rcd13ifvqfe0","pricing_plan_id":"cebpf4jnsgd1na2vs0mg"},{"bike_id":"d8eeb045-2cb2-4916-a32e-94d9cb1614c3","system_id":"levelo_inurba_marseille","lat":43.24177,"lon":5.39737,"is_reserved":false,"is_disabled":false,"rental_uris":{"android":"levelo://app?vid=d8eeb045-2cb2-4916-a32e-94d9cb1614c3","ios":"levelo://app?vid=d8eeb045-2cb2-4916-a32e-94d9cb1614c3"},"vehicle_type_id":"4","last_reported":1736435381,"current_range_meters":28800,"station_id":"ce4bhn12rcd13ifvqgpg","pricing_plan_id":"cebpf4jnsgd1na2vs0mg"},{"bike_id":"b9b8fdbf-6e31-4186-8b5e-7c6b0705272b","system_id":"levelo_inurba_marseille","lat":43.30908,"lon":5.3685,"is_reserved":false,"is_disabled":false,"rental_uris":{"android":"levelo://app?vid=b9b8fdbf-6e31-4186-8b5e-7c6b0705272b","ios":"levelo://app?vid=b9b8fdbf-6e31-4186-8b5e-7c6b0705272b"},"vehicle_type_id":"4","last_reported":1736435381,"current_range_meters":37600,"station_id":"ce4bgn92rcd13ifvqbvg","pricing_plan_id":"cebpf4jnsgd1na2vs0mg"},