{"last_updated":1702202833,"ttl":30,"version":"2.2","data":{"bikes":[{"bike_id":"93f2cf84-1777-4c76-8b6f-5a79a82d8b76","system_id":"levelo_inurba_marseille","lat":43.309076,"lon":5.368465,"is_reserved":false,"is_disabled":false,"rental_uris":{"android":"levelo://app?vid=93f2cf84-1777-4c76-8b6f-5a79a82d8b76","ios":"levelo://app?vid=93f2cf84-1777-4c76-8b6f-5a79a82d8b76"},"vehicle_type_id":"4","last_reported":1702202833,"current_range_meters":28800,"station_id":"ce4bgn92rcd13ifvqbvg","pricing_plan_id":"free"},{"bike_id":"d99b7a76-46a9-4c0f-90d7-e041dfe9af5c","system_id":"levelo_inurba_marseille","lat":43.305714,"lon":5.365633,"is_reserved":false,"is_disabled":false,"rental_uris":{"android":"levelo://app?vid=d99b7a76-46a9-4c0f-90d7-e041dfe9af5c","ios":"levelo://app?vid=d99b7a76-46a9-4c0f-90d7-e041dfe9af5c"},"vehicle_type_id":"4","last_reported":1702202833,"current_range_meters":6800,"station_id":"ce4bgs12rcd13ifvqcag","pricing_plan_id":"free"},{"bike_id":"5da1de88-852f-41de-b4d1-cd000a4dfd57","system_id":"levelo_inurba_marseille","lat":43.305712,"lon":5.365641,"is_reserved":false,"is_disabled":false,"rental_uris":{"android":"levelo://app?vid=5da1de88-852f-41de-b4d1-cd000a4dfd57","ios":"levelo://app?vid=5da1de88-852f-41de-b4d1-cd000a4dfd57"},"vehicle_type_id":"4","last_reported":1702202833,"current_range_meters":30000,"station_id":"ce4bgs12rcd13ifvqcag","pricing_plan_id":"free"},{"bike_id":"6048bf29-d482-409a-8a01-59c84fab0840","system_id":"levelo_inurba_marseille","lat":43.305714,"lon":5.365633,"is_reserved":false,"is_disabled":false,"rental_uris":{"android":"levelo://app?vid=6048bf29-d482-409a-8a01-59c84fab0840","ios":"levelo://app?vid=6048bf29-d482-409a-8a01-59c84fab0840"},"vehicle_type_id":"4","last_reported":1702202833,"current_range_meters":23200,"station_id":"ce4bgs12rcd13ifvqcag","pricing_plan_id":"free"},{"bike_id":"1fde2408-7ede-4fdd-adf5-f9e36ef62869","system_id":"levelo_inurba_marseille","lat":43.305714,"lon":5.365633,"is_reserved":false,"is_disabled":false,"rental_uris":{"android":"levelo://app?vid=1fde2408-7ede-4fdd-adf5-f9e36ef62869","ios":"levelo://app?vid=1fde2408-7ede-4fdd-adf5-f9e36ef62869"},"vehicle_type_id":"4","last_reported":1702202833,"current_range_meters":28800,"station_id":"ce4bgs12rcd13ifvqcag","pricing_plan_id":"free"},{"bike_id":"e38a4c55-b6a2-4190-b541-54c83feb6b4f","system_id":"levelo_inurba_marseille","lat":43.305706,"lon":5.365654,"is_reserved":false,"is_disabled":false,"rental_uris":{"android":"levelo://app?vid=e38a4c55-b6a2-4190-b541-54c83feb6b4f","ios":"levelo://app?vid=e38a4c55-b6a2-4190-b541-54c83feb6b4f"},"vehicle_type_id":"4","last_reported":1702202833,"current_range_meters":18400,"station_id":"ce4bgs12rcd13ifvqcag","pricing_plan_id":"free"},{"bike_id":"482e6c96-a8a6-4f9e-8948-5c2d457a576a","system_id":"levelo_inurba_marseille","lat":43.311131,"lon":5.377651,"is_reserved":false,"is_disabled":false,"rental_uris":{"android":"levelo://app?vid=482e6c96-a8a6-4f9e-8948-5c2d457a576a","ios":"levelo://app?vid=482e6c96-a8a6-4f9e-8948-5c2d457a576a"},"vehicle_type_id":"4","last_reported":1702202833,"current_range_meters":23600,"station_id":"ce4bgt92rcd13ifvqcg0","pricing_plan_id":"free"},{"bike_id":"5bbaec29-83d6-427c-a2b2-20c6aac90b88","system_id":"levelo_inurba_marseille","lat":43.3112,"lon":5.37773,"is_reserved":false,"is_disabled":false,"rental_uris":{"android":"levelo://app?vid=5bbaec29-83d6-427c-a2b2-20c6aac90b88","ios":"levelo://app?vid=5bbaec29-83d6-427c-a2b2-20c6aac90b88"},"vehicle_type_id":"4","last_reported":1702202833,"current_range_meters":19600,"station_id":"ce4bgt92rcd13ifvqcg0","pricing_plan_id":"free"},{"bike_id":"733ac139-31b1-43b0-8225-269a800be920","system_id":"levelo_inurba_marseille","lat":43.30313,"lon":5.36896,"is_reserved":false,"is_disabled":false,"rental_uris":{"android":"levelo://app?vid=733ac139-31b1-43b0-8225-269a800be920","ios":"levelo://app?vid=733ac139-31b1-43b0-8225-269a800be920"},"vehicle_type_id":"4","last_reported":1702202833,"current_range_meters":30000,"station_id":"ce4bgqh2rcd13ifvqc5g","pricing_plan_id":"free"},{"bike_id":"3de9ccb9-7807-49a8-8f26-49b0d1fb051a","system_id":"levelo_inurba_marseille","lat":43.303046,"lon":5.368981,"is_reserved":false,"is_disabled":false,"rental_uris":{"android":"levelo://app?vid=3de9ccb9-7807-49a8-8f26-49b0d1fb051a","ios":"levelo://app?vid=3de9ccb9-7807-49a8-8f26-49b0d1fb051a"},"vehicle_type_id":"4","last_reported":1702202833,"current_range_meters":29600,"station_id":"ce4bgqh2rcd13ifvqc5g","pricing_plan_id":"free"},{"bike_id":"0e1ef088-dda2-41d3-8ae6-b7e09d4c96e7","system_id":"levelo_inurba_marseille","lat":43.30306,"lon":5.36899,"is_reserved":false,"is_disabled":false,"rental_uris":{"android":"levelo://app?vid=0e1ef088-dda2-41d3-8ae6-b7e09d4c96e7","ios":"levelo://app?vid=0e1ef088-dda2-41d3-8ae6-b7e09d4c96e7"},"vehicle_type_id":"4","last_reported":1702202833,"current_range_meters":30000,"station_id":"ce4bgqh2rcd13ifvqc5g","pricing_plan_id":"free"},{"bike_id":"5595c597-108c-4c89-92b8-42457ef12fb4","system_id":"levelo_inurba_marseille","lat":43.308,"lon":5.38163,"is_reserved":false,"is_disabled":false,"rental_uris":{"android":"levelo://app?vid=5595c597-108c-4c89-92b8-42457ef12fb4","ios":"levelo://app?vid=5595c597-108c-4c89-92b8-42457ef12fb4"},"vehicle_type_id":"4","last_reported":1702202833,"current_range_meters":9200,"station_id":"ce4bgt12rcd13ifvqce0","pricing_plan_id":"free"},{"bike_id":"9d77012b-f5e0-48f2-bb62-981964abf6a4","system_id":"levelo_inurba_marseille","lat":43.30459,"lon":5.37896,"is_reserved":false,"is_disabled":false,"rental_uris":{"android":"levelo://app?vid=9d77012b-f5e0-48f2-bb62-981964abf6a4","ios":"levelo://app?vid=9d77012b-f5e0-48f2-bb62-981964abf6a4"},"vehicle_type_id":"4","last_reported":1702202833,"current_range_meters":24000,"station_id":"ce4bgup2rcd13ifvqcn0","pricing_plan_id":"free"},{"bike_id":"f3945077-cb0b-4637-9d97-d57601c70a36","system_id":"levelo_inurba_marseille","lat":43.304606,"lon":5.379026,"is_reserved":false,"is_disabled":false,"rental_uris":{"android":"levelo://app?vid=f3945077-cb0b-4637-9d97-d57601c70a36","ios":"levelo://app?vid=f3945077-cb0b-4637-9d97-d57601c70a36"},"vehicle_type_id":"4","last_reported":1702202833,"current_range_meters":25600,"station_id":"ce4bgup2rcd13ifvqcn0","pricing_plan_id":"free"},{"bike_id":"b9007b00-de8e-4c4d-b54f-cb74236d2a40","system_id":"levelo_inurba_marseille","lat":43.324771,"lon":5.36557,"is_reserved":false,"is_disabled":false,"rental_uris":{"android":"levelo://app?vid=b9007b00-de8e-4c4d-b54f-cb74236d2a40","ios":"levelo://app?vid=b9007b00-de8e-4c4d-b54f-cb74236d2a40"},"vehicle_type_id":"4","last_reported":1702202833,"current_range_meters":27600,"station_id":"ce4bhs12rcd13ifvqhvg","pricing_plan_id":"free"},{"bike_id":"e606102b-a630-4793-8c67-412e6b33c3ae","system_id":"levelo_inurba_marseille","lat":43.31997,"lon":5.38155,"is_reserved":false,"is_disabled":false,"rental_uris":{"android":"levelo://app?vid=e606102b-a630-4793-8c67-412e6b33c3ae","ios":"levelo://app?vid=e606102b-a630-4793-8c67-412e6b33c3ae"},"vehicle_type_id":"4","last_reported":1702202833,"current_range_meters":10800,"station_id":"ce4bhr12rcd13ifvqhpg","pricing_plan_id":"free"},{"bike_id":"163f33b8-c9cb-4fd5-912d-7bfb438ab7dd","system_id":"levelo_inurba_marseille","lat":43.313571,"lon":5.384829,"is_reserved":false,"is_disabled":false,"rental_uris":{"android":"levelo://app?vid=163f33b8-c9cb-4fd5-912d-7bfb438ab7dd","ios":"levelo://app?vid=163f33b8-c9cb-4fd5-912d-7bfb438ab7dd"},"vehicle_type_id":"4","last_reported":1702202833,"current_range_meters":6400,"station_id":"ce4bgt92rcd13ifvqcf0","pricing_plan_id":"free"},{"bike_id":"d8be298e-f4c0-4479-a66b-e307c680d7cc","system_id":"levelo_inurba_marseille","lat":43.31356,"lon":5.38493,"is_reserved":false,"is_disabled":false,"rental_uris":{"android":"levelo://app?vid=d8be298e-f4c0-4479-a66b-e307c680d7cc","ios":"levelo://app?vid=d8be298e-f4c0-4479-a66b-e307c680d7cc"},"vehicle_type_id":"4","last_reported":1702202833,"current_range_meters":20800,"station_id":"ce4bgt92rcd13ifvqcf0","pricing_plan_id":"free"},{"bike_id":"fa0f6121-5666-4aa2-ba4b-b8713fbc9e2d","system_id":"levelo_inurba_marseille","lat":43.299222,"lon":5.365554,"is_reserved":false,"is_disabled":false,"rental_uris":{"android":"levelo://app?vid=fa0f6121-5666-4aa2-ba4b-b8713fbc9e2d","ios":"levelo://app?vid=fa0f6121-5666-4aa2-ba4b-b8713fbc9e2d"},"vehicle_type_id":"4","last_reported":1702202833,"current_range_meters":30800,"station_id":"ce4bgm92rcd13ifvqbr0","pricing_plan_id":"free"},{"bike_id":"ed8066de-4d9b-4f3e-b2de-fc11eb0c1ce1","system_id":"levelo_inurba_marseille","lat":43.299222,"lon":5.365554,"is_reserved":false,"is_disabled":false,"rental_uris":{"android":"levelo://app?vid=ed8066de-4d9b-4f3e-b2de-fc11eb0c1ce1","ios":"levelo://app?vid=ed8066de-4d9b-4f3e-b2de-fc11eb0c1ce1"},"vehicle_type_id":"4","last_reported":1702202833,"current_range_meters":30000,"station_id":"ce4bgm92rcd13ifvqbr0","pricing_plan_id":"free"},{"bike_id":"39f8c234-b410-410a-80ef-1039e309d610","system_id":"levelo_inurba_marseille","lat":43.299365,"lon":5.365415,"is_reserved":false,"is_disabled":false,"rental_uris":{"android":"levelo://app?vid=39f8c234-b410-410a-80ef-1039e309d610","ios":"levelo://app?vid=39f8c234-b410-410a-80ef-1039e309d610"},"vehicle_type_id":"4","last_reported":1702202833,"current_range_meters":22400,"station_id":"ce4bgm92rcd13ifvqbr0","pricing_plan_id":"free"},{"bike_id":"781b9188-ff14-435b-81b5-eb14aa9c30b4","system_id":"levelo_inurba_marseille","lat":43.29933,"lon":5.36539,"is_reserved":false,"is_disabled":false,"rental_uris":{"android":"levelo://app?vid=781b9188-ff14-435b-81b5-eb14aa9c30b4","ios":"levelo://app?vid=781b9188-ff14-435b-81b5-eb14aa9c30b4"},"vehicle_type_id":"4","last_reported":1702202833,"current_range_meters":30000,"station_id":"ce4bgm92rcd13ifvqbr0","pricing_plan_id":"free"},{"bike_id":"c0a64277-f5dd-4691-8acb-5c084fb0cfac","system_id":"levelo_inurba_marseille","lat":43.298433,"lon":5.362774,"is_reserved":false,"is_disabled":false,"rental_uris":{"android":"levelo://app?vid=c0a64277-f5dd-4691-8acb-5c084fb0cfac","ios":"levelo://app?vid=c0a64277-f5dd-4691-8acb-5c084fb0cfac"},"vehicle_type_id":"4","last_reported":1702202833,"current_range_meters":26400,"station_id":"ce4bgpp2rcd13ifvqc3g","pricing_plan_id":"free"},{"bike_id":"c83a0210-bd4d-48be-bfb1-022b033daf6b","system_id":"levelo_inurba_marseille","lat":43.298433,"lon":5.362774,"is_reserved":false,"is_disabled":false,"rental_uris":{"android":"levelo://app?vid=c83a0210-bd4d-48be-bfb1-022b033daf6b","ios":"levelo://app?vid=c83a0210-bd4d-48be-bfb1-022b033daf6b"},"vehicle_type_id":"4","last_reported":1702202833,"current_range_meters":22000,"station_id":"ce4bgpp2rcd13ifvqc3g","pricing_plan_id":"free"},{"bike_id":"b5bf9ac7-37c1-4dcf-a6ab-5f20f4514355","system_id":"levelo_inurba_marseille","lat":43.298433,"lon":5.362774,"is_reserved":false,"is_disabled":false,"rental_uris":{"android":"levelo://app?vid=b5bf9ac7-37c1-4dcf-a6ab-5f20f4514355","ios":"levelo://app?vid=b5bf9ac7-37c1-4dcf-a6ab-5f20f4514355"},"vehicle_type_id":"4","last_reported":1702202833,"current_range_meters":20400,"station_id":"ce4bgpp2rcd13ifvqc3g","pricing_plan_id":"free"},{"bike_id":"3fb272ad-b923-40ef-ad47-53fb17c945b4","system_id":"levelo_inurba_marseille","lat":43.298433,"lon":5.362774,"is_reserved":false,"is_disabled":false,"rental_uris":{"android":"levelo://app?vid=3fb272ad-b923-40ef-ad47-53fb17c945b4","ios":"levelo://app?vid=3fb272ad-b923-40ef-ad47-53fb17c945b4"},"vehicle_type_id":"4","last_reported":1702202833,"current_range_meters":25600,"station_id":"ce4bgpp2rcd13ifvqc3g","pricing_plan_id":"free"},{"bike_id":"e854c070-66ac-4d09-9c46-8628c53f6f89","system_id":"levelo_inurba_marseille","lat":43.311722,"lon":5.387247,"is_reserved":false,"is_disabled":false,"rental_uris":{"android":"levelo://app?vid=e854c070-66ac-4d09-9c46-8628c53f6f89","ios":"levelo://app?vid=e854c070-66ac-4d09-9c46-8628c53f6f89"},"vehicle_type_id":"4","last_reported":1702202833,"current_range_meters":20000,"station_id":"ce4bgv12rcd13ifvqcp0","pricing_plan_id":"free"},{"bike_id":"6ecc573f-cd4f-46bb-b025-d8dd3c280999","system_id":"levelo_inurba_marseille","lat":43.311722,"lon":5.387247,"is_reserved":false,"is_disabled":false,"rental_uris":{"android":"levelo://app?vid=6ecc573f-cd4f-46bb-b025-d8dd3c280999","ios":"levelo://app?vid=6ecc573f-cd4f-46bb-b025-d8dd3c280999"},"vehicle_type_id":"4","last_reported":1702202833,"current_range_meters":14400,"station_id":"ce4bgv12rcd13ifvqcp0","pricing_plan_id":"free"},{"bike_id":"0370f0dd-02e1-44c3-b626-7cdd11d7ffac","system_id":"levelo_inurba_marseille","lat":43.32287,"lon":5.38266,"is_reserved":false,"is_disabled":false,"rental_uris":{"android":"levelo://app?vid=0370f0dd-02e1-44c3-b626-7cdd11d7ffac","ios":"levelo://app?vid=0370f0dd-02e1-44c3-b626-7cdd11d7ffac"},"vehicle_type_id":"4","last_reported":1702202833,"current_range_meters":31200,"station_id":"ce4bhr12rcd13ifvqhqg","pricing_plan_id":"free"},{"bike_id":"6ac675f1-e0be-498c-ad2f-b742a949d4b0","system_id":"levelo_inurba_marseille","lat":43.298218,"lon":5.374416,"is_reserved":false,"is_disabled":false,"rental_uris":{"android":"levelo://app?vid=6ac675f1-e0be-498c-ad2f-b742a949d4b0","ios":"levelo://app?vid=6ac675f1-e0be-498c-ad2f-b742a949d4b0"},"vehicle_type_id":"4","last_reported":1702202833,"current_range_meters":0,"station_id":"","pricing_plan_id":"free"},{"bike_id":"9a75aac0-2e54-4ffe-8b56-07e48315b873","system_id":"levelo_inurba_marseille","lat":43.32832,"lon":5.36686,"is_reserved":false,"is_disabled":false,"rental_uris":{"android":"levelo://app?vid=9a75aac0-2e54-4ffe-8b56-07e48315b873","ios":"levelo://app?vid=9a75aac0-2e54-4ffe-8b56-07e48315b873"},"vehicle_type_id":"4","last_reported":1702202833,"current_range_meters":24000,"station_id":"ce4bhs92rcd13ifvqi0g","pricing_plan_id":"free"},{"bike_id":"f61b677f-3973-45fb-b83e-f707a2caddc7","system_id":"levelo_inurba_marseille","lat":43.297163,"lon":5.365866,"is_reserved":false,"is_disabled":false,"rental_uris":{"android":"levelo://app?vid=f61b677f-3973-45fb-b83e-f707a2caddc7","ios":"levelo://app?vid=f61b677f-3973-45fb-b83e-f707a2caddc7"},"vehicle_type_id":"4","last_reported":1702202833,"current_range_meters":26800,"station_id":"ce4bgn12rcd13ifvqbt0","pricing_plan_id":"free"},{"bike_id":"616e8526-5b38-4994-9814-0ba76b59228f","system_id":"levelo_inurba_marseille","lat":43.2968,"lon":5.37291,"is_reserved":false,"is_disabled":false,"rental_uris":{"android":"levelo://app?vid=616e8526-5b38-4994-9814-0ba76b59228f","ios":"levelo://app?vid=616e8526-5b38-4994-9814-0ba76b59228f"},"vehicle_type_id":"4","last_reported":1702202833,"current_range_meters":29600,"station_id":"ce4bgk12rcd13ifvqbj0","pricing_plan_id":"free"},{"bike_id":"76c0d334-27f1-4d6e-ba52-b131f608aaa2","system_id":"levelo_inurba_marseille","lat":43.29586,"lon":5.36731,"is_reserved":false,"is_disabled":false,"rental_uris":{"android":"levelo://app?vid=76c0d334-27f1-4d6e-ba52-b131f608aaa2","ios":"levelo://app?vid=76c0d334-27f1-4d6e-ba52-b131f608aaa2"},"vehicle_type_id":"4","last_reported":1702202833,"current_range_meters":400,"station_id":"ce4bgph2rcd13ifvqc2g","pricing_plan_id":"free"},{"bike_id":"92dc65d6-6823-4de3-93d4-056f738f090c","system_id":"levelo_inurba_marseille","lat":43.316538,"lon":5.38954,"is_reserved":false,"is_disabled":false,"rental_uris":{"android":"levelo://app?vid=92dc65d6-6823-4de3-93d4-056f738f090c","ios":"levelo://app?vid=92dc65d6-6823-4de3-93d4-056f738f090c"},"vehicle_type_id":"4","last_reported":1702202833,"current_range_meters":0,"station_id":"","pricing_plan_id":"free"},{"bike_id":"3ac01fee-4687-430d-8e90-19b9e8655136","system_id":"levelo_inurba_marseille","lat":43.29573,"lon":5.367355,"is_reserved":false,"is_disabled":false,"rental_uris":{"android":"levelo://app?vid=3ac01fee-4687-430d-8e90-19b9e8655136","ios":"levelo://app?vid=3ac01fee-4687-430d-8e90-19b9e8655136"},"vehicle_type_id":"4","last_reported":1702202833,"current_range_meters":18400,"station_id":"ce4bgph2rcd13ifvqc2g","pricing_plan_id":"free"},{"bike_id":"0715df4a-755d-4309-b39d-c9ef96da5409","system_id":"levelo_inurba_marseille","lat":43.29573,"lon":5.367355,"is_reserved":false,"is_disabled":false,"rental_uris":{"android":"levelo://app?vid=0715df4a-755d-4309-b39d-c9ef96da5409","ios":"levelo://app?vid=0715df4a-755d-4309-b39d-c9ef96da5409"},"vehicle_type_id":"4","last_reported":1702202833,"current_range_meters":27200,"station_id":"ce4bgph2rcd13ifvqc2g","pricing_plan_id":"free"},{"bike_id":"674f355c-15d8-45e6-88c5-93f52777b93e","system_id":"levelo_inurba_marseille","lat":43.299028,"lon":5.381509,"is_reserved":false,"is_disabled":false,"rental_uris":{"android":"levelo://app?vid=674f355c-15d8-45e6-88c5-93f52777b93e","ios":"levelo://app?vid=674f355c-15d8-45e6-88c5-93f52777b93e"},"vehicle_type_id":"4","last_reported":1702202833,"current_range_meters":12800,"station_id":"ce4bgj12rcd13ifvqbc0","pricing_plan_id":"free"},{"bike_id":"d69f04d9-84df-4f26-bc64-9f532752e790","system_id":"levelo_inurba_marseille","lat":43.31758,"lon":5.39014,"is_reserved":false,"is_disabled":false,"rental_uris":{"android":"levelo://app?vid=d69f04d9-84df-4f26-bc64-9f532752e790","ios":"levelo://app?vid=d69f04d9-84df-4f26-bc64-9f532752e790"},"vehicle_type_id":"4","last_reported":1702202833,"current_range_meters":6000,"station_id":"ce4bhqp2rcd13ifvqhng","pricing_plan_id":"free"},{"bike_id":"78282f36-b1c4-493f-825f-4246d70b63ca","system_id":"levelo_inurba_marseille","lat":43.299028,"lon":5.381509,"is_reserved":false,"is_disabled":false,"rental_uris":{"android":"levelo://app?vid=78282f36-b1c4-493f-825f-4246d70b63ca","ios":"levelo://app?vid=78282f36-b1c4-493f-825f-4246d70b63ca"},"vehicle_type_id":"4","last_reported":1702202833,"current_range_meters":29200,"station_id":"ce4bgj12rcd13ifvqbc0","pricing_plan_id":"free"},{"bike_id":"bbacd2e7-c1a1-4dc0-ad9f-37c73e69e45d","system_id":"levelo_inurba_marseille","lat":43.295279,"lon":5.375048,"is_reserved":false,"is_disabled":false,"rental_uris":{"android":"levelo://app?vid=bbacd2e7-c1a1-4dc0-ad9f-37c73e69e45d","ios":"levelo://app?vid=bbacd2e7-c1a1-4dc0-ad9f-37c73e69e45d"},"vehicle_type_id":"4","last_reported":1702202833,"current_range_meters":13600,"station_id":"ce4bgkp2rcd13ifvqbmg","pricing_plan_id":"free"},{"bike_id":"46223182-3489-41e5-a5b9-6bf8743550f6","system_id":"levelo_inurba_marseille","lat":43.32367,"lon":5.388836,"is_reserved":false,"is_disabled":false,"rental_uris":{"android":"levelo://app?vid=46223182-3489-41e5-a5b9-6bf8743550f6","ios":"levelo://app?vid=46223182-3489-41e5-a5b9-6bf8743550f6"},"vehicle_type_id":"4","last_reported":1702202833,"current_range_meters":15200,"station_id":"ce4bhqp2rcd13ifvqhog","pricing_plan_id":"free"},{"bike_id":"f3dbca84-bf4d-41f6-847f-6895134bcfef","system_id":"levelo_inurba_marseille","lat":43.292663,"lon":5.376394,"is_reserved":false,"is_disabled":false,"rental_uris":{"android":"levelo://app?vid=f3dbca84-bf4d-41f6-847f-6895134bcfef","ios":"levelo://app?vid=f3dbca84-bf4d-41f6-847f-6895134bcfef"},"vehicle_type_id":"4","last_reported":1702202833,"current_range_meters":24000,"station_id":"ce4bgi12rcd13ifvqb80","pricing_plan_id":"free"},{"bike_id":"fac80ec8-103b-485c-8bac-ebf0e917f788","system_id":"levelo_inurba_marseille","lat":43.292663,"lon":5.376394,"is_reserved":false,"is_disabled":false,"rental_uris":{"android":"levelo://app?vid=fac80ec8-103b-485c-8bac-ebf0e917f788","ios":"levelo://app?vid=fac80ec8-103b-485c-8bac-ebf0e917f788"},"vehicle_type_id":"4","last_reported":1702202833,"current_range_meters":31200,"station_id":"ce4bgi12rcd13ifvqb80","pricing_plan_id":"free"},{"bike_id":"a2afae11-27f0-4ee1-a552-6a4ebf81232d","system_id":"levelo_inurba_marseille","lat":43.291675,"lon":5.371583,"is_reserved":false,"is_disabled":false,"rental_uris":{"android":"levelo://app?vid=a2afae11-27f0-4ee1-a552-6a4ebf81232d","ios":"levelo://app?vid=a2afae11-27f0-4ee1-a552-6a4ebf81232d"},"vehicle_type_id":"4","last_reported":1702202833,"current_range_meters":28000,"station_id":"ce4bha92rcd13ifvqeh0","pricing_plan_id":"free"},{"bike_id":"0bccb1b6-5c51-43bc-bf51-6b5c9f283a17","system_id":"levelo_inurba_marseille","lat":43.302008,"lon":5.394694,"is_reserved":false,"is_disabled":false,"rental_uris":{"android":"levelo://app?vid=0bccb1b6-5c51-43bc-bf51-6b5c9f283a17","ios":"levelo://app?vid=0bccb1b6-5c51-43bc-bf51-6b5c9f283a17"},"vehicle_type_id":"4","last_reported":1702202833,"current_range_meters":24400,"station_id":"ce4bh0p2rcd13ifvqd70","pricing_plan_id":"free"},{"bike_id":"85ab0586-424f-4fc3-991c-35310a3814ec","system_id":"levelo_inurba_marseille","lat":43.290631,"lon":5.359244,"is_reserved":false,"is_disabled":false,"rental_uris":{"android":"levelo://app?vid=85ab0586-424f-4fc3-991c-35310a3814ec","ios":"levelo://app?vid=85ab0586-424f-4fc3-991c-35310a3814ec"},"vehicle_type_id":"4","last_reported":1702202833,"current_range_meters":29200,"station_id":"ce4bha92rcd13ifvqeg0","pricing_plan_id":"free"},{"bike_id":"e5fc697e-209d-407a-9a41-9f35927b218d","system_id":"levelo_inurba_marseille","lat":43.290631,"lon":5.359244,"is_reserved":false,"is_disabled":false,"rental_uris":{"android":"levelo://app?vid=e5fc697e-209d-407a-9a41-9f35927b218d","ios":"levelo://app?vid=e5fc697e-209d-407a-9a41-9f35927b218d"},"vehicle_type_id":"4","last_reported":1702202833,"current_range_meters":24000,"station_id":"ce4bha92rcd13ifvqeg0","pricing_plan_id":"free"},{"bike_id":"223c09f0-057e-4a27-9347-20a41bb0c87e","system_id":"levelo_inurba_marseille","lat":43.289184,"lon":5.366408,"is_reserved":false,"is_disabled":false,"rental_uris":{"android":"levelo://app?vid=223c09f0-057e-4a27-9347-20a41bb0c87e","ios":"levelo://app?vid=223c09f0-057e-4a27-9347-20a41bb0c87e"},"vehicle_type_id":"4","last_reported":1702202833,"current_range_meters":12400,"station_id":"ce4bhap2rcd13ifvqek0","pricing_plan_id":"free"},{"bike_id":"0d55287e-6324-4a21-96f1-2aa124f5d1a5","system_id":"levelo_inurba_marseille","lat":43.290161,"lon":5.375651,"is_reserved":false,"is_disabled":false,"rental_uris":{"android":"levelo://app?vid=0d55287e-6324-4a21-96f1-2aa124f5d1a5","ios":"levelo://app?vid=0d55287e-6324-4a21-96f1-2aa124f5d1a5"},"vehicle_type_id":"4","last_reported":1702202833,"current_range_meters":10000,"station_id":"","pricing_plan_id":"free"},{"bike_id":"a02a1b20-1fb1-4951-988a-77389649024d","system_id":"levelo_inurba_marseille","lat":43.289259,"lon":5.366364,"is_reserved":false,"is_disabled":false,"rental_uris":{"android":"levelo://app?vid=a02a1b20-1fb1-4951-988a-77389649024d","ios":"levelo://app?vid=a02a1b20-1fb1-4951-988a-77389649024d"},"vehicle_type_id":"4","last_reported":1702202833,"current_range_meters":8800,"station_id":"","pricing_plan_id":"free"},{"bike_id":"7cc3cb16-b662-40fc-ab00-74bf6b1a8412","system_id":"levelo_inurba_marseille","lat":43.292642,"lon":5.384254,"is_reserved":false,"is_disabled":false,"rental_uris":{"android":"levelo://app?vid=7cc3cb16-b662-40fc-ab00-74bf6b1a8412","ios":"levelo://app?vid=7cc3cb16-b662-40fc-ab00-74bf6b1a8412"},"vehicle_type_id":"4","last_reported":1702202833,"current_range_meters":27200,"station_id":"ce4bh692rcd13ifvqea0","pricing_plan_id":"free"},{"bike_id":"9e838f9f-18ce-4cd0-9522-62141042d756","system_id":"levelo_inurba_marseille","lat":43.28856,"lon":5.358371,"is_reserved":false,"is_disabled":false,"rental_uris":{"android":"levelo://app?vid=9e838f9f-18ce-4cd0-9522-62141042d756","ios":"levelo://app?vid=9e838f9f-18ce-4cd0-9522-62141042d756"},"vehicle_type_id":"4","last_reported":1702202833,"current_range_meters":26400,"station_id":"ce4bhb12rcd13ifvqem0","pricing_plan_id":"free"},{"bike_id":"16a548ac-a264-4843-91b1-f67b9819a473","system_id":"levelo_inurba_marseille","lat":43.33735,"lon":5.37463,"is_reserved":false,"is_disabled":false,"rental_uris":{"android":"levelo://app?vid=16a548ac-a264-4843-91b1-f67b9819a473","ios":"levelo://app?vid=16a548ac-a264-4843-91b1-f67b9819a473"},"vehicle_type_id":"4","last_reported":1702202833,"current_range_meters":29200,"station_id":"","pricing_plan_id":"free"},{"bike_id":"c62e13d4-5df2-4f9c-a200-86bee308a9b2","system_id":"levelo_inurba_marseille","lat":43.337534,"lon":5.374581,"is_reserved":false,"is_disabled":false,"rental_uris":{"android":"levelo://app?vid=c62e13d4-5df2-4f9c-a200-86bee308a9b2","ios":"levelo://app?vid=c62e13d4-5df2-4f9c-a200-86bee308a9b2"},"vehicle_type_id":"4","last_reported":1702202833,"current_range_meters":29200,"station_id":"","pricing_plan_id":"free"},{"bike_id":"5c79bc93-8f13-4c40-8a8c-8f35d3902245","system_id":"levelo_inurba_marseille","lat":43.33672,"lon":5.37874,"is_reserved":false,"is_disabled":false,"rental_uris":{"android":"levelo://app?vid=5c79bc93-8f13-4c40-8a8c-8f35d3902245","ios":"levelo://app?vid=5c79bc93-8f13-4c40-8a8c-8f35d3902245"},"vehicle_type_id":"4","last_reported":1702202833,"current_range_meters":11600,"station_id":"","pricing_plan_id":"free"},{"bike_id":"5ed66215-e812-4934-8bd8-05fa06e2778c","system_id":"levelo_inurba_marseille","lat":43.33672,"lon":5.37876,"is_reserved":false,"is_disabled":false,"rental_uris":{"android":"levelo://app?vid=5ed66215-e812-4934-8bd8-05fa06e2778c","ios":"levelo://app?vid=5ed66215-e812-4934-8bd8-05fa06e2778c"},"vehicle_type_id":"4","last_reported":1702202833,"current_range_meters":26800,"station_id":"","pricing_plan_id":"free"},{"bike_id":"c5d000a6-f29d-45b7-86c2-273a210427fd","system_id":"levelo_inurba_marseille","lat":43.33763,"lon":5.3746,"is_reserved":false,"is_disabled":false,"rental_uris":{"android":"levelo://app?vid=c5d000a6-f29d-45b7-86c2-273a210427fd","ios":"levelo://app?vid=c5d000a6-f29d-45b7-86c2-273a210427fd"},"vehicle_type_id":"4","last_reported":1702202833,"current_range_meters":12400,"station_id":"","pricing_plan_id":"free"},{"bike_id":"f89f4a19-49dd-4c0a-997e-68c2bf31f868","system_id":"levelo_inurba_marseille","lat":43.301117,"lon":5.398795,"is_reserved":false,"is_disabled":false,"rental_uris":{"android":"levelo://app?vid=f89f4a19-49dd-4c0a-997e-68c2bf31f868","ios":"levelo://app?vid=f89f4a19-49dd-4c0a-997e-68c2bf31f868"},"vehicle_type_id":"4","last_reported":1702202833,"current_range_meters":29200,"station_id":"ce4bh0h2rcd13ifvqd40","pricing_plan_id":"free"},{"bike_id":"476fb07f-e49c-4940-b70d-cf42ec494dc1","system_id":"levelo_inurba_marseille","lat":43.301117,"lon":5.398795,"is_reserved":false,"is_disabled":false,"rental_uris":{"android":"levelo://app?vid=476fb07f-e49c-4940-b70d-cf42ec494dc1","ios":"levelo://app?vid=476fb07f-e49c-4940-b70d-cf42ec494dc1"},"vehicle_type_id":"4","last_reported":1702202833,"current_range_meters":25200,"station_id":"ce4bh0h2rcd13ifvqd40","pricing_plan_id":"free"},{"bike_id":"11749cac-7af1-4323-a1c1-3a2132494742","system_id":"levelo_inurba_marseille","lat":43.29913,"lon":5.397343,"is_reserved":false,"is_disabled":false,"rental_uris":{"android":"levelo://app?vid=11749cac-7af1-4323-a1c1-3a2132494742","ios":"levelo://app?vid=11749cac-7af1-4323-a1c1-3a2132494742"},"vehicle_type_id":"4","last_reported":1702202833,"current_range_meters":2400,"station_id":"ce4bh0h2rcd13ifvqd50","pricing_plan_id":"free"},{"bike_id":"c0e62308-2579-4e0d-9f05-37bb45dad119","system_id":"levelo_inurba_marseille","lat":43.289307,"lon":5.38406,"is_reserved":false,"is_disabled":false,"rental_uris":{"android":"levelo://app?vid=c0e62308-2579-4e0d-9f05-37bb45dad119","ios":"levelo://app?vid=c0e62308-2579-4e0d-9f05-37bb45dad119"},"vehicle_type_id":"4","last_reported":1702202833,"current_range_meters":7600,"station_id":"ce4bh612rcd13ifvqe6g","pricing_plan_id":"free"},{"bike_id":"538e4237-a9ce-4a71-8ce6-36b1989ec443","system_id":"levelo_inurba_marseille","lat":43.302759,"lon":5.400793,"is_reserved":false,"is_disabled":false,"rental_uris":{"android":"levelo://app?vid=538e4237-a9ce-4a71-8ce6-36b1989ec443","ios":"levelo://app?vid=538e4237-a9ce-4a71-8ce6-36b1989ec443"},"vehicle_type_id":"4","last_reported":1702202833,"current_range_meters":18800,"station_id":"ce4bgvh2rcd13ifvqcs0","pricing_plan_id":"free"},{"bike_id":"0a9bdf3c-28d6-4814-9e62-925db002a15b","system_id":"levelo_inurba_marseille","lat":43.316821,"lon":5.404737,"is_reserved":false,"is_disabled":false,"rental_uris":{"android":"levelo://app?vid=0a9bdf3c-28d6-4814-9e62-925db002a15b","ios":"levelo://app?vid=0a9bdf3c-28d6-4814-9e62-925db002a15b"},"vehicle_type_id":"4","last_reported":1702202833,"current_range_meters":31200,"station_id":"ce4bh012rcd13ifvqd00","pricing_plan_id":"free"},{"bike_id":"e7338426-600d-4b52-b3e0-7228f622ad35","system_id":"levelo_inurba_marseille","lat":43.286595,"lon":5.386795,"is_reserved":false,"is_disabled":false,"rental_uris":{"android":"levelo://app?vid=e7338426-600d-4b52-b3e0-7228f622ad35","ios":"levelo://app?vid=e7338426-600d-4b52-b3e0-7228f622ad35"},"vehicle_type_id":"4","last_reported":1702202833,"current_range_meters":23600,"station_id":"ce4bh492rcd13ifvqdug","pricing_plan_id":"free"},{"bike_id":"dc054975-6a48-4061-bf44-0bc6e5190bf4","system_id":"levelo_inurba_marseille","lat":43.319179,"lon":5.407725,"is_reserved":false,"is_disabled":false,"rental_uris":{"android":"levelo://app?vid=dc054975-6a48-4061-bf44-0bc6e5190bf4","ios":"levelo://app?vid=dc054975-6a48-4061-bf44-0bc6e5190bf4"},"vehicle_type_id":"4","last_reported":1702202833,"current_range_meters":23200,"station_id":"ce4bhq12rcd13ifvqhig","pricing_plan_id":"free"},{"bike_id":"4af65313-5b23-4fc6-9da4-24e177313969","system_id":"levelo_inurba_marseille","lat":43.283494,"lon":5.380945,"is_reserved":false,"is_disabled":false,"rental_uris":{"android":"levelo://app?vid=4af65313-5b23-4fc6-9da4-24e177313969","ios":"levelo://app?vid=4af65313-5b23-4fc6-9da4-24e177313969"},"vehicle_type_id":"4","last_reported":1702202833,"current_range_meters":8000,"station_id":"ce4bh412rcd13ifvqdr0","pricing_plan_id":"free"},{"bike_id":"991ddd9a-1c6e-4cbb-a571-16a27948f6ae","system_id":"levelo_inurba_marseille","lat":43.28424,"lon":5.34988,"is_reserved":false,"is_disabled":false,"rental_uris":{"android":"levelo://app?vid=991ddd9a-1c6e-4cbb-a571-16a27948f6ae","ios":"levelo://app?vid=991ddd9a-1c6e-4cbb-a571-16a27948f6ae"},"vehicle_type_id":"4","last_reported":1702202833,"current_range_meters":28400,"station_id":"ce4bhbh2rcd13ifvqepg","pricing_plan_id":"free"},{"bike_id":"2a6a14e5-49b7-4691-a6f6-75f47686f4b0","system_id":"levelo_inurba_marseille","lat":43.283502,"lon":5.386471,"is_reserved":false,"is_disabled":false,"rental_uris":{"android":"levelo://app?vid=2a6a14e5-49b7-4691-a6f6-75f47686f4b0","ios":"levelo://app?vid=2a6a14e5-49b7-4691-a6f6-75f47686f4b0"},"vehicle_type_id":"4","last_reported":1702202833,"current_range_meters":8800,"station_id":"ce4bh492rcd13ifvqdvg","pricing_plan_id":"free"},{"bike_id":"da25c304-9bef-4736-946a-3da3eb4856f5","system_id":"levelo_inurba_marseille","lat":43.290412,"lon":5.399633,"is_reserved":false,"is_disabled":false,"rental_uris":{"android":"levelo://app?vid=da25c304-9bef-4736-946a-3da3eb4856f5","ios":"levelo://app?vid=da25c304-9bef-4736-946a-3da3eb4856f5"},"vehicle_type_id":"4","last_reported":1702202833,"current_range_meters":15600,"station_id":"ce4bh392rcd13ifvqdm0","pricing_plan_id":"free"},{"bike_id":"d5ea2724-f801-45e5-925c-dbde876ecc09","system_id":"levelo_inurba_marseille","lat":43.296263,"lon":5.40601,"is_reserved":false,"is_disabled":false,"rental_uris":{"android":"levelo://app?vid=d5ea2724-f801-45e5-925c-dbde876ecc09","ios":"levelo://app?vid=d5ea2724-f801-45e5-925c-dbde876ecc09"},"vehicle_type_id":"4","last_reported":1702202833,"current_range_meters":27200,"station_id":"ce4bh0h2rcd13ifvqd60","pricing_plan_id":"free"},{"bike_id":"f95a19e9-7b32-49ce-a457-a2df8fc69118","system_id":"levelo_inurba_marseille","lat":43.304194,"lon":5.412808,"is_reserved":false,"is_disabled":false,"rental_uris":{"android":"levelo://app?vid=f95a19e9-7b32-49ce-a457-a2df8fc69118","ios":"levelo://app?vid=f95a19e9-7b32-49ce-a457-a2df8fc69118"},"vehicle_type_id":"4","last_reported":1702202833,"current_range_meters":4800,"station_id":"ce4bhop2rcd13ifvqh8g","pricing_plan_id":"free"},{"bike_id":"130f4392-f78a-4479-b25d-58a7d67aabe1","system_id":"levelo_inurba_marseille","lat":43.304156,"lon":5.412896,"is_reserved":false,"is_disabled":false,"rental_uris":{"android":"levelo://app?vid=130f4392-f78a-4479-b25d-58a7d67aabe1","ios":"levelo://app?vid=130f4392-f78a-4479-b25d-58a7d67aabe1"},"vehicle_type_id":"4","last_reported":1702202833,"current_range_meters":30800,"station_id":"ce4bhop2rcd13ifvqh8g","pricing_plan_id":"free"},{"bike_id":"0bc1eb45-a665-44a3-8a8b-d748ef95b051","system_id":"levelo_inurba_marseille","lat":43.304124,"lon":5.412921,"is_reserved":false,"is_disabled":false,"rental_uris":{"android":"levelo://app?vid=0bc1eb45-a665-44a3-8a8b-d748ef95b051","ios":"levelo://app?vid=0bc1eb45-a665-44a3-8a8b-d748ef95b051"},"vehicle_type_id":"4","last_reported":1702202833,"current_range_meters":23600,"station_id":"ce4bhop2rcd13ifvqh8g","pricing_plan_id":"free"},{"bike_id":"58f52f1b-f682-43f9-888f-474549184cf8","system_id":"levelo_inurba_marseille","lat":43.32215,"lon":5.41464,"is_reserved":false,"is_disabled":false,"rental_uris":{"android":"levelo://app?vid=58f52f1b-f682-43f9-888f-474549184cf8","ios":"levelo://app?vid=58f52f1b-f682-43f9-888f-474549184cf8"},"vehicle_type_id":"4","last_reported":1702202833,"current_range_meters":14000,"station_id":"","pricing_plan_id":"free"},{"bike_id":"e1b58453-4454-49c5-8b05-e3ba3c886a05","system_id":"levelo_inurba_marseille","lat":43.279742,"lon":5.38744,"is_reserved":false,"is_disabled":false,"rental_uris":{"android":"levelo://app?vid=e1b58453-4454-49c5-8b05-e3ba3c886a05","ios":"levelo://app?vid=e1b58453-4454-49c5-8b05-e3ba3c886a05"},"vehicle_type_id":"4","last_reported":1702202833,"current_range_meters":30800,"station_id":"ce4bhg12rcd13ifvqf80","pricing_plan_id":"free"},{"bike_id":"84520233-7c1d-425e-b28d-d323f0b15b3b","system_id":"levelo_inurba_marseille","lat":43.299579,"lon":5.413255,"is_reserved":false,"is_disabled":false,"rental_uris":{"android":"levelo://app?vid=84520233-7c1d-425e-b28d-d323f0b15b3b","ios":"levelo://app?vid=84520233-7c1d-425e-b28d-d323f0b15b3b"},"vehicle_type_id":"4","last_reported":1702202833,"current_range_meters":30000,"station_id":"ce4bhp12rcd13ifvqh9g","pricing_plan_id":"free"},{"bike_id":"cd3c3b13-9960-472b-8170-7d55920fb05d","system_id":"levelo_inurba_marseille","lat":43.27974,"lon":5.38741,"is_reserved":false,"is_disabled":false,"rental_uris":{"android":"levelo://app?vid=cd3c3b13-9960-472b-8170-7d55920fb05d","ios":"levelo://app?vid=cd3c3b13-9960-472b-8170-7d55920fb05d"},"vehicle_type_id":"4","last_reported":1702202833,"current_range_meters":30000,"station_id":"ce4bhg12rcd13ifvqf80","pricing_plan_id":"free"},{"bike_id":"480c3faa-fad7-4075-b3a3-54a7bcff8aae","system_id":"levelo_inurba_marseille","lat":43.279742,"lon":5.38744,"is_reserved":false,"is_disabled":false,"rental_uris":{"android":"levelo://app?vid=480c3faa-fad7-4075-b3a3-54a7bcff8aae","ios":"levelo://app?vid=480c3faa-fad7-4075-b3a3-54a7bcff8aae"},"vehicle_type_id":"4","last_reported":1702202833,"current_range_meters":11200,"station_id":"ce4bhg12rcd13ifvqf80","pricing_plan_id":"free"},{"bike_id":"5e24fe41-64ee-41ec-8dd5-f0fe70ec9b3b","system_id":"levelo_inurba_marseille","lat":43.27971,"lon":5.38741,"is_reserved":false,"is_disabled":false,"rental_uris":{"android":"levelo://app?vid=5e24fe41-64ee-41ec-8dd5-f0fe70ec9b3b","ios":"levelo://app?vid=5e24fe41-64ee-41ec-8dd5-f0fe70ec9b3b"},"vehicle_type_id":"4","last_reported":1702202833,"current_range_meters":17600,"station_id":"ce4bhg12rcd13ifvqf80","pricing_plan_id":"free"},{"bike_id":"da3d95bb-6927-48a7-aa3a-72225e152e2e","system_id":"levelo_inurba_marseille","lat":43.292571,"lon":5.409107,"is_reserved":false,"is_disabled":false,"rental_uris":{"android":"levelo://app?vid=da3d95bb-6927-48a7-aa3a-72225e152e2e","ios":"levelo://app?vid=da3d95bb-6927-48a7-aa3a-72225e152e2e"},"vehicle_type_id":"4","last_reported":1702202833,"current_range_meters":29600,"station_id":"ce4bh192rcd13ifvqdc0","pricing_plan_id":"free"},{"bike_id":"66bd4eec-d2cf-4f34-ba88-db05d50f35be","system_id":"levelo_inurba_marseille","lat":43.278401,"lon":5.392152,"is_reserved":false,"is_disabled":false,"rental_uris":{"android":"levelo://app?vid=66bd4eec-d2cf-4f34-ba88-db05d50f35be","ios":"levelo://app?vid=66bd4eec-d2cf-4f34-ba88-db05d50f35be"},"vehicle_type_id":"4","last_reported":1702202833,"current_range_meters":23600,"station_id":"ce4bhjp2rcd13ifvqga0","pricing_plan_id":"free"},{"bike_id":"88e59060-d458-48a8-8abe-8a1913097d92","system_id":"levelo_inurba_marseille","lat":43.31713,"lon":5.424,"is_reserved":false,"is_disabled":false,"rental_uris":{"android":"levelo://app?vid=88e59060-d458-48a8-8abe-8a1913097d92","ios":"levelo://app?vid=88e59060-d458-48a8-8abe-8a1913097d92"},"vehicle_type_id":"4","last_reported":1702202833,"current_range_meters":20400,"station_id":"ce4bhp92rcd13ifvqhbg","pricing_plan_id":"free"},{"bike_id":"02791883-a925-42a0-9dd3-b7193f6a574b","system_id":"levelo_inurba_marseille","lat":43.31718,"lon":5.42401,"is_reserved":false,"is_disabled":false,"rental_uris":{"android":"levelo://app?vid=02791883-a925-42a0-9dd3-b7193f6a574b","ios":"levelo://app?vid=02791883-a925-42a0-9dd3-b7193f6a574b"},"vehicle_type_id":"4","last_reported":1702202833,"current_range_meters":26800,"station_id":"ce4bhp92rcd13ifvqhbg","pricing_plan_id":"free"},{"bike_id":"affb4f45-d821-4c0f-b637-138a01e9a1ab","system_id":"levelo_inurba_marseille","lat":43.310785,"lon":5.424305,"is_reserved":false,"is_disabled":false,"rental_uris":{"android":"levelo://app?vid=affb4f45-d821-4c0f-b637-138a01e9a1ab","ios":"levelo://app?vid=affb4f45-d821-4c0f-b637-138a01e9a1ab"},"vehicle_type_id":"4","last_reported":1702202833,"current_range_meters":7200,"station_id":"ce4bhp92rcd13ifvqhag","pricing_plan_id":"free"},{"bike_id":"e7bd1e73-4f86-473d-905c-a7b0f3d6ad8a","system_id":"levelo_inurba_marseille","lat":43.31723,"lon":5.42405,"is_reserved":false,"is_disabled":false,"rental_uris":{"android":"levelo://app?vid=e7bd1e73-4f86-473d-905c-a7b0f3d6ad8a","ios":"levelo://app?vid=e7bd1e73-4f86-473d-905c-a7b0f3d6ad8a"},"vehicle_type_id":"4","last_reported":1702202833,"current_range_meters":14000,"station_id":"ce4bhp92rcd13ifvqhbg","pricing_plan_id":"free"},{"bike_id":"80038031-3601-4c51-b66a-c6c9131d41d1","system_id":"levelo_inurba_marseille","lat":43.310785,"lon":5.424305,"is_reserved":false,"is_disabled":false,"rental_uris":{"android":"levelo://app?vid=80038031-3601-4c51-b66a-c6c9131d41d1","ios":"levelo://app?vid=80038031-3601-4c51-b66a-c6c9131d41d1"},"vehicle_type_id":"4","last_reported":1702202833,"current_range_meters":30400,"station_id":"ce4bhp92rcd13ifvqhag","pricing_plan_id":"free"},{"bike_id":"63133364-316e-458e-b234-bbd4926c63fc","system_id":"levelo_inurba_marseille","lat":43.27583,"lon":5.39474,"is_reserved":false,"is_disabled":false,"rental_uris":{"android":"levelo://app?vid=63133364-316e-458e-b234-bbd4926c63fc","ios":"levelo://app?vid=63133364-316e-458e-b234-bbd4926c63fc"},"vehicle_type_id":"4","last_reported":1702202833,"current_range_meters":4000,"station_id":"","pricing_plan_id":"free"},{"bike_id":"06783a62-c84c-4078-ab51-076232725a89","system_id":"levelo_inurba_marseille","lat":43.273129,"lon":5.390725,"is_reserved":false,"is_disabled":false,"rental_uris":{"android":"levelo://app?vid=06783a62-c84c-4078-ab51-076232725a89","ios":"levelo://app?vid=06783a62-c84c-4078-ab51-076232725a89"},"vehicle_type_id":"4","last_reported":1702202833,"current_range_meters":4400,"station_id":"ce4bhgp2rcd13ifvqfe0","pricing_plan_id":"free"},{"bike_id":"88c2f6b3-3ca6-43a2-ad9e-6207d627fd6f","system_id":"levelo_inurba_marseille","lat":43.2721,"lon":5.39184,"is_reserved":false,"is_disabled":false,"rental_uris":{"android":"levelo://app?vid=88c2f6b3-3ca6-43a2-ad9e-6207d627fd6f","ios":"levelo://app?vid=88c2f6b3-3ca6-43a2-ad9e-6207d627fd6f"},"vehicle_type_id":"4","last_reported":1702202833,"current_range_meters":7600,"station_id":"ce4bhhp2rcd13ifvqfm0","pricing_plan_id":"free"},{"bike_id":"8f021145-48f8-459b-aef0-f8921e18b0a0","system_id":"levelo_inurba_marseille","lat":43.27214,"lon":5.3925,"is_reserved":false,"is_disabled":false,"rental_uris":{"android":"levelo://app?vid=8f021145-48f8-459b-aef0-f8921e18b0a0","ios":"levelo://app?vid=8f021145-48f8-459b-aef0-f8921e18b0a0"},"vehicle_type_id":"4","last_reported":1702202833,"current_range_meters":0,"station_id":"","pricing_plan_id":"free"},{"bike_id":"02ddc810-e898-4b5a-af67-80e3bcc25520","system_id":"levelo_inurba_marseille","lat":43.269467,"lon":5.386439,"is_reserved":false,"is_disabled":false,"rental_uris":{"android":"levelo://app?vid=02ddc810-e898-4b5a-af67-80e3bcc25520","ios":"levelo://app?vid=02ddc810-e898-4b5a-af67-80e3bcc25520"},"vehicle_type_id":"4","last_reported":1702202833,"current_range_meters":11200,"station_id":"ce4bhh92rcd13ifvqfh0","pricing_plan_id":"free"},{"bike_id":"8d6bbbe2-b10d-4e17-bd5d-feda9d2cdf18","system_id":"levelo_inurba_marseille","lat":43.279465,"lon":5.410561,"is_reserved":false,"is_disabled":false,"rental_uris":{"android":"levelo://app?vid=8d6bbbe2-b10d-4e17-bd5d-feda9d2cdf18","ios":"levelo://app?vid=8d6bbbe2-b10d-4e17-bd5d-feda9d2cdf18"},"vehicle_type_id":"4","last_reported":1702202833,"current_range_meters":12000,"station_id":"ce4bhnp2rcd13ifvqh0g","pricing_plan_id":"free"},{"bike_id":"eb508083-e921-49a5-924c-43865e7739ed","system_id":"levelo_inurba_marseille","lat":43.26681,"lon":5.382694,"is_reserved":false,"is_disabled":false,"rental_uris":{"android":"levelo://app?vid=eb508083-e921-49a5-924c-43865e7739ed","ios":"levelo://app?vid=eb508083-e921-49a5-924c-43865e7739ed"},"vehicle_type_id":"4","last_reported":1702202833,"current_range_meters":20400,"station_id":"ce4bhg92rcd13ifvqf90","pricing_plan_id":"free"},{"bike_id":"cbc62ad0-c507-4d27-a2c7-a6fa072fa0f8","system_id":"levelo_inurba_marseille","lat":43.27997,"lon":5.41664,"is_reserved":false,"is_disabled":false,"rental_uris":{"android":"levelo://app?vid=cbc62ad0-c507-4d27-a2c7-a6fa072fa0f8","ios":"levelo://app?vid=cbc62ad0-c507-4d27-a2c7-a6fa072fa0f8"},"vehicle_type_id":"4","last_reported":1702202833,"current_range_meters":23600,"station_id":"ce4bho12rcd13ifvqh1g","pricing_plan_id":"free"},{"bike_id":"19cc942f-ece9-40d3-8083-cccfba7fe5b1","system_id":"levelo_inurba_marseille","lat":43.279881,"lon":5.416579,"is_reserved":false,"is_disabled":false,"rental_uris":{"android":"levelo://app?vid=19cc942f-ece9-40d3-8083-cccfba7fe5b1","ios":"levelo://app?vid=19cc942f-ece9-40d3-8083-cccfba7fe5b1"},"vehicle_type_id":"4","last_reported":1702202833,"current_range_meters":0,"station_id":"ce4bho12rcd13ifvqh1g","pricing_plan_id":"free"},{"bike_id":"d9905fd9-fc0a-4c9f-85fa-8aca947c9d38","system_id":"levelo_inurba_marseille","lat":43.30797,"lon":5.43515,"is_reserved":false,"is_disabled":false,"rental_uris":{"android":"levelo://app?vid=d9905fd9-fc0a-4c9f-85fa-8aca947c9d38","ios":"levelo://app?vid=d9905fd9-fc0a-4c9f-85fa-8aca947c9d38"},"vehicle_type_id":"4","last_reported":1702202833,"current_range_meters":26000,"station_id":"ce4bhph2rcd13ifvqheg","pricing_plan_id":"free"},{"bike_id":"1594ab0c-8aba-4a4a-83ff-da41c83152d6","system_id":"levelo_inurba_marseille","lat":43.30798,"lon":5.43525,"is_reserved":false,"is_disabled":false,"rental_uris":{"android":"levelo://app?vid=1594ab0c-8aba-4a4a-83ff-da41c83152d6","ios":"levelo://app?vid=1594ab0c-8aba-4a4a-83ff-da41c83152d6"},"vehicle_type_id":"4","last_reported":1702202833,"current_range_meters":26400,"station_id":"ce4bhph2rcd13ifvqheg","pricing_plan_id":"free"},{"bike_id":"983ed045-1f7b-4579-b9d1-f93588aba3b1","system_id":"levelo_inurba_marseille","lat":43.30797,"lon":5.43531,"is_reserved":false,"is_disabled":false,"rental_uris":{"android":"levelo://app?vid=983ed045-1f7b-4579-b9d1-f93588aba3b1","ios":"levelo://app?vid=983ed045-1f7b-4579-b9d1-f93588aba3b1"},"vehicle_type_id":"4","last_reported":1702202833,"current_range_meters":30000,"station_id":"ce4bhph2rcd13ifvqheg","pricing_plan_id":"free"},{"bike_id":"dbacbb4a-9e99-4a7a-9713-43dac221ae4c","system_id":"levelo_inurba_marseille","lat":43.317104,"lon":5.436818,"is_reserved":false,"is_disabled":false,"rental_uris":{"android":"levelo://app?vid=dbacbb4a-9e99-4a7a-9713-43dac221ae4c","ios":"levelo://app?vid=dbacbb4a-9e99-4a7a-9713-43dac221ae4c"},"vehicle_type_id":"4","last_reported":1702202833,"current_range_meters":31200,"station_id":"ce4bhp92rcd13ifvqhcg","pricing_plan_id":"free"},{"bike_id":"484c2935-350d-4a8a-a7d1-7125e01c841f","system_id":"levelo_inurba_marseille","lat":43.271388,"lon":5.409269,"is_reserved":false,"is_disabled":false,"rental_uris":{"android":"levelo://app?vid=484c2935-350d-4a8a-a7d1-7125e01c841f","ios":"levelo://app?vid=484c2935-350d-4a8a-a7d1-7125e01c841f"},"vehicle_type_id":"4","last_reported":1702202833,"current_range_meters":26400,"station_id":"ce4bhl12rcd13ifvqgf0","pricing_plan_id":"free"},{"bike_id":"3ef100ae-f89f-44f5-89e8-967b4acd17f5","system_id":"levelo_inurba_marseille","lat":43.26202,"lon":5.379299,"is_reserved":false,"is_disabled":false,"rental_uris":{"android":"levelo://app?vid=3ef100ae-f89f-44f5-89e8-967b4acd17f5","ios":"levelo://app?vid=3ef100ae-f89f-44f5-89e8-967b4acd17f5"},"vehicle_type_id":"4","last_reported":1702202833,"current_range_meters":30000,"station_id":"ce4bhjp2rcd13ifvqg90","pricing_plan_id":"free"},{"bike_id":"6b17b896-99f2-456b-929e-df3811eeb274","system_id":"levelo_inurba_marseille","lat":43.298768,"lon":5.43643,"is_reserved":false,"is_disabled":false,"rental_uris":{"android":"levelo://app?vid=6b17b896-99f2-456b-929e-df3811eeb274","ios":"levelo://app?vid=6b17b896-99f2-456b-929e-df3811eeb274"},"vehicle_type_id":"4","last_reported":1702202833,"current_range_meters":27600,"station_id":"ce4bhpp2rcd13ifvqhfg","pricing_plan_id":"free"},{"bike_id":"4f68f183-a711-4386-a731-e8ea8e2f115e","system_id":"levelo_inurba_marseille","lat":43.298768,"lon":5.43643,"is_reserved":false,"is_disabled":false,"rental_uris":{"android":"levelo://app?vid=4f68f183-a711-4386-a731-e8ea8e2f115e","ios":"levelo://app?vid=4f68f183-a711-4386-a731-e8ea8e2f115e"},"vehicle_type_id":"4","last_reported":1702202833,"current_range_meters":25200,"station_id":"ce4bhpp2rcd13ifvqhfg","pricing_plan_id":"free"},{"bike_id":"76c2fea6-b51e-41bc-a586-1bd1efb19f23","system_id":"levelo_inurba_marseille","lat":43.260219,"lon":5.37546,"is_reserved":false,"is_disabled":false,"rental_uris":{"android":"levelo://app?vid=76c2fea6-b51e-41bc-a586-1bd1efb19f23","ios":"levelo://app?vid=76c2fea6-b51e-41bc-a586-1bd1efb19f23"},"vehicle_type_id":"4","last_reported":1702202833,"current_range_meters":29200,"station_id":"ce4bhgh2rcd13ifvqfa0","pricing_plan_id":"free"},{"bike_id":"a9c765b2-0be4-4ec1-9166-ec5933062fcf","system_id":"levelo_inurba_marseille","lat":43.260225,"lon":5.375455,"is_reserved":false,"is_disabled":false,"rental_uris":{"android":"levelo://app?vid=a9c765b2-0be4-4ec1-9166-ec5933062fcf","ios":"levelo://app?vid=a9c765b2-0be4-4ec1-9166-ec5933062fcf"},"vehicle_type_id":"4","last_reported":1702202833,"current_range_meters":28000,"station_id":"ce4bhgh2rcd13ifvqfa0","pricing_plan_id":"free"},{"bike_id":"7fb092be-4e93-469a-b1b9-f5ede56999d4","system_id":"levelo_inurba_marseille","lat":43.260225,"lon":5.375455,"is_reserved":false,"is_disabled":false,"rental_uris":{"android":"levelo://app?vid=7fb092be-4e93-469a-b1b9-f5ede56999d4","ios":"levelo://app?vid=7fb092be-4e93-469a-b1b9-f5ede56999d4"},"vehicle_type_id":"4","last_reported":1702202833,"current_range_meters":31200,"station_id":"ce4bhgh2rcd13ifvqfa0","pricing_plan_id":"free"},{"bike_id":"028a6321-9819-4f1e-9423-19a96f9d959f","system_id":"levelo_inurba_marseille","lat":43.260219,"lon":5.37546,"is_reserved":false,"is_disabled":false,"rental_uris":{"android":"levelo://app?vid=028a6321-9819-4f1e-9423-19a96f9d959f","ios":"levelo://app?vid=028a6321-9819-4f1e-9423-19a96f9d959f"},"vehicle_type_id":"4","last_reported":1702202833,"current_range_meters":30000,"station_id":"ce4bhgh2rcd13ifvqfa0","pricing_plan_id":"free"},{"bike_id":"0341a2e7-04a4-4d8e-b96d-44e5882da047","system_id":"levelo_inurba_marseille","lat":43.275028,"lon":5.424534,"is_reserved":false,"is_disabled":false,"rental_uris":{"android":"levelo://app?vid=0341a2e7-04a4-4d8e-b96d-44e5882da047","ios":"levelo://app?vid=0341a2e7-04a4-4d8e-b96d-44e5882da047"},"vehicle_type_id":"4","last_reported":1702202833,"current_range_meters":27600,"station_id":"ce4bhn92rcd13ifvqgrg","pricing_plan_id":"free"},{"bike_id":"c84a2b07-1a24-4c2b-9039-a2e319dc57fc","system_id":"levelo_inurba_marseille","lat":43.255756,"lon":5.382303,"is_reserved":false,"is_disabled":false,"rental_uris":{"android":"levelo://app?vid=c84a2b07-1a24-4c2b-9039-a2e319dc57fc","ios":"levelo://app?vid=c84a2b07-1a24-4c2b-9039-a2e319dc57fc"},"vehicle_type_id":"4","last_reported":1702202833,"current_range_meters":3600,"station_id":"ce4bhih2rcd13ifvqfs0","pricing_plan_id":"free"},{"bike_id":"5416ae10-cf10-4ed2-87af-5cbf113ae11a","system_id":"levelo_inurba_marseille","lat":43.2558,"lon":5.38229,"is_reserved":false,"is_disabled":false,"rental_uris":{"android":"levelo://app?vid=5416ae10-cf10-4ed2-87af-5cbf113ae11a","ios":"levelo://app?vid=5416ae10-cf10-4ed2-87af-5cbf113ae11a"},"vehicle_type_id":"4","last_reported":1702202833,"current_range_meters":29600,"station_id":"ce4bhih2rcd13ifvqfs0","pricing_plan_id":"free"},{"bike_id":"2f004831-b00c-4e4a-b7b3-6d00fc459a36","system_id":"levelo_inurba_marseille","lat":43.25579,"lon":5.38237,"is_reserved":false,"is_disabled":false,"rental_uris":{"android":"levelo://app?vid=2f004831-b00c-4e4a-b7b3-6d00fc459a36","ios":"levelo://app?vid=2f004831-b00c-4e4a-b7b3-6d00fc459a36"},"vehicle_type_id":"4","last_reported":1702202833,"current_range_meters":8800,"station_id":"ce4bhih2rcd13ifvqfs0","pricing_plan_id":"free"},{"bike_id":"cda2bc06-75c6-42b5-ae20-74a5b8c9a02b","system_id":"levelo_inurba_marseille","lat":43.254947,"lon":5.376454,"is_reserved":false,"is_disabled":false,"rental_uris":{"android":"levelo://app?vid=cda2bc06-75c6-42b5-ae20-74a5b8c9a02b","ios":"levelo://app?vid=cda2bc06-75c6-42b5-ae20-74a5b8c9a02b"},"vehicle_type_id":"4","last_reported":1702202833,"current_range_meters":19600,"station_id":"ce4bhh12rcd13ifvqff0","pricing_plan_id":"free"},{"bike_id":"4e510d28-2cd7-436a-9cc1-cfdedab91778","system_id":"levelo_inurba_marseille","lat":43.254947,"lon":5.376454,"is_reserved":false,"is_disabled":false,"rental_uris":{"android":"levelo://app?vid=4e510d28-2cd7-436a-9cc1-cfdedab91778","ios":"levelo://app?vid=4e510d28-2cd7-436a-9cc1-cfdedab91778"},"vehicle_type_id":"4","last_reported":1702202833,"current_range_meters":22000,"station_id":"ce4bhh12rcd13ifvqff0","pricing_plan_id":"free"},{"bike_id":"9403a47c-9166-4906-a009-e96cb999ffef","system_id":"levelo_inurba_marseille","lat":43.254947,"lon":5.376454,"is_reserved":false,"is_disabled":false,"rental_uris":{"android":"levelo://app?vid=9403a47c-9166-4906-a009-e96cb999ffef","ios":"levelo://app?vid=9403a47c-9166-4906-a009-e96cb999ffef"},"vehicle_type_id":"4","last_reported":1702202833,"current_range_meters":23600,"station_id":"ce4bhh12rcd13ifvqff0","pricing_plan_id":"free"},{"bike_id":"71e4f32e-ccb2-4c9d-ad16-d9b4cb1405d0","system_id":"levelo_inurba_marseille","lat":43.254947,"lon":5.376454,"is_reserved":false,"is_disabled":false,"rental_uris":{"android":"levelo://app?vid=71e4f32e-ccb2-4c9d-ad16-d9b4cb1405d0","ios":"levelo://app?vid=71e4f32e-ccb2-4c9d-ad16-d9b4cb1405d0"},"vehicle_type_id":"4","last_reported":1702202833,"current_range_meters":15200,"station_id":"ce4bhh12rcd13ifvqff0","pricing_plan_id":"free"},{"bike_id":"46488328-c339-4346-9280-ec5f809f328b","system_id":"levelo_inurba_marseille","lat":43.270721,"lon":5.422764,"is_reserved":false,"is_disabled":false,"rental_uris":{"android":"levelo://app?vid=46488328-c339-4346-9280-ec5f809f328b","ios":"levelo://app?vid=46488328-c339-4346-9280-ec5f809f328b"},"vehicle_type_id":"4","last_reported":1702202833,"current_range_meters":24000,"station_id":"ce4bhk92rcd13ifvqgb0","pricing_plan_id":"free"},{"bike_id":"37a79cee-3c73-43bf-98f2-248543826831","system_id":"levelo_inurba_marseille","lat":43.2479,"lon":5.374457,"is_reserved":false,"is_disabled":false,"rental_uris":{"android":"levelo://app?vid=37a79cee-3c73-43bf-98f2-248543826831","ios":"levelo://app?vid=37a79cee-3c73-43bf-98f2-248543826831"},"vehicle_type_id":"4","last_reported":1702202833,"current_range_meters":31200,"station_id":"ce4bhgh2rcd13ifvqfb0","pricing_plan_id":"free"},{"bike_id":"3fe69fa0-00a3-48b0-87f4-afdfaf4778d7","system_id":"levelo_inurba_marseille","lat":43.2479,"lon":5.374457,"is_reserved":false,"is_disabled":false,"rental_uris":{"android":"levelo://app?vid=3fe69fa0-00a3-48b0-87f4-afdfaf4778d7","ios":"levelo://app?vid=3fe69fa0-00a3-48b0-87f4-afdfaf4778d7"},"vehicle_type_id":"4","last_reported":1702202833,"current_range_meters":26400,"station_id":"ce4bhgh2rcd13ifvqfb0","pricing_plan_id":"free"},{"bike_id":"2360ed35-4566-45a3-9877-35675701f4cd","system_id":"levelo_inurba_marseille","lat":43.2479,"lon":5.374457,"is_reserved":false,"is_disabled":false,"rental_uris":{"android":"levelo://app?vid=2360ed35-4566-45a3-9877-35675701f4cd","ios":"levelo://app?vid=2360ed35-4566-45a3-9877-35675701f4cd"},"vehicle_type_id":"4","last_reported":1702202833,"current_range_meters":20400,"station_id":"ce4bhgh2rcd13ifvqfb0","pricing_plan_id":"free"},{"bike_id":"85f11368-cd66-4989-9fd8-3435f4f4324d","system_id":"levelo_inurba_marseille","lat":43.250966,"lon":5.395186,"is_reserved":false,"is_disabled":false,"rental_uris":{"android":"levelo://app?vid=85f11368-cd66-4989-9fd8-3435f4f4324d","ios":"levelo://app?vid=85f11368-cd66-4989-9fd8-3435f4f4324d"},"vehicle_type_id":"4","last_reported":1702202833,"current_range_meters":16000,"station_id":"ce4bhm12rcd13ifvqgkg","pricing_plan_id":"free"},{"bike_id":"89f6b9c7-2e47-467d-a5da-27592e88272c","system_id":"levelo_inurba_marseille","lat":43.250966,"lon":5.395186,"is_reserved":false,"is_disabled":false,"rental_uris":{"android":"levelo://app?vid=89f6b9c7-2e47-467d-a5da-27592e88272c","ios":"levelo://app?vid=89f6b9c7-2e47-467d-a5da-27592e88272c"},"vehicle_type_id":"4","last_reported":1702202833,"current_range_meters":31600,"station_id":"ce4bhm12rcd13ifvqgkg","pricing_plan_id":"free"},{"bike_id":"f8751423-247d-463f-84eb-c4492f784372","system_id":"levelo_inurba_marseille","lat":43.24693,"lon":5.382096,"is_reserved":false,"is_disabled":false,"rental_uris":{"android":"levelo://app?vid=f8751423-247d-463f-84eb-c4492f784372","ios":"levelo://app?vid=f8751423-247d-463f-84eb-c4492f784372"},"vehicle_type_id":"4","last_reported":1702202833,"current_range_meters":13600,"station_id":"ce4bhih2rcd13ifvqfr0","pricing_plan_id":"free"},{"bike_id":"7720c45a-16fd-468c-820d-244fcf7910db","system_id":"levelo_inurba_marseille","lat":43.2466,"lon":5.38154,"is_reserved":false,"is_disabled":false,"rental_uris":{"android":"levelo://app?vid=7720c45a-16fd-468c-820d-244fcf7910db","ios":"levelo://app?vid=7720c45a-16fd-468c-820d-244fcf7910db"},"vehicle_type_id":"4","last_reported":1702202833,"current_range_meters":30800,"station_id":"ce4bhih2rcd13ifvqfr0","pricing_plan_id":"free"},{"bike_id":"d608bd2a-1e64-45d8-8604-2f7a0c32cafc","system_id":"levelo_inurba_marseille","lat":43.25113,"lon":5.40323,"is_reserved":false,"is_disabled":false,"rental_uris":{"android":"levelo://app?vid=d608bd2a-1e64-45d8-8604-2f7a0c32cafc","ios":"levelo://app?vid=d608bd2a-1e64-45d8-8604-2f7a0c32cafc"},"vehicle_type_id":"4","last_reported":1702202833,"current_range_meters":18400,"station_id":"ce4bhlh2rcd13ifvqgig","pricing_plan_id":"free"},{"bike_id":"c877ed2c-36ed-4f42-9603-49db434a918c","system_id":"levelo_inurba_marseille","lat":43.25111,"lon":5.40324,"is_reserved":false,"is_disabled":false,"rental_uris":{"android":"levelo://app?vid=c877ed2c-36ed-4f42-9603-49db434a918c","ios":"levelo://app?vid=c877ed2c-36ed-4f42-9603-49db434a918c"},"vehicle_type_id":"4","last_reported":1702202833,"current_range_meters":22000,"station_id":"ce4bhlh2rcd13ifvqgig","pricing_plan_id":"free"},{"bike_id":"fa00c1e4-8009-4b4b-8fd2-78ce3feef651","system_id":"levelo_inurba_marseille","lat":43.25106,"lon":5.40323,"is_reserved":false,"is_disabled":false,"rental_uris":{"android":"levelo://app?vid=fa00c1e4-8009-4b4b-8fd2-78ce3feef651","ios":"levelo://app?vid=fa00c1e4-8009-4b4b-8fd2-78ce3feef651"},"vehicle_type_id":"4","last_reported":1702202833,"current_range_meters":29600,"station_id":"ce4bhlh2rcd13ifvqgig","pricing_plan_id":"free"},{"bike_id":"5e605dd7-7449-4197-aebf-bcb50d65c55f","system_id":"levelo_inurba_marseille","lat":43.246461,"lon":5.389014,"is_reserved":false,"is_disabled":false,"rental_uris":{"android":"levelo://app?vid=5e605dd7-7449-4197-aebf-bcb50d65c55f","ios":"levelo://app?vid=5e605dd7-7449-4197-aebf-bcb50d65c55f"},"vehicle_type_id":"4","last_reported":1702202833,"current_range_meters":27200,"station_id":"ce4bhg12rcd13ifvqf60","pricing_plan_id":"free"},{"bike_id":"fd3f6665-316c-41dc-94ab-145c31afc58a","system_id":"levelo_inurba_marseille","lat":43.246461,"lon":5.389014,"is_reserved":false,"is_disabled":false,"rental_uris":{"android":"levelo://app?vid=fd3f6665-316c-41dc-94ab-145c31afc58a","ios":"levelo://app?vid=fd3f6665-316c-41dc-94ab-145c31afc58a"},"vehicle_type_id":"4","last_reported":1702202833,"current_range_meters":26400,"station_id":"ce4bhg12rcd13ifvqf60","pricing_plan_id":"free"},{"bike_id":"1a23636c-273b-427e-ba3a-4cc57a24dce9","system_id":"levelo_inurba_marseille","lat":43.246467,"lon":5.388984,"is_reserved":false,"is_disabled":false,"rental_uris":{"android":"levelo://app?vid=1a23636c-273b-427e-ba3a-4cc57a24dce9","ios":"levelo://app?vid=1a23636c-273b-427e-ba3a-4cc57a24dce9"},"vehicle_type_id":"4","last_reported":1702202833,"current_range_meters":28800,"station_id":"ce4bhg12rcd13ifvqf60","pricing_plan_id":"free"},{"bike_id":"9dbf48eb-cd24-4321-b848-c5c1d4f96ea9","system_id":"levelo_inurba_marseille","lat":43.243884,"lon":5.370736,"is_reserved":false,"is_disabled":false,"rental_uris":{"android":"levelo://app?vid=9dbf48eb-cd24-4321-b848-c5c1d4f96ea9","ios":"levelo://app?vid=9dbf48eb-cd24-4321-b848-c5c1d4f96ea9"},"vehicle_type_id":"4","last_reported":1702202833,"current_range_meters":14800,"station_id":"ce4bhhh2rcd13ifvqfk0","pricing_plan_id":"free"},{"bike_id":"a4a36db5-c396-4bf6-990e-623760dccbee","system_id":"levelo_inurba_marseille","lat":43.243884,"lon":5.370736,"is_reserved":false,"is_disabled":false,"rental_uris":{"android":"levelo://app?vid=a4a36db5-c396-4bf6-990e-623760dccbee","ios":"levelo://app?vid=a4a36db5-c396-4bf6-990e-623760dccbee"},"vehicle_type_id":"4","last_reported":1702202833,"current_range_meters":22800,"station_id":"ce4bhhh2rcd13ifvqfk0","pricing_plan_id":"free"},{"bike_id":"07dede9f-b29f-4a51-a4af-7e4eed41d00c","system_id":"levelo_inurba_marseille","lat":43.243884,"lon":5.370736,"is_reserved":false,"is_disabled":false,"rental_uris":{"android":"levelo://app?vid=07dede9f-b29f-4a51-a4af-7e4eed41d00c","ios":"levelo://app?vid=07dede9f-b29f-4a51-a4af-7e4eed41d00c"},"vehicle_type_id":"4","last_reported":1702202833,"current_range_meters":31600,"station_id":"ce4bhhh2rcd13ifvqfk0","pricing_plan_id":"free"},{"bike_id":"4be15561-cb90-4d46-9d25-d93d6ef6aaa0","system_id":"levelo_inurba_marseille","lat":43.243884,"lon":5.370737,"is_reserved":false,"is_disabled":false,"rental_uris":{"android":"levelo://app?vid=4be15561-cb90-4d46-9d25-d93d6ef6aaa0","ios":"levelo://app?vid=4be15561-cb90-4d46-9d25-d93d6ef6aaa0"},"vehicle_type_id":"4","last_reported":1702202833,"current_range_meters":29200,"station_id":"ce4bhhh2rcd13ifvqfk0","pricing_plan_id":"free"},{"bike_id":"c16a1286-3c23-49d2-b110-1ce5ddf6b528","system_id":"levelo_inurba_marseille","lat":43.245581,"lon":5.395069,"is_reserved":false,"is_disabled":false,"rental_uris":{"android":"levelo://app?vid=c16a1286-3c23-49d2-b110-1ce5ddf6b528","ios":"levelo://app?vid=c16a1286-3c23-49d2-b110-1ce5ddf6b528"},"vehicle_type_id":"4","last_reported":1702202833,"current_range_meters":26400,"station_id":"ce4bhlp2rcd13ifvqgjg","pricing_plan_id":"free"},{"bike_id":"dcca9d44-ebb8-4fb2-994c-54427d7b11c2","system_id":"levelo_inurba_marseille","lat":43.245581,"lon":5.395069,"is_reserved":false,"is_disabled":false,"rental_uris":{"android":"levelo://app?vid=dcca9d44-ebb8-4fb2-994c-54427d7b11c2","ios":"levelo://app?vid=dcca9d44-ebb8-4fb2-994c-54427d7b11c2"},"vehicle_type_id":"4","last_reported":1702202833,"current_range_meters":29200,"station_id":"ce4bhlp2rcd13ifvqgjg","pricing_plan_id":"free"},{"bike_id":"37658046-b830-405e-8325-0b95df8fcc9e","system_id":"levelo_inurba_marseille","lat":43.245581,"lon":5.395069,"is_reserved":false,"is_disabled":false,"rental_uris":{"android":"levelo://app?vid=37658046-b830-405e-8325-0b95df8fcc9e","ios":"levelo://app?vid=37658046-b830-405e-8325-0b95df8fcc9e"},"vehicle_type_id":"4","last_reported":1702202833,"current_range_meters":18800,"station_id":"ce4bhlp2rcd13ifvqgjg","pricing_plan_id":"free"},{"bike_id":"92bbcc08-2e4f-4b21-893d-04844baae76e","system_id":"levelo_inurba_marseille","lat":43.245581,"lon":5.395069,"is_reserved":false,"is_disabled":false,"rental_uris":{"android":"levelo://app?vid=92bbcc08-2e4f-4b21-893d-04844baae76e","ios":"levelo://app?vid=92bbcc08-2e4f-4b21-893d-04844baae76e"},"vehicle_type_id":"4","last_reported":1702202833,"current_range_meters":32000,"station_id":"ce4bhlp2rcd13ifvqgjg","pricing_plan_id":"free"},{"bike_id":"2189fc5b-972b-481a-8599-b7f74600c485","system_id":"levelo_inurba_marseille","lat":43.245581,"lon":5.395069,"is_reserved":false,"is_disabled":false,"rental_uris":{"android":"levelo://app?vid=2189fc5b-972b-481a-8599-b7f74600c485","ios":"levelo://app?vid=2189fc5b-972b-481a-8599-b7f74600c485"},"vehicle_type_id":"4","last_reported":1702202833,"current_range_meters":31600,"station_id":"ce4bhlp2rcd13ifvqgjg","pricing_plan_id":"free"},{"bike_id":"83810652-fe27-4a48-b299-8e29eb289448","system_id":"levelo_inurba_marseille","lat":43.240623,"lon":5.377642,"is_reserved":false,"is_disabled":false,"rental_uris":{"android":"levelo://app?vid=83810652-fe27-4a48-b299-8e29eb289448","ios":"levelo://app?vid=83810652-fe27-4a48-b299-8e29eb289448"},"vehicle_type_id":"4","last_reported":1702202833,"current_range_meters":14800,"station_id":"ce4bhnp2rcd13ifvqgvg","pricing_plan_id":"free"},{"bike_id":"e0027151-3876-4e17-8b4a-b5c8f5b31988","system_id":"levelo_inurba_marseille","lat":43.24073,"lon":5.37755,"is_reserved":false,"is_disabled":false,"rental_uris":{"android":"levelo://app?vid=e0027151-3876-4e17-8b4a-b5c8f5b31988","ios":"levelo://app?vid=e0027151-3876-4e17-8b4a-b5c8f5b31988"},"vehicle_type_id":"4","last_reported":1702202833,"current_range_meters":14400,"station_id":"ce4bhnp2rcd13ifvqgvg","pricing_plan_id":"free"},{"bike_id":"e822e132-2a58-4f66-a0e0-17916009b820","system_id":"levelo_inurba_marseille","lat":43.24071,"lon":5.37761,"is_reserved":false,"is_disabled":false,"rental_uris":{"android":"levelo://app?vid=e822e132-2a58-4f66-a0e0-17916009b820","ios":"levelo://app?vid=e822e132-2a58-4f66-a0e0-17916009b820"},"vehicle_type_id":"4","last_reported":1702202833,"current_range_meters":20000,"station_id":"ce4bhnp2rcd13ifvqgvg","pricing_plan_id":"free"},{"bike_id":"617c2586-f562-4602-ba86-a0b0c829c528","system_id":"levelo_inurba_marseille","lat":43.2396,"lon":5.36631,"is_reserved":false,"is_disabled":false,"rental_uris":{"android":"levelo://app?vid=617c2586-f562-4602-ba86-a0b0c829c528","ios":"levelo://app?vid=617c2586-f562-4602-ba86-a0b0c829c528"},"vehicle_type_id":"4","last_reported":1702202833,"current_range_meters":30800,"station_id":"ce4bhi12rcd13ifvqfp0","pricing_plan_id":"free"},{"bike_id":"3831fb4e-d51e-479d-b848-99ac4a0570df","system_id":"levelo_inurba_marseille","lat":43.231919,"lon":5.355532,"is_reserved":false,"is_disabled":false,"rental_uris":{"android":"levelo://app?vid=3831fb4e-d51e-479d-b848-99ac4a0570df","ios":"levelo://app?vid=3831fb4e-d51e-479d-b848-99ac4a0570df"},"vehicle_type_id":"4","last_reported":1702202833,"current_range_meters":15600,"station_id":"ce4bhu92rcd13ifvqi70","pricing_plan_id":"free"},{"bike_id":"efdf0b62-a012-45f2-a093-48aedd562b0c","system_id":"levelo_inurba_marseille","lat":43.231919,"lon":5.355532,"is_reserved":false,"is_disabled":false,"rental_uris":{"android":"levelo://app?vid=efdf0b62-a012-45f2-a093-48aedd562b0c","ios":"levelo://app?vid=efdf0b62-a012-45f2-a093-48aedd562b0c"},"vehicle_type_id":"4","last_reported":1702202833,"current_range_meters":18400,"station_id":"ce4bhu92rcd13ifvqi70","pricing_plan_id":"free"},{"bike_id":"5ea7d020-ee50-45c9-9444-8ce1c595d7a8","system_id":"levelo_inurba_marseille","lat":43.231923,"lon":5.355545,"is_reserved":false,"is_disabled":false,"rental_uris":{"android":"levelo://app?vid=5ea7d020-ee50-45c9-9444-8ce1c595d7a8","ios":"levelo://app?vid=5ea7d020-ee50-45c9-9444-8ce1c595d7a8"},"vehicle_type_id":"4","last_reported":1702202833,"current_range_meters":7200,"station_id":"ce4bhu92rcd13ifvqi70","pricing_plan_id":"free"},{"bike_id":"88360225-83fa-42a7-aa9d-04d6e2f27256","system_id":"levelo_inurba_marseille","lat":43.231919,"lon":5.355532,"is_reserved":false,"is_disabled":false,"rental_uris":{"android":"levelo://app?vid=88360225-83fa-42a7-aa9d-04d6e2f27256","ios":"levelo://app?vid=88360225-83fa-42a7-aa9d-04d6e2f27256"},"vehicle_type_id":"4","last_reported":1702202833,"current_range_meters":31200,"station_id":"ce4bhu92rcd13ifvqi70","pricing_plan_id":"free"},{"bike_id":"a8c501f0-1f0c-4126-b8d3-0e787022ce6a","system_id":"levelo_inurba_marseille","lat":43.231919,"lon":5.355532,"is_reserved":false,"is_disabled":false,"rental_uris":{"android":"levelo://app?vid=a8c501f0-1f0c-4126-b8d3-0e787022ce6a","ios":"levelo://app?vid=a8c501f0-1f0c-4126-b8d3-0e787022ce6a"},"vehicle_type_id":"4","last_reported":1702202833,"current_range_meters":31200,"station_id":"ce4bhu92rcd13ifvqi70","pricing_plan_id":"free"},{"bike_id":"cfc4a276-4a67-412c-8f70-0b8c1f09f05d","system_id":"levelo_inurba_marseille","lat":43.23191,"lon":5.35542,"is_reserved":false,"is_disabled":false,"rental_uris":{"android":"levelo://app?vid=cfc4a276-4a67-412c-8f70-0b8c1f09f05d","ios":"levelo://app?vid=cfc4a276-4a67-412c-8f70-0b8c1f09f05d"},"vehicle_type_id":"4","last_reported":1702202833,"current_range_meters":14400,"station_id":"ce4bhu92rcd13ifvqi70","pricing_plan_id":"free"},{"bike_id":"291500d0-9d8c-4548-9a9d-9a7f79b46317","system_id":"levelo_inurba_marseille","lat":43.23181,"lon":5.39963,"is_reserved":false,"is_disabled":false,"rental_uris":{"android":"levelo://app?vid=291500d0-9d8c-4548-9a9d-9a7f79b46317","ios":"levelo://app?vid=291500d0-9d8c-4548-9a9d-9a7f79b46317"},"vehicle_type_id":"4","last_reported":1702202833,"current_range_meters":31200,"station_id":"ce4bhn12rcd13ifvqgqg","pricing_plan_id":"free"},{"bike_id":"57272284-6b87-49f3-ac85-06f51f10d6bd","system_id":"levelo_inurba_marseille","lat":43.231793,"lon":5.399627,"is_reserved":false,"is_disabled":false,"rental_uris":{"android":"levelo://app?vid=57272284-6b87-49f3-ac85-06f51f10d6bd","ios":"levelo://app?vid=57272284-6b87-49f3-ac85-06f51f10d6bd"},"vehicle_type_id":"4","last_reported":1702202833,"current_range_meters":11600,"station_id":"ce4bhn12rcd13ifvqgqg","pricing_plan_id":"free"}]}}