{"last_updated":1706731627,"ttl":30,"version":"2.2","data":{"bikes":[{"bike_id":"aa2081ff-9cef-4ef7-b1e2-feb5d80225c4","system_id":"levelo_inurba_marseille","lat":43.313391,"lon":5.36706,"is_reserved":false,"is_disabled":false,"rental_uris":{"android":"levelo://app?vid=aa2081ff-9cef-4ef7-b1e2-feb5d80225c4","ios":"levelo://app?vid=aa2081ff-9cef-4ef7-b1e2-feb5d80225c4"},"vehicle_type_id":"4","last_reported":1706731627,"current_range_meters":16000,"station_id":"ce4bgr92rcd13ifvqc6g","pricing_plan_id":"free"},{"bike_id":"a01b2bde-6b1f-4228-920b-2105279b80f5","system_id":"levelo_inurba_marseille","lat":43.312239,"lon":5.368562,"is_reserved":false,"is_disabled":false,"rental_uris":{"android":"levelo://app?vid=a01b2bde-6b1f-4228-920b-2105279b80f5","ios":"levelo://app?vid=a01b2bde-6b1f-4228-920b-2105279b80f5"},"vehicle_type_id":"4","last_reported":1706731627,"current_range_meters":19600,"station_id":"ce4bgl92rcd13ifvqbq0","pricing_plan_id":"free"},{"bike_id":"450fa1a0-90ea-4ea4-a12d-07545216ba0d","system_id":"levelo_inurba_marseille","lat":43.312302,"lon":5.36857,"is_reserved":false,"is_disabled":false,"rental_uris":{"android":"levelo://app?vid=450fa1a0-90ea-4ea4-a12d-07545216ba0d","ios":"levelo://app?vid=450fa1a0-90ea-4ea4-a12d-07545216ba0d"},"vehicle_type_id":"4","last_reported":1706731627,"current_range_meters":0,"station_id":"ce4bgl92rcd13ifvqbq0","pricing_plan_id":"free"},{"bike_id":"0b7d657c-7063-4f4b-be49-ed5178823af2","system_id":"levelo_inurba_marseille","lat":43.309039,"lon":5.371797,"is_reserved":false,"is_disabled":false,"rental_uris":{"android":"levelo://app?vid=0b7d657c-7063-4f4b-be49-ed5178823af2","ios":"levelo://app?vid=0b7d657c-7063-4f4b-be49-ed5178823af2"},"vehicle_type_id":"4","last_reported":1706731627,"current_range_meters":8800,"station_id":"ce4bguh2rcd13ifvqckg","pricing_plan_id":"free"},{"bike_id":"5aab8157-ec64-41a5-b1b4-494e2b28d5df","system_id":"levelo_inurba_marseille","lat":43.309039,"lon":5.371797,"is_reserved":false,"is_disabled":false,"rental_uris":{"android":"levelo://app?vid=5aab8157-ec64-41a5-b1b4-494e2b28d5df","ios":"levelo://app?vid=5aab8157-ec64-41a5-b1b4-494e2b28d5df"},"vehicle_type_id":"4","last_reported":1706731627,"current_range_meters":10400,"station_id":"ce4bguh2rcd13ifvqckg","pricing_plan_id":"free"},{"bike_id":"98d085c8-fbb6-4526-979b-cedc30409b30","system_id":"levelo_inurba_marseille","lat":43.308785,"lon":5.371945,"is_reserved":false,"is_disabled":false,"rental_uris":{"android":"levelo://app?vid=98d085c8-fbb6-4526-979b-cedc30409b30","ios":"levelo://app?vid=98d085c8-fbb6-4526-979b-cedc30409b30"},"vehicle_type_id":"4","last_reported":1706731627,"current_range_meters":0,"station_id":"ce4bguh2rcd13ifvqckg","pricing_plan_id":"free"},{"bike_id":"2d96c2be-c98f-448b-9056-e6b4399d5025","system_id":"levelo_inurba_marseille","lat":43.30879,"lon":5.371984,"is_reserved":false,"is_disabled":false,"rental_uris":{"android":"levelo://app?vid=2d96c2be-c98f-448b-9056-e6b4399d5025","ios":"levelo://app?vid=2d96c2be-c98f-448b-9056-e6b4399d5025"},"vehicle_type_id":"4","last_reported":1706731627,"current_range_meters":0,"station_id":"ce4bguh2rcd13ifvqckg","pricing_plan_id":"free"},{"bike_id":"25b31aad-f31e-4afe-b494-c43f5c02deb4","system_id":"levelo_inurba_marseille","lat":43.305567,"lon":5.366969,"is_reserved":false,"is_disabled":false,"rental_uris":{"android":"levelo://app?vid=25b31aad-f31e-4afe-b494-c43f5c02deb4","ios":"levelo://app?vid=25b31aad-f31e-4afe-b494-c43f5c02deb4"},"vehicle_type_id":"4","last_reported":1706731627,"current_range_meters":24400,"station_id":"ce4bgrp2rcd13ifvqc9g","pricing_plan_id":"free"},{"bike_id":"290b02e9-44c2-47da-bef2-8a4bc5a5382e","system_id":"levelo_inurba_marseille","lat":43.305712,"lon":5.365641,"is_reserved":false,"is_disabled":false,"rental_uris":{"android":"levelo://app?vid=290b02e9-44c2-47da-bef2-8a4bc5a5382e","ios":"levelo://app?vid=290b02e9-44c2-47da-bef2-8a4bc5a5382e"},"vehicle_type_id":"4","last_reported":1706731627,"current_range_meters":7200,"station_id":"ce4bgs12rcd13ifvqcag","pricing_plan_id":"free"},{"bike_id":"1be6c73d-db61-4437-bf33-bc72323c948a","system_id":"levelo_inurba_marseille","lat":43.311131,"lon":5.377651,"is_reserved":false,"is_disabled":false,"rental_uris":{"android":"levelo://app?vid=1be6c73d-db61-4437-bf33-bc72323c948a","ios":"levelo://app?vid=1be6c73d-db61-4437-bf33-bc72323c948a"},"vehicle_type_id":"4","last_reported":1706731627,"current_range_meters":13600,"station_id":"ce4bgt92rcd13ifvqcg0","pricing_plan_id":"free"},{"bike_id":"f62b0400-ef0e-412a-af40-8fa8730363e2","system_id":"levelo_inurba_marseille","lat":43.311125,"lon":5.377624,"is_reserved":false,"is_disabled":false,"rental_uris":{"android":"levelo://app?vid=f62b0400-ef0e-412a-af40-8fa8730363e2","ios":"levelo://app?vid=f62b0400-ef0e-412a-af40-8fa8730363e2"},"vehicle_type_id":"4","last_reported":1706731627,"current_range_meters":5600,"station_id":"ce4bgt92rcd13ifvqcg0","pricing_plan_id":"free"},{"bike_id":"b89163d2-f2b5-4b6d-aabd-1475735c5e98","system_id":"levelo_inurba_marseille","lat":43.311131,"lon":5.377651,"is_reserved":false,"is_disabled":false,"rental_uris":{"android":"levelo://app?vid=b89163d2-f2b5-4b6d-aabd-1475735c5e98","ios":"levelo://app?vid=b89163d2-f2b5-4b6d-aabd-1475735c5e98"},"vehicle_type_id":"4","last_reported":1706731627,"current_range_meters":12800,"station_id":"ce4bgt92rcd13ifvqcg0","pricing_plan_id":"free"},{"bike_id":"f7151148-e563-4954-a53e-cd97bf0e08b4","system_id":"levelo_inurba_marseille","lat":43.311131,"lon":5.377651,"is_reserved":false,"is_disabled":false,"rental_uris":{"android":"levelo://app?vid=f7151148-e563-4954-a53e-cd97bf0e08b4","ios":"levelo://app?vid=f7151148-e563-4954-a53e-cd97bf0e08b4"},"vehicle_type_id":"4","last_reported":1706731627,"current_range_meters":6400,"station_id":"ce4bgt92rcd13ifvqcg0","pricing_plan_id":"free"},{"bike_id":"b2c835e6-e90e-4991-a1b6-ede76a55986a","system_id":"levelo_inurba_marseille","lat":43.307945,"lon":5.376487,"is_reserved":false,"is_disabled":false,"rental_uris":{"android":"levelo://app?vid=b2c835e6-e90e-4991-a1b6-ede76a55986a","ios":"levelo://app?vid=b2c835e6-e90e-4991-a1b6-ede76a55986a"},"vehicle_type_id":"4","last_reported":1706731627,"current_range_meters":4800,"station_id":"ce4bgv92rcd13ifvqcq0","pricing_plan_id":"free"},{"bike_id":"95efe18c-8927-47a7-b5ca-7d3259004606","system_id":"levelo_inurba_marseille","lat":43.307945,"lon":5.376487,"is_reserved":false,"is_disabled":false,"rental_uris":{"android":"levelo://app?vid=95efe18c-8927-47a7-b5ca-7d3259004606","ios":"levelo://app?vid=95efe18c-8927-47a7-b5ca-7d3259004606"},"vehicle_type_id":"4","last_reported":1706731627,"current_range_meters":4800,"station_id":"ce4bgv92rcd13ifvqcq0","pricing_plan_id":"free"},{"bike_id":"f33f70d5-46c2-4de5-ac55-7370e52b4850","system_id":"levelo_inurba_marseille","lat":43.307945,"lon":5.376487,"is_reserved":false,"is_disabled":false,"rental_uris":{"android":"levelo://app?vid=f33f70d5-46c2-4de5-ac55-7370e52b4850","ios":"levelo://app?vid=f33f70d5-46c2-4de5-ac55-7370e52b4850"},"vehicle_type_id":"4","last_reported":1706731627,"current_range_meters":8400,"station_id":"ce4bgv92rcd13ifvqcq0","pricing_plan_id":"free"},{"bike_id":"29cfea34-e214-42f6-b305-d97c71040ac0","system_id":"levelo_inurba_marseille","lat":43.305989,"lon":5.37225,"is_reserved":false,"is_disabled":false,"rental_uris":{"android":"levelo://app?vid=29cfea34-e214-42f6-b305-d97c71040ac0","ios":"levelo://app?vid=29cfea34-e214-42f6-b305-d97c71040ac0"},"vehicle_type_id":"4","last_reported":1706731627,"current_range_meters":11200,"station_id":"ce4bgqh2rcd13ifvqc4g","pricing_plan_id":"free"},{"bike_id":"b115c0ce-0ef4-4292-98a5-aff5bbf41127","system_id":"levelo_inurba_marseille","lat":43.307945,"lon":5.376487,"is_reserved":false,"is_disabled":false,"rental_uris":{"android":"levelo://app?vid=b115c0ce-0ef4-4292-98a5-aff5bbf41127","ios":"levelo://app?vid=b115c0ce-0ef4-4292-98a5-aff5bbf41127"},"vehicle_type_id":"4","last_reported":1706731627,"current_range_meters":16800,"station_id":"ce4bgv92rcd13ifvqcq0","pricing_plan_id":"free"},{"bike_id":"18a7ab6b-e68c-44de-99bd-cd4b624a0994","system_id":"levelo_inurba_marseille","lat":43.317075,"lon":5.377367,"is_reserved":false,"is_disabled":false,"rental_uris":{"android":"levelo://app?vid=18a7ab6b-e68c-44de-99bd-cd4b624a0994","ios":"levelo://app?vid=18a7ab6b-e68c-44de-99bd-cd4b624a0994"},"vehicle_type_id":"4","last_reported":1706731627,"current_range_meters":4800,"station_id":"ce4bgth2rcd13ifvqch0","pricing_plan_id":"free"},{"bike_id":"b63a0619-c8c5-454e-be3d-7d4e8d9e522f","system_id":"levelo_inurba_marseille","lat":43.317075,"lon":5.377367,"is_reserved":false,"is_disabled":false,"rental_uris":{"android":"levelo://app?vid=b63a0619-c8c5-454e-be3d-7d4e8d9e522f","ios":"levelo://app?vid=b63a0619-c8c5-454e-be3d-7d4e8d9e522f"},"vehicle_type_id":"4","last_reported":1706731627,"current_range_meters":13200,"station_id":"ce4bgth2rcd13ifvqch0","pricing_plan_id":"free"},{"bike_id":"939d97a5-2ccb-4ff6-8e74-847cf8201e56","system_id":"levelo_inurba_marseille","lat":43.317075,"lon":5.377367,"is_reserved":false,"is_disabled":false,"rental_uris":{"android":"levelo://app?vid=939d97a5-2ccb-4ff6-8e74-847cf8201e56","ios":"levelo://app?vid=939d97a5-2ccb-4ff6-8e74-847cf8201e56"},"vehicle_type_id":"4","last_reported":1706731627,"current_range_meters":22800,"station_id":"ce4bgth2rcd13ifvqch0","pricing_plan_id":"free"},{"bike_id":"b0eb6111-c109-495a-89e8-6b85efa01fb0","system_id":"levelo_inurba_marseille","lat":43.30304,"lon":5.368987,"is_reserved":false,"is_disabled":false,"rental_uris":{"android":"levelo://app?vid=b0eb6111-c109-495a-89e8-6b85efa01fb0","ios":"levelo://app?vid=b0eb6111-c109-495a-89e8-6b85efa01fb0"},"vehicle_type_id":"4","last_reported":1706731627,"current_range_meters":3600,"station_id":"ce4bgqh2rcd13ifvqc5g","pricing_plan_id":"free"},{"bike_id":"d2c84061-05a4-4708-9330-0e4f16672fb5","system_id":"levelo_inurba_marseille","lat":43.303046,"lon":5.368981,"is_reserved":false,"is_disabled":false,"rental_uris":{"android":"levelo://app?vid=d2c84061-05a4-4708-9330-0e4f16672fb5","ios":"levelo://app?vid=d2c84061-05a4-4708-9330-0e4f16672fb5"},"vehicle_type_id":"4","last_reported":1706731627,"current_range_meters":8000,"station_id":"ce4bgqh2rcd13ifvqc5g","pricing_plan_id":"free"},{"bike_id":"8aab5669-1cf4-4a4e-8d4f-aab166f79855","system_id":"levelo_inurba_marseille","lat":43.302983,"lon":5.36896,"is_reserved":false,"is_disabled":false,"rental_uris":{"android":"levelo://app?vid=8aab5669-1cf4-4a4e-8d4f-aab166f79855","ios":"levelo://app?vid=8aab5669-1cf4-4a4e-8d4f-aab166f79855"},"vehicle_type_id":"4","last_reported":1706731627,"current_range_meters":4000,"station_id":"ce4bgqh2rcd13ifvqc5g","pricing_plan_id":"free"},{"bike_id":"7adb29ae-01e8-4104-bb04-ba6971f584ce","system_id":"levelo_inurba_marseille","lat":43.30304,"lon":5.368987,"is_reserved":false,"is_disabled":false,"rental_uris":{"android":"levelo://app?vid=7adb29ae-01e8-4104-bb04-ba6971f584ce","ios":"levelo://app?vid=7adb29ae-01e8-4104-bb04-ba6971f584ce"},"vehicle_type_id":"4","last_reported":1706731627,"current_range_meters":8400,"station_id":"ce4bgqh2rcd13ifvqc5g","pricing_plan_id":"free"},{"bike_id":"d621c7c6-f8f7-4aff-8255-da4375603046","system_id":"levelo_inurba_marseille","lat":43.301939,"lon":5.366286,"is_reserved":false,"is_disabled":false,"rental_uris":{"android":"levelo://app?vid=d621c7c6-f8f7-4aff-8255-da4375603046","ios":"levelo://app?vid=d621c7c6-f8f7-4aff-8255-da4375603046"},"vehicle_type_id":"4","last_reported":1706731627,"current_range_meters":4400,"station_id":"ce4bgrh2rcd13ifvqc8g","pricing_plan_id":"free"},{"bike_id":"da476af5-3e12-4c17-aa61-c3d7a9b1f700","system_id":"levelo_inurba_marseille","lat":43.308012,"lon":5.381511,"is_reserved":false,"is_disabled":false,"rental_uris":{"android":"levelo://app?vid=da476af5-3e12-4c17-aa61-c3d7a9b1f700","ios":"levelo://app?vid=da476af5-3e12-4c17-aa61-c3d7a9b1f700"},"vehicle_type_id":"4","last_reported":1706731627,"current_range_meters":3200,"station_id":"ce4bgt12rcd13ifvqce0","pricing_plan_id":"free"},{"bike_id":"e6e9d7ae-2cb1-4553-8183-ffc0b944daf1","system_id":"levelo_inurba_marseille","lat":43.304606,"lon":5.379026,"is_reserved":false,"is_disabled":false,"rental_uris":{"android":"levelo://app?vid=e6e9d7ae-2cb1-4553-8183-ffc0b944daf1","ios":"levelo://app?vid=e6e9d7ae-2cb1-4553-8183-ffc0b944daf1"},"vehicle_type_id":"4","last_reported":1706731627,"current_range_meters":1200,"station_id":"ce4bgup2rcd13ifvqcn0","pricing_plan_id":"free"},{"bike_id":"d09b101b-245f-48b2-b4b4-8cc2cf66b737","system_id":"levelo_inurba_marseille","lat":43.324771,"lon":5.36557,"is_reserved":false,"is_disabled":false,"rental_uris":{"android":"levelo://app?vid=d09b101b-245f-48b2-b4b4-8cc2cf66b737","ios":"levelo://app?vid=d09b101b-245f-48b2-b4b4-8cc2cf66b737"},"vehicle_type_id":"4","last_reported":1706731627,"current_range_meters":17600,"station_id":"ce4bhs12rcd13ifvqhvg","pricing_plan_id":"free"},{"bike_id":"f9b3aa5a-40af-4040-a917-268c7acc95ae","system_id":"levelo_inurba_marseille","lat":43.32479,"lon":5.36567,"is_reserved":false,"is_disabled":false,"rental_uris":{"android":"levelo://app?vid=f9b3aa5a-40af-4040-a917-268c7acc95ae","ios":"levelo://app?vid=f9b3aa5a-40af-4040-a917-268c7acc95ae"},"vehicle_type_id":"4","last_reported":1706731627,"current_range_meters":16000,"station_id":"ce4bhs12rcd13ifvqhvg","pricing_plan_id":"free"},{"bike_id":"4c1d912b-8425-4b28-bcd4-0691a1724560","system_id":"levelo_inurba_marseille","lat":43.324812,"lon":5.365761,"is_reserved":false,"is_disabled":false,"rental_uris":{"android":"levelo://app?vid=4c1d912b-8425-4b28-bcd4-0691a1724560","ios":"levelo://app?vid=4c1d912b-8425-4b28-bcd4-0691a1724560"},"vehicle_type_id":"4","last_reported":1706731627,"current_range_meters":17600,"station_id":"ce4bhs12rcd13ifvqhvg","pricing_plan_id":"free"},{"bike_id":"01e399bb-1b7e-4e67-83fb-10f0f85b1324","system_id":"levelo_inurba_marseille","lat":43.31064,"lon":5.3835,"is_reserved":false,"is_disabled":false,"rental_uris":{"android":"levelo://app?vid=01e399bb-1b7e-4e67-83fb-10f0f85b1324","ios":"levelo://app?vid=01e399bb-1b7e-4e67-83fb-10f0f85b1324"},"vehicle_type_id":"4","last_reported":1706731627,"current_range_meters":12000,"station_id":"ce4bgv92rcd13ifvqcr0","pricing_plan_id":"free"},{"bike_id":"bcb7ac20-c3dd-4ee6-b216-98fc3684324f","system_id":"levelo_inurba_marseille","lat":43.30143,"lon":5.37413,"is_reserved":false,"is_disabled":false,"rental_uris":{"android":"levelo://app?vid=bcb7ac20-c3dd-4ee6-b216-98fc3684324f","ios":"levelo://app?vid=bcb7ac20-c3dd-4ee6-b216-98fc3684324f"},"vehicle_type_id":"4","last_reported":1706731627,"current_range_meters":5200,"station_id":"ce4bgs92rcd13ifvqcc0","pricing_plan_id":"free"},{"bike_id":"b6a27ef5-c24a-41bb-8660-01c51af87bb9","system_id":"levelo_inurba_marseille","lat":43.319935,"lon":5.381699,"is_reserved":false,"is_disabled":false,"rental_uris":{"android":"levelo://app?vid=b6a27ef5-c24a-41bb-8660-01c51af87bb9","ios":"levelo://app?vid=b6a27ef5-c24a-41bb-8660-01c51af87bb9"},"vehicle_type_id":"4","last_reported":1706731627,"current_range_meters":9200,"station_id":"ce4bhr12rcd13ifvqhpg","pricing_plan_id":"free"},{"bike_id":"74a5bc9b-7b98-4c08-b89d-ae418136b231","system_id":"levelo_inurba_marseille","lat":43.310211,"lon":5.384517,"is_reserved":false,"is_disabled":false,"rental_uris":{"android":"levelo://app?vid=74a5bc9b-7b98-4c08-b89d-ae418136b231","ios":"levelo://app?vid=74a5bc9b-7b98-4c08-b89d-ae418136b231"},"vehicle_type_id":"4","last_reported":1706731627,"current_range_meters":6400,"station_id":"","pricing_plan_id":"free"},{"bike_id":"11c58946-1048-4b3e-9080-f25eb78392e0","system_id":"levelo_inurba_marseille","lat":43.299222,"lon":5.365554,"is_reserved":false,"is_disabled":false,"rental_uris":{"android":"levelo://app?vid=11c58946-1048-4b3e-9080-f25eb78392e0","ios":"levelo://app?vid=11c58946-1048-4b3e-9080-f25eb78392e0"},"vehicle_type_id":"4","last_reported":1706731627,"current_range_meters":22000,"station_id":"ce4bgm92rcd13ifvqbr0","pricing_plan_id":"free"},{"bike_id":"040517de-98e8-401c-a91a-ead7ced556b8","system_id":"levelo_inurba_marseille","lat":43.299724,"lon":5.371829,"is_reserved":false,"is_disabled":false,"rental_uris":{"android":"levelo://app?vid=040517de-98e8-401c-a91a-ead7ced556b8","ios":"levelo://app?vid=040517de-98e8-401c-a91a-ead7ced556b8"},"vehicle_type_id":"4","last_reported":1706731627,"current_range_meters":19200,"station_id":"ce4bgr92rcd13ifvqc7g","pricing_plan_id":"free"},{"bike_id":"56f72d6b-951f-4c7c-8c28-840af28b8522","system_id":"levelo_inurba_marseille","lat":43.299724,"lon":5.371829,"is_reserved":false,"is_disabled":false,"rental_uris":{"android":"levelo://app?vid=56f72d6b-951f-4c7c-8c28-840af28b8522","ios":"levelo://app?vid=56f72d6b-951f-4c7c-8c28-840af28b8522"},"vehicle_type_id":"4","last_reported":1706731627,"current_range_meters":14800,"station_id":"ce4bgr92rcd13ifvqc7g","pricing_plan_id":"free"},{"bike_id":"ec607dda-2133-4c95-bd1d-acc31389c6b6","system_id":"levelo_inurba_marseille","lat":43.299222,"lon":5.365554,"is_reserved":false,"is_disabled":false,"rental_uris":{"android":"levelo://app?vid=ec607dda-2133-4c95-bd1d-acc31389c6b6","ios":"levelo://app?vid=ec607dda-2133-4c95-bd1d-acc31389c6b6"},"vehicle_type_id":"4","last_reported":1706731627,"current_range_meters":26000,"station_id":"ce4bgm92rcd13ifvqbr0","pricing_plan_id":"free"},{"bike_id":"8a53b68c-b08b-483f-991c-e7c8e9aba913","system_id":"levelo_inurba_marseille","lat":43.299724,"lon":5.371829,"is_reserved":false,"is_disabled":false,"rental_uris":{"android":"levelo://app?vid=8a53b68c-b08b-483f-991c-e7c8e9aba913","ios":"levelo://app?vid=8a53b68c-b08b-483f-991c-e7c8e9aba913"},"vehicle_type_id":"4","last_reported":1706731627,"current_range_meters":6000,"station_id":"ce4bgr92rcd13ifvqc7g","pricing_plan_id":"free"},{"bike_id":"ebfae927-b09f-4893-86fb-6abbf12f1acc","system_id":"levelo_inurba_marseille","lat":43.299222,"lon":5.365554,"is_reserved":false,"is_disabled":false,"rental_uris":{"android":"levelo://app?vid=ebfae927-b09f-4893-86fb-6abbf12f1acc","ios":"levelo://app?vid=ebfae927-b09f-4893-86fb-6abbf12f1acc"},"vehicle_type_id":"4","last_reported":1706731627,"current_range_meters":14400,"station_id":"ce4bgm92rcd13ifvqbr0","pricing_plan_id":"free"},{"bike_id":"e9002e49-741b-43b5-af9b-7e872c49ea27","system_id":"levelo_inurba_marseille","lat":43.299209,"lon":5.365547,"is_reserved":false,"is_disabled":false,"rental_uris":{"android":"levelo://app?vid=e9002e49-741b-43b5-af9b-7e872c49ea27","ios":"levelo://app?vid=e9002e49-741b-43b5-af9b-7e872c49ea27"},"vehicle_type_id":"4","last_reported":1706731627,"current_range_meters":0,"station_id":"ce4bgm92rcd13ifvqbr0","pricing_plan_id":"free"},{"bike_id":"2b569d2b-52aa-47e6-a81a-977052bbcd53","system_id":"levelo_inurba_marseille","lat":43.299724,"lon":5.371829,"is_reserved":false,"is_disabled":false,"rental_uris":{"android":"levelo://app?vid=2b569d2b-52aa-47e6-a81a-977052bbcd53","ios":"levelo://app?vid=2b569d2b-52aa-47e6-a81a-977052bbcd53"},"vehicle_type_id":"4","last_reported":1706731627,"current_range_meters":17600,"station_id":"ce4bgr92rcd13ifvqc7g","pricing_plan_id":"free"},{"bike_id":"1df75306-85ab-43c7-b424-2343ce51b3bf","system_id":"levelo_inurba_marseille","lat":43.298433,"lon":5.362774,"is_reserved":false,"is_disabled":false,"rental_uris":{"android":"levelo://app?vid=1df75306-85ab-43c7-b424-2343ce51b3bf","ios":"levelo://app?vid=1df75306-85ab-43c7-b424-2343ce51b3bf"},"vehicle_type_id":"4","last_reported":1706731627,"current_range_meters":27200,"station_id":"ce4bgpp2rcd13ifvqc3g","pricing_plan_id":"free"},{"bike_id":"6583642f-6cc9-4e4a-8d01-f15a4d9dad35","system_id":"levelo_inurba_marseille","lat":43.298433,"lon":5.362774,"is_reserved":false,"is_disabled":false,"rental_uris":{"android":"levelo://app?vid=6583642f-6cc9-4e4a-8d01-f15a4d9dad35","ios":"levelo://app?vid=6583642f-6cc9-4e4a-8d01-f15a4d9dad35"},"vehicle_type_id":"4","last_reported":1706731627,"current_range_meters":19600,"station_id":"ce4bgpp2rcd13ifvqc3g","pricing_plan_id":"free"},{"bike_id":"84566a7e-80d9-462c-a4f2-196d99f5eb8a","system_id":"levelo_inurba_marseille","lat":43.311722,"lon":5.387247,"is_reserved":false,"is_disabled":false,"rental_uris":{"android":"levelo://app?vid=84566a7e-80d9-462c-a4f2-196d99f5eb8a","ios":"levelo://app?vid=84566a7e-80d9-462c-a4f2-196d99f5eb8a"},"vehicle_type_id":"4","last_reported":1706731627,"current_range_meters":4800,"station_id":"ce4bgv12rcd13ifvqcp0","pricing_plan_id":"free"},{"bike_id":"e6d4b924-4445-480f-bfdd-9e8a0ea475c0","system_id":"levelo_inurba_marseille","lat":43.311722,"lon":5.387247,"is_reserved":false,"is_disabled":false,"rental_uris":{"android":"levelo://app?vid=e6d4b924-4445-480f-bfdd-9e8a0ea475c0","ios":"levelo://app?vid=e6d4b924-4445-480f-bfdd-9e8a0ea475c0"},"vehicle_type_id":"4","last_reported":1706731627,"current_range_meters":23600,"station_id":"ce4bgv12rcd13ifvqcp0","pricing_plan_id":"free"},{"bike_id":"a2e10512-574f-47fd-baca-a1ce6651d91d","system_id":"levelo_inurba_marseille","lat":43.31162,"lon":5.38719,"is_reserved":false,"is_disabled":false,"rental_uris":{"android":"levelo://app?vid=a2e10512-574f-47fd-baca-a1ce6651d91d","ios":"levelo://app?vid=a2e10512-574f-47fd-baca-a1ce6651d91d"},"vehicle_type_id":"4","last_reported":1706731627,"current_range_meters":3200,"station_id":"ce4bgv12rcd13ifvqcp0","pricing_plan_id":"free"},{"bike_id":"1ea28af2-bc8f-4ee1-b35d-5954dc643e5b","system_id":"levelo_inurba_marseille","lat":43.311722,"lon":5.387247,"is_reserved":false,"is_disabled":false,"rental_uris":{"android":"levelo://app?vid=1ea28af2-bc8f-4ee1-b35d-5954dc643e5b","ios":"levelo://app?vid=1ea28af2-bc8f-4ee1-b35d-5954dc643e5b"},"vehicle_type_id":"4","last_reported":1706731627,"current_range_meters":15600,"station_id":"ce4bgv12rcd13ifvqcp0","pricing_plan_id":"free"},{"bike_id":"54581f70-3f06-43b4-9c13-967ecd30fa44","system_id":"levelo_inurba_marseille","lat":43.311722,"lon":5.387247,"is_reserved":false,"is_disabled":false,"rental_uris":{"android":"levelo://app?vid=54581f70-3f06-43b4-9c13-967ecd30fa44","ios":"levelo://app?vid=54581f70-3f06-43b4-9c13-967ecd30fa44"},"vehicle_type_id":"4","last_reported":1706731627,"current_range_meters":2400,"station_id":"ce4bgv12rcd13ifvqcp0","pricing_plan_id":"free"},{"bike_id":"639a58a8-5679-4a20-9014-ed1eb921742b","system_id":"levelo_inurba_marseille","lat":43.322886,"lon":5.382622,"is_reserved":false,"is_disabled":false,"rental_uris":{"android":"levelo://app?vid=639a58a8-5679-4a20-9014-ed1eb921742b","ios":"levelo://app?vid=639a58a8-5679-4a20-9014-ed1eb921742b"},"vehicle_type_id":"4","last_reported":1706731627,"current_range_meters":20000,"station_id":"ce4bhr12rcd13ifvqhqg","pricing_plan_id":"free"},{"bike_id":"ea5ad0a1-27e3-47c4-89a1-e718950473b9","system_id":"levelo_inurba_marseille","lat":43.32291,"lon":5.38266,"is_reserved":false,"is_disabled":false,"rental_uris":{"android":"levelo://app?vid=ea5ad0a1-27e3-47c4-89a1-e718950473b9","ios":"levelo://app?vid=ea5ad0a1-27e3-47c4-89a1-e718950473b9"},"vehicle_type_id":"4","last_reported":1706731627,"current_range_meters":400,"station_id":"ce4bhr12rcd13ifvqhqg","pricing_plan_id":"free"},{"bike_id":"b804f899-963d-4bd6-b3dd-e2781b06570a","system_id":"levelo_inurba_marseille","lat":43.32287,"lon":5.38273,"is_reserved":false,"is_disabled":false,"rental_uris":{"android":"levelo://app?vid=b804f899-963d-4bd6-b3dd-e2781b06570a","ios":"levelo://app?vid=b804f899-963d-4bd6-b3dd-e2781b06570a"},"vehicle_type_id":"4","last_reported":1706731627,"current_range_meters":400,"station_id":"ce4bhr12rcd13ifvqhqg","pricing_plan_id":"free"},{"bike_id":"2b65db30-3315-4a51-a4c6-1bedc9bd51c7","system_id":"levelo_inurba_marseille","lat":43.3229,"lon":5.3827,"is_reserved":false,"is_disabled":false,"rental_uris":{"android":"levelo://app?vid=2b65db30-3315-4a51-a4c6-1bedc9bd51c7","ios":"levelo://app?vid=2b65db30-3315-4a51-a4c6-1bedc9bd51c7"},"vehicle_type_id":"4","last_reported":1706731627,"current_range_meters":30400,"station_id":"ce4bhr12rcd13ifvqhqg","pricing_plan_id":"free"},{"bike_id":"19e08926-8857-44b7-a342-a968b5312c1d","system_id":"levelo_inurba_marseille","lat":43.322872,"lon":5.382756,"is_reserved":false,"is_disabled":false,"rental_uris":{"android":"levelo://app?vid=19e08926-8857-44b7-a342-a968b5312c1d","ios":"levelo://app?vid=19e08926-8857-44b7-a342-a968b5312c1d"},"vehicle_type_id":"4","last_reported":1706731627,"current_range_meters":9600,"station_id":"ce4bhr12rcd13ifvqhqg","pricing_plan_id":"free"},{"bike_id":"ff99abd1-5884-4ce1-addc-8e12b7fad4f8","system_id":"levelo_inurba_marseille","lat":43.311722,"lon":5.387247,"is_reserved":false,"is_disabled":false,"rental_uris":{"android":"levelo://app?vid=ff99abd1-5884-4ce1-addc-8e12b7fad4f8","ios":"levelo://app?vid=ff99abd1-5884-4ce1-addc-8e12b7fad4f8"},"vehicle_type_id":"4","last_reported":1706731627,"current_range_meters":800,"station_id":"ce4bgv12rcd13ifvqcp0","pricing_plan_id":"free"},{"bike_id":"d54749f2-afe6-40a1-a18e-d1935eb8f708","system_id":"levelo_inurba_marseille","lat":43.328371,"lon":5.366909,"is_reserved":false,"is_disabled":false,"rental_uris":{"android":"levelo://app?vid=d54749f2-afe6-40a1-a18e-d1935eb8f708","ios":"levelo://app?vid=d54749f2-afe6-40a1-a18e-d1935eb8f708"},"vehicle_type_id":"4","last_reported":1706731627,"current_range_meters":24400,"station_id":"ce4bhs92rcd13ifvqi0g","pricing_plan_id":"free"},{"bike_id":"e2d16666-91e2-4a89-8cf5-ec01f19a59f8","system_id":"levelo_inurba_marseille","lat":43.297163,"lon":5.365866,"is_reserved":false,"is_disabled":false,"rental_uris":{"android":"levelo://app?vid=e2d16666-91e2-4a89-8cf5-ec01f19a59f8","ios":"levelo://app?vid=e2d16666-91e2-4a89-8cf5-ec01f19a59f8"},"vehicle_type_id":"4","last_reported":1706731627,"current_range_meters":9200,"station_id":"ce4bgn12rcd13ifvqbt0","pricing_plan_id":"free"},{"bike_id":"9f158f6e-bebf-4e16-a920-4a5ab4eb6921","system_id":"levelo_inurba_marseille","lat":43.328544,"lon":5.366881,"is_reserved":false,"is_disabled":false,"rental_uris":{"android":"levelo://app?vid=9f158f6e-bebf-4e16-a920-4a5ab4eb6921","ios":"levelo://app?vid=9f158f6e-bebf-4e16-a920-4a5ab4eb6921"},"vehicle_type_id":"4","last_reported":1706731627,"current_range_meters":19200,"station_id":"","pricing_plan_id":"free"},{"bike_id":"04185dc6-256a-4e0b-addc-b7123adf6e4f","system_id":"levelo_inurba_marseille","lat":43.2968,"lon":5.37291,"is_reserved":false,"is_disabled":false,"rental_uris":{"android":"levelo://app?vid=04185dc6-256a-4e0b-addc-b7123adf6e4f","ios":"levelo://app?vid=04185dc6-256a-4e0b-addc-b7123adf6e4f"},"vehicle_type_id":"4","last_reported":1706731627,"current_range_meters":18000,"station_id":"ce4bgk12rcd13ifvqbj0","pricing_plan_id":"free"},{"bike_id":"359edfee-a8b5-4e14-8bc4-a7fa356532b9","system_id":"levelo_inurba_marseille","lat":43.31751,"lon":5.38907,"is_reserved":false,"is_disabled":false,"rental_uris":{"android":"levelo://app?vid=359edfee-a8b5-4e14-8bc4-a7fa356532b9","ios":"levelo://app?vid=359edfee-a8b5-4e14-8bc4-a7fa356532b9"},"vehicle_type_id":"4","last_reported":1706731627,"current_range_meters":26400,"station_id":"","pricing_plan_id":"free"},{"bike_id":"7579a543-e3ad-4c23-9451-14216035fe92","system_id":"levelo_inurba_marseille","lat":43.299028,"lon":5.381509,"is_reserved":false,"is_disabled":false,"rental_uris":{"android":"levelo://app?vid=7579a543-e3ad-4c23-9451-14216035fe92","ios":"levelo://app?vid=7579a543-e3ad-4c23-9451-14216035fe92"},"vehicle_type_id":"4","last_reported":1706731627,"current_range_meters":0,"station_id":"ce4bgj12rcd13ifvqbc0","pricing_plan_id":"free"},{"bike_id":"fae4a97f-2de8-4c23-bf5a-1106b61969b6","system_id":"levelo_inurba_marseille","lat":43.3096,"lon":5.390293,"is_reserved":false,"is_disabled":false,"rental_uris":{"android":"levelo://app?vid=fae4a97f-2de8-4c23-bf5a-1106b61969b6","ios":"levelo://app?vid=fae4a97f-2de8-4c23-bf5a-1106b61969b6"},"vehicle_type_id":"4","last_reported":1706731627,"current_range_meters":1600,"station_id":"ce4bgup2rcd13ifvqco0","pricing_plan_id":"free"},{"bike_id":"7606c457-91d9-46e5-912d-0477693880e7","system_id":"levelo_inurba_marseille","lat":43.309589,"lon":5.390258,"is_reserved":false,"is_disabled":false,"rental_uris":{"android":"levelo://app?vid=7606c457-91d9-46e5-912d-0477693880e7","ios":"levelo://app?vid=7606c457-91d9-46e5-912d-0477693880e7"},"vehicle_type_id":"4","last_reported":1706731627,"current_range_meters":10800,"station_id":"ce4bgup2rcd13ifvqco0","pricing_plan_id":"free"},{"bike_id":"aeb37ffb-0ce3-4394-a9b5-42b8df399495","system_id":"levelo_inurba_marseille","lat":43.309589,"lon":5.390258,"is_reserved":false,"is_disabled":false,"rental_uris":{"android":"levelo://app?vid=aeb37ffb-0ce3-4394-a9b5-42b8df399495","ios":"levelo://app?vid=aeb37ffb-0ce3-4394-a9b5-42b8df399495"},"vehicle_type_id":"4","last_reported":1706731627,"current_range_meters":5600,"station_id":"ce4bgup2rcd13ifvqco0","pricing_plan_id":"free"},{"bike_id":"7afe9903-ce72-4c33-9428-a620b7908559","system_id":"levelo_inurba_marseille","lat":43.309481,"lon":5.390316,"is_reserved":false,"is_disabled":false,"rental_uris":{"android":"levelo://app?vid=7afe9903-ce72-4c33-9428-a620b7908559","ios":"levelo://app?vid=7afe9903-ce72-4c33-9428-a620b7908559"},"vehicle_type_id":"4","last_reported":1706731627,"current_range_meters":0,"station_id":"ce4bgup2rcd13ifvqco0","pricing_plan_id":"free"},{"bike_id":"6242b800-4253-4cb6-a80b-1255fb07d8f5","system_id":"levelo_inurba_marseille","lat":43.30953,"lon":5.39041,"is_reserved":false,"is_disabled":false,"rental_uris":{"android":"levelo://app?vid=6242b800-4253-4cb6-a80b-1255fb07d8f5","ios":"levelo://app?vid=6242b800-4253-4cb6-a80b-1255fb07d8f5"},"vehicle_type_id":"4","last_reported":1706731627,"current_range_meters":0,"station_id":"ce4bgup2rcd13ifvqco0","pricing_plan_id":"free"},{"bike_id":"071244f1-5189-40c4-bbc7-acdf97e09958","system_id":"levelo_inurba_marseille","lat":43.317557,"lon":5.390173,"is_reserved":false,"is_disabled":false,"rental_uris":{"android":"levelo://app?vid=071244f1-5189-40c4-bbc7-acdf97e09958","ios":"levelo://app?vid=071244f1-5189-40c4-bbc7-acdf97e09958"},"vehicle_type_id":"4","last_reported":1706731627,"current_range_meters":21600,"station_id":"ce4bhqp2rcd13ifvqhng","pricing_plan_id":"free"},{"bike_id":"01a9f496-0ec5-4e9e-879c-f6ec15bb6ad7","system_id":"levelo_inurba_marseille","lat":43.317557,"lon":5.390173,"is_reserved":false,"is_disabled":false,"rental_uris":{"android":"levelo://app?vid=01a9f496-0ec5-4e9e-879c-f6ec15bb6ad7","ios":"levelo://app?vid=01a9f496-0ec5-4e9e-879c-f6ec15bb6ad7"},"vehicle_type_id":"4","last_reported":1706731627,"current_range_meters":11200,"station_id":"ce4bhqp2rcd13ifvqhng","pricing_plan_id":"free"},{"bike_id":"f6fea7bb-175a-4094-86b5-dd2cf3f3ae6c","system_id":"levelo_inurba_marseille","lat":43.317557,"lon":5.390173,"is_reserved":false,"is_disabled":false,"rental_uris":{"android":"levelo://app?vid=f6fea7bb-175a-4094-86b5-dd2cf3f3ae6c","ios":"levelo://app?vid=f6fea7bb-175a-4094-86b5-dd2cf3f3ae6c"},"vehicle_type_id":"4","last_reported":1706731627,"current_range_meters":9200,"station_id":"ce4bhqp2rcd13ifvqhng","pricing_plan_id":"free"},{"bike_id":"f750f69f-1396-46ba-9a53-4d27d01e3adc","system_id":"levelo_inurba_marseille","lat":43.298037,"lon":5.381066,"is_reserved":false,"is_disabled":false,"rental_uris":{"android":"levelo://app?vid=f750f69f-1396-46ba-9a53-4d27d01e3adc","ios":"levelo://app?vid=f750f69f-1396-46ba-9a53-4d27d01e3adc"},"vehicle_type_id":"4","last_reported":1706731627,"current_range_meters":0,"station_id":"ce4bgip2rcd13ifvqbb0","pricing_plan_id":"free"},{"bike_id":"18cc9040-7d36-425b-a366-1620abfbd499","system_id":"levelo_inurba_marseille","lat":43.304274,"lon":5.388873,"is_reserved":false,"is_disabled":false,"rental_uris":{"android":"levelo://app?vid=18cc9040-7d36-425b-a366-1620abfbd499","ios":"levelo://app?vid=18cc9040-7d36-425b-a366-1620abfbd499"},"vehicle_type_id":"4","last_reported":1706731627,"current_range_meters":0,"station_id":"ce4bgk12rcd13ifvqbi0","pricing_plan_id":"free"},{"bike_id":"0397b393-b74c-4f42-a209-488a8067a654","system_id":"levelo_inurba_marseille","lat":43.2979,"lon":5.38098,"is_reserved":false,"is_disabled":false,"rental_uris":{"android":"levelo://app?vid=0397b393-b74c-4f42-a209-488a8067a654","ios":"levelo://app?vid=0397b393-b74c-4f42-a209-488a8067a654"},"vehicle_type_id":"4","last_reported":1706731627,"current_range_meters":0,"station_id":"ce4bgip2rcd13ifvqbb0","pricing_plan_id":"free"},{"bike_id":"3bb6ba40-3b56-4741-9a0b-677cdb575144","system_id":"levelo_inurba_marseille","lat":43.304278,"lon":5.388868,"is_reserved":false,"is_disabled":false,"rental_uris":{"android":"levelo://app?vid=3bb6ba40-3b56-4741-9a0b-677cdb575144","ios":"levelo://app?vid=3bb6ba40-3b56-4741-9a0b-677cdb575144"},"vehicle_type_id":"4","last_reported":1706731627,"current_range_meters":5200,"station_id":"ce4bgk12rcd13ifvqbi0","pricing_plan_id":"free"},{"bike_id":"034674a7-f99c-4717-8175-c49c264531b7","system_id":"levelo_inurba_marseille","lat":43.304348,"lon":5.388944,"is_reserved":false,"is_disabled":false,"rental_uris":{"android":"levelo://app?vid=034674a7-f99c-4717-8175-c49c264531b7","ios":"levelo://app?vid=034674a7-f99c-4717-8175-c49c264531b7"},"vehicle_type_id":"4","last_reported":1706731627,"current_range_meters":0,"station_id":"ce4bgk12rcd13ifvqbi0","pricing_plan_id":"free"},{"bike_id":"1f145ca5-f3c2-4f39-82f8-f379bb046cbd","system_id":"levelo_inurba_marseille","lat":43.29975,"lon":5.38485,"is_reserved":false,"is_disabled":false,"rental_uris":{"android":"levelo://app?vid=1f145ca5-f3c2-4f39-82f8-f379bb046cbd","ios":"levelo://app?vid=1f145ca5-f3c2-4f39-82f8-f379bb046cbd"},"vehicle_type_id":"4","last_reported":1706731627,"current_range_meters":0,"station_id":"ce4bgj92rcd13ifvqbd0","pricing_plan_id":"free"},{"bike_id":"62f1202c-3887-41cf-ae44-f51fc7dcb791","system_id":"levelo_inurba_marseille","lat":43.29978,"lon":5.3849,"is_reserved":false,"is_disabled":false,"rental_uris":{"android":"levelo://app?vid=62f1202c-3887-41cf-ae44-f51fc7dcb791","ios":"levelo://app?vid=62f1202c-3887-41cf-ae44-f51fc7dcb791"},"vehicle_type_id":"4","last_reported":1706731627,"current_range_meters":0,"station_id":"ce4bgj92rcd13ifvqbd0","pricing_plan_id":"free"},{"bike_id":"34582793-307e-45d0-a01e-3715bc0e2f9d","system_id":"levelo_inurba_marseille","lat":43.29972,"lon":5.38487,"is_reserved":false,"is_disabled":false,"rental_uris":{"android":"levelo://app?vid=34582793-307e-45d0-a01e-3715bc0e2f9d","ios":"levelo://app?vid=34582793-307e-45d0-a01e-3715bc0e2f9d"},"vehicle_type_id":"4","last_reported":1706731627,"current_range_meters":0,"station_id":"ce4bgj92rcd13ifvqbd0","pricing_plan_id":"free"},{"bike_id":"e14278bb-f76e-4524-a985-417bd9353a2d","system_id":"levelo_inurba_marseille","lat":43.29978,"lon":5.38496,"is_reserved":false,"is_disabled":false,"rental_uris":{"android":"levelo://app?vid=e14278bb-f76e-4524-a985-417bd9353a2d","ios":"levelo://app?vid=e14278bb-f76e-4524-a985-417bd9353a2d"},"vehicle_type_id":"4","last_reported":1706731627,"current_range_meters":0,"station_id":"ce4bgj92rcd13ifvqbd0","pricing_plan_id":"free"},{"bike_id":"d06df43c-f52a-4832-beca-10935790d507","system_id":"levelo_inurba_marseille","lat":43.29974,"lon":5.38494,"is_reserved":false,"is_disabled":false,"rental_uris":{"android":"levelo://app?vid=d06df43c-f52a-4832-beca-10935790d507","ios":"levelo://app?vid=d06df43c-f52a-4832-beca-10935790d507"},"vehicle_type_id":"4","last_reported":1706731627,"current_range_meters":0,"station_id":"ce4bgj92rcd13ifvqbd0","pricing_plan_id":"free"},{"bike_id":"22824f72-7d74-464f-85c8-9f03cc10eb65","system_id":"levelo_inurba_marseille","lat":43.299713,"lon":5.38492,"is_reserved":false,"is_disabled":false,"rental_uris":{"android":"levelo://app?vid=22824f72-7d74-464f-85c8-9f03cc10eb65","ios":"levelo://app?vid=22824f72-7d74-464f-85c8-9f03cc10eb65"},"vehicle_type_id":"4","last_reported":1706731627,"current_range_meters":0,"station_id":"ce4bgj92rcd13ifvqbd0","pricing_plan_id":"free"},{"bike_id":"8d1b387f-dad2-4eca-b89d-15a2990580a2","system_id":"levelo_inurba_marseille","lat":43.29966,"lon":5.38499,"is_reserved":false,"is_disabled":false,"rental_uris":{"android":"levelo://app?vid=8d1b387f-dad2-4eca-b89d-15a2990580a2","ios":"levelo://app?vid=8d1b387f-dad2-4eca-b89d-15a2990580a2"},"vehicle_type_id":"4","last_reported":1706731627,"current_range_meters":0,"station_id":"ce4bgj92rcd13ifvqbd0","pricing_plan_id":"free"},{"bike_id":"de25d637-84ec-4203-b892-3e1c2d7c4ddb","system_id":"levelo_inurba_marseille","lat":43.3317,"lon":5.36444,"is_reserved":false,"is_disabled":false,"rental_uris":{"android":"levelo://app?vid=de25d637-84ec-4203-b892-3e1c2d7c4ddb","ios":"levelo://app?vid=de25d637-84ec-4203-b892-3e1c2d7c4ddb"},"vehicle_type_id":"4","last_reported":1706731627,"current_range_meters":6000,"station_id":"","pricing_plan_id":"free"},{"bike_id":"3304c29f-fdd7-464a-8890-39b8a8474937","system_id":"levelo_inurba_marseille","lat":43.30275,"lon":5.38944,"is_reserved":false,"is_disabled":false,"rental_uris":{"android":"levelo://app?vid=3304c29f-fdd7-464a-8890-39b8a8474937","ios":"levelo://app?vid=3304c29f-fdd7-464a-8890-39b8a8474937"},"vehicle_type_id":"4","last_reported":1706731627,"current_range_meters":8400,"station_id":"","pricing_plan_id":"free"},{"bike_id":"fa3d4808-eb27-4a37-a159-8401d77aea42","system_id":"levelo_inurba_marseille","lat":43.32367,"lon":5.388836,"is_reserved":false,"is_disabled":false,"rental_uris":{"android":"levelo://app?vid=fa3d4808-eb27-4a37-a159-8401d77aea42","ios":"levelo://app?vid=fa3d4808-eb27-4a37-a159-8401d77aea42"},"vehicle_type_id":"4","last_reported":1706731627,"current_range_meters":12400,"station_id":"ce4bhqp2rcd13ifvqhog","pricing_plan_id":"free"},{"bike_id":"efa6bd51-c94f-4107-9e97-437d3697b8cb","system_id":"levelo_inurba_marseille","lat":43.32367,"lon":5.388836,"is_reserved":false,"is_disabled":false,"rental_uris":{"android":"levelo://app?vid=efa6bd51-c94f-4107-9e97-437d3697b8cb","ios":"levelo://app?vid=efa6bd51-c94f-4107-9e97-437d3697b8cb"},"vehicle_type_id":"4","last_reported":1706731627,"current_range_meters":10800,"station_id":"ce4bhqp2rcd13ifvqhog","pricing_plan_id":"free"},{"bike_id":"202df9dd-3b20-4310-9dde-7a88eca4db2d","system_id":"levelo_inurba_marseille","lat":43.32367,"lon":5.388836,"is_reserved":false,"is_disabled":false,"rental_uris":{"android":"levelo://app?vid=202df9dd-3b20-4310-9dde-7a88eca4db2d","ios":"levelo://app?vid=202df9dd-3b20-4310-9dde-7a88eca4db2d"},"vehicle_type_id":"4","last_reported":1706731627,"current_range_meters":8400,"station_id":"ce4bhqp2rcd13ifvqhog","pricing_plan_id":"free"},{"bike_id":"a81793e3-ef71-49ed-8070-20a38b54b3b6","system_id":"levelo_inurba_marseille","lat":43.29602,"lon":5.381084,"is_reserved":false,"is_disabled":false,"rental_uris":{"android":"levelo://app?vid=a81793e3-ef71-49ed-8070-20a38b54b3b6","ios":"levelo://app?vid=a81793e3-ef71-49ed-8070-20a38b54b3b6"},"vehicle_type_id":"4","last_reported":1706731627,"current_range_meters":13600,"station_id":"ce4bgl12rcd13ifvqbo0","pricing_plan_id":"free"},{"bike_id":"61f11f0f-dd4f-42da-aae6-b68626d7df93","system_id":"levelo_inurba_marseille","lat":43.29597,"lon":5.38106,"is_reserved":false,"is_disabled":false,"rental_uris":{"android":"levelo://app?vid=61f11f0f-dd4f-42da-aae6-b68626d7df93","ios":"levelo://app?vid=61f11f0f-dd4f-42da-aae6-b68626d7df93"},"vehicle_type_id":"4","last_reported":1706731627,"current_range_meters":0,"station_id":"ce4bgl12rcd13ifvqbo0","pricing_plan_id":"free"},{"bike_id":"e6fd944d-8e8b-4a20-a5e2-235d8278a620","system_id":"levelo_inurba_marseille","lat":43.292749,"lon":5.368402,"is_reserved":false,"is_disabled":false,"rental_uris":{"android":"levelo://app?vid=e6fd944d-8e8b-4a20-a5e2-235d8278a620","ios":"levelo://app?vid=e6fd944d-8e8b-4a20-a5e2-235d8278a620"},"vehicle_type_id":"4","last_reported":1706731627,"current_range_meters":0,"station_id":"ce4bhbp2rcd13ifvqesg","pricing_plan_id":"free"},{"bike_id":"ae074af2-d2d8-493e-ad57-e323a3723d64","system_id":"levelo_inurba_marseille","lat":43.293009,"lon":5.374584,"is_reserved":false,"is_disabled":false,"rental_uris":{"android":"levelo://app?vid=ae074af2-d2d8-493e-ad57-e323a3723d64","ios":"levelo://app?vid=ae074af2-d2d8-493e-ad57-e323a3723d64"},"vehicle_type_id":"4","last_reported":1706731627,"current_range_meters":0,"station_id":"ce4bgi12rcd13ifvqb70","pricing_plan_id":"free"},{"bike_id":"7cc00cef-f13d-4b9b-ad52-4090def52b1d","system_id":"levelo_inurba_marseille","lat":43.305994,"lon":5.393572,"is_reserved":false,"is_disabled":false,"rental_uris":{"android":"levelo://app?vid=7cc00cef-f13d-4b9b-ad52-4090def52b1d","ios":"levelo://app?vid=7cc00cef-f13d-4b9b-ad52-4090def52b1d"},"vehicle_type_id":"4","last_reported":1706731627,"current_range_meters":0,"station_id":"ce4bh0p2rcd13ifvqd80","pricing_plan_id":"free"},{"bike_id":"0ab30ab1-4a8c-4334-bc72-88762533663e","system_id":"levelo_inurba_marseille","lat":43.305994,"lon":5.393687,"is_reserved":false,"is_disabled":false,"rental_uris":{"android":"levelo://app?vid=0ab30ab1-4a8c-4334-bc72-88762533663e","ios":"levelo://app?vid=0ab30ab1-4a8c-4334-bc72-88762533663e"},"vehicle_type_id":"4","last_reported":1706731627,"current_range_meters":3600,"station_id":"ce4bh0p2rcd13ifvqd80","pricing_plan_id":"free"},{"bike_id":"2d9e67ea-4524-44e8-b13a-6d8b3e53b724","system_id":"levelo_inurba_marseille","lat":43.29296,"lon":5.37454,"is_reserved":false,"is_disabled":false,"rental_uris":{"android":"levelo://app?vid=2d9e67ea-4524-44e8-b13a-6d8b3e53b724","ios":"levelo://app?vid=2d9e67ea-4524-44e8-b13a-6d8b3e53b724"},"vehicle_type_id":"4","last_reported":1706731627,"current_range_meters":0,"station_id":"ce4bgi12rcd13ifvqb70","pricing_plan_id":"free"},{"bike_id":"448bdde8-0e79-4add-aa17-49a74ebef6c3","system_id":"levelo_inurba_marseille","lat":43.305994,"lon":5.393687,"is_reserved":false,"is_disabled":false,"rental_uris":{"android":"levelo://app?vid=448bdde8-0e79-4add-aa17-49a74ebef6c3","ios":"levelo://app?vid=448bdde8-0e79-4add-aa17-49a74ebef6c3"},"vehicle_type_id":"4","last_reported":1706731627,"current_range_meters":12000,"station_id":"ce4bh0p2rcd13ifvqd80","pricing_plan_id":"free"},{"bike_id":"87d22bb7-d6d3-4caa-b579-428d4b004f65","system_id":"levelo_inurba_marseille","lat":43.293009,"lon":5.374584,"is_reserved":false,"is_disabled":false,"rental_uris":{"android":"levelo://app?vid=87d22bb7-d6d3-4caa-b579-428d4b004f65","ios":"levelo://app?vid=87d22bb7-d6d3-4caa-b579-428d4b004f65"},"vehicle_type_id":"4","last_reported":1706731627,"current_range_meters":0,"station_id":"ce4bgi12rcd13ifvqb70","pricing_plan_id":"free"},{"bike_id":"7459eddd-3730-48fc-992a-772cc43185bc","system_id":"levelo_inurba_marseille","lat":43.303002,"lon":5.392142,"is_reserved":false,"is_disabled":false,"rental_uris":{"android":"levelo://app?vid=7459eddd-3730-48fc-992a-772cc43185bc","ios":"levelo://app?vid=7459eddd-3730-48fc-992a-772cc43185bc"},"vehicle_type_id":"4","last_reported":1706731627,"current_range_meters":20000,"station_id":"ce4bgkh2rcd13ifvqbk0","pricing_plan_id":"free"},{"bike_id":"5a4863cc-b5a0-414e-9a0e-852c0517236b","system_id":"levelo_inurba_marseille","lat":43.293009,"lon":5.374584,"is_reserved":false,"is_disabled":false,"rental_uris":{"android":"levelo://app?vid=5a4863cc-b5a0-414e-9a0e-852c0517236b","ios":"levelo://app?vid=5a4863cc-b5a0-414e-9a0e-852c0517236b"},"vehicle_type_id":"4","last_reported":1706731627,"current_range_meters":25200,"station_id":"ce4bgi12rcd13ifvqb70","pricing_plan_id":"free"},{"bike_id":"3f0114e7-c247-421d-9348-5c3b2a0a8e70","system_id":"levelo_inurba_marseille","lat":43.293009,"lon":5.374584,"is_reserved":false,"is_disabled":false,"rental_uris":{"android":"levelo://app?vid=3f0114e7-c247-421d-9348-5c3b2a0a8e70","ios":"levelo://app?vid=3f0114e7-c247-421d-9348-5c3b2a0a8e70"},"vehicle_type_id":"4","last_reported":1706731627,"current_range_meters":0,"station_id":"ce4bgi12rcd13ifvqb70","pricing_plan_id":"free"},{"bike_id":"b7d97200-6719-4e30-9f57-e3838b76ea60","system_id":"levelo_inurba_marseille","lat":43.303002,"lon":5.392142,"is_reserved":false,"is_disabled":false,"rental_uris":{"android":"levelo://app?vid=b7d97200-6719-4e30-9f57-e3838b76ea60","ios":"levelo://app?vid=b7d97200-6719-4e30-9f57-e3838b76ea60"},"vehicle_type_id":"4","last_reported":1706731627,"current_range_meters":4400,"station_id":"ce4bgkh2rcd13ifvqbk0","pricing_plan_id":"free"},{"bike_id":"63e499ac-5134-4d01-bcf2-e08805f04997","system_id":"levelo_inurba_marseille","lat":43.2936,"lon":5.37835,"is_reserved":false,"is_disabled":false,"rental_uris":{"android":"levelo://app?vid=63e499ac-5134-4d01-bcf2-e08805f04997","ios":"levelo://app?vid=63e499ac-5134-4d01-bcf2-e08805f04997"},"vehicle_type_id":"4","last_reported":1706731627,"current_range_meters":4000,"station_id":"ce4bgjh2rcd13ifvqbf0","pricing_plan_id":"free"},{"bike_id":"92425ac1-679f-48eb-9d60-0bd729789ec7","system_id":"levelo_inurba_marseille","lat":43.2936,"lon":5.37835,"is_reserved":false,"is_disabled":false,"rental_uris":{"android":"levelo://app?vid=92425ac1-679f-48eb-9d60-0bd729789ec7","ios":"levelo://app?vid=92425ac1-679f-48eb-9d60-0bd729789ec7"},"vehicle_type_id":"4","last_reported":1706731627,"current_range_meters":400,"station_id":"ce4bgjh2rcd13ifvqbf0","pricing_plan_id":"free"},{"bike_id":"cf726966-045a-491f-a7e2-2e3f6ba9a4e6","system_id":"levelo_inurba_marseille","lat":43.293009,"lon":5.374584,"is_reserved":false,"is_disabled":false,"rental_uris":{"android":"levelo://app?vid=cf726966-045a-491f-a7e2-2e3f6ba9a4e6","ios":"levelo://app?vid=cf726966-045a-491f-a7e2-2e3f6ba9a4e6"},"vehicle_type_id":"4","last_reported":1706731627,"current_range_meters":26000,"station_id":"ce4bgi12rcd13ifvqb70","pricing_plan_id":"free"},{"bike_id":"3cadcd5f-1d40-484a-8e07-aaed8ba431a0","system_id":"levelo_inurba_marseille","lat":43.300852,"lon":5.390859,"is_reserved":false,"is_disabled":false,"rental_uris":{"android":"levelo://app?vid=3cadcd5f-1d40-484a-8e07-aaed8ba431a0","ios":"levelo://app?vid=3cadcd5f-1d40-484a-8e07-aaed8ba431a0"},"vehicle_type_id":"4","last_reported":1706731627,"current_range_meters":3600,"station_id":"ce4bh192rcd13ifvqdb0","pricing_plan_id":"free"},{"bike_id":"107bd944-459a-4ea1-a3f7-09f2d96cc030","system_id":"levelo_inurba_marseille","lat":43.30094,"lon":5.39076,"is_reserved":false,"is_disabled":false,"rental_uris":{"android":"levelo://app?vid=107bd944-459a-4ea1-a3f7-09f2d96cc030","ios":"levelo://app?vid=107bd944-459a-4ea1-a3f7-09f2d96cc030"},"vehicle_type_id":"4","last_reported":1706731627,"current_range_meters":0,"station_id":"ce4bh192rcd13ifvqdb0","pricing_plan_id":"free"},{"bike_id":"81681c36-90c0-49a0-8db9-49a0df457fae","system_id":"levelo_inurba_marseille","lat":43.292311,"lon":5.360731,"is_reserved":false,"is_disabled":false,"rental_uris":{"android":"levelo://app?vid=81681c36-90c0-49a0-8db9-49a0df457fae","ios":"levelo://app?vid=81681c36-90c0-49a0-8db9-49a0df457fae"},"vehicle_type_id":"4","last_reported":1706731627,"current_range_meters":0,"station_id":"ce4bhbh2rcd13ifvqeqg","pricing_plan_id":"free"},{"bike_id":"ab0401e9-444b-45fb-a153-f41b5e93bb5e","system_id":"levelo_inurba_marseille","lat":43.300852,"lon":5.390859,"is_reserved":false,"is_disabled":false,"rental_uris":{"android":"levelo://app?vid=ab0401e9-444b-45fb-a153-f41b5e93bb5e","ios":"levelo://app?vid=ab0401e9-444b-45fb-a153-f41b5e93bb5e"},"vehicle_type_id":"4","last_reported":1706731627,"current_range_meters":9600,"station_id":"ce4bh192rcd13ifvqdb0","pricing_plan_id":"free"},{"bike_id":"d5a0cc54-b66d-409c-9127-f068bdd1f22c","system_id":"levelo_inurba_marseille","lat":43.292563,"lon":5.376267,"is_reserved":false,"is_disabled":false,"rental_uris":{"android":"levelo://app?vid=d5a0cc54-b66d-409c-9127-f068bdd1f22c","ios":"levelo://app?vid=d5a0cc54-b66d-409c-9127-f068bdd1f22c"},"vehicle_type_id":"4","last_reported":1706731627,"current_range_meters":13600,"station_id":"","pricing_plan_id":"free"},{"bike_id":"78f3c2d9-a08f-45c9-a860-8dbae5071766","system_id":"levelo_inurba_marseille","lat":43.298764,"lon":5.388973,"is_reserved":false,"is_disabled":false,"rental_uris":{"android":"levelo://app?vid=78f3c2d9-a08f-45c9-a860-8dbae5071766","ios":"levelo://app?vid=78f3c2d9-a08f-45c9-a860-8dbae5071766"},"vehicle_type_id":"4","last_reported":1706731627,"current_range_meters":20400,"station_id":"ce4bh392rcd13ifvqdl0","pricing_plan_id":"free"},{"bike_id":"f1f6e459-ef3e-4a20-9d7c-694454d2b528","system_id":"levelo_inurba_marseille","lat":43.29861,"lon":5.38908,"is_reserved":false,"is_disabled":false,"rental_uris":{"android":"levelo://app?vid=f1f6e459-ef3e-4a20-9d7c-694454d2b528","ios":"levelo://app?vid=f1f6e459-ef3e-4a20-9d7c-694454d2b528"},"vehicle_type_id":"4","last_reported":1706731627,"current_range_meters":0,"station_id":"ce4bh392rcd13ifvqdl0","pricing_plan_id":"free"},{"bike_id":"ca3d87c3-82bd-4978-b15a-03c5420dc1b0","system_id":"levelo_inurba_marseille","lat":43.309047,"lon":5.396551,"is_reserved":false,"is_disabled":false,"rental_uris":{"android":"levelo://app?vid=ca3d87c3-82bd-4978-b15a-03c5420dc1b0","ios":"levelo://app?vid=ca3d87c3-82bd-4978-b15a-03c5420dc1b0"},"vehicle_type_id":"4","last_reported":1706731627,"current_range_meters":24800,"station_id":"ce4bh012rcd13ifvqcv0","pricing_plan_id":"free"},{"bike_id":"4544aa02-15cb-442f-bf95-dda24b00f359","system_id":"levelo_inurba_marseille","lat":43.309038,"lon":5.396546,"is_reserved":false,"is_disabled":false,"rental_uris":{"android":"levelo://app?vid=4544aa02-15cb-442f-bf95-dda24b00f359","ios":"levelo://app?vid=4544aa02-15cb-442f-bf95-dda24b00f359"},"vehicle_type_id":"4","last_reported":1706731627,"current_range_meters":22400,"station_id":"ce4bh012rcd13ifvqcv0","pricing_plan_id":"free"},{"bike_id":"5f1ddc79-fa18-48aa-a601-7af24d9c69df","system_id":"levelo_inurba_marseille","lat":43.309047,"lon":5.396551,"is_reserved":false,"is_disabled":false,"rental_uris":{"android":"levelo://app?vid=5f1ddc79-fa18-48aa-a601-7af24d9c69df","ios":"levelo://app?vid=5f1ddc79-fa18-48aa-a601-7af24d9c69df"},"vehicle_type_id":"4","last_reported":1706731627,"current_range_meters":400,"station_id":"ce4bh012rcd13ifvqcv0","pricing_plan_id":"free"},{"bike_id":"2983d506-c322-4e48-b149-0edfd49f85b5","system_id":"levelo_inurba_marseille","lat":43.309038,"lon":5.396546,"is_reserved":false,"is_disabled":false,"rental_uris":{"android":"levelo://app?vid=2983d506-c322-4e48-b149-0edfd49f85b5","ios":"levelo://app?vid=2983d506-c322-4e48-b149-0edfd49f85b5"},"vehicle_type_id":"4","last_reported":1706731627,"current_range_meters":10400,"station_id":"ce4bh012rcd13ifvqcv0","pricing_plan_id":"free"},{"bike_id":"1f818925-7a8c-48bd-b2f3-1e615da45bac","system_id":"levelo_inurba_marseille","lat":43.309038,"lon":5.396546,"is_reserved":false,"is_disabled":false,"rental_uris":{"android":"levelo://app?vid=1f818925-7a8c-48bd-b2f3-1e615da45bac","ios":"levelo://app?vid=1f818925-7a8c-48bd-b2f3-1e615da45bac"},"vehicle_type_id":"4","last_reported":1706731627,"current_range_meters":18800,"station_id":"ce4bh012rcd13ifvqcv0","pricing_plan_id":"free"},{"bike_id":"3e74f3af-382f-46c0-943f-37b390847d0c","system_id":"levelo_inurba_marseille","lat":43.29529,"lon":5.385581,"is_reserved":false,"is_disabled":false,"rental_uris":{"android":"levelo://app?vid=3e74f3af-382f-46c0-943f-37b390847d0c","ios":"levelo://app?vid=3e74f3af-382f-46c0-943f-37b390847d0c"},"vehicle_type_id":"4","last_reported":1706731627,"current_range_meters":0,"station_id":"ce4bgih2rcd13ifvqba0","pricing_plan_id":"free"},{"bike_id":"e91ee2fd-edd5-463a-b6e8-0cfa58e33f3c","system_id":"levelo_inurba_marseille","lat":43.29533,"lon":5.38541,"is_reserved":false,"is_disabled":false,"rental_uris":{"android":"levelo://app?vid=e91ee2fd-edd5-463a-b6e8-0cfa58e33f3c","ios":"levelo://app?vid=e91ee2fd-edd5-463a-b6e8-0cfa58e33f3c"},"vehicle_type_id":"4","last_reported":1706731627,"current_range_meters":8800,"station_id":"ce4bgih2rcd13ifvqba0","pricing_plan_id":"free"},{"bike_id":"616adcec-eabb-4a02-8ecf-11e4fbc220cf","system_id":"levelo_inurba_marseille","lat":43.29529,"lon":5.385581,"is_reserved":false,"is_disabled":false,"rental_uris":{"android":"levelo://app?vid=616adcec-eabb-4a02-8ecf-11e4fbc220cf","ios":"levelo://app?vid=616adcec-eabb-4a02-8ecf-11e4fbc220cf"},"vehicle_type_id":"4","last_reported":1706731627,"current_range_meters":0,"station_id":"ce4bgih2rcd13ifvqba0","pricing_plan_id":"free"},{"bike_id":"90231a53-f8d3-4a57-a06f-946d4ec3dfee","system_id":"levelo_inurba_marseille","lat":43.29529,"lon":5.385581,"is_reserved":false,"is_disabled":false,"rental_uris":{"android":"levelo://app?vid=90231a53-f8d3-4a57-a06f-946d4ec3dfee","ios":"levelo://app?vid=90231a53-f8d3-4a57-a06f-946d4ec3dfee"},"vehicle_type_id":"4","last_reported":1706731627,"current_range_meters":0,"station_id":"ce4bgih2rcd13ifvqba0","pricing_plan_id":"free"},{"bike_id":"f9662a96-84d0-4812-824e-68b1772c5ed3","system_id":"levelo_inurba_marseille","lat":43.29529,"lon":5.385581,"is_reserved":false,"is_disabled":false,"rental_uris":{"android":"levelo://app?vid=f9662a96-84d0-4812-824e-68b1772c5ed3","ios":"levelo://app?vid=f9662a96-84d0-4812-824e-68b1772c5ed3"},"vehicle_type_id":"4","last_reported":1706731627,"current_range_meters":13200,"station_id":"ce4bgih2rcd13ifvqba0","pricing_plan_id":"free"},{"bike_id":"ad51f6eb-1c21-4bac-a53b-c9c4b9b66de2","system_id":"levelo_inurba_marseille","lat":43.29529,"lon":5.385581,"is_reserved":false,"is_disabled":false,"rental_uris":{"android":"levelo://app?vid=ad51f6eb-1c21-4bac-a53b-c9c4b9b66de2","ios":"levelo://app?vid=ad51f6eb-1c21-4bac-a53b-c9c4b9b66de2"},"vehicle_type_id":"4","last_reported":1706731627,"current_range_meters":0,"station_id":"ce4bgih2rcd13ifvqba0","pricing_plan_id":"free"},{"bike_id":"ab12ea50-7449-4efc-8f77-89ec66ee1556","system_id":"levelo_inurba_marseille","lat":43.295279,"lon":5.385433,"is_reserved":false,"is_disabled":false,"rental_uris":{"android":"levelo://app?vid=ab12ea50-7449-4efc-8f77-89ec66ee1556","ios":"levelo://app?vid=ab12ea50-7449-4efc-8f77-89ec66ee1556"},"vehicle_type_id":"4","last_reported":1706731627,"current_range_meters":0,"station_id":"ce4bgih2rcd13ifvqba0","pricing_plan_id":"free"},{"bike_id":"a3160bea-19ee-4326-b809-011816eb8169","system_id":"levelo_inurba_marseille","lat":43.29529,"lon":5.385581,"is_reserved":false,"is_disabled":false,"rental_uris":{"android":"levelo://app?vid=a3160bea-19ee-4326-b809-011816eb8169","ios":"levelo://app?vid=a3160bea-19ee-4326-b809-011816eb8169"},"vehicle_type_id":"4","last_reported":1706731627,"current_range_meters":6800,"station_id":"ce4bgih2rcd13ifvqba0","pricing_plan_id":"free"},{"bike_id":"9204efed-1635-4897-aa06-1f184de6b459","system_id":"levelo_inurba_marseille","lat":43.2953,"lon":5.38549,"is_reserved":false,"is_disabled":false,"rental_uris":{"android":"levelo://app?vid=9204efed-1635-4897-aa06-1f184de6b459","ios":"levelo://app?vid=9204efed-1635-4897-aa06-1f184de6b459"},"vehicle_type_id":"4","last_reported":1706731627,"current_range_meters":0,"station_id":"ce4bgih2rcd13ifvqba0","pricing_plan_id":"free"},{"bike_id":"18d14c35-d56d-4b48-9663-3f7b676f367c","system_id":"levelo_inurba_marseille","lat":43.290779,"lon":5.371482,"is_reserved":false,"is_disabled":false,"rental_uris":{"android":"levelo://app?vid=18d14c35-d56d-4b48-9663-3f7b676f367c","ios":"levelo://app?vid=18d14c35-d56d-4b48-9663-3f7b676f367c"},"vehicle_type_id":"4","last_reported":1706731627,"current_range_meters":4000,"station_id":"ce4bh5p2rcd13ifvqe4g","pricing_plan_id":"free"},{"bike_id":"f086a9a2-1463-4f0d-a1ec-13130f63a634","system_id":"levelo_inurba_marseille","lat":43.30224,"lon":5.39466,"is_reserved":false,"is_disabled":false,"rental_uris":{"android":"levelo://app?vid=f086a9a2-1463-4f0d-a1ec-13130f63a634","ios":"levelo://app?vid=f086a9a2-1463-4f0d-a1ec-13130f63a634"},"vehicle_type_id":"4","last_reported":1706731627,"current_range_meters":4800,"station_id":"ce4bh0p2rcd13ifvqd70","pricing_plan_id":"free"},{"bike_id":"b3f507d3-b731-4eb6-bb0f-2df076a9d5f9","system_id":"levelo_inurba_marseille","lat":43.30226,"lon":5.394687,"is_reserved":false,"is_disabled":false,"rental_uris":{"android":"levelo://app?vid=b3f507d3-b731-4eb6-bb0f-2df076a9d5f9","ios":"levelo://app?vid=b3f507d3-b731-4eb6-bb0f-2df076a9d5f9"},"vehicle_type_id":"4","last_reported":1706731627,"current_range_meters":14800,"station_id":"ce4bh0p2rcd13ifvqd70","pricing_plan_id":"free"},{"bike_id":"e7dcdd9b-b073-4352-8ebe-7f512d5522b9","system_id":"levelo_inurba_marseille","lat":43.30221,"lon":5.39469,"is_reserved":false,"is_disabled":false,"rental_uris":{"android":"levelo://app?vid=e7dcdd9b-b073-4352-8ebe-7f512d5522b9","ios":"levelo://app?vid=e7dcdd9b-b073-4352-8ebe-7f512d5522b9"},"vehicle_type_id":"4","last_reported":1706731627,"current_range_meters":21200,"station_id":"ce4bh0p2rcd13ifvqd70","pricing_plan_id":"free"},{"bike_id":"d1216e46-80ef-46da-9856-a3cf299f082d","system_id":"levelo_inurba_marseille","lat":43.30212,"lon":5.39467,"is_reserved":false,"is_disabled":false,"rental_uris":{"android":"levelo://app?vid=d1216e46-80ef-46da-9856-a3cf299f082d","ios":"levelo://app?vid=d1216e46-80ef-46da-9856-a3cf299f082d"},"vehicle_type_id":"4","last_reported":1706731627,"current_range_meters":6000,"station_id":"ce4bh0p2rcd13ifvqd70","pricing_plan_id":"free"},{"bike_id":"7d29cc83-e3c5-4598-85ad-f99c45403296","system_id":"levelo_inurba_marseille","lat":43.30209,"lon":5.39466,"is_reserved":false,"is_disabled":false,"rental_uris":{"android":"levelo://app?vid=7d29cc83-e3c5-4598-85ad-f99c45403296","ios":"levelo://app?vid=7d29cc83-e3c5-4598-85ad-f99c45403296"},"vehicle_type_id":"4","last_reported":1706731627,"current_range_meters":5600,"station_id":"ce4bh0p2rcd13ifvqd70","pricing_plan_id":"free"},{"bike_id":"85d26d74-98c6-4005-8d22-0246ed297cd0","system_id":"levelo_inurba_marseille","lat":43.30224,"lon":5.3948,"is_reserved":false,"is_disabled":false,"rental_uris":{"android":"levelo://app?vid=85d26d74-98c6-4005-8d22-0246ed297cd0","ios":"levelo://app?vid=85d26d74-98c6-4005-8d22-0246ed297cd0"},"vehicle_type_id":"4","last_reported":1706731627,"current_range_meters":23600,"station_id":"ce4bh0p2rcd13ifvqd70","pricing_plan_id":"free"},{"bike_id":"7137ffbd-1cc9-4c4a-a9ad-e5317a59f5e7","system_id":"levelo_inurba_marseille","lat":43.30208,"lon":5.39469,"is_reserved":false,"is_disabled":false,"rental_uris":{"android":"levelo://app?vid=7137ffbd-1cc9-4c4a-a9ad-e5317a59f5e7","ios":"levelo://app?vid=7137ffbd-1cc9-4c4a-a9ad-e5317a59f5e7"},"vehicle_type_id":"4","last_reported":1706731627,"current_range_meters":20800,"station_id":"ce4bh0p2rcd13ifvqd70","pricing_plan_id":"free"},{"bike_id":"76346ad2-f4a5-42c7-8b7f-1b30d1fbf708","system_id":"levelo_inurba_marseille","lat":43.3021,"lon":5.39472,"is_reserved":false,"is_disabled":false,"rental_uris":{"android":"levelo://app?vid=76346ad2-f4a5-42c7-8b7f-1b30d1fbf708","ios":"levelo://app?vid=76346ad2-f4a5-42c7-8b7f-1b30d1fbf708"},"vehicle_type_id":"4","last_reported":1706731627,"current_range_meters":14400,"station_id":"ce4bh0p2rcd13ifvqd70","pricing_plan_id":"free"},{"bike_id":"71983818-e9b2-47ce-a350-84451725dd36","system_id":"levelo_inurba_marseille","lat":43.3021,"lon":5.39472,"is_reserved":false,"is_disabled":false,"rental_uris":{"android":"levelo://app?vid=71983818-e9b2-47ce-a350-84451725dd36","ios":"levelo://app?vid=71983818-e9b2-47ce-a350-84451725dd36"},"vehicle_type_id":"4","last_reported":1706731627,"current_range_meters":0,"station_id":"ce4bh0p2rcd13ifvqd70","pricing_plan_id":"free"},{"bike_id":"7999414f-6546-439b-b701-0027b24c97fd","system_id":"levelo_inurba_marseille","lat":43.290624,"lon":5.359245,"is_reserved":false,"is_disabled":false,"rental_uris":{"android":"levelo://app?vid=7999414f-6546-439b-b701-0027b24c97fd","ios":"levelo://app?vid=7999414f-6546-439b-b701-0027b24c97fd"},"vehicle_type_id":"4","last_reported":1706731627,"current_range_meters":0,"station_id":"ce4bha92rcd13ifvqeg0","pricing_plan_id":"free"},{"bike_id":"f871dd82-c736-47b6-8da4-07c72500ac98","system_id":"levelo_inurba_marseille","lat":43.290624,"lon":5.359245,"is_reserved":false,"is_disabled":false,"rental_uris":{"android":"levelo://app?vid=f871dd82-c736-47b6-8da4-07c72500ac98","ios":"levelo://app?vid=f871dd82-c736-47b6-8da4-07c72500ac98"},"vehicle_type_id":"4","last_reported":1706731627,"current_range_meters":7600,"station_id":"ce4bha92rcd13ifvqeg0","pricing_plan_id":"free"},{"bike_id":"2c1e47ad-3478-424c-8c66-23a600b1f0dc","system_id":"levelo_inurba_marseille","lat":43.290441,"lon":5.359123,"is_reserved":false,"is_disabled":false,"rental_uris":{"android":"levelo://app?vid=2c1e47ad-3478-424c-8c66-23a600b1f0dc","ios":"levelo://app?vid=2c1e47ad-3478-424c-8c66-23a600b1f0dc"},"vehicle_type_id":"4","last_reported":1706731627,"current_range_meters":12800,"station_id":"","pricing_plan_id":"free"},{"bike_id":"a220066e-2830-4e70-b257-d2706f26a965","system_id":"levelo_inurba_marseille","lat":43.290624,"lon":5.359245,"is_reserved":false,"is_disabled":false,"rental_uris":{"android":"levelo://app?vid=a220066e-2830-4e70-b257-d2706f26a965","ios":"levelo://app?vid=a220066e-2830-4e70-b257-d2706f26a965"},"vehicle_type_id":"4","last_reported":1706731627,"current_range_meters":26000,"station_id":"ce4bha92rcd13ifvqeg0","pricing_plan_id":"free"},{"bike_id":"b561d4af-5b48-4ae9-aa5a-986f36209b30","system_id":"levelo_inurba_marseille","lat":43.290327,"lon":5.375711,"is_reserved":false,"is_disabled":false,"rental_uris":{"android":"levelo://app?vid=b561d4af-5b48-4ae9-aa5a-986f36209b30","ios":"levelo://app?vid=b561d4af-5b48-4ae9-aa5a-986f36209b30"},"vehicle_type_id":"4","last_reported":1706731627,"current_range_meters":8400,"station_id":"ce4bh692rcd13ifvqe90","pricing_plan_id":"free"},{"bike_id":"8c00a75b-1b50-46d4-9e84-2aba9a0e02e6","system_id":"levelo_inurba_marseille","lat":43.290327,"lon":5.375711,"is_reserved":false,"is_disabled":false,"rental_uris":{"android":"levelo://app?vid=8c00a75b-1b50-46d4-9e84-2aba9a0e02e6","ios":"levelo://app?vid=8c00a75b-1b50-46d4-9e84-2aba9a0e02e6"},"vehicle_type_id":"4","last_reported":1706731627,"current_range_meters":26000,"station_id":"ce4bh692rcd13ifvqe90","pricing_plan_id":"free"},{"bike_id":"fd66a88f-02a3-4b0b-a40f-016b719b7143","system_id":"levelo_inurba_marseille","lat":43.29419,"lon":5.3863,"is_reserved":false,"is_disabled":false,"rental_uris":{"android":"levelo://app?vid=fd66a88f-02a3-4b0b-a40f-016b719b7143","ios":"levelo://app?vid=fd66a88f-02a3-4b0b-a40f-016b719b7143"},"vehicle_type_id":"4","last_reported":1706731627,"current_range_meters":0,"station_id":"ce4bh2h2rcd13ifvqdh0","pricing_plan_id":"free"},{"bike_id":"bb87a5e2-a940-4fe3-9055-b37e8abaa5c7","system_id":"levelo_inurba_marseille","lat":43.2894,"lon":5.36637,"is_reserved":false,"is_disabled":false,"rental_uris":{"android":"levelo://app?vid=bb87a5e2-a940-4fe3-9055-b37e8abaa5c7","ios":"levelo://app?vid=bb87a5e2-a940-4fe3-9055-b37e8abaa5c7"},"vehicle_type_id":"4","last_reported":1706731627,"current_range_meters":400,"station_id":"ce4bhap2rcd13ifvqek0","pricing_plan_id":"free"},{"bike_id":"267c4fb6-cce5-4224-9f79-ddf50aacbc65","system_id":"levelo_inurba_marseille","lat":43.289468,"lon":5.363719,"is_reserved":false,"is_disabled":false,"rental_uris":{"android":"levelo://app?vid=267c4fb6-cce5-4224-9f79-ddf50aacbc65","ios":"levelo://app?vid=267c4fb6-cce5-4224-9f79-ddf50aacbc65"},"vehicle_type_id":"4","last_reported":1706731627,"current_range_meters":28000,"station_id":"ce4bhc92rcd13ifvqetg","pricing_plan_id":"free"},{"bike_id":"2d18ab25-689c-45a3-8604-eb3f93206bd3","system_id":"levelo_inurba_marseille","lat":43.289388,"lon":5.363974,"is_reserved":false,"is_disabled":false,"rental_uris":{"android":"levelo://app?vid=2d18ab25-689c-45a3-8604-eb3f93206bd3","ios":"levelo://app?vid=2d18ab25-689c-45a3-8604-eb3f93206bd3"},"vehicle_type_id":"4","last_reported":1706731627,"current_range_meters":3200,"station_id":"ce4bhc92rcd13ifvqetg","pricing_plan_id":"free"},{"bike_id":"6fc3d050-3a5f-4361-b561-6bf2b9b8074f","system_id":"levelo_inurba_marseille","lat":43.289468,"lon":5.363719,"is_reserved":false,"is_disabled":false,"rental_uris":{"android":"levelo://app?vid=6fc3d050-3a5f-4361-b561-6bf2b9b8074f","ios":"levelo://app?vid=6fc3d050-3a5f-4361-b561-6bf2b9b8074f"},"vehicle_type_id":"4","last_reported":1706731627,"current_range_meters":13600,"station_id":"ce4bhc92rcd13ifvqetg","pricing_plan_id":"free"},{"bike_id":"b08446d7-2439-4f96-8ace-944b29af1f0b","system_id":"levelo_inurba_marseille","lat":43.289468,"lon":5.363719,"is_reserved":false,"is_disabled":false,"rental_uris":{"android":"levelo://app?vid=b08446d7-2439-4f96-8ace-944b29af1f0b","ios":"levelo://app?vid=b08446d7-2439-4f96-8ace-944b29af1f0b"},"vehicle_type_id":"4","last_reported":1706731627,"current_range_meters":2800,"station_id":"ce4bhc92rcd13ifvqetg","pricing_plan_id":"free"},{"bike_id":"7372e840-88b8-4f45-a6f9-95607e9241b6","system_id":"levelo_inurba_marseille","lat":43.29273,"lon":5.38428,"is_reserved":false,"is_disabled":false,"rental_uris":{"android":"levelo://app?vid=7372e840-88b8-4f45-a6f9-95607e9241b6","ios":"levelo://app?vid=7372e840-88b8-4f45-a6f9-95607e9241b6"},"vehicle_type_id":"4","last_reported":1706731627,"current_range_meters":0,"station_id":"ce4bh692rcd13ifvqea0","pricing_plan_id":"free"},{"bike_id":"ff3ecac6-85a5-47d1-8af6-ddd1c7c7d57a","system_id":"levelo_inurba_marseille","lat":43.292642,"lon":5.384254,"is_reserved":false,"is_disabled":false,"rental_uris":{"android":"levelo://app?vid=ff3ecac6-85a5-47d1-8af6-ddd1c7c7d57a","ios":"levelo://app?vid=ff3ecac6-85a5-47d1-8af6-ddd1c7c7d57a"},"vehicle_type_id":"4","last_reported":1706731627,"current_range_meters":3600,"station_id":"ce4bh692rcd13ifvqea0","pricing_plan_id":"free"},{"bike_id":"915074ed-d98f-4e64-a0bf-f386f77fbcd0","system_id":"levelo_inurba_marseille","lat":43.292642,"lon":5.384254,"is_reserved":false,"is_disabled":false,"rental_uris":{"android":"levelo://app?vid=915074ed-d98f-4e64-a0bf-f386f77fbcd0","ios":"levelo://app?vid=915074ed-d98f-4e64-a0bf-f386f77fbcd0"},"vehicle_type_id":"4","last_reported":1706731627,"current_range_meters":12000,"station_id":"ce4bh692rcd13ifvqea0","pricing_plan_id":"free"},{"bike_id":"6dc46c2a-e3dc-434f-a6a0-da0325e5cd49","system_id":"levelo_inurba_marseille","lat":43.29272,"lon":5.38438,"is_reserved":false,"is_disabled":false,"rental_uris":{"android":"levelo://app?vid=6dc46c2a-e3dc-434f-a6a0-da0325e5cd49","ios":"levelo://app?vid=6dc46c2a-e3dc-434f-a6a0-da0325e5cd49"},"vehicle_type_id":"4","last_reported":1706731627,"current_range_meters":5600,"station_id":"ce4bh692rcd13ifvqea0","pricing_plan_id":"free"},{"bike_id":"d6771219-4477-489e-b153-512cac643c81","system_id":"levelo_inurba_marseille","lat":43.292687,"lon":5.384367,"is_reserved":false,"is_disabled":false,"rental_uris":{"android":"levelo://app?vid=d6771219-4477-489e-b153-512cac643c81","ios":"levelo://app?vid=d6771219-4477-489e-b153-512cac643c81"},"vehicle_type_id":"4","last_reported":1706731627,"current_range_meters":8800,"station_id":"ce4bh692rcd13ifvqea0","pricing_plan_id":"free"},{"bike_id":"83087cae-4a1a-4ff5-ab72-9106ed0c7098","system_id":"levelo_inurba_marseille","lat":43.29271,"lon":5.38442,"is_reserved":false,"is_disabled":false,"rental_uris":{"android":"levelo://app?vid=83087cae-4a1a-4ff5-ab72-9106ed0c7098","ios":"levelo://app?vid=83087cae-4a1a-4ff5-ab72-9106ed0c7098"},"vehicle_type_id":"4","last_reported":1706731627,"current_range_meters":0,"station_id":"ce4bh692rcd13ifvqea0","pricing_plan_id":"free"},{"bike_id":"6566743e-d117-43bb-bd07-11dd73c309de","system_id":"levelo_inurba_marseille","lat":43.30435,"lon":5.39746,"is_reserved":false,"is_disabled":false,"rental_uris":{"android":"levelo://app?vid=6566743e-d117-43bb-bd07-11dd73c309de","ios":"levelo://app?vid=6566743e-d117-43bb-bd07-11dd73c309de"},"vehicle_type_id":"4","last_reported":1706731627,"current_range_meters":5200,"station_id":"","pricing_plan_id":"free"},{"bike_id":"834c5836-566f-47b6-a503-bcc40cc73e04","system_id":"levelo_inurba_marseille","lat":43.304296,"lon":5.397513,"is_reserved":false,"is_disabled":false,"rental_uris":{"android":"levelo://app?vid=834c5836-566f-47b6-a503-bcc40cc73e04","ios":"levelo://app?vid=834c5836-566f-47b6-a503-bcc40cc73e04"},"vehicle_type_id":"4","last_reported":1706731627,"current_range_meters":26800,"station_id":"ce4bh092rcd13ifvqd20","pricing_plan_id":"free"},{"bike_id":"8330bb2b-f7d9-42ac-8cce-fc4a0e3200da","system_id":"levelo_inurba_marseille","lat":43.292644,"lon":5.384257,"is_reserved":false,"is_disabled":false,"rental_uris":{"android":"levelo://app?vid=8330bb2b-f7d9-42ac-8cce-fc4a0e3200da","ios":"levelo://app?vid=8330bb2b-f7d9-42ac-8cce-fc4a0e3200da"},"vehicle_type_id":"4","last_reported":1706731627,"current_range_meters":0,"station_id":"ce4bh692rcd13ifvqea0","pricing_plan_id":"free"},{"bike_id":"e599f6da-9151-465d-af41-40a7a9652ffe","system_id":"levelo_inurba_marseille","lat":43.29263,"lon":5.38437,"is_reserved":false,"is_disabled":false,"rental_uris":{"android":"levelo://app?vid=e599f6da-9151-465d-af41-40a7a9652ffe","ios":"levelo://app?vid=e599f6da-9151-465d-af41-40a7a9652ffe"},"vehicle_type_id":"4","last_reported":1706731627,"current_range_meters":0,"station_id":"ce4bh692rcd13ifvqea0","pricing_plan_id":"free"},{"bike_id":"b0d76ec4-fa97-4b45-bf0c-2e04c21808ca","system_id":"levelo_inurba_marseille","lat":43.292642,"lon":5.384254,"is_reserved":false,"is_disabled":false,"rental_uris":{"android":"levelo://app?vid=b0d76ec4-fa97-4b45-bf0c-2e04c21808ca","ios":"levelo://app?vid=b0d76ec4-fa97-4b45-bf0c-2e04c21808ca"},"vehicle_type_id":"4","last_reported":1706731627,"current_range_meters":6000,"station_id":"ce4bh692rcd13ifvqea0","pricing_plan_id":"free"},{"bike_id":"1e559c23-3008-486f-8daa-c3f143aca671","system_id":"levelo_inurba_marseille","lat":43.29266,"lon":5.38444,"is_reserved":false,"is_disabled":false,"rental_uris":{"android":"levelo://app?vid=1e559c23-3008-486f-8daa-c3f143aca671","ios":"levelo://app?vid=1e559c23-3008-486f-8daa-c3f143aca671"},"vehicle_type_id":"4","last_reported":1706731627,"current_range_meters":8000,"station_id":"ce4bh692rcd13ifvqea0","pricing_plan_id":"free"},{"bike_id":"b43ca8a3-6430-4a02-991f-e2bd6cdc041a","system_id":"levelo_inurba_marseille","lat":43.29262,"lon":5.38439,"is_reserved":false,"is_disabled":false,"rental_uris":{"android":"levelo://app?vid=b43ca8a3-6430-4a02-991f-e2bd6cdc041a","ios":"levelo://app?vid=b43ca8a3-6430-4a02-991f-e2bd6cdc041a"},"vehicle_type_id":"4","last_reported":1706731627,"current_range_meters":6800,"station_id":"ce4bh692rcd13ifvqea0","pricing_plan_id":"free"},{"bike_id":"7b0a071a-0244-42d3-8ad8-5377ee9f8507","system_id":"levelo_inurba_marseille","lat":43.29259,"lon":5.38439,"is_reserved":false,"is_disabled":false,"rental_uris":{"android":"levelo://app?vid=7b0a071a-0244-42d3-8ad8-5377ee9f8507","ios":"levelo://app?vid=7b0a071a-0244-42d3-8ad8-5377ee9f8507"},"vehicle_type_id":"4","last_reported":1706731627,"current_range_meters":22000,"station_id":"ce4bh692rcd13ifvqea0","pricing_plan_id":"free"},{"bike_id":"0264069d-612f-4151-927b-a5c66b80ca19","system_id":"levelo_inurba_marseille","lat":43.304274,"lon":5.397513,"is_reserved":false,"is_disabled":false,"rental_uris":{"android":"levelo://app?vid=0264069d-612f-4151-927b-a5c66b80ca19","ios":"levelo://app?vid=0264069d-612f-4151-927b-a5c66b80ca19"},"vehicle_type_id":"4","last_reported":1706731627,"current_range_meters":11600,"station_id":"ce4bh092rcd13ifvqd20","pricing_plan_id":"free"},{"bike_id":"fe585eb4-e793-44fa-afb4-5866ec924e94","system_id":"levelo_inurba_marseille","lat":43.304296,"lon":5.397513,"is_reserved":false,"is_disabled":false,"rental_uris":{"android":"levelo://app?vid=fe585eb4-e793-44fa-afb4-5866ec924e94","ios":"levelo://app?vid=fe585eb4-e793-44fa-afb4-5866ec924e94"},"vehicle_type_id":"4","last_reported":1706731627,"current_range_meters":14800,"station_id":"ce4bh092rcd13ifvqd20","pricing_plan_id":"free"},{"bike_id":"15f14774-323f-46b3-b8bc-d4bf01100cc9","system_id":"levelo_inurba_marseille","lat":43.292543,"lon":5.384355,"is_reserved":false,"is_disabled":false,"rental_uris":{"android":"levelo://app?vid=15f14774-323f-46b3-b8bc-d4bf01100cc9","ios":"levelo://app?vid=15f14774-323f-46b3-b8bc-d4bf01100cc9"},"vehicle_type_id":"4","last_reported":1706731627,"current_range_meters":21200,"station_id":"ce4bh692rcd13ifvqea0","pricing_plan_id":"free"},{"bike_id":"50c76aba-2fc4-40cb-b14f-91eb95bfa7fc","system_id":"levelo_inurba_marseille","lat":43.290103,"lon":5.356114,"is_reserved":false,"is_disabled":false,"rental_uris":{"android":"levelo://app?vid=50c76aba-2fc4-40cb-b14f-91eb95bfa7fc","ios":"levelo://app?vid=50c76aba-2fc4-40cb-b14f-91eb95bfa7fc"},"vehicle_type_id":"4","last_reported":1706731627,"current_range_meters":10400,"station_id":"ce4bhb92rcd13ifvqen0","pricing_plan_id":"free"},{"bike_id":"b3894075-4d78-4f2b-ac94-359a123cb540","system_id":"levelo_inurba_marseille","lat":43.290104,"lon":5.356111,"is_reserved":false,"is_disabled":false,"rental_uris":{"android":"levelo://app?vid=b3894075-4d78-4f2b-ac94-359a123cb540","ios":"levelo://app?vid=b3894075-4d78-4f2b-ac94-359a123cb540"},"vehicle_type_id":"4","last_reported":1706731627,"current_range_meters":29600,"station_id":"ce4bhb92rcd13ifvqen0","pricing_plan_id":"free"},{"bike_id":"53cfee7b-eca7-4dc9-a55f-5016d722a19d","system_id":"levelo_inurba_marseille","lat":43.290095,"lon":5.378455,"is_reserved":false,"is_disabled":false,"rental_uris":{"android":"levelo://app?vid=53cfee7b-eca7-4dc9-a55f-5016d722a19d","ios":"levelo://app?vid=53cfee7b-eca7-4dc9-a55f-5016d722a19d"},"vehicle_type_id":"4","last_reported":1706731627,"current_range_meters":6000,"station_id":"","pricing_plan_id":"free"},{"bike_id":"d9ad6114-8950-45cb-bd32-a1912cbdccd4","system_id":"levelo_inurba_marseille","lat":43.295169,"lon":5.390426,"is_reserved":false,"is_disabled":false,"rental_uris":{"android":"levelo://app?vid=d9ad6114-8950-45cb-bd32-a1912cbdccd4","ios":"levelo://app?vid=d9ad6114-8950-45cb-bd32-a1912cbdccd4"},"vehicle_type_id":"4","last_reported":1706731627,"current_range_meters":13600,"station_id":"ce4bh3p2rcd13ifvqdp0","pricing_plan_id":"free"},{"bike_id":"ceb7badd-552e-48af-bdc1-94aa2c3427cc","system_id":"levelo_inurba_marseille","lat":43.297815,"lon":5.393548,"is_reserved":false,"is_disabled":false,"rental_uris":{"android":"levelo://app?vid=ceb7badd-552e-48af-bdc1-94aa2c3427cc","ios":"levelo://app?vid=ceb7badd-552e-48af-bdc1-94aa2c3427cc"},"vehicle_type_id":"4","last_reported":1706731627,"current_range_meters":21200,"station_id":"chh1huq6cuj3fo74tm60","pricing_plan_id":"free"},{"bike_id":"8e2a75d9-d954-4dce-a114-01a90cc13b7a","system_id":"levelo_inurba_marseille","lat":43.33023,"lon":5.3904,"is_reserved":false,"is_disabled":false,"rental_uris":{"android":"levelo://app?vid=8e2a75d9-d954-4dce-a114-01a90cc13b7a","ios":"levelo://app?vid=8e2a75d9-d954-4dce-a114-01a90cc13b7a"},"vehicle_type_id":"4","last_reported":1706731627,"current_range_meters":0,"station_id":"ce4bhr92rcd13ifvqhrg","pricing_plan_id":"free"},{"bike_id":"01afe51c-08c6-4575-b14b-97b20b352e04","system_id":"levelo_inurba_marseille","lat":43.297815,"lon":5.393548,"is_reserved":false,"is_disabled":false,"rental_uris":{"android":"levelo://app?vid=01afe51c-08c6-4575-b14b-97b20b352e04","ios":"levelo://app?vid=01afe51c-08c6-4575-b14b-97b20b352e04"},"vehicle_type_id":"4","last_reported":1706731627,"current_range_meters":23600,"station_id":"chh1huq6cuj3fo74tm60","pricing_plan_id":"free"},{"bike_id":"df18ea1c-2359-434e-81ea-e89c813faea1","system_id":"levelo_inurba_marseille","lat":43.295169,"lon":5.390426,"is_reserved":false,"is_disabled":false,"rental_uris":{"android":"levelo://app?vid=df18ea1c-2359-434e-81ea-e89c813faea1","ios":"levelo://app?vid=df18ea1c-2359-434e-81ea-e89c813faea1"},"vehicle_type_id":"4","last_reported":1706731627,"current_range_meters":28800,"station_id":"ce4bh3p2rcd13ifvqdp0","pricing_plan_id":"free"},{"bike_id":"8b5c3664-99b2-465d-a369-1fa8f55dfd92","system_id":"levelo_inurba_marseille","lat":43.295713,"lon":5.399639,"is_reserved":false,"is_disabled":false,"rental_uris":{"android":"levelo://app?vid=8b5c3664-99b2-465d-a369-1fa8f55dfd92","ios":"levelo://app?vid=8b5c3664-99b2-465d-a369-1fa8f55dfd92"},"vehicle_type_id":"4","last_reported":1706731627,"current_range_meters":28800,"station_id":"ce4bh312rcd13ifvqdj0","pricing_plan_id":"free"},{"bike_id":"5a1a2280-1233-41e1-b8ca-a8ebc291b34c","system_id":"levelo_inurba_marseille","lat":43.28856,"lon":5.358371,"is_reserved":false,"is_disabled":false,"rental_uris":{"android":"levelo://app?vid=5a1a2280-1233-41e1-b8ca-a8ebc291b34c","ios":"levelo://app?vid=5a1a2280-1233-41e1-b8ca-a8ebc291b34c"},"vehicle_type_id":"4","last_reported":1706731627,"current_range_meters":20400,"station_id":"ce4bhb12rcd13ifvqem0","pricing_plan_id":"free"},{"bike_id":"09ffc386-82f9-44ac-a2a8-b7ea475096cf","system_id":"levelo_inurba_marseille","lat":43.28856,"lon":5.358371,"is_reserved":false,"is_disabled":false,"rental_uris":{"android":"levelo://app?vid=09ffc386-82f9-44ac-a2a8-b7ea475096cf","ios":"levelo://app?vid=09ffc386-82f9-44ac-a2a8-b7ea475096cf"},"vehicle_type_id":"4","last_reported":1706731627,"current_range_meters":31600,"station_id":"ce4bhb12rcd13ifvqem0","pricing_plan_id":"free"},{"bike_id":"d85e73cc-0091-45d8-b104-cfa06fbfa938","system_id":"levelo_inurba_marseille","lat":43.28857,"lon":5.35843,"is_reserved":false,"is_disabled":false,"rental_uris":{"android":"levelo://app?vid=d85e73cc-0091-45d8-b104-cfa06fbfa938","ios":"levelo://app?vid=d85e73cc-0091-45d8-b104-cfa06fbfa938"},"vehicle_type_id":"4","last_reported":1706731627,"current_range_meters":31200,"station_id":"ce4bhb12rcd13ifvqem0","pricing_plan_id":"free"},{"bike_id":"a560cc0d-391b-4d22-a9df-71c761011448","system_id":"levelo_inurba_marseille","lat":43.28856,"lon":5.358371,"is_reserved":false,"is_disabled":false,"rental_uris":{"android":"levelo://app?vid=a560cc0d-391b-4d22-a9df-71c761011448","ios":"levelo://app?vid=a560cc0d-391b-4d22-a9df-71c761011448"},"vehicle_type_id":"4","last_reported":1706731627,"current_range_meters":24000,"station_id":"ce4bhb12rcd13ifvqem0","pricing_plan_id":"free"},{"bike_id":"972acf2a-459b-4109-984d-7d1b99b2d973","system_id":"levelo_inurba_marseille","lat":43.28856,"lon":5.358371,"is_reserved":false,"is_disabled":false,"rental_uris":{"android":"levelo://app?vid=972acf2a-459b-4109-984d-7d1b99b2d973","ios":"levelo://app?vid=972acf2a-459b-4109-984d-7d1b99b2d973"},"vehicle_type_id":"4","last_reported":1706731627,"current_range_meters":31200,"station_id":"ce4bhb12rcd13ifvqem0","pricing_plan_id":"free"},{"bike_id":"59b7b843-f242-48ca-b87c-21f005f48f05","system_id":"levelo_inurba_marseille","lat":43.28856,"lon":5.358371,"is_reserved":false,"is_disabled":false,"rental_uris":{"android":"levelo://app?vid=59b7b843-f242-48ca-b87c-21f005f48f05","ios":"levelo://app?vid=59b7b843-f242-48ca-b87c-21f005f48f05"},"vehicle_type_id":"4","last_reported":1706731627,"current_range_meters":20800,"station_id":"ce4bhb12rcd13ifvqem0","pricing_plan_id":"free"},{"bike_id":"69fc39f7-326e-4127-8377-bfb3e3304975","system_id":"levelo_inurba_marseille","lat":43.33723,"lon":5.37438,"is_reserved":false,"is_disabled":false,"rental_uris":{"android":"levelo://app?vid=69fc39f7-326e-4127-8377-bfb3e3304975","ios":"levelo://app?vid=69fc39f7-326e-4127-8377-bfb3e3304975"},"vehicle_type_id":"4","last_reported":1706731627,"current_range_meters":28400,"station_id":"","pricing_plan_id":"free"},{"bike_id":"f7bcc24b-317a-4f37-a99b-5e688e57824a","system_id":"levelo_inurba_marseille","lat":43.2883,"lon":5.35821,"is_reserved":false,"is_disabled":false,"rental_uris":{"android":"levelo://app?vid=f7bcc24b-317a-4f37-a99b-5e688e57824a","ios":"levelo://app?vid=f7bcc24b-317a-4f37-a99b-5e688e57824a"},"vehicle_type_id":"4","last_reported":1706731627,"current_range_meters":28400,"station_id":"ce4bhb12rcd13ifvqem0","pricing_plan_id":"free"},{"bike_id":"3a9fbb0e-5c5a-4876-817e-0d05a9186890","system_id":"levelo_inurba_marseille","lat":43.308194,"lon":5.401108,"is_reserved":false,"is_disabled":false,"rental_uris":{"android":"levelo://app?vid=3a9fbb0e-5c5a-4876-817e-0d05a9186890","ios":"levelo://app?vid=3a9fbb0e-5c5a-4876-817e-0d05a9186890"},"vehicle_type_id":"4","last_reported":1706731627,"current_range_meters":0,"station_id":"","pricing_plan_id":"free"},{"bike_id":"b964d9fd-972c-4750-b880-29a57e9d7707","system_id":"levelo_inurba_marseille","lat":43.312609,"lon":5.401662,"is_reserved":false,"is_disabled":false,"rental_uris":{"android":"levelo://app?vid=b964d9fd-972c-4750-b880-29a57e9d7707","ios":"levelo://app?vid=b964d9fd-972c-4750-b880-29a57e9d7707"},"vehicle_type_id":"4","last_reported":1706731627,"current_range_meters":0,"station_id":"ce4bh092rcd13ifvqd30","pricing_plan_id":"free"},{"bike_id":"b4d85829-ffae-4a59-aa2a-c43afc09c240","system_id":"levelo_inurba_marseille","lat":43.33745,"lon":5.37446,"is_reserved":false,"is_disabled":false,"rental_uris":{"android":"levelo://app?vid=b4d85829-ffae-4a59-aa2a-c43afc09c240","ios":"levelo://app?vid=b4d85829-ffae-4a59-aa2a-c43afc09c240"},"vehicle_type_id":"4","last_reported":1706731627,"current_range_meters":21600,"station_id":"","pricing_plan_id":"free"},{"bike_id":"b4486dfa-f3ee-47cf-b969-3c790573346a","system_id":"levelo_inurba_marseille","lat":43.30936,"lon":5.4014,"is_reserved":false,"is_disabled":false,"rental_uris":{"android":"levelo://app?vid=b4486dfa-f3ee-47cf-b969-3c790573346a","ios":"levelo://app?vid=b4486dfa-f3ee-47cf-b969-3c790573346a"},"vehicle_type_id":"4","last_reported":1706731627,"current_range_meters":0,"station_id":"ce4bgvp2rcd13ifvqct0","pricing_plan_id":"free"},{"bike_id":"4fff2917-d8a2-4509-9f34-37418b69d728","system_id":"levelo_inurba_marseille","lat":43.312609,"lon":5.401662,"is_reserved":false,"is_disabled":false,"rental_uris":{"android":"levelo://app?vid=4fff2917-d8a2-4509-9f34-37418b69d728","ios":"levelo://app?vid=4fff2917-d8a2-4509-9f34-37418b69d728"},"vehicle_type_id":"4","last_reported":1706731627,"current_range_meters":9600,"station_id":"ce4bh092rcd13ifvqd30","pricing_plan_id":"free"},{"bike_id":"286f917e-0a5a-4a5d-a8b9-fc4f7abedf84","system_id":"levelo_inurba_marseille","lat":43.33746,"lon":5.37459,"is_reserved":false,"is_disabled":false,"rental_uris":{"android":"levelo://app?vid=286f917e-0a5a-4a5d-a8b9-fc4f7abedf84","ios":"levelo://app?vid=286f917e-0a5a-4a5d-a8b9-fc4f7abedf84"},"vehicle_type_id":"4","last_reported":1706731627,"current_range_meters":18000,"station_id":"","pricing_plan_id":"free"},{"bike_id":"b04801a5-6a54-417c-b092-8f5791bc7287","system_id":"levelo_inurba_marseille","lat":43.30642,"lon":5.401031,"is_reserved":false,"is_disabled":false,"rental_uris":{"android":"levelo://app?vid=b04801a5-6a54-417c-b092-8f5791bc7287","ios":"levelo://app?vid=b04801a5-6a54-417c-b092-8f5791bc7287"},"vehicle_type_id":"4","last_reported":1706731627,"current_range_meters":12800,"station_id":"ce4bh112rcd13ifvqda0","pricing_plan_id":"free"},{"bike_id":"b7d3b81d-d85a-44b5-a0c7-8f9c9f74639e","system_id":"levelo_inurba_marseille","lat":43.337587,"lon":5.374576,"is_reserved":false,"is_disabled":false,"rental_uris":{"android":"levelo://app?vid=b7d3b81d-d85a-44b5-a0c7-8f9c9f74639e","ios":"levelo://app?vid=b7d3b81d-d85a-44b5-a0c7-8f9c9f74639e"},"vehicle_type_id":"4","last_reported":1706731627,"current_range_meters":14400,"station_id":"","pricing_plan_id":"free"},{"bike_id":"2a8b4939-3db7-4350-a850-1e5cbc6b54f7","system_id":"levelo_inurba_marseille","lat":43.309308,"lon":5.40163,"is_reserved":false,"is_disabled":false,"rental_uris":{"android":"levelo://app?vid=2a8b4939-3db7-4350-a850-1e5cbc6b54f7","ios":"levelo://app?vid=2a8b4939-3db7-4350-a850-1e5cbc6b54f7"},"vehicle_type_id":"4","last_reported":1706731627,"current_range_meters":0,"station_id":"ce4bgvp2rcd13ifvqct0","pricing_plan_id":"free"},{"bike_id":"12568932-a9a7-4d52-8b2c-668683b75358","system_id":"levelo_inurba_marseille","lat":43.33754,"lon":5.375013,"is_reserved":false,"is_disabled":false,"rental_uris":{"android":"levelo://app?vid=12568932-a9a7-4d52-8b2c-668683b75358","ios":"levelo://app?vid=12568932-a9a7-4d52-8b2c-668683b75358"},"vehicle_type_id":"4","last_reported":1706731627,"current_range_meters":16400,"station_id":"","pricing_plan_id":"free"},{"bike_id":"1facbbf3-baac-42f8-85eb-cb1e36f3e4b9","system_id":"levelo_inurba_marseille","lat":43.337623,"lon":5.374883,"is_reserved":false,"is_disabled":false,"rental_uris":{"android":"levelo://app?vid=1facbbf3-baac-42f8-85eb-cb1e36f3e4b9","ios":"levelo://app?vid=1facbbf3-baac-42f8-85eb-cb1e36f3e4b9"},"vehicle_type_id":"4","last_reported":1706731627,"current_range_meters":2800,"station_id":"","pricing_plan_id":"free"},{"bike_id":"d46c76d4-a3c8-430f-8022-180234773709","system_id":"levelo_inurba_marseille","lat":43.30642,"lon":5.401031,"is_reserved":false,"is_disabled":false,"rental_uris":{"android":"levelo://app?vid=d46c76d4-a3c8-430f-8022-180234773709","ios":"levelo://app?vid=d46c76d4-a3c8-430f-8022-180234773709"},"vehicle_type_id":"4","last_reported":1706731627,"current_range_meters":15200,"station_id":"ce4bh112rcd13ifvqda0","pricing_plan_id":"free"},{"bike_id":"0a9c8c4f-b8ab-4fd4-b079-61a852011143","system_id":"levelo_inurba_marseille","lat":43.33017,"lon":5.392681,"is_reserved":false,"is_disabled":false,"rental_uris":{"android":"levelo://app?vid=0a9c8c4f-b8ab-4fd4-b079-61a852011143","ios":"levelo://app?vid=0a9c8c4f-b8ab-4fd4-b079-61a852011143"},"vehicle_type_id":"4","last_reported":1706731627,"current_range_meters":23600,"station_id":"","pricing_plan_id":"free"},{"bike_id":"dcf576ec-c0c0-4916-9a95-c939b20d4e08","system_id":"levelo_inurba_marseille","lat":43.289743,"lon":5.378304,"is_reserved":false,"is_disabled":false,"rental_uris":{"android":"levelo://app?vid=dcf576ec-c0c0-4916-9a95-c939b20d4e08","ios":"levelo://app?vid=dcf576ec-c0c0-4916-9a95-c939b20d4e08"},"vehicle_type_id":"4","last_reported":1706731627,"current_range_meters":4800,"station_id":"ce4bh9p2rcd13ifvqed0","pricing_plan_id":"free"},{"bike_id":"fc8f7230-c127-43bb-a083-7e16494fc81e","system_id":"levelo_inurba_marseille","lat":43.30134,"lon":5.3987,"is_reserved":false,"is_disabled":false,"rental_uris":{"android":"levelo://app?vid=fc8f7230-c127-43bb-a083-7e16494fc81e","ios":"levelo://app?vid=fc8f7230-c127-43bb-a083-7e16494fc81e"},"vehicle_type_id":"4","last_reported":1706731627,"current_range_meters":0,"station_id":"ce4bh0h2rcd13ifvqd40","pricing_plan_id":"free"},{"bike_id":"bbd91bf8-c0dd-4b92-b082-793d83585adb","system_id":"levelo_inurba_marseille","lat":43.28727,"lon":5.36078,"is_reserved":false,"is_disabled":false,"rental_uris":{"android":"levelo://app?vid=bbd91bf8-c0dd-4b92-b082-793d83585adb","ios":"levelo://app?vid=bbd91bf8-c0dd-4b92-b082-793d83585adb"},"vehicle_type_id":"4","last_reported":1706731627,"current_range_meters":17600,"station_id":"cki0cbj6b192h4jlfktg","pricing_plan_id":"free"},{"bike_id":"303023ad-204c-4a03-bb4b-a6511d42bbc0","system_id":"levelo_inurba_marseille","lat":43.28727,"lon":5.36078,"is_reserved":false,"is_disabled":false,"rental_uris":{"android":"levelo://app?vid=303023ad-204c-4a03-bb4b-a6511d42bbc0","ios":"levelo://app?vid=303023ad-204c-4a03-bb4b-a6511d42bbc0"},"vehicle_type_id":"4","last_reported":1706731627,"current_range_meters":31200,"station_id":"cki0cbj6b192h4jlfktg","pricing_plan_id":"free"},{"bike_id":"0c57ca09-8143-44e5-94a8-ff344ab6f432","system_id":"levelo_inurba_marseille","lat":43.28719,"lon":5.36088,"is_reserved":false,"is_disabled":false,"rental_uris":{"android":"levelo://app?vid=0c57ca09-8143-44e5-94a8-ff344ab6f432","ios":"levelo://app?vid=0c57ca09-8143-44e5-94a8-ff344ab6f432"},"vehicle_type_id":"4","last_reported":1706731627,"current_range_meters":0,"station_id":"cki0cbj6b192h4jlfktg","pricing_plan_id":"free"},{"bike_id":"d515f1cf-4f48-43e8-9d02-4669d25c2396","system_id":"levelo_inurba_marseille","lat":43.286591,"lon":5.363346,"is_reserved":false,"is_disabled":false,"rental_uris":{"android":"levelo://app?vid=d515f1cf-4f48-43e8-9d02-4669d25c2396","ios":"levelo://app?vid=d515f1cf-4f48-43e8-9d02-4669d25c2396"},"vehicle_type_id":"4","last_reported":1706731627,"current_range_meters":12000,"station_id":"ce4bhah2rcd13ifvqej0","pricing_plan_id":"free"},{"bike_id":"81010007-2eb1-47dd-950c-77415511d9c7","system_id":"levelo_inurba_marseille","lat":43.298681,"lon":5.397225,"is_reserved":false,"is_disabled":false,"rental_uris":{"android":"levelo://app?vid=81010007-2eb1-47dd-950c-77415511d9c7","ios":"levelo://app?vid=81010007-2eb1-47dd-950c-77415511d9c7"},"vehicle_type_id":"4","last_reported":1706731627,"current_range_meters":14400,"station_id":"ce4bh0h2rcd13ifvqd50","pricing_plan_id":"free"},{"bike_id":"90d06b13-6b45-4f00-af12-ae7d9325353a","system_id":"levelo_inurba_marseille","lat":43.298681,"lon":5.397225,"is_reserved":false,"is_disabled":false,"rental_uris":{"android":"levelo://app?vid=90d06b13-6b45-4f00-af12-ae7d9325353a","ios":"levelo://app?vid=90d06b13-6b45-4f00-af12-ae7d9325353a"},"vehicle_type_id":"4","last_reported":1706731627,"current_range_meters":24000,"station_id":"ce4bh0h2rcd13ifvqd50","pricing_plan_id":"free"},{"bike_id":"456b3784-619c-48b2-9c63-3e4ab48d83c6","system_id":"levelo_inurba_marseille","lat":43.298681,"lon":5.397225,"is_reserved":false,"is_disabled":false,"rental_uris":{"android":"levelo://app?vid=456b3784-619c-48b2-9c63-3e4ab48d83c6","ios":"levelo://app?vid=456b3784-619c-48b2-9c63-3e4ab48d83c6"},"vehicle_type_id":"4","last_reported":1706731627,"current_range_meters":4000,"station_id":"ce4bh0h2rcd13ifvqd50","pricing_plan_id":"free"},{"bike_id":"67f1f3f3-761d-46b2-8b7b-fc4028516117","system_id":"levelo_inurba_marseille","lat":43.295196,"lon":5.39397,"is_reserved":false,"is_disabled":false,"rental_uris":{"android":"levelo://app?vid=67f1f3f3-761d-46b2-8b7b-fc4028516117","ios":"levelo://app?vid=67f1f3f3-761d-46b2-8b7b-fc4028516117"},"vehicle_type_id":"4","last_reported":1706731627,"current_range_meters":2400,"station_id":"ce4bh292rcd13ifvqdf0","pricing_plan_id":"free"},{"bike_id":"7869142d-4a88-4e51-bfb7-fcda9675011a","system_id":"levelo_inurba_marseille","lat":43.298681,"lon":5.397225,"is_reserved":false,"is_disabled":false,"rental_uris":{"android":"levelo://app?vid=7869142d-4a88-4e51-bfb7-fcda9675011a","ios":"levelo://app?vid=7869142d-4a88-4e51-bfb7-fcda9675011a"},"vehicle_type_id":"4","last_reported":1706731627,"current_range_meters":5600,"station_id":"ce4bh0h2rcd13ifvqd50","pricing_plan_id":"free"},{"bike_id":"ffcdf2fe-6454-48f9-9b9b-350c50a16f93","system_id":"levelo_inurba_marseille","lat":43.286591,"lon":5.363346,"is_reserved":false,"is_disabled":false,"rental_uris":{"android":"levelo://app?vid=ffcdf2fe-6454-48f9-9b9b-350c50a16f93","ios":"levelo://app?vid=ffcdf2fe-6454-48f9-9b9b-350c50a16f93"},"vehicle_type_id":"4","last_reported":1706731627,"current_range_meters":14800,"station_id":"ce4bhah2rcd13ifvqej0","pricing_plan_id":"free"},{"bike_id":"14d0ef62-1764-41e7-af4c-4664d45255ba","system_id":"levelo_inurba_marseille","lat":43.295748,"lon":5.37522,"is_reserved":false,"is_disabled":false,"rental_uris":{"android":"levelo://app?vid=14d0ef62-1764-41e7-af4c-4664d45255ba","ios":"levelo://app?vid=14d0ef62-1764-41e7-af4c-4664d45255ba"},"vehicle_type_id":"4","last_reported":1706731627,"current_range_meters":20800,"station_id":"ce4bgh92rcd13ifvqb50","pricing_plan_id":"free"},{"bike_id":"266f4ac6-777f-4446-9c7e-df24c735e7ab","system_id":"levelo_inurba_marseille","lat":43.298681,"lon":5.397225,"is_reserved":false,"is_disabled":false,"rental_uris":{"android":"levelo://app?vid=266f4ac6-777f-4446-9c7e-df24c735e7ab","ios":"levelo://app?vid=266f4ac6-777f-4446-9c7e-df24c735e7ab"},"vehicle_type_id":"4","last_reported":1706731627,"current_range_meters":22800,"station_id":"ce4bh0h2rcd13ifvqd50","pricing_plan_id":"free"},{"bike_id":"ce9e77d2-ffa4-400e-a193-59528db8e58a","system_id":"levelo_inurba_marseille","lat":43.28663,"lon":5.36354,"is_reserved":false,"is_disabled":false,"rental_uris":{"android":"levelo://app?vid=ce9e77d2-ffa4-400e-a193-59528db8e58a","ios":"levelo://app?vid=ce9e77d2-ffa4-400e-a193-59528db8e58a"},"vehicle_type_id":"4","last_reported":1706731627,"current_range_meters":5200,"station_id":"ce4bhah2rcd13ifvqej0","pricing_plan_id":"free"},{"bike_id":"13ea6016-14fe-4b0c-ae3b-9d538c889ace","system_id":"levelo_inurba_marseille","lat":43.298681,"lon":5.397225,"is_reserved":false,"is_disabled":false,"rental_uris":{"android":"levelo://app?vid=13ea6016-14fe-4b0c-ae3b-9d538c889ace","ios":"levelo://app?vid=13ea6016-14fe-4b0c-ae3b-9d538c889ace"},"vehicle_type_id":"4","last_reported":1706731627,"current_range_meters":19200,"station_id":"ce4bh0h2rcd13ifvqd50","pricing_plan_id":"free"},{"bike_id":"06f33269-bfe8-4ee2-924c-e2f48d1ff1f8","system_id":"levelo_inurba_marseille","lat":43.298681,"lon":5.397225,"is_reserved":false,"is_disabled":false,"rental_uris":{"android":"levelo://app?vid=06f33269-bfe8-4ee2-924c-e2f48d1ff1f8","ios":"levelo://app?vid=06f33269-bfe8-4ee2-924c-e2f48d1ff1f8"},"vehicle_type_id":"4","last_reported":1706731627,"current_range_meters":2800,"station_id":"ce4bh0h2rcd13ifvqd50","pricing_plan_id":"free"},{"bike_id":"b02578df-2f56-42e2-8b9d-10f72401fae9","system_id":"levelo_inurba_marseille","lat":43.298681,"lon":5.397225,"is_reserved":false,"is_disabled":false,"rental_uris":{"android":"levelo://app?vid=b02578df-2f56-42e2-8b9d-10f72401fae9","ios":"levelo://app?vid=b02578df-2f56-42e2-8b9d-10f72401fae9"},"vehicle_type_id":"4","last_reported":1706731627,"current_range_meters":1200,"station_id":"ce4bh0h2rcd13ifvqd50","pricing_plan_id":"free"},{"bike_id":"3c21c4b8-62fa-48d1-b255-86ba95fd4f1a","system_id":"levelo_inurba_marseille","lat":43.295196,"lon":5.39397,"is_reserved":false,"is_disabled":false,"rental_uris":{"android":"levelo://app?vid=3c21c4b8-62fa-48d1-b255-86ba95fd4f1a","ios":"levelo://app?vid=3c21c4b8-62fa-48d1-b255-86ba95fd4f1a"},"vehicle_type_id":"4","last_reported":1706731627,"current_range_meters":31200,"station_id":"ce4bh292rcd13ifvqdf0","pricing_plan_id":"free"},{"bike_id":"e82841c7-c916-4ed1-b381-4a67877359dc","system_id":"levelo_inurba_marseille","lat":43.29517,"lon":5.394,"is_reserved":false,"is_disabled":false,"rental_uris":{"android":"levelo://app?vid=e82841c7-c916-4ed1-b381-4a67877359dc","ios":"levelo://app?vid=e82841c7-c916-4ed1-b381-4a67877359dc"},"vehicle_type_id":"4","last_reported":1706731627,"current_range_meters":7200,"station_id":"ce4bh292rcd13ifvqdf0","pricing_plan_id":"free"},{"bike_id":"4fa7b7f6-2030-4e4b-8a29-2b498506b8df","system_id":"levelo_inurba_marseille","lat":43.295194,"lon":5.39397,"is_reserved":false,"is_disabled":false,"rental_uris":{"android":"levelo://app?vid=4fa7b7f6-2030-4e4b-8a29-2b498506b8df","ios":"levelo://app?vid=4fa7b7f6-2030-4e4b-8a29-2b498506b8df"},"vehicle_type_id":"4","last_reported":1706731627,"current_range_meters":0,"station_id":"ce4bh292rcd13ifvqdf0","pricing_plan_id":"free"},{"bike_id":"11b82d29-6163-464d-9c05-1fc40d5168cc","system_id":"levelo_inurba_marseille","lat":43.295196,"lon":5.39397,"is_reserved":false,"is_disabled":false,"rental_uris":{"android":"levelo://app?vid=11b82d29-6163-464d-9c05-1fc40d5168cc","ios":"levelo://app?vid=11b82d29-6163-464d-9c05-1fc40d5168cc"},"vehicle_type_id":"4","last_reported":1706731627,"current_range_meters":30000,"station_id":"ce4bh292rcd13ifvqdf0","pricing_plan_id":"free"},{"bike_id":"ba2323e1-96e6-499e-9cc4-64c45a72213c","system_id":"levelo_inurba_marseille","lat":43.295194,"lon":5.39397,"is_reserved":false,"is_disabled":false,"rental_uris":{"android":"levelo://app?vid=ba2323e1-96e6-499e-9cc4-64c45a72213c","ios":"levelo://app?vid=ba2323e1-96e6-499e-9cc4-64c45a72213c"},"vehicle_type_id":"4","last_reported":1706731627,"current_range_meters":6400,"station_id":"ce4bh292rcd13ifvqdf0","pricing_plan_id":"free"},{"bike_id":"9b2d3773-a652-471e-ba59-66f730b9882a","system_id":"levelo_inurba_marseille","lat":43.289307,"lon":5.38406,"is_reserved":false,"is_disabled":false,"rental_uris":{"android":"levelo://app?vid=9b2d3773-a652-471e-ba59-66f730b9882a","ios":"levelo://app?vid=9b2d3773-a652-471e-ba59-66f730b9882a"},"vehicle_type_id":"4","last_reported":1706731627,"current_range_meters":1600,"station_id":"ce4bh612rcd13ifvqe6g","pricing_plan_id":"free"},{"bike_id":"4a4c4fa6-41f2-4904-b4d0-cde7c610e9be","system_id":"levelo_inurba_marseille","lat":43.302759,"lon":5.400793,"is_reserved":false,"is_disabled":false,"rental_uris":{"android":"levelo://app?vid=4a4c4fa6-41f2-4904-b4d0-cde7c610e9be","ios":"levelo://app?vid=4a4c4fa6-41f2-4904-b4d0-cde7c610e9be"},"vehicle_type_id":"4","last_reported":1706731627,"current_range_meters":0,"station_id":"ce4bgvh2rcd13ifvqcs0","pricing_plan_id":"free"},{"bike_id":"9198179b-0a59-4c9c-9498-d226b82725d9","system_id":"levelo_inurba_marseille","lat":43.30249,"lon":5.40057,"is_reserved":false,"is_disabled":false,"rental_uris":{"android":"levelo://app?vid=9198179b-0a59-4c9c-9498-d226b82725d9","ios":"levelo://app?vid=9198179b-0a59-4c9c-9498-d226b82725d9"},"vehicle_type_id":"4","last_reported":1706731627,"current_range_meters":0,"station_id":"ce4bgvh2rcd13ifvqcs0","pricing_plan_id":"free"},{"bike_id":"02397293-221e-4928-b499-3af16d58cf00","system_id":"levelo_inurba_marseille","lat":43.30246,"lon":5.40056,"is_reserved":false,"is_disabled":false,"rental_uris":{"android":"levelo://app?vid=02397293-221e-4928-b499-3af16d58cf00","ios":"levelo://app?vid=02397293-221e-4928-b499-3af16d58cf00"},"vehicle_type_id":"4","last_reported":1706731627,"current_range_meters":18400,"station_id":"ce4bgvh2rcd13ifvqcs0","pricing_plan_id":"free"},{"bike_id":"e8f63fb7-115a-4d1b-a889-a8f510aa55c5","system_id":"levelo_inurba_marseille","lat":43.30251,"lon":5.40059,"is_reserved":false,"is_disabled":false,"rental_uris":{"android":"levelo://app?vid=e8f63fb7-115a-4d1b-a889-a8f510aa55c5","ios":"levelo://app?vid=e8f63fb7-115a-4d1b-a889-a8f510aa55c5"},"vehicle_type_id":"4","last_reported":1706731627,"current_range_meters":13600,"station_id":"ce4bgvh2rcd13ifvqcs0","pricing_plan_id":"free"},{"bike_id":"ad8ff28e-127f-47ac-be21-a3bf345c5dd6","system_id":"levelo_inurba_marseille","lat":43.302574,"lon":5.400628,"is_reserved":false,"is_disabled":false,"rental_uris":{"android":"levelo://app?vid=ad8ff28e-127f-47ac-be21-a3bf345c5dd6","ios":"levelo://app?vid=ad8ff28e-127f-47ac-be21-a3bf345c5dd6"},"vehicle_type_id":"4","last_reported":1706731627,"current_range_meters":0,"station_id":"ce4bgvh2rcd13ifvqcs0","pricing_plan_id":"free"},{"bike_id":"cee05f94-659e-44a8-a0c7-24c79ff8218c","system_id":"levelo_inurba_marseille","lat":43.30239,"lon":5.40058,"is_reserved":false,"is_disabled":false,"rental_uris":{"android":"levelo://app?vid=cee05f94-659e-44a8-a0c7-24c79ff8218c","ios":"levelo://app?vid=cee05f94-659e-44a8-a0c7-24c79ff8218c"},"vehicle_type_id":"4","last_reported":1706731627,"current_range_meters":0,"station_id":"ce4bgvh2rcd13ifvqcs0","pricing_plan_id":"free"},{"bike_id":"5b8c776c-aec6-4857-b2d7-d46ed220deac","system_id":"levelo_inurba_marseille","lat":43.302511,"lon":5.400653,"is_reserved":false,"is_disabled":false,"rental_uris":{"android":"levelo://app?vid=5b8c776c-aec6-4857-b2d7-d46ed220deac","ios":"levelo://app?vid=5b8c776c-aec6-4857-b2d7-d46ed220deac"},"vehicle_type_id":"4","last_reported":1706731627,"current_range_meters":0,"station_id":"ce4bgth2rcd13ifvqch0","pricing_plan_id":"free"},{"bike_id":"653b69d5-d5b3-470a-9bfd-6f82ccab272a","system_id":"levelo_inurba_marseille","lat":43.290345,"lon":5.38646,"is_reserved":false,"is_disabled":false,"rental_uris":{"android":"levelo://app?vid=653b69d5-d5b3-470a-9bfd-6f82ccab272a","ios":"levelo://app?vid=653b69d5-d5b3-470a-9bfd-6f82ccab272a"},"vehicle_type_id":"4","last_reported":1706731627,"current_range_meters":4800,"station_id":"ce4bh4p2rcd13ifvqe0g","pricing_plan_id":"free"},{"bike_id":"8f7fe2d1-b7f1-4fe3-85d7-5d884d0e943d","system_id":"levelo_inurba_marseille","lat":43.290336,"lon":5.386425,"is_reserved":false,"is_disabled":false,"rental_uris":{"android":"levelo://app?vid=8f7fe2d1-b7f1-4fe3-85d7-5d884d0e943d","ios":"levelo://app?vid=8f7fe2d1-b7f1-4fe3-85d7-5d884d0e943d"},"vehicle_type_id":"4","last_reported":1706731627,"current_range_meters":23200,"station_id":"ce4bh4p2rcd13ifvqe0g","pricing_plan_id":"free"},{"bike_id":"49cb3dd2-5cc9-432d-bcc8-4ea3c20842e3","system_id":"levelo_inurba_marseille","lat":43.30257,"lon":5.40076,"is_reserved":false,"is_disabled":false,"rental_uris":{"android":"levelo://app?vid=49cb3dd2-5cc9-432d-bcc8-4ea3c20842e3","ios":"levelo://app?vid=49cb3dd2-5cc9-432d-bcc8-4ea3c20842e3"},"vehicle_type_id":"4","last_reported":1706731627,"current_range_meters":4000,"station_id":"ce4bgvh2rcd13ifvqcs0","pricing_plan_id":"free"},