{"last_updated":1731409643,"ttl":60,"version":"2.2","data":{"bikes":[{"bike_id":"f0235392-c652-4570-ba32-10ed045f886b","system_id":"levelo_inurba_marseille","lat":43.24084,"lon":5.3774,"is_reserved":false,"is_disabled":false,"rental_uris":{"android":"levelo://app?vid=f0235392-c652-4570-ba32-10ed045f886b","ios":"levelo://app?vid=f0235392-c652-4570-ba32-10ed045f886b"},"vehicle_type_id":"4","last_reported":1731409643,"current_range_meters":29600,"station_id":"ce4bhnp2rcd13ifvqgvg","pricing_plan_id":"cebpf4jnsgd1na2vs0mg"},{"bike_id":"4ecf88c0-77a6-4268-b158-1994aec5c096","system_id":"levelo_inurba_marseille","lat":43.31072,"lon":5.40092,"is_reserved":false,"is_disabled":false,"rental_uris":{"android":"levelo://app?vid=4ecf88c0-77a6-4268-b158-1994aec5c096","ios":"levelo://app?vid=4ecf88c0-77a6-4268-b158-1994aec5c096"},"vehicle_type_id":"4","last_reported":1731409643,"current_range_meters":5600,"station_id":"","pricing_plan_id":"cebpf4jnsgd1na2vs0mg"},{"bike_id":"db4a611e-83d7-4387-ab77-cffbe2b2ca72","system_id":"levelo_inurba_marseille","lat":43.33599,"lon":5.41015,"is_reserved":false,"is_disabled":false,"rental_uris":{"android":"levelo://app?vid=db4a611e-83d7-4387-ab77-cffbe2b2ca72","ios":"levelo://app?vid=db4a611e-83d7-4387-ab77-cffbe2b2ca72"},"vehicle_type_id":"4","last_reported":1731409643,"current_range_meters":30000,"station_id":"ce4bhqh2rcd13ifvqhmg","pricing_plan_id":"cebpf4jnsgd1na2vs0mg"},{"bike_id":"7009952f-973d-4228-b8d1-f3d11712ad74","system_id":"levelo_inurba_marseille","lat":43.27489,"lon":5.42453,"is_reserved":false,"is_disabled":false,"rental_uris":{"android":"levelo://app?vid=7009952f-973d-4228-b8d1-f3d11712ad74","ios":"levelo://app?vid=7009952f-973d-4228-b8d1-f3d11712ad74"},"vehicle_type_id":"4","last_reported":1731409643,"current_range_meters":28000,"station_id":"ce4bhn92rcd13ifvqgrg","pricing_plan_id":"cebpf4jnsgd1na2vs0mg"},{"bike_id":"1ccfb8bd-1ae7-4c84-99a2-a988a6a36a58","system_id":"levelo_inurba_marseille","lat":43.26959,"lon":5.38629,"is_reserved":false,"is_disabled":false,"rental_uris":{"android":"levelo://app?vid=1ccfb8bd-1ae7-4c84-99a2-a988a6a36a58","ios":"levelo://app?vid=1ccfb8bd-1ae7-4c84-99a2-a988a6a36a58"},"vehicle_type_id":"4","last_reported":1731409643,"current_range_meters":30000,"station_id":"ce4bhh92rcd13ifvqfh0","pricing_plan_id":"cebpf4jnsgd1na2vs0mg"},{"bike_id":"3f25d806-ed04-4777-a51c-9468e09ffec0","system_id":"levelo_inurba_marseille","lat":43.24073,"lon":5.37768,"is_reserved":false,"is_disabled":false,"rental_uris":{"android":"levelo://app?vid=3f25d806-ed04-4777-a51c-9468e09ffec0","ios":"levelo://app?vid=3f25d806-ed04-4777-a51c-9468e09ffec0"},"vehicle_type_id":"4","last_reported":1731409643,"current_range_meters":20800,"station_id":"ce4bhnp2rcd13ifvqgvg","pricing_plan_id":"cebpf4jnsgd1na2vs0mg"},{"bike_id":"4854ae1e-bed0-4344-a149-c5dd951105bb","system_id":"levelo_inurba_marseille","lat":43.27077,"lon":5.42284,"is_reserved":false,"is_disabled":false,"rental_uris":{"android":"levelo://app?vid=4854ae1e-bed0-4344-a149-c5dd951105bb","ios":"levelo://app?vid=4854ae1e-bed0-4344-a149-c5dd951105bb"},"vehicle_type_id":"4","last_reported":1731409643,"current_range_meters":20000,"station_id":"ce4bhk92rcd13ifvqgb0","pricing_plan_id":"cebpf4jnsgd1na2vs0mg"},{"bike_id":"54bbfb4f-4331-4b00-8d61-71a05d808dec","system_id":"levelo_inurba_marseille","lat":43.29614,"lon":5.38091,"is_reserved":false,"is_disabled":false,"rental_uris":{"android":"levelo://app?vid=54bbfb4f-4331-4b00-8d61-71a05d808dec","ios":"levelo://app?vid=54bbfb4f-4331-4b00-8d61-71a05d808dec"},"vehicle_type_id":"4","last_reported":1731409643,"current_range_meters":30800,"station_id":"ce4bgl12rcd13ifvqbo0","pricing_plan_id":"cebpf4jnsgd1na2vs0mg"},{"bike_id":"c11ad709-cea1-4ef9-889d-d80230a8fdfc","system_id":"levelo_inurba_marseille","lat":43.29002,"lon":5.35605,"is_reserved":false,"is_disabled":false,"rental_uris":{"android":"levelo://app?vid=c11ad709-cea1-4ef9-889d-d80230a8fdfc","ios":"levelo://app?vid=c11ad709-cea1-4ef9-889d-d80230a8fdfc"},"vehicle_type_id":"4","last_reported":1731409643,"current_range_meters":36400,"station_id":"ce4bhb92rcd13ifvqen0","pricing_plan_id":"cebpf4jnsgd1na2vs0mg"},{"bike_id":"d3bc65f8-96a4-47eb-a231-9d88eec69246","system_id":"levelo_inurba_marseille","lat":43.29291,"lon":5.36851,"is_reserved":false,"is_disabled":false,"rental_uris":{"android":"levelo://app?vid=d3bc65f8-96a4-47eb-a231-9d88eec69246","ios":"levelo://app?vid=d3bc65f8-96a4-47eb-a231-9d88eec69246"},"vehicle_type_id":"4","last_reported":1731409643,"current_range_meters":38800,"station_id":"ce4bhbp2rcd13ifvqesg","pricing_plan_id":"cebpf4jnsgd1na2vs0mg"},{"bike_id":"ad523e06-6332-4817-8d14-70db33cd44e6","system_id":"levelo_inurba_marseille","lat":43.28675,"lon":5.38655,"is_reserved":false,"is_disabled":false,"rental_uris":{"android":"levelo://app?vid=ad523e06-6332-4817-8d14-70db33cd44e6","ios":"levelo://app?vid=ad523e06-6332-4817-8d14-70db33cd44e6"},"vehicle_type_id":"4","last_reported":1731409643,"current_range_meters":32400,"station_id":"ce4bh492rcd13ifvqdug","pricing_plan_id":"cebpf4jnsgd1na2vs0mg"},{"bike_id":"4439e7e2-640f-479c-a970-5e17bbf11d2f","system_id":"levelo_inurba_marseille","lat":43.30913,"lon":5.3685,"is_reserved":false,"is_disabled":false,"rental_uris":{"android":"levelo://app?vid=4439e7e2-640f-479c-a970-5e17bbf11d2f","ios":"levelo://app?vid=4439e7e2-640f-479c-a970-5e17bbf11d2f"},"vehicle_type_id":"4","last_reported":1731409643,"current_range_meters":38800,"station_id":"ce4bgn92rcd13ifvqbvg","pricing_plan_id":"cebpf4jnsgd1na2vs0mg"},{"bike_id":"c2172132-6879-47e9-a811-7d8e34b0dd78","system_id":"levelo_inurba_marseille","lat":43.31339,"lon":5.36723,"is_reserved":false,"is_disabled":false,"rental_uris":{"android":"levelo://app?vid=c2172132-6879-47e9-a811-7d8e34b0dd78","ios":"levelo://app?vid=c2172132-6879-47e9-a811-7d8e34b0dd78"},"vehicle_type_id":"4","last_reported":1731409643,"current_range_meters":29600,"station_id":"ce4bgr92rcd13ifvqc6g","pricing_plan_id":"cebpf4jnsgd1na2vs0mg"},{"bike_id":"6b228d07-4301-4a5b-9474-4b744d853bd2","system_id":"levelo_inurba_marseille","lat":43.32487,"lon":5.36565,"is_reserved":false,"is_disabled":false,"rental_uris":{"android":"levelo://app?vid=6b228d07-4301-4a5b-9474-4b744d853bd2","ios":"levelo://app?vid=6b228d07-4301-4a5b-9474-4b744d853bd2"},"vehicle_type_id":"4","last_reported":1731409643,"current_range_meters":26800,"station_id":"ce4bhs12rcd13ifvqhvg","pricing_plan_id":"cebpf4jnsgd1na2vs0mg"},{"bike_id":"07c3259f-e215-4bfe-b3a4-d7000216f62d","system_id":"levelo_inurba_marseille","lat":43.29275,"lon":5.40111,"is_reserved":false,"is_disabled":false,"rental_uris":{"android":"levelo://app?vid=07c3259f-e215-4bfe-b3a4-d7000216f62d","ios":"levelo://app?vid=07c3259f-e215-4bfe-b3a4-d7000216f62d"},"vehicle_type_id":"4","last_reported":1731409643,"current_range_meters":10000,"station_id":"ce4bh312rcd13ifvqdk0","pricing_plan_id":"cebpf4jnsgd1na2vs0mg"},{"bike_id":"2cbff59c-c084-4841-8e09-c0a8c552ac6e","system_id":"levelo_inurba_marseille","lat":43.29009,"lon":5.35619,"is_reserved":false,"is_disabled":false,"rental_uris":{"android":"levelo://app?vid=2cbff59c-c084-4841-8e09-c0a8c552ac6e","ios":"levelo://app?vid=2cbff59c-c084-4841-8e09-c0a8c552ac6e"},"vehicle_type_id":"4","last_reported":1731409643,"current_range_meters":36800,"station_id":"ce4bhb92rcd13ifvqen0","pricing_plan_id":"cebpf4jnsgd1na2vs0mg"},{"bike_id":"948d5a63-762a-46b2-a20d-d3a7e21e8d19","system_id":"levelo_inurba_marseille","lat":43.2407,"lon":5.37729,"is_reserved":false,"is_disabled":false,"rental_uris":{"android":"levelo://app?vid=948d5a63-762a-46b2-a20d-d3a7e21e8d19","ios":"levelo://app?vid=948d5a63-762a-46b2-a20d-d3a7e21e8d19"},"vehicle_type_id":"4","last_reported":1731409643,"current_range_meters":26800,"station_id":"ce4bhnp2rcd13ifvqgvg","pricing_plan_id":"cebpf4jnsgd1na2vs0mg"},{"bike_id":"b8f61845-5bab-411f-b6c0-9ebe5cac9e1a","system_id":"levelo_inurba_marseille","lat":43.26949,"lon":5.38638,"is_reserved":false,"is_disabled":false,"rental_uris":{"android":"levelo://app?vid=b8f61845-5bab-411f-b6c0-9ebe5cac9e1a","ios":"levelo://app?vid=b8f61845-5bab-411f-b6c0-9ebe5cac9e1a"},"vehicle_type_id":"4","last_reported":1731409643,"current_range_meters":35600,"station_id":"ce4bhh92rcd13ifvqfh0","pricing_plan_id":"cebpf4jnsgd1na2vs0mg"},{"bike_id":"3af83946-b5ad-44d0-b994-76ad9a8e4fc9","system_id":"levelo_inurba_marseille","lat":43.30125,"lon":5.39861,"is_reserved":false,"is_disabled":false,"rental_uris":{"android":"levelo://app?vid=3af83946-b5ad-44d0-b994-76ad9a8e4fc9","ios":"levelo://app?vid=3af83946-b5ad-44d0-b994-76ad9a8e4fc9"},"vehicle_type_id":"4","last_reported":1731409643,"current_range_meters":24000,"station_id":"ce4bh0h2rcd13ifvqd40","pricing_plan_id":"cebpf4jnsgd1na2vs0mg"},{"bike_id":"ec2bd622-564a-4344-81ef-f79e221200a1","system_id":"levelo_inurba_marseille","lat":43.25583,"lon":5.38243,"is_reserved":false,"is_disabled":false,"rental_uris":{"android":"levelo://app?vid=ec2bd622-564a-4344-81ef-f79e221200a1","ios":"levelo://app?vid=ec2bd622-564a-4344-81ef-f79e221200a1"},"vehicle_type_id":"4","last_reported":1731409643,"current_range_meters":28800,"station_id":"ce4bhih2rcd13ifvqfs0","pricing_plan_id":"cebpf4jnsgd1na2vs0mg"},{"bike_id":"0e1a9468-2aca-4ae8-b8bb-1cf8a1ab19e6","system_id":"levelo_inurba_marseille","lat":43.25945,"lon":5.40903,"is_reserved":false,"is_disabled":false,"rental_uris":{"android":"levelo://app?vid=0e1a9468-2aca-4ae8-b8bb-1cf8a1ab19e6","ios":"levelo://app?vid=0e1a9468-2aca-4ae8-b8bb-1cf8a1ab19e6"},"vehicle_type_id":"4","last_reported":1731409643,"current_range_meters":22000,"station_id":"ce4bhm92rcd13ifvqglg","pricing_plan_id":"cebpf4jnsgd1na2vs0mg"},{"bike_id":"c9117156-7017-412c-870c-65ab0c4543d9","system_id":"levelo_inurba_marseille","lat":43.29031,"lon":5.38637,"is_reserved":false,"is_disabled":false,"rental_uris":{"android":"levelo://app?vid=c9117156-7017-412c-870c-65ab0c4543d9","ios":"levelo://app?vid=c9117156-7017-412c-870c-65ab0c4543d9"},"vehicle_type_id":"4","last_reported":1731409643,"current_range_meters":25200,"station_id":"ce4bh4p2rcd13ifvqe0g","pricing_plan_id":"cebpf4jnsgd1na2vs0mg"},{"bike_id":"d48e2ebe-8856-4df5-a1c5-83d4112e71b2","system_id":"levelo_inurba_marseille","lat":43.274972,"lon":5.42448,"is_reserved":false,"is_disabled":false,"rental_uris":{"android":"levelo://app?vid=d48e2ebe-8856-4df5-a1c5-83d4112e71b2","ios":"levelo://app?vid=d48e2ebe-8856-4df5-a1c5-83d4112e71b2"},"vehicle_type_id":"4","last_reported":1731409643,"current_range_meters":17600,"station_id":"ce4bhn92rcd13ifvqgrg","pricing_plan_id":"cebpf4jnsgd1na2vs0mg"},{"bike_id":"ce2e3f6e-6398-4940-93f2-fd49c28434c4","system_id":"levelo_inurba_marseille","lat":43.24083,"lon":5.37752,"is_reserved":false,"is_disabled":false,"rental_uris":{"android":"levelo://app?vid=ce2e3f6e-6398-4940-93f2-fd49c28434c4","ios":"levelo://app?vid=ce2e3f6e-6398-4940-93f2-fd49c28434c4"},"vehicle_type_id":"4","last_reported":1731409643,"current_range_meters":8000,"station_id":"ce4bhnp2rcd13ifvqgvg","pricing_plan_id":"cebpf4jnsgd1na2vs0mg"},{"bike_id":"45892449-4309-414c-84e5-59bfb2962cf8","system_id":"levelo_inurba_marseille","lat":43.279784,"lon":5.416884,"is_reserved":false,"is_disabled":false,"rental_uris":{"android":"levelo://app?vid=45892449-4309-414c-84e5-59bfb2962cf8","ios":"levelo://app?vid=45892449-4309-414c-84e5-59bfb2962cf8"},"vehicle_type_id":"4","last_reported":1731409643,"current_range_meters":29600,"station_id":"ce4bho12rcd13ifvqh1g","pricing_plan_id":"cebpf4jnsgd1na2vs0mg"},{"bike_id":"46af5b7f-5607-486d-bc57-2daa7d5b28e7","system_id":"levelo_inurba_marseille","lat":43.27068,"lon":5.42276,"is_reserved":false,"is_disabled":false,"rental_uris":{"android":"levelo://app?vid=46af5b7f-5607-486d-bc57-2daa7d5b28e7","ios":"levelo://app?vid=46af5b7f-5607-486d-bc57-2daa7d5b28e7"},"vehicle_type_id":"4","last_reported":1731409643,"current_range_meters":38000,"station_id":"ce4bhk92rcd13ifvqgb0","pricing_plan_id":"cebpf4jnsgd1na2vs0mg"},{"bike_id":"5c7bd2ef-8d8f-4446-abaf-09dbef262f50","system_id":"levelo_inurba_marseille","lat":43.30955,"lon":5.39026,"is_reserved":false,"is_disabled":false,"rental_uris":{"android":"levelo://app?vid=5c7bd2ef-8d8f-4446-abaf-09dbef262f50","ios":"levelo://app?vid=5c7bd2ef-8d8f-4446-abaf-09dbef262f50"},"vehicle_type_id":"4","last_reported":1731409643,"current_range_meters":7200,"station_id":"ce4bgup2rcd13ifvqco0","pricing_plan_id":"cebpf4jnsgd1na2vs0mg"},{"bike_id":"66ffc6ac-13cb-4202-9c4e-4aeb0d86ffdf","system_id":"levelo_inurba_marseille","lat":43.28938,"lon":5.39631,"is_reserved":false,"is_disabled":false,"rental_uris":{"android":"levelo://app?vid=66ffc6ac-13cb-4202-9c4e-4aeb0d86ffdf","ios":"levelo://app?vid=66ffc6ac-13cb-4202-9c4e-4aeb0d86ffdf"},"vehicle_type_id":"4","last_reported":1731409643,"current_range_meters":32400,"station_id":"ce4bh3h2rcd13ifvqdn0","pricing_plan_id":"cebpf4jnsgd1na2vs0mg"},{"bike_id":"507284d9-4009-457e-bfa1-5ddbf58c6240","system_id":"levelo_inurba_marseille","lat":43.27175,"lon":5.40989,"is_reserved":false,"is_disabled":false,"rental_uris":{"android":"levelo://app?vid=507284d9-4009-457e-bfa1-5ddbf58c6240","ios":"levelo://app?vid=507284d9-4009-457e-bfa1-5ddbf58c6240"},"vehicle_type_id":"4","last_reported":1731409643,"current_range_meters":40000,"station_id":"ce4bhl12rcd13ifvqgf0","pricing_plan_id":"cebpf4jnsgd1na2vs0mg"},{"bike_id":"e01fd6b0-ac07-49fb-bb1f-2e453e216216","system_id":"levelo_inurba_marseille","lat":43.3154,"lon":5.38029,"is_reserved":false,"is_disabled":false,"rental_uris":{"android":"levelo://app?vid=e01fd6b0-ac07-49fb-bb1f-2e453e216216","ios":"levelo://app?vid=e01fd6b0-ac07-49fb-bb1f-2e453e216216"},"vehicle_type_id":"4","last_reported":1731409643,"current_range_meters":38400,"station_id":"ce4bhsp2rcd13ifvqi50","pricing_plan_id":"cebpf4jnsgd1na2vs0mg"},{"bike_id":"007ed1e0-5e71-46da-97d5-4d5c67a3b532","system_id":"levelo_inurba_marseille","lat":43.26681,"lon":5.38265,"is_reserved":false,"is_disabled":false,"rental_uris":{"android":"levelo://app?vid=007ed1e0-5e71-46da-97d5-4d5c67a3b532","ios":"levelo://app?vid=007ed1e0-5e71-46da-97d5-4d5c67a3b532"},"vehicle_type_id":"4","last_reported":1731409643,"current_range_meters":36800,"station_id":"ce4bhg92rcd13ifvqf90","pricing_plan_id":"cebpf4jnsgd1na2vs0mg"},{"bike_id":"62f5ce0e-90f2-4cf5-a3ef-fa5904dc77cf","system_id":"levelo_inurba_marseille","lat":43.29007,"lon":5.3561,"is_reserved":false,"is_disabled":false,"rental_uris":{"android":"levelo://app?vid=62f5ce0e-90f2-4cf5-a3ef-fa5904dc77cf","ios":"levelo://app?vid=62f5ce0e-90f2-4cf5-a3ef-fa5904dc77cf"},"vehicle_type_id":"4","last_reported":1731409643,"current_range_meters":34800,"station_id":"ce4bhb92rcd13ifvqen0","pricing_plan_id":"cebpf4jnsgd1na2vs0mg"},{"bike_id":"44a85343-f177-4904-8616-4b62e063a17c","system_id":"levelo_inurba_marseille","lat":43.29005,"lon":5.35618,"is_reserved":false,"is_disabled":false,"rental_uris":{"android":"levelo://app?vid=44a85343-f177-4904-8616-4b62e063a17c","ios":"levelo://app?vid=44a85343-f177-4904-8616-4b62e063a17c"},"vehicle_type_id":"4","last_reported":1731409643,"current_range_meters":38800,"station_id":"ce4bhb92rcd13ifvqen0","pricing_plan_id":"cebpf4jnsgd1na2vs0mg"},{"bike_id":"f4e02794-322e-4818-830c-8d3b2c66c4ee","system_id":"levelo_inurba_marseille","lat":43.33597,"lon":5.40956,"is_reserved":false,"is_disabled":false,"rental_uris":{"android":"levelo://app?vid=f4e02794-322e-4818-830c-8d3b2c66c4ee","ios":"levelo://app?vid=f4e02794-322e-4818-830c-8d3b2c66c4ee"},"vehicle_type_id":"4","last_reported":1731409643,"current_range_meters":37600,"station_id":"","pricing_plan_id":"cebpf4jnsgd1na2vs0mg"},{"bike_id":"59cb5f6e-efb7-4dab-b0b9-60fb27398b1c","system_id":"levelo_inurba_marseille","lat":43.27962,"lon":5.38727,"is_reserved":false,"is_disabled":false,"rental_uris":{"android":"levelo://app?vid=59cb5f6e-efb7-4dab-b0b9-60fb27398b1c","ios":"levelo://app?vid=59cb5f6e-efb7-4dab-b0b9-60fb27398b1c"},"vehicle_type_id":"4","last_reported":1731409643,"current_range_meters":39200,"station_id":"ce4bhg12rcd13ifvqf80","pricing_plan_id":"cebpf4jnsgd1na2vs0mg"},{"bike_id":"59d7e861-e3d3-4088-bc9c-c43fc36cf4fe","system_id":"levelo_inurba_marseille","lat":43.24084,"lon":5.37744,"is_reserved":false,"is_disabled":false,"rental_uris":{"android":"levelo://app?vid=59d7e861-e3d3-4088-bc9c-c43fc36cf4fe","ios":"levelo://app?vid=59d7e861-e3d3-4088-bc9c-c43fc36cf4fe"},"vehicle_type_id":"4","last_reported":1731409643,"current_range_meters":7200,"station_id":"ce4bhnp2rcd13ifvqgvg","pricing_plan_id":"cebpf4jnsgd1na2vs0mg"},{"bike_id":"9e15b188-2341-4d66-8a22-cefbe21774ba","system_id":"levelo_inurba_marseille","lat":43.31223,"lon":5.36847,"is_reserved":false,"is_disabled":false,"rental_uris":{"android":"levelo://app?vid=9e15b188-2341-4d66-8a22-cefbe21774ba","ios":"levelo://app?vid=9e15b188-2341-4d66-8a22-cefbe21774ba"},"vehicle_type_id":"4","last_reported":1731409643,"current_range_meters":27600,"station_id":"ce4bgl92rcd13ifvqbq0","pricing_plan_id":"cebpf4jnsgd1na2vs0mg"},{"bike_id":"ae5855c0-8447-495f-a998-74b81686d82e","system_id":"levelo_inurba_marseille","lat":43.26684,"lon":5.38271,"is_reserved":false,"is_disabled":false,"rental_uris":{"android":"levelo://app?vid=ae5855c0-8447-495f-a998-74b81686d82e","ios":"levelo://app?vid=ae5855c0-8447-495f-a998-74b81686d82e"},"vehicle_type_id":"4","last_reported":1731409643,"current_range_meters":39200,"station_id":"ce4bhg92rcd13ifvqf90","pricing_plan_id":"cebpf4jnsgd1na2vs0mg"},{"bike_id":"d265751d-fa37-4729-b8e3-a5848e7e9d07","system_id":"levelo_inurba_marseille","lat":43.24804,"lon":5.37455,"is_reserved":false,"is_disabled":false,"rental_uris":{"android":"levelo://app?vid=d265751d-fa37-4729-b8e3-a5848e7e9d07","ios":"levelo://app?vid=d265751d-fa37-4729-b8e3-a5848e7e9d07"},"vehicle_type_id":"4","last_reported":1731409643,"current_range_meters":40000,"station_id":"ce4bhgh2rcd13ifvqfb0","pricing_plan_id":"cebpf4jnsgd1na2vs0mg"},{"bike_id":"fe07fd77-3205-47d7-9e01-803f3819e0ee","system_id":"levelo_inurba_marseille","lat":43.293,"lon":5.37169,"is_reserved":false,"is_disabled":false,"rental_uris":{"android":"levelo://app?vid=fe07fd77-3205-47d7-9e01-803f3819e0ee","ios":"levelo://app?vid=fe07fd77-3205-47d7-9e01-803f3819e0ee"},"vehicle_type_id":"4","last_reported":1731409643,"current_range_meters":36800,"station_id":"ce4bgh92rcd13ifvqb40","pricing_plan_id":"cebpf4jnsgd1na2vs0mg"},{"bike_id":"991bef25-7582-49b4-bbf4-c554ae6b520f","system_id":"levelo_inurba_marseille","lat":43.29851,"lon":5.36284,"is_reserved":false,"is_disabled":false,"rental_uris":{"android":"levelo://app?vid=991bef25-7582-49b4-bbf4-c554ae6b520f","ios":"levelo://app?vid=991bef25-7582-49b4-bbf4-c554ae6b520f"},"vehicle_type_id":"4","last_reported":1731409643,"current_range_meters":38800,"station_id":"ce4bgpp2rcd13ifvqc3g","pricing_plan_id":"cebpf4jnsgd1na2vs0mg"},{"bike_id":"de5a09c1-707a-4a2e-a914-ddc3bc54efa0","system_id":"levelo_inurba_marseille","lat":43.30883,"lon":5.39654,"is_reserved":false,"is_disabled":false,"rental_uris":{"android":"levelo://app?vid=de5a09c1-707a-4a2e-a914-ddc3bc54efa0","ios":"levelo://app?vid=de5a09c1-707a-4a2e-a914-ddc3bc54efa0"},"vehicle_type_id":"4","last_reported":1731409643,"current_range_meters":17600,"station_id":"ce4bh012rcd13ifvqcv0","pricing_plan_id":"cebpf4jnsgd1na2vs0mg"},{"bike_id":"ee54c23e-a693-4bf4-8cc3-6b985168b303","system_id":"levelo_inurba_marseille","lat":43.29032,"lon":5.37542,"is_reserved":false,"is_disabled":false,"rental_uris":{"android":"levelo://app?vid=ee54c23e-a693-4bf4-8cc3-6b985168b303","ios":"levelo://app?vid=ee54c23e-a693-4bf4-8cc3-6b985168b303"},"vehicle_type_id":"4","last_reported":1731409643,"current_range_meters":34800,"station_id":"ce4bh692rcd13ifvqe90","pricing_plan_id":"cebpf4jnsgd1na2vs0mg"},{"bike_id":"2d7d38c2-b644-4d0a-af28-ab7627eadaac","system_id":"levelo_inurba_marseille","lat":43.32656,"lon":5.40993,"is_reserved":false,"is_disabled":false,"rental_uris":{"android":"levelo://app?vid=2d7d38c2-b644-4d0a-af28-ab7627eadaac","ios":"levelo://app?vid=2d7d38c2-b644-4d0a-af28-ab7627eadaac"},"vehicle_type_id":"4","last_reported":1731409643,"current_range_meters":38800,"station_id":"ce4bhpp2rcd13ifvqhgg","pricing_plan_id":"cebpf4jnsgd1na2vs0mg"},{"bike_id":"fe73e3cb-f7c2-4cbf-ac25-5573a91d6bdc","system_id":"levelo_inurba_marseille","lat":43.28156,"lon":5.42647,"is_reserved":false,"is_disabled":false,"rental_uris":{"android":"levelo://app?vid=fe73e3cb-f7c2-4cbf-ac25-5573a91d6bdc","ios":"levelo://app?vid=fe73e3cb-f7c2-4cbf-ac25-5573a91d6bdc"},"vehicle_type_id":"4","last_reported":1731409643,"current_range_meters":7200,"station_id":"ce4bhnh2rcd13ifvqgug","pricing_plan_id":"cebpf4jnsgd1na2vs0mg"},{"bike_id":"854cc6d2-b142-4d3f-962e-1a00b540bb95","system_id":"levelo_inurba_marseille","lat":43.30535,"lon":5.36702,"is_reserved":false,"is_disabled":false,"rental_uris":{"android":"levelo://app?vid=854cc6d2-b142-4d3f-962e-1a00b540bb95","ios":"levelo://app?vid=854cc6d2-b142-4d3f-962e-1a00b540bb95"},"vehicle_type_id":"4","last_reported":1731409643,"current_range_meters":36000,"station_id":"ce4bgrp2rcd13ifvqc9g","pricing_plan_id":"cebpf4jnsgd1na2vs0mg"},{"bike_id":"045fa092-c556-494e-a6a1-0ca5581222fe","system_id":"levelo_inurba_marseille","lat":43.29366,"lon":5.37818,"is_reserved":false,"is_disabled":false,"rental_uris":{"android":"levelo://app?vid=045fa092-c556-494e-a6a1-0ca5581222fe","ios":"levelo://app?vid=045fa092-c556-494e-a6a1-0ca5581222fe"},"vehicle_type_id":"4","last_reported":1731409643,"current_range_meters":29600,"station_id":"ce4bgjh2rcd13ifvqbf0","pricing_plan_id":"cebpf4jnsgd1na2vs0mg"},{"bike_id":"e38a54a5-e8f5-48fa-94c4-bd459411d511","system_id":"levelo_inurba_marseille","lat":43.30219,"lon":5.39483,"is_reserved":false,"is_disabled":false,"rental_uris":{"android":"levelo://app?vid=e38a54a5-e8f5-48fa-94c4-bd459411d511","ios":"levelo://app?vid=e38a54a5-e8f5-48fa-94c4-bd459411d511"},"vehicle_type_id":"4","last_reported":1731409643,"current_range_meters":33600,"station_id":"ce4bgj12rcd13ifvqbc0","pricing_plan_id":"cebpf4jnsgd1na2vs0mg"},{"bike_id":"dafcd14f-9c44-41c3-ab9c-fa462e1c91ac","system_id":"levelo_inurba_marseille","lat":43.25938,"lon":5.40907,"is_reserved":false,"is_disabled":false,"rental_uris":{"android":"levelo://app?vid=dafcd14f-9c44-41c3-ab9c-fa462e1c91ac","ios":"levelo://app?vid=dafcd14f-9c44-41c3-ab9c-fa462e1c91ac"},"vehicle_type_id":"4","last_reported":1731409643,"current_range_meters":30000,"station_id":"ce4bhm92rcd13ifvqglg","pricing_plan_id":"cebpf4jnsgd1na2vs0mg"},{"bike_id":"bd26570d-a2ca-49b3-9fa5-5c4606a10674","system_id":"levelo_inurba_marseille","lat":43.30954,"lon":5.39045,"is_reserved":false,"is_disabled":false,"rental_uris":{"android":"levelo://app?vid=bd26570d-a2ca-49b3-9fa5-5c4606a10674","ios":"levelo://app?vid=bd26570d-a2ca-49b3-9fa5-5c4606a10674"},"vehicle_type_id":"4","last_reported":1731409643,"current_range_meters":8000,"station_id":"ce4bgup2rcd13ifvqco0","pricing_plan_id":"cebpf4jnsgd1na2vs0mg"},{"bike_id":"5a600eae-0831-49a6-8b60-e89d4e136c61","system_id":"levelo_inurba_marseille","lat":43.29004,"lon":5.35612,"is_reserved":false,"is_disabled":false,"rental_uris":{"android":"levelo://app?vid=5a600eae-0831-49a6-8b60-e89d4e136c61","ios":"levelo://app?vid=5a600eae-0831-49a6-8b60-e89d4e136c61"},"vehicle_type_id":"4","last_reported":1731409643,"current_range_meters":8800,"station_id":"ce4bhb92rcd13ifvqen0","pricing_plan_id":"cebpf4jnsgd1na2vs0mg"},{"bike_id":"738829f9-dd7c-4589-b83a-eb41b98fd267","system_id":"levelo_inurba_marseille","lat":43.29305,"lon":5.37177,"is_reserved":false,"is_disabled":false,"rental_uris":{"android":"levelo://app?vid=738829f9-dd7c-4589-b83a-eb41b98fd267","ios":"levelo://app?vid=738829f9-dd7c-4589-b83a-eb41b98fd267"},"vehicle_type_id":"4","last_reported":1731409643,"current_range_meters":38400,"station_id":"ce4bgh92rcd13ifvqb40","pricing_plan_id":"cebpf4jnsgd1na2vs0mg"},{"bike_id":"17e0f37a-2580-4ed0-be77-547ca60aa971","system_id":"levelo_inurba_marseille","lat":43.30141,"lon":5.37427,"is_reserved":false,"is_disabled":false,"rental_uris":{"android":"levelo://app?vid=17e0f37a-2580-4ed0-be77-547ca60aa971","ios":"levelo://app?vid=17e0f37a-2580-4ed0-be77-547ca60aa971"},"vehicle_type_id":"4","last_reported":1731409643,"current_range_meters":19600,"station_id":"ce4bgs92rcd13ifvqcc0","pricing_plan_id":"cebpf4jnsgd1na2vs0mg"},{"bike_id":"531c2e3e-338c-45a3-9e8c-62e145c739b7","system_id":"levelo_inurba_marseille","lat":43.29803,"lon":5.40398,"is_reserved":false,"is_disabled":false,"rental_uris":{"android":"levelo://app?vid=531c2e3e-338c-45a3-9e8c-62e145c739b7","ios":"levelo://app?vid=531c2e3e-338c-45a3-9e8c-62e145c739b7"},"vehicle_type_id":"4","last_reported":1731409643,"current_range_meters":38000,"station_id":"ce4bh112rcd13ifvqd90","pricing_plan_id":"cebpf4jnsgd1na2vs0mg"},{"bike_id":"42a69aee-5a32-4251-aa6a-621ee3bb45e2","system_id":"levelo_inurba_marseille","lat":43.28364,"lon":5.38636,"is_reserved":false,"is_disabled":false,"rental_uris":{"android":"levelo://app?vid=42a69aee-5a32-4251-aa6a-621ee3bb45e2","ios":"levelo://app?vid=42a69aee-5a32-4251-aa6a-621ee3bb45e2"},"vehicle_type_id":"4","last_reported":1731409643,"current_range_meters":37600,"station_id":"ce4bh492rcd13ifvqdvg","pricing_plan_id":"cebpf4jnsgd1na2vs0mg"},{"bike_id":"28ed024a-eca2-42ce-a85a-8ca29d72a8fa","system_id":"levelo_inurba_marseille","lat":43.29033,"lon":5.3997,"is_reserved":false,"is_disabled":false,"rental_uris":{"android":"levelo://app?vid=28ed024a-eca2-42ce-a85a-8ca29d72a8fa","ios":"levelo://app?vid=28ed024a-eca2-42ce-a85a-8ca29d72a8fa"},"vehicle_type_id":"4","last_reported":1731409643,"current_range_meters":30000,"station_id":"ce4bh392rcd13ifvqdm0","pricing_plan_id":"cebpf4jnsgd1na2vs0mg"},{"bike_id":"0684e8de-1ed0-4d50-b2f3-905f4d747c1c","system_id":"levelo_inurba_marseille","lat":43.29028,"lon":5.39974,"is_reserved":false,"is_disabled":false,"rental_uris":{"android":"levelo://app?vid=0684e8de-1ed0-4d50-b2f3-905f4d747c1c","ios":"levelo://app?vid=0684e8de-1ed0-4d50-b2f3-905f4d747c1c"},"vehicle_type_id":"4","last_reported":1731409643,"current_range_meters":29600,"station_id":"ce4bh392rcd13ifvqdm0","pricing_plan_id":"cebpf4jnsgd1na2vs0mg"},{"bike_id":"3cb5b3a5-01be-402a-8bcf-739810346bdb","system_id":"levelo_inurba_marseille","lat":43.26676,"lon":5.38261,"is_reserved":false,"is_disabled":false,"rental_uris":{"android":"levelo://app?vid=3cb5b3a5-01be-402a-8bcf-739810346bdb","ios":"levelo://app?vid=3cb5b3a5-01be-402a-8bcf-739810346bdb"},"vehicle_type_id":"4","last_reported":1731409643,"current_range_meters":32000,"station_id":"ce4bhg92rcd13ifvqf90","pricing_plan_id":"cebpf4jnsgd1na2vs0mg"},{"bike_id":"07711978-ee68-4909-b304-9ef505ca69b6","system_id":"levelo_inurba_marseille","lat":43.27997,"lon":5.400081,"is_reserved":false,"is_disabled":false,"rental_uris":{"android":"levelo://app?vid=07711978-ee68-4909-b304-9ef505ca69b6","ios":"levelo://app?vid=07711978-ee68-4909-b304-9ef505ca69b6"},"vehicle_type_id":"4","last_reported":1731409643,"current_range_meters":36800,"station_id":"ce4bho92rcd13ifvqh4g","pricing_plan_id":"cebpf4jnsgd1na2vs0mg"},{"bike_id":"7c77f153-89f7-4f94-9d7b-5a3a3b371ccb","system_id":"levelo_inurba_marseille","lat":43.27912,"lon":5.39589,"is_reserved":false,"is_disabled":false,"rental_uris":{"android":"levelo://app?vid=7c77f153-89f7-4f94-9d7b-5a3a3b371ccb","ios":"levelo://app?vid=7c77f153-89f7-4f94-9d7b-5a3a3b371ccb"},"vehicle_type_id":"4","last_reported":1731409643,"current_range_meters":35600,"station_id":"ce4bhf92rcd13ifvqf40","pricing_plan_id":"cebpf4jnsgd1na2vs0mg"},{"bike_id":"dd4f2432-2e58-489d-bd39-7f983a7de499","system_id":"levelo_inurba_marseille","lat":43.30542,"lon":5.36697,"is_reserved":false,"is_disabled":false,"rental_uris":{"android":"levelo://app?vid=dd4f2432-2e58-489d-bd39-7f983a7de499","ios":"levelo://app?vid=dd4f2432-2e58-489d-bd39-7f983a7de499"},"vehicle_type_id":"4","last_reported":1731409643,"current_range_meters":16800,"station_id":"ce4bgrp2rcd13ifvqc9g","pricing_plan_id":"cebpf4jnsgd1na2vs0mg"},{"bike_id":"e8e02d9c-9f18-44fb-893f-40424ddd086b","system_id":"levelo_inurba_marseille","lat":43.28453,"lon":5.35896,"is_reserved":false,"is_disabled":false,"rental_uris":{"android":"levelo://app?vid=e8e02d9c-9f18-44fb-893f-40424ddd086b","ios":"levelo://app?vid=e8e02d9c-9f18-44fb-893f-40424ddd086b"},"vehicle_type_id":"4","last_reported":1731409643,"current_range_meters":38800,"station_id":"ce4bhah2rcd13ifvqei0","pricing_plan_id":"cebpf4jnsgd1na2vs0mg"},{"bike_id":"c27e8afc-2cf0-4293-ac94-5f595fd58798","system_id":"levelo_inurba_marseille","lat":43.29312,"lon":5.37172,"is_reserved":false,"is_disabled":false,"rental_uris":{"android":"levelo://app?vid=c27e8afc-2cf0-4293-ac94-5f595fd58798","ios":"levelo://app?vid=c27e8afc-2cf0-4293-ac94-5f595fd58798"},"vehicle_type_id":"4","last_reported":1731409643,"current_range_meters":38800,"station_id":"ce4bgh92rcd13ifvqb40","pricing_plan_id":"cebpf4jnsgd1na2vs0mg"},{"bike_id":"1740a8aa-c44f-4c36-a230-385a32395a5f","system_id":"levelo_inurba_marseille","lat":43.28723,"lon":5.36079,"is_reserved":false,"is_disabled":false,"rental_uris":{"android":"levelo://app?vid=1740a8aa-c44f-4c36-a230-385a32395a5f","ios":"levelo://app?vid=1740a8aa-c44f-4c36-a230-385a32395a5f"},"vehicle_type_id":"4","last_reported":1731409643,"current_range_meters":9600,"station_id":"cki0cbj6b192h4jlfktg","pricing_plan_id":"cebpf4jnsgd1na2vs0mg"},{"bike_id":"2dd7535a-c116-4669-8e1d-caa19e32b5ba","system_id":"levelo_inurba_marseille","lat":43.24083,"lon":5.37743,"is_reserved":false,"is_disabled":false,"rental_uris":{"android":"levelo://app?vid=2dd7535a-c116-4669-8e1d-caa19e32b5ba","ios":"levelo://app?vid=2dd7535a-c116-4669-8e1d-caa19e32b5ba"},"vehicle_type_id":"4","last_reported":1731409643,"current_range_meters":16000,"station_id":"ce4bhnp2rcd13ifvqgvg","pricing_plan_id":"cebpf4jnsgd1na2vs0mg"},{"bike_id":"49b0845e-ad22-4b4f-9f0d-b26177b171e8","system_id":"levelo_inurba_marseille","lat":43.33605,"lon":5.4103,"is_reserved":false,"is_disabled":false,"rental_uris":{"android":"levelo://app?vid=49b0845e-ad22-4b4f-9f0d-b26177b171e8","ios":"levelo://app?vid=49b0845e-ad22-4b4f-9f0d-b26177b171e8"},"vehicle_type_id":"4","last_reported":1731409643,"current_range_meters":32800,"station_id":"ce4bhqh2rcd13ifvqhmg","pricing_plan_id":"cebpf4jnsgd1na2vs0mg"},{"bike_id":"2b3e0803-0bd7-448b-99a4-0fce636af499","system_id":"levelo_inurba_marseille","lat":43.30552,"lon":5.36529,"is_reserved":false,"is_disabled":false,"rental_uris":{"android":"levelo://app?vid=2b3e0803-0bd7-448b-99a4-0fce636af499","ios":"levelo://app?vid=2b3e0803-0bd7-448b-99a4-0fce636af499"},"vehicle_type_id":"4","last_reported":1731409643,"current_range_meters":28800,"station_id":"ce4bgs12rcd13ifvqcag","pricing_plan_id":"cebpf4jnsgd1na2vs0mg"},{"bike_id":"2fc73087-ce12-4d3b-a245-243c53b13fea","system_id":"levelo_inurba_marseille","lat":43.24074,"lon":5.37758,"is_reserved":false,"is_disabled":false,"rental_uris":{"android":"levelo://app?vid=2fc73087-ce12-4d3b-a245-243c53b13fea","ios":"levelo://app?vid=2fc73087-ce12-4d3b-a245-243c53b13fea"},"vehicle_type_id":"4","last_reported":1731409643,"current_range_meters":36400,"station_id":"ce4bhnp2rcd13ifvqgvg","pricing_plan_id":"cebpf4jnsgd1na2vs0mg"},{"bike_id":"fc818519-d1db-46e1-8384-9d8c8815487a","system_id":"levelo_inurba_marseille","lat":43.30555,"lon":5.36544,"is_reserved":false,"is_disabled":false,"rental_uris":{"android":"levelo://app?vid=fc818519-d1db-46e1-8384-9d8c8815487a","ios":"levelo://app?vid=fc818519-d1db-46e1-8384-9d8c8815487a"},"vehicle_type_id":"4","last_reported":1731409643,"current_range_meters":20400,"station_id":"ce4bgs12rcd13ifvqcag","pricing_plan_id":"cebpf4jnsgd1na2vs0mg"},{"bike_id":"8ac24647-eec0-42c8-97be-c751bce2e1bf","system_id":"levelo_inurba_marseille","lat":43.24069,"lon":5.37744,"is_reserved":false,"is_disabled":false,"rental_uris":{"android":"levelo://app?vid=8ac24647-eec0-42c8-97be-c751bce2e1bf","ios":"levelo://app?vid=8ac24647-eec0-42c8-97be-c751bce2e1bf"},"vehicle_type_id":"4","last_reported":1731409643,"current_range_meters":17600,"station_id":"ce4bhnp2rcd13ifvqgvg","pricing_plan_id":"cebpf4jnsgd1na2vs0mg"},{"bike_id":"212b6c3f-ace3-45e8-99f0-447547f69bd6","system_id":"levelo_inurba_marseille","lat":43.27989,"lon":5.41654,"is_reserved":false,"is_disabled":false,"rental_uris":{"android":"levelo://app?vid=212b6c3f-ace3-45e8-99f0-447547f69bd6","ios":"levelo://app?vid=212b6c3f-ace3-45e8-99f0-447547f69bd6"},"vehicle_type_id":"4","last_reported":1731409643,"current_range_meters":38800,"station_id":"ce4bho12rcd13ifvqh1g","pricing_plan_id":"cebpf4jnsgd1na2vs0mg"},{"bike_id":"5b923780-51a4-40e6-ad1c-e622ba0683f6","system_id":"levelo_inurba_marseille","lat":43.2408,"lon":5.3774,"is_reserved":false,"is_disabled":false,"rental_uris":{"android":"levelo://app?vid=5b923780-51a4-40e6-ad1c-e622ba0683f6","ios":"levelo://app?vid=5b923780-51a4-40e6-ad1c-e622ba0683f6"},"vehicle_type_id":"4","last_reported":1731409643,"current_range_meters":28800,"station_id":"ce4bhnp2rcd13ifvqgvg","pricing_plan_id":"cebpf4jnsgd1na2vs0mg"},{"bike_id":"960172c6-23a4-41d0-9469-6fbced3cceec","system_id":"levelo_inurba_marseille","lat":43.24386,"lon":5.37055,"is_reserved":false,"is_disabled":false,"rental_uris":{"android":"levelo://app?vid=960172c6-23a4-41d0-9469-6fbced3cceec","ios":"levelo://app?vid=960172c6-23a4-41d0-9469-6fbced3cceec"},"vehicle_type_id":"4","last_reported":1731409643,"current_range_meters":27200,"station_id":"ce4bhhh2rcd13ifvqfk0","pricing_plan_id":"cebpf4jnsgd1na2vs0mg"},{"bike_id":"e22216cd-d03c-4e71-9142-0216787e0fd7","system_id":"levelo_inurba_marseille","lat":43.3095,"lon":5.39035,"is_reserved":false,"is_disabled":false,"rental_uris":{"android":"levelo://app?vid=e22216cd-d03c-4e71-9142-0216787e0fd7","ios":"levelo://app?vid=e22216cd-d03c-4e71-9142-0216787e0fd7"},"vehicle_type_id":"4","last_reported":1731409643,"current_range_meters":38800,"station_id":"ce4bgup2rcd13ifvqco0","pricing_plan_id":"cebpf4jnsgd1na2vs0mg"},{"bike_id":"986d0b41-bd0d-4053-9756-dde640f402ab","system_id":"levelo_inurba_marseille","lat":43.25817,"lon":5.39432,"is_reserved":false,"is_disabled":false,"rental_uris":{"android":"levelo://app?vid=986d0b41-bd0d-4053-9756-dde640f402ab","ios":"levelo://app?vid=986d0b41-bd0d-4053-9756-dde640f402ab"},"vehicle_type_id":"4","last_reported":1731409643,"current_range_meters":37600,"station_id":"ce4bhip2rcd13ifvqft0","pricing_plan_id":"cebpf4jnsgd1na2vs0mg"},{"bike_id":"4a425be3-1529-4ef4-8764-12dbd002177b","system_id":"levelo_inurba_marseille","lat":43.27811,"lon":5.40708,"is_reserved":false,"is_disabled":false,"rental_uris":{"android":"levelo://app?vid=4a425be3-1529-4ef4-8764-12dbd002177b","ios":"levelo://app?vid=4a425be3-1529-4ef4-8764-12dbd002177b"},"vehicle_type_id":"4","last_reported":1731409643,"current_range_meters":38000,"station_id":"ce4bhnh2rcd13ifvqgtg","pricing_plan_id":"cebpf4jnsgd1na2vs0mg"},{"bike_id":"6b5b780b-1915-41f3-95ca-02dd8c70600f","system_id":"levelo_inurba_marseille","lat":43.25497,"lon":5.37648,"is_reserved":false,"is_disabled":false,"rental_uris":{"android":"levelo://app?vid=6b5b780b-1915-41f3-95ca-02dd8c70600f","ios":"levelo://app?vid=6b5b780b-1915-41f3-95ca-02dd8c70600f"},"vehicle_type_id":"4","last_reported":1731409643,"current_range_meters":36400,"station_id":"ce4bhh12rcd13ifvqff0","pricing_plan_id":"cebpf4jnsgd1na2vs0mg"},{"bike_id":"c163e46b-1824-47bf-ad06-c8918927efc9","system_id":"levelo_inurba_marseille","lat":43.29724,"lon":5.3769,"is_reserved":false,"is_disabled":false,"rental_uris":{"android":"levelo://app?vid=c163e46b-1824-47bf-ad06-c8918927efc9","ios":"levelo://app?vid=c163e46b-1824-47bf-ad06-c8918927efc9"},"vehicle_type_id":"4","last_reported":1731409643,"current_range_meters":28000,"station_id":"ce4bgkh2rcd13ifvqbl0","pricing_plan_id":"cebpf4jnsgd1na2vs0mg"},{"bike_id":"4c63f235-e9cc-4210-bae9-e21c561a3d2c","system_id":"levelo_inurba_marseille","lat":43.3019,"lon":5.36616,"is_reserved":false,"is_disabled":false,"rental_uris":{"android":"levelo://app?vid=4c63f235-e9cc-4210-bae9-e21c561a3d2c","ios":"levelo://app?vid=4c63f235-e9cc-4210-bae9-e21c561a3d2c"},"vehicle_type_id":"4","last_reported":1731409643,"current_range_meters":37600,"station_id":"ce4bgrh2rcd13ifvqc8g","pricing_plan_id":"cebpf4jnsgd1na2vs0mg"},{"bike_id":"647d87d8-ed03-4344-9ce2-6aeae85a7109","system_id":"levelo_inurba_marseille","lat":43.28566,"lon":5.39502,"is_reserved":false,"is_disabled":false,"rental_uris":{"android":"levelo://app?vid=647d87d8-ed03-4344-9ce2-6aeae85a7109","ios":"levelo://app?vid=647d87d8-ed03-4344-9ce2-6aeae85a7109"},"vehicle_type_id":"4","last_reported":1731409643,"current_range_meters":6400,"station_id":"ce4bh292rcd13ifvqdg0","pricing_plan_id":"cebpf4jnsgd1na2vs0mg"},{"bike_id":"5d09e6d8-7baf-4f7b-8afc-b1d8b65ff16d","system_id":"levelo_inurba_marseille","lat":43.29523,"lon":5.39041,"is_reserved":false,"is_disabled":false,"rental_uris":{"android":"levelo://app?vid=5d09e6d8-7baf-4f7b-8afc-b1d8b65ff16d","ios":"levelo://app?vid=5d09e6d8-7baf-4f7b-8afc-b1d8b65ff16d"},"vehicle_type_id":"4","last_reported":1731409643,"current_range_meters":26800,"station_id":"ce4bh3p2rcd13ifvqdp0","pricing_plan_id":"cebpf4jnsgd1na2vs0mg"},{"bike_id":"fc9498f0-0bb9-4724-ad4e-bc81738e5dd8","system_id":"levelo_inurba_marseille","lat":43.24073,"lon":5.37753,"is_reserved":false,"is_disabled":false,"rental_uris":{"android":"levelo://app?vid=fc9498f0-0bb9-4724-ad4e-bc81738e5dd8","ios":"levelo://app?vid=fc9498f0-0bb9-4724-ad4e-bc81738e5dd8"},"vehicle_type_id":"4","last_reported":1731409643,"current_range_meters":14000,"station_id":"ce4bhnp2rcd13ifvqgvg","pricing_plan_id":"cebpf4jnsgd1na2vs0mg"},{"bike_id":"ac702bda-51a4-4f87-bb8b-945bd68c9bd2","system_id":"levelo_inurba_marseille","lat":43.27439,"lon":5.39407,"is_reserved":false,"is_disabled":false,"rental_uris":{"android":"levelo://app?vid=ac702bda-51a4-4f87-bb8b-945bd68c9bd2","ios":"levelo://app?vid=ac702bda-51a4-4f87-bb8b-945bd68c9bd2"},"vehicle_type_id":"4","last_reported":1731409643,"current_range_meters":30400,"station_id":"ce4bhdp2rcd13ifvqf20","pricing_plan_id":"cebpf4jnsgd1na2vs0mg"},{"bike_id":"3418ac43-f884-441f-8da3-861a705100f3","system_id":"levelo_inurba_marseille","lat":43.29001,"lon":5.35601,"is_reserved":false,"is_disabled":false,"rental_uris":{"android":"levelo://app?vid=3418ac43-f884-441f-8da3-861a705100f3","ios":"levelo://app?vid=3418ac43-f884-441f-8da3-861a705100f3"},"vehicle_type_id":"4","last_reported":1731409643,"current_range_meters":35200,"station_id":"ce4bhb92rcd13ifvqen0","pricing_plan_id":"cebpf4jnsgd1na2vs0mg"},{"bike_id":"463cba24-21d4-4260-8b18-2590a82a7574","system_id":"levelo_inurba_marseille","lat":43.24067,"lon":5.37763,"is_reserved":false,"is_disabled":false,"rental_uris":{"android":"levelo://app?vid=463cba24-21d4-4260-8b18-2590a82a7574","ios":"levelo://app?vid=463cba24-21d4-4260-8b18-2590a82a7574"},"vehicle_type_id":"4","last_reported":1731409643,"current_range_meters":24800,"station_id":"ce4bhnp2rcd13ifvqgvg","pricing_plan_id":"cebpf4jnsgd1na2vs0mg"},{"bike_id":"b014ac5f-c510-47f2-b61d-4fbfcfa8e103","system_id":"levelo_inurba_marseille","lat":43.25939,"lon":5.40907,"is_reserved":false,"is_disabled":false,"rental_uris":{"android":"levelo://app?vid=b014ac5f-c510-47f2-b61d-4fbfcfa8e103","ios":"levelo://app?vid=b014ac5f-c510-47f2-b61d-4fbfcfa8e103"},"vehicle_type_id":"4","last_reported":1731409643,"current_range_meters":38800,"station_id":"ce4bhm92rcd13ifvqglg","pricing_plan_id":"cebpf4jnsgd1na2vs0mg"},{"bike_id":"31c32401-df06-402e-8dde-bc5d6c9fdeb1","system_id":"levelo_inurba_marseille","lat":43.28374,"lon":5.38642,"is_reserved":false,"is_disabled":false,"rental_uris":{"android":"levelo://app?vid=31c32401-df06-402e-8dde-bc5d6c9fdeb1","ios":"levelo://app?vid=31c32401-df06-402e-8dde-bc5d6c9fdeb1"},"vehicle_type_id":"4","last_reported":1731409643,"current_range_meters":39200,"station_id":"ce4bh492rcd13ifvqdvg","pricing_plan_id":"cebpf4jnsgd1na2vs0mg"},{"bike_id":"bdf0beac-151c-434e-af99-7b13a1d3236a","system_id":"levelo_inurba_marseille","lat":43.29273,"lon":5.36847,"is_reserved":false,"is_disabled":false,"rental_uris":{"android":"levelo://app?vid=bdf0beac-151c-434e-af99-7b13a1d3236a","ios":"levelo://app?vid=bdf0beac-151c-434e-af99-7b13a1d3236a"},"vehicle_type_id":"4","last_reported":1731409643,"current_range_meters":38400,"station_id":"ce4bhbp2rcd13ifvqesg","pricing_plan_id":"cebpf4jnsgd1na2vs0mg"},{"bike_id":"4005ddf1-0e61-4574-92c1-8edf3681e4e2","system_id":"levelo_inurba_marseille","lat":43.34149,"lon":5.40909,"is_reserved":false,"is_disabled":false,"rental_uris":{"android":"levelo://app?vid=4005ddf1-0e61-4574-92c1-8edf3681e4e2","ios":"levelo://app?vid=4005ddf1-0e61-4574-92c1-8edf3681e4e2"},"vehicle_type_id":"4","last_reported":1731409643,"current_range_meters":35600,"station_id":"ce4bhqh2rcd13ifvqhlg","pricing_plan_id":"cebpf4jnsgd1na2vs0mg"},{"bike_id":"594177b5-d4e2-4078-b07a-3c829c1e9fc3","system_id":"levelo_inurba_marseille","lat":43.3014,"lon":5.37425,"is_reserved":false,"is_disabled":false,"rental_uris":{"android":"levelo://app?vid=594177b5-d4e2-4078-b07a-3c829c1e9fc3","ios":"levelo://app?vid=594177b5-d4e2-4078-b07a-3c829c1e9fc3"},"vehicle_type_id":"4","last_reported":1731409643,"current_range_meters":27200,"station_id":"ce4bgs92rcd13ifvqcc0","pricing_plan_id":"cebpf4jnsgd1na2vs0mg"},{"bike_id":"b7166fc3-f3d5-448e-aff7-614069f01ee0","system_id":"levelo_inurba_marseille","lat":43.30533,"lon":5.36537,"is_reserved":false,"is_disabled":false,"rental_uris":{"android":"levelo://app?vid=b7166fc3-f3d5-448e-aff7-614069f01ee0","ios":"levelo://app?vid=b7166fc3-f3d5-448e-aff7-614069f01ee0"},"vehicle_type_id":"4","last_reported":1731409643,"current_range_meters":28000,"station_id":"ce4bgs12rcd13ifvqcag","pricing_plan_id":"cebpf4jnsgd1na2vs0mg"},{"bike_id":"02a3f1fa-1b00-4bb2-8845-d89d50875ff5","system_id":"levelo_inurba_marseille","lat":43.32366,"lon":5.38882,"is_reserved":false,"is_disabled":false,"rental_uris":{"android":"levelo://app?vid=02a3f1fa-1b00-4bb2-8845-d89d50875ff5","ios":"levelo://app?vid=02a3f1fa-1b00-4bb2-8845-d89d50875ff5"},"vehicle_type_id":"4","last_reported":1731409643,"current_range_meters":36800,"station_id":"ce4bhqp2rcd13ifvqhog","pricing_plan_id":"cebpf4jnsgd1na2vs0mg"},{"bike_id":"da1e89e2-3210-4014-8329-78e281a0a3ac","system_id":"levelo_inurba_marseille","lat":43.33618,"lon":5.41032,"is_reserved":false,"is_disabled":false,"rental_uris":{"android":"levelo://app?vid=da1e89e2-3210-4014-8329-78e281a0a3ac","ios":"levelo://app?vid=da1e89e2-3210-4014-8329-78e281a0a3ac"},"vehicle_type_id":"4","last_reported":1731409643,"current_range_meters":38000,"station_id":"ce4bhqh2rcd13ifvqhmg","pricing_plan_id":"cebpf4jnsgd1na2vs0mg"},{"bike_id":"91396e2c-9f64-4b07-9603-7237ff652da5","system_id":"levelo_inurba_marseille","lat":43.28156,"lon":5.42642,"is_reserved":false,"is_disabled":false,"rental_uris":{"android":"levelo://app?vid=91396e2c-9f64-4b07-9603-7237ff652da5","ios":"levelo://app?vid=91396e2c-9f64-4b07-9603-7237ff652da5"},"vehicle_type_id":"4","last_reported":1731409643,"current_range_meters":38000,"station_id":"ce4bhnh2rcd13ifvqgug","pricing_plan_id":"cebpf4jnsgd1na2vs0mg"},{"bike_id":"23371319-3326-4e94-b694-68f01aa3521f","system_id":"levelo_inurba_marseille","lat":43.337444,"lon":5.374475,"is_reserved":false,"is_disabled":false,"rental_uris":{"android":"levelo://app?vid=23371319-3326-4e94-b694-68f01aa3521f","ios":"levelo://app?vid=23371319-3326-4e94-b694-68f01aa3521f"},"vehicle_type_id":"4","last_reported":1731409643,"current_range_meters":38000,"station_id":"","pricing_plan_id":"cebpf4jnsgd1na2vs0mg"},{"bike_id":"daafac50-d1fb-44ef-8ca3-984e6ad5772a","system_id":"levelo_inurba_marseille","lat":43.25938,"lon":5.40898,"is_reserved":false,"is_disabled":false,"rental_uris":{"android":"levelo://app?vid=daafac50-d1fb-44ef-8ca3-984e6ad5772a","ios":"levelo://app?vid=daafac50-d1fb-44ef-8ca3-984e6ad5772a"},"vehicle_type_id":"4","last_reported":1731409643,"current_range_meters":35600,"station_id":"ce4bhm92rcd13ifvqglg","pricing_plan_id":"cebpf4jnsgd1na2vs0mg"},{"bike_id":"b413ee38-7f10-424a-b89a-050f0b950f64","system_id":"levelo_inurba_marseille","lat":43.29536,"lon":5.3905,"is_reserved":false,"is_disabled":false,"rental_uris":{"android":"levelo://app?vid=b413ee38-7f10-424a-b89a-050f0b950f64","ios":"levelo://app?vid=b413ee38-7f10-424a-b89a-050f0b950f64"},"vehicle_type_id":"4","last_reported":1731409643,"current_range_meters":38800,"station_id":"ce4bh3p2rcd13ifvqdp0","pricing_plan_id":"cebpf4jnsgd1na2vs0mg"},{"bike_id":"c9ceae9c-1370-4ee2-8b25-d5aea08f890b","system_id":"levelo_inurba_marseille","lat":43.3046,"lon":5.37902,"is_reserved":false,"is_disabled":false,"rental_uris":{"android":"levelo://app?vid=c9ceae9c-1370-4ee2-8b25-d5aea08f890b","ios":"levelo://app?vid=c9ceae9c-1370-4ee2-8b25-d5aea08f890b"},"vehicle_type_id":"4","last_reported":1731409643,"current_range_meters":38400,"station_id":"ce4bgup2rcd13ifvqcn0","pricing_plan_id":"cebpf4jnsgd1na2vs0mg"},{"bike_id":"ea03d38b-e0a4-4353-b731-8b0c05bc93d9","system_id":"levelo_inurba_marseille","lat":43.29051,"lon":5.35909,"is_reserved":false,"is_disabled":false,"rental_uris":{"android":"levelo://app?vid=ea03d38b-e0a4-4353-b731-8b0c05bc93d9","ios":"levelo://app?vid=ea03d38b-e0a4-4353-b731-8b0c05bc93d9"},"vehicle_type_id":"4","last_reported":1731409643,"current_range_meters":10800,"station_id":"ce4bha92rcd13ifvqeg0","pricing_plan_id":"cebpf4jnsgd1na2vs0mg"},{"bike_id":"e4d8f0dd-43a2-4f26-8d98-25f8d913adf2","system_id":"levelo_inurba_marseille","lat":43.26562,"lon":5.39006,"is_reserved":false,"is_disabled":false,"rental_uris":{"android":"levelo://app?vid=e4d8f0dd-43a2-4f26-8d98-25f8d913adf2","ios":"levelo://app?vid=e4d8f0dd-43a2-4f26-8d98-25f8d913adf2"},"vehicle_type_id":"4","last_reported":1731409643,"current_range_meters":36400,"station_id":"ce4bhe12rcd13ifvqf30","pricing_plan_id":"cebpf4jnsgd1na2vs0mg"},{"bike_id":"6339fb1a-3cd4-46c5-9b4c-c932b2f48b23","system_id":"levelo_inurba_marseille","lat":43.26949,"lon":5.38638,"is_reserved":false,"is_disabled":false,"rental_uris":{"android":"levelo://app?vid=6339fb1a-3cd4-46c5-9b4c-c932b2f48b23","ios":"levelo://app?vid=6339fb1a-3cd4-46c5-9b4c-c932b2f48b23"},"vehicle_type_id":"4","last_reported":1731409643,"current_range_meters":39200,"station_id":"ce4bhh92rcd13ifvqfh0","pricing_plan_id":"cebpf4jnsgd1na2vs0mg"},{"bike_id":"979b0182-b0c0-414a-ac99-0bb48afc867b","system_id":"levelo_inurba_marseille","lat":43.27406,"lon":5.38956,"is_reserved":false,"is_disabled":false,"rental_uris":{"android":"levelo://app?vid=979b0182-b0c0-414a-ac99-0bb48afc867b","ios":"levelo://app?vid=979b0182-b0c0-414a-ac99-0bb48afc867b"},"vehicle_type_id":"4","last_reported":1731409643,"current_range_meters":14800,"station_id":"","pricing_plan_id":"cebpf4jnsgd1na2vs0mg"},{"bike_id":"07879351-4349-4be8-9891-32f422c22d3f","system_id":"levelo_inurba_marseille","lat":43.29192,"lon":5.35807,"is_reserved":false,"is_disabled":false,"rental_uris":{"android":"levelo://app?vid=07879351-4349-4be8-9891-32f422c22d3f","ios":"levelo://app?vid=07879351-4349-4be8-9891-32f422c22d3f"},"vehicle_type_id":"4","last_reported":1731409643,"current_range_meters":35600,"station_id":"ce4bhb12rcd13ifvqel0","pricing_plan_id":"cebpf4jnsgd1na2vs0mg"},{"bike_id":"b0df53d8-4899-4a0b-858b-061d8f5798f2","system_id":"levelo_inurba_marseille","lat":43.23152,"lon":5.4372,"is_reserved":false,"is_disabled":false,"rental_uris":{"android":"levelo://app?vid=b0df53d8-4899-4a0b-858b-061d8f5798f2","ios":"levelo://app?vid=b0df53d8-4899-4a0b-858b-061d8f5798f2"},"vehicle_type_id":"4","last_reported":1731409643,"current_range_meters":7200,"station_id":"ce4bhmp2rcd13ifvqgog","pricing_plan_id":"cebpf4jnsgd1na2vs0mg"},{"bike_id":"85e36a0b-fdb6-440e-a68e-c1744dc9f856","system_id":"levelo_inurba_marseille","lat":43.27488,"lon":5.42456,"is_reserved":false,"is_disabled":false,"rental_uris":{"android":"levelo://app?vid=85e36a0b-fdb6-440e-a68e-c1744dc9f856","ios":"levelo://app?vid=85e36a0b-fdb6-440e-a68e-c1744dc9f856"},"vehicle_type_id":"4","last_reported":1731409643,"current_range_meters":38800,"station_id":"ce4bhn92rcd13ifvqgrg","pricing_plan_id":"cebpf4jnsgd1na2vs0mg"},{"bike_id":"ca8e5c5f-e3f7-4240-b01c-610c7aa768fb","system_id":"levelo_inurba_marseille","lat":43.26192,"lon":5.37446,"is_reserved":false,"is_disabled":false,"rental_uris":{"android":"levelo://app?vid=ca8e5c5f-e3f7-4240-b01c-610c7aa768fb","ios":"levelo://app?vid=ca8e5c5f-e3f7-4240-b01c-610c7aa768fb"},"vehicle_type_id":"4","last_reported":1731409643,"current_range_meters":37600,"station_id":"ce4bhgp2rcd13ifvqfc0","pricing_plan_id":"cebpf4jnsgd1na2vs0mg"},{"bike_id":"fddb5c98-efe0-4fd7-97de-6bff3111da24","system_id":"levelo_inurba_marseille","lat":43.30553,"lon":5.36527,"is_reserved":false,"is_disabled":false,"rental_uris":{"android":"levelo://app?vid=fddb5c98-efe0-4fd7-97de-6bff3111da24","ios":"levelo://app?vid=fddb5c98-efe0-4fd7-97de-6bff3111da24"},"vehicle_type_id":"4","last_reported":1731409643,"current_range_meters":32000,"station_id":"ce4bgs12rcd13ifvqcag","pricing_plan_id":"cebpf4jnsgd1na2vs0mg"},{"bike_id":"23363503-2f5e-447a-a474-8d1e75828622","system_id":"levelo_inurba_marseille","lat":43.29589,"lon":5.36734,"is_reserved":false,"is_disabled":false,"rental_uris":{"android":"levelo://app?vid=23363503-2f5e-447a-a474-8d1e75828622","ios":"levelo://app?vid=23363503-2f5e-447a-a474-8d1e75828622"},"vehicle_type_id":"4","last_reported":1731409643,"current_range_meters":39200,"station_id":"ce4bgph2rcd13ifvqc2g","pricing_plan_id":"cebpf4jnsgd1na2vs0mg"},{"bike_id":"28153c25-77fc-4021-ad30-689d290a678f","system_id":"levelo_inurba_marseille","lat":43.337444,"lon":5.374475,"is_reserved":false,"is_disabled":false,"rental_uris":{"android":"levelo://app?vid=28153c25-77fc-4021-ad30-689d290a678f","ios":"levelo://app?vid=28153c25-77fc-4021-ad30-689d290a678f"},"vehicle_type_id":"4","last_reported":1731409643,"current_range_meters":38400,"station_id":"","pricing_plan_id":"cebpf4jnsgd1na2vs0mg"},{"bike_id":"94439e2b-8635-4929-91b1-01d80a24b23b","system_id":"levelo_inurba_marseille","lat":43.24072,"lon":5.37754,"is_reserved":false,"is_disabled":false,"rental_uris":{"android":"levelo://app?vid=94439e2b-8635-4929-91b1-01d80a24b23b","ios":"levelo://app?vid=94439e2b-8635-4929-91b1-01d80a24b23b"},"vehicle_type_id":"4","last_reported":1731409643,"current_range_meters":39200,"station_id":"ce4bhnp2rcd13ifvqgvg","pricing_plan_id":"cebpf4jnsgd1na2vs0mg"},{"bike_id":"9b6180da-2136-4df3-bc8a-fcd691bb8216","system_id":"levelo_inurba_marseille","lat":43.29523,"lon":5.39046,"is_reserved":false,"is_disabled":false,"rental_uris":{"android":"levelo://app?vid=9b6180da-2136-4df3-bc8a-fcd691bb8216","ios":"levelo://app?vid=9b6180da-2136-4df3-bc8a-fcd691bb8216"},"vehicle_type_id":"4","last_reported":1731409643,"current_range_meters":26000,"station_id":"ce4bh3p2rcd13ifvqdp0","pricing_plan_id":"cebpf4jnsgd1na2vs0mg"},{"bike_id":"ac3319ff-f4fc-4a4a-9405-971d1f31dafa","system_id":"levelo_inurba_marseille","lat":43.25933,"lon":5.40906,"is_reserved":false,"is_disabled":false,"rental_uris":{"android":"levelo://app?vid=ac3319ff-f4fc-4a4a-9405-971d1f31dafa","ios":"levelo://app?vid=ac3319ff-f4fc-4a4a-9405-971d1f31dafa"},"vehicle_type_id":"4","last_reported":1731409643,"current_range_meters":33600,"station_id":"ce4bhm92rcd13ifvqglg","pricing_plan_id":"cebpf4jnsgd1na2vs0mg"},{"bike_id":"91030f84-0cf2-46c3-887a-4fcac4ec99de","system_id":"levelo_inurba_marseille","lat":43.2861,"lon":5.37071,"is_reserved":false,"is_disabled":false,"rental_uris":{"android":"levelo://app?vid=91030f84-0cf2-46c3-887a-4fcac4ec99de","ios":"levelo://app?vid=91030f84-0cf2-46c3-887a-4fcac4ec99de"},"vehicle_type_id":"4","last_reported":1731409643,"current_range_meters":38800,"station_id":"ce4bht12rcd13ifvqi60","pricing_plan_id":"cebpf4jnsgd1na2vs0mg"},{"bike_id":"d03b96af-cef9-43ff-bbb9-126d7848b5bf","system_id":"levelo_inurba_marseille","lat":43.2705,"lon":5.4026,"is_reserved":false,"is_disabled":false,"rental_uris":{"android":"levelo://app?vid=d03b96af-cef9-43ff-bbb9-126d7848b5bf","ios":"levelo://app?vid=d03b96af-cef9-43ff-bbb9-126d7848b5bf"},"vehicle_type_id":"4","last_reported":1731409643,"current_range_meters":32800,"station_id":"ce4bhk92rcd13ifvqgc0","pricing_plan_id":"cebpf4jnsgd1na2vs0mg"},{"bike_id":"e17f11f2-0ad7-4920-aa96-cd969a58d6a1","system_id":"levelo_inurba_marseille","lat":43.2465,"lon":5.38891,"is_reserved":false,"is_disabled":false,"rental_uris":{"android":"levelo://app?vid=e17f11f2-0ad7-4920-aa96-cd969a58d6a1","ios":"levelo://app?vid=e17f11f2-0ad7-4920-aa96-cd969a58d6a1"},"vehicle_type_id":"4","last_reported":1731409643,"current_range_meters":38800,"station_id":"ce4bhg12rcd13ifvqf60","pricing_plan_id":"cebpf4jnsgd1na2vs0mg"},{"bike_id":"d418ab96-1ab9-4a43-8544-4d1cee0194ae","system_id":"levelo_inurba_marseille","lat":43.29257,"lon":5.38444,"is_reserved":false,"is_disabled":false,"rental_uris":{"android":"levelo://app?vid=d418ab96-1ab9-4a43-8544-4d1cee0194ae","ios":"levelo://app?vid=d418ab96-1ab9-4a43-8544-4d1cee0194ae"},"vehicle_type_id":"4","last_reported":1731409643,"current_range_meters":32000,"station_id":"ce4bh692rcd13ifvqea0","pricing_plan_id":"cebpf4jnsgd1na2vs0mg"},{"bike_id":"a47de0d2-fa11-4e58-936c-b9a545aa01ef","system_id":"levelo_inurba_marseille","lat":43.24075,"lon":5.37761,"is_reserved":false,"is_disabled":false,"rental_uris":{"android":"levelo://app?vid=a47de0d2-fa11-4e58-936c-b9a545aa01ef","ios":"levelo://app?vid=a47de0d2-fa11-4e58-936c-b9a545aa01ef"},"vehicle_type_id":"4","last_reported":1731409643,"current_range_meters":35200,"station_id":"ce4bhnp2rcd13ifvqgvg","pricing_plan_id":"cebpf4jnsgd1na2vs0mg"},{"bike_id":"2ef04947-c25c-4fe2-a891-7678bc8d660e","system_id":"levelo_inurba_marseille","lat":43.29681,"lon":5.37286,"is_reserved":false,"is_disabled":false,"rental_uris":{"android":"levelo://app?vid=2ef04947-c25c-4fe2-a891-7678bc8d660e","ios":"levelo://app?vid=2ef04947-c25c-4fe2-a891-7678bc8d660e"},"vehicle_type_id":"4","last_reported":1731409643,"current_range_meters":38400,"station_id":"ce4bgk12rcd13ifvqbj0","pricing_plan_id":"cebpf4jnsgd1na2vs0mg"},{"bike_id":"2c6f4f61-dd79-40a8-8335-94d8267ff3b3","system_id":"levelo_inurba_marseille","lat":43.24173,"lon":5.39723,"is_reserved":false,"is_disabled":false,"rental_uris":{"android":"levelo://app?vid=2c6f4f61-dd79-40a8-8335-94d8267ff3b3","ios":"levelo://app?vid=2c6f4f61-dd79-40a8-8335-94d8267ff3b3"},"vehicle_type_id":"4","last_reported":1731409643,"current_range_meters":34000,"station_id":"ce4bhn12rcd13ifvqgpg","pricing_plan_id":"cebpf4jnsgd1na2vs0mg"},{"bike_id":"51652ddf-dcfe-4378-9048-ec231d3dcb2a","system_id":"levelo_inurba_marseille","lat":43.28677,"lon":5.38658,"is_reserved":false,"is_disabled":false,"rental_uris":{"android":"levelo://app?vid=51652ddf-dcfe-4378-9048-ec231d3dcb2a","ios":"levelo://app?vid=51652ddf-dcfe-4378-9048-ec231d3dcb2a"},"vehicle_type_id":"4","last_reported":1731409643,"current_range_meters":38800,"station_id":"ce4bh492rcd13ifvqdug","pricing_plan_id":"cebpf4jnsgd1na2vs0mg"},{"bike_id":"577dbf40-dfa9-4abf-b73d-3d49ed78802a","system_id":"levelo_inurba_marseille","lat":43.30542,"lon":5.36708,"is_reserved":false,"is_disabled":false,"rental_uris":{"android":"levelo://app?vid=577dbf40-dfa9-4abf-b73d-3d49ed78802a","ios":"levelo://app?vid=577dbf40-dfa9-4abf-b73d-3d49ed78802a"},"vehicle_type_id":"4","last_reported":1731409643,"current_range_meters":34000,"station_id":"ce4bgrp2rcd13ifvqc9g","pricing_plan_id":"cebpf4jnsgd1na2vs0mg"},{"bike_id":"ff662199-ff74-4c0b-bff3-b1c4365f348b","system_id":"levelo_inurba_marseille","lat":43.24075,"lon":5.37749,"is_reserved":false,"is_disabled":false,"rental_uris":{"android":"levelo://app?vid=ff662199-ff74-4c0b-bff3-b1c4365f348b","ios":"levelo://app?vid=ff662199-ff74-4c0b-bff3-b1c4365f348b"},"vehicle_type_id":"4","last_reported":1731409643,"current_range_meters":35600,"station_id":"ce4bhnp2rcd13ifvqgvg","pricing_plan_id":"cebpf4jnsgd1na2vs0mg"},{"bike_id":"71a649ef-ed3c-4201-bbe7-3f4c92d1bb6e","system_id":"levelo_inurba_marseille","lat":43.29531,"lon":5.39023,"is_reserved":false,"is_disabled":false,"rental_uris":{"android":"levelo://app?vid=71a649ef-ed3c-4201-bbe7-3f4c92d1bb6e","ios":"levelo://app?vid=71a649ef-ed3c-4201-bbe7-3f4c92d1bb6e"},"vehicle_type_id":"4","last_reported":1731409643,"current_range_meters":34000,"station_id":"ce4bh3p2rcd13ifvqdp0","pricing_plan_id":"cebpf4jnsgd1na2vs0mg"},{"bike_id":"a8b10452-9f1a-43a7-93f0-d4a153b64fbf","system_id":"levelo_inurba_marseille","lat":43.2315,"lon":5.43716,"is_reserved":false,"is_disabled":false,"rental_uris":{"android":"levelo://app?vid=a8b10452-9f1a-43a7-93f0-d4a153b64fbf","ios":"levelo://app?vid=a8b10452-9f1a-43a7-93f0-d4a153b64fbf"},"vehicle_type_id":"4","last_reported":1731409643,"current_range_meters":39200,"station_id":"ce4bhmp2rcd13ifvqgog","pricing_plan_id":"cebpf4jnsgd1na2vs0mg"},{"bike_id":"1b2415b6-c9c3-4b0a-b416-533d1331e4ca","system_id":"levelo_inurba_marseille","lat":43.26787,"lon":5.39416,"is_reserved":false,"is_disabled":false,"rental_uris":{"android":"levelo://app?vid=1b2415b6-c9c3-4b0a-b416-533d1331e4ca","ios":"levelo://app?vid=1b2415b6-c9c3-4b0a-b416-533d1331e4ca"},"vehicle_type_id":"4","last_reported":1731409643,"current_range_meters":38000,"station_id":"ce4bhh12rcd13ifvqfg0","pricing_plan_id":"cebpf4jnsgd1na2vs0mg"},{"bike_id":"8801a9ab-2cdf-4db6-a265-83c3b290056e","system_id":"levelo_inurba_marseille","lat":43.30092,"lon":5.39077,"is_reserved":false,"is_disabled":false,"rental_uris":{"android":"levelo://app?vid=8801a9ab-2cdf-4db6-a265-83c3b290056e","ios":"levelo://app?vid=8801a9ab-2cdf-4db6-a265-83c3b290056e"},"vehicle_type_id":"4","last_reported":1731409643,"current_range_meters":8400,"station_id":"ce4bh192rcd13ifvqdb0","pricing_plan_id":"cebpf4jnsgd1na2vs0mg"},{"bike_id":"bf9b11d4-9e9d-4bc0-a971-04713ec721a2","system_id":"levelo_inurba_marseille","lat":43.29968,"lon":5.38472,"is_reserved":false,"is_disabled":false,"rental_uris":{"android":"levelo://app?vid=bf9b11d4-9e9d-4bc0-a971-04713ec721a2","ios":"levelo://app?vid=bf9b11d4-9e9d-4bc0-a971-04713ec721a2"},"vehicle_type_id":"4","last_reported":1731409643,"current_range_meters":38800,"station_id":"ce4bgj92rcd13ifvqbd0","pricing_plan_id":"cebpf4jnsgd1na2vs0mg"},{"bike_id":"dace8dfc-5f07-41cf-96fd-9ddd4b1c832d","system_id":"levelo_inurba_marseille","lat":43.26959,"lon":5.38623,"is_reserved":false,"is_disabled":false,"rental_uris":{"android":"levelo://app?vid=dace8dfc-5f07-41cf-96fd-9ddd4b1c832d","ios":"levelo://app?vid=dace8dfc-5f07-41cf-96fd-9ddd4b1c832d"},"vehicle_type_id":"4","last_reported":1731409643,"current_range_meters":17600,"station_id":"ce4bhh92rcd13ifvqfh0","pricing_plan_id":"cebpf4jnsgd1na2vs0mg"},{"bike_id":"7e8fca00-ba30-43fe-abd0-d83f1b42f060","system_id":"levelo_inurba_marseille","lat":43.30118,"lon":5.39857,"is_reserved":false,"is_disabled":false,"rental_uris":{"android":"levelo://app?vid=7e8fca00-ba30-43fe-abd0-d83f1b42f060","ios":"levelo://app?vid=7e8fca00-ba30-43fe-abd0-d83f1b42f060"},"vehicle_type_id":"4","last_reported":1731409643,"current_range_meters":10000,"station_id":"ce4bh0h2rcd13ifvqd40","pricing_plan_id":"cebpf4jnsgd1na2vs0mg"},{"bike_id":"e20e371e-0ac8-4f8a-8e0a-12e9bf345f5e","system_id":"levelo_inurba_marseille","lat":43.27069,"lon":5.42281,"is_reserved":false,"is_disabled":false,"rental_uris":{"android":"levelo://app?vid=e20e371e-0ac8-4f8a-8e0a-12e9bf345f5e","ios":"levelo://app?vid=e20e371e-0ac8-4f8a-8e0a-12e9bf345f5e"},"vehicle_type_id":"4","last_reported":1731409643,"current_range_meters":32000,"station_id":"ce4bhk92rcd13ifvqgb0","pricing_plan_id":"cebpf4jnsgd1na2vs0mg"},{"bike_id":"73e15e42-a1a7-4599-8198-4508cf3e15d3","system_id":"levelo_inurba_marseille","lat":43.2695,"lon":5.38629,"is_reserved":false,"is_disabled":false,"rental_uris":{"android":"levelo://app?vid=73e15e42-a1a7-4599-8198-4508cf3e15d3","ios":"levelo://app?vid=73e15e42-a1a7-4599-8198-4508cf3e15d3"},"vehicle_type_id":"4","last_reported":1731409643,"current_range_meters":31200,"station_id":"ce4bhh92rcd13ifvqfh0","pricing_plan_id":"cebpf4jnsgd1na2vs0mg"},{"bike_id":"9233cbfc-3039-4b18-ae97-3be7b3743f94","system_id":"levelo_inurba_marseille","lat":43.29931,"lon":5.36537,"is_reserved":false,"is_disabled":false,"rental_uris":{"android":"levelo://app?vid=9233cbfc-3039-4b18-ae97-3be7b3743f94","ios":"levelo://app?vid=9233cbfc-3039-4b18-ae97-3be7b3743f94"},"vehicle_type_id":"4","last_reported":1731409643,"current_range_meters":18800,"station_id":"ce4bgm92rcd13ifvqbr0","pricing_plan_id":"cebpf4jnsgd1na2vs0mg"},{"bike_id":"a7fa391a-5e9a-4306-ab89-3411e5df4996","system_id":"levelo_inurba_marseille","lat":43.33027,"lon":5.39045,"is_reserved":false,"is_disabled":false,"rental_uris":{"android":"levelo://app?vid=a7fa391a-5e9a-4306-ab89-3411e5df4996","ios":"levelo://app?vid=a7fa391a-5e9a-4306-ab89-3411e5df4996"},"vehicle_type_id":"4","last_reported":1731409643,"current_range_meters":38800,"station_id":"ce4bhr92rcd13ifvqhrg","pricing_plan_id":"cebpf4jnsgd1na2vs0mg"},{"bike_id":"5817e958-deb7-4799-af1a-ed194ead4717","system_id":"levelo_inurba_marseille","lat":43.29196,"lon":5.39314,"is_reserved":false,"is_disabled":false,"rental_uris":{"android":"levelo://app?vid=5817e958-deb7-4799-af1a-ed194ead4717","ios":"levelo://app?vid=5817e958-deb7-4799-af1a-ed194ead4717"},"vehicle_type_id":"4","last_reported":1731409643,"current_range_meters":26800,"station_id":"ce4bh192rcd13ifvqdd0","pricing_plan_id":"cebpf4jnsgd1na2vs0mg"},{"bike_id":"96c4d9a9-7806-44c9-bb43-1579234ce366","system_id":"levelo_inurba_marseille","lat":43.24075,"lon":5.37758,"is_reserved":false,"is_disabled":false,"rental_uris":{"android":"levelo://app?vid=96c4d9a9-7806-44c9-bb43-1579234ce366","ios":"levelo://app?vid=96c4d9a9-7806-44c9-bb43-1579234ce366"},"vehicle_type_id":"4","last_reported":1731409643,"current_range_meters":28800,"station_id":"ce4bhnp2rcd13ifvqgvg","pricing_plan_id":"cebpf4jnsgd1na2vs0mg"},{"bike_id":"b4b0e19d-1cd2-4a7f-8914-d0f14ebb8a90","system_id":"levelo_inurba_marseille","lat":43.29973,"lon":5.38494,"is_reserved":false,"is_disabled":false,"rental_uris":{"android":"levelo://app?vid=b4b0e19d-1cd2-4a7f-8914-d0f14ebb8a90","ios":"levelo://app?vid=b4b0e19d-1cd2-4a7f-8914-d0f14ebb8a90"},"vehicle_type_id":"4","last_reported":1731409643,"current_range_meters":38400,"station_id":"ce4bgj92rcd13ifvqbd0","pricing_plan_id":"cebpf4jnsgd1na2vs0mg"},{"bike_id":"42d52a67-a111-45ff-b216-f95ab26ba86a","system_id":"levelo_inurba_marseille","lat":43.30531,"lon":5.36536,"is_reserved":false,"is_disabled":false,"rental_uris":{"android":"levelo://app?vid=42d52a67-a111-45ff-b216-f95ab26ba86a","ios":"levelo://app?vid=42d52a67-a111-45ff-b216-f95ab26ba86a"},"vehicle_type_id":"4","last_reported":1731409643,"current_range_meters":33200,"station_id":"ce4bgs12rcd13ifvqcag","pricing_plan_id":"cebpf4jnsgd1na2vs0mg"},{"bike_id":"c5e48c76-8416-4ddf-b205-1665e45f83aa","system_id":"levelo_inurba_marseille","lat":43.22923,"lon":5.35374,"is_reserved":false,"is_disabled":false,"rental_uris":{"android":"levelo://app?vid=c5e48c76-8416-4ddf-b205-1665e45f83aa","ios":"levelo://app?vid=c5e48c76-8416-4ddf-b205-1665e45f83aa"},"vehicle_type_id":"4","last_reported":1731409643,"current_range_meters":36400,"station_id":"cpo3532slgdg3j2ikp40","pricing_plan_id":"cebpf4jnsgd1na2vs0mg"},{"bike_id":"29773b3a-1395-4580-8120-507316dfbf18","system_id":"levelo_inurba_marseille","lat":43.28471,"lon":5.3841,"is_reserved":false,"is_disabled":false,"rental_uris":{"android":"levelo://app?vid=29773b3a-1395-4580-8120-507316dfbf18","ios":"levelo://app?vid=29773b3a-1395-4580-8120-507316dfbf18"},"vehicle_type_id":"4","last_reported":1731409643,"current_range_meters":37600,"station_id":"ce4bh512rcd13ifvqe3g","pricing_plan_id":"cebpf4jnsgd1na2vs0mg"},{"bike_id":"f3e39a43-3dfb-4504-adcb-bc57f7ec37a1","system_id":"levelo_inurba_marseille","lat":43.29894,"lon":5.43667,"is_reserved":false,"is_disabled":false,"rental_uris":{"android":"levelo://app?vid=f3e39a43-3dfb-4504-adcb-bc57f7ec37a1","ios":"levelo://app?vid=f3e39a43-3dfb-4504-adcb-bc57f7ec37a1"},"vehicle_type_id":"4","last_reported":1731409643,"current_range_meters":38800,"station_id":"ce4bhpp2rcd13ifvqhfg","pricing_plan_id":"cebpf4jnsgd1na2vs0mg"},{"bike_id":"d3d88389-bd60-4947-8db6-b3fd375e6183","system_id":"levelo_inurba_marseille","lat":43.23961,"lon":5.3663,"is_reserved":false,"is_disabled":false,"rental_uris":{"android":"levelo://app?vid=d3d88389-bd60-4947-8db6-b3fd375e6183","ios":"levelo://app?vid=d3d88389-bd60-4947-8db6-b3fd375e6183"},"vehicle_type_id":"4","last_reported":1731409643,"current_range_meters":37600,"station_id":"ce4bhi12rcd13ifvqfp0","pricing_plan_id":"cebpf4jnsgd1na2vs0mg"},{"bike_id":"08af9c91-e20b-48e7-955a-79938807da2e","system_id":"levelo_inurba_marseille","lat":43.29098,"lon":5.38149,"is_reserved":false,"is_disabled":false,"rental_uris":{"android":"levelo://app?vid=08af9c91-e20b-48e7-955a-79938807da2e","ios":"levelo://app?vid=08af9c91-e20b-48e7-955a-79938807da2e"},"vehicle_type_id":"4","last_reported":1731409643,"current_range_meters":24400,"station_id":"ce4bh512rcd13ifvqe2g","pricing_plan_id":"cebpf4jnsgd1na2vs0mg"},{"bike_id":"9b5a3a92-5740-4277-bcb0-01249ff40604","system_id":"levelo_inurba_marseille","lat":43.27973,"lon":5.38747,"is_reserved":false,"is_disabled":false,"rental_uris":{"android":"levelo://app?vid=9b5a3a92-5740-4277-bcb0-01249ff40604","ios":"levelo://app?vid=9b5a3a92-5740-4277-bcb0-01249ff40604"},"vehicle_type_id":"4","last_reported":1731409643,"current_range_meters":38000,"station_id":"ce4bhg12rcd13ifvqf80","pricing_plan_id":"cebpf4jnsgd1na2vs0mg"},{"bike_id":"68d7faf6-3ab5-4032-9db4-3b81cccc1755","system_id":"levelo_inurba_marseille","lat":43.30089,"lon":5.39079,"is_reserved":false,"is_disabled":false,"rental_uris":{"android":"levelo://app?vid=68d7faf6-3ab5-4032-9db4-3b81cccc1755","ios":"levelo://app?vid=68d7faf6-3ab5-4032-9db4-3b81cccc1755"},"vehicle_type_id":"4","last_reported":1731409643,"current_range_meters":38400,"station_id":"ce4bh192rcd13ifvqdb0","pricing_plan_id":"cebpf4jnsgd1na2vs0mg"},{"bike_id":"f46fb145-cccc-4992-92f3-a34e899044af","system_id":"levelo_inurba_marseille","lat":43.29972,"lon":5.37172,"is_reserved":false,"is_disabled":false,"rental_uris":{"android":"levelo://app?vid=f46fb145-cccc-4992-92f3-a34e899044af","ios":"levelo://app?vid=f46fb145-cccc-4992-92f3-a34e899044af"},"vehicle_type_id":"4","last_reported":1731409643,"current_range_meters":38400,"station_id":"ce4bgr92rcd13ifvqc7g","pricing_plan_id":"cebpf4jnsgd1na2vs0mg"},{"bike_id":"c4462b4f-07ed-4b5e-bf6e-9a1af451a07e","system_id":"levelo_inurba_marseille","lat":43.29621,"lon":5.37164,"is_reserved":false,"is_disabled":false,"rental_uris":{"android":"levelo://app?vid=c4462b4f-07ed-4b5e-bf6e-9a1af451a07e","ios":"levelo://app?vid=c4462b4f-07ed-4b5e-bf6e-9a1af451a07e"},"vehicle_type_id":"4","last_reported":1731409643,"current_range_meters":28400,"station_id":"ce4bgnh2rcd13ifvqc0g","pricing_plan_id":"cebpf4jnsgd1na2vs0mg"},{"bike_id":"791345a1-d078-467a-b22f-33b43d0b3aa5","system_id":"levelo_inurba_marseille","lat":43.337444,"lon":5.374475,"is_reserved":false,"is_disabled":false,"rental_uris":{"android":"levelo://app?vid=791345a1-d078-467a-b22f-33b43d0b3aa5","ios":"levelo://app?vid=791345a1-d078-467a-b22f-33b43d0b3aa5"},"vehicle_type_id":"4","last_reported":1731409643,"current_range_meters":38400,"station_id":"","pricing_plan_id":"cebpf4jnsgd1na2vs0mg"},{"bike_id":"daa6014d-57d3-43d2-b22f-811394452eba","system_id":"levelo_inurba_marseille","lat":43.23151,"lon":5.43724,"is_reserved":false,"is_disabled":false,"rental_uris":{"android":"levelo://app?vid=daa6014d-57d3-43d2-b22f-811394452eba","ios":"levelo://app?vid=daa6014d-57d3-43d2-b22f-811394452eba"},"vehicle_type_id":"4","last_reported":1731409643,"current_range_meters":15200,"station_id":"ce4bhmp2rcd13ifvqgog","pricing_plan_id":"cebpf4jnsgd1na2vs0mg"},{"bike_id":"e403f88f-668d-45d1-9955-21fad772752a","system_id":"levelo_inurba_marseille","lat":43.30308,"lon":5.36883,"is_reserved":false,"is_disabled":false,"rental_uris":{"android":"levelo://app?vid=e403f88f-668d-45d1-9955-21fad772752a","ios":"levelo://app?vid=e403f88f-668d-45d1-9955-21fad772752a"},"vehicle_type_id":"4","last_reported":1731409643,"current_range_meters":36000,"station_id":"ce4bgqh2rcd13ifvqc5g","pricing_plan_id":"cebpf4jnsgd1na2vs0mg"},{"bike_id":"16efff65-970a-4325-b56d-fd0a0df56e3d","system_id":"levelo_inurba_marseille","lat":43.2696,"lon":5.38616,"is_reserved":false,"is_disabled":false,"rental_uris":{"android":"levelo://app?vid=16efff65-970a-4325-b56d-fd0a0df56e3d","ios":"levelo://app?vid=16efff65-970a-4325-b56d-fd0a0df56e3d"},"vehicle_type_id":"4","last_reported":1731409643,"current_range_meters":4800,"station_id":"ce4bhh92rcd13ifvqfh0","pricing_plan_id":"cebpf4jnsgd1na2vs0mg"},{"bike_id":"91526d85-6d2f-4b0d-b668-d1a556d90682","system_id":"levelo_inurba_marseille","lat":43.31993,"lon":5.38148,"is_reserved":false,"is_disabled":false,"rental_uris":{"android":"levelo://app?vid=91526d85-6d2f-4b0d-b668-d1a556d90682","ios":"levelo://app?vid=91526d85-6d2f-4b0d-b668-d1a556d90682"},"vehicle_type_id":"4","last_reported":1731409643,"current_range_meters":38800,"station_id":"ce4bhr12rcd13ifvqhpg","pricing_plan_id":"cebpf4jnsgd1na2vs0mg"},{"bike_id":"5620aab5-9ff9-4a0a-ab79-ef86252fe385","system_id":"levelo_inurba_marseille","lat":43.261261,"lon":5.405803,"is_reserved":false,"is_disabled":false,"rental_uris":{"android":"levelo://app?vid=5620aab5-9ff9-4a0a-ab79-ef86252fe385","ios":"levelo://app?vid=5620aab5-9ff9-4a0a-ab79-ef86252fe385"},"vehicle_type_id":"4","last_reported":1731409643,"current_range_meters":36000,"station_id":"ce501612rcd8frsf0b60","pricing_plan_id":"cebpf4jnsgd1na2vs0mg"},{"bike_id":"4d12bd78-524f-459e-9d71-db1e9b3e042f","system_id":"levelo_inurba_marseille","lat":43.2695,"lon":5.38636,"is_reserved":false,"is_disabled":false,"rental_uris":{"android":"levelo://app?vid=4d12bd78-524f-459e-9d71-db1e9b3e042f","ios":"levelo://app?vid=4d12bd78-524f-459e-9d71-db1e9b3e042f"},"vehicle_type_id":"4","last_reported":1731409643,"current_range_meters":32800,"station_id":"ce4bhh92rcd13ifvqfh0","pricing_plan_id":"cebpf4jnsgd1na2vs0mg"},{"bike_id":"e1f2424d-96e3-41c7-9f8d-6dd18a27c6ce","system_id":"levelo_inurba_marseille","lat":43.27437,"lon":5.39413,"is_reserved":false,"is_disabled":false,"rental_uris":{"android":"levelo://app?vid=e1f2424d-96e3-41c7-9f8d-6dd18a27c6ce","ios":"levelo://app?vid=e1f2424d-96e3-41c7-9f8d-6dd18a27c6ce"},"vehicle_type_id":"4","last_reported":1731409643,"current_range_meters":38000,"station_id":"ce4bhdp2rcd13ifvqf20","pricing_plan_id":"cebpf4jnsgd1na2vs0mg"},{"bike_id":"3324a3b4-254b-4167-84a6-3d8fae4abda1","system_id":"levelo_inurba_marseille","lat":43.25001,"lon":5.3893,"is_reserved":false,"is_disabled":false,"rental_uris":{"android":"levelo://app?vid=3324a3b4-254b-4167-84a6-3d8fae4abda1","ios":"levelo://app?vid=3324a3b4-254b-4167-84a6-3d8fae4abda1"},"vehicle_type_id":"4","last_reported":1731409643,"current_range_meters":24800,"station_id":"ce4bhgp2rcd13ifvqfd0","pricing_plan_id":"cebpf4jnsgd1na2vs0mg"},{"bike_id":"c1b8d31c-a84c-452b-a37c-c4439ca46883","system_id":"levelo_inurba_marseille","lat":43.28666,"lon":5.36358,"is_reserved":false,"is_disabled":false,"rental_uris":{"android":"levelo://app?vid=c1b8d31c-a84c-452b-a37c-c4439ca46883","ios":"levelo://app?vid=c1b8d31c-a84c-452b-a37c-c4439ca46883"},"vehicle_type_id":"4","last_reported":1731409643,"current_range_meters":32000,"station_id":"ce4bhah2rcd13ifvqej0","pricing_plan_id":"cebpf4jnsgd1na2vs0mg"},{"bike_id":"690959e1-32d7-492f-a674-cbcd4a6a2909","system_id":"levelo_inurba_marseille","lat":43.27916,"lon":5.3958,"is_reserved":false,"is_disabled":false,"rental_uris":{"android":"levelo://app?vid=690959e1-32d7-492f-a674-cbcd4a6a2909","ios":"levelo://app?vid=690959e1-32d7-492f-a674-cbcd4a6a2909"},"vehicle_type_id":"4","last_reported":1731409643,"current_range_meters":36000,"station_id":"ce4bhf92rcd13ifvqf40","pricing_plan_id":"cebpf4jnsgd1na2vs0mg"},{"bike_id":"1fd68eba-2c0d-41b5-9f70-c8354b3785a8","system_id":"levelo_inurba_marseille","lat":43.28472,"lon":5.38417,"is_reserved":false,"is_disabled":false,"rental_uris":{"android":"levelo://app?vid=1fd68eba-2c0d-41b5-9f70-c8354b3785a8","ios":"levelo://app?vid=1fd68eba-2c0d-41b5-9f70-c8354b3785a8"},"vehicle_type_id":"4","last_reported":1731409643,"current_range_meters":36800,"station_id":"ce4bh512rcd13ifvqe3g","pricing_plan_id":"cebpf4jnsgd1na2vs0mg"},{"bike_id":"1cc4d5ca-f860-4528-8872-c9779aa72d88","system_id":"levelo_inurba_marseille","lat":43.33603,"lon":5.41031,"is_reserved":false,"is_disabled":false,"rental_uris":{"android":"levelo://app?vid=1cc4d5ca-f860-4528-8872-c9779aa72d88","ios":"levelo://app?vid=1cc4d5ca-f860-4528-8872-c9779aa72d88"},"vehicle_type_id":"4","last_reported":1731409643,"current_range_meters":37600,"station_id":"ce4bhqh2rcd13ifvqhmg","pricing_plan_id":"cebpf4jnsgd1na2vs0mg"},{"bike_id":"1d5c0317-1894-4866-90f1-32b25be7eb1b","system_id":"levelo_inurba_marseille","lat":43.23966,"lon":5.36628,"is_reserved":false,"is_disabled":false,"rental_uris":{"android":"levelo://app?vid=1d5c0317-1894-4866-90f1-32b25be7eb1b","ios":"levelo://app?vid=1d5c0317-1894-4866-90f1-32b25be7eb1b"},"vehicle_type_id":"4","last_reported":1731409643,"current_range_meters":38000,"station_id":"ce4bhi12rcd13ifvqfp0","pricing_plan_id":"cebpf4jnsgd1na2vs0mg"},{"bike_id":"58f18ecf-ad63-4b43-bcdf-8c1e9fb66eea","system_id":"levelo_inurba_marseille","lat":43.27073,"lon":5.42274,"is_reserved":false,"is_disabled":false,"rental_uris":{"android":"levelo://app?vid=58f18ecf-ad63-4b43-bcdf-8c1e9fb66eea","ios":"levelo://app?vid=58f18ecf-ad63-4b43-bcdf-8c1e9fb66eea"},"vehicle_type_id":"4","last_reported":1731409643,"current_range_meters":23200,"station_id":"ce4bhk92rcd13ifvqgb0","pricing_plan_id":"cebpf4jnsgd1na2vs0mg"},{"bike_id":"43f036f1-bab7-427c-8196-682a9de767a8","system_id":"levelo_inurba_marseille","lat":43.29976,"lon":5.385,"is_reserved":false,"is_disabled":false,"rental_uris":{"android":"levelo://app?vid=43f036f1-bab7-427c-8196-682a9de767a8","ios":"levelo://app?vid=43f036f1-bab7-427c-8196-682a9de767a8"},"vehicle_type_id":"4","last_reported":1731409643,"current_range_meters":8400,"station_id":"ce4bgj92rcd13ifvqbd0","pricing_plan_id":"cebpf4jnsgd1na2vs0mg"},{"bike_id":"93eb7531-844f-4e40-8bd9-f01837cd95b4","system_id":"levelo_inurba_marseille","lat":43.29977,"lon":5.38496,"is_reserved":false,"is_disabled":false,"rental_uris":{"android":"levelo://app?vid=93eb7531-844f-4e40-8bd9-f01837cd95b4","ios":"levelo://app?vid=93eb7531-844f-4e40-8bd9-f01837cd95b4"},"vehicle_type_id":"4","last_reported":1731409643,"current_range_meters":19600,"station_id":"ce4bgj92rcd13ifvqbd0","pricing_plan_id":"cebpf4jnsgd1na2vs0mg"},{"bike_id":"6ef18400-609f-49f8-a270-49ff8cef822c","system_id":"levelo_inurba_marseille","lat":43.26957,"lon":5.38629,"is_reserved":false,"is_disabled":false,"rental_uris":{"android":"levelo://app?vid=6ef18400-609f-49f8-a270-49ff8cef822c","ios":"levelo://app?vid=6ef18400-609f-49f8-a270-49ff8cef822c"},"vehicle_type_id":"4","last_reported":1731409643,"current_range_meters":24000,"station_id":"ce4bhh92rcd13ifvqfh0","pricing_plan_id":"cebpf4jnsgd1na2vs0mg"},{"bike_id":"aac01b64-c8f8-4f0f-aeeb-a88c06ec5297","system_id":"levelo_inurba_marseille","lat":43.26949,"lon":5.38636,"is_reserved":false,"is_disabled":false,"rental_uris":{"android":"levelo://app?vid=aac01b64-c8f8-4f0f-aeeb-a88c06ec5297","ios":"levelo://app?vid=aac01b64-c8f8-4f0f-aeeb-a88c06ec5297"},"vehicle_type_id":"4","last_reported":1731409643,"current_range_meters":30800,"station_id":"ce4bhh92rcd13ifvqfh0","pricing_plan_id":"cebpf4jnsgd1na2vs0mg"},{"bike_id":"3f7f3df8-50d9-475f-8a41-f4a7ada046d4","system_id":"levelo_inurba_marseille","lat":43.32014,"lon":5.38051,"is_reserved":false,"is_disabled":false,"rental_uris":{"android":"levelo://app?vid=3f7f3df8-50d9-475f-8a41-f4a7ada046d4","ios":"levelo://app?vid=3f7f3df8-50d9-475f-8a41-f4a7ada046d4"},"vehicle_type_id":"4","last_reported":1731409643,"current_range_meters":28800,"station_id":"","pricing_plan_id":"cebpf4jnsgd1na2vs0mg"},{"bike_id":"32dd0db7-4e2d-43e5-a08c-93b923eb8b92","system_id":"levelo_inurba_marseille","lat":43.2988,"lon":5.3973,"is_reserved":false,"is_disabled":false,"rental_uris":{"android":"levelo://app?vid=32dd0db7-4e2d-43e5-a08c-93b923eb8b92","ios":"levelo://app?vid=32dd0db7-4e2d-43e5-a08c-93b923eb8b92"},"vehicle_type_id":"4","last_reported":1731409643,"current_range_meters":22000,"station_id":"ce4bh0h2rcd13ifvqd50","pricing_plan_id":"cebpf4jnsgd1na2vs0mg"},{"bike_id":"b22f2a40-0b1b-4953-aa00-f14d5aaab638","system_id":"levelo_inurba_marseille","lat":43.29042,"lon":5.39967,"is_reserved":false,"is_disabled":false,"rental_uris":{"android":"levelo://app?vid=b22f2a40-0b1b-4953-aa00-f14d5aaab638","ios":"levelo://app?vid=b22f2a40-0b1b-4953-aa00-f14d5aaab638"},"vehicle_type_id":"4","last_reported":1731409643,"current_range_meters":32400,"station_id":"ce4bh392rcd13ifvqdm0","pricing_plan_id":"cebpf4jnsgd1na2vs0mg"},{"bike_id":"6d1a9a23-bc6b-425f-bdd4-9f846113ef71","system_id":"levelo_inurba_marseille","lat":43.24084,"lon":5.37752,"is_reserved":false,"is_disabled":false,"rental_uris":{"android":"levelo://app?vid=6d1a9a23-bc6b-425f-bdd4-9f846113ef71","ios":"levelo://app?vid=6d1a9a23-bc6b-425f-bdd4-9f846113ef71"},"vehicle_type_id":"4","last_reported":1731409643,"current_range_meters":8800,"station_id":"ce4bhnp2rcd13ifvqgvg","pricing_plan_id":"cebpf4jnsgd1na2vs0mg"},{"bike_id":"4eb50ab8-9414-42de-9c94-544e0c23e915","system_id":"levelo_inurba_marseille","lat":43.28688,"lon":5.38664,"is_reserved":false,"is_disabled":false,"rental_uris":{"android":"levelo://app?vid=4eb50ab8-9414-42de-9c94-544e0c23e915","ios":"levelo://app?vid=4eb50ab8-9414-42de-9c94-544e0c23e915"},"vehicle_type_id":"4","last_reported":1731409643,"current_range_meters":37600,"station_id":"ce4bh492rcd13ifvqdug","pricing_plan_id":"cebpf4jnsgd1na2vs0mg"},{"bike_id":"d5426224-b207-4ac9-92ce-42ade048fe02","system_id":"levelo_inurba_marseille","lat":43.30537,"lon":5.36539,"is_reserved":false,"is_disabled":false,"rental_uris":{"android":"levelo://app?vid=d5426224-b207-4ac9-92ce-42ade048fe02","ios":"levelo://app?vid=d5426224-b207-4ac9-92ce-42ade048fe02"},"vehicle_type_id":"4","last_reported":1731409643,"current_range_meters":28400,"station_id":"ce4bgs12rcd13ifvqcag","pricing_plan_id":"cebpf4jnsgd1na2vs0mg"},{"bike_id":"f974418c-0859-44c7-ad3e-eb7e26cb4f59","system_id":"levelo_inurba_marseille","lat":43.29272,"lon":5.40109,"is_reserved":false,"is_disabled":false,"rental_uris":{"android":"levelo://app?vid=f974418c-0859-44c7-ad3e-eb7e26cb4f59","ios":"levelo://app?vid=f974418c-0859-44c7-ad3e-eb7e26cb4f59"},"vehicle_type_id":"4","last_reported":1731409643,"current_range_meters":38000,"station_id":"ce4bh312rcd13ifvqdk0","pricing_plan_id":"cebpf4jnsgd1na2vs0mg"},{"bike_id":"cf030a69-a16e-413f-8391-bbfc07e67c31","system_id":"levelo_inurba_marseille","lat":43.28361,"lon":5.38618,"is_reserved":false,"is_disabled":false,"rental_uris":{"android":"levelo://app?vid=cf030a69-a16e-413f-8391-bbfc07e67c31","ios":"levelo://app?vid=cf030a69-a16e-413f-8391-bbfc07e67c31"},"vehicle_type_id":"4","last_reported":1731409643,"current_range_meters":28000,"station_id":"ce4bh492rcd13ifvqdvg","pricing_plan_id":"cebpf4jnsgd1na2vs0mg"},{"bike_id":"a2713e59-5f4b-4a7c-90d1-54f5f802a964","system_id":"levelo_inurba_marseille","lat":43.27998,"lon":5.40021,"is_reserved":false,"is_disabled":false,"rental_uris":{"android":"levelo://app?vid=a2713e59-5f4b-4a7c-90d1-54f5f802a964","ios":"levelo://app?vid=a2713e59-5f4b-4a7c-90d1-54f5f802a964"},"vehicle_type_id":"4","last_reported":1731409643,"current_range_meters":37600,"station_id":"ce4bho92rcd13ifvqh4g","pricing_plan_id":"cebpf4jnsgd1na2vs0mg"},{"bike_id":"99b1f1e7-062b-47cb-9aa9-34dfc0e8dfb8","system_id":"levelo_inurba_marseille","lat":43.31757,"lon":5.39016,"is_reserved":false,"is_disabled":false,"rental_uris":{"android":"levelo://app?vid=99b1f1e7-062b-47cb-9aa9-34dfc0e8dfb8","ios":"levelo://app?vid=99b1f1e7-062b-47cb-9aa9-34dfc0e8dfb8"},"vehicle_type_id":"4","last_reported":1731409643,"current_range_meters":8800,"station_id":"ce4bhqp2rcd13ifvqhng","pricing_plan_id":"cebpf4jnsgd1na2vs0mg"},{"bike_id":"0fa4e1b1-2fba-415a-9413-923835308bde","system_id":"levelo_inurba_marseille","lat":43.2558,"lon":5.38248,"is_reserved":false,"is_disabled":false,"rental_uris":{"android":"levelo://app?vid=0fa4e1b1-2fba-415a-9413-923835308bde","ios":"levelo://app?vid=0fa4e1b1-2fba-415a-9413-923835308bde"},"vehicle_type_id":"4","last_reported":1731409643,"current_range_meters":16400,"station_id":"ce4bhih2rcd13ifvqfs0","pricing_plan_id":"cebpf4jnsgd1na2vs0mg"},{"bike_id":"215ac4fa-64b5-4064-a0cb-691d109bb1b8","system_id":"levelo_inurba_marseille","lat":43.29844,"lon":5.36268,"is_reserved":false,"is_disabled":false,"rental_uris":{"android":"levelo://app?vid=215ac4fa-64b5-4064-a0cb-691d109bb1b8","ios":"levelo://app?vid=215ac4fa-64b5-4064-a0cb-691d109bb1b8"},"vehicle_type_id":"4","last_reported":1731409643,"current_range_meters":20800,"station_id":"ce4bgpp2rcd13ifvqc3g","pricing_plan_id":"cebpf4jnsgd1na2vs0mg"},{"bike_id":"e92c5947-6d80-41ba-aecc-06ded8281947","system_id":"levelo_inurba_marseille","lat":43.32483,"lon":5.36566,"is_reserved":false,"is_disabled":false,"rental_uris":{"android":"levelo://app?vid=e92c5947-6d80-41ba-aecc-06ded8281947","ios":"levelo://app?vid=e92c5947-6d80-41ba-aecc-06ded8281947"},"vehicle_type_id":"4","last_reported":1731409643,"current_range_meters":38000,"station_id":"ce4bhs12rcd13ifvqhvg","pricing_plan_id":"cebpf4jnsgd1na2vs0mg"},{"bike_id":"0625f123-144e-4825-a568-156272e7a978","system_id":"levelo_inurba_marseille","lat":43.305481,"lon":5.365346,"is_reserved":false,"is_disabled":false,"rental_uris":{"android":"levelo://app?vid=0625f123-144e-4825-a568-156272e7a978","ios":"levelo://app?vid=0625f123-144e-4825-a568-156272e7a978"},"vehicle_type_id":"4","last_reported":1731409643,"current_range_meters":30000,"station_id":"ce4bgs12rcd13ifvqcag","pricing_plan_id":"cebpf4jnsgd1na2vs0mg"},{"bike_id":"95f5045e-8fd4-447c-a73d-f7eb497c745b","system_id":"levelo_inurba_marseille","lat":43.30183,"lon":5.36614,"is_reserved":false,"is_disabled":false,"rental_uris":{"android":"levelo://app?vid=95f5045e-8fd4-447c-a73d-f7eb497c745b","ios":"levelo://app?vid=95f5045e-8fd4-447c-a73d-f7eb497c745b"},"vehicle_type_id":"4","last_reported":1731409643,"current_range_meters":38000,"station_id":"ce4bgrh2rcd13ifvqc8g","pricing_plan_id":"cebpf4jnsgd1na2vs0mg"},{"bike_id":"b9ecfbcf-3cfc-4dc2-a21d-c9650bd6e460","system_id":"levelo_inurba_marseille","lat":43.30528,"lon":5.36536,"is_reserved":false,"is_disabled":false,"rental_uris":{"android":"levelo://app?vid=b9ecfbcf-3cfc-4dc2-a21d-c9650bd6e460","ios":"levelo://app?vid=b9ecfbcf-3cfc-4dc2-a21d-c9650bd6e460"},"vehicle_type_id":"4","last_reported":1731409643,"current_range_meters":39200,"station_id":"ce4bgs12rcd13ifvqcag","pricing_plan_id":"cebpf4jnsgd1na2vs0mg"},{"bike_id":"e87f9406-2fab-4e2b-85a1-12c23c486a46","system_id":"levelo_inurba_marseille","lat":43.33606,"lon":5.4102,"is_reserved":false,"is_disabled":false,"rental_uris":{"android":"levelo://app?vid=e87f9406-2fab-4e2b-85a1-12c23c486a46","ios":"levelo://app?vid=e87f9406-2fab-4e2b-85a1-12c23c486a46"},"vehicle_type_id":"4","last_reported":1731409643,"current_range_meters":37600,"station_id":"ce4bhqh2rcd13ifvqhmg","pricing_plan_id":"cebpf4jnsgd1na2vs0mg"},{"bike_id":"c832b8ef-b53e-494b-9647-5243c341b731","system_id":"levelo_inurba_marseille","lat":43.27967,"lon":5.38719,"is_reserved":false,"is_disabled":false,"rental_uris":{"android":"levelo://app?vid=c832b8ef-b53e-494b-9647-5243c341b731","ios":"levelo://app?vid=c832b8ef-b53e-494b-9647-5243c341b731"},"vehicle_type_id":"4","last_reported":1731409643,"current_range_meters":39200,"station_id":"ce4bhg12rcd13ifvqf80","pricing_plan_id":"cebpf4jnsgd1na2vs0mg"},{"bike_id":"e6e8b17e-b78a-47f8-87b6-edf9fe27d935","system_id":"levelo_inurba_marseille","lat":43.26942,"lon":5.40249,"is_reserved":false,"is_disabled":false,"rental_uris":{"android":"levelo://app?vid=e6e8b17e-b78a-47f8-87b6-edf9fe27d935","ios":"levelo://app?vid=e6e8b17e-b78a-47f8-87b6-edf9fe27d935"},"vehicle_type_id":"4","last_reported":1731409643,"current_range_meters":37600,"station_id":"cjm6bp8fraef2m0cb0m0","pricing_plan_id":"cebpf4jnsgd1na2vs0mg"},{"bike_id":"284a631b-d35f-4abf-8c0c-89b46dfbd0d7","system_id":"levelo_inurba_marseille","lat":43.30901,"lon":5.36846,"is_reserved":false,"is_disabled":false,"rental_uris":{"android":"levelo://app?vid=284a631b-d35f-4abf-8c0c-89b46dfbd0d7","ios":"levelo://app?vid=284a631b-d35f-4abf-8c0c-89b46dfbd0d7"},"vehicle_type_id":"4","last_reported":1731409643,"current_range_meters":36800,"station_id":"ce4bgn92rcd13ifvqbvg","pricing_plan_id":"cebpf4jnsgd1na2vs0mg"},{"bike_id":"e7b1aa23-16ca-4572-80cd-f773513f26ce","system_id":"levelo_inurba_marseille","lat":43.29841,"lon":5.36268,"is_reserved":false,"is_disabled":false,"rental_uris":{"android":"levelo://app?vid=e7b1aa23-16ca-4572-80cd-f773513f26ce","ios":"levelo://app?vid=e7b1aa23-16ca-4572-80cd-f773513f26ce"},"vehicle_type_id":"4","last_reported":1731409643,"current_range_meters":26000,"station_id":"ce4bgpp2rcd13ifvqc3g","pricing_plan_id":"cebpf4jnsgd1na2vs0mg"},{"bike_id":"e0d573cb-2cd1-45b5-92b5-4f56afcba59c","system_id":"levelo_inurba_marseille","lat":43.29155,"lon":5.37163,"is_reserved":false,"is_disabled":false,"rental_uris":{"android":"levelo://app?vid=e0d573cb-2cd1-45b5-92b5-4f56afcba59c","ios":"levelo://app?vid=e0d573cb-2cd1-45b5-92b5-4f56afcba59c"},"vehicle_type_id":"4","last_reported":1731409643,"current_range_meters":38800,"station_id":"ce4bha92rcd13ifvqeh0","pricing_plan_id":"cebpf4jnsgd1na2vs0mg"},{"bike_id":"721744ee-a77d-4c5d-96be-59a106f4c316","system_id":"levelo_inurba_marseille","lat":43.24073,"lon":5.3776,"is_reserved":false,"is_disabled":false,"rental_uris":{"android":"levelo://app?vid=721744ee-a77d-4c5d-96be-59a106f4c316","ios":"levelo://app?vid=721744ee-a77d-4c5d-96be-59a106f4c316"},"vehicle_type_id":"4","last_reported":1731409643,"current_range_meters":25200,"station_id":"ce4bhnp2rcd13ifvqgvg","pricing_plan_id":"cebpf4jnsgd1na2vs0mg"},{"bike_id":"99d577e8-3758-4065-a71c-2a54a84c25aa","system_id":"levelo_inurba_marseille","lat":43.25863,"lon":5.39894,"is_reserved":false,"is_disabled":false,"rental_uris":{"android":"levelo://app?vid=99d577e8-3758-4065-a71c-2a54a84c25aa","ios":"levelo://app?vid=99d577e8-3758-4065-a71c-2a54a84c25aa"},"vehicle_type_id":"4","last_reported":1731409643,"current_range_meters":37600,"station_id":"ce4bhl92rcd13ifvqghg","pricing_plan_id":"cebpf4jnsgd1na2vs0mg"},{"bike_id":"9b899324-9bf0-4e7e-944b-128cdc9d3596","system_id":"levelo_inurba_marseille","lat":43.25581,"lon":5.38233,"is_reserved":false,"is_disabled":false,"rental_uris":{"android":"levelo://app?vid=9b899324-9bf0-4e7e-944b-128cdc9d3596","ios":"levelo://app?vid=9b899324-9bf0-4e7e-944b-128cdc9d3596"},"vehicle_type_id":"4","last_reported":1731409643,"current_range_meters":34000,"station_id":"ce4bhih2rcd13ifvqfs0","pricing_plan_id":"cebpf4jnsgd1na2vs0mg"},{"bike_id":"4ad934d9-a510-4df2-8577-ed6282d75902","system_id":"levelo_inurba_marseille","lat":43.296,"lon":5.38093,"is_reserved":false,"is_disabled":false,"rental_uris":{"android":"levelo://app?vid=4ad934d9-a510-4df2-8577-ed6282d75902","ios":"levelo://app?vid=4ad934d9-a510-4df2-8577-ed6282d75902"},"vehicle_type_id":"4","last_reported":1731409643,"current_range_meters":38400,"station_id":"ce4bgl12rcd13ifvqbo0","pricing_plan_id":"cebpf4jnsgd1na2vs0mg"},{"bike_id":"5038b3d1-9358-4be9-b4b3-374cf19dd9f2","system_id":"levelo_inurba_marseille","lat":43.28679,"lon":5.38658,"is_reserved":false,"is_disabled":false,"rental_uris":{"android":"levelo://app?vid=5038b3d1-9358-4be9-b4b3-374cf19dd9f2","ios":"levelo://app?vid=5038b3d1-9358-4be9-b4b3-374cf19dd9f2"},"vehicle_type_id":"4","last_reported":1731409643,"current_range_meters":37600,"station_id":"ce4bh492rcd13ifvqdug","pricing_plan_id":"cebpf4jnsgd1na2vs0mg"},{"bike_id":"52a803cd-037c-4542-9657-84b331aca8ec","system_id":"levelo_inurba_marseille","lat":43.27433,"lon":5.39403,"is_reserved":false,"is_disabled":false,"rental_uris":{"android":"levelo://app?vid=52a803cd-037c-4542-9657-84b331aca8ec","ios":"levelo://app?vid=52a803cd-037c-4542-9657-84b331aca8ec"},"vehicle_type_id":"4","last_reported":1731409643,"current_range_meters":33200,"station_id":"ce4bhdp2rcd13ifvqf20","pricing_plan_id":"cebpf4jnsgd1na2vs0mg"},{"bike_id":"58e12c16-8727-45bc-88ca-9c77aa3adbd8","system_id":"levelo_inurba_marseille","lat":43.30286,"lon":5.37704,"is_reserved":false,"is_disabled":false,"rental_uris":{"android":"levelo://app?vid=58e12c16-8727-45bc-88ca-9c77aa3adbd8","ios":"levelo://app?vid=58e12c16-8727-45bc-88ca-9c77aa3adbd8"},"vehicle_type_id":"4","last_reported":1731409643,"current_range_meters":39200,"station_id":"ce4bguh2rcd13ifvqcj0","pricing_plan_id":"cebpf4jnsgd1na2vs0mg"},{"bike_id":"157a35fa-5a72-47cc-8d9f-01ff84a920cc","system_id":"levelo_inurba_marseille","lat":43.28847,"lon":5.39313,"is_reserved":false,"is_disabled":false,"rental_uris":{"android":"levelo://app?vid=157a35fa-5a72-47cc-8d9f-01ff84a920cc","ios":"levelo://app?vid=157a35fa-5a72-47cc-8d9f-01ff84a920cc"},"vehicle_type_id":"4","last_reported":1731409643,"current_range_meters":35600,"station_id":"ce4bh2p2rcd13ifvqdi0","pricing_plan_id":"cebpf4jnsgd1na2vs0mg"},{"bike_id":"d5b07c11-620d-4429-b66d-fc73a3924ac1","system_id":"levelo_inurba_marseille","lat":43.28109,"lon":5.37846,"is_reserved":false,"is_disabled":false,"rental_uris":{"android":"levelo://app?vid=d5b07c11-620d-4429-b66d-fc73a3924ac1","ios":"levelo://app?vid=d5b07c11-620d-4429-b66d-fc73a3924ac1"},"vehicle_type_id":"4","last_reported":1731409643,"current_range_meters":33600,"station_id":"ce4bha12rcd13ifvqee0","pricing_plan_id":"cebpf4jnsgd1na2vs0mg"},{"bike_id":"5a1e29ec-2829-42fe-91d5-033c37b110e5","system_id":"levelo_inurba_marseille","lat":43.31339,"lon":5.36724,"is_reserved":false,"is_disabled":false,"rental_uris":{"android":"levelo://app?vid=5a1e29ec-2829-42fe-91d5-033c37b110e5","ios":"levelo://app?vid=5a1e29ec-2829-42fe-91d5-033c37b110e5"},"vehicle_type_id":"4","last_reported":1731409643,"current_range_meters":36000,"station_id":"ce4bgr92rcd13ifvqc6g","pricing_plan_id":"cebpf4jnsgd1na2vs0mg"},{"bike_id":"0331047c-92b1-40dd-8c87-ce9fb982b619","system_id":"levelo_inurba_marseille","lat":43.29372,"lon":5.37847,"is_reserved":false,"is_disabled":false,"rental_uris":{"android":"levelo://app?vid=0331047c-92b1-40dd-8c87-ce9fb982b619","ios":"levelo://app?vid=0331047c-92b1-40dd-8c87-ce9fb982b619"},"vehicle_type_id":"4","last_reported":1731409643,"current_range_meters":39200,"station_id":"ce4bgjh2rcd13ifvqbf0","pricing_plan_id":"cebpf4jnsgd1na2vs0mg"},{"bike_id":"afa715b5-1241-4d6f-8f78-73e0daefc925","system_id":"levelo_inurba_marseille","lat":43.29005,"lon":5.35616,"is_reserved":false,"is_disabled":false,"rental_uris":{"android":"levelo://app?vid=afa715b5-1241-4d6f-8f78-73e0daefc925","ios":"levelo://app?vid=afa715b5-1241-4d6f-8f78-73e0daefc925"},"vehicle_type_id":"4","last_reported":1731409643,"current_range_meters":34000,"station_id":"ce4bhb92rcd13ifvqen0","pricing_plan_id":"cebpf4jnsgd1na2vs0mg"},{"bike_id":"7332911e-7201-4fa9-aff7-01a3ce3d15d8","system_id":"levelo_inurba_marseille","lat":43.30876,"lon":5.3963,"is_reserved":false,"is_disabled":false,"rental_uris":{"android":"levelo://app?vid=7332911e-7201-4fa9-aff7-01a3ce3d15d8","ios":"levelo://app?vid=7332911e-7201-4fa9-aff7-01a3ce3d15d8"},"vehicle_type_id":"4","last_reported":1731409643,"current_range_meters":28000,"station_id":"ce4bh012rcd13ifvqcv0","pricing_plan_id":"cebpf4jnsgd1na2vs0mg"},{"bike_id":"09f98e30-78f5-4add-b73c-c3001a5d8a50","system_id":"levelo_inurba_marseille","lat":43.23967,"lon":5.36638,"is_reserved":false,"is_disabled":false,"rental_uris":{"android":"levelo://app?vid=09f98e30-78f5-4add-b73c-c3001a5d8a50","ios":"levelo://app?vid=09f98e30-78f5-4add-b73c-c3001a5d8a50"},"vehicle_type_id":"4","last_reported":1731409643,"current_range_meters":8000,"station_id":"ce4bhi12rcd13ifvqfp0","pricing_plan_id":"cebpf4jnsgd1na2vs0mg"},{"bike_id":"e48628dd-005d-43d3-86df-220070de1ac8","system_id":"levelo_inurba_marseille","lat":43.2815,"lon":5.42634,"is_reserved":false,"is_disabled":false,"rental_uris":{"android":"levelo://app?vid=e48628dd-005d-43d3-86df-220070de1ac8","ios":"levelo://app?vid=e48628dd-005d-43d3-86df-220070de1ac8"},"vehicle_type_id":"4","last_reported":1731409643,"current_range_meters":38400,"station_id":"ce4bhnh2rcd13ifvqgug","pricing_plan_id":"cebpf4jnsgd1na2vs0mg"},{"bike_id":"0fb7af37-ed7e-4639-a28c-e6d4b52ce80c","system_id":"levelo_inurba_marseille","lat":43.337444,"lon":5.374475,"is_reserved":false,"is_disabled":false,"rental_uris":{"android":"levelo://app?vid=0fb7af37-ed7e-4639-a28c-e6d4b52ce80c","ios":"levelo://app?vid=0fb7af37-ed7e-4639-a28c-e6d4b52ce80c"},"vehicle_type_id":"4","last_reported":1731409643,"current_range_meters":38800,"station_id":"ce4bgvp2rcd13ifvqct0","pricing_plan_id":"cebpf4jnsgd1na2vs0mg"},{"bike_id":"b6d7889d-9d4d-44b1-809b-60f52f4e4435","system_id":"levelo_inurba_marseille","lat":43.28007,"lon":5.40011,"is_reserved":false,"is_disabled":false,"rental_uris":{"android":"levelo://app?vid=b6d7889d-9d4d-44b1-809b-60f52f4e4435","ios":"levelo://app?vid=b6d7889d-9d4d-44b1-809b-60f52f4e4435"},"vehicle_type_id":"4","last_reported":1731409643,"current_range_meters":38800,"station_id":"ce4bho92rcd13ifvqh4g","pricing_plan_id":"cebpf4jnsgd1na2vs0mg"},{"bike_id":"45d26a0f-3f6f-461d-bdb1-a9f4449d6351","system_id":"levelo_inurba_marseille","lat":43.29871,"lon":5.39724,"is_reserved":false,"is_disabled":false,"rental_uris":{"android":"levelo://app?vid=45d26a0f-3f6f-461d-bdb1-a9f4449d6351","ios":"levelo://app?vid=45d26a0f-3f6f-461d-bdb1-a9f4449d6351"},"vehicle_type_id":"4","last_reported":1731409643,"current_range_meters":36800,"station_id":"ce4bh0h2rcd13ifvqd50","pricing_plan_id":"cebpf4jnsgd1na2vs0mg"},{"bike_id":"be8284b8-6ff1-4005-ada3-13cc318df1b1","system_id":"levelo_inurba_marseille","lat":43.24082,"lon":5.37747,"is_reserved":false,"is_disabled":false,"rental_uris":{"android":"levelo://app?vid=be8284b8-6ff1-4005-ada3-13cc318df1b1","ios":"levelo://app?vid=be8284b8-6ff1-4005-ada3-13cc318df1b1"},"vehicle_type_id":"4","last_reported":1731409643,"current_range_meters":34800,"station_id":"ce4bhnp2rcd13ifvqgvg","pricing_plan_id":"cebpf4jnsgd1na2vs0mg"},{"bike_id":"776716de-549c-4e68-a8a2-7cc61ad42995","system_id":"levelo_inurba_marseille","lat":43.27054,"lon":5.40261,"is_reserved":false,"is_disabled":false,"rental_uris":{"android":"levelo://app?vid=776716de-549c-4e68-a8a2-7cc61ad42995","ios":"levelo://app?vid=776716de-549c-4e68-a8a2-7cc61ad42995"},"vehicle_type_id":"4","last_reported":1731409643,"current_range_meters":38000,"station_id":"ce4bhk92rcd13ifvqgc0","pricing_plan_id":"cebpf4jnsgd1na2vs0mg"},{"bike_id":"aa81cd4d-52e5-4916-b3b1-6e135085c8ef","system_id":"levelo_inurba_marseille","lat":43.24806,"lon":5.37454,"is_reserved":false,"is_disabled":false,"rental_uris":{"android":"levelo://app?vid=aa81cd4d-52e5-4916-b3b1-6e135085c8ef","ios":"levelo://app?vid=aa81cd4d-52e5-4916-b3b1-6e135085c8ef"},"vehicle_type_id":"4","last_reported":1731409643,"current_range_meters":38800,"station_id":"ce4bhgh2rcd13ifvqfb0","pricing_plan_id":"cebpf4jnsgd1na2vs0mg"},{"bike_id":"b82ca193-208e-4504-a9cb-f6b1a11b4166","system_id":"levelo_inurba_marseille","lat":43.27496,"lon":5.42459,"is_reserved":false,"is_disabled":false,"rental_uris":{"android":"levelo://app?vid=b82ca193-208e-4504-a9cb-f6b1a11b4166","ios":"levelo://app?vid=b82ca193-208e-4504-a9cb-f6b1a11b4166"},"vehicle_type_id":"4","last_reported":1731409643,"current_range_meters":28800,"station_id":"ce4bhn92rcd13ifvqgrg","pricing_plan_id":"cebpf4jnsgd1na2vs0mg"},{"bike_id":"e05f94ff-8355-4857-ad5a-cde40a214d16","system_id":"levelo_inurba_marseille","lat":43.31081,"lon":5.38911,"is_reserved":false,"is_disabled":false,"rental_uris":{"android":"levelo://app?vid=e05f94ff-8355-4857-ad5a-cde40a214d16","ios":"levelo://app?vid=e05f94ff-8355-4857-ad5a-cde40a214d16"},"vehicle_type_id":"4","last_reported":1731409643,"current_range_meters":24000,"station_id":"ce4bgv12rcd13ifvqcp0","pricing_plan_id":"cebpf4jnsgd1na2vs0mg"},{"bike_id":"c2c0ee8f-eb2c-4d6a-918d-56f9f4601447","system_id":"levelo_inurba_marseille","lat":43.288605,"lon":5.393308,"is_reserved":false,"is_disabled":false,"rental_uris":{"android":"levelo://app?vid=c2c0ee8f-eb2c-4d6a-918d-56f9f4601447","ios":"levelo://app?vid=c2c0ee8f-eb2c-4d6a-918d-56f9f4601447"},"vehicle_type_id":"4","last_reported":1731409643,"current_range_meters":10800,"station_id":"ce4bh2p2rcd13ifvqdi0","pricing_plan_id":"cebpf4jnsgd1na2vs0mg"},{"bike_id":"9e590266-6f2f-40eb-b142-8348db6ae6fc","system_id":"levelo_inurba_marseille","lat":43.31222,"lon":5.36867,"is_reserved":false,"is_disabled":false,"rental_uris":{"android":"levelo://app?vid=9e590266-6f2f-40eb-b142-8348db6ae6fc","ios":"levelo://app?vid=9e590266-6f2f-40eb-b142-8348db6ae6fc"},"vehicle_type_id":"4","last_reported":1731409643,"current_range_meters":24800,"station_id":"ce4bgl92rcd13ifvqbq0","pricing_plan_id":"cebpf4jnsgd1na2vs0mg"},{"bike_id":"865d69a1-2887-4f56-88ef-821a8ce9e7ff","system_id":"levelo_inurba_marseille","lat":43.28464,"lon":5.3588,"is_reserved":false,"is_disabled":false,"rental_uris":{"android":"levelo://app?vid=865d69a1-2887-4f56-88ef-821a8ce9e7ff","ios":"levelo://app?vid=865d69a1-2887-4f56-88ef-821a8ce9e7ff"},"vehicle_type_id":"4","last_reported":1731409643,"current_range_meters":32400,"station_id":"ce4bhah2rcd13ifvqei0","pricing_plan_id":"cebpf4jnsgd1na2vs0mg"},{"bike_id":"7ca33f6b-e349-49e0-8226-5b445a766323","system_id":"levelo_inurba_marseille","lat":43.32102,"lon":5.36777,"is_reserved":false,"is_disabled":false,"rental_uris":{"android":"levelo://app?vid=7ca33f6b-e349-49e0-8226-5b445a766323","ios":"levelo://app?vid=7ca33f6b-e349-49e0-8226-5b445a766323"},"vehicle_type_id":"4","last_reported":1731409643,"current_range_meters":25200,"station_id":"ce4bhrh2rcd13ifvqhug","pricing_plan_id":"cebpf4jnsgd1na2vs0mg"},{"bike_id":"5b163b7f-1d35-4f76-9d66-4a8d50011eb3","system_id":"levelo_inurba_marseille","lat":43.3031,"lon":5.36897,"is_reserved":false,"is_disabled":false,"rental_uris":{"android":"levelo://app?vid=5b163b7f-1d35-4f76-9d66-4a8d50011eb3","ios":"levelo://app?vid=5b163b7f-1d35-4f76-9d66-4a8d50011eb3"},"vehicle_type_id":"4","last_reported":1731409643,"current_range_meters":32000,"station_id":"ce4bgqh2rcd13ifvqc5g","pricing_plan_id":"cebpf4jnsgd1na2vs0mg"},{"bike_id":"359fd56a-3c04-4922-8c88-eba098dcb7de","system_id":"levelo_inurba_marseille","lat":43.30933,"lon":5.40138,"is_reserved":false,"is_disabled":false,"rental_uris":{"android":"levelo://app?vid=359fd56a-3c04-4922-8c88-eba098dcb7de","ios":"levelo://app?vid=359fd56a-3c04-4922-8c88-eba098dcb7de"},"vehicle_type_id":"4","last_reported":1731409643,"current_range_meters":20000,"station_id":"ce4bgvp2rcd13ifvqct0","pricing_plan_id":"cebpf4jnsgd1na2vs0mg"},{"bike_id":"117636e1-fa18-414e-b898-6b2107f377c8","system_id":"levelo_inurba_marseille","lat":43.29971,"lon":5.38486,"is_reserved":false,"is_disabled":false,"rental_uris":{"android":"levelo://app?vid=117636e1-fa18-414e-b898-6b2107f377c8","ios":"levelo://app?vid=117636e1-fa18-414e-b898-6b2107f377c8"},"vehicle_type_id":"4","last_reported":1731409643,"current_range_meters":38800,"station_id":"ce4bgj92rcd13ifvqbd0","pricing_plan_id":"cebpf4jnsgd1na2vs0mg"},{"bike_id":"189a74ab-9979-48e7-8606-93e9d2bc5df4","system_id":"levelo_inurba_marseille","lat":43.231494,"lon":5.437219,"is_reserved":false,"is_disabled":false,"rental_uris":{"android":"levelo://app?vid=189a74ab-9979-48e7-8606-93e9d2bc5df4","ios":"levelo://app?vid=189a74ab-9979-48e7-8606-93e9d2bc5df4"},"vehicle_type_id":"4","last_reported":1731409643,"current_range_meters":39200,"station_id":"ce4bhmp2rcd13ifvqgog","pricing_plan_id":"cebpf4jnsgd1na2vs0mg"},{"bike_id":"1f455b1e-0230-4ac8-af72-bbf9018e4d16","system_id":"levelo_inurba_marseille","lat":43.31891,"lon":5.40734,"is_reserved":false,"is_disabled":false,"rental_uris":{"android":"levelo://app?vid=1f455b1e-0230-4ac8-af72-bbf9018e4d16","ios":"levelo://app?vid=1f455b1e-0230-4ac8-af72-bbf9018e4d16"},"vehicle_type_id":"4","last_reported":1731409643,"current_range_meters":32000,"station_id":"ce4bhq12rcd13ifvqhig","pricing_plan_id":"cebpf4jnsgd1na2vs0mg"},