{"last_updated":1691773532,"ttl":30,"version":"2.2","data":{"bikes":[{"bike_id":"52691382-f32b-4506-b92b-76628e57dd88","system_id":"levelo_inurba_marseille","lat":43.312239,"lon":5.368562,"is_reserved":false,"is_disabled":false,"rental_uris":{"android":"levelo://app?vid=52691382-f32b-4506-b92b-76628e57dd88","ios":"levelo://app?vid=52691382-f32b-4506-b92b-76628e57dd88"},"vehicle_type_id":"4","last_reported":1691773532,"current_range_meters":19200,"station_id":"ce4bgl92rcd13ifvqbq0","pricing_plan_id":"free"},{"bike_id":"6b89afb0-da11-4ad9-b45f-079128e657c0","system_id":"levelo_inurba_marseille","lat":43.305706,"lon":5.365654,"is_reserved":false,"is_disabled":false,"rental_uris":{"android":"levelo://app?vid=6b89afb0-da11-4ad9-b45f-079128e657c0","ios":"levelo://app?vid=6b89afb0-da11-4ad9-b45f-079128e657c0"},"vehicle_type_id":"4","last_reported":1691773532,"current_range_meters":0,"station_id":"ce4bgs12rcd13ifvqcag","pricing_plan_id":"free"},{"bike_id":"33ee35ed-e071-4764-a761-ba154972f9b6","system_id":"levelo_inurba_marseille","lat":43.317075,"lon":5.377367,"is_reserved":false,"is_disabled":false,"rental_uris":{"android":"levelo://app?vid=33ee35ed-e071-4764-a761-ba154972f9b6","ios":"levelo://app?vid=33ee35ed-e071-4764-a761-ba154972f9b6"},"vehicle_type_id":"4","last_reported":1691773532,"current_range_meters":3200,"station_id":"ce4bgth2rcd13ifvqch0","pricing_plan_id":"free"},{"bike_id":"275fa5cc-e88e-4f5f-a184-e2b2c96765c4","system_id":"levelo_inurba_marseille","lat":43.303085,"lon":5.368982,"is_reserved":false,"is_disabled":false,"rental_uris":{"android":"levelo://app?vid=275fa5cc-e88e-4f5f-a184-e2b2c96765c4","ios":"levelo://app?vid=275fa5cc-e88e-4f5f-a184-e2b2c96765c4"},"vehicle_type_id":"4","last_reported":1691773532,"current_range_meters":16400,"station_id":"","pricing_plan_id":"free"},{"bike_id":"d81715e7-350a-4eb1-97e6-c8a71cf478d3","system_id":"levelo_inurba_marseille","lat":43.30295,"lon":5.36886,"is_reserved":false,"is_disabled":false,"rental_uris":{"android":"levelo://app?vid=d81715e7-350a-4eb1-97e6-c8a71cf478d3","ios":"levelo://app?vid=d81715e7-350a-4eb1-97e6-c8a71cf478d3"},"vehicle_type_id":"4","last_reported":1691773532,"current_range_meters":18800,"station_id":"ce4bgqh2rcd13ifvqc5g","pricing_plan_id":"free"},{"bike_id":"f1b1efc5-dddc-47ad-8a1f-02061c9740bc","system_id":"levelo_inurba_marseille","lat":43.31535,"lon":5.38038,"is_reserved":false,"is_disabled":false,"rental_uris":{"android":"levelo://app?vid=f1b1efc5-dddc-47ad-8a1f-02061c9740bc","ios":"levelo://app?vid=f1b1efc5-dddc-47ad-8a1f-02061c9740bc"},"vehicle_type_id":"4","last_reported":1691773532,"current_range_meters":6800,"station_id":"ce4bhsp2rcd13ifvqi50","pricing_plan_id":"free"},{"bike_id":"ff42565f-c746-40eb-b006-5249c0c17837","system_id":"levelo_inurba_marseille","lat":43.31538,"lon":5.38037,"is_reserved":false,"is_disabled":false,"rental_uris":{"android":"levelo://app?vid=ff42565f-c746-40eb-b006-5249c0c17837","ios":"levelo://app?vid=ff42565f-c746-40eb-b006-5249c0c17837"},"vehicle_type_id":"4","last_reported":1691773532,"current_range_meters":22800,"station_id":"ce4bhsp2rcd13ifvqi50","pricing_plan_id":"free"},{"bike_id":"58d7d068-5a29-44b0-9b24-0b3d86da72ec","system_id":"levelo_inurba_marseille","lat":43.301939,"lon":5.366286,"is_reserved":false,"is_disabled":false,"rental_uris":{"android":"levelo://app?vid=58d7d068-5a29-44b0-9b24-0b3d86da72ec","ios":"levelo://app?vid=58d7d068-5a29-44b0-9b24-0b3d86da72ec"},"vehicle_type_id":"4","last_reported":1691773532,"current_range_meters":27200,"station_id":"ce4bgrh2rcd13ifvqc8g","pricing_plan_id":"free"},{"bike_id":"f1388d8b-f9f9-4cb7-a4db-13ce0fb825e7","system_id":"levelo_inurba_marseille","lat":43.30287,"lon":5.37695,"is_reserved":false,"is_disabled":false,"rental_uris":{"android":"levelo://app?vid=f1388d8b-f9f9-4cb7-a4db-13ce0fb825e7","ios":"levelo://app?vid=f1388d8b-f9f9-4cb7-a4db-13ce0fb825e7"},"vehicle_type_id":"4","last_reported":1691773532,"current_range_meters":18400,"station_id":"ce4bguh2rcd13ifvqcj0","pricing_plan_id":"free"},{"bike_id":"33332e1d-d832-48fe-bb7c-26242b5bfba5","system_id":"levelo_inurba_marseille","lat":43.302784,"lon":5.377158,"is_reserved":false,"is_disabled":false,"rental_uris":{"android":"levelo://app?vid=33332e1d-d832-48fe-bb7c-26242b5bfba5","ios":"levelo://app?vid=33332e1d-d832-48fe-bb7c-26242b5bfba5"},"vehicle_type_id":"4","last_reported":1691773532,"current_range_meters":26000,"station_id":"ce4bguh2rcd13ifvqcj0","pricing_plan_id":"free"},{"bike_id":"aa338f08-6ec6-4409-88ae-f9414ca5e459","system_id":"levelo_inurba_marseille","lat":43.30285,"lon":5.37707,"is_reserved":false,"is_disabled":false,"rental_uris":{"android":"levelo://app?vid=aa338f08-6ec6-4409-88ae-f9414ca5e459","ios":"levelo://app?vid=aa338f08-6ec6-4409-88ae-f9414ca5e459"},"vehicle_type_id":"4","last_reported":1691773532,"current_range_meters":20400,"station_id":"ce4bguh2rcd13ifvqcj0","pricing_plan_id":"free"},{"bike_id":"a4684f89-570b-414c-956e-be430fdb3700","system_id":"levelo_inurba_marseille","lat":43.31999,"lon":5.38153,"is_reserved":false,"is_disabled":false,"rental_uris":{"android":"levelo://app?vid=a4684f89-570b-414c-956e-be430fdb3700","ios":"levelo://app?vid=a4684f89-570b-414c-956e-be430fdb3700"},"vehicle_type_id":"4","last_reported":1691773532,"current_range_meters":1200,"station_id":"ce4bhr12rcd13ifvqhpg","pricing_plan_id":"free"},{"bike_id":"57a583e5-0276-479a-9730-dd0e77cd45f6","system_id":"levelo_inurba_marseille","lat":43.319935,"lon":5.381699,"is_reserved":false,"is_disabled":false,"rental_uris":{"android":"levelo://app?vid=57a583e5-0276-479a-9730-dd0e77cd45f6","ios":"levelo://app?vid=57a583e5-0276-479a-9730-dd0e77cd45f6"},"vehicle_type_id":"4","last_reported":1691773532,"current_range_meters":0,"station_id":"ce4bhr12rcd13ifvqhpg","pricing_plan_id":"free"},{"bike_id":"24a7b8a2-c5b6-4c66-90d6-352e896fcf94","system_id":"levelo_inurba_marseille","lat":43.313571,"lon":5.384829,"is_reserved":false,"is_disabled":false,"rental_uris":{"android":"levelo://app?vid=24a7b8a2-c5b6-4c66-90d6-352e896fcf94","ios":"levelo://app?vid=24a7b8a2-c5b6-4c66-90d6-352e896fcf94"},"vehicle_type_id":"4","last_reported":1691773532,"current_range_meters":22000,"station_id":"ce4bgt92rcd13ifvqcf0","pricing_plan_id":"free"},{"bike_id":"c8f8c05a-9252-4874-9f6d-b01a4be26e25","system_id":"levelo_inurba_marseille","lat":43.299724,"lon":5.371829,"is_reserved":false,"is_disabled":false,"rental_uris":{"android":"levelo://app?vid=c8f8c05a-9252-4874-9f6d-b01a4be26e25","ios":"levelo://app?vid=c8f8c05a-9252-4874-9f6d-b01a4be26e25"},"vehicle_type_id":"4","last_reported":1691773532,"current_range_meters":11200,"station_id":"ce4bgr92rcd13ifvqc7g","pricing_plan_id":"free"},{"bike_id":"48c96e3b-e589-4c1c-8eab-0cb5ac1fa9b1","system_id":"levelo_inurba_marseille","lat":43.305364,"lon":5.384119,"is_reserved":false,"is_disabled":false,"rental_uris":{"android":"levelo://app?vid=48c96e3b-e589-4c1c-8eab-0cb5ac1fa9b1","ios":"levelo://app?vid=48c96e3b-e589-4c1c-8eab-0cb5ac1fa9b1"},"vehicle_type_id":"4","last_reported":1691773532,"current_range_meters":800,"station_id":"ce4bgg92rcd13ifvqb30","pricing_plan_id":"free"},{"bike_id":"960cda2c-8ba7-4f85-8a2d-d0712039ddfa","system_id":"levelo_inurba_marseille","lat":43.305364,"lon":5.384119,"is_reserved":false,"is_disabled":false,"rental_uris":{"android":"levelo://app?vid=960cda2c-8ba7-4f85-8a2d-d0712039ddfa","ios":"levelo://app?vid=960cda2c-8ba7-4f85-8a2d-d0712039ddfa"},"vehicle_type_id":"4","last_reported":1691773532,"current_range_meters":9200,"station_id":"ce4bgg92rcd13ifvqb30","pricing_plan_id":"free"},{"bike_id":"823280f6-183a-413a-aa97-c5f50ef3fff9","system_id":"levelo_inurba_marseille","lat":43.299243,"lon":5.37481,"is_reserved":false,"is_disabled":false,"rental_uris":{"android":"levelo://app?vid=823280f6-183a-413a-aa97-c5f50ef3fff9","ios":"levelo://app?vid=823280f6-183a-413a-aa97-c5f50ef3fff9"},"vehicle_type_id":"4","last_reported":1691773532,"current_range_meters":0,"station_id":"ce4bgjh2rcd13ifvqbg0","pricing_plan_id":"free"},{"bike_id":"f82e8256-f874-4a27-8175-816248db2afd","system_id":"levelo_inurba_marseille","lat":43.29938,"lon":5.37574,"is_reserved":false,"is_disabled":false,"rental_uris":{"android":"levelo://app?vid=f82e8256-f874-4a27-8175-816248db2afd","ios":"levelo://app?vid=f82e8256-f874-4a27-8175-816248db2afd"},"vehicle_type_id":"4","last_reported":1691773532,"current_range_meters":7200,"station_id":"","pricing_plan_id":"free"},{"bike_id":"3be0da0d-eb2d-4b9f-8273-574a5547ab5b","system_id":"levelo_inurba_marseille","lat":43.311722,"lon":5.387247,"is_reserved":false,"is_disabled":false,"rental_uris":{"android":"levelo://app?vid=3be0da0d-eb2d-4b9f-8273-574a5547ab5b","ios":"levelo://app?vid=3be0da0d-eb2d-4b9f-8273-574a5547ab5b"},"vehicle_type_id":"4","last_reported":1691773532,"current_range_meters":2800,"station_id":"ce4bgv12rcd13ifvqcp0","pricing_plan_id":"free"},{"bike_id":"2dae36ff-4f46-4b4f-a496-c74afc43ec89","system_id":"levelo_inurba_marseille","lat":43.297774,"lon":5.370875,"is_reserved":false,"is_disabled":false,"rental_uris":{"android":"levelo://app?vid=2dae36ff-4f46-4b4f-a496-c74afc43ec89","ios":"levelo://app?vid=2dae36ff-4f46-4b4f-a496-c74afc43ec89"},"vehicle_type_id":"4","last_reported":1691773532,"current_range_meters":16800,"station_id":"ce4bgop2rcd13ifvqc1g","pricing_plan_id":"free"},{"bike_id":"34544adb-53d3-44b1-86f1-bb8bc7dbf546","system_id":"levelo_inurba_marseille","lat":43.32287,"lon":5.38265,"is_reserved":false,"is_disabled":false,"rental_uris":{"android":"levelo://app?vid=34544adb-53d3-44b1-86f1-bb8bc7dbf546","ios":"levelo://app?vid=34544adb-53d3-44b1-86f1-bb8bc7dbf546"},"vehicle_type_id":"4","last_reported":1691773532,"current_range_meters":28800,"station_id":"ce4bhr12rcd13ifvqhqg","pricing_plan_id":"free"},{"bike_id":"5cef4262-f054-4974-9121-fc3d341ebbb0","system_id":"levelo_inurba_marseille","lat":43.32292,"lon":5.38262,"is_reserved":false,"is_disabled":false,"rental_uris":{"android":"levelo://app?vid=5cef4262-f054-4974-9121-fc3d341ebbb0","ios":"levelo://app?vid=5cef4262-f054-4974-9121-fc3d341ebbb0"},"vehicle_type_id":"4","last_reported":1691773532,"current_range_meters":17200,"station_id":"ce4bhr12rcd13ifvqhqg","pricing_plan_id":"free"},{"bike_id":"ccde4fab-a619-4b85-80d1-631ae22c1186","system_id":"levelo_inurba_marseille","lat":43.32288,"lon":5.38267,"is_reserved":false,"is_disabled":false,"rental_uris":{"android":"levelo://app?vid=ccde4fab-a619-4b85-80d1-631ae22c1186","ios":"levelo://app?vid=ccde4fab-a619-4b85-80d1-631ae22c1186"},"vehicle_type_id":"4","last_reported":1691773532,"current_range_meters":23200,"station_id":"ce4bhr12rcd13ifvqhqg","pricing_plan_id":"free"},{"bike_id":"026ee3db-f828-4ad6-9e78-43e60a812318","system_id":"levelo_inurba_marseille","lat":43.32289,"lon":5.38266,"is_reserved":false,"is_disabled":false,"rental_uris":{"android":"levelo://app?vid=026ee3db-f828-4ad6-9e78-43e60a812318","ios":"levelo://app?vid=026ee3db-f828-4ad6-9e78-43e60a812318"},"vehicle_type_id":"4","last_reported":1691773532,"current_range_meters":24000,"station_id":"ce4bhr12rcd13ifvqhqg","pricing_plan_id":"free"},{"bike_id":"2a877c10-47b3-4336-884b-4186f2d4f096","system_id":"levelo_inurba_marseille","lat":43.32292,"lon":5.38263,"is_reserved":false,"is_disabled":false,"rental_uris":{"android":"levelo://app?vid=2a877c10-47b3-4336-884b-4186f2d4f096","ios":"levelo://app?vid=2a877c10-47b3-4336-884b-4186f2d4f096"},"vehicle_type_id":"4","last_reported":1691773532,"current_range_meters":19200,"station_id":"ce4bhr12rcd13ifvqhqg","pricing_plan_id":"free"},{"bike_id":"63b63e6c-c5a9-49f5-8d21-3106e36d3542","system_id":"levelo_inurba_marseille","lat":43.32289,"lon":5.38269,"is_reserved":false,"is_disabled":false,"rental_uris":{"android":"levelo://app?vid=63b63e6c-c5a9-49f5-8d21-3106e36d3542","ios":"levelo://app?vid=63b63e6c-c5a9-49f5-8d21-3106e36d3542"},"vehicle_type_id":"4","last_reported":1691773532,"current_range_meters":29600,"station_id":"ce4bhr12rcd13ifvqhqg","pricing_plan_id":"free"},{"bike_id":"454e4186-321d-4414-91ad-51d1deee69be","system_id":"levelo_inurba_marseille","lat":43.32296,"lon":5.38261,"is_reserved":false,"is_disabled":false,"rental_uris":{"android":"levelo://app?vid=454e4186-321d-4414-91ad-51d1deee69be","ios":"levelo://app?vid=454e4186-321d-4414-91ad-51d1deee69be"},"vehicle_type_id":"4","last_reported":1691773532,"current_range_meters":30800,"station_id":"ce4bhr12rcd13ifvqhqg","pricing_plan_id":"free"},{"bike_id":"1b203c54-0be7-49b8-a54f-17ca79a8f7f4","system_id":"levelo_inurba_marseille","lat":43.32293,"lon":5.38266,"is_reserved":false,"is_disabled":false,"rental_uris":{"android":"levelo://app?vid=1b203c54-0be7-49b8-a54f-17ca79a8f7f4","ios":"levelo://app?vid=1b203c54-0be7-49b8-a54f-17ca79a8f7f4"},"vehicle_type_id":"4","last_reported":1691773532,"current_range_meters":25200,"station_id":"ce4bhr12rcd13ifvqhqg","pricing_plan_id":"free"},{"bike_id":"daf1c66e-67e4-446b-ab69-51ad2a5f2181","system_id":"levelo_inurba_marseille","lat":43.32295,"lon":5.38266,"is_reserved":false,"is_disabled":false,"rental_uris":{"android":"levelo://app?vid=daf1c66e-67e4-446b-ab69-51ad2a5f2181","ios":"levelo://app?vid=daf1c66e-67e4-446b-ab69-51ad2a5f2181"},"vehicle_type_id":"4","last_reported":1691773532,"current_range_meters":30000,"station_id":"ce4bhr12rcd13ifvqhqg","pricing_plan_id":"free"},{"bike_id":"13ae175a-0609-4f70-9fab-6ba23bad8636","system_id":"levelo_inurba_marseille","lat":43.32294,"lon":5.38273,"is_reserved":false,"is_disabled":false,"rental_uris":{"android":"levelo://app?vid=13ae175a-0609-4f70-9fab-6ba23bad8636","ios":"levelo://app?vid=13ae175a-0609-4f70-9fab-6ba23bad8636"},"vehicle_type_id":"4","last_reported":1691773532,"current_range_meters":26400,"station_id":"ce4bhr12rcd13ifvqhqg","pricing_plan_id":"free"},{"bike_id":"282b40f2-7f65-4585-9f8f-62cd0b2505f7","system_id":"levelo_inurba_marseille","lat":43.328371,"lon":5.366909,"is_reserved":false,"is_disabled":false,"rental_uris":{"android":"levelo://app?vid=282b40f2-7f65-4585-9f8f-62cd0b2505f7","ios":"levelo://app?vid=282b40f2-7f65-4585-9f8f-62cd0b2505f7"},"vehicle_type_id":"4","last_reported":1691773532,"current_range_meters":19600,"station_id":"ce4bhs92rcd13ifvqi0g","pricing_plan_id":"free"},{"bike_id":"5d76a089-57a6-41c3-9736-662fd5348cfc","system_id":"levelo_inurba_marseille","lat":43.328371,"lon":5.366909,"is_reserved":false,"is_disabled":false,"rental_uris":{"android":"levelo://app?vid=5d76a089-57a6-41c3-9736-662fd5348cfc","ios":"levelo://app?vid=5d76a089-57a6-41c3-9736-662fd5348cfc"},"vehicle_type_id":"4","last_reported":1691773532,"current_range_meters":20800,"station_id":"ce4bhs92rcd13ifvqi0g","pricing_plan_id":"free"},{"bike_id":"6e2049d4-c28c-4978-a454-4edbdc0f7037","system_id":"levelo_inurba_marseille","lat":43.32828,"lon":5.36675,"is_reserved":false,"is_disabled":false,"rental_uris":{"android":"levelo://app?vid=6e2049d4-c28c-4978-a454-4edbdc0f7037","ios":"levelo://app?vid=6e2049d4-c28c-4978-a454-4edbdc0f7037"},"vehicle_type_id":"4","last_reported":1691773532,"current_range_meters":30400,"station_id":"ce4bhs92rcd13ifvqi0g","pricing_plan_id":"free"},{"bike_id":"613d0554-d51b-446d-8800-f486dd2e187e","system_id":"levelo_inurba_marseille","lat":43.328371,"lon":5.366909,"is_reserved":false,"is_disabled":false,"rental_uris":{"android":"levelo://app?vid=613d0554-d51b-446d-8800-f486dd2e187e","ios":"levelo://app?vid=613d0554-d51b-446d-8800-f486dd2e187e"},"vehicle_type_id":"4","last_reported":1691773532,"current_range_meters":15600,"station_id":"ce4bhs92rcd13ifvqi0g","pricing_plan_id":"free"},{"bike_id":"a112a680-d3e0-411d-8250-15bff243835d","system_id":"levelo_inurba_marseille","lat":43.3283,"lon":5.36674,"is_reserved":false,"is_disabled":false,"rental_uris":{"android":"levelo://app?vid=a112a680-d3e0-411d-8250-15bff243835d","ios":"levelo://app?vid=a112a680-d3e0-411d-8250-15bff243835d"},"vehicle_type_id":"4","last_reported":1691773532,"current_range_meters":27200,"station_id":"ce4bhs92rcd13ifvqi0g","pricing_plan_id":"free"},{"bike_id":"dd789220-e7b5-42c1-b9dc-dc4243148021","system_id":"levelo_inurba_marseille","lat":43.29717,"lon":5.36605,"is_reserved":false,"is_disabled":false,"rental_uris":{"android":"levelo://app?vid=dd789220-e7b5-42c1-b9dc-dc4243148021","ios":"levelo://app?vid=dd789220-e7b5-42c1-b9dc-dc4243148021"},"vehicle_type_id":"4","last_reported":1691773532,"current_range_meters":30000,"station_id":"ce4bgn12rcd13ifvqbt0","pricing_plan_id":"free"},{"bike_id":"51836ebd-ee39-4e35-9e96-ffbead98a95b","system_id":"levelo_inurba_marseille","lat":43.32836,"lon":5.36689,"is_reserved":false,"is_disabled":false,"rental_uris":{"android":"levelo://app?vid=51836ebd-ee39-4e35-9e96-ffbead98a95b","ios":"levelo://app?vid=51836ebd-ee39-4e35-9e96-ffbead98a95b"},"vehicle_type_id":"4","last_reported":1691773532,"current_range_meters":20800,"station_id":"ce4bhs92rcd13ifvqi0g","pricing_plan_id":"free"},{"bike_id":"d64026df-d608-4f97-93ab-b4ea233c50d5","system_id":"levelo_inurba_marseille","lat":43.32838,"lon":5.3668,"is_reserved":false,"is_disabled":false,"rental_uris":{"android":"levelo://app?vid=d64026df-d608-4f97-93ab-b4ea233c50d5","ios":"levelo://app?vid=d64026df-d608-4f97-93ab-b4ea233c50d5"},"vehicle_type_id":"4","last_reported":1691773532,"current_range_meters":17600,"station_id":"ce4bhs92rcd13ifvqi0g","pricing_plan_id":"free"},{"bike_id":"4546f8c1-0a9e-45be-b4bd-18c11f686c5c","system_id":"levelo_inurba_marseille","lat":43.29676,"lon":5.36568,"is_reserved":false,"is_disabled":false,"rental_uris":{"android":"levelo://app?vid=4546f8c1-0a9e-45be-b4bd-18c11f686c5c","ios":"levelo://app?vid=4546f8c1-0a9e-45be-b4bd-18c11f686c5c"},"vehicle_type_id":"4","last_reported":1691773532,"current_range_meters":6400,"station_id":"ce4bgn12rcd13ifvqbt0","pricing_plan_id":"free"},{"bike_id":"1aa8c6a5-9639-4328-a664-f5383980ba22","system_id":"levelo_inurba_marseille","lat":43.296131,"lon":5.370791,"is_reserved":false,"is_disabled":false,"rental_uris":{"android":"levelo://app?vid=1aa8c6a5-9639-4328-a664-f5383980ba22","ios":"levelo://app?vid=1aa8c6a5-9639-4328-a664-f5383980ba22"},"vehicle_type_id":"4","last_reported":1691773532,"current_range_meters":12000,"station_id":"ce4bgnh2rcd13ifvqc0g","pricing_plan_id":"free"},{"bike_id":"ae3eefa6-d013-4f3f-ab6c-d59b432ba2e5","system_id":"levelo_inurba_marseille","lat":43.296131,"lon":5.370791,"is_reserved":false,"is_disabled":false,"rental_uris":{"android":"levelo://app?vid=ae3eefa6-d013-4f3f-ab6c-d59b432ba2e5","ios":"levelo://app?vid=ae3eefa6-d013-4f3f-ab6c-d59b432ba2e5"},"vehicle_type_id":"4","last_reported":1691773532,"current_range_meters":18800,"station_id":"ce4bgnh2rcd13ifvqc0g","pricing_plan_id":"free"},{"bike_id":"09850d38-475b-4d46-a5ca-10026c944b6b","system_id":"levelo_inurba_marseille","lat":43.296131,"lon":5.370773,"is_reserved":false,"is_disabled":false,"rental_uris":{"android":"levelo://app?vid=09850d38-475b-4d46-a5ca-10026c944b6b","ios":"levelo://app?vid=09850d38-475b-4d46-a5ca-10026c944b6b"},"vehicle_type_id":"4","last_reported":1691773532,"current_range_meters":11600,"station_id":"ce4bgnh2rcd13ifvqc0g","pricing_plan_id":"free"},{"bike_id":"db8982f9-1b9a-42a7-bf6e-704426a4e3e2","system_id":"levelo_inurba_marseille","lat":43.299028,"lon":5.381509,"is_reserved":false,"is_disabled":false,"rental_uris":{"android":"levelo://app?vid=db8982f9-1b9a-42a7-bf6e-704426a4e3e2","ios":"levelo://app?vid=db8982f9-1b9a-42a7-bf6e-704426a4e3e2"},"vehicle_type_id":"4","last_reported":1691773532,"current_range_meters":25600,"station_id":"ce4bgj12rcd13ifvqbc0","pricing_plan_id":"free"},{"bike_id":"6b68d509-ea34-402f-8927-ea0faec1f655","system_id":"levelo_inurba_marseille","lat":43.30954,"lon":5.39042,"is_reserved":false,"is_disabled":false,"rental_uris":{"android":"levelo://app?vid=6b68d509-ea34-402f-8927-ea0faec1f655","ios":"levelo://app?vid=6b68d509-ea34-402f-8927-ea0faec1f655"},"vehicle_type_id":"4","last_reported":1691773532,"current_range_meters":21200,"station_id":"ce4bgup2rcd13ifvqco0","pricing_plan_id":"free"},{"bike_id":"232a5e4e-9f9f-4dd4-83ed-026c7c89ff9a","system_id":"levelo_inurba_marseille","lat":43.317557,"lon":5.390173,"is_reserved":false,"is_disabled":false,"rental_uris":{"android":"levelo://app?vid=232a5e4e-9f9f-4dd4-83ed-026c7c89ff9a","ios":"levelo://app?vid=232a5e4e-9f9f-4dd4-83ed-026c7c89ff9a"},"vehicle_type_id":"4","last_reported":1691773532,"current_range_meters":22000,"station_id":"ce4bhqp2rcd13ifvqhng","pricing_plan_id":"free"},{"bike_id":"b71b4e1a-5dd4-4c5a-88e4-d5cfd2dee645","system_id":"levelo_inurba_marseille","lat":43.317557,"lon":5.390173,"is_reserved":false,"is_disabled":false,"rental_uris":{"android":"levelo://app?vid=b71b4e1a-5dd4-4c5a-88e4-d5cfd2dee645","ios":"levelo://app?vid=b71b4e1a-5dd4-4c5a-88e4-d5cfd2dee645"},"vehicle_type_id":"4","last_reported":1691773532,"current_range_meters":24400,"station_id":"ce4bhqp2rcd13ifvqhng","pricing_plan_id":"free"},{"bike_id":"92b18089-322e-498d-9529-47aa5d1332e1","system_id":"levelo_inurba_marseille","lat":43.317557,"lon":5.390173,"is_reserved":false,"is_disabled":false,"rental_uris":{"android":"levelo://app?vid=92b18089-322e-498d-9529-47aa5d1332e1","ios":"levelo://app?vid=92b18089-322e-498d-9529-47aa5d1332e1"},"vehicle_type_id":"4","last_reported":1691773532,"current_range_meters":13600,"station_id":"ce4bhqp2rcd13ifvqhng","pricing_plan_id":"free"},{"bike_id":"76ff3b14-d346-4134-b772-5805eda4f7f2","system_id":"levelo_inurba_marseille","lat":43.317557,"lon":5.390173,"is_reserved":false,"is_disabled":false,"rental_uris":{"android":"levelo://app?vid=76ff3b14-d346-4134-b772-5805eda4f7f2","ios":"levelo://app?vid=76ff3b14-d346-4134-b772-5805eda4f7f2"},"vehicle_type_id":"4","last_reported":1691773532,"current_range_meters":20000,"station_id":"ce4bhqp2rcd13ifvqhng","pricing_plan_id":"free"},{"bike_id":"a4df99ce-0488-49dd-a888-94686f562e88","system_id":"levelo_inurba_marseille","lat":43.295748,"lon":5.37522,"is_reserved":false,"is_disabled":false,"rental_uris":{"android":"levelo://app?vid=a4df99ce-0488-49dd-a888-94686f562e88","ios":"levelo://app?vid=a4df99ce-0488-49dd-a888-94686f562e88"},"vehicle_type_id":"4","last_reported":1691773532,"current_range_meters":31200,"station_id":"ce4bgh92rcd13ifvqb50","pricing_plan_id":"free"},{"bike_id":"52d26f3d-ebd4-4019-a8ca-76902c5a92d0","system_id":"levelo_inurba_marseille","lat":43.30432,"lon":5.38885,"is_reserved":false,"is_disabled":false,"rental_uris":{"android":"levelo://app?vid=52d26f3d-ebd4-4019-a8ca-76902c5a92d0","ios":"levelo://app?vid=52d26f3d-ebd4-4019-a8ca-76902c5a92d0"},"vehicle_type_id":"4","last_reported":1691773532,"current_range_meters":3600,"station_id":"ce4bgk12rcd13ifvqbi0","pricing_plan_id":"free"},{"bike_id":"9d07ea35-6bb7-4e9f-a572-5980ef807f59","system_id":"levelo_inurba_marseille","lat":43.304274,"lon":5.388856,"is_reserved":false,"is_disabled":false,"rental_uris":{"android":"levelo://app?vid=9d07ea35-6bb7-4e9f-a572-5980ef807f59","ios":"levelo://app?vid=9d07ea35-6bb7-4e9f-a572-5980ef807f59"},"vehicle_type_id":"4","last_reported":1691773532,"current_range_meters":10000,"station_id":"ce4bgk12rcd13ifvqbi0","pricing_plan_id":"free"},{"bike_id":"bd4105d9-20b4-4fc7-8d66-e07cf4aa08b7","system_id":"levelo_inurba_marseille","lat":43.3042,"lon":5.38885,"is_reserved":false,"is_disabled":false,"rental_uris":{"android":"levelo://app?vid=bd4105d9-20b4-4fc7-8d66-e07cf4aa08b7","ios":"levelo://app?vid=bd4105d9-20b4-4fc7-8d66-e07cf4aa08b7"},"vehicle_type_id":"4","last_reported":1691773532,"current_range_meters":5200,"station_id":"ce4bgk12rcd13ifvqbi0","pricing_plan_id":"free"},{"bike_id":"a1dd00af-7619-4b47-8e44-cbb0c9ab38de","system_id":"levelo_inurba_marseille","lat":43.30424,"lon":5.38891,"is_reserved":false,"is_disabled":false,"rental_uris":{"android":"levelo://app?vid=a1dd00af-7619-4b47-8e44-cbb0c9ab38de","ios":"levelo://app?vid=a1dd00af-7619-4b47-8e44-cbb0c9ab38de"},"vehicle_type_id":"4","last_reported":1691773532,"current_range_meters":9200,"station_id":"ce4bgk12rcd13ifvqbi0","pricing_plan_id":"free"},{"bike_id":"fe1aa085-c535-4beb-a1ee-d0561afb30e1","system_id":"levelo_inurba_marseille","lat":43.29564,"lon":5.37522,"is_reserved":false,"is_disabled":false,"rental_uris":{"android":"levelo://app?vid=fe1aa085-c535-4beb-a1ee-d0561afb30e1","ios":"levelo://app?vid=fe1aa085-c535-4beb-a1ee-d0561afb30e1"},"vehicle_type_id":"4","last_reported":1691773532,"current_range_meters":7600,"station_id":"","pricing_plan_id":"free"},{"bike_id":"25ef6482-1b4f-49ab-87f6-72f6f1a5d567","system_id":"levelo_inurba_marseille","lat":43.298037,"lon":5.381066,"is_reserved":false,"is_disabled":false,"rental_uris":{"android":"levelo://app?vid=25ef6482-1b4f-49ab-87f6-72f6f1a5d567","ios":"levelo://app?vid=25ef6482-1b4f-49ab-87f6-72f6f1a5d567"},"vehicle_type_id":"4","last_reported":1691773532,"current_range_meters":3200,"station_id":"ce4bgip2rcd13ifvqbb0","pricing_plan_id":"free"},{"bike_id":"7659960f-7731-45e4-90a4-8a7ad7bdeb67","system_id":"levelo_inurba_marseille","lat":43.296263,"lon":5.377094,"is_reserved":false,"is_disabled":false,"rental_uris":{"android":"levelo://app?vid=7659960f-7731-45e4-90a4-8a7ad7bdeb67","ios":"levelo://app?vid=7659960f-7731-45e4-90a4-8a7ad7bdeb67"},"vehicle_type_id":"4","last_reported":1691773532,"current_range_meters":17200,"station_id":"ce4bgi92rcd13ifvqb90","pricing_plan_id":"free"},{"bike_id":"54438930-d60f-4e46-85aa-eb61523a7ff9","system_id":"levelo_inurba_marseille","lat":43.29604,"lon":5.37702,"is_reserved":false,"is_disabled":false,"rental_uris":{"android":"levelo://app?vid=54438930-d60f-4e46-85aa-eb61523a7ff9","ios":"levelo://app?vid=54438930-d60f-4e46-85aa-eb61523a7ff9"},"vehicle_type_id":"4","last_reported":1691773532,"current_range_meters":22400,"station_id":"ce4bgi92rcd13ifvqb90","pricing_plan_id":"free"},{"bike_id":"d4f9eb9a-6273-4d5a-ad72-555b21644aa9","system_id":"levelo_inurba_marseille","lat":43.299717,"lon":5.384845,"is_reserved":false,"is_disabled":false,"rental_uris":{"android":"levelo://app?vid=d4f9eb9a-6273-4d5a-ad72-555b21644aa9","ios":"levelo://app?vid=d4f9eb9a-6273-4d5a-ad72-555b21644aa9"},"vehicle_type_id":"4","last_reported":1691773532,"current_range_meters":16800,"station_id":"ce4bgj92rcd13ifvqbd0","pricing_plan_id":"free"},{"bike_id":"b6adb90e-9efd-4170-8253-825de9137b61","system_id":"levelo_inurba_marseille","lat":43.32363,"lon":5.38877,"is_reserved":false,"is_disabled":false,"rental_uris":{"android":"levelo://app?vid=b6adb90e-9efd-4170-8253-825de9137b61","ios":"levelo://app?vid=b6adb90e-9efd-4170-8253-825de9137b61"},"vehicle_type_id":"4","last_reported":1691773532,"current_range_meters":6000,"station_id":"ce4bhqp2rcd13ifvqhog","pricing_plan_id":"free"},{"bike_id":"7a5ccebc-5cd7-411d-b3c4-f349eba70b98","system_id":"levelo_inurba_marseille","lat":43.32363,"lon":5.38882,"is_reserved":false,"is_disabled":false,"rental_uris":{"android":"levelo://app?vid=7a5ccebc-5cd7-411d-b3c4-f349eba70b98","ios":"levelo://app?vid=7a5ccebc-5cd7-411d-b3c4-f349eba70b98"},"vehicle_type_id":"4","last_reported":1691773532,"current_range_meters":19200,"station_id":"ce4bhqp2rcd13ifvqhog","pricing_plan_id":"free"},{"bike_id":"fbe51afe-e58e-4401-bce8-142438eb5f97","system_id":"levelo_inurba_marseille","lat":43.32369,"lon":5.38878,"is_reserved":false,"is_disabled":false,"rental_uris":{"android":"levelo://app?vid=fbe51afe-e58e-4401-bce8-142438eb5f97","ios":"levelo://app?vid=fbe51afe-e58e-4401-bce8-142438eb5f97"},"vehicle_type_id":"4","last_reported":1691773532,"current_range_meters":12000,"station_id":"ce4bhqp2rcd13ifvqhog","pricing_plan_id":"free"},{"bike_id":"45f43857-b1c1-4363-b389-4618747543b7","system_id":"levelo_inurba_marseille","lat":43.32367,"lon":5.38881,"is_reserved":false,"is_disabled":false,"rental_uris":{"android":"levelo://app?vid=45f43857-b1c1-4363-b389-4618747543b7","ios":"levelo://app?vid=45f43857-b1c1-4363-b389-4618747543b7"},"vehicle_type_id":"4","last_reported":1691773532,"current_range_meters":28000,"station_id":"ce4bhqp2rcd13ifvqhog","pricing_plan_id":"free"},{"bike_id":"0337c164-8b0b-4f0b-b7b3-6790b2e9f25d","system_id":"levelo_inurba_marseille","lat":43.32363,"lon":5.38885,"is_reserved":false,"is_disabled":false,"rental_uris":{"android":"levelo://app?vid=0337c164-8b0b-4f0b-b7b3-6790b2e9f25d","ios":"levelo://app?vid=0337c164-8b0b-4f0b-b7b3-6790b2e9f25d"},"vehicle_type_id":"4","last_reported":1691773532,"current_range_meters":26400,"station_id":"ce4bhqp2rcd13ifvqhog","pricing_plan_id":"free"},{"bike_id":"1c06817d-c0e7-4587-90fd-16ba47647653","system_id":"levelo_inurba_marseille","lat":43.32364,"lon":5.38885,"is_reserved":false,"is_disabled":false,"rental_uris":{"android":"levelo://app?vid=1c06817d-c0e7-4587-90fd-16ba47647653","ios":"levelo://app?vid=1c06817d-c0e7-4587-90fd-16ba47647653"},"vehicle_type_id":"4","last_reported":1691773532,"current_range_meters":29600,"station_id":"ce4bhqp2rcd13ifvqhog","pricing_plan_id":"free"},{"bike_id":"4bc47709-bf9f-4578-9701-bf127068f9d6","system_id":"levelo_inurba_marseille","lat":43.32363,"lon":5.38887,"is_reserved":false,"is_disabled":false,"rental_uris":{"android":"levelo://app?vid=4bc47709-bf9f-4578-9701-bf127068f9d6","ios":"levelo://app?vid=4bc47709-bf9f-4578-9701-bf127068f9d6"},"vehicle_type_id":"4","last_reported":1691773532,"current_range_meters":1600,"station_id":"ce4bhqp2rcd13ifvqhog","pricing_plan_id":"free"},{"bike_id":"a7758e93-92f2-4ba1-8882-417901e6037c","system_id":"levelo_inurba_marseille","lat":43.32367,"lon":5.38885,"is_reserved":false,"is_disabled":false,"rental_uris":{"android":"levelo://app?vid=a7758e93-92f2-4ba1-8882-417901e6037c","ios":"levelo://app?vid=a7758e93-92f2-4ba1-8882-417901e6037c"},"vehicle_type_id":"4","last_reported":1691773532,"current_range_meters":14800,"station_id":"ce4bhqp2rcd13ifvqhog","pricing_plan_id":"free"},{"bike_id":"ce018d03-3c8a-4a65-b1ec-008987675b9b","system_id":"levelo_inurba_marseille","lat":43.32372,"lon":5.38885,"is_reserved":false,"is_disabled":false,"rental_uris":{"android":"levelo://app?vid=ce018d03-3c8a-4a65-b1ec-008987675b9b","ios":"levelo://app?vid=ce018d03-3c8a-4a65-b1ec-008987675b9b"},"vehicle_type_id":"4","last_reported":1691773532,"current_range_meters":9200,"station_id":"ce4bhqp2rcd13ifvqhog","pricing_plan_id":"free"},{"bike_id":"79bece09-e2a1-4ed6-be24-9da6e6eb677c","system_id":"levelo_inurba_marseille","lat":43.32369,"lon":5.38888,"is_reserved":false,"is_disabled":false,"rental_uris":{"android":"levelo://app?vid=79bece09-e2a1-4ed6-be24-9da6e6eb677c","ios":"levelo://app?vid=79bece09-e2a1-4ed6-be24-9da6e6eb677c"},"vehicle_type_id":"4","last_reported":1691773532,"current_range_meters":24800,"station_id":"ce4bhqp2rcd13ifvqhog","pricing_plan_id":"free"},{"bike_id":"e421971e-7710-407e-8304-83c0e495751f","system_id":"levelo_inurba_marseille","lat":43.29601,"lon":5.381084,"is_reserved":false,"is_disabled":false,"rental_uris":{"android":"levelo://app?vid=e421971e-7710-407e-8304-83c0e495751f","ios":"levelo://app?vid=e421971e-7710-407e-8304-83c0e495751f"},"vehicle_type_id":"4","last_reported":1691773532,"current_range_meters":12000,"station_id":"ce4bgl12rcd13ifvqbo0","pricing_plan_id":"free"},{"bike_id":"0c1e4122-ce74-4582-afc1-38475f2e7573","system_id":"levelo_inurba_marseille","lat":43.29278,"lon":5.36843,"is_reserved":false,"is_disabled":false,"rental_uris":{"android":"levelo://app?vid=0c1e4122-ce74-4582-afc1-38475f2e7573","ios":"levelo://app?vid=0c1e4122-ce74-4582-afc1-38475f2e7573"},"vehicle_type_id":"4","last_reported":1691773532,"current_range_meters":18400,"station_id":"ce4bhbp2rcd13ifvqesg","pricing_plan_id":"free"},{"bike_id":"4ed824ff-bbf2-4556-be8e-75fbda0336e3","system_id":"levelo_inurba_marseille","lat":43.29278,"lon":5.36847,"is_reserved":false,"is_disabled":false,"rental_uris":{"android":"levelo://app?vid=4ed824ff-bbf2-4556-be8e-75fbda0336e3","ios":"levelo://app?vid=4ed824ff-bbf2-4556-be8e-75fbda0336e3"},"vehicle_type_id":"4","last_reported":1691773532,"current_range_meters":28000,"station_id":"ce4bhbp2rcd13ifvqesg","pricing_plan_id":"free"},{"bike_id":"5506f970-24c8-485a-b49a-7c3bfa2ecf96","system_id":"levelo_inurba_marseille","lat":43.29305,"lon":5.37175,"is_reserved":false,"is_disabled":false,"rental_uris":{"android":"levelo://app?vid=5506f970-24c8-485a-b49a-7c3bfa2ecf96","ios":"levelo://app?vid=5506f970-24c8-485a-b49a-7c3bfa2ecf96"},"vehicle_type_id":"4","last_reported":1691773532,"current_range_meters":2800,"station_id":"ce4bgh92rcd13ifvqb40","pricing_plan_id":"free"},{"bike_id":"f33d8b94-b57c-45ba-90d1-18af037d5c41","system_id":"levelo_inurba_marseille","lat":43.292749,"lon":5.368402,"is_reserved":false,"is_disabled":false,"rental_uris":{"android":"levelo://app?vid=f33d8b94-b57c-45ba-90d1-18af037d5c41","ios":"levelo://app?vid=f33d8b94-b57c-45ba-90d1-18af037d5c41"},"vehicle_type_id":"4","last_reported":1691773532,"current_range_meters":18400,"station_id":"ce4bhbp2rcd13ifvqesg","pricing_plan_id":"free"},{"bike_id":"dbe406a0-e31d-4174-932b-0d8d584d17c2","system_id":"levelo_inurba_marseille","lat":43.292749,"lon":5.368402,"is_reserved":false,"is_disabled":false,"rental_uris":{"android":"levelo://app?vid=dbe406a0-e31d-4174-932b-0d8d584d17c2","ios":"levelo://app?vid=dbe406a0-e31d-4174-932b-0d8d584d17c2"},"vehicle_type_id":"4","last_reported":1691773532,"current_range_meters":31600,"station_id":"ce4bhbp2rcd13ifvqesg","pricing_plan_id":"free"},{"bike_id":"a3a8f34e-ed0d-44fc-af7f-954b701406dd","system_id":"levelo_inurba_marseille","lat":43.293009,"lon":5.374584,"is_reserved":false,"is_disabled":false,"rental_uris":{"android":"levelo://app?vid=a3a8f34e-ed0d-44fc-af7f-954b701406dd","ios":"levelo://app?vid=a3a8f34e-ed0d-44fc-af7f-954b701406dd"},"vehicle_type_id":"4","last_reported":1691773532,"current_range_meters":3200,"station_id":"ce4bgi12rcd13ifvqb70","pricing_plan_id":"free"},{"bike_id":"93ad18f4-11ae-4309-a492-91769bd3d656","system_id":"levelo_inurba_marseille","lat":43.293009,"lon":5.374584,"is_reserved":false,"is_disabled":false,"rental_uris":{"android":"levelo://app?vid=93ad18f4-11ae-4309-a492-91769bd3d656","ios":"levelo://app?vid=93ad18f4-11ae-4309-a492-91769bd3d656"},"vehicle_type_id":"4","last_reported":1691773532,"current_range_meters":800,"station_id":"ce4bgi12rcd13ifvqb70","pricing_plan_id":"free"},{"bike_id":"8d96da38-305d-4cfc-b659-aee0e2f3faf7","system_id":"levelo_inurba_marseille","lat":43.3059,"lon":5.39363,"is_reserved":false,"is_disabled":false,"rental_uris":{"android":"levelo://app?vid=8d96da38-305d-4cfc-b659-aee0e2f3faf7","ios":"levelo://app?vid=8d96da38-305d-4cfc-b659-aee0e2f3faf7"},"vehicle_type_id":"4","last_reported":1691773532,"current_range_meters":18000,"station_id":"","pricing_plan_id":"free"},{"bike_id":"a8228c21-d399-40a9-8a22-b7d2bdf0fc05","system_id":"levelo_inurba_marseille","lat":43.292311,"lon":5.360731,"is_reserved":false,"is_disabled":false,"rental_uris":{"android":"levelo://app?vid=a8228c21-d399-40a9-8a22-b7d2bdf0fc05","ios":"levelo://app?vid=a8228c21-d399-40a9-8a22-b7d2bdf0fc05"},"vehicle_type_id":"4","last_reported":1691773532,"current_range_meters":22400,"station_id":"ce4bhbh2rcd13ifvqeqg","pricing_plan_id":"free"},{"bike_id":"a41dc974-cebf-475c-ae39-d30dd2fb40f0","system_id":"levelo_inurba_marseille","lat":43.292311,"lon":5.360731,"is_reserved":false,"is_disabled":false,"rental_uris":{"android":"levelo://app?vid=a41dc974-cebf-475c-ae39-d30dd2fb40f0","ios":"levelo://app?vid=a41dc974-cebf-475c-ae39-d30dd2fb40f0"},"vehicle_type_id":"4","last_reported":1691773532,"current_range_meters":21200,"station_id":"ce4bhbh2rcd13ifvqeqg","pricing_plan_id":"free"},{"bike_id":"7d84b28e-da98-495c-bf16-5e6e404d3615","system_id":"levelo_inurba_marseille","lat":43.300852,"lon":5.390859,"is_reserved":false,"is_disabled":false,"rental_uris":{"android":"levelo://app?vid=7d84b28e-da98-495c-bf16-5e6e404d3615","ios":"levelo://app?vid=7d84b28e-da98-495c-bf16-5e6e404d3615"},"vehicle_type_id":"4","last_reported":1691773532,"current_range_meters":4400,"station_id":"ce4bh192rcd13ifvqdb0","pricing_plan_id":"free"},{"bike_id":"f8569056-138c-495b-9f3e-db43cf4683b1","system_id":"levelo_inurba_marseille","lat":43.291671,"lon":5.371575,"is_reserved":false,"is_disabled":false,"rental_uris":{"android":"levelo://app?vid=f8569056-138c-495b-9f3e-db43cf4683b1","ios":"levelo://app?vid=f8569056-138c-495b-9f3e-db43cf4683b1"},"vehicle_type_id":"4","last_reported":1691773532,"current_range_meters":13200,"station_id":"ce4bha92rcd13ifvqeh0","pricing_plan_id":"free"},{"bike_id":"51826073-789c-4f1d-839e-6a9e9942521b","system_id":"levelo_inurba_marseille","lat":43.31319,"lon":5.3969,"is_reserved":false,"is_disabled":false,"rental_uris":{"android":"levelo://app?vid=51826073-789c-4f1d-839e-6a9e9942521b","ios":"levelo://app?vid=51826073-789c-4f1d-839e-6a9e9942521b"},"vehicle_type_id":"4","last_reported":1691773532,"current_range_meters":22400,"station_id":"ce4bgvp2rcd13ifvqcu0","pricing_plan_id":"free"},{"bike_id":"c5399755-fb03-4537-8755-299f577c8709","system_id":"levelo_inurba_marseille","lat":43.31327,"lon":5.3969,"is_reserved":false,"is_disabled":false,"rental_uris":{"android":"levelo://app?vid=c5399755-fb03-4537-8755-299f577c8709","ios":"levelo://app?vid=c5399755-fb03-4537-8755-299f577c8709"},"vehicle_type_id":"4","last_reported":1691773532,"current_range_meters":12800,"station_id":"ce4bgvp2rcd13ifvqcu0","pricing_plan_id":"free"},{"bike_id":"9743d697-b598-4dcd-838c-da957226706f","system_id":"levelo_inurba_marseille","lat":43.31328,"lon":5.39694,"is_reserved":false,"is_disabled":false,"rental_uris":{"android":"levelo://app?vid=9743d697-b598-4dcd-838c-da957226706f","ios":"levelo://app?vid=9743d697-b598-4dcd-838c-da957226706f"},"vehicle_type_id":"4","last_reported":1691773532,"current_range_meters":13600,"station_id":"ce4bgvp2rcd13ifvqcu0","pricing_plan_id":"free"},{"bike_id":"adf15cc5-97c9-4b8c-a6b1-2e10b9856a1e","system_id":"levelo_inurba_marseille","lat":43.313291,"lon":5.396838,"is_reserved":false,"is_disabled":false,"rental_uris":{"android":"levelo://app?vid=adf15cc5-97c9-4b8c-a6b1-2e10b9856a1e","ios":"levelo://app?vid=adf15cc5-97c9-4b8c-a6b1-2e10b9856a1e"},"vehicle_type_id":"4","last_reported":1691773532,"current_range_meters":16400,"station_id":"ce4bgvp2rcd13ifvqcu0","pricing_plan_id":"free"},{"bike_id":"f44abc0c-9d99-4d66-9205-9c6e8aab7d44","system_id":"levelo_inurba_marseille","lat":43.30877,"lon":5.39665,"is_reserved":false,"is_disabled":false,"rental_uris":{"android":"levelo://app?vid=f44abc0c-9d99-4d66-9205-9c6e8aab7d44","ios":"levelo://app?vid=f44abc0c-9d99-4d66-9205-9c6e8aab7d44"},"vehicle_type_id":"4","last_reported":1691773532,"current_range_meters":20800,"station_id":"ce4bh012rcd13ifvqcv0","pricing_plan_id":"free"},{"bike_id":"692f4481-fbb6-4d7e-9e48-e7da6d56a4be","system_id":"levelo_inurba_marseille","lat":43.29529,"lon":5.385581,"is_reserved":false,"is_disabled":false,"rental_uris":{"android":"levelo://app?vid=692f4481-fbb6-4d7e-9e48-e7da6d56a4be","ios":"levelo://app?vid=692f4481-fbb6-4d7e-9e48-e7da6d56a4be"},"vehicle_type_id":"4","last_reported":1691773532,"current_range_meters":14400,"station_id":"ce4bgih2rcd13ifvqba0","pricing_plan_id":"free"},{"bike_id":"3267ce2f-9e39-4cf8-a4bd-f6cc18e56980","system_id":"levelo_inurba_marseille","lat":43.29529,"lon":5.385581,"is_reserved":false,"is_disabled":false,"rental_uris":{"android":"levelo://app?vid=3267ce2f-9e39-4cf8-a4bd-f6cc18e56980","ios":"levelo://app?vid=3267ce2f-9e39-4cf8-a4bd-f6cc18e56980"},"vehicle_type_id":"4","last_reported":1691773532,"current_range_meters":26400,"station_id":"ce4bgih2rcd13ifvqba0","pricing_plan_id":"free"},{"bike_id":"d071fcdd-0313-4149-8709-cf0eb44de23c","system_id":"levelo_inurba_marseille","lat":43.29066,"lon":5.37144,"is_reserved":false,"is_disabled":false,"rental_uris":{"android":"levelo://app?vid=d071fcdd-0313-4149-8709-cf0eb44de23c","ios":"levelo://app?vid=d071fcdd-0313-4149-8709-cf0eb44de23c"},"vehicle_type_id":"4","last_reported":1691773532,"current_range_meters":12400,"station_id":"ce4bh5p2rcd13ifvqe4g","pricing_plan_id":"free"},{"bike_id":"b71ba4ab-b2ca-4646-abbf-3687df79cf6d","system_id":"levelo_inurba_marseille","lat":43.294162,"lon":5.386292,"is_reserved":false,"is_disabled":false,"rental_uris":{"android":"levelo://app?vid=b71ba4ab-b2ca-4646-abbf-3687df79cf6d","ios":"levelo://app?vid=b71ba4ab-b2ca-4646-abbf-3687df79cf6d"},"vehicle_type_id":"4","last_reported":1691773532,"current_range_meters":13200,"station_id":"ce4bh2h2rcd13ifvqdh0","pricing_plan_id":"free"},{"bike_id":"e910bea5-9ce9-44b6-834e-dfe5dec032fb","system_id":"levelo_inurba_marseille","lat":43.3021,"lon":5.39464,"is_reserved":false,"is_disabled":false,"rental_uris":{"android":"levelo://app?vid=e910bea5-9ce9-44b6-834e-dfe5dec032fb","ios":"levelo://app?vid=e910bea5-9ce9-44b6-834e-dfe5dec032fb"},"vehicle_type_id":"4","last_reported":1691773532,"current_range_meters":16000,"station_id":"","pricing_plan_id":"free"},{"bike_id":"25d581f2-888f-4597-83df-23a4091bbe57","system_id":"levelo_inurba_marseille","lat":43.289184,"lon":5.366408,"is_reserved":false,"is_disabled":false,"rental_uris":{"android":"levelo://app?vid=25d581f2-888f-4597-83df-23a4091bbe57","ios":"levelo://app?vid=25d581f2-888f-4597-83df-23a4091bbe57"},"vehicle_type_id":"4","last_reported":1691773532,"current_range_meters":27600,"station_id":"ce4bhap2rcd13ifvqek0","pricing_plan_id":"free"},{"bike_id":"0b2080e7-26e0-4e9f-9331-42092ddc53d1","system_id":"levelo_inurba_marseille","lat":43.294162,"lon":5.386292,"is_reserved":false,"is_disabled":false,"rental_uris":{"android":"levelo://app?vid=0b2080e7-26e0-4e9f-9331-42092ddc53d1","ios":"levelo://app?vid=0b2080e7-26e0-4e9f-9331-42092ddc53d1"},"vehicle_type_id":"4","last_reported":1691773532,"current_range_meters":17600,"station_id":"ce4bh2h2rcd13ifvqdh0","pricing_plan_id":"free"},{"bike_id":"4e40107f-0397-4444-b391-f0a55753a730","system_id":"levelo_inurba_marseille","lat":43.289184,"lon":5.366408,"is_reserved":false,"is_disabled":false,"rental_uris":{"android":"levelo://app?vid=4e40107f-0397-4444-b391-f0a55753a730","ios":"levelo://app?vid=4e40107f-0397-4444-b391-f0a55753a730"},"vehicle_type_id":"4","last_reported":1691773532,"current_range_meters":16800,"station_id":"ce4bhap2rcd13ifvqek0","pricing_plan_id":"free"},{"bike_id":"d664d33f-5d6b-4e35-8619-22d3da4aea8e","system_id":"levelo_inurba_marseille","lat":43.289184,"lon":5.366408,"is_reserved":false,"is_disabled":false,"rental_uris":{"android":"levelo://app?vid=d664d33f-5d6b-4e35-8619-22d3da4aea8e","ios":"levelo://app?vid=d664d33f-5d6b-4e35-8619-22d3da4aea8e"},"vehicle_type_id":"4","last_reported":1691773532,"current_range_meters":27200,"station_id":"ce4bhap2rcd13ifvqek0","pricing_plan_id":"free"},{"bike_id":"1cc1c87d-19ea-4f3c-9fd3-bf0856f06a36","system_id":"levelo_inurba_marseille","lat":43.294162,"lon":5.386292,"is_reserved":false,"is_disabled":false,"rental_uris":{"android":"levelo://app?vid=1cc1c87d-19ea-4f3c-9fd3-bf0856f06a36","ios":"levelo://app?vid=1cc1c87d-19ea-4f3c-9fd3-bf0856f06a36"},"vehicle_type_id":"4","last_reported":1691773532,"current_range_meters":19200,"station_id":"ce4bh2h2rcd13ifvqdh0","pricing_plan_id":"free"},{"bike_id":"730f4038-b727-439e-a840-61fb0f8a31c5","system_id":"levelo_inurba_marseille","lat":43.289184,"lon":5.366408,"is_reserved":false,"is_disabled":false,"rental_uris":{"android":"levelo://app?vid=730f4038-b727-439e-a840-61fb0f8a31c5","ios":"levelo://app?vid=730f4038-b727-439e-a840-61fb0f8a31c5"},"vehicle_type_id":"4","last_reported":1691773532,"current_range_meters":27200,"station_id":"ce4bhap2rcd13ifvqek0","pricing_plan_id":"free"},{"bike_id":"33d801f3-afed-4df7-9fd7-224e607586e3","system_id":"levelo_inurba_marseille","lat":43.289184,"lon":5.366408,"is_reserved":false,"is_disabled":false,"rental_uris":{"android":"levelo://app?vid=33d801f3-afed-4df7-9fd7-224e607586e3","ios":"levelo://app?vid=33d801f3-afed-4df7-9fd7-224e607586e3"},"vehicle_type_id":"4","last_reported":1691773532,"current_range_meters":23600,"station_id":"ce4bhap2rcd13ifvqek0","pricing_plan_id":"free"},{"bike_id":"d2127fe0-ab35-415f-83ea-2fd1512e40d6","system_id":"levelo_inurba_marseille","lat":43.289184,"lon":5.366408,"is_reserved":false,"is_disabled":false,"rental_uris":{"android":"levelo://app?vid=d2127fe0-ab35-415f-83ea-2fd1512e40d6","ios":"levelo://app?vid=d2127fe0-ab35-415f-83ea-2fd1512e40d6"},"vehicle_type_id":"4","last_reported":1691773532,"current_range_meters":7200,"station_id":"ce4bhap2rcd13ifvqek0","pricing_plan_id":"free"},{"bike_id":"f3db3a29-ece6-488e-9b0a-294e4b613cc2","system_id":"levelo_inurba_marseille","lat":43.294162,"lon":5.386292,"is_reserved":false,"is_disabled":false,"rental_uris":{"android":"levelo://app?vid=f3db3a29-ece6-488e-9b0a-294e4b613cc2","ios":"levelo://app?vid=f3db3a29-ece6-488e-9b0a-294e4b613cc2"},"vehicle_type_id":"4","last_reported":1691773532,"current_range_meters":8000,"station_id":"ce4bh2h2rcd13ifvqdh0","pricing_plan_id":"free"},{"bike_id":"0c35abe1-095e-48e7-a7eb-13b63edb775b","system_id":"levelo_inurba_marseille","lat":43.294144,"lon":5.386321,"is_reserved":false,"is_disabled":false,"rental_uris":{"android":"levelo://app?vid=0c35abe1-095e-48e7-a7eb-13b63edb775b","ios":"levelo://app?vid=0c35abe1-095e-48e7-a7eb-13b63edb775b"},"vehicle_type_id":"4","last_reported":1691773532,"current_range_meters":0,"station_id":"ce4bh2h2rcd13ifvqdh0","pricing_plan_id":"free"},{"bike_id":"3a3c2199-b855-45e6-a689-5927681c54c6","system_id":"levelo_inurba_marseille","lat":43.28938,"lon":5.3664,"is_reserved":false,"is_disabled":false,"rental_uris":{"android":"levelo://app?vid=3a3c2199-b855-45e6-a689-5927681c54c6","ios":"levelo://app?vid=3a3c2199-b855-45e6-a689-5927681c54c6"},"vehicle_type_id":"4","last_reported":1691773532,"current_range_meters":22800,"station_id":"","pricing_plan_id":"free"},{"bike_id":"a82cd8d4-f17e-4613-bcee-7d074068406f","system_id":"levelo_inurba_marseille","lat":43.289184,"lon":5.366408,"is_reserved":false,"is_disabled":false,"rental_uris":{"android":"levelo://app?vid=a82cd8d4-f17e-4613-bcee-7d074068406f","ios":"levelo://app?vid=a82cd8d4-f17e-4613-bcee-7d074068406f"},"vehicle_type_id":"4","last_reported":1691773532,"current_range_meters":30000,"station_id":"ce4bhap2rcd13ifvqek0","pricing_plan_id":"free"},{"bike_id":"448b93f8-f44e-444d-b2c2-ad393aacc2b6","system_id":"levelo_inurba_marseille","lat":43.290103,"lon":5.356114,"is_reserved":false,"is_disabled":false,"rental_uris":{"android":"levelo://app?vid=448b93f8-f44e-444d-b2c2-ad393aacc2b6","ios":"levelo://app?vid=448b93f8-f44e-444d-b2c2-ad393aacc2b6"},"vehicle_type_id":"4","last_reported":1691773532,"current_range_meters":18800,"station_id":"ce4bhb92rcd13ifvqen0","pricing_plan_id":"free"},{"bike_id":"2f448e29-aa1b-41d2-ac88-29e3743c0772","system_id":"levelo_inurba_marseille","lat":43.29041,"lon":5.399634,"is_reserved":false,"is_disabled":false,"rental_uris":{"android":"levelo://app?vid=2f448e29-aa1b-41d2-ac88-29e3743c0772","ios":"levelo://app?vid=2f448e29-aa1b-41d2-ac88-29e3743c0772"},"vehicle_type_id":"4","last_reported":1691773532,"current_range_meters":2400,"station_id":"ce4bh392rcd13ifvqdm0","pricing_plan_id":"free"},{"bike_id":"25b4ee31-4731-4d75-bca9-8a10312d7890","system_id":"levelo_inurba_marseille","lat":43.29267,"lon":5.38436,"is_reserved":false,"is_disabled":false,"rental_uris":{"android":"levelo://app?vid=25b4ee31-4731-4d75-bca9-8a10312d7890","ios":"levelo://app?vid=25b4ee31-4731-4d75-bca9-8a10312d7890"},"vehicle_type_id":"4","last_reported":1691773532,"current_range_meters":2000,"station_id":"ce4bh692rcd13ifvqea0","pricing_plan_id":"free"},{"bike_id":"305fa5e9-b391-44ac-9057-26323f4c5256","system_id":"levelo_inurba_marseille","lat":43.304274,"lon":5.397513,"is_reserved":false,"is_disabled":false,"rental_uris":{"android":"levelo://app?vid=305fa5e9-b391-44ac-9057-26323f4c5256","ios":"levelo://app?vid=305fa5e9-b391-44ac-9057-26323f4c5256"},"vehicle_type_id":"4","last_reported":1691773532,"current_range_meters":23200,"station_id":"ce4bh092rcd13ifvqd20","pricing_plan_id":"free"},{"bike_id":"be08ef50-183c-4acc-9ab3-a50c60525835","system_id":"levelo_inurba_marseille","lat":43.292674,"lon":5.384484,"is_reserved":false,"is_disabled":false,"rental_uris":{"android":"levelo://app?vid=be08ef50-183c-4acc-9ab3-a50c60525835","ios":"levelo://app?vid=be08ef50-183c-4acc-9ab3-a50c60525835"},"vehicle_type_id":"4","last_reported":1691773532,"current_range_meters":2800,"station_id":"ce4bh692rcd13ifvqea0","pricing_plan_id":"free"},{"bike_id":"49bcb0e4-e695-436e-961f-09dd29eb7756","system_id":"levelo_inurba_marseille","lat":43.304296,"lon":5.397513,"is_reserved":false,"is_disabled":false,"rental_uris":{"android":"levelo://app?vid=49bcb0e4-e695-436e-961f-09dd29eb7756","ios":"levelo://app?vid=49bcb0e4-e695-436e-961f-09dd29eb7756"},"vehicle_type_id":"4","last_reported":1691773532,"current_range_meters":1200,"station_id":"ce4bh092rcd13ifvqd20","pricing_plan_id":"free"},{"bike_id":"bb5b9e3b-2dce-4881-9a9e-cb4a099fab0b","system_id":"levelo_inurba_marseille","lat":43.292653,"lon":5.384459,"is_reserved":false,"is_disabled":false,"rental_uris":{"android":"levelo://app?vid=bb5b9e3b-2dce-4881-9a9e-cb4a099fab0b","ios":"levelo://app?vid=bb5b9e3b-2dce-4881-9a9e-cb4a099fab0b"},"vehicle_type_id":"4","last_reported":1691773532,"current_range_meters":0,"station_id":"ce4bh692rcd13ifvqea0","pricing_plan_id":"free"},{"bike_id":"21cdde3c-255b-47a0-8de1-bfe224409484","system_id":"levelo_inurba_marseille","lat":43.304296,"lon":5.397513,"is_reserved":false,"is_disabled":false,"rental_uris":{"android":"levelo://app?vid=21cdde3c-255b-47a0-8de1-bfe224409484","ios":"levelo://app?vid=21cdde3c-255b-47a0-8de1-bfe224409484"},"vehicle_type_id":"4","last_reported":1691773532,"current_range_meters":16800,"station_id":"ce4bh092rcd13ifvqd20","pricing_plan_id":"free"},{"bike_id":"1d3d6bda-6fd8-46dc-a4de-7679cf49679c","system_id":"levelo_inurba_marseille","lat":43.29255,"lon":5.38446,"is_reserved":false,"is_disabled":false,"rental_uris":{"android":"levelo://app?vid=1d3d6bda-6fd8-46dc-a4de-7679cf49679c","ios":"levelo://app?vid=1d3d6bda-6fd8-46dc-a4de-7679cf49679c"},"vehicle_type_id":"4","last_reported":1691773532,"current_range_meters":14800,"station_id":"ce4bh692rcd13ifvqea0","pricing_plan_id":"free"},{"bike_id":"69c23820-b8c4-4b33-a6c2-28beb4ed1d2a","system_id":"levelo_inurba_marseille","lat":43.330357,"lon":5.38912,"is_reserved":false,"is_disabled":false,"rental_uris":{"android":"levelo://app?vid=69c23820-b8c4-4b33-a6c2-28beb4ed1d2a","ios":"levelo://app?vid=69c23820-b8c4-4b33-a6c2-28beb4ed1d2a"},"vehicle_type_id":"4","last_reported":1691773532,"current_range_meters":16800,"station_id":"","pricing_plan_id":"free"},{"bike_id":"a4ccafed-fb68-460d-9074-77da967aea2e","system_id":"levelo_inurba_marseille","lat":43.33044,"lon":5.38916,"is_reserved":false,"is_disabled":false,"rental_uris":{"android":"levelo://app?vid=a4ccafed-fb68-460d-9074-77da967aea2e","ios":"levelo://app?vid=a4ccafed-fb68-460d-9074-77da967aea2e"},"vehicle_type_id":"4","last_reported":1691773532,"current_range_meters":20800,"station_id":"ce4bhr92rcd13ifvqhrg","pricing_plan_id":"free"},{"bike_id":"f077ecb3-14b7-4688-9edd-0b82e29b4646","system_id":"levelo_inurba_marseille","lat":43.290103,"lon":5.356114,"is_reserved":false,"is_disabled":false,"rental_uris":{"android":"levelo://app?vid=f077ecb3-14b7-4688-9edd-0b82e29b4646","ios":"levelo://app?vid=f077ecb3-14b7-4688-9edd-0b82e29b4646"},"vehicle_type_id":"4","last_reported":1691773532,"current_range_meters":10000,"station_id":"ce4bhb92rcd13ifvqen0","pricing_plan_id":"free"},{"bike_id":"4e16e2ad-2e0a-4999-9748-f3300bcd6ac3","system_id":"levelo_inurba_marseille","lat":43.290103,"lon":5.356114,"is_reserved":false,"is_disabled":false,"rental_uris":{"android":"levelo://app?vid=4e16e2ad-2e0a-4999-9748-f3300bcd6ac3","ios":"levelo://app?vid=4e16e2ad-2e0a-4999-9748-f3300bcd6ac3"},"vehicle_type_id":"4","last_reported":1691773532,"current_range_meters":6000,"station_id":"ce4bhb92rcd13ifvqen0","pricing_plan_id":"free"},{"bike_id":"e1ba2342-5cd1-4783-b75c-011209b60996","system_id":"levelo_inurba_marseille","lat":43.33044,"lon":5.38918,"is_reserved":false,"is_disabled":false,"rental_uris":{"android":"levelo://app?vid=e1ba2342-5cd1-4783-b75c-011209b60996","ios":"levelo://app?vid=e1ba2342-5cd1-4783-b75c-011209b60996"},"vehicle_type_id":"4","last_reported":1691773532,"current_range_meters":17200,"station_id":"ce4bhr92rcd13ifvqhrg","pricing_plan_id":"free"},{"bike_id":"f7ce89fc-6079-4e39-aeb7-bd01479e66e4","system_id":"levelo_inurba_marseille","lat":43.29008,"lon":5.35611,"is_reserved":false,"is_disabled":false,"rental_uris":{"android":"levelo://app?vid=f7ce89fc-6079-4e39-aeb7-bd01479e66e4","ios":"levelo://app?vid=f7ce89fc-6079-4e39-aeb7-bd01479e66e4"},"vehicle_type_id":"4","last_reported":1691773532,"current_range_meters":13200,"station_id":"ce4bhb92rcd13ifvqen0","pricing_plan_id":"free"},{"bike_id":"60d00b03-cc0a-469b-b176-29107d6538f3","system_id":"levelo_inurba_marseille","lat":43.33045,"lon":5.38917,"is_reserved":false,"is_disabled":false,"rental_uris":{"android":"levelo://app?vid=60d00b03-cc0a-469b-b176-29107d6538f3","ios":"levelo://app?vid=60d00b03-cc0a-469b-b176-29107d6538f3"},"vehicle_type_id":"4","last_reported":1691773532,"current_range_meters":8400,"station_id":"ce4bhr92rcd13ifvqhrg","pricing_plan_id":"free"},{"bike_id":"c4b0aa63-7248-4c69-80eb-f0aa4c35dc39","system_id":"levelo_inurba_marseille","lat":43.33045,"lon":5.38919,"is_reserved":false,"is_disabled":false,"rental_uris":{"android":"levelo://app?vid=c4b0aa63-7248-4c69-80eb-f0aa4c35dc39","ios":"levelo://app?vid=c4b0aa63-7248-4c69-80eb-f0aa4c35dc39"},"vehicle_type_id":"4","last_reported":1691773532,"current_range_meters":11600,"station_id":"ce4bhr92rcd13ifvqhrg","pricing_plan_id":"free"},{"bike_id":"d92191b5-3897-428d-989c-4b986c7a7e64","system_id":"levelo_inurba_marseille","lat":43.29004,"lon":5.35614,"is_reserved":false,"is_disabled":false,"rental_uris":{"android":"levelo://app?vid=d92191b5-3897-428d-989c-4b986c7a7e64","ios":"levelo://app?vid=d92191b5-3897-428d-989c-4b986c7a7e64"},"vehicle_type_id":"4","last_reported":1691773532,"current_range_meters":22400,"station_id":"ce4bhb92rcd13ifvqen0","pricing_plan_id":"free"},{"bike_id":"2b63ab62-138c-42bd-b374-14361975f4c9","system_id":"levelo_inurba_marseille","lat":43.290103,"lon":5.356114,"is_reserved":false,"is_disabled":false,"rental_uris":{"android":"levelo://app?vid=2b63ab62-138c-42bd-b374-14361975f4c9","ios":"levelo://app?vid=2b63ab62-138c-42bd-b374-14361975f4c9"},"vehicle_type_id":"4","last_reported":1691773532,"current_range_meters":28000,"station_id":"ce4bhb92rcd13ifvqen0","pricing_plan_id":"free"},{"bike_id":"7c8be166-4462-4f19-9440-3d886b7490b2","system_id":"levelo_inurba_marseille","lat":43.290103,"lon":5.356114,"is_reserved":false,"is_disabled":false,"rental_uris":{"android":"levelo://app?vid=7c8be166-4462-4f19-9440-3d886b7490b2","ios":"levelo://app?vid=7c8be166-4462-4f19-9440-3d886b7490b2"},"vehicle_type_id":"4","last_reported":1691773532,"current_range_meters":24000,"station_id":"ce4bhb92rcd13ifvqen0","pricing_plan_id":"free"},{"bike_id":"b384f64b-8b72-4a12-9f02-39d2e4e27951","system_id":"levelo_inurba_marseille","lat":43.29003,"lon":5.35611,"is_reserved":false,"is_disabled":false,"rental_uris":{"android":"levelo://app?vid=b384f64b-8b72-4a12-9f02-39d2e4e27951","ios":"levelo://app?vid=b384f64b-8b72-4a12-9f02-39d2e4e27951"},"vehicle_type_id":"4","last_reported":1691773532,"current_range_meters":0,"station_id":"ce4bhb92rcd13ifvqen0","pricing_plan_id":"free"},{"bike_id":"4e64c6ca-e998-4356-b7e3-fd131a95c816","system_id":"levelo_inurba_marseille","lat":43.290995,"lon":5.381361,"is_reserved":false,"is_disabled":false,"rental_uris":{"android":"levelo://app?vid=4e64c6ca-e998-4356-b7e3-fd131a95c816","ios":"levelo://app?vid=4e64c6ca-e998-4356-b7e3-fd131a95c816"},"vehicle_type_id":"4","last_reported":1691773532,"current_range_meters":12800,"station_id":"ce4bh512rcd13ifvqe2g","pricing_plan_id":"free"},{"bike_id":"7b213179-92c3-4c83-be86-683eb859628c","system_id":"levelo_inurba_marseille","lat":43.290995,"lon":5.381361,"is_reserved":false,"is_disabled":false,"rental_uris":{"android":"levelo://app?vid=7b213179-92c3-4c83-be86-683eb859628c","ios":"levelo://app?vid=7b213179-92c3-4c83-be86-683eb859628c"},"vehicle_type_id":"4","last_reported":1691773532,"current_range_meters":2000,"station_id":"ce4bh512rcd13ifvqe2g","pricing_plan_id":"free"},{"bike_id":"7b78d55e-e99c-4fa7-968a-c672d6912f00","system_id":"levelo_inurba_marseille","lat":43.28998,"lon":5.35614,"is_reserved":false,"is_disabled":false,"rental_uris":{"android":"levelo://app?vid=7b78d55e-e99c-4fa7-968a-c672d6912f00","ios":"levelo://app?vid=7b78d55e-e99c-4fa7-968a-c672d6912f00"},"vehicle_type_id":"4","last_reported":1691773532,"current_range_meters":31200,"station_id":"ce4bhb92rcd13ifvqen0","pricing_plan_id":"free"},{"bike_id":"47d0d55b-3b27-4cf1-801a-74cb649059b6","system_id":"levelo_inurba_marseille","lat":43.29789,"lon":5.3934,"is_reserved":false,"is_disabled":false,"rental_uris":{"android":"levelo://app?vid=47d0d55b-3b27-4cf1-801a-74cb649059b6","ios":"levelo://app?vid=47d0d55b-3b27-4cf1-801a-74cb649059b6"},"vehicle_type_id":"4","last_reported":1691773532,"current_range_meters":24400,"station_id":"","pricing_plan_id":"free"},{"bike_id":"9ed8bb80-e47c-428d-9fd9-942938b1c73c","system_id":"levelo_inurba_marseille","lat":43.295169,"lon":5.390426,"is_reserved":false,"is_disabled":false,"rental_uris":{"android":"levelo://app?vid=9ed8bb80-e47c-428d-9fd9-942938b1c73c","ios":"levelo://app?vid=9ed8bb80-e47c-428d-9fd9-942938b1c73c"},"vehicle_type_id":"4","last_reported":1691773532,"current_range_meters":27200,"station_id":"ce4bh3p2rcd13ifvqdp0","pricing_plan_id":"free"},{"bike_id":"5b43d666-7ed7-4cf5-96dd-4cc7c69634fc","system_id":"levelo_inurba_marseille","lat":43.2901,"lon":5.381269,"is_reserved":false,"is_disabled":false,"rental_uris":{"android":"levelo://app?vid=5b43d666-7ed7-4cf5-96dd-4cc7c69634fc","ios":"levelo://app?vid=5b43d666-7ed7-4cf5-96dd-4cc7c69634fc"},"vehicle_type_id":"4","last_reported":1691773532,"current_range_meters":400,"station_id":"ce4bh4p2rcd13ifvqe1g","pricing_plan_id":"free"},{"bike_id":"46419079-1ba5-4936-b0fb-20946c9133cf","system_id":"levelo_inurba_marseille","lat":43.28856,"lon":5.358371,"is_reserved":false,"is_disabled":false,"rental_uris":{"android":"levelo://app?vid=46419079-1ba5-4936-b0fb-20946c9133cf","ios":"levelo://app?vid=46419079-1ba5-4936-b0fb-20946c9133cf"},"vehicle_type_id":"4","last_reported":1691773532,"current_range_meters":0,"station_id":"ce4bhb12rcd13ifvqem0","pricing_plan_id":"free"},{"bike_id":"7ec33d4b-5c62-44d2-af49-9a86c1dd2ad9","system_id":"levelo_inurba_marseille","lat":43.28837,"lon":5.35864,"is_reserved":false,"is_disabled":false,"rental_uris":{"android":"levelo://app?vid=7ec33d4b-5c62-44d2-af49-9a86c1dd2ad9","ios":"levelo://app?vid=7ec33d4b-5c62-44d2-af49-9a86c1dd2ad9"},"vehicle_type_id":"4","last_reported":1691773532,"current_range_meters":1600,"station_id":"","pricing_plan_id":"free"},{"bike_id":"5321fce4-c4bd-4b71-8eee-8eacf927e476","system_id":"levelo_inurba_marseille","lat":43.30934,"lon":5.40145,"is_reserved":false,"is_disabled":false,"rental_uris":{"android":"levelo://app?vid=5321fce4-c4bd-4b71-8eee-8eacf927e476","ios":"levelo://app?vid=5321fce4-c4bd-4b71-8eee-8eacf927e476"},"vehicle_type_id":"4","last_reported":1691773532,"current_range_meters":21600,"station_id":"ce4bgvp2rcd13ifvqct0","pricing_plan_id":"free"},{"bike_id":"db2ab3ad-9aaf-44d5-bf1e-76652f11e8b3","system_id":"levelo_inurba_marseille","lat":43.30642,"lon":5.401031,"is_reserved":false,"is_disabled":false,"rental_uris":{"android":"levelo://app?vid=db2ab3ad-9aaf-44d5-bf1e-76652f11e8b3","ios":"levelo://app?vid=db2ab3ad-9aaf-44d5-bf1e-76652f11e8b3"},"vehicle_type_id":"4","last_reported":1691773532,"current_range_meters":6800,"station_id":"ce4bh112rcd13ifvqda0","pricing_plan_id":"free"},{"bike_id":"55448342-7d1e-44a4-9bcd-6a00fdf13c2b","system_id":"levelo_inurba_marseille","lat":43.30639,"lon":5.40094,"is_reserved":false,"is_disabled":false,"rental_uris":{"android":"levelo://app?vid=55448342-7d1e-44a4-9bcd-6a00fdf13c2b","ios":"levelo://app?vid=55448342-7d1e-44a4-9bcd-6a00fdf13c2b"},"vehicle_type_id":"4","last_reported":1691773532,"current_range_meters":5600,"station_id":"ce4bh112rcd13ifvqda0","pricing_plan_id":"free"},{"bike_id":"d4227c3d-0936-44ca-9302-8b47e083a317","system_id":"levelo_inurba_marseille","lat":43.30647,"lon":5.40098,"is_reserved":false,"is_disabled":false,"rental_uris":{"android":"levelo://app?vid=d4227c3d-0936-44ca-9302-8b47e083a317","ios":"levelo://app?vid=d4227c3d-0936-44ca-9302-8b47e083a317"},"vehicle_type_id":"4","last_reported":1691773532,"current_range_meters":20400,"station_id":"ce4bh112rcd13ifvqda0","pricing_plan_id":"free"},{"bike_id":"7a67d0df-acd4-4cf4-bb3b-2ac25b9d4a97","system_id":"levelo_inurba_marseille","lat":43.3064,"lon":5.40096,"is_reserved":false,"is_disabled":false,"rental_uris":{"android":"levelo://app?vid=7a67d0df-acd4-4cf4-bb3b-2ac25b9d4a97","ios":"levelo://app?vid=7a67d0df-acd4-4cf4-bb3b-2ac25b9d4a97"},"vehicle_type_id":"4","last_reported":1691773532,"current_range_meters":14400,"station_id":"ce4bh112rcd13ifvqda0","pricing_plan_id":"free"},{"bike_id":"b13a652c-ddd6-4169-b105-4fcc23540df7","system_id":"levelo_inurba_marseille","lat":43.301117,"lon":5.398795,"is_reserved":false,"is_disabled":false,"rental_uris":{"android":"levelo://app?vid=b13a652c-ddd6-4169-b105-4fcc23540df7","ios":"levelo://app?vid=b13a652c-ddd6-4169-b105-4fcc23540df7"},"vehicle_type_id":"4","last_reported":1691773532,"current_range_meters":10800,"station_id":"ce4bh0h2rcd13ifvqd40","pricing_plan_id":"free"},{"bike_id":"f9443bf1-2b77-41c3-8a95-1ba776888dec","system_id":"levelo_inurba_marseille","lat":43.301117,"lon":5.398795,"is_reserved":false,"is_disabled":false,"rental_uris":{"android":"levelo://app?vid=f9443bf1-2b77-41c3-8a95-1ba776888dec","ios":"levelo://app?vid=f9443bf1-2b77-41c3-8a95-1ba776888dec"},"vehicle_type_id":"4","last_reported":1691773532,"current_range_meters":30000,"station_id":"ce4bh0h2rcd13ifvqd40","pricing_plan_id":"free"},{"bike_id":"915f802e-f31b-4c71-8de0-2a5fc39e5970","system_id":"levelo_inurba_marseille","lat":43.32994,"lon":5.39403,"is_reserved":false,"is_disabled":false,"rental_uris":{"android":"levelo://app?vid=915f802e-f31b-4c71-8de0-2a5fc39e5970","ios":"levelo://app?vid=915f802e-f31b-4c71-8de0-2a5fc39e5970"},"vehicle_type_id":"4","last_reported":1691773532,"current_range_meters":6400,"station_id":"","pricing_plan_id":"free"},{"bike_id":"518f5331-fdfd-4602-aa21-1324fbfbf337","system_id":"levelo_inurba_marseille","lat":43.286961,"lon":5.373785,"is_reserved":false,"is_disabled":false,"rental_uris":{"android":"levelo://app?vid=518f5331-fdfd-4602-aa21-1324fbfbf337","ios":"levelo://app?vid=518f5331-fdfd-4602-aa21-1324fbfbf337"},"vehicle_type_id":"4","last_reported":1691773532,"current_range_meters":12000,"station_id":"ce4bh3p2rcd13ifvqdq0","pricing_plan_id":"free"},{"bike_id":"1f68ae4c-e0d1-4fbc-85de-222f8ed4c17b","system_id":"levelo_inurba_marseille","lat":43.287032,"lon":5.373665,"is_reserved":false,"is_disabled":false,"rental_uris":{"android":"levelo://app?vid=1f68ae4c-e0d1-4fbc-85de-222f8ed4c17b","ios":"levelo://app?vid=1f68ae4c-e0d1-4fbc-85de-222f8ed4c17b"},"vehicle_type_id":"4","last_reported":1691773532,"current_range_meters":23200,"station_id":"","pricing_plan_id":"free"},{"bike_id":"88d9f938-0c6b-4199-a1ec-5f33f253939e","system_id":"levelo_inurba_marseille","lat":43.286591,"lon":5.363346,"is_reserved":false,"is_disabled":false,"rental_uris":{"android":"levelo://app?vid=88d9f938-0c6b-4199-a1ec-5f33f253939e","ios":"levelo://app?vid=88d9f938-0c6b-4199-a1ec-5f33f253939e"},"vehicle_type_id":"4","last_reported":1691773532,"current_range_meters":15600,"station_id":"ce4bhah2rcd13ifvqej0","pricing_plan_id":"free"},{"bike_id":"bf6fe833-969c-47d2-ab44-a21e63de3a5c","system_id":"levelo_inurba_marseille","lat":43.298681,"lon":5.397225,"is_reserved":false,"is_disabled":false,"rental_uris":{"android":"levelo://app?vid=bf6fe833-969c-47d2-ab44-a21e63de3a5c","ios":"levelo://app?vid=bf6fe833-969c-47d2-ab44-a21e63de3a5c"},"vehicle_type_id":"4","last_reported":1691773532,"current_range_meters":4800,"station_id":"ce4bh0h2rcd13ifvqd50","pricing_plan_id":"free"},{"bike_id":"75199276-b705-4ad7-b6a9-49aeaa84628a","system_id":"levelo_inurba_marseille","lat":43.286591,"lon":5.363346,"is_reserved":false,"is_disabled":false,"rental_uris":{"android":"levelo://app?vid=75199276-b705-4ad7-b6a9-49aeaa84628a","ios":"levelo://app?vid=75199276-b705-4ad7-b6a9-49aeaa84628a"},"vehicle_type_id":"4","last_reported":1691773532,"current_range_meters":31600,"station_id":"ce4bhah2rcd13ifvqej0","pricing_plan_id":"free"},{"bike_id":"f47830f0-ab8b-40a9-98e2-1e1ee0d2fbe3","system_id":"levelo_inurba_marseille","lat":43.298639,"lon":5.397265,"is_reserved":false,"is_disabled":false,"rental_uris":{"android":"levelo://app?vid=f47830f0-ab8b-40a9-98e2-1e1ee0d2fbe3","ios":"levelo://app?vid=f47830f0-ab8b-40a9-98e2-1e1ee0d2fbe3"},"vehicle_type_id":"4","last_reported":1691773532,"current_range_meters":12800,"station_id":"","pricing_plan_id":"free"},{"bike_id":"a4c3ce10-6cfe-472e-9a18-1f50346a563f","system_id":"levelo_inurba_marseille","lat":43.286591,"lon":5.363346,"is_reserved":false,"is_disabled":false,"rental_uris":{"android":"levelo://app?vid=a4c3ce10-6cfe-472e-9a18-1f50346a563f","ios":"levelo://app?vid=a4c3ce10-6cfe-472e-9a18-1f50346a563f"},"vehicle_type_id":"4","last_reported":1691773532,"current_range_meters":28400,"station_id":"ce4bhah2rcd13ifvqej0","pricing_plan_id":"free"},{"bike_id":"b6b2931e-e73d-48ff-8fb1-38e8884e1fbd","system_id":"levelo_inurba_marseille","lat":43.298681,"lon":5.397225,"is_reserved":false,"is_disabled":false,"rental_uris":{"android":"levelo://app?vid=b6b2931e-e73d-48ff-8fb1-38e8884e1fbd","ios":"levelo://app?vid=b6b2931e-e73d-48ff-8fb1-38e8884e1fbd"},"vehicle_type_id":"4","last_reported":1691773532,"current_range_meters":26000,"station_id":"ce4bh0h2rcd13ifvqd50","pricing_plan_id":"free"},{"bike_id":"dc5bb176-b75c-4d88-8005-ce185a1c15b2","system_id":"levelo_inurba_marseille","lat":43.295196,"lon":5.39397,"is_reserved":false,"is_disabled":false,"rental_uris":{"android":"levelo://app?vid=dc5bb176-b75c-4d88-8005-ce185a1c15b2","ios":"levelo://app?vid=dc5bb176-b75c-4d88-8005-ce185a1c15b2"},"vehicle_type_id":"4","last_reported":1691773532,"current_range_meters":1200,"station_id":"ce4bh292rcd13ifvqdf0","pricing_plan_id":"free"},{"bike_id":"30a8ee1d-7a95-4c14-a697-89c3d4fce17f","system_id":"levelo_inurba_marseille","lat":43.290345,"lon":5.38646,"is_reserved":false,"is_disabled":false,"rental_uris":{"android":"levelo://app?vid=30a8ee1d-7a95-4c14-a697-89c3d4fce17f","ios":"levelo://app?vid=30a8ee1d-7a95-4c14-a697-89c3d4fce17f"},"vehicle_type_id":"4","last_reported":1691773532,"current_range_meters":6800,"station_id":"ce4bh4p2rcd13ifvqe0g","pricing_plan_id":"free"},{"bike_id":"2b705e70-6663-473c-8998-77544997f979","system_id":"levelo_inurba_marseille","lat":43.302759,"lon":5.400793,"is_reserved":false,"is_disabled":false,"rental_uris":{"android":"levelo://app?vid=2b705e70-6663-473c-8998-77544997f979","ios":"levelo://app?vid=2b705e70-6663-473c-8998-77544997f979"},"vehicle_type_id":"4","last_reported":1691773532,"current_range_meters":2400,"station_id":"ce4bgvh2rcd13ifvqcs0","pricing_plan_id":"free"},{"bike_id":"4b8064bc-e323-4763-b30f-c719ed206f02","system_id":"levelo_inurba_marseille","lat":43.302759,"lon":5.400793,"is_reserved":false,"is_disabled":false,"rental_uris":{"android":"levelo://app?vid=4b8064bc-e323-4763-b30f-c719ed206f02","ios":"levelo://app?vid=4b8064bc-e323-4763-b30f-c719ed206f02"},"vehicle_type_id":"4","last_reported":1691773532,"current_range_meters":20000,"station_id":"ce4bgvh2rcd13ifvqcs0","pricing_plan_id":"free"},{"bike_id":"e5e87ce7-1fa1-4d5a-ac04-c41ca3151bff","system_id":"levelo_inurba_marseille","lat":43.287184,"lon":5.37937,"is_reserved":false,"is_disabled":false,"rental_uris":{"android":"levelo://app?vid=e5e87ce7-1fa1-4d5a-ac04-c41ca3151bff","ios":"levelo://app?vid=e5e87ce7-1fa1-4d5a-ac04-c41ca3151bff"},"vehicle_type_id":"4","last_reported":1691773532,"current_range_meters":20400,"station_id":"ce4bh9p2rcd13ifvqec0","pricing_plan_id":"free"},{"bike_id":"efc04e1b-6a70-4f88-a17e-6e73f3b74f5d","system_id":"levelo_inurba_marseille","lat":43.287185,"lon":5.379373,"is_reserved":false,"is_disabled":false,"rental_uris":{"android":"levelo://app?vid=efc04e1b-6a70-4f88-a17e-6e73f3b74f5d","ios":"levelo://app?vid=efc04e1b-6a70-4f88-a17e-6e73f3b74f5d"},"vehicle_type_id":"4","last_reported":1691773532,"current_range_meters":12000,"station_id":"ce4bh9p2rcd13ifvqec0","pricing_plan_id":"free"},{"bike_id":"051c5e72-3fba-4e83-9801-0b4511e9be48","system_id":"levelo_inurba_marseille","lat":43.287184,"lon":5.37937,"is_reserved":false,"is_disabled":false,"rental_uris":{"android":"levelo://app?vid=051c5e72-3fba-4e83-9801-0b4511e9be48","ios":"levelo://app?vid=051c5e72-3fba-4e83-9801-0b4511e9be48"},"vehicle_type_id":"4","last_reported":1691773532,"current_range_meters":24800,"station_id":"ce4bh9p2rcd13ifvqec0","pricing_plan_id":"free"},{"bike_id":"1fac82b1-2c15-45ba-bc2d-2a458144be8a","system_id":"levelo_inurba_marseille","lat":43.287184,"lon":5.37937,"is_reserved":false,"is_disabled":false,"rental_uris":{"android":"levelo://app?vid=1fac82b1-2c15-45ba-bc2d-2a458144be8a","ios":"levelo://app?vid=1fac82b1-2c15-45ba-bc2d-2a458144be8a"},"vehicle_type_id":"4","last_reported":1691773532,"current_range_meters":18000,"station_id":"ce4bh9p2rcd13ifvqec0","pricing_plan_id":"free"},{"bike_id":"725a7b3c-35a1-4783-948d-65bcdb07d0ee","system_id":"levelo_inurba_marseille","lat":43.3165,"lon":5.4044,"is_reserved":false,"is_disabled":false,"rental_uris":{"android":"levelo://app?vid=725a7b3c-35a1-4783-948d-65bcdb07d0ee","ios":"levelo://app?vid=725a7b3c-35a1-4783-948d-65bcdb07d0ee"},"vehicle_type_id":"4","last_reported":1691773532,"current_range_meters":22000,"station_id":"ce4bh012rcd13ifvqd00","pricing_plan_id":"free"},{"bike_id":"0d69041a-9e53-4901-bd0e-01011e8d2459","system_id":"levelo_inurba_marseille","lat":43.284538,"lon":5.358657,"is_reserved":false,"is_disabled":false,"rental_uris":{"android":"levelo://app?vid=0d69041a-9e53-4901-bd0e-01011e8d2459","ios":"levelo://app?vid=0d69041a-9e53-4901-bd0e-01011e8d2459"},"vehicle_type_id":"4","last_reported":1691773532,"current_range_meters":800,"station_id":"ce4bhah2rcd13ifvqei0","pricing_plan_id":"free"},{"bike_id":"81272b25-92ab-4579-9673-c5aacb89cb52","system_id":"levelo_inurba_marseille","lat":43.284538,"lon":5.358657,"is_reserved":false,"is_disabled":false,"rental_uris":{"android":"levelo://app?vid=81272b25-92ab-4579-9673-c5aacb89cb52","ios":"levelo://app?vid=81272b25-92ab-4579-9673-c5aacb89cb52"},"vehicle_type_id":"4","last_reported":1691773532,"current_range_meters":7600,"station_id":"ce4bhah2rcd13ifvqei0","pricing_plan_id":"free"},{"bike_id":"4f47fcf6-021a-4f98-8db9-6743701b2606","system_id":"levelo_inurba_marseille","lat":43.284534,"lon":5.358662,"is_reserved":false,"is_disabled":false,"rental_uris":{"android":"levelo://app?vid=4f47fcf6-021a-4f98-8db9-6743701b2606","ios":"levelo://app?vid=4f47fcf6-021a-4f98-8db9-6743701b2606"},"vehicle_type_id":"4","last_reported":1691773532,"current_range_meters":7200,"station_id":"ce4bhah2rcd13ifvqei0","pricing_plan_id":"free"},{"bike_id":"d2f2f9ad-1387-440d-96aa-910b5d222377","system_id":"levelo_inurba_marseille","lat":43.284538,"lon":5.358657,"is_reserved":false,"is_disabled":false,"rental_uris":{"android":"levelo://app?vid=d2f2f9ad-1387-440d-96aa-910b5d222377","ios":"levelo://app?vid=d2f2f9ad-1387-440d-96aa-910b5d222377"},"vehicle_type_id":"4","last_reported":1691773532,"current_range_meters":25200,"station_id":"ce4bhah2rcd13ifvqei0","pricing_plan_id":"free"},{"bike_id":"042c2f50-e526-4584-b82b-ce8b38d81e34","system_id":"levelo_inurba_marseille","lat":43.284534,"lon":5.358662,"is_reserved":false,"is_disabled":false,"rental_uris":{"android":"levelo://app?vid=042c2f50-e526-4584-b82b-ce8b38d81e34","ios":"levelo://app?vid=042c2f50-e526-4584-b82b-ce8b38d81e34"},"vehicle_type_id":"4","last_reported":1691773532,"current_range_meters":26400,"station_id":"ce4bhah2rcd13ifvqei0","pricing_plan_id":"free"},{"bike_id":"bb7fc24b-8c07-444c-8760-bbe0a6289f89","system_id":"levelo_inurba_marseille","lat":43.284538,"lon":5.358657,"is_reserved":false,"is_disabled":false,"rental_uris":{"android":"levelo://app?vid=bb7fc24b-8c07-444c-8760-bbe0a6289f89","ios":"levelo://app?vid=bb7fc24b-8c07-444c-8760-bbe0a6289f89"},"vehicle_type_id":"4","last_reported":1691773532,"current_range_meters":4400,"station_id":"ce4bhah2rcd13ifvqei0","pricing_plan_id":"free"},{"bike_id":"1e091ec7-011f-4868-aed8-2de2238b33c6","system_id":"levelo_inurba_marseille","lat":43.284534,"lon":5.358662,"is_reserved":false,"is_disabled":false,"rental_uris":{"android":"levelo://app?vid=1e091ec7-011f-4868-aed8-2de2238b33c6","ios":"levelo://app?vid=1e091ec7-011f-4868-aed8-2de2238b33c6"},"vehicle_type_id":"4","last_reported":1691773532,"current_range_meters":31200,"station_id":"ce4bhah2rcd13ifvqei0","pricing_plan_id":"free"},{"bike_id":"cff42328-3871-450d-be00-72038d4ad401","system_id":"levelo_inurba_marseille","lat":43.284538,"lon":5.358657,"is_reserved":false,"is_disabled":false,"rental_uris":{"android":"levelo://app?vid=cff42328-3871-450d-be00-72038d4ad401","ios":"levelo://app?vid=cff42328-3871-450d-be00-72038d4ad401"},"vehicle_type_id":"4","last_reported":1691773532,"current_range_meters":19600,"station_id":"ce4bhah2rcd13ifvqei0","pricing_plan_id":"free"},{"bike_id":"6a977bb9-9d8e-41e1-b3c3-ae49f43adfea","system_id":"levelo_inurba_marseille","lat":43.29437,"lon":5.39748,"is_reserved":false,"is_disabled":false,"rental_uris":{"android":"levelo://app?vid=6a977bb9-9d8e-41e1-b3c3-ae49f43adfea","ios":"levelo://app?vid=6a977bb9-9d8e-41e1-b3c3-ae49f43adfea"},"vehicle_type_id":"4","last_reported":1691773532,"current_range_meters":28800,"station_id":"","pricing_plan_id":"free"},{"bike_id":"48c3b55e-083e-45b6-be48-8e978cb2f94e","system_id":"levelo_inurba_marseille","lat":43.284538,"lon":5.358657,"is_reserved":false,"is_disabled":false,"rental_uris":{"android":"levelo://app?vid=48c3b55e-083e-45b6-be48-8e978cb2f94e","ios":"levelo://app?vid=48c3b55e-083e-45b6-be48-8e978cb2f94e"},"vehicle_type_id":"4","last_reported":1691773532,"current_range_meters":26400,"station_id":"ce4bhah2rcd13ifvqei0","pricing_plan_id":"free"},{"bike_id":"e35ec9e3-e06f-4c24-90e6-77603a114f4b","system_id":"levelo_inurba_marseille","lat":43.294314,"lon":5.397498,"is_reserved":false,"is_disabled":false,"rental_uris":{"android":"levelo://app?vid=e35ec9e3-e06f-4c24-90e6-77603a114f4b","ios":"levelo://app?vid=e35ec9e3-e06f-4c24-90e6-77603a114f4b"},"vehicle_type_id":"4","last_reported":1691773532,"current_range_meters":6800,"station_id":"ce4bh3h2rcd13ifvqdo0","pricing_plan_id":"free"},{"bike_id":"9e3305ce-373f-4537-8358-3e4506219645","system_id":"levelo_inurba_marseille","lat":43.29436,"lon":5.39756,"is_reserved":false,"is_disabled":false,"rental_uris":{"android":"levelo://app?vid=9e3305ce-373f-4537-8358-3e4506219645","ios":"levelo://app?vid=9e3305ce-373f-4537-8358-3e4506219645"},"vehicle_type_id":"4","last_reported":1691773532,"current_range_meters":24800,"station_id":"","pricing_plan_id":"free"},{"bike_id":"8a6db333-14f5-45f1-9ad9-50648bfcb173","system_id":"levelo_inurba_marseille","lat":43.285856,"lon":5.350771,"is_reserved":false,"is_disabled":false,"rental_uris":{"android":"levelo://app?vid=8a6db333-14f5-45f1-9ad9-50648bfcb173","ios":"levelo://app?vid=8a6db333-14f5-45f1-9ad9-50648bfcb173"},"vehicle_type_id":"4","last_reported":1691773532,"current_range_meters":31200,"station_id":"ce4bhch2rcd13ifvqeug","pricing_plan_id":"free"},{"bike_id":"57e1b1d8-b898-4742-aa5a-5a2cab683737","system_id":"levelo_inurba_marseille","lat":43.28615,"lon":5.35109,"is_reserved":false,"is_disabled":false,"rental_uris":{"android":"levelo://app?vid=57e1b1d8-b898-4742-aa5a-5a2cab683737","ios":"levelo://app?vid=57e1b1d8-b898-4742-aa5a-5a2cab683737"},"vehicle_type_id":"4","last_reported":1691773532,"current_range_meters":10400,"station_id":"ce4bhch2rcd13ifvqeug","pricing_plan_id":"free"},{"bike_id":"09da436c-d7e7-4f05-a9f0-300b1bb85f55","system_id":"levelo_inurba_marseille","lat":43.286139,"lon":5.351062,"is_reserved":false,"is_disabled":false,"rental_uris":{"android":"levelo://app?vid=09da436c-d7e7-4f05-a9f0-300b1bb85f55","ios":"levelo://app?vid=09da436c-d7e7-4f05-a9f0-300b1bb85f55"},"vehicle_type_id":"4","last_reported":1691773532,"current_range_meters":31200,"station_id":"ce4bhch2rcd13ifvqeug","pricing_plan_id":"free"},{"bike_id":"26158745-8205-4809-9857-0f1554d09b88","system_id":"levelo_inurba_marseille","lat":43.285856,"lon":5.350771,"is_reserved":false,"is_disabled":false,"rental_uris":{"android":"levelo://app?vid=26158745-8205-4809-9857-0f1554d09b88","ios":"levelo://app?vid=26158745-8205-4809-9857-0f1554d09b88"},"vehicle_type_id":"4","last_reported":1691773532,"current_range_meters":16400,"station_id":"ce4bhch2rcd13ifvqeug","pricing_plan_id":"free"},{"bike_id":"bddf4165-ea67-4a32-ae2e-5cab9f512fd6","system_id":"levelo_inurba_marseille","lat":43.28611,"lon":5.35102,"is_reserved":false,"is_disabled":false,"rental_uris":{"android":"levelo://app?vid=bddf4165-ea67-4a32-ae2e-5cab9f512fd6","ios":"levelo://app?vid=bddf4165-ea67-4a32-ae2e-5cab9f512fd6"},"vehicle_type_id":"4","last_reported":1691773532,"current_range_meters":30000,"station_id":"ce4bhch2rcd13ifvqeug","pricing_plan_id":"free"},{"bike_id":"cc741d9c-68eb-4366-8de2-29fa16a03d4c","system_id":"levelo_inurba_marseille","lat":43.28421,"lon":5.37501,"is_reserved":false,"is_disabled":false,"rental_uris":{"android":"levelo://app?vid=cc741d9c-68eb-4366-8de2-29fa16a03d4c","ios":"levelo://app?vid=cc741d9c-68eb-4366-8de2-29fa16a03d4c"},"vehicle_type_id":"4","last_reported":1691773532,"current_range_meters":6000,"station_id":"ce4bh412rcd13ifvqds0","pricing_plan_id":"free"},{"bike_id":"c64195da-920e-4ca3-a5ad-4f2660239fd9","system_id":"levelo_inurba_marseille","lat":43.28421,"lon":5.3752,"is_reserved":false,"is_disabled":false,"rental_uris":{"android":"levelo://app?vid=c64195da-920e-4ca3-a5ad-4f2660239fd9","ios":"levelo://app?vid=c64195da-920e-4ca3-a5ad-4f2660239fd9"},"vehicle_type_id":"4","last_reported":1691773532,"current_range_meters":19600,"station_id":"ce4bh412rcd13ifvqds0","pricing_plan_id":"free"},{"bike_id":"23e238cc-e6cb-482d-befe-5011db949e48","system_id":"levelo_inurba_marseille","lat":43.28418,"lon":5.3752,"is_reserved":false,"is_disabled":false,"rental_uris":{"android":"levelo://app?vid=23e238cc-e6cb-482d-befe-5011db949e48","ios":"levelo://app?vid=23e238cc-e6cb-482d-befe-5011db949e48"},"vehicle_type_id":"4","last_reported":1691773532,"current_range_meters":23600,"station_id":"ce4bh412rcd13ifvqds0","pricing_plan_id":"free"},{"bike_id":"4a8e4d0d-3c3e-4cd5-bd5e-6642f5cc2ad8","system_id":"levelo_inurba_marseille","lat":43.283998,"lon":5.375062,"is_reserved":false,"is_disabled":false,"rental_uris":{"android":"levelo://app?vid=4a8e4d0d-3c3e-4cd5-bd5e-6642f5cc2ad8","ios":"levelo://app?vid=4a8e4d0d-3c3e-4cd5-bd5e-6642f5cc2ad8"},"vehicle_type_id":"4","last_reported":1691773532,"current_range_meters":22400,"station_id":"ce4bh412rcd13ifvqds0","pricing_plan_id":"free"},{"bike_id":"aa75ee65-b93a-470e-add1-46b5cc428962","system_id":"levelo_inurba_marseille","lat":43.28409,"lon":5.37522,"is_reserved":false,"is_disabled":false,"rental_uris":{"android":"levelo://app?vid=aa75ee65-b93a-470e-add1-46b5cc428962","ios":"levelo://app?vid=aa75ee65-b93a-470e-add1-46b5cc428962"},"vehicle_type_id":"4","last_reported":1691773532,"current_range_meters":15200,"station_id":"ce4bh412rcd13ifvqds0","pricing_plan_id":"free"},{"bike_id":"0f8820df-f4a8-4029-b9c4-f559126e88e4","system_id":"levelo_inurba_marseille","lat":43.283998,"lon":5.375062,"is_reserved":false,"is_disabled":false,"rental_uris":{"android":"levelo://app?vid=0f8820df-f4a8-4029-b9c4-f559126e88e4","ios":"levelo://app?vid=0f8820df-f4a8-4029-b9c4-f559126e88e4"},"vehicle_type_id":"4","last_reported":1691773532,"current_range_meters":19600,"station_id":"ce4bh412rcd13ifvqds0","pricing_plan_id":"free"},{"bike_id":"a7f017b7-bdcc-4e64-b95d-c71c7835f6af","system_id":"levelo_inurba_marseille","lat":43.28613,"lon":5.38523,"is_reserved":false,"is_disabled":false,"rental_uris":{"android":"levelo://app?vid=a7f017b7-bdcc-4e64-b95d-c71c7835f6af","ios":"levelo://app?vid=a7f017b7-bdcc-4e64-b95d-c71c7835f6af"},"vehicle_type_id":"4","last_reported":1691773532,"current_range_meters":31200,"station_id":"","pricing_plan_id":"free"},{"bike_id":"0d8b0cd4-7282-4b14-ae59-cd18326a31bb","system_id":"levelo_inurba_marseille","lat":43.319179,"lon":5.407725,"is_reserved":false,"is_disabled":false,"rental_uris":{"android":"levelo://app?vid=0d8b0cd4-7282-4b14-ae59-cd18326a31bb","ios":"levelo://app?vid=0d8b0cd4-7282-4b14-ae59-cd18326a31bb"},"vehicle_type_id":"4","last_reported":1691773532,"current_range_meters":12800,"station_id":"ce4bhq12rcd13ifvqhig","pricing_plan_id":"free"},{"bike_id":"60c0e8f1-e000-4ed3-a309-cc0fe1f81bec","system_id":"levelo_inurba_marseille","lat":43.337168,"lon":5.391825,"is_reserved":false,"is_disabled":false,"rental_uris":{"android":"levelo://app?vid=60c0e8f1-e000-4ed3-a309-cc0fe1f81bec","ios":"levelo://app?vid=60c0e8f1-e000-4ed3-a309-cc0fe1f81bec"},"vehicle_type_id":"4","last_reported":1691773532,"current_range_meters":26800,"station_id":"ce4bhr92rcd13ifvqhsg","pricing_plan_id":"free"},{"bike_id":"a369c97d-81f0-46c7-b8ce-be37c51bdc96","system_id":"levelo_inurba_marseille","lat":43.33727,"lon":5.39182,"is_reserved":false,"is_disabled":false,"rental_uris":{"android":"levelo://app?vid=a369c97d-81f0-46c7-b8ce-be37c51bdc96","ios":"levelo://app?vid=a369c97d-81f0-46c7-b8ce-be37c51bdc96"},"vehicle_type_id":"4","last_reported":1691773532,"current_range_meters":23600,"station_id":"ce4bhr92rcd13ifvqhsg","pricing_plan_id":"free"},{"bike_id":"1e5fc929-b2e6-478f-90e9-ed5e75397a8d","system_id":"levelo_inurba_marseille","lat":43.323464,"lon":5.406297,"is_reserved":false,"is_disabled":false,"rental_uris":{"android":"levelo://app?vid=1e5fc929-b2e6-478f-90e9-ed5e75397a8d","ios":"levelo://app?vid=1e5fc929-b2e6-478f-90e9-ed5e75397a8d"},"vehicle_type_id":"4","last_reported":1691773532,"current_range_meters":30000,"station_id":"ce4bhq92rcd13ifvqhjg","pricing_plan_id":"free"},{"bike_id":"fffcff2f-a9f9-44f0-bb09-83324346213d","system_id":"levelo_inurba_marseille","lat":43.33725,"lon":5.39188,"is_reserved":false,"is_disabled":false,"rental_uris":{"android":"levelo://app?vid=fffcff2f-a9f9-44f0-bb09-83324346213d","ios":"levelo://app?vid=fffcff2f-a9f9-44f0-bb09-83324346213d"},"vehicle_type_id":"4","last_reported":1691773532,"current_range_meters":30000,"station_id":"ce4bhr92rcd13ifvqhsg","pricing_plan_id":"free"},{"bike_id":"b2188b0d-5227-4325-bc94-84b6f1239ecf","system_id":"levelo_inurba_marseille","lat":43.323464,"lon":5.406297,"is_reserved":false,"is_disabled":false,"rental_uris":{"android":"levelo://app?vid=b2188b0d-5227-4325-bc94-84b6f1239ecf","ios":"levelo://app?vid=b2188b0d-5227-4325-bc94-84b6f1239ecf"},"vehicle_type_id":"4","last_reported":1691773532,"current_range_meters":28800,"station_id":"ce4bhq92rcd13ifvqhjg","pricing_plan_id":"free"},{"bike_id":"0f37a334-b23f-4231-8c75-c49ee23dddb1","system_id":"levelo_inurba_marseille","lat":43.323464,"lon":5.406297,"is_reserved":false,"is_disabled":false,"rental_uris":{"android":"levelo://app?vid=0f37a334-b23f-4231-8c75-c49ee23dddb1","ios":"levelo://app?vid=0f37a334-b23f-4231-8c75-c49ee23dddb1"},"vehicle_type_id":"4","last_reported":1691773532,"current_range_meters":27200,"station_id":"ce4bhq92rcd13ifvqhjg","pricing_plan_id":"free"},{"bike_id":"99655be4-85c4-4618-9f8f-575f85f1237b","system_id":"levelo_inurba_marseille","lat":43.323464,"lon":5.406297,"is_reserved":false,"is_disabled":false,"rental_uris":{"android":"levelo://app?vid=99655be4-85c4-4618-9f8f-575f85f1237b","ios":"levelo://app?vid=99655be4-85c4-4618-9f8f-575f85f1237b"},"vehicle_type_id":"4","last_reported":1691773532,"current_range_meters":31600,"station_id":"ce4bhq92rcd13ifvqhjg","pricing_plan_id":"free"},{"bike_id":"fbfeeb75-e370-407d-81d3-a22af631e8cf","system_id":"levelo_inurba_marseille","lat":43.323464,"lon":5.406297,"is_reserved":false,"is_disabled":false,"rental_uris":{"android":"levelo://app?vid=fbfeeb75-e370-407d-81d3-a22af631e8cf","ios":"levelo://app?vid=fbfeeb75-e370-407d-81d3-a22af631e8cf"},"vehicle_type_id":"4","last_reported":1691773532,"current_range_meters":31600,"station_id":"ce4bhq92rcd13ifvqhjg","pricing_plan_id":"free"},{"bike_id":"d0077ace-8d19-4088-b70c-82e3c4919915","system_id":"levelo_inurba_marseille","lat":43.323464,"lon":5.406297,"is_reserved":false,"is_disabled":false,"rental_uris":{"android":"levelo://app?vid=d0077ace-8d19-4088-b70c-82e3c4919915","ios":"levelo://app?vid=d0077ace-8d19-4088-b70c-82e3c4919915"},"vehicle_type_id":"4","last_reported":1691773532,"current_range_meters":31600,"station_id":"ce4bhq92rcd13ifvqhjg","pricing_plan_id":"free"},{"bike_id":"36d1936f-09ef-43bf-8bd5-d07e545db581","system_id":"levelo_inurba_marseille","lat":43.323464,"lon":5.406297,"is_reserved":false,"is_disabled":false,"rental_uris":{"android":"levelo://app?vid=36d1936f-09ef-43bf-8bd5-d07e545db581","ios":"levelo://app?vid=36d1936f-09ef-43bf-8bd5-d07e545db581"},"vehicle_type_id":"4","last_reported":1691773532,"current_range_meters":14000,"station_id":"ce4bhq92rcd13ifvqhjg","pricing_plan_id":"free"},{"bike_id":"82984dac-568a-4ea8-876c-8ea2ffc3232d","system_id":"levelo_inurba_marseille","lat":43.284793,"lon":5.384113,"is_reserved":false,"is_disabled":false,"rental_uris":{"android":"levelo://app?vid=82984dac-568a-4ea8-876c-8ea2ffc3232d","ios":"levelo://app?vid=82984dac-568a-4ea8-876c-8ea2ffc3232d"},"vehicle_type_id":"4","last_reported":1691773532,"current_range_meters":6000,"station_id":"ce4bh512rcd13ifvqe3g","pricing_plan_id":"free"},{"bike_id":"a7f977ab-df2a-42be-af54-1bb16c7ef5dc","system_id":"levelo_inurba_marseille","lat":43.323464,"lon":5.406297,"is_reserved":false,"is_disabled":false,"rental_uris":{"android":"levelo://app?vid=a7f977ab-df2a-42be-af54-1bb16c7ef5dc","ios":"levelo://app?vid=a7f977ab-df2a-42be-af54-1bb16c7ef5dc"},"vehicle_type_id":"4","last_reported":1691773532,"current_range_meters":31600,"station_id":"ce4bhq92rcd13ifvqhjg","pricing_plan_id":"free"},{"bike_id":"77387bbb-06d5-400f-b530-4b392abf819f","system_id":"levelo_inurba_marseille","lat":43.323464,"lon":5.406297,"is_reserved":false,"is_disabled":false,"rental_uris":{"android":"levelo://app?vid=77387bbb-06d5-400f-b530-4b392abf819f","ios":"levelo://app?vid=77387bbb-06d5-400f-b530-4b392abf819f"},"vehicle_type_id":"4","last_reported":1691773532,"current_range_meters":20000,"station_id":"ce4bhq92rcd13ifvqhjg","pricing_plan_id":"free"},{"bike_id":"bf3c3fd7-58db-4b69-9394-d7810b8c3ce2","system_id":"levelo_inurba_marseille","lat":43.284787,"lon":5.384116,"is_reserved":false,"is_disabled":false,"rental_uris":{"android":"levelo://app?vid=bf3c3fd7-58db-4b69-9394-d7810b8c3ce2","ios":"levelo://app?vid=bf3c3fd7-58db-4b69-9394-d7810b8c3ce2"},"vehicle_type_id":"4","last_reported":1691773532,"current_range_meters":19200,"station_id":"ce4bh512rcd13ifvqe3g","pricing_plan_id":"free"},{"bike_id":"7617a09a-3901-4b2d-91e7-3946632e4b07","system_id":"levelo_inurba_marseille","lat":43.28475,"lon":5.38426,"is_reserved":false,"is_disabled":false,"rental_uris":{"android":"levelo://app?vid=7617a09a-3901-4b2d-91e7-3946632e4b07","ios":"levelo://app?vid=7617a09a-3901-4b2d-91e7-3946632e4b07"},"vehicle_type_id":"4","last_reported":1691773532,"current_range_meters":800,"station_id":"ce4bh512rcd13ifvqe3g","pricing_plan_id":"free"},{"bike_id":"aab3d783-2328-4324-bee3-cf4f9c716cf5","system_id":"levelo_inurba_marseille","lat":43.284787,"lon":5.384116,"is_reserved":false,"is_disabled":false,"rental_uris":{"android":"levelo://app?vid=aab3d783-2328-4324-bee3-cf4f9c716cf5","ios":"levelo://app?vid=aab3d783-2328-4324-bee3-cf4f9c716cf5"},"vehicle_type_id":"4","last_reported":1691773532,"current_range_meters":2000,"station_id":"ce4bh512rcd13ifvqe3g","pricing_plan_id":"free"},{"bike_id":"d927ba97-0b45-4dd8-88bd-f8fb2089e0dc","system_id":"levelo_inurba_marseille","lat":43.288497,"lon":5.393089,"is_reserved":false,"is_disabled":false,"rental_uris":{"android":"levelo://app?vid=d927ba97-0b45-4dd8-88bd-f8fb2089e0dc","ios":"levelo://app?vid=d927ba97-0b45-4dd8-88bd-f8fb2089e0dc"},"vehicle_type_id":"4","last_reported":1691773532,"current_range_meters":11600,"station_id":"ce4bh2p2rcd13ifvqdi0","pricing_plan_id":"free"},{"bike_id":"34a257c6-ba35-4713-b8a7-a086551cf0a3","system_id":"levelo_inurba_marseille","lat":43.28361,"lon":5.38094,"is_reserved":false,"is_disabled":false,"rental_uris":{"android":"levelo://app?vid=34a257c6-ba35-4713-b8a7-a086551cf0a3","ios":"levelo://app?vid=34a257c6-ba35-4713-b8a7-a086551cf0a3"},"vehicle_type_id":"4","last_reported":1691773532,"current_range_meters":0,"station_id":"ce4bh412rcd13ifvqdr0","pricing_plan_id":"free"},{"bike_id":"bf1295c7-fb6c-4041-8066-43db5cfce36a","system_id":"levelo_inurba_marseille","lat":43.288474,"lon":5.393153,"is_reserved":false,"is_disabled":false,"rental_uris":{"android":"levelo://app?vid=bf1295c7-fb6c-4041-8066-43db5cfce36a","ios":"levelo://app?vid=bf1295c7-fb6c-4041-8066-43db5cfce36a"},"vehicle_type_id":"4","last_reported":1691773532,"current_range_meters":18800,"station_id":"","pricing_plan_id":"free"},{"bike_id":"8c5903f8-ec90-44bb-8442-905bcd2256ff","system_id":"levelo_inurba_marseille","lat":43.29529,"lon":5.385581,"is_reserved":false,"is_disabled":false,"rental_uris":{"android":"levelo://app?vid=8c5903f8-ec90-44bb-8442-905bcd2256ff","ios":"levelo://app?vid=8c5903f8-ec90-44bb-8442-905bcd2256ff"},"vehicle_type_id":"4","last_reported":1691773532,"current_range_meters":20400,"station_id":"ce4bgih2rcd13ifvqba0","pricing_plan_id":"free"},{"bike_id":"550de968-f15d-45e1-ab89-fc00fc8f2501","system_id":"levelo_inurba_marseille","lat":43.288497,"lon":5.393089,"is_reserved":false,"is_disabled":false,"rental_uris":{"android":"levelo://app?vid=550de968-f15d-45e1-ab89-fc00fc8f2501","ios":"levelo://app?vid=550de968-f15d-45e1-ab89-fc00fc8f2501"},"vehicle_type_id":"4","last_reported":1691773532,"current_range_meters":10400,"station_id":"ce4bh2p2rcd13ifvqdi0","pricing_plan_id":"free"},{"bike_id":"d9ecb934-f105-465b-9f0e-04d4733c1937","system_id":"levelo_inurba_marseille","lat":43.28357,"lon":5.38106,"is_reserved":false,"is_disabled":false,"rental_uris":{"android":"levelo://app?vid=d9ecb934-f105-465b-9f0e-04d4733c1937","ios":"levelo://app?vid=d9ecb934-f105-465b-9f0e-04d4733c1937"},"vehicle_type_id":"4","last_reported":1691773532,"current_range_meters":15200,"station_id":"ce4bh412rcd13ifvqdr0","pricing_plan_id":"free"},{"bike_id":"aaad74ac-262a-4aa3-85ea-6e7431327ee0","system_id":"levelo_inurba_marseille","lat":43.284219,"lon":5.3497,"is_reserved":false,"is_disabled":false,"rental_uris":{"android":"levelo://app?vid=aaad74ac-262a-4aa3-85ea-6e7431327ee0","ios":"levelo://app?vid=aaad74ac-262a-4aa3-85ea-6e7431327ee0"},"vehicle_type_id":"4","last_reported":1691773532,"current_range_meters":27600,"station_id":"ce4bhbh2rcd13ifvqepg","pricing_plan_id":"free"},{"bike_id":"d3b9cd6d-2e85-470d-9b9a-9f27fa3c54e0","system_id":"levelo_inurba_marseille","lat":43.2843,"lon":5.34995,"is_reserved":false,"is_disabled":false,"rental_uris":{"android":"levelo://app?vid=d3b9cd6d-2e85-470d-9b9a-9f27fa3c54e0","ios":"levelo://app?vid=d3b9cd6d-2e85-470d-9b9a-9f27fa3c54e0"},"vehicle_type_id":"4","last_reported":1691773532,"current_range_meters":9600,"station_id":"ce4bhbh2rcd13ifvqepg","pricing_plan_id":"free"},{"bike_id":"638407a2-d784-42bb-9bdd-380b5be55b8e","system_id":"levelo_inurba_marseille","lat":43.28349,"lon":5.3811,"is_reserved":false,"is_disabled":false,"rental_uris":{"android":"levelo://app?vid=638407a2-d784-42bb-9bdd-380b5be55b8e","ios":"levelo://app?vid=638407a2-d784-42bb-9bdd-380b5be55b8e"},"vehicle_type_id":"4","last_reported":1691773532,"current_range_meters":21200,"station_id":"ce4bh412rcd13ifvqdr0","pricing_plan_id":"free"},{"bike_id":"662ca927-d78f-43ec-9aff-6566ee4bf761","system_id":"levelo_inurba_marseille","lat":43.284219,"lon":5.3497,"is_reserved":false,"is_disabled":false,"rental_uris":{"android":"levelo://app?vid=662ca927-d78f-43ec-9aff-6566ee4bf761","ios":"levelo://app?vid=662ca927-d78f-43ec-9aff-6566ee4bf761"},"vehicle_type_id":"4","last_reported":1691773532,"current_range_meters":31200,"station_id":"ce4bhbh2rcd13ifvqepg","pricing_plan_id":"free"},{"bike_id":"5e80f3ca-093e-4d8c-a7ff-ef881c99f044","system_id":"levelo_inurba_marseille","lat":43.284219,"lon":5.3497,"is_reserved":false,"is_disabled":false,"rental_uris":{"android":"levelo://app?vid=5e80f3ca-093e-4d8c-a7ff-ef881c99f044","ios":"levelo://app?vid=5e80f3ca-093e-4d8c-a7ff-ef881c99f044"},"vehicle_type_id":"4","last_reported":1691773532,"current_range_meters":31200,"station_id":"ce4bhbh2rcd13ifvqepg","pricing_plan_id":"free"},{"bike_id":"5c836b33-faf2-4ddc-9a5f-8e0f8d92695d","system_id":"levelo_inurba_marseille","lat":43.283498,"lon":5.380948,"is_reserved":false,"is_disabled":false,"rental_uris":{"android":"levelo://app?vid=5c836b33-faf2-4ddc-9a5f-8e0f8d92695d","ios":"levelo://app?vid=5c836b33-faf2-4ddc-9a5f-8e0f8d92695d"},"vehicle_type_id":"4","last_reported":1691773532,"current_range_meters":25200,"station_id":"ce4bh412rcd13ifvqdr0","pricing_plan_id":"free"},{"bike_id":"9b588b52-07ee-453c-81a0-f440036a7e41","system_id":"levelo_inurba_marseille","lat":43.28424,"lon":5.34998,"is_reserved":false,"is_disabled":false,"rental_uris":{"android":"levelo://app?vid=9b588b52-07ee-453c-81a0-f440036a7e41","ios":"levelo://app?vid=9b588b52-07ee-453c-81a0-f440036a7e41"},"vehicle_type_id":"4","last_reported":1691773532,"current_range_meters":24000,"station_id":"ce4bhbh2rcd13ifvqepg","pricing_plan_id":"free"},{"bike_id":"0550e838-60fd-4f91-9976-3c200652bcc9","system_id":"levelo_inurba_marseille","lat":43.284219,"lon":5.3497,"is_reserved":false,"is_disabled":false,"rental_uris":{"android":"levelo://app?vid=0550e838-60fd-4f91-9976-3c200652bcc9","ios":"levelo://app?vid=0550e838-60fd-4f91-9976-3c200652bcc9"},"vehicle_type_id":"4","last_reported":1691773532,"current_range_meters":30800,"station_id":"ce4bhbh2rcd13ifvqepg","pricing_plan_id":"free"},{"bike_id":"db59eb46-ab8a-454f-bcd3-b7643499bc21","system_id":"levelo_inurba_marseille","lat":43.284219,"lon":5.3497,"is_reserved":false,"is_disabled":false,"rental_uris":{"android":"levelo://app?vid=db59eb46-ab8a-454f-bcd3-b7643499bc21","ios":"levelo://app?vid=db59eb46-ab8a-454f-bcd3-b7643499bc21"},"vehicle_type_id":"4","last_reported":1691773532,"current_range_meters":23200,"station_id":"ce4bhbh2rcd13ifvqepg","pricing_plan_id":"free"},{"bike_id":"b8ce17cc-ae1d-43d9-98ca-9faafac11e11","system_id":"levelo_inurba_marseille","lat":43.28424,"lon":5.3499,"is_reserved":false,"is_disabled":false,"rental_uris":{"android":"levelo://app?vid=b8ce17cc-ae1d-43d9-98ca-9faafac11e11","ios":"levelo://app?vid=b8ce17cc-ae1d-43d9-98ca-9faafac11e11"},"vehicle_type_id":"4","last_reported":1691773532,"current_range_meters":14400,"station_id":"ce4bhbh2rcd13ifvqepg","pricing_plan_id":"free"},{"bike_id":"f8ecf71e-a804-402a-a166-2d4e74dd3618","system_id":"levelo_inurba_marseille","lat":43.284219,"lon":5.3497,"is_reserved":false,"is_disabled":false,"rental_uris":{"android":"levelo://app?vid=f8ecf71e-a804-402a-a166-2d4e74dd3618","ios":"levelo://app?vid=f8ecf71e-a804-402a-a166-2d4e74dd3618"},"vehicle_type_id":"4","last_reported":1691773532,"current_range_meters":25200,"station_id":"ce4bhbh2rcd13ifvqepg","pricing_plan_id":"free"},{"bike_id":"ac514fa6-0041-4dfb-914a-0015903c5c17","system_id":"levelo_inurba_marseille","lat":43.284219,"lon":5.3497,"is_reserved":false,"is_disabled":false,"rental_uris":{"android":"levelo://app?vid=ac514fa6-0041-4dfb-914a-0015903c5c17","ios":"levelo://app?vid=ac514fa6-0041-4dfb-914a-0015903c5c17"},"vehicle_type_id":"4","last_reported":1691773532,"current_range_meters":31200,"station_id":"ce4bhbh2rcd13ifvqepg","pricing_plan_id":"free"},{"bike_id":"f7d4f131-5cc2-46df-9d41-57bea89acdfd","system_id":"levelo_inurba_marseille","lat":43.284219,"lon":5.3497,"is_reserved":false,"is_disabled":false,"rental_uris":{"android":"levelo://app?vid=f7d4f131-5cc2-46df-9d41-57bea89acdfd","ios":"levelo://app?vid=f7d4f131-5cc2-46df-9d41-57bea89acdfd"},"vehicle_type_id":"4","last_reported":1691773532,"current_range_meters":30400,"station_id":"ce4bhbh2rcd13ifvqepg","pricing_plan_id":"free"},{"bike_id":"768679f4-b280-4fa2-a260-55287bcc1106","system_id":"levelo_inurba_marseille","lat":43.28421,"lon":5.34996,"is_reserved":false,"is_disabled":false,"rental_uris":{"android":"levelo://app?vid=768679f4-b280-4fa2-a260-55287bcc1106","ios":"levelo://app?vid=768679f4-b280-4fa2-a260-55287bcc1106"},"vehicle_type_id":"4","last_reported":1691773532,"current_range_meters":30800,"station_id":"ce4bhbh2rcd13ifvqepg","pricing_plan_id":"free"},{"bike_id":"223d36d9-69f8-4fb9-a303-1ae6c2b376b5","system_id":"levelo_inurba_marseille","lat":43.284219,"lon":5.3497,"is_reserved":false,"is_disabled":false,"rental_uris":{"android":"levelo://app?vid=223d36d9-69f8-4fb9-a303-1ae6c2b376b5","ios":"levelo://app?vid=223d36d9-69f8-4fb9-a303-1ae6c2b376b5"},"vehicle_type_id":"4","last_reported":1691773532,"current_range_meters":31200,"station_id":"ce4bhbh2rcd13ifvqepg","pricing_plan_id":"free"},{"bike_id":"91d715cd-c8cf-4ee4-ab24-f5b71d59bbca","system_id":"levelo_inurba_marseille","lat":43.284217,"lon":5.349697,"is_reserved":false,"is_disabled":false,"rental_uris":{"android":"levelo://app?vid=91d715cd-c8cf-4ee4-ab24-f5b71d59bbca","ios":"levelo://app?vid=91d715cd-c8cf-4ee4-ab24-f5b71d59bbca"},"vehicle_type_id":"4","last_reported":1691773532,"current_range_meters":28400,"station_id":"ce4bhbh2rcd13ifvqepg","pricing_plan_id":"free"},{"bike_id":"16188c25-52bf-4b03-a4e6-fa22db2b77d1","system_id":"levelo_inurba_marseille","lat":43.284219,"lon":5.3497,"is_reserved":false,"is_disabled":false,"rental_uris":{"android":"levelo://app?vid=16188c25-52bf-4b03-a4e6-fa22db2b77d1","ios":"levelo://app?vid=16188c25-52bf-4b03-a4e6-fa22db2b77d1"},"vehicle_type_id":"4","last_reported":1691773532,"current_range_meters":31200,"station_id":"ce4bhbh2rcd13ifvqepg","pricing_plan_id":"free"},{"bike_id":"82943f71-19c2-405a-b3b7-9ce4c29f2ab1","system_id":"levelo_inurba_marseille","lat":43.284219,"lon":5.3497,"is_reserved":false,"is_disabled":false,"rental_uris":{"android":"levelo://app?vid=82943f71-19c2-405a-b3b7-9ce4c29f2ab1","ios":"levelo://app?vid=82943f71-19c2-405a-b3b7-9ce4c29f2ab1"},"vehicle_type_id":"4","last_reported":1691773532,"current_range_meters":14800,"station_id":"ce4bhbh2rcd13ifvqepg","pricing_plan_id":"free"},{"bike_id":"459bc5e0-9e7e-43db-ab34-44af752f9d67","system_id":"levelo_inurba_marseille","lat":43.2842,"lon":5.34994,"is_reserved":false,"is_disabled":false,"rental_uris":{"android":"levelo://app?vid=459bc5e0-9e7e-43db-ab34-44af752f9d67","ios":"levelo://app?vid=459bc5e0-9e7e-43db-ab34-44af752f9d67"},"vehicle_type_id":"4","last_reported":1691773532,"current_range_meters":20400,"station_id":"ce4bhbh2rcd13ifvqepg","pricing_plan_id":"free"},{"bike_id":"f248532b-bee8-41e4-9795-131150f6c92f","system_id":"levelo_inurba_marseille","lat":43.2842,"lon":5.34993,"is_reserved":false,"is_disabled":false,"rental_uris":{"android":"levelo://app?vid=f248532b-bee8-41e4-9795-131150f6c92f","ios":"levelo://app?vid=f248532b-bee8-41e4-9795-131150f6c92f"},"vehicle_type_id":"4","last_reported":1691773532,"current_range_meters":20400,"station_id":"ce4bhbh2rcd13ifvqepg","pricing_plan_id":"free"},{"bike_id":"bfee549e-c545-486a-8374-cd39fef4c873","system_id":"levelo_inurba_marseille","lat":43.2842,"lon":5.34992,"is_reserved":false,"is_disabled":false,"rental_uris":{"android":"levelo://app?vid=bfee549e-c545-486a-8374-cd39fef4c873","ios":"levelo://app?vid=bfee549e-c545-486a-8374-cd39fef4c873"},"vehicle_type_id":"4","last_reported":1691773532,"current_range_meters":27600,"station_id":"ce4bhbh2rcd13ifvqepg","pricing_plan_id":"free"},{"bike_id":"f4302f53-e7d4-4b75-8abf-eaa8815e64a2","system_id":"levelo_inurba_marseille","lat":43.28422,"lon":5.34985,"is_reserved":false,"is_disabled":false,"rental_uris":{"android":"levelo://app?vid=f4302f53-e7d4-4b75-8abf-eaa8815e64a2","ios":"levelo://app?vid=f4302f53-e7d4-4b75-8abf-eaa8815e64a2"},"vehicle_type_id":"4","last_reported":1691773532,"current_range_meters":23200,"station_id":"ce4bhbh2rcd13ifvqepg","pricing_plan_id":"free"},