{"last_updated":1747728908,"ttl":60,"version":"2.2","data":{"bikes":[{"bike_id":"0eb7f958-813c-4599-a947-cc188a070eb3","system_id":"levelo_inurba_marseille","lat":43.25124,"lon":5.40317,"is_reserved":false,"is_disabled":false,"rental_uris":{"android":"levelo://app?vid=0eb7f958-813c-4599-a947-cc188a070eb3","ios":"levelo://app?vid=0eb7f958-813c-4599-a947-cc188a070eb3"},"vehicle_type_id":"4","last_reported":1747728908,"current_range_meters":2800,"station_id":"ce4bhlh2rcd13ifvqgig","pricing_plan_id":"cebpf4jnsgd1na2vs0mg"},{"bike_id":"9098acce-4a9e-40d8-ba71-76f7509c9d2b","system_id":"levelo_inurba_marseille","lat":43.26554,"lon":5.37298,"is_reserved":false,"is_disabled":false,"rental_uris":{"android":"levelo://app?vid=9098acce-4a9e-40d8-ba71-76f7509c9d2b","ios":"levelo://app?vid=9098acce-4a9e-40d8-ba71-76f7509c9d2b"},"vehicle_type_id":"4","last_reported":1747728908,"current_range_meters":3200,"station_id":"ce4bhg12rcd13ifvqf70","pricing_plan_id":"cebpf4jnsgd1na2vs0mg"},{"bike_id":"71b3a3cc-e36f-4aba-be2d-8ab32a60f655","system_id":"levelo_inurba_marseille","lat":43.24068,"lon":5.3777,"is_reserved":false,"is_disabled":false,"rental_uris":{"android":"levelo://app?vid=71b3a3cc-e36f-4aba-be2d-8ab32a60f655","ios":"levelo://app?vid=71b3a3cc-e36f-4aba-be2d-8ab32a60f655"},"vehicle_type_id":"4","last_reported":1747728908,"current_range_meters":5600,"station_id":"ce4bhnp2rcd13ifvqgvg","pricing_plan_id":"cebpf4jnsgd1na2vs0mg"},{"bike_id":"1b136d29-9e9c-4723-8b83-b409e818f7bf","system_id":"levelo_inurba_marseille","lat":43.21189,"lon":5.35071,"is_reserved":false,"is_disabled":false,"rental_uris":{"android":"levelo://app?vid=1b136d29-9e9c-4723-8b83-b409e818f7bf","ios":"levelo://app?vid=1b136d29-9e9c-4723-8b83-b409e818f7bf"},"vehicle_type_id":"4","last_reported":1747728908,"current_range_meters":3600,"station_id":"st_cvj6sg6p6f1abm77japg","pricing_plan_id":"cebpf4jnsgd1na2vs0mg"},{"bike_id":"78044781-d298-4ef9-b190-c2c78bdb339c","system_id":"levelo_inurba_marseille","lat":43.28973,"lon":5.37838,"is_reserved":false,"is_disabled":false,"rental_uris":{"android":"levelo://app?vid=78044781-d298-4ef9-b190-c2c78bdb339c","ios":"levelo://app?vid=78044781-d298-4ef9-b190-c2c78bdb339c"},"vehicle_type_id":"4","last_reported":1747728908,"current_range_meters":3600,"station_id":"ce4bh9p2rcd13ifvqed0","pricing_plan_id":"cebpf4jnsgd1na2vs0mg"},{"bike_id":"f40652e2-30a0-431e-b1f1-4d9fe84a8149","system_id":"levelo_inurba_marseille","lat":43.27369,"lon":5.36242,"is_reserved":false,"is_disabled":false,"rental_uris":{"android":"levelo://app?vid=f40652e2-30a0-431e-b1f1-4d9fe84a8149","ios":"levelo://app?vid=f40652e2-30a0-431e-b1f1-4d9fe84a8149"},"vehicle_type_id":"4","last_reported":1747728908,"current_range_meters":4000,"station_id":"ce4bhbh2rcd13ifvqeo0","pricing_plan_id":"cebpf4jnsgd1na2vs0mg"},{"bike_id":"b64d9032-98d1-4620-85ad-769526d32e53","system_id":"levelo_inurba_marseille","lat":43.29257,"lon":5.409,"is_reserved":false,"is_disabled":false,"rental_uris":{"android":"levelo://app?vid=b64d9032-98d1-4620-85ad-769526d32e53","ios":"levelo://app?vid=b64d9032-98d1-4620-85ad-769526d32e53"},"vehicle_type_id":"4","last_reported":1747728908,"current_range_meters":4000,"station_id":"ce4bh192rcd13ifvqdc0","pricing_plan_id":"cebpf4jnsgd1na2vs0mg"},{"bike_id":"14312a4f-5518-4993-ba17-b9a97fb5ebf1","system_id":"levelo_inurba_marseille","lat":43.28942,"lon":5.39634,"is_reserved":false,"is_disabled":false,"rental_uris":{"android":"levelo://app?vid=14312a4f-5518-4993-ba17-b9a97fb5ebf1","ios":"levelo://app?vid=14312a4f-5518-4993-ba17-b9a97fb5ebf1"},"vehicle_type_id":"4","last_reported":1747728908,"current_range_meters":4000,"station_id":"ce4bh3h2rcd13ifvqdn0","pricing_plan_id":"cebpf4jnsgd1na2vs0mg"},{"bike_id":"fefa3ad1-29a6-4d50-af49-b905b6a48898","system_id":"levelo_inurba_marseille","lat":43.28141,"lon":5.42644,"is_reserved":false,"is_disabled":false,"rental_uris":{"android":"levelo://app?vid=fefa3ad1-29a6-4d50-af49-b905b6a48898","ios":"levelo://app?vid=fefa3ad1-29a6-4d50-af49-b905b6a48898"},"vehicle_type_id":"4","last_reported":1747728908,"current_range_meters":4000,"station_id":"ce4bhnh2rcd13ifvqgug","pricing_plan_id":"cebpf4jnsgd1na2vs0mg"},{"bike_id":"b05d3d2f-2f71-401a-b43c-afb44a65467e","system_id":"levelo_inurba_marseille","lat":43.30948,"lon":5.39027,"is_reserved":false,"is_disabled":false,"rental_uris":{"android":"levelo://app?vid=b05d3d2f-2f71-401a-b43c-afb44a65467e","ios":"levelo://app?vid=b05d3d2f-2f71-401a-b43c-afb44a65467e"},"vehicle_type_id":"4","last_reported":1747728908,"current_range_meters":4000,"station_id":"ce4bgup2rcd13ifvqco0","pricing_plan_id":"cebpf4jnsgd1na2vs0mg"},{"bike_id":"0959ff5e-5955-4215-8723-80a097bacc26","system_id":"levelo_inurba_marseille","lat":43.278127,"lon":5.40725,"is_reserved":false,"is_disabled":false,"rental_uris":{"android":"levelo://app?vid=0959ff5e-5955-4215-8723-80a097bacc26","ios":"levelo://app?vid=0959ff5e-5955-4215-8723-80a097bacc26"},"vehicle_type_id":"4","last_reported":1747728908,"current_range_meters":4000,"station_id":"ce4bhnh2rcd13ifvqgtg","pricing_plan_id":"cebpf4jnsgd1na2vs0mg"},{"bike_id":"998398f5-02c4-467a-a7e0-c3cdb04cdee4","system_id":"levelo_inurba_marseille","lat":43.274967,"lon":5.424586,"is_reserved":false,"is_disabled":false,"rental_uris":{"android":"levelo://app?vid=998398f5-02c4-467a-a7e0-c3cdb04cdee4","ios":"levelo://app?vid=998398f5-02c4-467a-a7e0-c3cdb04cdee4"},"vehicle_type_id":"4","last_reported":1747728908,"current_range_meters":4000,"station_id":"ce4bhn92rcd13ifvqgrg","pricing_plan_id":"cebpf4jnsgd1na2vs0mg"},{"bike_id":"0814fc28-7c82-4444-bf57-b7589c01a901","system_id":"levelo_inurba_marseille","lat":43.249964,"lon":5.389441,"is_reserved":false,"is_disabled":false,"rental_uris":{"android":"levelo://app?vid=0814fc28-7c82-4444-bf57-b7589c01a901","ios":"levelo://app?vid=0814fc28-7c82-4444-bf57-b7589c01a901"},"vehicle_type_id":"4","last_reported":1747728908,"current_range_meters":4800,"station_id":"ce4bhgp2rcd13ifvqfd0","pricing_plan_id":"cebpf4jnsgd1na2vs0mg"},{"bike_id":"92a6af25-c13e-41f1-9234-7144ec89b7a9","system_id":"levelo_inurba_marseille","lat":43.23203,"lon":5.39969,"is_reserved":false,"is_disabled":false,"rental_uris":{"android":"levelo://app?vid=92a6af25-c13e-41f1-9234-7144ec89b7a9","ios":"levelo://app?vid=92a6af25-c13e-41f1-9234-7144ec89b7a9"},"vehicle_type_id":"4","last_reported":1747728908,"current_range_meters":4800,"station_id":"ce4bhn12rcd13ifvqgqg","pricing_plan_id":"cebpf4jnsgd1na2vs0mg"},{"bike_id":"e99009fa-94d8-4b6c-9872-56a8eba164f6","system_id":"levelo_inurba_marseille","lat":43.26951,"lon":5.38628,"is_reserved":false,"is_disabled":false,"rental_uris":{"android":"levelo://app?vid=e99009fa-94d8-4b6c-9872-56a8eba164f6","ios":"levelo://app?vid=e99009fa-94d8-4b6c-9872-56a8eba164f6"},"vehicle_type_id":"4","last_reported":1747728908,"current_range_meters":5600,"station_id":"ce4bhh92rcd13ifvqfh0","pricing_plan_id":"cebpf4jnsgd1na2vs0mg"},{"bike_id":"7e57c655-a436-4f6a-b2f3-b4b39d87eb80","system_id":"levelo_inurba_marseille","lat":43.24397,"lon":5.37044,"is_reserved":false,"is_disabled":false,"rental_uris":{"android":"levelo://app?vid=7e57c655-a436-4f6a-b2f3-b4b39d87eb80","ios":"levelo://app?vid=7e57c655-a436-4f6a-b2f3-b4b39d87eb80"},"vehicle_type_id":"4","last_reported":1747728908,"current_range_meters":5600,"station_id":"ce4bhhh2rcd13ifvqfk0","pricing_plan_id":"cebpf4jnsgd1na2vs0mg"},{"bike_id":"0d49b110-8a98-4277-9e55-16f4cc2a1057","system_id":"levelo_inurba_marseille","lat":43.28446,"lon":5.39204,"is_reserved":false,"is_disabled":false,"rental_uris":{"android":"levelo://app?vid=0d49b110-8a98-4277-9e55-16f4cc2a1057","ios":"levelo://app?vid=0d49b110-8a98-4277-9e55-16f4cc2a1057"},"vehicle_type_id":"4","last_reported":1747728908,"current_range_meters":6000,"station_id":"ce4bhoh2rcd13ifvqh5g","pricing_plan_id":"cebpf4jnsgd1na2vs0mg"},{"bike_id":"49efb2ec-01fb-4e6e-ac03-8c93d94c7d0c","system_id":"levelo_inurba_marseille","lat":43.31167,"lon":5.38731,"is_reserved":false,"is_disabled":false,"rental_uris":{"android":"levelo://app?vid=49efb2ec-01fb-4e6e-ac03-8c93d94c7d0c","ios":"levelo://app?vid=49efb2ec-01fb-4e6e-ac03-8c93d94c7d0c"},"vehicle_type_id":"4","last_reported":1747728908,"current_range_meters":5600,"station_id":"ce4bgv12rcd13ifvqcp0","pricing_plan_id":"cebpf4jnsgd1na2vs0mg"},{"bike_id":"cf2e5c45-aac0-4784-a8f5-2a28a2e32c91","system_id":"levelo_inurba_marseille","lat":43.27186,"lon":5.40962,"is_reserved":false,"is_disabled":false,"rental_uris":{"android":"levelo://app?vid=cf2e5c45-aac0-4784-a8f5-2a28a2e32c91","ios":"levelo://app?vid=cf2e5c45-aac0-4784-a8f5-2a28a2e32c91"},"vehicle_type_id":"4","last_reported":1747728908,"current_range_meters":6000,"station_id":"ce4bhl12rcd13ifvqgf0","pricing_plan_id":"cebpf4jnsgd1na2vs0mg"},{"bike_id":"d13f48fe-096e-496b-a469-3e70285898bc","system_id":"levelo_inurba_marseille","lat":43.30599,"lon":5.39346,"is_reserved":false,"is_disabled":false,"rental_uris":{"android":"levelo://app?vid=d13f48fe-096e-496b-a469-3e70285898bc","ios":"levelo://app?vid=d13f48fe-096e-496b-a469-3e70285898bc"},"vehicle_type_id":"4","last_reported":1747728908,"current_range_meters":6000,"station_id":"ce4bh0p2rcd13ifvqd80","pricing_plan_id":"cebpf4jnsgd1na2vs0mg"},{"bike_id":"9058608d-adf5-45da-b283-4068c6dc0fe2","system_id":"levelo_inurba_marseille","lat":43.27901,"lon":5.38,"is_reserved":false,"is_disabled":false,"rental_uris":{"android":"levelo://app?vid=9058608d-adf5-45da-b283-4068c6dc0fe2","ios":"levelo://app?vid=9058608d-adf5-45da-b283-4068c6dc0fe2"},"vehicle_type_id":"4","last_reported":1747728908,"current_range_meters":6000,"station_id":"ce4bhf92rcd13ifvqf50","pricing_plan_id":"cebpf4jnsgd1na2vs0mg"},{"bike_id":"5a585b4e-47a9-416c-a173-084754acffd0","system_id":"levelo_inurba_marseille","lat":43.2467,"lon":5.38143,"is_reserved":false,"is_disabled":false,"rental_uris":{"android":"levelo://app?vid=5a585b4e-47a9-416c-a173-084754acffd0","ios":"levelo://app?vid=5a585b4e-47a9-416c-a173-084754acffd0"},"vehicle_type_id":"4","last_reported":1747728908,"current_range_meters":6400,"station_id":"ce4bhih2rcd13ifvqfr0","pricing_plan_id":"cebpf4jnsgd1na2vs0mg"},{"bike_id":"f020b3a9-2e80-4bd4-a580-f29ed17b9a24","system_id":"levelo_inurba_marseille","lat":43.27496,"lon":5.42446,"is_reserved":false,"is_disabled":false,"rental_uris":{"android":"levelo://app?vid=f020b3a9-2e80-4bd4-a580-f29ed17b9a24","ios":"levelo://app?vid=f020b3a9-2e80-4bd4-a580-f29ed17b9a24"},"vehicle_type_id":"4","last_reported":1747728908,"current_range_meters":6400,"station_id":"ce4bhn92rcd13ifvqgrg","pricing_plan_id":"cebpf4jnsgd1na2vs0mg"},{"bike_id":"3fe9c543-2ea7-4349-add8-f0daffedcc48","system_id":"levelo_inurba_marseille","lat":43.26699,"lon":5.38244,"is_reserved":false,"is_disabled":false,"rental_uris":{"android":"levelo://app?vid=3fe9c543-2ea7-4349-add8-f0daffedcc48","ios":"levelo://app?vid=3fe9c543-2ea7-4349-add8-f0daffedcc48"},"vehicle_type_id":"4","last_reported":1747728908,"current_range_meters":6400,"station_id":"ce4bhg92rcd13ifvqf90","pricing_plan_id":"cebpf4jnsgd1na2vs0mg"},{"bike_id":"06751f58-0752-4da0-916c-c8f2a0371e39","system_id":"levelo_inurba_marseille","lat":43.312168,"lon":5.368453,"is_reserved":false,"is_disabled":false,"rental_uris":{"android":"levelo://app?vid=06751f58-0752-4da0-916c-c8f2a0371e39","ios":"levelo://app?vid=06751f58-0752-4da0-916c-c8f2a0371e39"},"vehicle_type_id":"4","last_reported":1747728908,"current_range_meters":6400,"station_id":"ce4bgl92rcd13ifvqbq0","pricing_plan_id":"cebpf4jnsgd1na2vs0mg"},{"bike_id":"fec41bef-30b7-4816-93d7-8a16b0838a5d","system_id":"levelo_inurba_marseille","lat":43.25002,"lon":5.3894,"is_reserved":false,"is_disabled":false,"rental_uris":{"android":"levelo://app?vid=fec41bef-30b7-4816-93d7-8a16b0838a5d","ios":"levelo://app?vid=fec41bef-30b7-4816-93d7-8a16b0838a5d"},"vehicle_type_id":"4","last_reported":1747728908,"current_range_meters":6400,"station_id":"ce4bhgp2rcd13ifvqfd0","pricing_plan_id":"cebpf4jnsgd1na2vs0mg"},{"bike_id":"cd0abfa0-3b69-4a4c-ab6e-7a790bdead4f","system_id":"levelo_inurba_marseille","lat":43.25922,"lon":5.40912,"is_reserved":false,"is_disabled":false,"rental_uris":{"android":"levelo://app?vid=cd0abfa0-3b69-4a4c-ab6e-7a790bdead4f","ios":"levelo://app?vid=cd0abfa0-3b69-4a4c-ab6e-7a790bdead4f"},"vehicle_type_id":"4","last_reported":1747728908,"current_range_meters":6400,"station_id":"ce4bhm92rcd13ifvqglg","pricing_plan_id":"cebpf4jnsgd1na2vs0mg"},{"bike_id":"0bb6f462-e1e3-49c6-a232-8b5011d69ba2","system_id":"levelo_inurba_marseille","lat":43.295197,"lon":5.390341,"is_reserved":false,"is_disabled":false,"rental_uris":{"android":"levelo://app?vid=0bb6f462-e1e3-49c6-a232-8b5011d69ba2","ios":"levelo://app?vid=0bb6f462-e1e3-49c6-a232-8b5011d69ba2"},"vehicle_type_id":"4","last_reported":1747728908,"current_range_meters":6400,"station_id":"ce4bh3p2rcd13ifvqdp0","pricing_plan_id":"cebpf4jnsgd1na2vs0mg"},{"bike_id":"39623d61-4997-4363-9c6e-29c93d49b3fe","system_id":"levelo_inurba_marseille","lat":43.30194,"lon":5.37379,"is_reserved":false,"is_disabled":false,"rental_uris":{"android":"levelo://app?vid=39623d61-4997-4363-9c6e-29c93d49b3fe","ios":"levelo://app?vid=39623d61-4997-4363-9c6e-29c93d49b3fe"},"vehicle_type_id":"4","last_reported":1747728908,"current_range_meters":6400,"station_id":"ce4bgs92rcd13ifvqcc0","pricing_plan_id":"cebpf4jnsgd1na2vs0mg"},{"bike_id":"3f1126e1-bbb4-4c3f-8665-2ab124de3c50","system_id":"levelo_inurba_marseille","lat":43.27911,"lon":5.39579,"is_reserved":false,"is_disabled":false,"rental_uris":{"android":"levelo://app?vid=3f1126e1-bbb4-4c3f-8665-2ab124de3c50","ios":"levelo://app?vid=3f1126e1-bbb4-4c3f-8665-2ab124de3c50"},"vehicle_type_id":"4","last_reported":1747728908,"current_range_meters":6400,"station_id":"ce4bhf92rcd13ifvqf40","pricing_plan_id":"cebpf4jnsgd1na2vs0mg"},{"bike_id":"814e2930-a412-47af-849d-26da2abc07f6","system_id":"levelo_inurba_marseille","lat":43.27839,"lon":5.40689,"is_reserved":false,"is_disabled":false,"rental_uris":{"android":"levelo://app?vid=814e2930-a412-47af-849d-26da2abc07f6","ios":"levelo://app?vid=814e2930-a412-47af-849d-26da2abc07f6"},"vehicle_type_id":"4","last_reported":1747728908,"current_range_meters":6400,"station_id":"ce4bhnh2rcd13ifvqgtg","pricing_plan_id":"cebpf4jnsgd1na2vs0mg"},{"bike_id":"fdbcb080-de86-408c-b4a8-7300b93393a6","system_id":"levelo_inurba_marseille","lat":43.23186,"lon":5.3999,"is_reserved":false,"is_disabled":false,"rental_uris":{"android":"levelo://app?vid=fdbcb080-de86-408c-b4a8-7300b93393a6","ios":"levelo://app?vid=fdbcb080-de86-408c-b4a8-7300b93393a6"},"vehicle_type_id":"4","last_reported":1747728908,"current_range_meters":6800,"station_id":"ce4bhn12rcd13ifvqgqg","pricing_plan_id":"cebpf4jnsgd1na2vs0mg"},{"bike_id":"64366d8d-3020-466a-9cf8-d38ef48e57f9","system_id":"levelo_inurba_marseille","lat":43.2558,"lon":5.38222,"is_reserved":false,"is_disabled":false,"rental_uris":{"android":"levelo://app?vid=64366d8d-3020-466a-9cf8-d38ef48e57f9","ios":"levelo://app?vid=64366d8d-3020-466a-9cf8-d38ef48e57f9"},"vehicle_type_id":"4","last_reported":1747728908,"current_range_meters":6800,"station_id":"ce4bhih2rcd13ifvqfs0","pricing_plan_id":"cebpf4jnsgd1na2vs0mg"},{"bike_id":"cad5959e-a225-4320-9ebc-b04658331bd0","system_id":"levelo_inurba_marseille","lat":43.28663,"lon":5.38665,"is_reserved":false,"is_disabled":false,"rental_uris":{"android":"levelo://app?vid=cad5959e-a225-4320-9ebc-b04658331bd0","ios":"levelo://app?vid=cad5959e-a225-4320-9ebc-b04658331bd0"},"vehicle_type_id":"4","last_reported":1747728908,"current_range_meters":4000,"station_id":"ce4bh492rcd13ifvqdug","pricing_plan_id":"cebpf4jnsgd1na2vs0mg"},{"bike_id":"5b642502-4715-4428-960b-4da393e4d732","system_id":"levelo_inurba_marseille","lat":43.29275,"lon":5.40144,"is_reserved":false,"is_disabled":false,"rental_uris":{"android":"levelo://app?vid=5b642502-4715-4428-960b-4da393e4d732","ios":"levelo://app?vid=5b642502-4715-4428-960b-4da393e4d732"},"vehicle_type_id":"4","last_reported":1747728908,"current_range_meters":6800,"station_id":"ce4bh312rcd13ifvqdk0","pricing_plan_id":"cebpf4jnsgd1na2vs0mg"},{"bike_id":"06e452b4-00bd-4194-8cf0-97e51cbae02e","system_id":"levelo_inurba_marseille","lat":43.23185,"lon":5.39993,"is_reserved":false,"is_disabled":false,"rental_uris":{"android":"levelo://app?vid=06e452b4-00bd-4194-8cf0-97e51cbae02e","ios":"levelo://app?vid=06e452b4-00bd-4194-8cf0-97e51cbae02e"},"vehicle_type_id":"4","last_reported":1747728908,"current_range_meters":7200,"station_id":"ce4bhn12rcd13ifvqgqg","pricing_plan_id":"cebpf4jnsgd1na2vs0mg"},{"bike_id":"42b21cf0-cb21-4329-ac4f-21f3d8c7f505","system_id":"levelo_inurba_marseille","lat":43.312263,"lon":5.368673,"is_reserved":false,"is_disabled":false,"rental_uris":{"android":"levelo://app?vid=42b21cf0-cb21-4329-ac4f-21f3d8c7f505","ios":"levelo://app?vid=42b21cf0-cb21-4329-ac4f-21f3d8c7f505"},"vehicle_type_id":"4","last_reported":1747728908,"current_range_meters":7200,"station_id":"ce4bgl92rcd13ifvqbq0","pricing_plan_id":"cebpf4jnsgd1na2vs0mg"},{"bike_id":"e64e36d1-c3e7-4427-9260-70ac75fa0a1c","system_id":"levelo_inurba_marseille","lat":43.299209,"lon":5.401943,"is_reserved":false,"is_disabled":false,"rental_uris":{"android":"levelo://app?vid=e64e36d1-c3e7-4427-9260-70ac75fa0a1c","ios":"levelo://app?vid=e64e36d1-c3e7-4427-9260-70ac75fa0a1c"},"vehicle_type_id":"4","last_reported":1747728908,"current_range_meters":7200,"station_id":"","pricing_plan_id":"cebpf4jnsgd1na2vs0mg"},{"bike_id":"fd75852b-aa6e-4e0d-81eb-426bc55f475e","system_id":"levelo_inurba_marseille","lat":43.262256,"lon":5.404484,"is_reserved":false,"is_disabled":false,"rental_uris":{"android":"levelo://app?vid=fd75852b-aa6e-4e0d-81eb-426bc55f475e","ios":"levelo://app?vid=fd75852b-aa6e-4e0d-81eb-426bc55f475e"},"vehicle_type_id":"4","last_reported":1747728908,"current_range_meters":7200,"station_id":"ce4bhmh2rcd13ifvqgmg","pricing_plan_id":"cebpf4jnsgd1na2vs0mg"},{"bike_id":"fba7f66d-b595-4e90-9541-6f5f2d3bed8a","system_id":"levelo_inurba_marseille","lat":43.29051,"lon":5.39951,"is_reserved":false,"is_disabled":false,"rental_uris":{"android":"levelo://app?vid=fba7f66d-b595-4e90-9541-6f5f2d3bed8a","ios":"levelo://app?vid=fba7f66d-b595-4e90-9541-6f5f2d3bed8a"},"vehicle_type_id":"4","last_reported":1747728908,"current_range_meters":7200,"station_id":"ce4bh392rcd13ifvqdm0","pricing_plan_id":"cebpf4jnsgd1na2vs0mg"},{"bike_id":"15049bc3-ee5f-42f5-95f7-b138598b4428","system_id":"levelo_inurba_marseille","lat":43.30906,"lon":5.36846,"is_reserved":false,"is_disabled":false,"rental_uris":{"android":"levelo://app?vid=15049bc3-ee5f-42f5-95f7-b138598b4428","ios":"levelo://app?vid=15049bc3-ee5f-42f5-95f7-b138598b4428"},"vehicle_type_id":"4","last_reported":1747728908,"current_range_meters":7200,"station_id":"ce4bgn92rcd13ifvqbvg","pricing_plan_id":"cebpf4jnsgd1na2vs0mg"},{"bike_id":"20bee342-4a3f-4f34-940d-bb6cf00d52ae","system_id":"levelo_inurba_marseille","lat":43.26669,"lon":5.38648,"is_reserved":false,"is_disabled":false,"rental_uris":{"android":"levelo://app?vid=20bee342-4a3f-4f34-940d-bb6cf00d52ae","ios":"levelo://app?vid=20bee342-4a3f-4f34-940d-bb6cf00d52ae"},"vehicle_type_id":"4","last_reported":1747728908,"current_range_meters":7200,"station_id":"","pricing_plan_id":"cebpf4jnsgd1na2vs0mg"},{"bike_id":"6889e011-c4a7-4b40-b6d7-e1fde3581e3d","system_id":"levelo_inurba_marseille","lat":43.292771,"lon":5.40145,"is_reserved":false,"is_disabled":false,"rental_uris":{"android":"levelo://app?vid=6889e011-c4a7-4b40-b6d7-e1fde3581e3d","ios":"levelo://app?vid=6889e011-c4a7-4b40-b6d7-e1fde3581e3d"},"vehicle_type_id":"4","last_reported":1747728908,"current_range_meters":7200,"station_id":"ce4bh312rcd13ifvqdk0","pricing_plan_id":"cebpf4jnsgd1na2vs0mg"},{"bike_id":"a283b2fd-ff3f-48d1-abab-7a3c52921152","system_id":"levelo_inurba_marseille","lat":43.28151,"lon":5.42669,"is_reserved":false,"is_disabled":false,"rental_uris":{"android":"levelo://app?vid=a283b2fd-ff3f-48d1-abab-7a3c52921152","ios":"levelo://app?vid=a283b2fd-ff3f-48d1-abab-7a3c52921152"},"vehicle_type_id":"4","last_reported":1747728908,"current_range_meters":8000,"station_id":"ce4bhnh2rcd13ifvqgug","pricing_plan_id":"cebpf4jnsgd1na2vs0mg"},{"bike_id":"aef55318-ae08-44cc-b6b7-8ec9f0287ed6","system_id":"levelo_inurba_marseille","lat":43.29273,"lon":5.3685,"is_reserved":false,"is_disabled":false,"rental_uris":{"android":"levelo://app?vid=aef55318-ae08-44cc-b6b7-8ec9f0287ed6","ios":"levelo://app?vid=aef55318-ae08-44cc-b6b7-8ec9f0287ed6"},"vehicle_type_id":"4","last_reported":1747728908,"current_range_meters":8000,"station_id":"ce4bhbp2rcd13ifvqesg","pricing_plan_id":"cebpf4jnsgd1na2vs0mg"},{"bike_id":"b3944199-ab4f-438e-bb79-49dc0a01620e","system_id":"levelo_inurba_marseille","lat":43.25931,"lon":5.40886,"is_reserved":false,"is_disabled":false,"rental_uris":{"android":"levelo://app?vid=b3944199-ab4f-438e-bb79-49dc0a01620e","ios":"levelo://app?vid=b3944199-ab4f-438e-bb79-49dc0a01620e"},"vehicle_type_id":"4","last_reported":1747728908,"current_range_meters":8000,"station_id":"ce4bhm92rcd13ifvqglg","pricing_plan_id":"cebpf4jnsgd1na2vs0mg"},{"bike_id":"ab5e548f-28e1-464d-a55e-8343cae12424","system_id":"levelo_inurba_marseille","lat":43.27052,"lon":5.40267,"is_reserved":false,"is_disabled":false,"rental_uris":{"android":"levelo://app?vid=ab5e548f-28e1-464d-a55e-8343cae12424","ios":"levelo://app?vid=ab5e548f-28e1-464d-a55e-8343cae12424"},"vehicle_type_id":"4","last_reported":1747728908,"current_range_meters":8000,"station_id":"ce4bhk92rcd13ifvqgc0","pricing_plan_id":"cebpf4jnsgd1na2vs0mg"},{"bike_id":"47288d18-52ac-4136-9b65-6c991cf177ae","system_id":"levelo_inurba_marseille","lat":43.26226,"lon":5.40442,"is_reserved":false,"is_disabled":false,"rental_uris":{"android":"levelo://app?vid=47288d18-52ac-4136-9b65-6c991cf177ae","ios":"levelo://app?vid=47288d18-52ac-4136-9b65-6c991cf177ae"},"vehicle_type_id":"4","last_reported":1747728908,"current_range_meters":8000,"station_id":"ce4bhmh2rcd13ifvqgmg","pricing_plan_id":"cebpf4jnsgd1na2vs0mg"},{"bike_id":"5b8269ca-1ea3-45eb-852b-4e0880dce35d","system_id":"levelo_inurba_marseille","lat":43.2905,"lon":5.3998,"is_reserved":false,"is_disabled":false,"rental_uris":{"android":"levelo://app?vid=5b8269ca-1ea3-45eb-852b-4e0880dce35d","ios":"levelo://app?vid=5b8269ca-1ea3-45eb-852b-4e0880dce35d"},"vehicle_type_id":"4","last_reported":1747728908,"current_range_meters":8000,"station_id":"ce4bh392rcd13ifvqdm0","pricing_plan_id":"cebpf4jnsgd1na2vs0mg"},{"bike_id":"982e835a-23cc-4182-94df-df5223ff6084","system_id":"levelo_inurba_marseille","lat":43.2695,"lon":5.38635,"is_reserved":false,"is_disabled":false,"rental_uris":{"android":"levelo://app?vid=982e835a-23cc-4182-94df-df5223ff6084","ios":"levelo://app?vid=982e835a-23cc-4182-94df-df5223ff6084"},"vehicle_type_id":"4","last_reported":1747728908,"current_range_meters":8400,"station_id":"ce4bhh92rcd13ifvqfh0","pricing_plan_id":"cebpf4jnsgd1na2vs0mg"},{"bike_id":"e9a40f37-cd36-48a0-8f4f-7a17c0041164","system_id":"levelo_inurba_marseille","lat":43.30954,"lon":5.39047,"is_reserved":false,"is_disabled":false,"rental_uris":{"android":"levelo://app?vid=e9a40f37-cd36-48a0-8f4f-7a17c0041164","ios":"levelo://app?vid=e9a40f37-cd36-48a0-8f4f-7a17c0041164"},"vehicle_type_id":"4","last_reported":1747728908,"current_range_meters":8400,"station_id":"ce4bgup2rcd13ifvqco0","pricing_plan_id":"cebpf4jnsgd1na2vs0mg"},{"bike_id":"bcbdbd69-7be8-42f8-a855-a4358565de8f","system_id":"levelo_inurba_marseille","lat":43.277229,"lon":5.414,"is_reserved":false,"is_disabled":false,"rental_uris":{"android":"levelo://app?vid=bcbdbd69-7be8-42f8-a855-a4358565de8f","ios":"levelo://app?vid=bcbdbd69-7be8-42f8-a855-a4358565de8f"},"vehicle_type_id":"4","last_reported":1747728908,"current_range_meters":8400,"station_id":"","pricing_plan_id":"cebpf4jnsgd1na2vs0mg"},{"bike_id":"0bee8310-e3c6-4566-aecb-00d86829bb71","system_id":"levelo_inurba_marseille","lat":43.28162,"lon":5.42636,"is_reserved":false,"is_disabled":false,"rental_uris":{"android":"levelo://app?vid=0bee8310-e3c6-4566-aecb-00d86829bb71","ios":"levelo://app?vid=0bee8310-e3c6-4566-aecb-00d86829bb71"},"vehicle_type_id":"4","last_reported":1747728908,"current_range_meters":8400,"station_id":"ce4bhnh2rcd13ifvqgug","pricing_plan_id":"cebpf4jnsgd1na2vs0mg"},{"bike_id":"13f6f1ad-19cf-46c1-a58c-bd7fd7f84e1c","system_id":"levelo_inurba_marseille","lat":43.31335,"lon":5.36754,"is_reserved":false,"is_disabled":false,"rental_uris":{"android":"levelo://app?vid=13f6f1ad-19cf-46c1-a58c-bd7fd7f84e1c","ios":"levelo://app?vid=13f6f1ad-19cf-46c1-a58c-bd7fd7f84e1c"},"vehicle_type_id":"4","last_reported":1747728908,"current_range_meters":8400,"station_id":"ce4bgr92rcd13ifvqc6g","pricing_plan_id":"cebpf4jnsgd1na2vs0mg"},{"bike_id":"b2a8a085-4afe-4995-b62f-39dc8b761b89","system_id":"levelo_inurba_marseille","lat":43.21193,"lon":5.35071,"is_reserved":false,"is_disabled":false,"rental_uris":{"android":"levelo://app?vid=b2a8a085-4afe-4995-b62f-39dc8b761b89","ios":"levelo://app?vid=b2a8a085-4afe-4995-b62f-39dc8b761b89"},"vehicle_type_id":"4","last_reported":1747728908,"current_range_meters":8400,"station_id":"st_cvj6sg6p6f1abm77japg","pricing_plan_id":"cebpf4jnsgd1na2vs0mg"},{"bike_id":"8f0f531d-6a65-4647-8a6f-baa3d982f42f","system_id":"levelo_inurba_marseille","lat":43.28116,"lon":5.42572,"is_reserved":false,"is_disabled":false,"rental_uris":{"android":"levelo://app?vid=8f0f531d-6a65-4647-8a6f-baa3d982f42f","ios":"levelo://app?vid=8f0f531d-6a65-4647-8a6f-baa3d982f42f"},"vehicle_type_id":"4","last_reported":1747728908,"current_range_meters":8800,"station_id":"","pricing_plan_id":"cebpf4jnsgd1na2vs0mg"},{"bike_id":"a5bcf3ab-5daa-4dec-898b-27b2e944e103","system_id":"levelo_inurba_marseille","lat":43.27287,"lon":5.41065,"is_reserved":false,"is_disabled":false,"rental_uris":{"android":"levelo://app?vid=a5bcf3ab-5daa-4dec-898b-27b2e944e103","ios":"levelo://app?vid=a5bcf3ab-5daa-4dec-898b-27b2e944e103"},"vehicle_type_id":"4","last_reported":1747728908,"current_range_meters":8800,"station_id":"","pricing_plan_id":"cebpf4jnsgd1na2vs0mg"},{"bike_id":"85eaca89-9437-48d0-9bca-a254337b88db","system_id":"levelo_inurba_marseille","lat":43.27435,"lon":5.40942,"is_reserved":false,"is_disabled":false,"rental_uris":{"android":"levelo://app?vid=85eaca89-9437-48d0-9bca-a254337b88db","ios":"levelo://app?vid=85eaca89-9437-48d0-9bca-a254337b88db"},"vehicle_type_id":"4","last_reported":1747728908,"current_range_meters":8800,"station_id":"","pricing_plan_id":"cebpf4jnsgd1na2vs0mg"},{"bike_id":"ae92f61d-1120-4f68-9f8d-d0db94492c15","system_id":"levelo_inurba_marseille","lat":43.271868,"lon":5.409898,"is_reserved":false,"is_disabled":false,"rental_uris":{"android":"levelo://app?vid=ae92f61d-1120-4f68-9f8d-d0db94492c15","ios":"levelo://app?vid=ae92f61d-1120-4f68-9f8d-d0db94492c15"},"vehicle_type_id":"4","last_reported":1747728908,"current_range_meters":8800,"station_id":"ce4bhl12rcd13ifvqgf0","pricing_plan_id":"cebpf4jnsgd1na2vs0mg"},{"bike_id":"c076ad54-d589-4eeb-ac51-e1376a33ec39","system_id":"levelo_inurba_marseille","lat":43.29549,"lon":5.423,"is_reserved":false,"is_disabled":false,"rental_uris":{"android":"levelo://app?vid=c076ad54-d589-4eeb-ac51-e1376a33ec39","ios":"levelo://app?vid=c076ad54-d589-4eeb-ac51-e1376a33ec39"},"vehicle_type_id":"4","last_reported":1747728908,"current_range_meters":8800,"station_id":"ce4bhph2rcd13ifvqhdg","pricing_plan_id":"cebpf4jnsgd1na2vs0mg"},{"bike_id":"2170cd3f-65ab-4b4f-b2d9-7b5dc0722083","system_id":"levelo_inurba_marseille","lat":43.28098,"lon":5.40195,"is_reserved":false,"is_disabled":false,"rental_uris":{"android":"levelo://app?vid=2170cd3f-65ab-4b4f-b2d9-7b5dc0722083","ios":"levelo://app?vid=2170cd3f-65ab-4b4f-b2d9-7b5dc0722083"},"vehicle_type_id":"4","last_reported":1747728908,"current_range_meters":9200,"station_id":"","pricing_plan_id":"cebpf4jnsgd1na2vs0mg"},{"bike_id":"dbf8222a-eea0-42f0-80c2-a4791ac4ed58","system_id":"levelo_inurba_marseille","lat":43.250119,"lon":5.389326,"is_reserved":false,"is_disabled":false,"rental_uris":{"android":"levelo://app?vid=dbf8222a-eea0-42f0-80c2-a4791ac4ed58","ios":"levelo://app?vid=dbf8222a-eea0-42f0-80c2-a4791ac4ed58"},"vehicle_type_id":"4","last_reported":1747728908,"current_range_meters":9200,"station_id":"ce4bhgp2rcd13ifvqfd0","pricing_plan_id":"cebpf4jnsgd1na2vs0mg"},{"bike_id":"7ddabab5-fb9d-431e-bb65-ee4d4e122759","system_id":"levelo_inurba_marseille","lat":43.28152,"lon":5.42634,"is_reserved":false,"is_disabled":false,"rental_uris":{"android":"levelo://app?vid=7ddabab5-fb9d-431e-bb65-ee4d4e122759","ios":"levelo://app?vid=7ddabab5-fb9d-431e-bb65-ee4d4e122759"},"vehicle_type_id":"4","last_reported":1747728908,"current_range_meters":9200,"station_id":"ce4bhnh2rcd13ifvqgug","pricing_plan_id":"cebpf4jnsgd1na2vs0mg"},{"bike_id":"572c97ee-0da0-4be5-a2ce-28eff65f3ef1","system_id":"levelo_inurba_marseille","lat":43.33753,"lon":5.37487,"is_reserved":false,"is_disabled":false,"rental_uris":{"android":"levelo://app?vid=572c97ee-0da0-4be5-a2ce-28eff65f3ef1","ios":"levelo://app?vid=572c97ee-0da0-4be5-a2ce-28eff65f3ef1"},"vehicle_type_id":"4","last_reported":1747728908,"current_range_meters":9200,"station_id":"","pricing_plan_id":"cebpf4jnsgd1na2vs0mg"},{"bike_id":"68944906-2bed-4069-92e3-fb4361342be4","system_id":"levelo_inurba_marseille","lat":43.29095,"lon":5.3817,"is_reserved":false,"is_disabled":false,"rental_uris":{"android":"levelo://app?vid=68944906-2bed-4069-92e3-fb4361342be4","ios":"levelo://app?vid=68944906-2bed-4069-92e3-fb4361342be4"},"vehicle_type_id":"4","last_reported":1747728908,"current_range_meters":9200,"station_id":"ce4bh512rcd13ifvqe2g","pricing_plan_id":"cebpf4jnsgd1na2vs0mg"},{"bike_id":"5f96d315-d5d0-4273-9916-2739433976e2","system_id":"levelo_inurba_marseille","lat":43.30509,"lon":5.36555,"is_reserved":false,"is_disabled":false,"rental_uris":{"android":"levelo://app?vid=5f96d315-d5d0-4273-9916-2739433976e2","ios":"levelo://app?vid=5f96d315-d5d0-4273-9916-2739433976e2"},"vehicle_type_id":"4","last_reported":1747728908,"current_range_meters":9200,"station_id":"ce4bgs12rcd13ifvqcag","pricing_plan_id":"cebpf4jnsgd1na2vs0mg"},{"bike_id":"79d7510d-667c-4488-a218-889e19bca0d7","system_id":"levelo_inurba_marseille","lat":43.30603,"lon":5.3933,"is_reserved":false,"is_disabled":false,"rental_uris":{"android":"levelo://app?vid=79d7510d-667c-4488-a218-889e19bca0d7","ios":"levelo://app?vid=79d7510d-667c-4488-a218-889e19bca0d7"},"vehicle_type_id":"4","last_reported":1747728908,"current_range_meters":9200,"station_id":"ce4bh0p2rcd13ifvqd80","pricing_plan_id":"cebpf4jnsgd1na2vs0mg"},{"bike_id":"e1814238-d411-41e8-a68c-8ee135d482cc","system_id":"levelo_inurba_marseille","lat":43.28726,"lon":5.37943,"is_reserved":false,"is_disabled":false,"rental_uris":{"android":"levelo://app?vid=e1814238-d411-41e8-a68c-8ee135d482cc","ios":"levelo://app?vid=e1814238-d411-41e8-a68c-8ee135d482cc"},"vehicle_type_id":"4","last_reported":1747728908,"current_range_meters":9200,"station_id":"ce4bh9p2rcd13ifvqec0","pricing_plan_id":"cebpf4jnsgd1na2vs0mg"},{"bike_id":"05c63458-b601-4e4e-ab26-7a54ca437048","system_id":"levelo_inurba_marseille","lat":43.29559,"lon":5.42259,"is_reserved":false,"is_disabled":false,"rental_uris":{"android":"levelo://app?vid=05c63458-b601-4e4e-ab26-7a54ca437048","ios":"levelo://app?vid=05c63458-b601-4e4e-ab26-7a54ca437048"},"vehicle_type_id":"4","last_reported":1747728908,"current_range_meters":9200,"station_id":"ce4bhph2rcd13ifvqhdg","pricing_plan_id":"cebpf4jnsgd1na2vs0mg"},{"bike_id":"7b4ebcee-a823-442f-a8fb-bd9eabc7a6ed","system_id":"levelo_inurba_marseille","lat":43.25101,"lon":5.38832,"is_reserved":false,"is_disabled":false,"rental_uris":{"android":"levelo://app?vid=7b4ebcee-a823-442f-a8fb-bd9eabc7a6ed","ios":"levelo://app?vid=7b4ebcee-a823-442f-a8fb-bd9eabc7a6ed"},"vehicle_type_id":"4","last_reported":1747728908,"current_range_meters":9600,"station_id":"","pricing_plan_id":"cebpf4jnsgd1na2vs0mg"},{"bike_id":"375074ed-8fc3-49b5-a069-d2f4af313461","system_id":"levelo_inurba_marseille","lat":43.29853,"lon":5.36289,"is_reserved":false,"is_disabled":false,"rental_uris":{"android":"levelo://app?vid=375074ed-8fc3-49b5-a069-d2f4af313461","ios":"levelo://app?vid=375074ed-8fc3-49b5-a069-d2f4af313461"},"vehicle_type_id":"4","last_reported":1747728908,"current_range_meters":9600,"station_id":"ce4bgpp2rcd13ifvqc3g","pricing_plan_id":"cebpf4jnsgd1na2vs0mg"},{"bike_id":"08129706-0840-4cc7-a7e9-4dbc2d7407ba","system_id":"levelo_inurba_marseille","lat":43.23187,"lon":5.39999,"is_reserved":false,"is_disabled":false,"rental_uris":{"android":"levelo://app?vid=08129706-0840-4cc7-a7e9-4dbc2d7407ba","ios":"levelo://app?vid=08129706-0840-4cc7-a7e9-4dbc2d7407ba"},"vehicle_type_id":"4","last_reported":1747728908,"current_range_meters":9600,"station_id":"ce4bhn12rcd13ifvqgqg","pricing_plan_id":"cebpf4jnsgd1na2vs0mg"},{"bike_id":"4be0c667-10fb-4d0d-a527-4a1530a211d3","system_id":"levelo_inurba_marseille","lat":43.314841,"lon":5.372964,"is_reserved":false,"is_disabled":false,"rental_uris":{"android":"levelo://app?vid=4be0c667-10fb-4d0d-a527-4a1530a211d3","ios":"levelo://app?vid=4be0c667-10fb-4d0d-a527-4a1530a211d3"},"vehicle_type_id":"4","last_reported":1747728908,"current_range_meters":9600,"station_id":"ce4bgt12rcd13ifvqcd0","pricing_plan_id":"cebpf4jnsgd1na2vs0mg"},{"bike_id":"27e2e700-c978-4d72-8e0b-9608485d555f","system_id":"levelo_inurba_marseille","lat":43.24089,"lon":5.37754,"is_reserved":false,"is_disabled":false,"rental_uris":{"android":"levelo://app?vid=27e2e700-c978-4d72-8e0b-9608485d555f","ios":"levelo://app?vid=27e2e700-c978-4d72-8e0b-9608485d555f"},"vehicle_type_id":"4","last_reported":1747728908,"current_range_meters":10000,"station_id":"ce4bhnp2rcd13ifvqgvg","pricing_plan_id":"cebpf4jnsgd1na2vs0mg"},{"bike_id":"5d09b536-0d2b-42d8-b22d-34fb05b90387","system_id":"levelo_inurba_marseille","lat":43.30545,"lon":5.38421,"is_reserved":false,"is_disabled":false,"rental_uris":{"android":"levelo://app?vid=5d09b536-0d2b-42d8-b22d-34fb05b90387","ios":"levelo://app?vid=5d09b536-0d2b-42d8-b22d-34fb05b90387"},"vehicle_type_id":"4","last_reported":1747728908,"current_range_meters":10000,"station_id":"","pricing_plan_id":"cebpf4jnsgd1na2vs0mg"},{"bike_id":"bffbaf88-357a-4e87-a68c-a9a27a6e01e6","system_id":"levelo_inurba_marseille","lat":43.26229,"lon":5.42136,"is_reserved":false,"is_disabled":false,"rental_uris":{"android":"levelo://app?vid=bffbaf88-357a-4e87-a68c-a9a27a6e01e6","ios":"levelo://app?vid=bffbaf88-357a-4e87-a68c-a9a27a6e01e6"},"vehicle_type_id":"4","last_reported":1747728908,"current_range_meters":10000,"station_id":"","pricing_plan_id":"cebpf4jnsgd1na2vs0mg"},{"bike_id":"a824fbd1-e4ac-448d-8615-1ee649070018","system_id":"levelo_inurba_marseille","lat":43.28641,"lon":5.37049,"is_reserved":false,"is_disabled":false,"rental_uris":{"android":"levelo://app?vid=a824fbd1-e4ac-448d-8615-1ee649070018","ios":"levelo://app?vid=a824fbd1-e4ac-448d-8615-1ee649070018"},"vehicle_type_id":"4","last_reported":1747728908,"current_range_meters":10000,"station_id":"ce4bht12rcd13ifvqi60","pricing_plan_id":"cebpf4jnsgd1na2vs0mg"},{"bike_id":"c7027b20-3a15-4e75-ad37-6b534f7d2bd7","system_id":"levelo_inurba_marseille","lat":43.336057,"lon":5.410303,"is_reserved":false,"is_disabled":false,"rental_uris":{"android":"levelo://app?vid=c7027b20-3a15-4e75-ad37-6b534f7d2bd7","ios":"levelo://app?vid=c7027b20-3a15-4e75-ad37-6b534f7d2bd7"},"vehicle_type_id":"4","last_reported":1747728908,"current_range_meters":9600,"station_id":"ce4bhqh2rcd13ifvqhmg","pricing_plan_id":"cebpf4jnsgd1na2vs0mg"},{"bike_id":"8db5f4e3-034f-448f-ae89-dcbf50745870","system_id":"levelo_inurba_marseille","lat":43.29029,"lon":5.38657,"is_reserved":false,"is_disabled":true,"rental_uris":{"android":"levelo://app?vid=8db5f4e3-034f-448f-ae89-dcbf50745870","ios":"levelo://app?vid=8db5f4e3-034f-448f-ae89-dcbf50745870"},"vehicle_type_id":"4","last_reported":1747728908,"current_range_meters":10000,"station_id":"ce4bh4p2rcd13ifvqe0g","pricing_plan_id":"cebpf4jnsgd1na2vs0mg"},{"bike_id":"598900bc-cc96-46f3-b8f9-32958f862dd5","system_id":"levelo_inurba_marseille","lat":43.30441,"lon":5.36746,"is_reserved":false,"is_disabled":false,"rental_uris":{"android":"levelo://app?vid=598900bc-cc96-46f3-b8f9-32958f862dd5","ios":"levelo://app?vid=598900bc-cc96-46f3-b8f9-32958f862dd5"},"vehicle_type_id":"4","last_reported":1747728908,"current_range_meters":10800,"station_id":"","pricing_plan_id":"cebpf4jnsgd1na2vs0mg"},{"bike_id":"a5069c23-eea7-40f4-9d9a-11b963aa48ad","system_id":"levelo_inurba_marseille","lat":43.2318,"lon":5.39986,"is_reserved":false,"is_disabled":false,"rental_uris":{"android":"levelo://app?vid=a5069c23-eea7-40f4-9d9a-11b963aa48ad","ios":"levelo://app?vid=a5069c23-eea7-40f4-9d9a-11b963aa48ad"},"vehicle_type_id":"4","last_reported":1747728908,"current_range_meters":10800,"station_id":"ce4bhn12rcd13ifvqgqg","pricing_plan_id":"cebpf4jnsgd1na2vs0mg"},{"bike_id":"60769808-915e-4876-a1c0-775dd721fe3a","system_id":"levelo_inurba_marseille","lat":43.21761,"lon":5.3459,"is_reserved":false,"is_disabled":false,"rental_uris":{"android":"levelo://app?vid=60769808-915e-4876-a1c0-775dd721fe3a","ios":"levelo://app?vid=60769808-915e-4876-a1c0-775dd721fe3a"},"vehicle_type_id":"4","last_reported":1747728908,"current_range_meters":10800,"station_id":"","pricing_plan_id":"cebpf4jnsgd1na2vs0mg"},{"bike_id":"654c7adc-287a-44c4-b56d-62e9c130ac61","system_id":"levelo_inurba_marseille","lat":43.30148,"lon":5.3811,"is_reserved":false,"is_disabled":false,"rental_uris":{"android":"levelo://app?vid=654c7adc-287a-44c4-b56d-62e9c130ac61","ios":"levelo://app?vid=654c7adc-287a-44c4-b56d-62e9c130ac61"},"vehicle_type_id":"4","last_reported":1747728908,"current_range_meters":10800,"station_id":"ce4bgjp2rcd13ifvqbh0","pricing_plan_id":"cebpf4jnsgd1na2vs0mg"},{"bike_id":"59a03b35-a162-461c-9f1e-5b06cbd2aaad","system_id":"levelo_inurba_marseille","lat":43.29513,"lon":5.39052,"is_reserved":false,"is_disabled":false,"rental_uris":{"android":"levelo://app?vid=59a03b35-a162-461c-9f1e-5b06cbd2aaad","ios":"levelo://app?vid=59a03b35-a162-461c-9f1e-5b06cbd2aaad"},"vehicle_type_id":"4","last_reported":1747728908,"current_range_meters":10800,"station_id":"ce4bh3p2rcd13ifvqdp0","pricing_plan_id":"cebpf4jnsgd1na2vs0mg"},{"bike_id":"f295336c-744a-4aae-827e-8817c128646f","system_id":"levelo_inurba_marseille","lat":43.26953,"lon":5.3863,"is_reserved":false,"is_disabled":false,"rental_uris":{"android":"levelo://app?vid=f295336c-744a-4aae-827e-8817c128646f","ios":"levelo://app?vid=f295336c-744a-4aae-827e-8817c128646f"},"vehicle_type_id":"4","last_reported":1747728908,"current_range_meters":10800,"station_id":"ce4bhh92rcd13ifvqfh0","pricing_plan_id":"cebpf4jnsgd1na2vs0mg"},{"bike_id":"b7cb1705-6b5a-49c6-8905-4f8177d4379a","system_id":"levelo_inurba_marseille","lat":43.231906,"lon":5.400055,"is_reserved":false,"is_disabled":false,"rental_uris":{"android":"levelo://app?vid=b7cb1705-6b5a-49c6-8905-4f8177d4379a","ios":"levelo://app?vid=b7cb1705-6b5a-49c6-8905-4f8177d4379a"},"vehicle_type_id":"4","last_reported":1747728908,"current_range_meters":11200,"station_id":"ce4bhn12rcd13ifvqgqg","pricing_plan_id":"cebpf4jnsgd1na2vs0mg"},{"bike_id":"f9bd452a-300d-4454-890a-c716cf8ab1c5","system_id":"levelo_inurba_marseille","lat":43.24985,"lon":5.38982,"is_reserved":false,"is_disabled":false,"rental_uris":{"android":"levelo://app?vid=f9bd452a-300d-4454-890a-c716cf8ab1c5","ios":"levelo://app?vid=f9bd452a-300d-4454-890a-c716cf8ab1c5"},"vehicle_type_id":"4","last_reported":1747728908,"current_range_meters":11200,"station_id":"ce4bhgp2rcd13ifvqfd0","pricing_plan_id":"cebpf4jnsgd1na2vs0mg"},{"bike_id":"ad59c90b-f06b-41b5-8343-5ade9c371b2a","system_id":"levelo_inurba_marseille","lat":43.28564,"lon":5.39502,"is_reserved":false,"is_disabled":false,"rental_uris":{"android":"levelo://app?vid=ad59c90b-f06b-41b5-8343-5ade9c371b2a","ios":"levelo://app?vid=ad59c90b-f06b-41b5-8343-5ade9c371b2a"},"vehicle_type_id":"4","last_reported":1747728908,"current_range_meters":11200,"station_id":"ce4bh292rcd13ifvqdg0","pricing_plan_id":"cebpf4jnsgd1na2vs0mg"},{"bike_id":"bca5fcbc-3c53-4bb3-9196-4ebb9a210b53","system_id":"levelo_inurba_marseille","lat":43.24081,"lon":5.37755,"is_reserved":false,"is_disabled":false,"rental_uris":{"android":"levelo://app?vid=bca5fcbc-3c53-4bb3-9196-4ebb9a210b53","ios":"levelo://app?vid=bca5fcbc-3c53-4bb3-9196-4ebb9a210b53"},"vehicle_type_id":"4","last_reported":1747728908,"current_range_meters":11200,"station_id":"ce4bhnp2rcd13ifvqgvg","pricing_plan_id":"cebpf4jnsgd1na2vs0mg"},{"bike_id":"e2949ef0-3c11-4124-a58e-7b7c61e4d70a","system_id":"levelo_inurba_marseille","lat":43.301452,"lon":5.374142,"is_reserved":false,"is_disabled":false,"rental_uris":{"android":"levelo://app?vid=e2949ef0-3c11-4124-a58e-7b7c61e4d70a","ios":"levelo://app?vid=e2949ef0-3c11-4124-a58e-7b7c61e4d70a"},"vehicle_type_id":"4","last_reported":1747728908,"current_range_meters":11600,"station_id":"","pricing_plan_id":"cebpf4jnsgd1na2vs0mg"},{"bike_id":"58edc354-c183-4da4-b527-1ba0f2d395e0","system_id":"levelo_inurba_marseille","lat":43.27683,"lon":5.35739,"is_reserved":false,"is_disabled":false,"rental_uris":{"android":"levelo://app?vid=58edc354-c183-4da4-b527-1ba0f2d395e0","ios":"levelo://app?vid=58edc354-c183-4da4-b527-1ba0f2d395e0"},"vehicle_type_id":"4","last_reported":1747728908,"current_range_meters":11600,"station_id":"","pricing_plan_id":"cebpf4jnsgd1na2vs0mg"},{"bike_id":"975945ef-a89c-456e-b891-a345dbd6c71b","system_id":"levelo_inurba_marseille","lat":43.29269,"lon":5.36851,"is_reserved":false,"is_disabled":false,"rental_uris":{"android":"levelo://app?vid=975945ef-a89c-456e-b891-a345dbd6c71b","ios":"levelo://app?vid=975945ef-a89c-456e-b891-a345dbd6c71b"},"vehicle_type_id":"4","last_reported":1747728908,"current_range_meters":11600,"station_id":"ce4bhbp2rcd13ifvqesg","pricing_plan_id":"cebpf4jnsgd1na2vs0mg"},{"bike_id":"67230f1d-ebb5-40cd-942e-509d2e1520be","system_id":"levelo_inurba_marseille","lat":43.313606,"lon":5.366829,"is_reserved":false,"is_disabled":false,"rental_uris":{"android":"levelo://app?vid=67230f1d-ebb5-40cd-942e-509d2e1520be","ios":"levelo://app?vid=67230f1d-ebb5-40cd-942e-509d2e1520be"},"vehicle_type_id":"4","last_reported":1747728908,"current_range_meters":11600,"station_id":"ce4bgr92rcd13ifvqc6g","pricing_plan_id":"cebpf4jnsgd1na2vs0mg"},{"bike_id":"9d6086ec-ec32-4859-b681-32584f8ea175","system_id":"levelo_inurba_marseille","lat":43.30781,"lon":5.3764,"is_reserved":false,"is_disabled":false,"rental_uris":{"android":"levelo://app?vid=9d6086ec-ec32-4859-b681-32584f8ea175","ios":"levelo://app?vid=9d6086ec-ec32-4859-b681-32584f8ea175"},"vehicle_type_id":"4","last_reported":1747728908,"current_range_meters":11600,"station_id":"ce4bgv92rcd13ifvqcq0","pricing_plan_id":"cebpf4jnsgd1na2vs0mg"},{"bike_id":"54311972-c1c3-43fe-a9d5-076326b8e0c1","system_id":"levelo_inurba_marseille","lat":43.30453,"lon":5.37912,"is_reserved":false,"is_disabled":true,"rental_uris":{"android":"levelo://app?vid=54311972-c1c3-43fe-a9d5-076326b8e0c1","ios":"levelo://app?vid=54311972-c1c3-43fe-a9d5-076326b8e0c1"},"vehicle_type_id":"4","last_reported":1747728908,"current_range_meters":11600,"station_id":"ce4bgup2rcd13ifvqcn0","pricing_plan_id":"cebpf4jnsgd1na2vs0mg"},{"bike_id":"59b8a132-4666-485c-b6ad-3e889f0d9322","system_id":"levelo_inurba_marseille","lat":43.255038,"lon":5.376542,"is_reserved":false,"is_disabled":false,"rental_uris":{"android":"levelo://app?vid=59b8a132-4666-485c-b6ad-3e889f0d9322","ios":"levelo://app?vid=59b8a132-4666-485c-b6ad-3e889f0d9322"},"vehicle_type_id":"4","last_reported":1747728908,"current_range_meters":11600,"station_id":"ce4bhh12rcd13ifvqff0","pricing_plan_id":"cebpf4jnsgd1na2vs0mg"},{"bike_id":"211d782c-93fe-44fc-931b-5c466bfda976","system_id":"levelo_inurba_marseille","lat":43.26952,"lon":5.38626,"is_reserved":false,"is_disabled":false,"rental_uris":{"android":"levelo://app?vid=211d782c-93fe-44fc-931b-5c466bfda976","ios":"levelo://app?vid=211d782c-93fe-44fc-931b-5c466bfda976"},"vehicle_type_id":"4","last_reported":1747728908,"current_range_meters":12000,"station_id":"ce4bhh92rcd13ifvqfh0","pricing_plan_id":"cebpf4jnsgd1na2vs0mg"},{"bike_id":"f6fa33e9-5772-4877-8c36-f581d3cfbabc","system_id":"levelo_inurba_marseille","lat":43.295942,"lon":5.381925,"is_reserved":false,"is_disabled":false,"rental_uris":{"android":"levelo://app?vid=f6fa33e9-5772-4877-8c36-f581d3cfbabc","ios":"levelo://app?vid=f6fa33e9-5772-4877-8c36-f581d3cfbabc"},"vehicle_type_id":"4","last_reported":1747728908,"current_range_meters":12000,"station_id":"ce4bgjp2rcd13ifvqbh0","pricing_plan_id":"cebpf4jnsgd1na2vs0mg"},{"bike_id":"e8162579-a5ad-485f-ad83-fec8a2ebe7e1","system_id":"levelo_inurba_marseille","lat":43.26826,"lon":5.39099,"is_reserved":false,"is_disabled":false,"rental_uris":{"android":"levelo://app?vid=e8162579-a5ad-485f-ad83-fec8a2ebe7e1","ios":"levelo://app?vid=e8162579-a5ad-485f-ad83-fec8a2ebe7e1"},"vehicle_type_id":"4","last_reported":1747728908,"current_range_meters":12000,"station_id":"","pricing_plan_id":"cebpf4jnsgd1na2vs0mg"},{"bike_id":"33e5cbd5-31c8-4fa0-9d70-cf685e1c2a15","system_id":"levelo_inurba_marseille","lat":43.2513,"lon":5.40327,"is_reserved":false,"is_disabled":false,"rental_uris":{"android":"levelo://app?vid=33e5cbd5-31c8-4fa0-9d70-cf685e1c2a15","ios":"levelo://app?vid=33e5cbd5-31c8-4fa0-9d70-cf685e1c2a15"},"vehicle_type_id":"4","last_reported":1747728908,"current_range_meters":12000,"station_id":"ce4bhlh2rcd13ifvqgig","pricing_plan_id":"cebpf4jnsgd1na2vs0mg"},{"bike_id":"722b2962-013c-48c4-a536-ab5994d4f90e","system_id":"levelo_inurba_marseille","lat":43.29062,"lon":5.37179,"is_reserved":false,"is_disabled":false,"rental_uris":{"android":"levelo://app?vid=722b2962-013c-48c4-a536-ab5994d4f90e","ios":"levelo://app?vid=722b2962-013c-48c4-a536-ab5994d4f90e"},"vehicle_type_id":"4","last_reported":1747728908,"current_range_meters":12000,"station_id":"ce4bh5p2rcd13ifvqe4g","pricing_plan_id":"cebpf4jnsgd1na2vs0mg"},{"bike_id":"0bb1a3c2-612b-44cc-9629-375e4296d6ae","system_id":"levelo_inurba_marseille","lat":43.26951,"lon":5.38634,"is_reserved":false,"is_disabled":false,"rental_uris":{"android":"levelo://app?vid=0bb1a3c2-612b-44cc-9629-375e4296d6ae","ios":"levelo://app?vid=0bb1a3c2-612b-44cc-9629-375e4296d6ae"},"vehicle_type_id":"4","last_reported":1747728908,"current_range_meters":12000,"station_id":"ce4bhh92rcd13ifvqfh0","pricing_plan_id":"cebpf4jnsgd1na2vs0mg"},{"bike_id":"e2e3a6f6-0f08-4185-b27b-75bc9500a96d","system_id":"levelo_inurba_marseille","lat":43.21207,"lon":5.35068,"is_reserved":false,"is_disabled":false,"rental_uris":{"android":"levelo://app?vid=e2e3a6f6-0f08-4185-b27b-75bc9500a96d","ios":"levelo://app?vid=e2e3a6f6-0f08-4185-b27b-75bc9500a96d"},"vehicle_type_id":"4","last_reported":1747728908,"current_range_meters":12400,"station_id":"st_cvj6sg6p6f1abm77japg","pricing_plan_id":"cebpf4jnsgd1na2vs0mg"},{"bike_id":"98a6af6c-4e2f-4f75-b744-fe7062c9d3a4","system_id":"levelo_inurba_marseille","lat":43.2594,"lon":5.40904,"is_reserved":false,"is_disabled":false,"rental_uris":{"android":"levelo://app?vid=98a6af6c-4e2f-4f75-b744-fe7062c9d3a4","ios":"levelo://app?vid=98a6af6c-4e2f-4f75-b744-fe7062c9d3a4"},"vehicle_type_id":"4","last_reported":1747728908,"current_range_meters":12400,"station_id":"ce4bhm92rcd13ifvqglg","pricing_plan_id":"cebpf4jnsgd1na2vs0mg"},{"bike_id":"f1f2b959-9b9d-4a63-9cd7-bc09c10d41aa","system_id":"levelo_inurba_marseille","lat":43.31359,"lon":5.36715,"is_reserved":false,"is_disabled":false,"rental_uris":{"android":"levelo://app?vid=f1f2b959-9b9d-4a63-9cd7-bc09c10d41aa","ios":"levelo://app?vid=f1f2b959-9b9d-4a63-9cd7-bc09c10d41aa"},"vehicle_type_id":"4","last_reported":1747728908,"current_range_meters":12400,"station_id":"ce4bgr92rcd13ifvqc6g","pricing_plan_id":"cebpf4jnsgd1na2vs0mg"},{"bike_id":"a6a422d9-bc76-42bd-af58-134484a1f87f","system_id":"levelo_inurba_marseille","lat":43.24995,"lon":5.38932,"is_reserved":false,"is_disabled":false,"rental_uris":{"android":"levelo://app?vid=a6a422d9-bc76-42bd-af58-134484a1f87f","ios":"levelo://app?vid=a6a422d9-bc76-42bd-af58-134484a1f87f"},"vehicle_type_id":"4","last_reported":1747728908,"current_range_meters":12800,"station_id":"ce4bhgp2rcd13ifvqfd0","pricing_plan_id":"cebpf4jnsgd1na2vs0mg"},{"bike_id":"cd5d81b5-b690-49e5-886d-8b796cc35399","system_id":"levelo_inurba_marseille","lat":43.29533,"lon":5.39043,"is_reserved":false,"is_disabled":false,"rental_uris":{"android":"levelo://app?vid=cd5d81b5-b690-49e5-886d-8b796cc35399","ios":"levelo://app?vid=cd5d81b5-b690-49e5-886d-8b796cc35399"},"vehicle_type_id":"4","last_reported":1747728908,"current_range_meters":12800,"station_id":"ce4bh3p2rcd13ifvqdp0","pricing_plan_id":"cebpf4jnsgd1na2vs0mg"},{"bike_id":"3552fbf2-b43a-446f-93f5-d695fc251b73","system_id":"levelo_inurba_marseille","lat":43.25169,"lon":5.375216,"is_reserved":false,"is_disabled":false,"rental_uris":{"android":"levelo://app?vid=3552fbf2-b43a-446f-93f5-d695fc251b73","ios":"levelo://app?vid=3552fbf2-b43a-446f-93f5-d695fc251b73"},"vehicle_type_id":"4","last_reported":1747728908,"current_range_meters":12800,"station_id":"","pricing_plan_id":"cebpf4jnsgd1na2vs0mg"},{"bike_id":"2aeaf632-8f44-4284-bf3b-9782c3bf4f04","system_id":"levelo_inurba_marseille","lat":43.2719,"lon":5.40986,"is_reserved":false,"is_disabled":false,"rental_uris":{"android":"levelo://app?vid=2aeaf632-8f44-4284-bf3b-9782c3bf4f04","ios":"levelo://app?vid=2aeaf632-8f44-4284-bf3b-9782c3bf4f04"},"vehicle_type_id":"4","last_reported":1747728908,"current_range_meters":13600,"station_id":"ce4bhl12rcd13ifvqgf0","pricing_plan_id":"cebpf4jnsgd1na2vs0mg"},{"bike_id":"66cc3dea-5bed-4d8d-a002-6935971dd586","system_id":"levelo_inurba_marseille","lat":43.30189,"lon":5.38092,"is_reserved":false,"is_disabled":false,"rental_uris":{"android":"levelo://app?vid=66cc3dea-5bed-4d8d-a002-6935971dd586","ios":"levelo://app?vid=66cc3dea-5bed-4d8d-a002-6935971dd586"},"vehicle_type_id":"4","last_reported":1747728908,"current_range_meters":13600,"station_id":"","pricing_plan_id":"cebpf4jnsgd1na2vs0mg"},{"bike_id":"1e0be349-75ac-43ce-a2c7-9ea54df984f0","system_id":"levelo_inurba_marseille","lat":43.30363,"lon":5.42489,"is_reserved":false,"is_disabled":false,"rental_uris":{"android":"levelo://app?vid=1e0be349-75ac-43ce-a2c7-9ea54df984f0","ios":"levelo://app?vid=1e0be349-75ac-43ce-a2c7-9ea54df984f0"},"vehicle_type_id":"4","last_reported":1747728908,"current_range_meters":13600,"station_id":"ce4bhoh2rcd13ifvqh6g","pricing_plan_id":"cebpf4jnsgd1na2vs0mg"},{"bike_id":"6386b301-5c5b-41dc-9be6-064d845d26a2","system_id":"levelo_inurba_marseille","lat":43.28629,"lon":5.4066,"is_reserved":false,"is_disabled":false,"rental_uris":{"android":"levelo://app?vid=6386b301-5c5b-41dc-9be6-064d845d26a2","ios":"levelo://app?vid=6386b301-5c5b-41dc-9be6-064d845d26a2"},"vehicle_type_id":"4","last_reported":1747728908,"current_range_meters":13600,"station_id":"","pricing_plan_id":"cebpf4jnsgd1na2vs0mg"},{"bike_id":"c3c11b11-8507-45b4-bd48-1e3bdd46fbbe","system_id":"levelo_inurba_marseille","lat":43.23171,"lon":5.39999,"is_reserved":false,"is_disabled":false,"rental_uris":{"android":"levelo://app?vid=c3c11b11-8507-45b4-bd48-1e3bdd46fbbe","ios":"levelo://app?vid=c3c11b11-8507-45b4-bd48-1e3bdd46fbbe"},"vehicle_type_id":"4","last_reported":1747728908,"current_range_meters":13600,"station_id":"ce4bhn12rcd13ifvqgqg","pricing_plan_id":"cebpf4jnsgd1na2vs0mg"},{"bike_id":"901d18ec-442b-4311-be09-c99faa5dda47","system_id":"levelo_inurba_marseille","lat":43.29984,"lon":5.37171,"is_reserved":false,"is_disabled":true,"rental_uris":{"android":"levelo://app?vid=901d18ec-442b-4311-be09-c99faa5dda47","ios":"levelo://app?vid=901d18ec-442b-4311-be09-c99faa5dda47"},"vehicle_type_id":"4","last_reported":1747728908,"current_range_meters":14000,"station_id":"ce4bgr92rcd13ifvqc7g","pricing_plan_id":"cebpf4jnsgd1na2vs0mg"},{"bike_id":"0c75e290-2f49-4428-9202-02a35670787a","system_id":"levelo_inurba_marseille","lat":43.231852,"lon":5.399883,"is_reserved":false,"is_disabled":false,"rental_uris":{"android":"levelo://app?vid=0c75e290-2f49-4428-9202-02a35670787a","ios":"levelo://app?vid=0c75e290-2f49-4428-9202-02a35670787a"},"vehicle_type_id":"4","last_reported":1747728908,"current_range_meters":14000,"station_id":"ce4bhn12rcd13ifvqgqg","pricing_plan_id":"cebpf4jnsgd1na2vs0mg"},{"bike_id":"971fc3c8-e765-452e-a7f2-ed2f1afcaaa3","system_id":"levelo_inurba_marseille","lat":43.31118,"lon":5.37763,"is_reserved":false,"is_disabled":false,"rental_uris":{"android":"levelo://app?vid=971fc3c8-e765-452e-a7f2-ed2f1afcaaa3","ios":"levelo://app?vid=971fc3c8-e765-452e-a7f2-ed2f1afcaaa3"},"vehicle_type_id":"4","last_reported":1747728908,"current_range_meters":14000,"station_id":"ce4bgt92rcd13ifvqcg0","pricing_plan_id":"cebpf4jnsgd1na2vs0mg"},{"bike_id":"004e381c-ae6e-400b-a207-0210d848f8f3","system_id":"levelo_inurba_marseille","lat":43.33608,"lon":5.41029,"is_reserved":false,"is_disabled":false,"rental_uris":{"android":"levelo://app?vid=004e381c-ae6e-400b-a207-0210d848f8f3","ios":"levelo://app?vid=004e381c-ae6e-400b-a207-0210d848f8f3"},"vehicle_type_id":"4","last_reported":1747728908,"current_range_meters":14000,"station_id":"ce4bhqh2rcd13ifvqhmg","pricing_plan_id":"cebpf4jnsgd1na2vs0mg"},{"bike_id":"9ff023ee-ef02-48a7-bb55-795f2003d2cf","system_id":"levelo_inurba_marseille","lat":43.30596,"lon":5.3936,"is_reserved":false,"is_disabled":false,"rental_uris":{"android":"levelo://app?vid=9ff023ee-ef02-48a7-bb55-795f2003d2cf","ios":"levelo://app?vid=9ff023ee-ef02-48a7-bb55-795f2003d2cf"},"vehicle_type_id":"4","last_reported":1747728908,"current_range_meters":14000,"station_id":"ce4bh0p2rcd13ifvqd80","pricing_plan_id":"cebpf4jnsgd1na2vs0mg"},{"bike_id":"a5f241f5-5f56-4773-b4f4-368dd15e3cca","system_id":"levelo_inurba_marseille","lat":43.32364,"lon":5.38872,"is_reserved":false,"is_disabled":false,"rental_uris":{"android":"levelo://app?vid=a5f241f5-5f56-4773-b4f4-368dd15e3cca","ios":"levelo://app?vid=a5f241f5-5f56-4773-b4f4-368dd15e3cca"},"vehicle_type_id":"4","last_reported":1747728908,"current_range_meters":14400,"station_id":"ce4bhqp2rcd13ifvqhog","pricing_plan_id":"cebpf4jnsgd1na2vs0mg"},{"bike_id":"4f13f9f9-16ff-4a15-947b-39be74fa93cd","system_id":"levelo_inurba_marseille","lat":43.259369,"lon":5.408994,"is_reserved":false,"is_disabled":false,"rental_uris":{"android":"levelo://app?vid=4f13f9f9-16ff-4a15-947b-39be74fa93cd","ios":"levelo://app?vid=4f13f9f9-16ff-4a15-947b-39be74fa93cd"},"vehicle_type_id":"4","last_reported":1747728908,"current_range_meters":14400,"station_id":"ce4bhm92rcd13ifvqglg","pricing_plan_id":"cebpf4jnsgd1na2vs0mg"},{"bike_id":"245649b9-ba55-42a3-bbdd-78cb15f42bda","system_id":"levelo_inurba_marseille","lat":43.23153,"lon":5.43718,"is_reserved":false,"is_disabled":false,"rental_uris":{"android":"levelo://app?vid=245649b9-ba55-42a3-bbdd-78cb15f42bda","ios":"levelo://app?vid=245649b9-ba55-42a3-bbdd-78cb15f42bda"},"vehicle_type_id":"4","last_reported":1747728908,"current_range_meters":14400,"station_id":"ce4bhmp2rcd13ifvqgog","pricing_plan_id":"cebpf4jnsgd1na2vs0mg"},{"bike_id":"dfd77888-4b05-4bef-b6c1-e88c778fc2d9","system_id":"levelo_inurba_marseille","lat":43.3096,"lon":5.39036,"is_reserved":false,"is_disabled":false,"rental_uris":{"android":"levelo://app?vid=dfd77888-4b05-4bef-b6c1-e88c778fc2d9","ios":"levelo://app?vid=dfd77888-4b05-4bef-b6c1-e88c778fc2d9"},"vehicle_type_id":"4","last_reported":1747728908,"current_range_meters":14400,"station_id":"ce4bgup2rcd13ifvqco0","pricing_plan_id":"cebpf4jnsgd1na2vs0mg"},{"bike_id":"ef24fb0c-db74-4c0c-8c90-5cf92ab0b471","system_id":"levelo_inurba_marseille","lat":43.29302,"lon":5.40891,"is_reserved":false,"is_disabled":false,"rental_uris":{"android":"levelo://app?vid=ef24fb0c-db74-4c0c-8c90-5cf92ab0b471","ios":"levelo://app?vid=ef24fb0c-db74-4c0c-8c90-5cf92ab0b471"},"vehicle_type_id":"4","last_reported":1747728908,"current_range_meters":14800,"station_id":"ce4bh192rcd13ifvqdc0","pricing_plan_id":"cebpf4jnsgd1na2vs0mg"},{"bike_id":"c64832ea-cbd0-47ba-a7f9-dddb8ed879b4","system_id":"levelo_inurba_marseille","lat":43.30537,"lon":5.36558,"is_reserved":false,"is_disabled":false,"rental_uris":{"android":"levelo://app?vid=c64832ea-cbd0-47ba-a7f9-dddb8ed879b4","ios":"levelo://app?vid=c64832ea-cbd0-47ba-a7f9-dddb8ed879b4"},"vehicle_type_id":"4","last_reported":1747728908,"current_range_meters":14800,"station_id":"ce4bgs12rcd13ifvqcag","pricing_plan_id":"cebpf4jnsgd1na2vs0mg"},{"bike_id":"e1d57822-ecc8-4c43-b3f2-6f5adecafb55","system_id":"levelo_inurba_marseille","lat":43.25075,"lon":5.39522,"is_reserved":false,"is_disabled":false,"rental_uris":{"android":"levelo://app?vid=e1d57822-ecc8-4c43-b3f2-6f5adecafb55","ios":"levelo://app?vid=e1d57822-ecc8-4c43-b3f2-6f5adecafb55"},"vehicle_type_id":"4","last_reported":1747728908,"current_range_meters":14800,"station_id":"ce4bhm12rcd13ifvqgkg","pricing_plan_id":"cebpf4jnsgd1na2vs0mg"},{"bike_id":"858ce898-5d8b-4b57-a52f-44d53cd506f0","system_id":"levelo_inurba_marseille","lat":43.30535,"lon":5.36719,"is_reserved":false,"is_disabled":false,"rental_uris":{"android":"levelo://app?vid=858ce898-5d8b-4b57-a52f-44d53cd506f0","ios":"levelo://app?vid=858ce898-5d8b-4b57-a52f-44d53cd506f0"},"vehicle_type_id":"4","last_reported":1747728908,"current_range_meters":14800,"station_id":"ce4bgrp2rcd13ifvqc9g","pricing_plan_id":"cebpf4jnsgd1na2vs0mg"},{"bike_id":"8da7c00b-5199-431e-9e81-0f430be4a158","system_id":"levelo_inurba_marseille","lat":43.30159,"lon":5.38082,"is_reserved":false,"is_disabled":false,"rental_uris":{"android":"levelo://app?vid=8da7c00b-5199-431e-9e81-0f430be4a158","ios":"levelo://app?vid=8da7c00b-5199-431e-9e81-0f430be4a158"},"vehicle_type_id":"4","last_reported":1747728908,"current_range_meters":15200,"station_id":"ce4bgjp2rcd13ifvqbh0","pricing_plan_id":"cebpf4jnsgd1na2vs0mg"},{"bike_id":"5bd747b9-d1db-4842-90ba-63d0c9ee9e0b","system_id":"levelo_inurba_marseille","lat":43.24165,"lon":5.36395,"is_reserved":false,"is_disabled":false,"rental_uris":{"android":"levelo://app?vid=5bd747b9-d1db-4842-90ba-63d0c9ee9e0b","ios":"levelo://app?vid=5bd747b9-d1db-4842-90ba-63d0c9ee9e0b"},"vehicle_type_id":"4","last_reported":1747728908,"current_range_meters":15200,"station_id":"cpo36qri1sfpv3e86is0","pricing_plan_id":"cebpf4jnsgd1na2vs0mg"},{"bike_id":"c4fc221d-06d4-48bc-91cf-16d7e89fdb10","system_id":"levelo_inurba_marseille","lat":43.25935,"lon":5.40893,"is_reserved":false,"is_disabled":false,"rental_uris":{"android":"levelo://app?vid=c4fc221d-06d4-48bc-91cf-16d7e89fdb10","ios":"levelo://app?vid=c4fc221d-06d4-48bc-91cf-16d7e89fdb10"},"vehicle_type_id":"4","last_reported":1747728908,"current_range_meters":15200,"station_id":"ce4bhm92rcd13ifvqglg","pricing_plan_id":"cebpf4jnsgd1na2vs0mg"},{"bike_id":"dc80936a-51b4-4ef9-b71e-e259b58f2ac3","system_id":"levelo_inurba_marseille","lat":43.231813,"lon":5.399993,"is_reserved":false,"is_disabled":false,"rental_uris":{"android":"levelo://app?vid=dc80936a-51b4-4ef9-b71e-e259b58f2ac3","ios":"levelo://app?vid=dc80936a-51b4-4ef9-b71e-e259b58f2ac3"},"vehicle_type_id":"4","last_reported":1747728908,"current_range_meters":15200,"station_id":"ce4bhn12rcd13ifvqgqg","pricing_plan_id":"cebpf4jnsgd1na2vs0mg"},{"bike_id":"bfadeaec-216b-47d1-99b4-74d81f9ee763","system_id":"levelo_inurba_marseille","lat":43.321183,"lon":5.367747,"is_reserved":false,"is_disabled":false,"rental_uris":{"android":"levelo://app?vid=bfadeaec-216b-47d1-99b4-74d81f9ee763","ios":"levelo://app?vid=bfadeaec-216b-47d1-99b4-74d81f9ee763"},"vehicle_type_id":"4","last_reported":1747728908,"current_range_meters":15200,"station_id":"ce4bhrh2rcd13ifvqhug","pricing_plan_id":"cebpf4jnsgd1na2vs0mg"},{"bike_id":"28c554a5-7272-45ce-9456-c02948158cfa","system_id":"levelo_inurba_marseille","lat":43.29046,"lon":5.39944,"is_reserved":false,"is_disabled":false,"rental_uris":{"android":"levelo://app?vid=28c554a5-7272-45ce-9456-c02948158cfa","ios":"levelo://app?vid=28c554a5-7272-45ce-9456-c02948158cfa"},"vehicle_type_id":"4","last_reported":1747728908,"current_range_meters":15200,"station_id":"ce4bh392rcd13ifvqdm0","pricing_plan_id":"cebpf4jnsgd1na2vs0mg"},{"bike_id":"7e053555-9d33-4a74-9b33-70ec85fc4206","system_id":"levelo_inurba_marseille","lat":43.30305,"lon":5.36895,"is_reserved":false,"is_disabled":false,"rental_uris":{"android":"levelo://app?vid=7e053555-9d33-4a74-9b33-70ec85fc4206","ios":"levelo://app?vid=7e053555-9d33-4a74-9b33-70ec85fc4206"},"vehicle_type_id":"4","last_reported":1747728908,"current_range_meters":15200,"station_id":"ce4bgqh2rcd13ifvqc5g","pricing_plan_id":"cebpf4jnsgd1na2vs0mg"},{"bike_id":"283403a0-596c-4a94-85e1-66d88d547369","system_id":"levelo_inurba_marseille","lat":43.2925,"lon":5.40909,"is_reserved":false,"is_disabled":false,"rental_uris":{"android":"levelo://app?vid=283403a0-596c-4a94-85e1-66d88d547369","ios":"levelo://app?vid=283403a0-596c-4a94-85e1-66d88d547369"},"vehicle_type_id":"4","last_reported":1747728908,"current_range_meters":16000,"station_id":"ce4bh192rcd13ifvqdc0","pricing_plan_id":"cebpf4jnsgd1na2vs0mg"},{"bike_id":"e59e5f45-9513-445e-bc33-b808576c4008","system_id":"levelo_inurba_marseille","lat":43.29046,"lon":5.39982,"is_reserved":false,"is_disabled":false,"rental_uris":{"android":"levelo://app?vid=e59e5f45-9513-445e-bc33-b808576c4008","ios":"levelo://app?vid=e59e5f45-9513-445e-bc33-b808576c4008"},"vehicle_type_id":"4","last_reported":1747728908,"current_range_meters":16000,"station_id":"ce4bh392rcd13ifvqdm0","pricing_plan_id":"cebpf4jnsgd1na2vs0mg"},{"bike_id":"44d38386-9914-4ca4-99cb-7eb9d3314468","system_id":"levelo_inurba_marseille","lat":43.25931,"lon":5.40887,"is_reserved":false,"is_disabled":false,"rental_uris":{"android":"levelo://app?vid=44d38386-9914-4ca4-99cb-7eb9d3314468","ios":"levelo://app?vid=44d38386-9914-4ca4-99cb-7eb9d3314468"},"vehicle_type_id":"4","last_reported":1747728908,"current_range_meters":16000,"station_id":"ce4bhm92rcd13ifvqglg","pricing_plan_id":"cebpf4jnsgd1na2vs0mg"},{"bike_id":"95bbb5b0-4ebd-4505-a979-31f090674af1","system_id":"levelo_inurba_marseille","lat":43.29264,"lon":5.37611,"is_reserved":false,"is_disabled":false,"rental_uris":{"android":"levelo://app?vid=95bbb5b0-4ebd-4505-a979-31f090674af1","ios":"levelo://app?vid=95bbb5b0-4ebd-4505-a979-31f090674af1"},"vehicle_type_id":"4","last_reported":1747728908,"current_range_meters":16000,"station_id":"ce4bgi12rcd13ifvqb80","pricing_plan_id":"cebpf4jnsgd1na2vs0mg"},{"bike_id":"af399d30-5d7d-4225-9e5d-d98dc2656f01","system_id":"levelo_inurba_marseille","lat":43.31878,"lon":5.40738,"is_reserved":false,"is_disabled":false,"rental_uris":{"android":"levelo://app?vid=af399d30-5d7d-4225-9e5d-d98dc2656f01","ios":"levelo://app?vid=af399d30-5d7d-4225-9e5d-d98dc2656f01"},"vehicle_type_id":"4","last_reported":1747728908,"current_range_meters":16000,"station_id":"ce4bhq12rcd13ifvqhig","pricing_plan_id":"cebpf4jnsgd1na2vs0mg"},{"bike_id":"fc48f081-39c3-4d04-a865-c72bb304622a","system_id":"levelo_inurba_marseille","lat":43.31685,"lon":5.40469,"is_reserved":false,"is_disabled":false,"rental_uris":{"android":"levelo://app?vid=fc48f081-39c3-4d04-a865-c72bb304622a","ios":"levelo://app?vid=fc48f081-39c3-4d04-a865-c72bb304622a"},"vehicle_type_id":"4","last_reported":1747728908,"current_range_meters":12000,"station_id":"ce4bh012rcd13ifvqd00","pricing_plan_id":"cebpf4jnsgd1na2vs0mg"},{"bike_id":"cbfd8cdb-e0a4-440c-ac03-518d5b691c36","system_id":"levelo_inurba_marseille","lat":43.26693,"lon":5.38253,"is_reserved":false,"is_disabled":false,"rental_uris":{"android":"levelo://app?vid=cbfd8cdb-e0a4-440c-ac03-518d5b691c36","ios":"levelo://app?vid=cbfd8cdb-e0a4-440c-ac03-518d5b691c36"},"vehicle_type_id":"4","last_reported":1747728908,"current_range_meters":16000,"station_id":"ce4bhg92rcd13ifvqf90","pricing_plan_id":"cebpf4jnsgd1na2vs0mg"},{"bike_id":"9ec8a79a-ec99-4796-9d5e-b05577d4c17a","system_id":"levelo_inurba_marseille","lat":43.32337,"lon":5.40619,"is_reserved":false,"is_disabled":true,"rental_uris":{"android":"levelo://app?vid=9ec8a79a-ec99-4796-9d5e-b05577d4c17a","ios":"levelo://app?vid=9ec8a79a-ec99-4796-9d5e-b05577d4c17a"},"vehicle_type_id":"4","last_reported":1747728908,"current_range_meters":16000,"station_id":"ce4bhq92rcd13ifvqhjg","pricing_plan_id":"cebpf4jnsgd1na2vs0mg"},{"bike_id":"65d313d8-ec62-4d84-a8a8-394ffb60bc2a","system_id":"levelo_inurba_marseille","lat":43.29598,"lon":5.37721,"is_reserved":false,"is_disabled":false,"rental_uris":{"android":"levelo://app?vid=65d313d8-ec62-4d84-a8a8-394ffb60bc2a","ios":"levelo://app?vid=65d313d8-ec62-4d84-a8a8-394ffb60bc2a"},"vehicle_type_id":"4","last_reported":1747728908,"current_range_meters":16000,"station_id":"ce4bgi92rcd13ifvqb90","pricing_plan_id":"cebpf4jnsgd1na2vs0mg"},{"bike_id":"4633ad4c-7666-4d8e-a49c-b0979a7d8b24","system_id":"levelo_inurba_marseille","lat":43.30487,"lon":5.37928,"is_reserved":false,"is_disabled":false,"rental_uris":{"android":"levelo://app?vid=4633ad4c-7666-4d8e-a49c-b0979a7d8b24","ios":"levelo://app?vid=4633ad4c-7666-4d8e-a49c-b0979a7d8b24"},"vehicle_type_id":"4","last_reported":1747728908,"current_range_meters":16400,"station_id":"ce4bgup2rcd13ifvqcn0","pricing_plan_id":"cebpf4jnsgd1na2vs0mg"},{"bike_id":"7830fd68-d876-4c19-80ce-4eb41a490c42","system_id":"levelo_inurba_marseille","lat":43.273839,"lon":5.394446,"is_reserved":false,"is_disabled":false,"rental_uris":{"android":"levelo://app?vid=7830fd68-d876-4c19-80ce-4eb41a490c42","ios":"levelo://app?vid=7830fd68-d876-4c19-80ce-4eb41a490c42"},"vehicle_type_id":"4","last_reported":1747728908,"current_range_meters":17200,"station_id":"ce4bhhp2rcd13ifvqfm0","pricing_plan_id":"cebpf4jnsgd1na2vs0mg"},{"bike_id":"43631b8b-bb21-4d5b-9b04-700076cfff0c","system_id":"levelo_inurba_marseille","lat":43.26678,"lon":5.38268,"is_reserved":false,"is_disabled":false,"rental_uris":{"android":"levelo://app?vid=43631b8b-bb21-4d5b-9b04-700076cfff0c","ios":"levelo://app?vid=43631b8b-bb21-4d5b-9b04-700076cfff0c"},"vehicle_type_id":"4","last_reported":1747728908,"current_range_meters":16400,"station_id":"ce4bhg92rcd13ifvqf90","pricing_plan_id":"cebpf4jnsgd1na2vs0mg"},{"bike_id":"af0ff74c-30a5-4503-8550-d0b70b4ad3b0","system_id":"levelo_inurba_marseille","lat":43.31318,"lon":5.36737,"is_reserved":false,"is_disabled":false,"rental_uris":{"android":"levelo://app?vid=af0ff74c-30a5-4503-8550-d0b70b4ad3b0","ios":"levelo://app?vid=af0ff74c-30a5-4503-8550-d0b70b4ad3b0"},"vehicle_type_id":"4","last_reported":1747728908,"current_range_meters":16400,"station_id":"ce4bgr92rcd13ifvqc6g","pricing_plan_id":"cebpf4jnsgd1na2vs0mg"},{"bike_id":"096095db-263e-4788-93f4-d35100dc17ab","system_id":"levelo_inurba_marseille","lat":43.30603,"lon":5.39364,"is_reserved":false,"is_disabled":false,"rental_uris":{"android":"levelo://app?vid=096095db-263e-4788-93f4-d35100dc17ab","ios":"levelo://app?vid=096095db-263e-4788-93f4-d35100dc17ab"},"vehicle_type_id":"4","last_reported":1747728908,"current_range_meters":16400,"station_id":"ce4bh0p2rcd13ifvqd80","pricing_plan_id":"cebpf4jnsgd1na2vs0mg"},{"bike_id":"89818718-60bb-4980-8a32-6ebf76df8c0f","system_id":"levelo_inurba_marseille","lat":43.30966,"lon":5.39044,"is_reserved":false,"is_disabled":false,"rental_uris":{"android":"levelo://app?vid=89818718-60bb-4980-8a32-6ebf76df8c0f","ios":"levelo://app?vid=89818718-60bb-4980-8a32-6ebf76df8c0f"},"vehicle_type_id":"4","last_reported":1747728908,"current_range_meters":16400,"station_id":"ce4bgup2rcd13ifvqco0","pricing_plan_id":"cebpf4jnsgd1na2vs0mg"},{"bike_id":"aa048516-7dde-4588-8581-150fd54aee39","system_id":"levelo_inurba_marseille","lat":43.24814,"lon":5.37458,"is_reserved":false,"is_disabled":false,"rental_uris":{"android":"levelo://app?vid=aa048516-7dde-4588-8581-150fd54aee39","ios":"levelo://app?vid=aa048516-7dde-4588-8581-150fd54aee39"},"vehicle_type_id":"4","last_reported":1747728908,"current_range_meters":16800,"station_id":"ce4bhgh2rcd13ifvqfb0","pricing_plan_id":"cebpf4jnsgd1na2vs0mg"},{"bike_id":"697a9b19-19cf-408f-a646-3bcdb4d31625","system_id":"levelo_inurba_marseille","lat":43.2467,"lon":5.38153,"is_reserved":false,"is_disabled":false,"rental_uris":{"android":"levelo://app?vid=697a9b19-19cf-408f-a646-3bcdb4d31625","ios":"levelo://app?vid=697a9b19-19cf-408f-a646-3bcdb4d31625"},"vehicle_type_id":"4","last_reported":1747728908,"current_range_meters":16800,"station_id":"ce4bhih2rcd13ifvqfr0","pricing_plan_id":"cebpf4jnsgd1na2vs0mg"},{"bike_id":"b5a4e322-4d33-4131-bc99-ff63c34a40de","system_id":"levelo_inurba_marseille","lat":43.30166,"lon":5.38094,"is_reserved":false,"is_disabled":false,"rental_uris":{"android":"levelo://app?vid=b5a4e322-4d33-4131-bc99-ff63c34a40de","ios":"levelo://app?vid=b5a4e322-4d33-4131-bc99-ff63c34a40de"},"vehicle_type_id":"4","last_reported":1747728908,"current_range_meters":16800,"station_id":"ce4bgjp2rcd13ifvqbh0","pricing_plan_id":"cebpf4jnsgd1na2vs0mg"},{"bike_id":"9a4bbd17-99bd-4347-bd31-e7103b100aa8","system_id":"levelo_inurba_marseille","lat":43.259368,"lon":5.408976,"is_reserved":false,"is_disabled":false,"rental_uris":{"android":"levelo://app?vid=9a4bbd17-99bd-4347-bd31-e7103b100aa8","ios":"levelo://app?vid=9a4bbd17-99bd-4347-bd31-e7103b100aa8"},"vehicle_type_id":"4","last_reported":1747728908,"current_range_meters":16800,"station_id":"ce4bhm92rcd13ifvqglg","pricing_plan_id":"cebpf4jnsgd1na2vs0mg"},{"bike_id":"11e2d666-f56d-4a09-86b1-334997b440e1","system_id":"levelo_inurba_marseille","lat":43.30135,"lon":5.37424,"is_reserved":false,"is_disabled":false,"rental_uris":{"android":"levelo://app?vid=11e2d666-f56d-4a09-86b1-334997b440e1","ios":"levelo://app?vid=11e2d666-f56d-4a09-86b1-334997b440e1"},"vehicle_type_id":"4","last_reported":1747728908,"current_range_meters":16800,"station_id":"ce4bgs92rcd13ifvqcc0","pricing_plan_id":"cebpf4jnsgd1na2vs0mg"},{"bike_id":"92b296c8-7e64-4258-b0c3-40c83deae028","system_id":"levelo_inurba_marseille","lat":43.25929,"lon":5.40899,"is_reserved":false,"is_disabled":false,"rental_uris":{"android":"levelo://app?vid=92b296c8-7e64-4258-b0c3-40c83deae028","ios":"levelo://app?vid=92b296c8-7e64-4258-b0c3-40c83deae028"},"vehicle_type_id":"4","last_reported":1747728908,"current_range_meters":17200,"station_id":"ce4bhm92rcd13ifvqglg","pricing_plan_id":"cebpf4jnsgd1na2vs0mg"},{"bike_id":"390afd8c-98fa-451c-973d-0a4facdb9125","system_id":"levelo_inurba_marseille","lat":43.336104,"lon":5.410317,"is_reserved":false,"is_disabled":false,"rental_uris":{"android":"levelo://app?vid=390afd8c-98fa-451c-973d-0a4facdb9125","ios":"levelo://app?vid=390afd8c-98fa-451c-973d-0a4facdb9125"},"vehicle_type_id":"4","last_reported":1747728908,"current_range_meters":17200,"station_id":"ce4bhqh2rcd13ifvqhmg","pricing_plan_id":"cebpf4jnsgd1na2vs0mg"},{"bike_id":"5765434c-77b5-41b5-8b14-b978e4d6dd10","system_id":"levelo_inurba_marseille","lat":43.21199,"lon":5.3508,"is_reserved":false,"is_disabled":false,"rental_uris":{"android":"levelo://app?vid=5765434c-77b5-41b5-8b14-b978e4d6dd10","ios":"levelo://app?vid=5765434c-77b5-41b5-8b14-b978e4d6dd10"},"vehicle_type_id":"4","last_reported":1747728908,"current_range_meters":17200,"station_id":"st_cvj6sg6p6f1abm77japg","pricing_plan_id":"cebpf4jnsgd1na2vs0mg"},{"bike_id":"d22b0fd0-78a6-46fc-aad8-ce2ca2a629e3","system_id":"levelo_inurba_marseille","lat":43.21206,"lon":5.3508,"is_reserved":false,"is_disabled":false,"rental_uris":{"android":"levelo://app?vid=d22b0fd0-78a6-46fc-aad8-ce2ca2a629e3","ios":"levelo://app?vid=d22b0fd0-78a6-46fc-aad8-ce2ca2a629e3"},"vehicle_type_id":"4","last_reported":1747728908,"current_range_meters":17200,"station_id":"st_cvj6sg6p6f1abm77japg","pricing_plan_id":"cebpf4jnsgd1na2vs0mg"},{"bike_id":"87e7bc5e-db0f-423c-8aff-9df688bbf3bc","system_id":"levelo_inurba_marseille","lat":43.2481,"lon":5.37459,"is_reserved":false,"is_disabled":false,"rental_uris":{"android":"levelo://app?vid=87e7bc5e-db0f-423c-8aff-9df688bbf3bc","ios":"levelo://app?vid=87e7bc5e-db0f-423c-8aff-9df688bbf3bc"},"vehicle_type_id":"4","last_reported":1747728908,"current_range_meters":17200,"station_id":"ce4bhgh2rcd13ifvqfb0","pricing_plan_id":"cebpf4jnsgd1na2vs0mg"},{"bike_id":"4fc760d1-74fe-4666-b8f8-efe0b28b8769","system_id":"levelo_inurba_marseille","lat":43.29838,"lon":5.36266,"is_reserved":false,"is_disabled":false,"rental_uris":{"android":"levelo://app?vid=4fc760d1-74fe-4666-b8f8-efe0b28b8769","ios":"levelo://app?vid=4fc760d1-74fe-4666-b8f8-efe0b28b8769"},"vehicle_type_id":"4","last_reported":1747728908,"current_range_meters":17200,"station_id":"ce4bgpp2rcd13ifvqc3g","pricing_plan_id":"cebpf4jnsgd1na2vs0mg"},{"bike_id":"a253706b-1cb9-4ca4-9560-173eeb92ac1f","system_id":"levelo_inurba_marseille","lat":43.307895,"lon":5.435225,"is_reserved":false,"is_disabled":false,"rental_uris":{"android":"levelo://app?vid=a253706b-1cb9-4ca4-9560-173eeb92ac1f","ios":"levelo://app?vid=a253706b-1cb9-4ca4-9560-173eeb92ac1f"},"vehicle_type_id":"4","last_reported":1747728908,"current_range_meters":17600,"station_id":"ce4bhph2rcd13ifvqheg","pricing_plan_id":"cebpf4jnsgd1na2vs0mg"},{"bike_id":"b527facc-d5b0-44c4-b551-18fc4985201a","system_id":"levelo_inurba_marseille","lat":43.31208,"lon":5.3682,"is_reserved":false,"is_disabled":false,"rental_uris":{"android":"levelo://app?vid=b527facc-d5b0-44c4-b551-18fc4985201a","ios":"levelo://app?vid=b527facc-d5b0-44c4-b551-18fc4985201a"},"vehicle_type_id":"4","last_reported":1747728908,"current_range_meters":17200,"station_id":"ce4bgl92rcd13ifvqbq0","pricing_plan_id":"cebpf4jnsgd1na2vs0mg"},{"bike_id":"f0f18eed-3548-4b2f-bfe7-b293ef97e536","system_id":"levelo_inurba_marseille","lat":43.26954,"lon":5.38625,"is_reserved":false,"is_disabled":false,"rental_uris":{"android":"levelo://app?vid=f0f18eed-3548-4b2f-bfe7-b293ef97e536","ios":"levelo://app?vid=f0f18eed-3548-4b2f-bfe7-b293ef97e536"},"vehicle_type_id":"4","last_reported":1747728908,"current_range_meters":17600,"station_id":"ce4bhh92rcd13ifvqfh0","pricing_plan_id":"cebpf4jnsgd1na2vs0mg"},{"bike_id":"2730a49a-5fc6-4ae9-9364-e1ee30e9806b","system_id":"levelo_inurba_marseille","lat":43.28945,"lon":5.39634,"is_reserved":false,"is_disabled":true,"rental_uris":{"android":"levelo://app?vid=2730a49a-5fc6-4ae9-9364-e1ee30e9806b","ios":"levelo://app?vid=2730a49a-5fc6-4ae9-9364-e1ee30e9806b"},"vehicle_type_id":"4","last_reported":1747728908,"current_range_meters":17600,"station_id":"ce4bh3h2rcd13ifvqdn0","pricing_plan_id":"cebpf4jnsgd1na2vs0mg"},{"bike_id":"07646ddd-2a2b-4dd4-9b59-d381148169b1","system_id":"levelo_inurba_marseille","lat":43.30189,"lon":5.38081,"is_reserved":false,"is_disabled":false,"rental_uris":{"android":"levelo://app?vid=07646ddd-2a2b-4dd4-9b59-d381148169b1","ios":"levelo://app?vid=07646ddd-2a2b-4dd4-9b59-d381148169b1"},"vehicle_type_id":"4","last_reported":1747728908,"current_range_meters":17600,"station_id":"","pricing_plan_id":"cebpf4jnsgd1na2vs0mg"},{"bike_id":"ea68f546-8499-4cde-975b-93e011d81217","system_id":"levelo_inurba_marseille","lat":43.30146,"lon":5.37427,"is_reserved":false,"is_disabled":false,"rental_uris":{"android":"levelo://app?vid=ea68f546-8499-4cde-975b-93e011d81217","ios":"levelo://app?vid=ea68f546-8499-4cde-975b-93e011d81217"},"vehicle_type_id":"4","last_reported":1747728908,"current_range_meters":17600,"station_id":"ce4bgs92rcd13ifvqcc0","pricing_plan_id":"cebpf4jnsgd1na2vs0mg"},{"bike_id":"02f1526a-c617-443f-836f-2aa62d10ff19","system_id":"levelo_inurba_marseille","lat":43.24393,"lon":5.37049,"is_reserved":false,"is_disabled":false,"rental_uris":{"android":"levelo://app?vid=02f1526a-c617-443f-836f-2aa62d10ff19","ios":"levelo://app?vid=02f1526a-c617-443f-836f-2aa62d10ff19"},"vehicle_type_id":"4","last_reported":1747728908,"current_range_meters":17600,"station_id":"ce4bhhh2rcd13ifvqfk0","pricing_plan_id":"cebpf4jnsgd1na2vs0mg"},{"bike_id":"6ed8eb2e-4617-409f-9e20-3e97dffc3b6a","system_id":"levelo_inurba_marseille","lat":43.290328,"lon":5.399774,"is_reserved":false,"is_disabled":false,"rental_uris":{"android":"levelo://app?vid=6ed8eb2e-4617-409f-9e20-3e97dffc3b6a","ios":"levelo://app?vid=6ed8eb2e-4617-409f-9e20-3e97dffc3b6a"},"vehicle_type_id":"4","last_reported":1747728908,"current_range_meters":17600,"station_id":"ce4bh392rcd13ifvqdm0","pricing_plan_id":"cebpf4jnsgd1na2vs0mg"},{"bike_id":"d159e7cb-ff0c-499a-b615-bae1a88c2460","system_id":"levelo_inurba_marseille","lat":43.31357,"lon":5.36699,"is_reserved":false,"is_disabled":false,"rental_uris":{"android":"levelo://app?vid=d159e7cb-ff0c-499a-b615-bae1a88c2460","ios":"levelo://app?vid=d159e7cb-ff0c-499a-b615-bae1a88c2460"},"vehicle_type_id":"4","last_reported":1747728908,"current_range_meters":18000,"station_id":"ce4bgr92rcd13ifvqc6g","pricing_plan_id":"cebpf4jnsgd1na2vs0mg"},{"bike_id":"b2812a3f-2332-493f-85e4-6bc85b95ec70","system_id":"levelo_inurba_marseille","lat":43.26219,"lon":5.40453,"is_reserved":false,"is_disabled":false,"rental_uris":{"android":"levelo://app?vid=b2812a3f-2332-493f-85e4-6bc85b95ec70","ios":"levelo://app?vid=b2812a3f-2332-493f-85e4-6bc85b95ec70"},"vehicle_type_id":"4","last_reported":1747728908,"current_range_meters":18000,"station_id":"ce4bhmh2rcd13ifvqgmg","pricing_plan_id":"cebpf4jnsgd1na2vs0mg"},{"bike_id":"d9aaf1a2-4106-41f1-bdb5-227fd13f0c43","system_id":"levelo_inurba_marseille","lat":43.311291,"lon":5.377497,"is_reserved":false,"is_disabled":false,"rental_uris":{"android":"levelo://app?vid=d9aaf1a2-4106-41f1-bdb5-227fd13f0c43","ios":"levelo://app?vid=d9aaf1a2-4106-41f1-bdb5-227fd13f0c43"},"vehicle_type_id":"4","last_reported":1747728908,"current_range_meters":18000,"station_id":"ce4bgt92rcd13ifvqcg0","pricing_plan_id":"cebpf4jnsgd1na2vs0mg"},{"bike_id":"24dc12dd-e0a1-4ccc-b473-486d35ddca69","system_id":"levelo_inurba_marseille","lat":43.31709,"lon":5.437,"is_reserved":false,"is_disabled":false,"rental_uris":{"android":"levelo://app?vid=24dc12dd-e0a1-4ccc-b473-486d35ddca69","ios":"levelo://app?vid=24dc12dd-e0a1-4ccc-b473-486d35ddca69"},"vehicle_type_id":"4","last_reported":1747728908,"current_range_meters":18000,"station_id":"ce4bhp92rcd13ifvqhcg","pricing_plan_id":"cebpf4jnsgd1na2vs0mg"},{"bike_id":"809c3440-a4ee-4444-8779-f65767830b09","system_id":"levelo_inurba_marseille","lat":43.26964,"lon":5.38632,"is_reserved":false,"is_disabled":false,"rental_uris":{"android":"levelo://app?vid=809c3440-a4ee-4444-8779-f65767830b09","ios":"levelo://app?vid=809c3440-a4ee-4444-8779-f65767830b09"},"vehicle_type_id":"4","last_reported":1747728908,"current_range_meters":18000,"station_id":"ce4bhh92rcd13ifvqfh0","pricing_plan_id":"cebpf4jnsgd1na2vs0mg"},{"bike_id":"a6e135f2-19a5-49b1-b746-d9f5706741ce","system_id":"levelo_inurba_marseille","lat":43.24082,"lon":5.37743,"is_reserved":false,"is_disabled":false,"rental_uris":{"android":"levelo://app?vid=a6e135f2-19a5-49b1-b746-d9f5706741ce","ios":"levelo://app?vid=a6e135f2-19a5-49b1-b746-d9f5706741ce"},"vehicle_type_id":"4","last_reported":1747728908,"current_range_meters":18000,"station_id":"ce4bhnp2rcd13ifvqgvg","pricing_plan_id":"cebpf4jnsgd1na2vs0mg"},{"bike_id":"4087717d-3758-40b3-aba6-6248bfdfe049","system_id":"levelo_inurba_marseille","lat":43.29328,"lon":5.37548,"is_reserved":false,"is_disabled":false,"rental_uris":{"android":"levelo://app?vid=4087717d-3758-40b3-aba6-6248bfdfe049","ios":"levelo://app?vid=4087717d-3758-40b3-aba6-6248bfdfe049"},"vehicle_type_id":"4","last_reported":1747728908,"current_range_meters":18000,"station_id":"ce4bgi12rcd13ifvqb70","pricing_plan_id":"cebpf4jnsgd1na2vs0mg"},{"bike_id":"c6dd3070-9a24-496b-91cb-fa213da95903","system_id":"levelo_inurba_marseille","lat":43.295661,"lon":5.375178,"is_reserved":false,"is_disabled":false,"rental_uris":{"android":"levelo://app?vid=c6dd3070-9a24-496b-91cb-fa213da95903","ios":"levelo://app?vid=c6dd3070-9a24-496b-91cb-fa213da95903"},"vehicle_type_id":"4","last_reported":1747728908,"current_range_meters":18000,"station_id":"ce4bgh92rcd13ifvqb50","pricing_plan_id":"cebpf4jnsgd1na2vs0mg"},{"bike_id":"a3830faf-6ba4-4ea5-8de5-91cbf435bca9","system_id":"levelo_inurba_marseille","lat":43.2594,"lon":5.40899,"is_reserved":false,"is_disabled":false,"rental_uris":{"android":"levelo://app?vid=a3830faf-6ba4-4ea5-8de5-91cbf435bca9","ios":"levelo://app?vid=a3830faf-6ba4-4ea5-8de5-91cbf435bca9"},"vehicle_type_id":"4","last_reported":1747728908,"current_range_meters":18800,"station_id":"ce4bhm92rcd13ifvqglg","pricing_plan_id":"cebpf4jnsgd1na2vs0mg"},{"bike_id":"ad645217-e0a8-4df1-8194-00de8bf8e3a5","system_id":"levelo_inurba_marseille","lat":43.313031,"lon":5.383648,"is_reserved":false,"is_disabled":false,"rental_uris":{"android":"levelo://app?vid=ad645217-e0a8-4df1-8194-00de8bf8e3a5","ios":"levelo://app?vid=ad645217-e0a8-4df1-8194-00de8bf8e3a5"},"vehicle_type_id":"4","last_reported":1747728908,"current_range_meters":18800,"station_id":"","pricing_plan_id":"cebpf4jnsgd1na2vs0mg"},{"bike_id":"1ee8299b-1f88-40a6-9ac4-616ffea8b5c1","system_id":"levelo_inurba_marseille","lat":43.25932,"lon":5.40903,"is_reserved":false,"is_disabled":false,"rental_uris":{"android":"levelo://app?vid=1ee8299b-1f88-40a6-9ac4-616ffea8b5c1","ios":"levelo://app?vid=1ee8299b-1f88-40a6-9ac4-616ffea8b5c1"},"vehicle_type_id":"4","last_reported":1747728908,"current_range_meters":18800,"station_id":"ce4bhm92rcd13ifvqglg","pricing_plan_id":"cebpf4jnsgd1na2vs0mg"},{"bike_id":"db5915bb-ed63-4cb5-9040-7b08b5b42651","system_id":"levelo_inurba_marseille","lat":43.23153,"lon":5.43721,"is_reserved":false,"is_disabled":false,"rental_uris":{"android":"levelo://app?vid=db5915bb-ed63-4cb5-9040-7b08b5b42651","ios":"levelo://app?vid=db5915bb-ed63-4cb5-9040-7b08b5b42651"},"vehicle_type_id":"4","last_reported":1747728908,"current_range_meters":19200,"station_id":"ce4bhmp2rcd13ifvqgog","pricing_plan_id":"cebpf4jnsgd1na2vs0mg"},{"bike_id":"56a8c683-922a-4e30-a1df-0e1e23b261be","system_id":"levelo_inurba_marseille","lat":43.25723,"lon":5.41105,"is_reserved":false,"is_disabled":false,"rental_uris":{"android":"levelo://app?vid=56a8c683-922a-4e30-a1df-0e1e23b261be","ios":"levelo://app?vid=56a8c683-922a-4e30-a1df-0e1e23b261be"},"vehicle_type_id":"4","last_reported":1747728908,"current_range_meters":18800,"station_id":"ce4bhkp2rcd13ifvqgd0","pricing_plan_id":"cebpf4jnsgd1na2vs0mg"},{"bike_id":"38203ac2-e88c-47dc-a7a0-e05d6a16fea9","system_id":"levelo_inurba_marseille","lat":43.24032,"lon":5.37785,"is_reserved":false,"is_disabled":false,"rental_uris":{"android":"levelo://app?vid=38203ac2-e88c-47dc-a7a0-e05d6a16fea9","ios":"levelo://app?vid=38203ac2-e88c-47dc-a7a0-e05d6a16fea9"},"vehicle_type_id":"4","last_reported":1747728908,"current_range_meters":19200,"station_id":"ce4bhnp2rcd13ifvqgvg","pricing_plan_id":"cebpf4jnsgd1na2vs0mg"},{"bike_id":"5329b131-9627-4536-beec-2d05ec3b8734","system_id":"levelo_inurba_marseille","lat":43.30131,"lon":5.38073,"is_reserved":false,"is_disabled":false,"rental_uris":{"android":"levelo://app?vid=5329b131-9627-4536-beec-2d05ec3b8734","ios":"levelo://app?vid=5329b131-9627-4536-beec-2d05ec3b8734"},"vehicle_type_id":"4","last_reported":1747728908,"current_range_meters":19200,"station_id":"ce4bgjp2rcd13ifvqbh0","pricing_plan_id":"cebpf4jnsgd1na2vs0mg"},{"bike_id":"1fea3aa0-bd2e-49a7-a54a-ab620f502330","system_id":"levelo_inurba_marseille","lat":43.29282,"lon":5.40176,"is_reserved":false,"is_disabled":false,"rental_uris":{"android":"levelo://app?vid=1fea3aa0-bd2e-49a7-a54a-ab620f502330","ios":"levelo://app?vid=1fea3aa0-bd2e-49a7-a54a-ab620f502330"},"vehicle_type_id":"4","last_reported":1747728908,"current_range_meters":19200,"station_id":"ce4bh312rcd13ifvqdk0","pricing_plan_id":"cebpf4jnsgd1na2vs0mg"},{"bike_id":"b06edf0b-52b2-42ef-bcb3-a0ac461a9884","system_id":"levelo_inurba_marseille","lat":43.30147,"lon":5.37425,"is_reserved":false,"is_disabled":false,"rental_uris":{"android":"levelo://app?vid=b06edf0b-52b2-42ef-bcb3-a0ac461a9884","ios":"levelo://app?vid=b06edf0b-52b2-42ef-bcb3-a0ac461a9884"},"vehicle_type_id":"4","last_reported":1747728908,"current_range_meters":19200,"station_id":"ce4bgs92rcd13ifvqcc0","pricing_plan_id":"cebpf4jnsgd1na2vs0mg"},{"bike_id":"a033c6d8-5a8f-4551-9a74-b4f10acffaec","system_id":"levelo_inurba_marseille","lat":43.32353,"lon":5.36714,"is_reserved":false,"is_disabled":false,"rental_uris":{"android":"levelo://app?vid=a033c6d8-5a8f-4551-9a74-b4f10acffaec","ios":"levelo://app?vid=a033c6d8-5a8f-4551-9a74-b4f10acffaec"},"vehicle_type_id":"4","last_reported":1747728908,"current_range_meters":19600,"station_id":"ce4bhsh2rcd13ifvqi2g","pricing_plan_id":"cebpf4jnsgd1na2vs0mg"},{"bike_id":"8da44370-a435-48f7-9bf8-4043a5db973f","system_id":"levelo_inurba_marseille","lat":43.26096,"lon":5.37856,"is_reserved":false,"is_disabled":true,"rental_uris":{"android":"levelo://app?vid=8da44370-a435-48f7-9bf8-4043a5db973f","ios":"levelo://app?vid=8da44370-a435-48f7-9bf8-4043a5db973f"},"vehicle_type_id":"4","last_reported":1747728908,"current_range_meters":19600,"station_id":"","pricing_plan_id":"cebpf4jnsgd1na2vs0mg"},{"bike_id":"869cfffe-2f4a-4c85-8893-bc8d2c15d749","system_id":"levelo_inurba_marseille","lat":43.29255,"lon":5.40908,"is_reserved":false,"is_disabled":false,"rental_uris":{"android":"levelo://app?vid=869cfffe-2f4a-4c85-8893-bc8d2c15d749","ios":"levelo://app?vid=869cfffe-2f4a-4c85-8893-bc8d2c15d749"},"vehicle_type_id":"4","last_reported":1747728908,"current_range_meters":19600,"station_id":"ce4bh192rcd13ifvqdc0","pricing_plan_id":"cebpf4jnsgd1na2vs0mg"},{"bike_id":"c151098a-1f8d-4fca-8935-14e1aeb32a06","system_id":"levelo_inurba_marseille","lat":43.26121,"lon":5.4147,"is_reserved":false,"is_disabled":false,"rental_uris":{"android":"levelo://app?vid=c151098a-1f8d-4fca-8935-14e1aeb32a06","ios":"levelo://app?vid=c151098a-1f8d-4fca-8935-14e1aeb32a06"},"vehicle_type_id":"4","last_reported":1747728908,"current_range_meters":19600,"station_id":"","pricing_plan_id":"cebpf4jnsgd1na2vs0mg"},{"bike_id":"8b45d7b8-2b4f-44f4-a2a9-46b49331738f","system_id":"levelo_inurba_marseille","lat":43.29984,"lon":5.37189,"is_reserved":false,"is_disabled":true,"rental_uris":{"android":"levelo://app?vid=8b45d7b8-2b4f-44f4-a2a9-46b49331738f","ios":"levelo://app?vid=8b45d7b8-2b4f-44f4-a2a9-46b49331738f"},"vehicle_type_id":"4","last_reported":1747728908,"current_range_meters":19600,"station_id":"ce4bgr92rcd13ifvqc7g","pricing_plan_id":"cebpf4jnsgd1na2vs0mg"},{"bike_id":"e31833c9-3629-4b2f-810c-c09df0eb266c","system_id":"levelo_inurba_marseille","lat":43.33751,"lon":5.37509,"is_reserved":false,"is_disabled":false,"rental_uris":{"android":"levelo://app?vid=e31833c9-3629-4b2f-810c-c09df0eb266c","ios":"levelo://app?vid=e31833c9-3629-4b2f-810c-c09df0eb266c"},"vehicle_type_id":"4","last_reported":1747728908,"current_range_meters":19600,"station_id":"","pricing_plan_id":"cebpf4jnsgd1na2vs0mg"},{"bike_id":"fab461d9-873a-424d-8ecd-2ee88fe26ed5","system_id":"levelo_inurba_marseille","lat":43.28859,"lon":5.39335,"is_reserved":false,"is_disabled":false,"rental_uris":{"android":"levelo://app?vid=fab461d9-873a-424d-8ecd-2ee88fe26ed5","ios":"levelo://app?vid=fab461d9-873a-424d-8ecd-2ee88fe26ed5"},"vehicle_type_id":"4","last_reported":1747728908,"current_range_meters":20000,"station_id":"ce4bh2p2rcd13ifvqdi0","pricing_plan_id":"cebpf4jnsgd1na2vs0mg"},{"bike_id":"c94b2a38-ca1e-406e-b55e-66541b44c934","system_id":"levelo_inurba_marseille","lat":43.24812,"lon":5.37448,"is_reserved":false,"is_disabled":false,"rental_uris":{"android":"levelo://app?vid=c94b2a38-ca1e-406e-b55e-66541b44c934","ios":"levelo://app?vid=c94b2a38-ca1e-406e-b55e-66541b44c934"},"vehicle_type_id":"4","last_reported":1747728908,"current_range_meters":20000,"station_id":"ce4bhgh2rcd13ifvqfb0","pricing_plan_id":"cebpf4jnsgd1na2vs0mg"},{"bike_id":"8b1d0326-63e7-4094-afec-363f99a75b46","system_id":"levelo_inurba_marseille","lat":43.31693,"lon":5.40475,"is_reserved":false,"is_disabled":false,"rental_uris":{"android":"levelo://app?vid=8b1d0326-63e7-4094-afec-363f99a75b46","ios":"levelo://app?vid=8b1d0326-63e7-4094-afec-363f99a75b46"},"vehicle_type_id":"4","last_reported":1747728908,"current_range_meters":20000,"station_id":"ce4bh012rcd13ifvqd00","pricing_plan_id":"cebpf4jnsgd1na2vs0mg"},{"bike_id":"128904f3-815c-42a0-8e9f-93990280fe97","system_id":"levelo_inurba_marseille","lat":43.24812,"lon":5.37456,"is_reserved":false,"is_disabled":false,"rental_uris":{"android":"levelo://app?vid=128904f3-815c-42a0-8e9f-93990280fe97","ios":"levelo://app?vid=128904f3-815c-42a0-8e9f-93990280fe97"},"vehicle_type_id":"4","last_reported":1747728908,"current_range_meters":20000,"station_id":"ce4bhgh2rcd13ifvqfb0","pricing_plan_id":"cebpf4jnsgd1na2vs0mg"},{"bike_id":"c4f0ddbf-912f-4dc6-81b8-da7688e7978e","system_id":"levelo_inurba_marseille","lat":43.308,"lon":5.43533,"is_reserved":false,"is_disabled":false,"rental_uris":{"android":"levelo://app?vid=c4f0ddbf-912f-4dc6-81b8-da7688e7978e","ios":"levelo://app?vid=c4f0ddbf-912f-4dc6-81b8-da7688e7978e"},"vehicle_type_id":"4","last_reported":1747728908,"current_range_meters":20000,"station_id":"ce4bhph2rcd13ifvqheg","pricing_plan_id":"cebpf4jnsgd1na2vs0mg"},{"bike_id":"70916796-dce4-483f-88f8-d35dabb87c2c","system_id":"levelo_inurba_marseille","lat":43.24084,"lon":5.37744,"is_reserved":false,"is_disabled":false,"rental_uris":{"android":"levelo://app?vid=70916796-dce4-483f-88f8-d35dabb87c2c","ios":"levelo://app?vid=70916796-dce4-483f-88f8-d35dabb87c2c"},"vehicle_type_id":"4","last_reported":1747728908,"current_range_meters":20400,"station_id":"ce4bhnp2rcd13ifvqgvg","pricing_plan_id":"cebpf4jnsgd1na2vs0mg"},{"bike_id":"069a11b8-1f1a-4ba4-92c5-9ca7698b3145","system_id":"levelo_inurba_marseille","lat":43.32053,"lon":5.41545,"is_reserved":false,"is_disabled":false,"rental_uris":{"android":"levelo://app?vid=069a11b8-1f1a-4ba4-92c5-9ca7698b3145","ios":"levelo://app?vid=069a11b8-1f1a-4ba4-92c5-9ca7698b3145"},"vehicle_type_id":"4","last_reported":1747728908,"current_range_meters":20400,"station_id":"ce4bhq92rcd13ifvqhkg","pricing_plan_id":"cebpf4jnsgd1na2vs0mg"},{"bike_id":"46e5be8c-2f7d-43a7-b945-dd9d3618ca5d","system_id":"levelo_inurba_marseille","lat":43.30288,"lon":5.37702,"is_reserved":false,"is_disabled":false,"rental_uris":{"android":"levelo://app?vid=46e5be8c-2f7d-43a7-b945-dd9d3618ca5d","ios":"levelo://app?vid=46e5be8c-2f7d-43a7-b945-dd9d3618ca5d"},"vehicle_type_id":"4","last_reported":1747728908,"current_range_meters":20400,"station_id":"ce4bguh2rcd13ifvqcj0","pricing_plan_id":"cebpf4jnsgd1na2vs0mg"},{"bike_id":"4d0e19dd-4dde-49d9-9f17-ead2a0b3671f","system_id":"levelo_inurba_marseille","lat":43.323659,"lon":5.388968,"is_reserved":false,"is_disabled":false,"rental_uris":{"android":"levelo://app?vid=4d0e19dd-4dde-49d9-9f17-ead2a0b3671f","ios":"levelo://app?vid=4d0e19dd-4dde-49d9-9f17-ead2a0b3671f"},"vehicle_type_id":"4","last_reported":1747728908,"current_range_meters":20400,"station_id":"ce4bhqp2rcd13ifvqhog","pricing_plan_id":"cebpf4jnsgd1na2vs0mg"},{"bike_id":"18d4f046-c73b-4ed1-bd45-69ca2f62023e","system_id":"levelo_inurba_marseille","lat":43.22506,"lon":5.34783,"is_reserved":false,"is_disabled":false,"rental_uris":{"android":"levelo://app?vid=18d4f046-c73b-4ed1-bd45-69ca2f62023e","ios":"levelo://app?vid=18d4f046-c73b-4ed1-bd45-69ca2f62023e"},"vehicle_type_id":"4","last_reported":1747728908,"current_range_meters":20400,"station_id":"st_cvj5dfep6f1abm77gieg","pricing_plan_id":"cebpf4jnsgd1na2vs0mg"},{"bike_id":"604027fc-f5ec-49e7-820e-82b3c8b05a0e","system_id":"levelo_inurba_marseille","lat":43.33606,"lon":5.41026,"is_reserved":false,"is_disabled":false,"rental_uris":{"android":"levelo://app?vid=604027fc-f5ec-49e7-820e-82b3c8b05a0e","ios":"levelo://app?vid=604027fc-f5ec-49e7-820e-82b3c8b05a0e"},"vehicle_type_id":"4","last_reported":1747728908,"current_range_meters":20400,"station_id":"ce4bhqh2rcd13ifvqhmg","pricing_plan_id":"cebpf4jnsgd1na2vs0mg"},{"bike_id":"4baa4ef2-f6e2-4570-ad63-549ecddf907c","system_id":"levelo_inurba_marseille","lat":43.2416,"lon":5.39736,"is_reserved":false,"is_disabled":false,"rental_uris":{"android":"levelo://app?vid=4baa4ef2-f6e2-4570-ad63-549ecddf907c","ios":"levelo://app?vid=4baa4ef2-f6e2-4570-ad63-549ecddf907c"},"vehicle_type_id":"4","last_reported":1747728908,"current_range_meters":20400,"station_id":"ce4bhn12rcd13ifvqgpg","pricing_plan_id":"cebpf4jnsgd1na2vs0mg"},{"bike_id":"e428a1bd-3577-4ff5-8710-e4fc25809f52","system_id":"levelo_inurba_marseille","lat":43.25978,"lon":5.40871,"is_reserved":false,"is_disabled":false,"rental_uris":{"android":"levelo://app?vid=e428a1bd-3577-4ff5-8710-e4fc25809f52","ios":"levelo://app?vid=e428a1bd-3577-4ff5-8710-e4fc25809f52"},"vehicle_type_id":"4","last_reported":1747728908,"current_range_meters":20400,"station_id":"","pricing_plan_id":"cebpf4jnsgd1na2vs0mg"},{"bike_id":"8bb7d43c-e583-40c0-9a6a-a2f0c4f03243","system_id":"levelo_inurba_marseille","lat":43.29257,"lon":5.40911,"is_reserved":false,"is_disabled":false,"rental_uris":{"android":"levelo://app?vid=8bb7d43c-e583-40c0-9a6a-a2f0c4f03243","ios":"levelo://app?vid=8bb7d43c-e583-40c0-9a6a-a2f0c4f03243"},"vehicle_type_id":"4","last_reported":1747728908,"current_range_meters":20400,"station_id":"ce4bh192rcd13ifvqdc0","pricing_plan_id":"cebpf4jnsgd1na2vs0mg"},{"bike_id":"0767dbbf-ed3c-4904-92d7-716004b3e1f9","system_id":"levelo_inurba_marseille","lat":43.2558,"lon":5.38227,"is_reserved":false,"is_disabled":false,"rental_uris":{"android":"levelo://app?vid=0767dbbf-ed3c-4904-92d7-716004b3e1f9","ios":"levelo://app?vid=0767dbbf-ed3c-4904-92d7-716004b3e1f9"},"vehicle_type_id":"4","last_reported":1747728908,"current_range_meters":20800,"station_id":"ce4bhih2rcd13ifvqfs0","pricing_plan_id":"cebpf4jnsgd1na2vs0mg"},{"bike_id":"c5c335c5-25a1-4caf-95f0-aa686eb1f5da","system_id":"levelo_inurba_marseille","lat":43.27493,"lon":5.42449,"is_reserved":false,"is_disabled":false,"rental_uris":{"android":"levelo://app?vid=c5c335c5-25a1-4caf-95f0-aa686eb1f5da","ios":"levelo://app?vid=c5c335c5-25a1-4caf-95f0-aa686eb1f5da"},"vehicle_type_id":"4","last_reported":1747728908,"current_range_meters":20800,"station_id":"ce4bhn92rcd13ifvqgrg","pricing_plan_id":"cebpf4jnsgd1na2vs0mg"},{"bike_id":"c9a00e74-029a-454e-8e85-1b3d994b9d78","system_id":"levelo_inurba_marseille","lat":43.21193,"lon":5.35075,"is_reserved":false,"is_disabled":false,"rental_uris":{"android":"levelo://app?vid=c9a00e74-029a-454e-8e85-1b3d994b9d78","ios":"levelo://app?vid=c9a00e74-029a-454e-8e85-1b3d994b9d78"},"vehicle_type_id":"4","last_reported":1747728908,"current_range_meters":20800,"station_id":"st_cvj6sg6p6f1abm77japg","pricing_plan_id":"cebpf4jnsgd1na2vs0mg"},{"bike_id":"b273e346-9696-47ea-9d57-caa0247d35d8","system_id":"levelo_inurba_marseille","lat":43.29785,"lon":5.37094,"is_reserved":false,"is_disabled":false,"rental_uris":{"android":"levelo://app?vid=b273e346-9696-47ea-9d57-caa0247d35d8","ios":"levelo://app?vid=b273e346-9696-47ea-9d57-caa0247d35d8"},"vehicle_type_id":"4","last_reported":1747728908,"current_range_meters":20400,"station_id":"ce4bgop2rcd13ifvqc1g","pricing_plan_id":"cebpf4jnsgd1na2vs0mg"},{"bike_id":"31ae715c-6b49-41e5-9184-e91bcd29e56e","system_id":"levelo_inurba_marseille","lat":43.29571,"lon":5.39996,"is_reserved":false,"is_disabled":false,"rental_uris":{"android":"levelo://app?vid=31ae715c-6b49-41e5-9184-e91bcd29e56e","ios":"levelo://app?vid=31ae715c-6b49-41e5-9184-e91bcd29e56e"},"vehicle_type_id":"4","last_reported":1747728908,"current_range_meters":20800,"station_id":"ce4bh312rcd13ifvqdj0","pricing_plan_id":"cebpf4jnsgd1na2vs0mg"},{"bike_id":"f2d98fe3-4bfa-4e29-8f41-49b4d6b07641","system_id":"levelo_inurba_marseille","lat":43.28274,"lon":5.35059,"is_reserved":false,"is_disabled":false,"rental_uris":{"android":"levelo://app?vid=f2d98fe3-4bfa-4e29-8f41-49b4d6b07641","ios":"levelo://app?vid=f2d98fe3-4bfa-4e29-8f41-49b4d6b07641"},"vehicle_type_id":"4","last_reported":1747728908,"current_range_meters":21600,"station_id":"ce4bhbp2rcd13ifvqerg","pricing_plan_id":"cebpf4jnsgd1na2vs0mg"},{"bike_id":"7ada8452-6732-4564-a5af-54393e32820d","system_id":"levelo_inurba_marseille","lat":43.25081,"lon":5.395283,"is_reserved":false,"is_disabled":false,"rental_uris":{"android":"levelo://app?vid=7ada8452-6732-4564-a5af-54393e32820d","ios":"levelo://app?vid=7ada8452-6732-4564-a5af-54393e32820d"},"vehicle_type_id":"4","last_reported":1747728908,"current_range_meters":21600,"station_id":"ce4bhm12rcd13ifvqgkg","pricing_plan_id":"cebpf4jnsgd1na2vs0mg"},{"bike_id":"542ac1fd-2d85-467d-b75a-a1b97eda7d03","system_id":"levelo_inurba_marseille","lat":43.24075,"lon":5.37755,"is_reserved":false,"is_disabled":false,"rental_uris":{"android":"levelo://app?vid=542ac1fd-2d85-467d-b75a-a1b97eda7d03","ios":"levelo://app?vid=542ac1fd-2d85-467d-b75a-a1b97eda7d03"},"vehicle_type_id":"4","last_reported":1747728908,"current_range_meters":21600,"station_id":"ce4bhnp2rcd13ifvqgvg","pricing_plan_id":"cebpf4jnsgd1na2vs0mg"},{"bike_id":"016a00bb-af13-4514-9cd4-21a572974975","system_id":"levelo_inurba_marseille","lat":43.29909,"lon":5.38143,"is_reserved":false,"is_disabled":false,"rental_uris":{"android":"levelo://app?vid=016a00bb-af13-4514-9cd4-21a572974975","ios":"levelo://app?vid=016a00bb-af13-4514-9cd4-21a572974975"},"vehicle_type_id":"4","last_reported":1747728908,"current_range_meters":21600,"station_id":"ce4bgj12rcd13ifvqbc0","pricing_plan_id":"cebpf4jnsgd1na2vs0mg"},{"bike_id":"2e239f9d-b119-4be2-be67-fa47c5449e87","system_id":"levelo_inurba_marseille","lat":43.2844,"lon":5.39206,"is_reserved":false,"is_disabled":false,"rental_uris":{"android":"levelo://app?vid=2e239f9d-b119-4be2-be67-fa47c5449e87","ios":"levelo://app?vid=2e239f9d-b119-4be2-be67-fa47c5449e87"},"vehicle_type_id":"4","last_reported":1747728908,"current_range_meters":21600,"station_id":"ce4bhoh2rcd13ifvqh5g","pricing_plan_id":"cebpf4jnsgd1na2vs0mg"},{"bike_id":"089a1476-506b-44ea-8a5c-566c4ba6cd05","system_id":"levelo_inurba_marseille","lat":43.24081,"lon":5.37759,"is_reserved":false,"is_disabled":false,"rental_uris":{"android":"levelo://app?vid=089a1476-506b-44ea-8a5c-566c4ba6cd05","ios":"levelo://app?vid=089a1476-506b-44ea-8a5c-566c4ba6cd05"},"vehicle_type_id":"4","last_reported":1747728908,"current_range_meters":22000,"station_id":"ce4bhnp2rcd13ifvqgvg","pricing_plan_id":"cebpf4jnsgd1na2vs0mg"},{"bike_id":"b3794b54-a829-4059-816e-dc2d0c7a333d","system_id":"levelo_inurba_marseille","lat":43.30758,"lon":5.42438,"is_reserved":false,"is_disabled":false,"rental_uris":{"android":"levelo://app?vid=b3794b54-a829-4059-816e-dc2d0c7a333d","ios":"levelo://app?vid=b3794b54-a829-4059-816e-dc2d0c7a333d"},"vehicle_type_id":"4","last_reported":1747728908,"current_range_meters":22000,"station_id":"st_cvj6ca6bvosntc0bfgr0","pricing_plan_id":"cebpf4jnsgd1na2vs0mg"},{"bike_id":"8997f8cb-2fa7-40ee-b294-5afededae1ae","system_id":"levelo_inurba_marseille","lat":43.295325,"lon":5.390434,"is_reserved":false,"is_disabled":false,"rental_uris":{"android":"levelo://app?vid=8997f8cb-2fa7-40ee-b294-5afededae1ae","ios":"levelo://app?vid=8997f8cb-2fa7-40ee-b294-5afededae1ae"},"vehicle_type_id":"4","last_reported":1747728908,"current_range_meters":22400,"station_id":"","pricing_plan_id":"cebpf4jnsgd1na2vs0mg"},{"bike_id":"52ee489c-609e-4f2e-b612-93a39497b386","system_id":"levelo_inurba_marseille","lat":43.31705,"lon":5.40425,"is_reserved":false,"is_disabled":false,"rental_uris":{"android":"levelo://app?vid=52ee489c-609e-4f2e-b612-93a39497b386","ios":"levelo://app?vid=52ee489c-609e-4f2e-b612-93a39497b386"},"vehicle_type_id":"4","last_reported":1747728908,"current_range_meters":22400,"station_id":"ce4bh012rcd13ifvqd00","pricing_plan_id":"cebpf4jnsgd1na2vs0mg"},{"bike_id":"27d44017-435c-4c8a-90c1-38324c23011f","system_id":"levelo_inurba_marseille","lat":43.24066,"lon":5.37773,"is_reserved":false,"is_disabled":false,"rental_uris":{"android":"levelo://app?vid=27d44017-435c-4c8a-90c1-38324c23011f","ios":"levelo://app?vid=27d44017-435c-4c8a-90c1-38324c23011f"},"vehicle_type_id":"4","last_reported":1747728908,"current_range_meters":22400,"station_id":"ce4bhnp2rcd13ifvqgvg","pricing_plan_id":"cebpf4jnsgd1na2vs0mg"},{"bike_id":"32c377c5-5335-4199-8968-242ecd5c8a81","system_id":"levelo_inurba_marseille","lat":43.27202,"lon":5.4099,"is_reserved":false,"is_disabled":false,"rental_uris":{"android":"levelo://app?vid=32c377c5-5335-4199-8968-242ecd5c8a81","ios":"levelo://app?vid=32c377c5-5335-4199-8968-242ecd5c8a81"},