{"last_updated":1706206206,"ttl":30,"version":"2.2","data":{"bikes":[{"bike_id":"8b191fd7-4278-4360-aee8-c943d4c66008","system_id":"levelo_inurba_marseille","lat":43.30908,"lon":5.36839,"is_reserved":false,"is_disabled":false,"rental_uris":{"android":"levelo://app?vid=8b191fd7-4278-4360-aee8-c943d4c66008","ios":"levelo://app?vid=8b191fd7-4278-4360-aee8-c943d4c66008"},"vehicle_type_id":"4","last_reported":1706206206,"current_range_meters":6800,"station_id":"ce4bgn92rcd13ifvqbvg","pricing_plan_id":"free"},{"bike_id":"6e7aac96-a4d1-48d2-9587-335362966592","system_id":"levelo_inurba_marseille","lat":43.314811,"lon":5.373103,"is_reserved":false,"is_disabled":false,"rental_uris":{"android":"levelo://app?vid=6e7aac96-a4d1-48d2-9587-335362966592","ios":"levelo://app?vid=6e7aac96-a4d1-48d2-9587-335362966592"},"vehicle_type_id":"4","last_reported":1706206206,"current_range_meters":16400,"station_id":"ce4bgt12rcd13ifvqcd0","pricing_plan_id":"free"},{"bike_id":"7083a204-0fcb-4eae-a250-104aab0e13b5","system_id":"levelo_inurba_marseille","lat":43.267959,"lon":5.402685,"is_reserved":false,"is_disabled":false,"rental_uris":{"android":"levelo://app?vid=7083a204-0fcb-4eae-a250-104aab0e13b5","ios":"levelo://app?vid=7083a204-0fcb-4eae-a250-104aab0e13b5"},"vehicle_type_id":"4","last_reported":1706206206,"current_range_meters":5600,"station_id":"ce501612rcd8frsf0b60","pricing_plan_id":"free"},{"bike_id":"9443e511-2e2d-41e7-a2cd-4c95bf03992f","system_id":"levelo_inurba_marseille","lat":43.313834,"lon":5.376959,"is_reserved":false,"is_disabled":false,"rental_uris":{"android":"levelo://app?vid=9443e511-2e2d-41e7-a2cd-4c95bf03992f","ios":"levelo://app?vid=9443e511-2e2d-41e7-a2cd-4c95bf03992f"},"vehicle_type_id":"4","last_reported":1706206206,"current_range_meters":19200,"station_id":"","pricing_plan_id":"free"},{"bike_id":"3785b59f-9c9f-4ff3-a098-2f9c64d89173","system_id":"levelo_inurba_marseille","lat":43.305714,"lon":5.365633,"is_reserved":false,"is_disabled":false,"rental_uris":{"android":"levelo://app?vid=3785b59f-9c9f-4ff3-a098-2f9c64d89173","ios":"levelo://app?vid=3785b59f-9c9f-4ff3-a098-2f9c64d89173"},"vehicle_type_id":"4","last_reported":1706206206,"current_range_meters":0,"station_id":"ce4bgs12rcd13ifvqcag","pricing_plan_id":"free"},{"bike_id":"dc68299a-2e75-4b76-86e1-12ebe02506d7","system_id":"levelo_inurba_marseille","lat":43.305989,"lon":5.37225,"is_reserved":false,"is_disabled":false,"rental_uris":{"android":"levelo://app?vid=dc68299a-2e75-4b76-86e1-12ebe02506d7","ios":"levelo://app?vid=dc68299a-2e75-4b76-86e1-12ebe02506d7"},"vehicle_type_id":"4","last_reported":1706206206,"current_range_meters":30000,"station_id":"ce4bgqh2rcd13ifvqc4g","pricing_plan_id":"free"},{"bike_id":"ec186fa3-7d96-4634-92c4-6a8612431d9a","system_id":"levelo_inurba_marseille","lat":43.305989,"lon":5.37225,"is_reserved":false,"is_disabled":false,"rental_uris":{"android":"levelo://app?vid=ec186fa3-7d96-4634-92c4-6a8612431d9a","ios":"levelo://app?vid=ec186fa3-7d96-4634-92c4-6a8612431d9a"},"vehicle_type_id":"4","last_reported":1706206206,"current_range_meters":19200,"station_id":"ce4bgqh2rcd13ifvqc4g","pricing_plan_id":"free"},{"bike_id":"83c0932b-077f-4939-b27a-1fca68bc502d","system_id":"levelo_inurba_marseille","lat":43.311174,"lon":5.377628,"is_reserved":false,"is_disabled":false,"rental_uris":{"android":"levelo://app?vid=83c0932b-077f-4939-b27a-1fca68bc502d","ios":"levelo://app?vid=83c0932b-077f-4939-b27a-1fca68bc502d"},"vehicle_type_id":"4","last_reported":1706206206,"current_range_meters":0,"station_id":"ce4bgt92rcd13ifvqcg0","pricing_plan_id":"free"},{"bike_id":"dcdab3b2-0d24-482d-9449-3e54e1e37931","system_id":"levelo_inurba_marseille","lat":43.311131,"lon":5.377651,"is_reserved":false,"is_disabled":false,"rental_uris":{"android":"levelo://app?vid=dcdab3b2-0d24-482d-9449-3e54e1e37931","ios":"levelo://app?vid=dcdab3b2-0d24-482d-9449-3e54e1e37931"},"vehicle_type_id":"4","last_reported":1706206206,"current_range_meters":28800,"station_id":"ce4bgt92rcd13ifvqcg0","pricing_plan_id":"free"},{"bike_id":"aae4d74b-262e-4565-a112-9e55294f9b2c","system_id":"levelo_inurba_marseille","lat":43.307945,"lon":5.376487,"is_reserved":false,"is_disabled":false,"rental_uris":{"android":"levelo://app?vid=aae4d74b-262e-4565-a112-9e55294f9b2c","ios":"levelo://app?vid=aae4d74b-262e-4565-a112-9e55294f9b2c"},"vehicle_type_id":"4","last_reported":1706206206,"current_range_meters":20400,"station_id":"ce4bgv92rcd13ifvqcq0","pricing_plan_id":"free"},{"bike_id":"755367d9-52a9-4f5e-b598-6e90f4e4f515","system_id":"levelo_inurba_marseille","lat":43.317075,"lon":5.377367,"is_reserved":false,"is_disabled":false,"rental_uris":{"android":"levelo://app?vid=755367d9-52a9-4f5e-b598-6e90f4e4f515","ios":"levelo://app?vid=755367d9-52a9-4f5e-b598-6e90f4e4f515"},"vehicle_type_id":"4","last_reported":1706206206,"current_range_meters":31200,"station_id":"ce4bgth2rcd13ifvqch0","pricing_plan_id":"free"},{"bike_id":"4b263855-72c1-4d97-a72c-54d94373cd81","system_id":"levelo_inurba_marseille","lat":43.317075,"lon":5.377367,"is_reserved":false,"is_disabled":false,"rental_uris":{"android":"levelo://app?vid=4b263855-72c1-4d97-a72c-54d94373cd81","ios":"levelo://app?vid=4b263855-72c1-4d97-a72c-54d94373cd81"},"vehicle_type_id":"4","last_reported":1706206206,"current_range_meters":27200,"station_id":"ce4bgth2rcd13ifvqch0","pricing_plan_id":"free"},{"bike_id":"183bb1c1-398f-466c-b05d-327ac4efc436","system_id":"levelo_inurba_marseille","lat":43.31719,"lon":5.37754,"is_reserved":false,"is_disabled":false,"rental_uris":{"android":"levelo://app?vid=183bb1c1-398f-466c-b05d-327ac4efc436","ios":"levelo://app?vid=183bb1c1-398f-466c-b05d-327ac4efc436"},"vehicle_type_id":"4","last_reported":1706206206,"current_range_meters":21600,"station_id":"ce4bgth2rcd13ifvqch0","pricing_plan_id":"free"},{"bike_id":"bf3d09eb-7245-4477-9e39-2c8e34219bd7","system_id":"levelo_inurba_marseille","lat":43.313571,"lon":5.384829,"is_reserved":false,"is_disabled":false,"rental_uris":{"android":"levelo://app?vid=bf3d09eb-7245-4477-9e39-2c8e34219bd7","ios":"levelo://app?vid=bf3d09eb-7245-4477-9e39-2c8e34219bd7"},"vehicle_type_id":"4","last_reported":1706206206,"current_range_meters":18400,"station_id":"ce4bgt92rcd13ifvqcf0","pricing_plan_id":"free"},{"bike_id":"daf4bbb0-168e-49c4-98be-e51a89f6fcf3","system_id":"levelo_inurba_marseille","lat":43.315284,"lon":5.380364,"is_reserved":false,"is_disabled":false,"rental_uris":{"android":"levelo://app?vid=daf4bbb0-168e-49c4-98be-e51a89f6fcf3","ios":"levelo://app?vid=daf4bbb0-168e-49c4-98be-e51a89f6fcf3"},"vehicle_type_id":"4","last_reported":1706206206,"current_range_meters":19200,"station_id":"ce4bhsp2rcd13ifvqi50","pricing_plan_id":"free"},{"bike_id":"88663f9e-6b79-46cc-a29c-5781acfcc00a","system_id":"levelo_inurba_marseille","lat":43.301939,"lon":5.366286,"is_reserved":false,"is_disabled":false,"rental_uris":{"android":"levelo://app?vid=88663f9e-6b79-46cc-a29c-5781acfcc00a","ios":"levelo://app?vid=88663f9e-6b79-46cc-a29c-5781acfcc00a"},"vehicle_type_id":"4","last_reported":1706206206,"current_range_meters":3200,"station_id":"ce4bgrh2rcd13ifvqc8g","pricing_plan_id":"free"},{"bike_id":"774b3273-7153-4985-a72f-799374b4250e","system_id":"levelo_inurba_marseille","lat":43.30184,"lon":5.36612,"is_reserved":false,"is_disabled":false,"rental_uris":{"android":"levelo://app?vid=774b3273-7153-4985-a72f-799374b4250e","ios":"levelo://app?vid=774b3273-7153-4985-a72f-799374b4250e"},"vehicle_type_id":"4","last_reported":1706206206,"current_range_meters":20000,"station_id":"ce4bgrh2rcd13ifvqc8g","pricing_plan_id":"free"},{"bike_id":"068bcd7c-e579-4cf8-bca8-bfda5f97120e","system_id":"levelo_inurba_marseille","lat":43.322872,"lon":5.382756,"is_reserved":false,"is_disabled":false,"rental_uris":{"android":"levelo://app?vid=068bcd7c-e579-4cf8-bca8-bfda5f97120e","ios":"levelo://app?vid=068bcd7c-e579-4cf8-bca8-bfda5f97120e"},"vehicle_type_id":"4","last_reported":1706206206,"current_range_meters":28400,"station_id":"ce4bhr12rcd13ifvqhqg","pricing_plan_id":"free"},{"bike_id":"7a1be407-dfb2-41b9-96b4-630202f0612d","system_id":"levelo_inurba_marseille","lat":43.307956,"lon":5.381545,"is_reserved":false,"is_disabled":false,"rental_uris":{"android":"levelo://app?vid=7a1be407-dfb2-41b9-96b4-630202f0612d","ios":"levelo://app?vid=7a1be407-dfb2-41b9-96b4-630202f0612d"},"vehicle_type_id":"4","last_reported":1706206206,"current_range_meters":0,"station_id":"ce4bgt12rcd13ifvqce0","pricing_plan_id":"free"},{"bike_id":"521d452d-ddf8-4fa5-ae17-7f299cba0361","system_id":"levelo_inurba_marseille","lat":43.308012,"lon":5.381511,"is_reserved":false,"is_disabled":false,"rental_uris":{"android":"levelo://app?vid=521d452d-ddf8-4fa5-ae17-7f299cba0361","ios":"levelo://app?vid=521d452d-ddf8-4fa5-ae17-7f299cba0361"},"vehicle_type_id":"4","last_reported":1706206206,"current_range_meters":16400,"station_id":"ce4bgt12rcd13ifvqce0","pricing_plan_id":"free"},{"bike_id":"856a3a9f-2aff-40b9-8c48-5e850847ce2f","system_id":"levelo_inurba_marseille","lat":43.308012,"lon":5.381511,"is_reserved":false,"is_disabled":false,"rental_uris":{"android":"levelo://app?vid=856a3a9f-2aff-40b9-8c48-5e850847ce2f","ios":"levelo://app?vid=856a3a9f-2aff-40b9-8c48-5e850847ce2f"},"vehicle_type_id":"4","last_reported":1706206206,"current_range_meters":12000,"station_id":"ce4bgt12rcd13ifvqce0","pricing_plan_id":"free"},{"bike_id":"3cf70ca8-6ba3-4375-be8a-479a05118134","system_id":"levelo_inurba_marseille","lat":43.301429,"lon":5.37413,"is_reserved":false,"is_disabled":false,"rental_uris":{"android":"levelo://app?vid=3cf70ca8-6ba3-4375-be8a-479a05118134","ios":"levelo://app?vid=3cf70ca8-6ba3-4375-be8a-479a05118134"},"vehicle_type_id":"4","last_reported":1706206206,"current_range_meters":13200,"station_id":"ce4bgs92rcd13ifvqcc0","pricing_plan_id":"free"},{"bike_id":"16ce5478-ee5a-4efc-8f4e-2978e7d97038","system_id":"levelo_inurba_marseille","lat":43.301429,"lon":5.37413,"is_reserved":false,"is_disabled":false,"rental_uris":{"android":"levelo://app?vid=16ce5478-ee5a-4efc-8f4e-2978e7d97038","ios":"levelo://app?vid=16ce5478-ee5a-4efc-8f4e-2978e7d97038"},"vehicle_type_id":"4","last_reported":1706206206,"current_range_meters":24800,"station_id":"ce4bgs92rcd13ifvqcc0","pricing_plan_id":"free"},{"bike_id":"b2e6938f-7d5a-4bb7-ab76-1ed6a83c918c","system_id":"levelo_inurba_marseille","lat":43.30143,"lon":5.37413,"is_reserved":false,"is_disabled":false,"rental_uris":{"android":"levelo://app?vid=b2e6938f-7d5a-4bb7-ab76-1ed6a83c918c","ios":"levelo://app?vid=b2e6938f-7d5a-4bb7-ab76-1ed6a83c918c"},"vehicle_type_id":"4","last_reported":1706206206,"current_range_meters":1600,"station_id":"ce4bgs92rcd13ifvqcc0","pricing_plan_id":"free"},{"bike_id":"26b4573e-c1f5-47c9-af77-6214848c1708","system_id":"levelo_inurba_marseille","lat":43.30143,"lon":5.37413,"is_reserved":false,"is_disabled":false,"rental_uris":{"android":"levelo://app?vid=26b4573e-c1f5-47c9-af77-6214848c1708","ios":"levelo://app?vid=26b4573e-c1f5-47c9-af77-6214848c1708"},"vehicle_type_id":"4","last_reported":1706206206,"current_range_meters":3200,"station_id":"ce4bgs92rcd13ifvqcc0","pricing_plan_id":"free"},{"bike_id":"88483b5e-a393-4bfe-9800-1971f45b7e52","system_id":"levelo_inurba_marseille","lat":43.31985,"lon":5.381373,"is_reserved":false,"is_disabled":false,"rental_uris":{"android":"levelo://app?vid=88483b5e-a393-4bfe-9800-1971f45b7e52","ios":"levelo://app?vid=88483b5e-a393-4bfe-9800-1971f45b7e52"},"vehicle_type_id":"4","last_reported":1706206206,"current_range_meters":11600,"station_id":"ce4bhr12rcd13ifvqhpg","pricing_plan_id":"free"},{"bike_id":"db5640b8-520d-4779-8ec1-4a4bc253b2f8","system_id":"levelo_inurba_marseille","lat":43.319843,"lon":5.381395,"is_reserved":false,"is_disabled":false,"rental_uris":{"android":"levelo://app?vid=db5640b8-520d-4779-8ec1-4a4bc253b2f8","ios":"levelo://app?vid=db5640b8-520d-4779-8ec1-4a4bc253b2f8"},"vehicle_type_id":"4","last_reported":1706206206,"current_range_meters":31200,"station_id":"ce4bhr12rcd13ifvqhpg","pricing_plan_id":"free"},{"bike_id":"6a6be1d9-2ea2-4f0e-8d08-20e2444dab9d","system_id":"levelo_inurba_marseille","lat":43.319935,"lon":5.381699,"is_reserved":false,"is_disabled":false,"rental_uris":{"android":"levelo://app?vid=6a6be1d9-2ea2-4f0e-8d08-20e2444dab9d","ios":"levelo://app?vid=6a6be1d9-2ea2-4f0e-8d08-20e2444dab9d"},"vehicle_type_id":"4","last_reported":1706206206,"current_range_meters":23600,"station_id":"ce4bhr12rcd13ifvqhpg","pricing_plan_id":"free"},{"bike_id":"3ce3e68d-0313-40cb-afa9-858c717ce4c9","system_id":"levelo_inurba_marseille","lat":43.319935,"lon":5.381699,"is_reserved":false,"is_disabled":false,"rental_uris":{"android":"levelo://app?vid=3ce3e68d-0313-40cb-afa9-858c717ce4c9","ios":"levelo://app?vid=3ce3e68d-0313-40cb-afa9-858c717ce4c9"},"vehicle_type_id":"4","last_reported":1706206206,"current_range_meters":13600,"station_id":"ce4bhr12rcd13ifvqhpg","pricing_plan_id":"free"},{"bike_id":"a9ac72b8-40e9-40c4-a219-644fc945bcb4","system_id":"levelo_inurba_marseille","lat":43.31993,"lon":5.38143,"is_reserved":false,"is_disabled":false,"rental_uris":{"android":"levelo://app?vid=a9ac72b8-40e9-40c4-a219-644fc945bcb4","ios":"levelo://app?vid=a9ac72b8-40e9-40c4-a219-644fc945bcb4"},"vehicle_type_id":"4","last_reported":1706206206,"current_range_meters":28000,"station_id":"ce4bhr12rcd13ifvqhpg","pricing_plan_id":"free"},{"bike_id":"f50a732b-b159-4f0f-b8c6-762190de2239","system_id":"levelo_inurba_marseille","lat":43.316,"lon":5.38397,"is_reserved":false,"is_disabled":false,"rental_uris":{"android":"levelo://app?vid=f50a732b-b159-4f0f-b8c6-762190de2239","ios":"levelo://app?vid=f50a732b-b159-4f0f-b8c6-762190de2239"},"vehicle_type_id":"4","last_reported":1706206206,"current_range_meters":3200,"station_id":"","pricing_plan_id":"free"},{"bike_id":"fc51b747-b33f-40c9-9c2c-bd6f886bc3e2","system_id":"levelo_inurba_marseille","lat":43.31992,"lon":5.381585,"is_reserved":false,"is_disabled":false,"rental_uris":{"android":"levelo://app?vid=fc51b747-b33f-40c9-9c2c-bd6f886bc3e2","ios":"levelo://app?vid=fc51b747-b33f-40c9-9c2c-bd6f886bc3e2"},"vehicle_type_id":"4","last_reported":1706206206,"current_range_meters":18400,"station_id":"ce4bhr12rcd13ifvqhpg","pricing_plan_id":"free"},{"bike_id":"fd388e30-6c90-4fbf-abdf-dd15ef425659","system_id":"levelo_inurba_marseille","lat":43.319967,"lon":5.381565,"is_reserved":false,"is_disabled":false,"rental_uris":{"android":"levelo://app?vid=fd388e30-6c90-4fbf-abdf-dd15ef425659","ios":"levelo://app?vid=fd388e30-6c90-4fbf-abdf-dd15ef425659"},"vehicle_type_id":"4","last_reported":1706206206,"current_range_meters":13600,"station_id":"ce4bhr12rcd13ifvqhpg","pricing_plan_id":"free"},{"bike_id":"c7b09406-a878-4d1d-9f68-a32988c6424a","system_id":"levelo_inurba_marseille","lat":43.319941,"lon":5.381604,"is_reserved":false,"is_disabled":false,"rental_uris":{"android":"levelo://app?vid=c7b09406-a878-4d1d-9f68-a32988c6424a","ios":"levelo://app?vid=c7b09406-a878-4d1d-9f68-a32988c6424a"},"vehicle_type_id":"4","last_reported":1706206206,"current_range_meters":1600,"station_id":"ce4bhr12rcd13ifvqhpg","pricing_plan_id":"free"},{"bike_id":"a0627ed1-e61a-41ad-8c4a-b19ea8c50a9f","system_id":"levelo_inurba_marseille","lat":43.31993,"lon":5.381616,"is_reserved":false,"is_disabled":false,"rental_uris":{"android":"levelo://app?vid=a0627ed1-e61a-41ad-8c4a-b19ea8c50a9f","ios":"levelo://app?vid=a0627ed1-e61a-41ad-8c4a-b19ea8c50a9f"},"vehicle_type_id":"4","last_reported":1706206206,"current_range_meters":0,"station_id":"ce4bhr12rcd13ifvqhpg","pricing_plan_id":"free"},{"bike_id":"0c88ba3f-bb51-4d10-a436-db12fe4307c7","system_id":"levelo_inurba_marseille","lat":43.302697,"lon":5.378112,"is_reserved":false,"is_disabled":false,"rental_uris":{"android":"levelo://app?vid=0c88ba3f-bb51-4d10-a436-db12fe4307c7","ios":"levelo://app?vid=0c88ba3f-bb51-4d10-a436-db12fe4307c7"},"vehicle_type_id":"4","last_reported":1706206206,"current_range_meters":0,"station_id":"ce4bguh2rcd13ifvqcj0","pricing_plan_id":"free"},{"bike_id":"f6da283a-df97-436d-a961-b28120c49bcb","system_id":"levelo_inurba_marseille","lat":43.302289,"lon":5.377595,"is_reserved":false,"is_disabled":false,"rental_uris":{"android":"levelo://app?vid=f6da283a-df97-436d-a961-b28120c49bcb","ios":"levelo://app?vid=f6da283a-df97-436d-a961-b28120c49bcb"},"vehicle_type_id":"4","last_reported":1706206206,"current_range_meters":13600,"station_id":"ce4bguh2rcd13ifvqcj0","pricing_plan_id":"free"},{"bike_id":"3cce9125-76f4-4a98-9ef8-209a9795ebdc","system_id":"levelo_inurba_marseille","lat":43.313571,"lon":5.384829,"is_reserved":false,"is_disabled":false,"rental_uris":{"android":"levelo://app?vid=3cce9125-76f4-4a98-9ef8-209a9795ebdc","ios":"levelo://app?vid=3cce9125-76f4-4a98-9ef8-209a9795ebdc"},"vehicle_type_id":"4","last_reported":1706206206,"current_range_meters":25600,"station_id":"ce4bgt92rcd13ifvqcf0","pricing_plan_id":"free"},{"bike_id":"17eef6ca-6212-4122-b086-6c2adfe86996","system_id":"levelo_inurba_marseille","lat":43.313571,"lon":5.384829,"is_reserved":false,"is_disabled":false,"rental_uris":{"android":"levelo://app?vid=17eef6ca-6212-4122-b086-6c2adfe86996","ios":"levelo://app?vid=17eef6ca-6212-4122-b086-6c2adfe86996"},"vehicle_type_id":"4","last_reported":1706206206,"current_range_meters":24000,"station_id":"ce4bgt92rcd13ifvqcf0","pricing_plan_id":"free"},{"bike_id":"807ee0ff-f242-4bb9-83c8-91a68dd39a21","system_id":"levelo_inurba_marseille","lat":43.313571,"lon":5.384829,"is_reserved":false,"is_disabled":false,"rental_uris":{"android":"levelo://app?vid=807ee0ff-f242-4bb9-83c8-91a68dd39a21","ios":"levelo://app?vid=807ee0ff-f242-4bb9-83c8-91a68dd39a21"},"vehicle_type_id":"4","last_reported":1706206206,"current_range_meters":27200,"station_id":"ce4bgt92rcd13ifvqcf0","pricing_plan_id":"free"},{"bike_id":"336851b1-ae9c-40ad-be14-90038fda303a","system_id":"levelo_inurba_marseille","lat":43.29877,"lon":5.37199,"is_reserved":false,"is_disabled":false,"rental_uris":{"android":"levelo://app?vid=336851b1-ae9c-40ad-be14-90038fda303a","ios":"levelo://app?vid=336851b1-ae9c-40ad-be14-90038fda303a"},"vehicle_type_id":"4","last_reported":1706206206,"current_range_meters":15600,"station_id":"ce4bhf92rcd13ifvqf50","pricing_plan_id":"free"},{"bike_id":"0f3dd89c-a90d-4466-bcd7-4403ef711725","system_id":"levelo_inurba_marseille","lat":43.322524,"lon":5.381732,"is_reserved":false,"is_disabled":false,"rental_uris":{"android":"levelo://app?vid=0f3dd89c-a90d-4466-bcd7-4403ef711725","ios":"levelo://app?vid=0f3dd89c-a90d-4466-bcd7-4403ef711725"},"vehicle_type_id":"4","last_reported":1706206206,"current_range_meters":14000,"station_id":"ce4bhr12rcd13ifvqhqg","pricing_plan_id":"free"},{"bike_id":"0b9e1ccf-764a-44df-b5ad-0b3d4b4a4b8c","system_id":"levelo_inurba_marseille","lat":43.298433,"lon":5.362774,"is_reserved":false,"is_disabled":false,"rental_uris":{"android":"levelo://app?vid=0b9e1ccf-764a-44df-b5ad-0b3d4b4a4b8c","ios":"levelo://app?vid=0b9e1ccf-764a-44df-b5ad-0b3d4b4a4b8c"},"vehicle_type_id":"4","last_reported":1706206206,"current_range_meters":7600,"station_id":"ce4bgpp2rcd13ifvqc3g","pricing_plan_id":"free"},{"bike_id":"0fb5db00-0d33-447b-91a3-92c79dec222f","system_id":"levelo_inurba_marseille","lat":43.311722,"lon":5.387247,"is_reserved":false,"is_disabled":false,"rental_uris":{"android":"levelo://app?vid=0fb5db00-0d33-447b-91a3-92c79dec222f","ios":"levelo://app?vid=0fb5db00-0d33-447b-91a3-92c79dec222f"},"vehicle_type_id":"4","last_reported":1706206206,"current_range_meters":13200,"station_id":"ce4bgv12rcd13ifvqcp0","pricing_plan_id":"free"},{"bike_id":"10b5473f-76cf-4732-8d1c-a3d99181d412","system_id":"levelo_inurba_marseille","lat":43.311722,"lon":5.387247,"is_reserved":false,"is_disabled":false,"rental_uris":{"android":"levelo://app?vid=10b5473f-76cf-4732-8d1c-a3d99181d412","ios":"levelo://app?vid=10b5473f-76cf-4732-8d1c-a3d99181d412"},"vehicle_type_id":"4","last_reported":1706206206,"current_range_meters":0,"station_id":"ce4bgv12rcd13ifvqcp0","pricing_plan_id":"free"},{"bike_id":"b791274d-b3dc-4fd2-b092-19d5a79ef506","system_id":"levelo_inurba_marseille","lat":43.297803,"lon":5.370973,"is_reserved":false,"is_disabled":false,"rental_uris":{"android":"levelo://app?vid=b791274d-b3dc-4fd2-b092-19d5a79ef506","ios":"levelo://app?vid=b791274d-b3dc-4fd2-b092-19d5a79ef506"},"vehicle_type_id":"4","last_reported":1706206206,"current_range_meters":0,"station_id":"ce4bgop2rcd13ifvqc1g","pricing_plan_id":"free"},{"bike_id":"a2229828-dd63-4456-b17c-a8f47e6d0ee7","system_id":"levelo_inurba_marseille","lat":43.297794,"lon":5.370888,"is_reserved":false,"is_disabled":false,"rental_uris":{"android":"levelo://app?vid=a2229828-dd63-4456-b17c-a8f47e6d0ee7","ios":"levelo://app?vid=a2229828-dd63-4456-b17c-a8f47e6d0ee7"},"vehicle_type_id":"4","last_reported":1706206206,"current_range_meters":12000,"station_id":"ce4bgop2rcd13ifvqc1g","pricing_plan_id":"free"},{"bike_id":"ccf1c033-8dcf-4a9e-92f4-f73b953c453a","system_id":"levelo_inurba_marseille","lat":43.322923,"lon":5.382504,"is_reserved":false,"is_disabled":false,"rental_uris":{"android":"levelo://app?vid=ccf1c033-8dcf-4a9e-92f4-f73b953c453a","ios":"levelo://app?vid=ccf1c033-8dcf-4a9e-92f4-f73b953c453a"},"vehicle_type_id":"4","last_reported":1706206206,"current_range_meters":29200,"station_id":"ce4bhr12rcd13ifvqhqg","pricing_plan_id":"free"},{"bike_id":"392dd5d0-adfb-4014-b456-6fc5ce5022bb","system_id":"levelo_inurba_marseille","lat":43.32284,"lon":5.38267,"is_reserved":false,"is_disabled":false,"rental_uris":{"android":"levelo://app?vid=392dd5d0-adfb-4014-b456-6fc5ce5022bb","ios":"levelo://app?vid=392dd5d0-adfb-4014-b456-6fc5ce5022bb"},"vehicle_type_id":"4","last_reported":1706206206,"current_range_meters":13600,"station_id":"ce4bhr12rcd13ifvqhqg","pricing_plan_id":"free"},{"bike_id":"f94a4d7f-7b13-47ac-9fb4-130261837428","system_id":"levelo_inurba_marseille","lat":43.328042,"lon":5.36668,"is_reserved":false,"is_disabled":false,"rental_uris":{"android":"levelo://app?vid=f94a4d7f-7b13-47ac-9fb4-130261837428","ios":"levelo://app?vid=f94a4d7f-7b13-47ac-9fb4-130261837428"},"vehicle_type_id":"4","last_reported":1706206206,"current_range_meters":24000,"station_id":"ce4bhs92rcd13ifvqi0g","pricing_plan_id":"free"},{"bike_id":"5af28d6f-0ba5-4083-9221-7095385406c3","system_id":"levelo_inurba_marseille","lat":43.32291,"lon":5.38265,"is_reserved":false,"is_disabled":false,"rental_uris":{"android":"levelo://app?vid=5af28d6f-0ba5-4083-9221-7095385406c3","ios":"levelo://app?vid=5af28d6f-0ba5-4083-9221-7095385406c3"},"vehicle_type_id":"4","last_reported":1706206206,"current_range_meters":28800,"station_id":"ce4bhr12rcd13ifvqhqg","pricing_plan_id":"free"},{"bike_id":"6da9db5a-42ba-4fa8-afc9-4fdbb45498c1","system_id":"levelo_inurba_marseille","lat":43.32819,"lon":5.36666,"is_reserved":false,"is_disabled":false,"rental_uris":{"android":"levelo://app?vid=6da9db5a-42ba-4fa8-afc9-4fdbb45498c1","ios":"levelo://app?vid=6da9db5a-42ba-4fa8-afc9-4fdbb45498c1"},"vehicle_type_id":"4","last_reported":1706206206,"current_range_meters":8800,"station_id":"ce4bhs92rcd13ifvqi0g","pricing_plan_id":"free"},{"bike_id":"447532c0-56ca-46ac-9000-fea47d81b433","system_id":"levelo_inurba_marseille","lat":43.32826,"lon":5.36684,"is_reserved":false,"is_disabled":false,"rental_uris":{"android":"levelo://app?vid=447532c0-56ca-46ac-9000-fea47d81b433","ios":"levelo://app?vid=447532c0-56ca-46ac-9000-fea47d81b433"},"vehicle_type_id":"4","last_reported":1706206206,"current_range_meters":17600,"station_id":"ce4bhs92rcd13ifvqi0g","pricing_plan_id":"free"},{"bike_id":"ea0178f3-2c6b-4af6-b062-91b0b8dde1df","system_id":"levelo_inurba_marseille","lat":43.32826,"lon":5.36681,"is_reserved":false,"is_disabled":false,"rental_uris":{"android":"levelo://app?vid=ea0178f3-2c6b-4af6-b062-91b0b8dde1df","ios":"levelo://app?vid=ea0178f3-2c6b-4af6-b062-91b0b8dde1df"},"vehicle_type_id":"4","last_reported":1706206206,"current_range_meters":23600,"station_id":"ce4bhs92rcd13ifvqi0g","pricing_plan_id":"free"},{"bike_id":"e2144cee-6f27-4f74-94a6-27e23191de6d","system_id":"levelo_inurba_marseille","lat":43.32827,"lon":5.36685,"is_reserved":false,"is_disabled":false,"rental_uris":{"android":"levelo://app?vid=e2144cee-6f27-4f74-94a6-27e23191de6d","ios":"levelo://app?vid=e2144cee-6f27-4f74-94a6-27e23191de6d"},"vehicle_type_id":"4","last_reported":1706206206,"current_range_meters":2800,"station_id":"ce4bhs92rcd13ifvqi0g","pricing_plan_id":"free"},{"bike_id":"e92d083a-dfb9-464f-a2d7-ffc480709cb3","system_id":"levelo_inurba_marseille","lat":43.328371,"lon":5.366909,"is_reserved":false,"is_disabled":false,"rental_uris":{"android":"levelo://app?vid=e92d083a-dfb9-464f-a2d7-ffc480709cb3","ios":"levelo://app?vid=e92d083a-dfb9-464f-a2d7-ffc480709cb3"},"vehicle_type_id":"4","last_reported":1706206206,"current_range_meters":25600,"station_id":"ce4bhs92rcd13ifvqi0g","pricing_plan_id":"free"},{"bike_id":"d8b5260c-205c-4300-9784-22ead2fde86f","system_id":"levelo_inurba_marseille","lat":43.328371,"lon":5.366909,"is_reserved":false,"is_disabled":false,"rental_uris":{"android":"levelo://app?vid=d8b5260c-205c-4300-9784-22ead2fde86f","ios":"levelo://app?vid=d8b5260c-205c-4300-9784-22ead2fde86f"},"vehicle_type_id":"4","last_reported":1706206206,"current_range_meters":9200,"station_id":"ce4bhs92rcd13ifvqi0g","pricing_plan_id":"free"},{"bike_id":"b6e8d400-b2fb-4802-8d40-97fb864a35e1","system_id":"levelo_inurba_marseille","lat":43.328371,"lon":5.366909,"is_reserved":false,"is_disabled":false,"rental_uris":{"android":"levelo://app?vid=b6e8d400-b2fb-4802-8d40-97fb864a35e1","ios":"levelo://app?vid=b6e8d400-b2fb-4802-8d40-97fb864a35e1"},"vehicle_type_id":"4","last_reported":1706206206,"current_range_meters":19200,"station_id":"ce4bhs92rcd13ifvqi0g","pricing_plan_id":"free"},{"bike_id":"85cedcff-9e9a-415d-8415-195178ea3cb7","system_id":"levelo_inurba_marseille","lat":43.328283,"lon":5.366837,"is_reserved":false,"is_disabled":false,"rental_uris":{"android":"levelo://app?vid=85cedcff-9e9a-415d-8415-195178ea3cb7","ios":"levelo://app?vid=85cedcff-9e9a-415d-8415-195178ea3cb7"},"vehicle_type_id":"4","last_reported":1706206206,"current_range_meters":25600,"station_id":"ce4bhs92rcd13ifvqi0g","pricing_plan_id":"free"},{"bike_id":"25cdecd3-d3e3-4864-a82a-85037d046040","system_id":"levelo_inurba_marseille","lat":43.328371,"lon":5.366912,"is_reserved":false,"is_disabled":false,"rental_uris":{"android":"levelo://app?vid=25cdecd3-d3e3-4864-a82a-85037d046040","ios":"levelo://app?vid=25cdecd3-d3e3-4864-a82a-85037d046040"},"vehicle_type_id":"4","last_reported":1706206206,"current_range_meters":10400,"station_id":"ce4bhs92rcd13ifvqi0g","pricing_plan_id":"free"},{"bike_id":"3c7b3d8b-c591-404f-a359-5ae2227b620e","system_id":"levelo_inurba_marseille","lat":43.328371,"lon":5.366909,"is_reserved":false,"is_disabled":false,"rental_uris":{"android":"levelo://app?vid=3c7b3d8b-c591-404f-a359-5ae2227b620e","ios":"levelo://app?vid=3c7b3d8b-c591-404f-a359-5ae2227b620e"},"vehicle_type_id":"4","last_reported":1706206206,"current_range_meters":15600,"station_id":"ce4bhs92rcd13ifvqi0g","pricing_plan_id":"free"},{"bike_id":"79d2d98a-29f2-4ffd-ae01-bfd8a1fa05d5","system_id":"levelo_inurba_marseille","lat":43.328371,"lon":5.366912,"is_reserved":false,"is_disabled":false,"rental_uris":{"android":"levelo://app?vid=79d2d98a-29f2-4ffd-ae01-bfd8a1fa05d5","ios":"levelo://app?vid=79d2d98a-29f2-4ffd-ae01-bfd8a1fa05d5"},"vehicle_type_id":"4","last_reported":1706206206,"current_range_meters":21200,"station_id":"ce4bhs92rcd13ifvqi0g","pricing_plan_id":"free"},{"bike_id":"38d4b3c6-c1c4-4ada-b0ed-8e6826ac2770","system_id":"levelo_inurba_marseille","lat":43.328371,"lon":5.366909,"is_reserved":false,"is_disabled":false,"rental_uris":{"android":"levelo://app?vid=38d4b3c6-c1c4-4ada-b0ed-8e6826ac2770","ios":"levelo://app?vid=38d4b3c6-c1c4-4ada-b0ed-8e6826ac2770"},"vehicle_type_id":"4","last_reported":1706206206,"current_range_meters":31200,"station_id":"ce4bhs92rcd13ifvqi0g","pricing_plan_id":"free"},{"bike_id":"204738f6-469d-4db3-bd14-c2b38ef5e726","system_id":"levelo_inurba_marseille","lat":43.328371,"lon":5.366912,"is_reserved":false,"is_disabled":false,"rental_uris":{"android":"levelo://app?vid=204738f6-469d-4db3-bd14-c2b38ef5e726","ios":"levelo://app?vid=204738f6-469d-4db3-bd14-c2b38ef5e726"},"vehicle_type_id":"4","last_reported":1706206206,"current_range_meters":15200,"station_id":"ce4bhs92rcd13ifvqi0g","pricing_plan_id":"free"},{"bike_id":"74be4058-7d5d-4760-af80-cdb5621b2606","system_id":"levelo_inurba_marseille","lat":43.29573,"lon":5.367355,"is_reserved":false,"is_disabled":false,"rental_uris":{"android":"levelo://app?vid=74be4058-7d5d-4760-af80-cdb5621b2606","ios":"levelo://app?vid=74be4058-7d5d-4760-af80-cdb5621b2606"},"vehicle_type_id":"4","last_reported":1706206206,"current_range_meters":13600,"station_id":"ce4bgph2rcd13ifvqc2g","pricing_plan_id":"free"},{"bike_id":"9eb8fd79-d9e0-480d-99a5-a70b591027ce","system_id":"levelo_inurba_marseille","lat":43.295523,"lon":5.422926,"is_reserved":false,"is_disabled":false,"rental_uris":{"android":"levelo://app?vid=9eb8fd79-d9e0-480d-99a5-a70b591027ce","ios":"levelo://app?vid=9eb8fd79-d9e0-480d-99a5-a70b591027ce"},"vehicle_type_id":"4","last_reported":1706206206,"current_range_meters":1600,"station_id":"ce4bhph2rcd13ifvqhdg","pricing_plan_id":"free"},{"bike_id":"c94eb25a-2bce-48e5-92e5-b276151cdb57","system_id":"levelo_inurba_marseille","lat":43.309589,"lon":5.390258,"is_reserved":false,"is_disabled":false,"rental_uris":{"android":"levelo://app?vid=c94eb25a-2bce-48e5-92e5-b276151cdb57","ios":"levelo://app?vid=c94eb25a-2bce-48e5-92e5-b276151cdb57"},"vehicle_type_id":"4","last_reported":1706206206,"current_range_meters":3200,"station_id":"ce4bgup2rcd13ifvqco0","pricing_plan_id":"free"},{"bike_id":"e13d56fd-5dd6-41f6-ba98-c19e3c5469c5","system_id":"levelo_inurba_marseille","lat":43.309589,"lon":5.390258,"is_reserved":false,"is_disabled":false,"rental_uris":{"android":"levelo://app?vid=e13d56fd-5dd6-41f6-ba98-c19e3c5469c5","ios":"levelo://app?vid=e13d56fd-5dd6-41f6-ba98-c19e3c5469c5"},"vehicle_type_id":"4","last_reported":1706206206,"current_range_meters":12000,"station_id":"ce4bgup2rcd13ifvqco0","pricing_plan_id":"free"},{"bike_id":"30369b9f-37ad-4ed2-9d1c-8f4e6325c2ae","system_id":"levelo_inurba_marseille","lat":43.309589,"lon":5.390258,"is_reserved":false,"is_disabled":false,"rental_uris":{"android":"levelo://app?vid=30369b9f-37ad-4ed2-9d1c-8f4e6325c2ae","ios":"levelo://app?vid=30369b9f-37ad-4ed2-9d1c-8f4e6325c2ae"},"vehicle_type_id":"4","last_reported":1706206206,"current_range_meters":8000,"station_id":"ce4bgup2rcd13ifvqco0","pricing_plan_id":"free"},{"bike_id":"27036196-8736-4bbd-ab5b-e5fc5246fd9e","system_id":"levelo_inurba_marseille","lat":43.309589,"lon":5.390258,"is_reserved":false,"is_disabled":false,"rental_uris":{"android":"levelo://app?vid=27036196-8736-4bbd-ab5b-e5fc5246fd9e","ios":"levelo://app?vid=27036196-8736-4bbd-ab5b-e5fc5246fd9e"},"vehicle_type_id":"4","last_reported":1706206206,"current_range_meters":4400,"station_id":"ce4bgup2rcd13ifvqco0","pricing_plan_id":"free"},{"bike_id":"41ca883f-d006-4887-8a0e-31e7b65be197","system_id":"levelo_inurba_marseille","lat":43.309589,"lon":5.390258,"is_reserved":false,"is_disabled":false,"rental_uris":{"android":"levelo://app?vid=41ca883f-d006-4887-8a0e-31e7b65be197","ios":"levelo://app?vid=41ca883f-d006-4887-8a0e-31e7b65be197"},"vehicle_type_id":"4","last_reported":1706206206,"current_range_meters":14000,"station_id":"ce4bgup2rcd13ifvqco0","pricing_plan_id":"free"},{"bike_id":"743b87f2-540e-43dc-8522-ff946c5e2433","system_id":"levelo_inurba_marseille","lat":43.309589,"lon":5.390258,"is_reserved":false,"is_disabled":false,"rental_uris":{"android":"levelo://app?vid=743b87f2-540e-43dc-8522-ff946c5e2433","ios":"levelo://app?vid=743b87f2-540e-43dc-8522-ff946c5e2433"},"vehicle_type_id":"4","last_reported":1706206206,"current_range_meters":21600,"station_id":"ce4bgup2rcd13ifvqco0","pricing_plan_id":"free"},{"bike_id":"91447b2f-bf8d-46b4-8c4b-581d15d22e37","system_id":"levelo_inurba_marseille","lat":43.309589,"lon":5.390258,"is_reserved":false,"is_disabled":false,"rental_uris":{"android":"levelo://app?vid=91447b2f-bf8d-46b4-8c4b-581d15d22e37","ios":"levelo://app?vid=91447b2f-bf8d-46b4-8c4b-581d15d22e37"},"vehicle_type_id":"4","last_reported":1706206206,"current_range_meters":1200,"station_id":"ce4bgup2rcd13ifvqco0","pricing_plan_id":"free"},{"bike_id":"6951a0b9-e38d-44aa-b238-22ad2dc77e38","system_id":"levelo_inurba_marseille","lat":43.298037,"lon":5.381066,"is_reserved":false,"is_disabled":false,"rental_uris":{"android":"levelo://app?vid=6951a0b9-e38d-44aa-b238-22ad2dc77e38","ios":"levelo://app?vid=6951a0b9-e38d-44aa-b238-22ad2dc77e38"},"vehicle_type_id":"4","last_reported":1706206206,"current_range_meters":3200,"station_id":"ce4bgip2rcd13ifvqbb0","pricing_plan_id":"free"},{"bike_id":"55539d7f-3ef6-4a48-b79a-8d9882baea4c","system_id":"levelo_inurba_marseille","lat":43.304278,"lon":5.388868,"is_reserved":false,"is_disabled":false,"rental_uris":{"android":"levelo://app?vid=55539d7f-3ef6-4a48-b79a-8d9882baea4c","ios":"levelo://app?vid=55539d7f-3ef6-4a48-b79a-8d9882baea4c"},"vehicle_type_id":"4","last_reported":1706206206,"current_range_meters":20000,"station_id":"ce4bgk12rcd13ifvqbi0","pricing_plan_id":"free"},{"bike_id":"e5cca53b-7639-44d3-aa25-902e9cc6d38f","system_id":"levelo_inurba_marseille","lat":43.295748,"lon":5.37522,"is_reserved":false,"is_disabled":false,"rental_uris":{"android":"levelo://app?vid=e5cca53b-7639-44d3-aa25-902e9cc6d38f","ios":"levelo://app?vid=e5cca53b-7639-44d3-aa25-902e9cc6d38f"},"vehicle_type_id":"4","last_reported":1706206206,"current_range_meters":0,"station_id":"ce4bgh92rcd13ifvqb50","pricing_plan_id":"free"},{"bike_id":"77eefc6e-5e2a-4910-91f0-2f22aed3f42f","system_id":"levelo_inurba_marseille","lat":43.2936,"lon":5.37835,"is_reserved":false,"is_disabled":false,"rental_uris":{"android":"levelo://app?vid=77eefc6e-5e2a-4910-91f0-2f22aed3f42f","ios":"levelo://app?vid=77eefc6e-5e2a-4910-91f0-2f22aed3f42f"},"vehicle_type_id":"4","last_reported":1706206206,"current_range_meters":14400,"station_id":"ce4bgjh2rcd13ifvqbf0","pricing_plan_id":"free"},{"bike_id":"eb217a95-c4d4-447c-adbb-eca789abb5ec","system_id":"levelo_inurba_marseille","lat":43.304278,"lon":5.388868,"is_reserved":false,"is_disabled":false,"rental_uris":{"android":"levelo://app?vid=eb217a95-c4d4-447c-adbb-eca789abb5ec","ios":"levelo://app?vid=eb217a95-c4d4-447c-adbb-eca789abb5ec"},"vehicle_type_id":"4","last_reported":1706206206,"current_range_meters":13200,"station_id":"ce4bgk12rcd13ifvqbi0","pricing_plan_id":"free"},{"bike_id":"da44df83-b885-4716-bdf2-76c492bf2ae9","system_id":"levelo_inurba_marseille","lat":43.296263,"lon":5.377094,"is_reserved":false,"is_disabled":false,"rental_uris":{"android":"levelo://app?vid=da44df83-b885-4716-bdf2-76c492bf2ae9","ios":"levelo://app?vid=da44df83-b885-4716-bdf2-76c492bf2ae9"},"vehicle_type_id":"4","last_reported":1706206206,"current_range_meters":0,"station_id":"ce4bgi92rcd13ifvqb90","pricing_plan_id":"free"},{"bike_id":"afbfc616-744c-409e-9fab-c33cebb0d092","system_id":"levelo_inurba_marseille","lat":43.298037,"lon":5.381066,"is_reserved":false,"is_disabled":false,"rental_uris":{"android":"levelo://app?vid=afbfc616-744c-409e-9fab-c33cebb0d092","ios":"levelo://app?vid=afbfc616-744c-409e-9fab-c33cebb0d092"},"vehicle_type_id":"4","last_reported":1706206206,"current_range_meters":13600,"station_id":"ce4bgip2rcd13ifvqbb0","pricing_plan_id":"free"},{"bike_id":"dfe5d05e-a80f-4a90-8458-4b08053b0ea2","system_id":"levelo_inurba_marseille","lat":43.299717,"lon":5.384845,"is_reserved":false,"is_disabled":false,"rental_uris":{"android":"levelo://app?vid=dfe5d05e-a80f-4a90-8458-4b08053b0ea2","ios":"levelo://app?vid=dfe5d05e-a80f-4a90-8458-4b08053b0ea2"},"vehicle_type_id":"4","last_reported":1706206206,"current_range_meters":1600,"station_id":"ce4bgj92rcd13ifvqbd0","pricing_plan_id":"free"},{"bike_id":"ac58d459-18be-42d4-946f-baadbff265d8","system_id":"levelo_inurba_marseille","lat":43.295279,"lon":5.375048,"is_reserved":false,"is_disabled":false,"rental_uris":{"android":"levelo://app?vid=ac58d459-18be-42d4-946f-baadbff265d8","ios":"levelo://app?vid=ac58d459-18be-42d4-946f-baadbff265d8"},"vehicle_type_id":"4","last_reported":1706206206,"current_range_meters":25200,"station_id":"ce4bgkp2rcd13ifvqbmg","pricing_plan_id":"free"},{"bike_id":"7fd1f6a7-1812-4260-bbdf-cb2e51ec17e6","system_id":"levelo_inurba_marseille","lat":43.29972,"lon":5.38487,"is_reserved":false,"is_disabled":false,"rental_uris":{"android":"levelo://app?vid=7fd1f6a7-1812-4260-bbdf-cb2e51ec17e6","ios":"levelo://app?vid=7fd1f6a7-1812-4260-bbdf-cb2e51ec17e6"},"vehicle_type_id":"4","last_reported":1706206206,"current_range_meters":0,"station_id":"ce4bgj92rcd13ifvqbd0","pricing_plan_id":"free"},{"bike_id":"3d56a014-fa17-4ef5-83dc-b88c0f3418bb","system_id":"levelo_inurba_marseille","lat":43.299707,"lon":5.384859,"is_reserved":false,"is_disabled":false,"rental_uris":{"android":"levelo://app?vid=3d56a014-fa17-4ef5-83dc-b88c0f3418bb","ios":"levelo://app?vid=3d56a014-fa17-4ef5-83dc-b88c0f3418bb"},"vehicle_type_id":"4","last_reported":1706206206,"current_range_meters":19600,"station_id":"ce4bgj92rcd13ifvqbd0","pricing_plan_id":"free"},{"bike_id":"e823cd3c-6ff0-4dc1-b66f-6f17a2ff6def","system_id":"levelo_inurba_marseille","lat":43.299707,"lon":5.384859,"is_reserved":false,"is_disabled":false,"rental_uris":{"android":"levelo://app?vid=e823cd3c-6ff0-4dc1-b66f-6f17a2ff6def","ios":"levelo://app?vid=e823cd3c-6ff0-4dc1-b66f-6f17a2ff6def"},"vehicle_type_id":"4","last_reported":1706206206,"current_range_meters":5200,"station_id":"ce4bgj92rcd13ifvqbd0","pricing_plan_id":"free"},{"bike_id":"dfe198c8-ae91-43aa-ad24-78d077857997","system_id":"levelo_inurba_marseille","lat":43.299717,"lon":5.384845,"is_reserved":false,"is_disabled":false,"rental_uris":{"android":"levelo://app?vid=dfe198c8-ae91-43aa-ad24-78d077857997","ios":"levelo://app?vid=dfe198c8-ae91-43aa-ad24-78d077857997"},"vehicle_type_id":"4","last_reported":1706206206,"current_range_meters":12000,"station_id":"ce4bgj92rcd13ifvqbd0","pricing_plan_id":"free"},{"bike_id":"72281263-ffff-4cc2-93be-d47c3205dc8d","system_id":"levelo_inurba_marseille","lat":43.299724,"lon":5.384848,"is_reserved":false,"is_disabled":false,"rental_uris":{"android":"levelo://app?vid=72281263-ffff-4cc2-93be-d47c3205dc8d","ios":"levelo://app?vid=72281263-ffff-4cc2-93be-d47c3205dc8d"},"vehicle_type_id":"4","last_reported":1706206206,"current_range_meters":4400,"station_id":"ce4bgj92rcd13ifvqbd0","pricing_plan_id":"free"},{"bike_id":"1b77f93c-c3e4-4823-99d7-2ae997b1c834","system_id":"levelo_inurba_marseille","lat":43.32367,"lon":5.388836,"is_reserved":false,"is_disabled":false,"rental_uris":{"android":"levelo://app?vid=1b77f93c-c3e4-4823-99d7-2ae997b1c834","ios":"levelo://app?vid=1b77f93c-c3e4-4823-99d7-2ae997b1c834"},"vehicle_type_id":"4","last_reported":1706206206,"current_range_meters":14400,"station_id":"ce4bhqp2rcd13ifvqhog","pricing_plan_id":"free"},{"bike_id":"40996b4a-fac6-4cc2-a8e8-9a9ba72f10c9","system_id":"levelo_inurba_marseille","lat":43.298614,"lon":5.383962,"is_reserved":false,"is_disabled":false,"rental_uris":{"android":"levelo://app?vid=40996b4a-fac6-4cc2-a8e8-9a9ba72f10c9","ios":"levelo://app?vid=40996b4a-fac6-4cc2-a8e8-9a9ba72f10c9"},"vehicle_type_id":"4","last_reported":1706206206,"current_range_meters":16000,"station_id":"","pricing_plan_id":"free"},{"bike_id":"80d38eac-433a-4419-9c67-47adff43f90d","system_id":"levelo_inurba_marseille","lat":43.32367,"lon":5.388836,"is_reserved":false,"is_disabled":false,"rental_uris":{"android":"levelo://app?vid=80d38eac-433a-4419-9c67-47adff43f90d","ios":"levelo://app?vid=80d38eac-433a-4419-9c67-47adff43f90d"},"vehicle_type_id":"4","last_reported":1706206206,"current_range_meters":22000,"station_id":"ce4bhqp2rcd13ifvqhog","pricing_plan_id":"free"},{"bike_id":"563280c2-3b1d-4cc7-b4fb-98ccef3d7f27","system_id":"levelo_inurba_marseille","lat":43.32367,"lon":5.388836,"is_reserved":false,"is_disabled":false,"rental_uris":{"android":"levelo://app?vid=563280c2-3b1d-4cc7-b4fb-98ccef3d7f27","ios":"levelo://app?vid=563280c2-3b1d-4cc7-b4fb-98ccef3d7f27"},"vehicle_type_id":"4","last_reported":1706206206,"current_range_meters":20800,"station_id":"ce4bhqp2rcd13ifvqhog","pricing_plan_id":"free"},{"bike_id":"e25f5247-dfd6-4d3d-980f-9a02b720acea","system_id":"levelo_inurba_marseille","lat":43.32367,"lon":5.388836,"is_reserved":false,"is_disabled":false,"rental_uris":{"android":"levelo://app?vid=e25f5247-dfd6-4d3d-980f-9a02b720acea","ios":"levelo://app?vid=e25f5247-dfd6-4d3d-980f-9a02b720acea"},"vehicle_type_id":"4","last_reported":1706206206,"current_range_meters":16400,"station_id":"ce4bhqp2rcd13ifvqhog","pricing_plan_id":"free"},{"bike_id":"64876903-6e64-41f2-a6cf-a42f719b77fb","system_id":"levelo_inurba_marseille","lat":43.32367,"lon":5.388836,"is_reserved":false,"is_disabled":false,"rental_uris":{"android":"levelo://app?vid=64876903-6e64-41f2-a6cf-a42f719b77fb","ios":"levelo://app?vid=64876903-6e64-41f2-a6cf-a42f719b77fb"},"vehicle_type_id":"4","last_reported":1706206206,"current_range_meters":19600,"station_id":"ce4bhqp2rcd13ifvqhog","pricing_plan_id":"free"},{"bike_id":"5c49c01a-bb90-4495-8e42-7e20df493208","system_id":"levelo_inurba_marseille","lat":43.32372,"lon":5.38876,"is_reserved":false,"is_disabled":false,"rental_uris":{"android":"levelo://app?vid=5c49c01a-bb90-4495-8e42-7e20df493208","ios":"levelo://app?vid=5c49c01a-bb90-4495-8e42-7e20df493208"},"vehicle_type_id":"4","last_reported":1706206206,"current_range_meters":10800,"station_id":"ce4bhqp2rcd13ifvqhog","pricing_plan_id":"free"},{"bike_id":"075afd40-a026-497a-805c-5cc1d1b2d8bd","system_id":"levelo_inurba_marseille","lat":43.32367,"lon":5.388836,"is_reserved":false,"is_disabled":false,"rental_uris":{"android":"levelo://app?vid=075afd40-a026-497a-805c-5cc1d1b2d8bd","ios":"levelo://app?vid=075afd40-a026-497a-805c-5cc1d1b2d8bd"},"vehicle_type_id":"4","last_reported":1706206206,"current_range_meters":3200,"station_id":"ce4bhqp2rcd13ifvqhog","pricing_plan_id":"free"},{"bike_id":"6d4e98a9-3b8c-4251-9bc4-f50fadfe25a7","system_id":"levelo_inurba_marseille","lat":43.32367,"lon":5.388836,"is_reserved":false,"is_disabled":false,"rental_uris":{"android":"levelo://app?vid=6d4e98a9-3b8c-4251-9bc4-f50fadfe25a7","ios":"levelo://app?vid=6d4e98a9-3b8c-4251-9bc4-f50fadfe25a7"},"vehicle_type_id":"4","last_reported":1706206206,"current_range_meters":28000,"station_id":"ce4bhqp2rcd13ifvqhog","pricing_plan_id":"free"},{"bike_id":"e5d5f999-009a-4b60-b575-37e7ff60d4fc","system_id":"levelo_inurba_marseille","lat":43.32369,"lon":5.38887,"is_reserved":false,"is_disabled":false,"rental_uris":{"android":"levelo://app?vid=e5d5f999-009a-4b60-b575-37e7ff60d4fc","ios":"levelo://app?vid=e5d5f999-009a-4b60-b575-37e7ff60d4fc"},"vehicle_type_id":"4","last_reported":1706206206,"current_range_meters":22800,"station_id":"ce4bhqp2rcd13ifvqhog","pricing_plan_id":"free"},{"bike_id":"394ab8f4-1f75-4dcc-b064-47ac26370c07","system_id":"levelo_inurba_marseille","lat":43.32367,"lon":5.388836,"is_reserved":false,"is_disabled":false,"rental_uris":{"android":"levelo://app?vid=394ab8f4-1f75-4dcc-b064-47ac26370c07","ios":"levelo://app?vid=394ab8f4-1f75-4dcc-b064-47ac26370c07"},"vehicle_type_id":"4","last_reported":1706206206,"current_range_meters":6000,"station_id":"ce4bhqp2rcd13ifvqhog","pricing_plan_id":"free"},{"bike_id":"ed72a111-7c71-4b3c-b48d-08df2ffeaa5e","system_id":"levelo_inurba_marseille","lat":43.302674,"lon":5.390044,"is_reserved":false,"is_disabled":false,"rental_uris":{"android":"levelo://app?vid=ed72a111-7c71-4b3c-b48d-08df2ffeaa5e","ios":"levelo://app?vid=ed72a111-7c71-4b3c-b48d-08df2ffeaa5e"},"vehicle_type_id":"4","last_reported":1706206206,"current_range_meters":0,"station_id":"ce4bgkh2rcd13ifvqbk0","pricing_plan_id":"free"},{"bike_id":"889aedd8-f644-48b4-b338-b1cb5b2c787e","system_id":"levelo_inurba_marseille","lat":43.292749,"lon":5.368402,"is_reserved":false,"is_disabled":false,"rental_uris":{"android":"levelo://app?vid=889aedd8-f644-48b4-b338-b1cb5b2c787e","ios":"levelo://app?vid=889aedd8-f644-48b4-b338-b1cb5b2c787e"},"vehicle_type_id":"4","last_reported":1706206206,"current_range_meters":6000,"station_id":"ce4bhbp2rcd13ifvqesg","pricing_plan_id":"free"},{"bike_id":"39c32432-d4ae-4a45-8397-4c438b910d2f","system_id":"levelo_inurba_marseille","lat":43.292749,"lon":5.368402,"is_reserved":false,"is_disabled":false,"rental_uris":{"android":"levelo://app?vid=39c32432-d4ae-4a45-8397-4c438b910d2f","ios":"levelo://app?vid=39c32432-d4ae-4a45-8397-4c438b910d2f"},"vehicle_type_id":"4","last_reported":1706206206,"current_range_meters":22000,"station_id":"ce4bhbp2rcd13ifvqesg","pricing_plan_id":"free"},{"bike_id":"3380eed1-abb9-4ffb-be79-9c7c6f2fd149","system_id":"levelo_inurba_marseille","lat":43.293259,"lon":5.371586,"is_reserved":false,"is_disabled":false,"rental_uris":{"android":"levelo://app?vid=3380eed1-abb9-4ffb-be79-9c7c6f2fd149","ios":"levelo://app?vid=3380eed1-abb9-4ffb-be79-9c7c6f2fd149"},"vehicle_type_id":"4","last_reported":1706206206,"current_range_meters":19200,"station_id":"ce4bgh92rcd13ifvqb40","pricing_plan_id":"free"},{"bike_id":"805cfed1-cd74-48ba-93f3-ff0a258d226e","system_id":"levelo_inurba_marseille","lat":43.303088,"lon":5.392124,"is_reserved":false,"is_disabled":false,"rental_uris":{"android":"levelo://app?vid=805cfed1-cd74-48ba-93f3-ff0a258d226e","ios":"levelo://app?vid=805cfed1-cd74-48ba-93f3-ff0a258d226e"},"vehicle_type_id":"4","last_reported":1706206206,"current_range_meters":0,"station_id":"","pricing_plan_id":"free"},{"bike_id":"8fc830cd-b36c-427c-956b-737206be8ce9","system_id":"levelo_inurba_marseille","lat":43.303031,"lon":5.392106,"is_reserved":false,"is_disabled":false,"rental_uris":{"android":"levelo://app?vid=8fc830cd-b36c-427c-956b-737206be8ce9","ios":"levelo://app?vid=8fc830cd-b36c-427c-956b-737206be8ce9"},"vehicle_type_id":"4","last_reported":1706206206,"current_range_meters":400,"station_id":"ce4bgkh2rcd13ifvqbk0","pricing_plan_id":"free"},{"bike_id":"b757e87b-3751-4bdd-b4d1-1d4288d5f493","system_id":"levelo_inurba_marseille","lat":43.302992,"lon":5.392136,"is_reserved":false,"is_disabled":false,"rental_uris":{"android":"levelo://app?vid=b757e87b-3751-4bdd-b4d1-1d4288d5f493","ios":"levelo://app?vid=b757e87b-3751-4bdd-b4d1-1d4288d5f493"},"vehicle_type_id":"4","last_reported":1706206206,"current_range_meters":5200,"station_id":"ce4bgkh2rcd13ifvqbk0","pricing_plan_id":"free"},{"bike_id":"39b1af4c-08bf-40dd-a32f-b7f022ec3bf6","system_id":"levelo_inurba_marseille","lat":43.2936,"lon":5.37835,"is_reserved":false,"is_disabled":false,"rental_uris":{"android":"levelo://app?vid=39b1af4c-08bf-40dd-a32f-b7f022ec3bf6","ios":"levelo://app?vid=39b1af4c-08bf-40dd-a32f-b7f022ec3bf6"},"vehicle_type_id":"4","last_reported":1706206206,"current_range_meters":14400,"station_id":"ce4bgjh2rcd13ifvqbf0","pricing_plan_id":"free"},{"bike_id":"a8b671d3-26f2-4a34-a008-04ca8b62e97d","system_id":"levelo_inurba_marseille","lat":43.300852,"lon":5.390859,"is_reserved":false,"is_disabled":false,"rental_uris":{"android":"levelo://app?vid=a8b671d3-26f2-4a34-a008-04ca8b62e97d","ios":"levelo://app?vid=a8b671d3-26f2-4a34-a008-04ca8b62e97d"},"vehicle_type_id":"4","last_reported":1706206206,"current_range_meters":4800,"station_id":"ce4bh192rcd13ifvqdb0","pricing_plan_id":"free"},{"bike_id":"b864b0a7-7f44-4d4a-a01c-58a82f350b74","system_id":"levelo_inurba_marseille","lat":43.300852,"lon":5.390859,"is_reserved":false,"is_disabled":false,"rental_uris":{"android":"levelo://app?vid=b864b0a7-7f44-4d4a-a01c-58a82f350b74","ios":"levelo://app?vid=b864b0a7-7f44-4d4a-a01c-58a82f350b74"},"vehicle_type_id":"4","last_reported":1706206206,"current_range_meters":12400,"station_id":"ce4bh192rcd13ifvqdb0","pricing_plan_id":"free"},{"bike_id":"d7fe0534-6880-4163-b9c8-2564ba78cf09","system_id":"levelo_inurba_marseille","lat":43.30085,"lon":5.390856,"is_reserved":false,"is_disabled":false,"rental_uris":{"android":"levelo://app?vid=d7fe0534-6880-4163-b9c8-2564ba78cf09","ios":"levelo://app?vid=d7fe0534-6880-4163-b9c8-2564ba78cf09"},"vehicle_type_id":"4","last_reported":1706206206,"current_range_meters":13200,"station_id":"ce4bh192rcd13ifvqdb0","pricing_plan_id":"free"},{"bike_id":"4af716be-2075-4249-a57c-d311c9474d40","system_id":"levelo_inurba_marseille","lat":43.298764,"lon":5.388973,"is_reserved":false,"is_disabled":false,"rental_uris":{"android":"levelo://app?vid=4af716be-2075-4249-a57c-d311c9474d40","ios":"levelo://app?vid=4af716be-2075-4249-a57c-d311c9474d40"},"vehicle_type_id":"4","last_reported":1706206206,"current_range_meters":25600,"station_id":"ce4bh392rcd13ifvqdl0","pricing_plan_id":"free"},{"bike_id":"b245df4e-6283-43a8-89b1-80d0edeb7713","system_id":"levelo_inurba_marseille","lat":43.291684,"lon":5.371581,"is_reserved":false,"is_disabled":false,"rental_uris":{"android":"levelo://app?vid=b245df4e-6283-43a8-89b1-80d0edeb7713","ios":"levelo://app?vid=b245df4e-6283-43a8-89b1-80d0edeb7713"},"vehicle_type_id":"4","last_reported":1706206206,"current_range_meters":0,"station_id":"ce4bha92rcd13ifvqeh0","pricing_plan_id":"free"},{"bike_id":"a825c8e7-2b53-4e5e-8768-217ab703d33c","system_id":"levelo_inurba_marseille","lat":43.298764,"lon":5.388973,"is_reserved":false,"is_disabled":false,"rental_uris":{"android":"levelo://app?vid=a825c8e7-2b53-4e5e-8768-217ab703d33c","ios":"levelo://app?vid=a825c8e7-2b53-4e5e-8768-217ab703d33c"},"vehicle_type_id":"4","last_reported":1706206206,"current_range_meters":2800,"station_id":"ce4bh392rcd13ifvqdl0","pricing_plan_id":"free"},{"bike_id":"2ec1687b-546e-40ff-9b9d-397617fb23c2","system_id":"levelo_inurba_marseille","lat":43.313291,"lon":5.396838,"is_reserved":false,"is_disabled":false,"rental_uris":{"android":"levelo://app?vid=2ec1687b-546e-40ff-9b9d-397617fb23c2","ios":"levelo://app?vid=2ec1687b-546e-40ff-9b9d-397617fb23c2"},"vehicle_type_id":"4","last_reported":1706206206,"current_range_meters":14400,"station_id":"ce4bgvp2rcd13ifvqcu0","pricing_plan_id":"free"},{"bike_id":"1a2d8408-8973-4a0d-a02c-9fb97d1b7fc5","system_id":"levelo_inurba_marseille","lat":43.313291,"lon":5.396838,"is_reserved":false,"is_disabled":false,"rental_uris":{"android":"levelo://app?vid=1a2d8408-8973-4a0d-a02c-9fb97d1b7fc5","ios":"levelo://app?vid=1a2d8408-8973-4a0d-a02c-9fb97d1b7fc5"},"vehicle_type_id":"4","last_reported":1706206206,"current_range_meters":14000,"station_id":"ce4bgvp2rcd13ifvqcu0","pricing_plan_id":"free"},{"bike_id":"7b1b342b-6063-4da6-9156-8bc9a7adf8e3","system_id":"levelo_inurba_marseille","lat":43.291994,"lon":5.357886,"is_reserved":false,"is_disabled":false,"rental_uris":{"android":"levelo://app?vid=7b1b342b-6063-4da6-9156-8bc9a7adf8e3","ios":"levelo://app?vid=7b1b342b-6063-4da6-9156-8bc9a7adf8e3"},"vehicle_type_id":"4","last_reported":1706206206,"current_range_meters":31200,"station_id":"ce4bhb12rcd13ifvqel0","pricing_plan_id":"free"},{"bike_id":"952147ae-7881-44ad-bdbb-834c76be927f","system_id":"levelo_inurba_marseille","lat":43.313291,"lon":5.396838,"is_reserved":false,"is_disabled":false,"rental_uris":{"android":"levelo://app?vid=952147ae-7881-44ad-bdbb-834c76be927f","ios":"levelo://app?vid=952147ae-7881-44ad-bdbb-834c76be927f"},"vehicle_type_id":"4","last_reported":1706206206,"current_range_meters":16000,"station_id":"ce4bgvp2rcd13ifvqcu0","pricing_plan_id":"free"},{"bike_id":"e04ffc0b-bd3e-4b56-ab29-8ffb0dadde30","system_id":"levelo_inurba_marseille","lat":43.313291,"lon":5.396838,"is_reserved":false,"is_disabled":false,"rental_uris":{"android":"levelo://app?vid=e04ffc0b-bd3e-4b56-ab29-8ffb0dadde30","ios":"levelo://app?vid=e04ffc0b-bd3e-4b56-ab29-8ffb0dadde30"},"vehicle_type_id":"4","last_reported":1706206206,"current_range_meters":19600,"station_id":"ce4bgvp2rcd13ifvqcu0","pricing_plan_id":"free"},{"bike_id":"7ea07494-20a2-4212-bdb8-feb79777e43a","system_id":"levelo_inurba_marseille","lat":43.313291,"lon":5.396838,"is_reserved":false,"is_disabled":false,"rental_uris":{"android":"levelo://app?vid=7ea07494-20a2-4212-bdb8-feb79777e43a","ios":"levelo://app?vid=7ea07494-20a2-4212-bdb8-feb79777e43a"},"vehicle_type_id":"4","last_reported":1706206206,"current_range_meters":7600,"station_id":"ce4bgvp2rcd13ifvqcu0","pricing_plan_id":"free"},{"bike_id":"115fe2dc-97b4-4bab-8488-25a0b1cd13ff","system_id":"levelo_inurba_marseille","lat":43.309038,"lon":5.396546,"is_reserved":false,"is_disabled":false,"rental_uris":{"android":"levelo://app?vid=115fe2dc-97b4-4bab-8488-25a0b1cd13ff","ios":"levelo://app?vid=115fe2dc-97b4-4bab-8488-25a0b1cd13ff"},"vehicle_type_id":"4","last_reported":1706206206,"current_range_meters":3200,"station_id":"ce4bh012rcd13ifvqcv0","pricing_plan_id":"free"},{"bike_id":"e30c52aa-c5a7-4326-b7cc-ef2fd319b702","system_id":"levelo_inurba_marseille","lat":43.29529,"lon":5.385581,"is_reserved":false,"is_disabled":false,"rental_uris":{"android":"levelo://app?vid=e30c52aa-c5a7-4326-b7cc-ef2fd319b702","ios":"levelo://app?vid=e30c52aa-c5a7-4326-b7cc-ef2fd319b702"},"vehicle_type_id":"4","last_reported":1706206206,"current_range_meters":3200,"station_id":"ce4bgih2rcd13ifvqba0","pricing_plan_id":"free"},{"bike_id":"c951a35e-7562-4c5b-827d-ba62054989cc","system_id":"levelo_inurba_marseille","lat":43.302008,"lon":5.394694,"is_reserved":false,"is_disabled":false,"rental_uris":{"android":"levelo://app?vid=c951a35e-7562-4c5b-827d-ba62054989cc","ios":"levelo://app?vid=c951a35e-7562-4c5b-827d-ba62054989cc"},"vehicle_type_id":"4","last_reported":1706206206,"current_range_meters":3600,"station_id":"ce4bh0p2rcd13ifvqd70","pricing_plan_id":"free"},{"bike_id":"0fe45f17-99c2-4c21-b34f-e548dff07a7a","system_id":"levelo_inurba_marseille","lat":43.302008,"lon":5.394694,"is_reserved":false,"is_disabled":false,"rental_uris":{"android":"levelo://app?vid=0fe45f17-99c2-4c21-b34f-e548dff07a7a","ios":"levelo://app?vid=0fe45f17-99c2-4c21-b34f-e548dff07a7a"},"vehicle_type_id":"4","last_reported":1706206206,"current_range_meters":12800,"station_id":"ce4bh0p2rcd13ifvqd70","pricing_plan_id":"free"},{"bike_id":"1a01a9bc-752d-4246-9395-ba306d39f625","system_id":"levelo_inurba_marseille","lat":43.294616,"lon":5.386078,"is_reserved":false,"is_disabled":false,"rental_uris":{"android":"levelo://app?vid=1a01a9bc-752d-4246-9395-ba306d39f625","ios":"levelo://app?vid=1a01a9bc-752d-4246-9395-ba306d39f625"},"vehicle_type_id":"4","last_reported":1706206206,"current_range_meters":8800,"station_id":"ce4bh2h2rcd13ifvqdh0","pricing_plan_id":"free"},{"bike_id":"cdb5eaa5-dcd3-4ba2-a3e5-c8638e6b661f","system_id":"levelo_inurba_marseille","lat":43.290497,"lon":5.359116,"is_reserved":false,"is_disabled":false,"rental_uris":{"android":"levelo://app?vid=cdb5eaa5-dcd3-4ba2-a3e5-c8638e6b661f","ios":"levelo://app?vid=cdb5eaa5-dcd3-4ba2-a3e5-c8638e6b661f"},"vehicle_type_id":"4","last_reported":1706206206,"current_range_meters":0,"station_id":"ce4bha92rcd13ifvqeg0","pricing_plan_id":"free"},{"bike_id":"704d0e33-bf26-472f-8b3d-a5e4dd545f16","system_id":"levelo_inurba_marseille","lat":43.294162,"lon":5.386292,"is_reserved":false,"is_disabled":false,"rental_uris":{"android":"levelo://app?vid=704d0e33-bf26-472f-8b3d-a5e4dd545f16","ios":"levelo://app?vid=704d0e33-bf26-472f-8b3d-a5e4dd545f16"},"vehicle_type_id":"4","last_reported":1706206206,"current_range_meters":12000,"station_id":"ce4bh2h2rcd13ifvqdh0","pricing_plan_id":"free"},{"bike_id":"9749b97e-04e6-43f0-862e-cf516c31fdd3","system_id":"levelo_inurba_marseille","lat":43.294314,"lon":5.386282,"is_reserved":false,"is_disabled":false,"rental_uris":{"android":"levelo://app?vid=9749b97e-04e6-43f0-862e-cf516c31fdd3","ios":"levelo://app?vid=9749b97e-04e6-43f0-862e-cf516c31fdd3"},"vehicle_type_id":"4","last_reported":1706206206,"current_range_meters":9600,"station_id":"ce4bh2h2rcd13ifvqdh0","pricing_plan_id":"free"},{"bike_id":"ba3dbadd-2937-491e-b5d3-3290161cea43","system_id":"levelo_inurba_marseille","lat":43.294153,"lon":5.386305,"is_reserved":false,"is_disabled":false,"rental_uris":{"android":"levelo://app?vid=ba3dbadd-2937-491e-b5d3-3290161cea43","ios":"levelo://app?vid=ba3dbadd-2937-491e-b5d3-3290161cea43"},"vehicle_type_id":"4","last_reported":1706206206,"current_range_meters":8000,"station_id":"ce4bh2h2rcd13ifvqdh0","pricing_plan_id":"free"},{"bike_id":"f999e0c4-43ea-425c-a693-20b9b64b696d","system_id":"levelo_inurba_marseille","lat":43.289184,"lon":5.366408,"is_reserved":false,"is_disabled":false,"rental_uris":{"android":"levelo://app?vid=f999e0c4-43ea-425c-a693-20b9b64b696d","ios":"levelo://app?vid=f999e0c4-43ea-425c-a693-20b9b64b696d"},"vehicle_type_id":"4","last_reported":1706206206,"current_range_meters":11600,"station_id":"ce4bhap2rcd13ifvqek0","pricing_plan_id":"free"},{"bike_id":"8ec54b97-3512-4aaf-b396-a7d028ea7f15","system_id":"levelo_inurba_marseille","lat":43.29418,"lon":5.3862,"is_reserved":false,"is_disabled":false,"rental_uris":{"android":"levelo://app?vid=8ec54b97-3512-4aaf-b396-a7d028ea7f15","ios":"levelo://app?vid=8ec54b97-3512-4aaf-b396-a7d028ea7f15"},"vehicle_type_id":"4","last_reported":1706206206,"current_range_meters":3200,"station_id":"ce4bh2h2rcd13ifvqdh0","pricing_plan_id":"free"},{"bike_id":"25670758-094f-407d-af2d-7df5e8a4af1a","system_id":"levelo_inurba_marseille","lat":43.294162,"lon":5.386292,"is_reserved":false,"is_disabled":false,"rental_uris":{"android":"levelo://app?vid=25670758-094f-407d-af2d-7df5e8a4af1a","ios":"levelo://app?vid=25670758-094f-407d-af2d-7df5e8a4af1a"},"vehicle_type_id":"4","last_reported":1706206206,"current_range_meters":24400,"station_id":"ce4bh2h2rcd13ifvqdh0","pricing_plan_id":"free"},{"bike_id":"914cdcbe-50e2-4d93-b3f5-7972842690ae","system_id":"levelo_inurba_marseille","lat":43.29419,"lon":5.38627,"is_reserved":false,"is_disabled":false,"rental_uris":{"android":"levelo://app?vid=914cdcbe-50e2-4d93-b3f5-7972842690ae","ios":"levelo://app?vid=914cdcbe-50e2-4d93-b3f5-7972842690ae"},"vehicle_type_id":"4","last_reported":1706206206,"current_range_meters":0,"station_id":"ce4bh2h2rcd13ifvqdh0","pricing_plan_id":"free"},{"bike_id":"9c7a41ac-c317-4067-bb9e-9af8327ce285","system_id":"levelo_inurba_marseille","lat":43.29416,"lon":5.38622,"is_reserved":false,"is_disabled":false,"rental_uris":{"android":"levelo://app?vid=9c7a41ac-c317-4067-bb9e-9af8327ce285","ios":"levelo://app?vid=9c7a41ac-c317-4067-bb9e-9af8327ce285"},"vehicle_type_id":"4","last_reported":1706206206,"current_range_meters":4800,"station_id":"ce4bh2h2rcd13ifvqdh0","pricing_plan_id":"free"},{"bike_id":"72d8087f-2e43-4452-a29e-d83a7e594882","system_id":"levelo_inurba_marseille","lat":43.290327,"lon":5.375711,"is_reserved":false,"is_disabled":false,"rental_uris":{"android":"levelo://app?vid=72d8087f-2e43-4452-a29e-d83a7e594882","ios":"levelo://app?vid=72d8087f-2e43-4452-a29e-d83a7e594882"},"vehicle_type_id":"4","last_reported":1706206206,"current_range_meters":400,"station_id":"ce4bh692rcd13ifvqe90","pricing_plan_id":"free"},{"bike_id":"ec8a3ed7-f291-4fa1-8e05-b684e5752568","system_id":"levelo_inurba_marseille","lat":43.28944,"lon":5.36641,"is_reserved":false,"is_disabled":false,"rental_uris":{"android":"levelo://app?vid=ec8a3ed7-f291-4fa1-8e05-b684e5752568","ios":"levelo://app?vid=ec8a3ed7-f291-4fa1-8e05-b684e5752568"},"vehicle_type_id":"4","last_reported":1706206206,"current_range_meters":31200,"station_id":"ce4bhap2rcd13ifvqek0","pricing_plan_id":"free"},{"bike_id":"af53c03b-e401-4854-84fe-0b040929ba91","system_id":"levelo_inurba_marseille","lat":43.294117,"lon":5.386197,"is_reserved":false,"is_disabled":false,"rental_uris":{"android":"levelo://app?vid=af53c03b-e401-4854-84fe-0b040929ba91","ios":"levelo://app?vid=af53c03b-e401-4854-84fe-0b040929ba91"},"vehicle_type_id":"4","last_reported":1706206206,"current_range_meters":22000,"station_id":"ce4bh2h2rcd13ifvqdh0","pricing_plan_id":"free"},{"bike_id":"d3cc179f-1093-4347-ac5d-31df0e7578f0","system_id":"levelo_inurba_marseille","lat":43.289468,"lon":5.363719,"is_reserved":false,"is_disabled":false,"rental_uris":{"android":"levelo://app?vid=d3cc179f-1093-4347-ac5d-31df0e7578f0","ios":"levelo://app?vid=d3cc179f-1093-4347-ac5d-31df0e7578f0"},"vehicle_type_id":"4","last_reported":1706206206,"current_range_meters":7200,"station_id":"ce4bhc92rcd13ifvqetg","pricing_plan_id":"free"},{"bike_id":"ad51c16c-84d1-4677-a18b-ebf0ffc7c046","system_id":"levelo_inurba_marseille","lat":43.289468,"lon":5.363719,"is_reserved":false,"is_disabled":false,"rental_uris":{"android":"levelo://app?vid=ad51c16c-84d1-4677-a18b-ebf0ffc7c046","ios":"levelo://app?vid=ad51c16c-84d1-4677-a18b-ebf0ffc7c046"},"vehicle_type_id":"4","last_reported":1706206206,"current_range_meters":10400,"station_id":"ce4bhc92rcd13ifvqetg","pricing_plan_id":"free"},{"bike_id":"e28a8c75-a1e7-48ca-a7da-4fc24532ec36","system_id":"levelo_inurba_marseille","lat":43.290327,"lon":5.375711,"is_reserved":false,"is_disabled":false,"rental_uris":{"android":"levelo://app?vid=e28a8c75-a1e7-48ca-a7da-4fc24532ec36","ios":"levelo://app?vid=e28a8c75-a1e7-48ca-a7da-4fc24532ec36"},"vehicle_type_id":"4","last_reported":1706206206,"current_range_meters":800,"station_id":"ce4bh692rcd13ifvqe90","pricing_plan_id":"free"},{"bike_id":"1b2f9731-89e2-4354-98a0-81b5928b8df0","system_id":"levelo_inurba_marseille","lat":43.289184,"lon":5.366408,"is_reserved":false,"is_disabled":false,"rental_uris":{"android":"levelo://app?vid=1b2f9731-89e2-4354-98a0-81b5928b8df0","ios":"levelo://app?vid=1b2f9731-89e2-4354-98a0-81b5928b8df0"},"vehicle_type_id":"4","last_reported":1706206206,"current_range_meters":19600,"station_id":"ce4bhap2rcd13ifvqek0","pricing_plan_id":"free"},{"bike_id":"eb6e3784-a076-4aa0-a9e3-b23fe1da643e","system_id":"levelo_inurba_marseille","lat":43.289468,"lon":5.363719,"is_reserved":false,"is_disabled":false,"rental_uris":{"android":"levelo://app?vid=eb6e3784-a076-4aa0-a9e3-b23fe1da643e","ios":"levelo://app?vid=eb6e3784-a076-4aa0-a9e3-b23fe1da643e"},"vehicle_type_id":"4","last_reported":1706206206,"current_range_meters":19200,"station_id":"ce4bhc92rcd13ifvqetg","pricing_plan_id":"free"},{"bike_id":"4ad84ece-1fae-4caf-a8c2-d3b7b253277d","system_id":"levelo_inurba_marseille","lat":43.295169,"lon":5.390426,"is_reserved":false,"is_disabled":false,"rental_uris":{"android":"levelo://app?vid=4ad84ece-1fae-4caf-a8c2-d3b7b253277d","ios":"levelo://app?vid=4ad84ece-1fae-4caf-a8c2-d3b7b253277d"},"vehicle_type_id":"4","last_reported":1706206206,"current_range_meters":13200,"station_id":"ce4bh3p2rcd13ifvqdp0","pricing_plan_id":"free"},{"bike_id":"6068f9f1-bc56-41a5-9bd0-7f62b61f4801","system_id":"levelo_inurba_marseille","lat":43.293142,"lon":5.384932,"is_reserved":false,"is_disabled":false,"rental_uris":{"android":"levelo://app?vid=6068f9f1-bc56-41a5-9bd0-7f62b61f4801","ios":"levelo://app?vid=6068f9f1-bc56-41a5-9bd0-7f62b61f4801"},"vehicle_type_id":"4","last_reported":1706206206,"current_range_meters":10400,"station_id":"ce4bh692rcd13ifvqea0","pricing_plan_id":"free"},{"bike_id":"7d2e78f3-d828-4822-bfa6-fcf35c5b4ece","system_id":"levelo_inurba_marseille","lat":43.292644,"lon":5.384257,"is_reserved":false,"is_disabled":false,"rental_uris":{"android":"levelo://app?vid=7d2e78f3-d828-4822-bfa6-fcf35c5b4ece","ios":"levelo://app?vid=7d2e78f3-d828-4822-bfa6-fcf35c5b4ece"},"vehicle_type_id":"4","last_reported":1706206206,"current_range_meters":5200,"station_id":"ce4bh692rcd13ifvqea0","pricing_plan_id":"free"},{"bike_id":"58fbe023-1455-4b72-9892-6dd644476f3a","system_id":"levelo_inurba_marseille","lat":43.292644,"lon":5.384257,"is_reserved":false,"is_disabled":false,"rental_uris":{"android":"levelo://app?vid=58fbe023-1455-4b72-9892-6dd644476f3a","ios":"levelo://app?vid=58fbe023-1455-4b72-9892-6dd644476f3a"},"vehicle_type_id":"4","last_reported":1706206206,"current_range_meters":0,"station_id":"ce4bh692rcd13ifvqea0","pricing_plan_id":"free"},{"bike_id":"d3f92c10-03cd-4966-81bc-8f20fdcbc8e5","system_id":"levelo_inurba_marseille","lat":43.304296,"lon":5.397513,"is_reserved":false,"is_disabled":false,"rental_uris":{"android":"levelo://app?vid=d3f92c10-03cd-4966-81bc-8f20fdcbc8e5","ios":"levelo://app?vid=d3f92c10-03cd-4966-81bc-8f20fdcbc8e5"},"vehicle_type_id":"4","last_reported":1706206206,"current_range_meters":0,"station_id":"ce4bh092rcd13ifvqd20","pricing_plan_id":"free"},{"bike_id":"2468da0e-5c3e-4414-b5b3-16539afd5929","system_id":"levelo_inurba_marseille","lat":43.2926,"lon":5.3844,"is_reserved":false,"is_disabled":false,"rental_uris":{"android":"levelo://app?vid=2468da0e-5c3e-4414-b5b3-16539afd5929","ios":"levelo://app?vid=2468da0e-5c3e-4414-b5b3-16539afd5929"},"vehicle_type_id":"4","last_reported":1706206206,"current_range_meters":0,"station_id":"","pricing_plan_id":"free"},{"bike_id":"02d546db-922d-478f-b883-37573b735c29","system_id":"levelo_inurba_marseille","lat":43.292644,"lon":5.384257,"is_reserved":false,"is_disabled":false,"rental_uris":{"android":"levelo://app?vid=02d546db-922d-478f-b883-37573b735c29","ios":"levelo://app?vid=02d546db-922d-478f-b883-37573b735c29"},"vehicle_type_id":"4","last_reported":1706206206,"current_range_meters":26400,"station_id":"ce4bh692rcd13ifvqea0","pricing_plan_id":"free"},{"bike_id":"22b50d64-74e4-4480-80ee-97d320e1e2b9","system_id":"levelo_inurba_marseille","lat":43.292644,"lon":5.384257,"is_reserved":false,"is_disabled":false,"rental_uris":{"android":"levelo://app?vid=22b50d64-74e4-4480-80ee-97d320e1e2b9","ios":"levelo://app?vid=22b50d64-74e4-4480-80ee-97d320e1e2b9"},"vehicle_type_id":"4","last_reported":1706206206,"current_range_meters":2400,"station_id":"ce4bh692rcd13ifvqea0","pricing_plan_id":"free"},{"bike_id":"bfdc511e-92cc-43e6-8bb1-e2b7e2bdec4c","system_id":"levelo_inurba_marseille","lat":43.290104,"lon":5.356111,"is_reserved":false,"is_disabled":false,"rental_uris":{"android":"levelo://app?vid=bfdc511e-92cc-43e6-8bb1-e2b7e2bdec4c","ios":"levelo://app?vid=bfdc511e-92cc-43e6-8bb1-e2b7e2bdec4c"},"vehicle_type_id":"4","last_reported":1706206206,"current_range_meters":6800,"station_id":"ce4bhb92rcd13ifvqen0","pricing_plan_id":"free"},{"bike_id":"78bf1e29-7c52-466a-b458-daf8456193a5","system_id":"levelo_inurba_marseille","lat":43.290059,"lon":5.35621,"is_reserved":false,"is_disabled":false,"rental_uris":{"android":"levelo://app?vid=78bf1e29-7c52-466a-b458-daf8456193a5","ios":"levelo://app?vid=78bf1e29-7c52-466a-b458-daf8456193a5"},"vehicle_type_id":"4","last_reported":1706206206,"current_range_meters":0,"station_id":"","pricing_plan_id":"free"},{"bike_id":"b0a8347a-a935-4751-abe7-07281937ee2c","system_id":"levelo_inurba_marseille","lat":43.305994,"lon":5.393687,"is_reserved":false,"is_disabled":false,"rental_uris":{"android":"levelo://app?vid=b0a8347a-a935-4751-abe7-07281937ee2c","ios":"levelo://app?vid=b0a8347a-a935-4751-abe7-07281937ee2c"},"vehicle_type_id":"4","last_reported":1706206206,"current_range_meters":15600,"station_id":"ce4bh0p2rcd13ifvqd80","pricing_plan_id":"free"},{"bike_id":"5846c8d8-259f-4a8a-9cd8-dbea33169368","system_id":"levelo_inurba_marseille","lat":43.292644,"lon":5.384257,"is_reserved":false,"is_disabled":false,"rental_uris":{"android":"levelo://app?vid=5846c8d8-259f-4a8a-9cd8-dbea33169368","ios":"levelo://app?vid=5846c8d8-259f-4a8a-9cd8-dbea33169368"},"vehicle_type_id":"4","last_reported":1706206206,"current_range_meters":2800,"station_id":"ce4bh692rcd13ifvqea0","pricing_plan_id":"free"},{"bike_id":"9780af2b-73b0-4a4b-9343-30c920ae8bc8","system_id":"levelo_inurba_marseille","lat":43.295301,"lon":5.390328,"is_reserved":false,"is_disabled":false,"rental_uris":{"android":"levelo://app?vid=9780af2b-73b0-4a4b-9343-30c920ae8bc8","ios":"levelo://app?vid=9780af2b-73b0-4a4b-9343-30c920ae8bc8"},"vehicle_type_id":"4","last_reported":1706206206,"current_range_meters":23200,"station_id":"ce4bh3p2rcd13ifvqdp0","pricing_plan_id":"free"},{"bike_id":"294a52e7-e35c-4c71-a601-75c0260f814d","system_id":"levelo_inurba_marseille","lat":43.289741,"lon":5.378306,"is_reserved":false,"is_disabled":false,"rental_uris":{"android":"levelo://app?vid=294a52e7-e35c-4c71-a601-75c0260f814d","ios":"levelo://app?vid=294a52e7-e35c-4c71-a601-75c0260f814d"},"vehicle_type_id":"4","last_reported":1706206206,"current_range_meters":400,"station_id":"ce4bh9p2rcd13ifvqed0","pricing_plan_id":"free"},{"bike_id":"20e3cff8-7e71-401a-a834-8b97927d94da","system_id":"levelo_inurba_marseille","lat":43.28857,"lon":5.35859,"is_reserved":false,"is_disabled":false,"rental_uris":{"android":"levelo://app?vid=20e3cff8-7e71-401a-a834-8b97927d94da","ios":"levelo://app?vid=20e3cff8-7e71-401a-a834-8b97927d94da"},"vehicle_type_id":"4","last_reported":1706206206,"current_range_meters":28800,"station_id":"ce4bhb12rcd13ifvqem0","pricing_plan_id":"free"},{"bike_id":"881eb23c-c27c-4b8c-bc6c-656214921cd1","system_id":"levelo_inurba_marseille","lat":43.28856,"lon":5.358371,"is_reserved":false,"is_disabled":false,"rental_uris":{"android":"levelo://app?vid=881eb23c-c27c-4b8c-bc6c-656214921cd1","ios":"levelo://app?vid=881eb23c-c27c-4b8c-bc6c-656214921cd1"},"vehicle_type_id":"4","last_reported":1706206206,"current_range_meters":22800,"station_id":"ce4bhb12rcd13ifvqem0","pricing_plan_id":"free"},{"bike_id":"8bb3bf54-47b1-424f-a4af-9eaffad0692e","system_id":"levelo_inurba_marseille","lat":43.313571,"lon":5.384829,"is_reserved":false,"is_disabled":false,"rental_uris":{"android":"levelo://app?vid=8bb3bf54-47b1-424f-a4af-9eaffad0692e","ios":"levelo://app?vid=8bb3bf54-47b1-424f-a4af-9eaffad0692e"},"vehicle_type_id":"4","last_reported":1706206206,"current_range_meters":5600,"station_id":"ce4bgt92rcd13ifvqcf0","pricing_plan_id":"free"},{"bike_id":"5b9dec5f-e18d-4ddd-ab17-662c9419b19f","system_id":"levelo_inurba_marseille","lat":43.309371,"lon":5.401449,"is_reserved":false,"is_disabled":false,"rental_uris":{"android":"levelo://app?vid=5b9dec5f-e18d-4ddd-ab17-662c9419b19f","ios":"levelo://app?vid=5b9dec5f-e18d-4ddd-ab17-662c9419b19f"},"vehicle_type_id":"4","last_reported":1706206206,"current_range_meters":0,"station_id":"ce4bgvp2rcd13ifvqct0","pricing_plan_id":"free"},{"bike_id":"cde83a42-d79a-4cfc-916a-f7a5c217222a","system_id":"levelo_inurba_marseille","lat":43.309371,"lon":5.401449,"is_reserved":false,"is_disabled":false,"rental_uris":{"android":"levelo://app?vid=cde83a42-d79a-4cfc-916a-f7a5c217222a","ios":"levelo://app?vid=cde83a42-d79a-4cfc-916a-f7a5c217222a"},"vehicle_type_id":"4","last_reported":1706206206,"current_range_meters":16800,"station_id":"ce4bgvp2rcd13ifvqct0","pricing_plan_id":"free"},{"bike_id":"1a14f78c-60e2-4aed-96d1-79f17a5ca226","system_id":"levelo_inurba_marseille","lat":43.306412,"lon":5.401035,"is_reserved":false,"is_disabled":false,"rental_uris":{"android":"levelo://app?vid=1a14f78c-60e2-4aed-96d1-79f17a5ca226","ios":"levelo://app?vid=1a14f78c-60e2-4aed-96d1-79f17a5ca226"},"vehicle_type_id":"4","last_reported":1706206206,"current_range_meters":3600,"station_id":"ce4bh112rcd13ifvqda0","pricing_plan_id":"free"},{"bike_id":"34293494-c639-448f-8fb1-417ac402be89","system_id":"levelo_inurba_marseille","lat":43.337573,"lon":5.374586,"is_reserved":false,"is_disabled":false,"rental_uris":{"android":"levelo://app?vid=34293494-c639-448f-8fb1-417ac402be89","ios":"levelo://app?vid=34293494-c639-448f-8fb1-417ac402be89"},"vehicle_type_id":"4","last_reported":1706206206,"current_range_meters":25200,"station_id":"","pricing_plan_id":"free"},{"bike_id":"6b831be4-3234-41ba-85bf-215803acd38d","system_id":"levelo_inurba_marseille","lat":43.337588,"lon":5.374581,"is_reserved":false,"is_disabled":false,"rental_uris":{"android":"levelo://app?vid=6b831be4-3234-41ba-85bf-215803acd38d","ios":"levelo://app?vid=6b831be4-3234-41ba-85bf-215803acd38d"},"vehicle_type_id":"4","last_reported":1706206206,"current_range_meters":25600,"station_id":"","pricing_plan_id":"free"},{"bike_id":"68b5161c-4ba8-4131-8676-3d92bdf6591c","system_id":"levelo_inurba_marseille","lat":43.337646,"lon":5.374509,"is_reserved":false,"is_disabled":false,"rental_uris":{"android":"levelo://app?vid=68b5161c-4ba8-4131-8676-3d92bdf6591c","ios":"levelo://app?vid=68b5161c-4ba8-4131-8676-3d92bdf6591c"},"vehicle_type_id":"4","last_reported":1706206206,"current_range_meters":24800,"station_id":"","pricing_plan_id":"free"},{"bike_id":"e7ecee9f-02f5-4175-af3a-6f3cfb88abcf","system_id":"levelo_inurba_marseille","lat":43.306412,"lon":5.401035,"is_reserved":false,"is_disabled":false,"rental_uris":{"android":"levelo://app?vid=e7ecee9f-02f5-4175-af3a-6f3cfb88abcf","ios":"levelo://app?vid=e7ecee9f-02f5-4175-af3a-6f3cfb88abcf"},"vehicle_type_id":"4","last_reported":1706206206,"current_range_meters":17600,"station_id":"ce4bh112rcd13ifvqda0","pricing_plan_id":"free"},{"bike_id":"5cb0b756-4995-4322-acac-beca2dd17fde","system_id":"levelo_inurba_marseille","lat":43.30642,"lon":5.401031,"is_reserved":false,"is_disabled":false,"rental_uris":{"android":"levelo://app?vid=5cb0b756-4995-4322-acac-beca2dd17fde","ios":"levelo://app?vid=5cb0b756-4995-4322-acac-beca2dd17fde"},"vehicle_type_id":"4","last_reported":1706206206,"current_range_meters":17200,"station_id":"ce4bh112rcd13ifvqda0","pricing_plan_id":"free"},{"bike_id":"d0eee7aa-86a6-477e-8c54-2ad33953ee79","system_id":"levelo_inurba_marseille","lat":43.30642,"lon":5.401031,"is_reserved":false,"is_disabled":false,"rental_uris":{"android":"levelo://app?vid=d0eee7aa-86a6-477e-8c54-2ad33953ee79","ios":"levelo://app?vid=d0eee7aa-86a6-477e-8c54-2ad33953ee79"},"vehicle_type_id":"4","last_reported":1706206206,"current_range_meters":13600,"station_id":"ce4bh112rcd13ifvqda0","pricing_plan_id":"free"},{"bike_id":"8fe24b03-a3a8-40e3-98a3-ee452b3505fe","system_id":"levelo_inurba_marseille","lat":43.33766,"lon":5.37488,"is_reserved":false,"is_disabled":false,"rental_uris":{"android":"levelo://app?vid=8fe24b03-a3a8-40e3-98a3-ee452b3505fe","ios":"levelo://app?vid=8fe24b03-a3a8-40e3-98a3-ee452b3505fe"},"vehicle_type_id":"4","last_reported":1706206206,"current_range_meters":24800,"station_id":"","pricing_plan_id":"free"},{"bike_id":"f964ee8b-65d6-4449-9e16-f6c084f710d2","system_id":"levelo_inurba_marseille","lat":43.28727,"lon":5.36078,"is_reserved":false,"is_disabled":false,"rental_uris":{"android":"levelo://app?vid=f964ee8b-65d6-4449-9e16-f6c084f710d2","ios":"levelo://app?vid=f964ee8b-65d6-4449-9e16-f6c084f710d2"},"vehicle_type_id":"4","last_reported":1706206206,"current_range_meters":9600,"station_id":"cki0cbj6b192h4jlfktg","pricing_plan_id":"free"},{"bike_id":"647ed57e-922f-4d77-89a5-3078651b1cb8","system_id":"levelo_inurba_marseille","lat":43.28727,"lon":5.36078,"is_reserved":false,"is_disabled":false,"rental_uris":{"android":"levelo://app?vid=647ed57e-922f-4d77-89a5-3078651b1cb8","ios":"levelo://app?vid=647ed57e-922f-4d77-89a5-3078651b1cb8"},"vehicle_type_id":"4","last_reported":1706206206,"current_range_meters":11200,"station_id":"cki0cbj6b192h4jlfktg","pricing_plan_id":"free"},{"bike_id":"6176a15d-a5a1-4b9e-88a6-8b7df3ab3941","system_id":"levelo_inurba_marseille","lat":43.28727,"lon":5.36078,"is_reserved":false,"is_disabled":false,"rental_uris":{"android":"levelo://app?vid=6176a15d-a5a1-4b9e-88a6-8b7df3ab3941","ios":"levelo://app?vid=6176a15d-a5a1-4b9e-88a6-8b7df3ab3941"},"vehicle_type_id":"4","last_reported":1706206206,"current_range_meters":0,"station_id":"cki0cbj6b192h4jlfktg","pricing_plan_id":"free"},{"bike_id":"7296d57b-bd3a-4369-aa9b-2c1e7961a172","system_id":"levelo_inurba_marseille","lat":43.28671,"lon":5.36345,"is_reserved":false,"is_disabled":false,"rental_uris":{"android":"levelo://app?vid=7296d57b-bd3a-4369-aa9b-2c1e7961a172","ios":"levelo://app?vid=7296d57b-bd3a-4369-aa9b-2c1e7961a172"},"vehicle_type_id":"4","last_reported":1706206206,"current_range_meters":0,"station_id":"ce4bhah2rcd13ifvqej0","pricing_plan_id":"free"},{"bike_id":"aafda341-0bae-46ca-8cf8-848609b17e33","system_id":"levelo_inurba_marseille","lat":43.298681,"lon":5.397225,"is_reserved":false,"is_disabled":false,"rental_uris":{"android":"levelo://app?vid=aafda341-0bae-46ca-8cf8-848609b17e33","ios":"levelo://app?vid=aafda341-0bae-46ca-8cf8-848609b17e33"},"vehicle_type_id":"4","last_reported":1706206206,"current_range_meters":1200,"station_id":"ce4bh0h2rcd13ifvqd50","pricing_plan_id":"free"},{"bike_id":"97910466-d090-4fa4-ba64-e1e6692b87e4","system_id":"levelo_inurba_marseille","lat":43.286961,"lon":5.373785,"is_reserved":false,"is_disabled":false,"rental_uris":{"android":"levelo://app?vid=97910466-d090-4fa4-ba64-e1e6692b87e4","ios":"levelo://app?vid=97910466-d090-4fa4-ba64-e1e6692b87e4"},"vehicle_type_id":"4","last_reported":1706206206,"current_range_meters":4000,"station_id":"ce4bh3p2rcd13ifvqdq0","pricing_plan_id":"free"},{"bike_id":"ae28abc6-ea76-4bed-89fc-d3e06b641811","system_id":"levelo_inurba_marseille","lat":43.286961,"lon":5.373785,"is_reserved":false,"is_disabled":false,"rental_uris":{"android":"levelo://app?vid=ae28abc6-ea76-4bed-89fc-d3e06b641811","ios":"levelo://app?vid=ae28abc6-ea76-4bed-89fc-d3e06b641811"},"vehicle_type_id":"4","last_reported":1706206206,"current_range_meters":24400,"station_id":"ce4bh3p2rcd13ifvqdq0","pricing_plan_id":"free"},{"bike_id":"2eaf56a1-2c72-4976-b712-33ce106368e0","system_id":"levelo_inurba_marseille","lat":43.286593,"lon":5.363346,"is_reserved":false,"is_disabled":false,"rental_uris":{"android":"levelo://app?vid=2eaf56a1-2c72-4976-b712-33ce106368e0","ios":"levelo://app?vid=2eaf56a1-2c72-4976-b712-33ce106368e0"},"vehicle_type_id":"4","last_reported":1706206206,"current_range_meters":22400,"station_id":"ce4bhah2rcd13ifvqej0","pricing_plan_id":"free"},{"bike_id":"be1fec6c-b0b1-4288-9268-d042c4702395","system_id":"levelo_inurba_marseille","lat":43.286961,"lon":5.373785,"is_reserved":false,"is_disabled":false,"rental_uris":{"android":"levelo://app?vid=be1fec6c-b0b1-4288-9268-d042c4702395","ios":"levelo://app?vid=be1fec6c-b0b1-4288-9268-d042c4702395"},"vehicle_type_id":"4","last_reported":1706206206,"current_range_meters":4800,"station_id":"ce4bh3p2rcd13ifvqdq0","pricing_plan_id":"free"},{"bike_id":"72dba198-13d1-44c4-8fa8-dcfe9d3acbb5","system_id":"levelo_inurba_marseille","lat":43.286961,"lon":5.373785,"is_reserved":false,"is_disabled":false,"rental_uris":{"android":"levelo://app?vid=72dba198-13d1-44c4-8fa8-dcfe9d3acbb5","ios":"levelo://app?vid=72dba198-13d1-44c4-8fa8-dcfe9d3acbb5"},"vehicle_type_id":"4","last_reported":1706206206,"current_range_meters":5600,"station_id":"ce4bh3p2rcd13ifvqdq0","pricing_plan_id":"free"},{"bike_id":"aa00e7ec-d639-4fd3-b943-c5db195e5a47","system_id":"levelo_inurba_marseille","lat":43.286961,"lon":5.373785,"is_reserved":false,"is_disabled":false,"rental_uris":{"android":"levelo://app?vid=aa00e7ec-d639-4fd3-b943-c5db195e5a47","ios":"levelo://app?vid=aa00e7ec-d639-4fd3-b943-c5db195e5a47"},"vehicle_type_id":"4","last_reported":1706206206,"current_range_meters":28800,"station_id":"ce4bh3p2rcd13ifvqdq0","pricing_plan_id":"free"},{"bike_id":"1e238482-9904-48b4-8b14-b45cfe3d0680","system_id":"levelo_inurba_marseille","lat":43.295241,"lon":5.393961,"is_reserved":false,"is_disabled":false,"rental_uris":{"android":"levelo://app?vid=1e238482-9904-48b4-8b14-b45cfe3d0680","ios":"levelo://app?vid=1e238482-9904-48b4-8b14-b45cfe3d0680"},"vehicle_type_id":"4","last_reported":1706206206,"current_range_meters":0,"station_id":"ce4bh292rcd13ifvqdf0","pricing_plan_id":"free"},{"bike_id":"780af950-e988-46eb-bf0f-154865f8a6a5","system_id":"levelo_inurba_marseille","lat":43.289307,"lon":5.38406,"is_reserved":false,"is_disabled":false,"rental_uris":{"android":"levelo://app?vid=780af950-e988-46eb-bf0f-154865f8a6a5","ios":"levelo://app?vid=780af950-e988-46eb-bf0f-154865f8a6a5"},"vehicle_type_id":"4","last_reported":1706206206,"current_range_meters":2800,"station_id":"ce4bh612rcd13ifvqe6g","pricing_plan_id":"free"},{"bike_id":"eadd420e-5502-4b65-a611-c8ed701667de","system_id":"levelo_inurba_marseille","lat":43.29524,"lon":5.39405,"is_reserved":false,"is_disabled":false,"rental_uris":{"android":"levelo://app?vid=eadd420e-5502-4b65-a611-c8ed701667de","ios":"levelo://app?vid=eadd420e-5502-4b65-a611-c8ed701667de"},"vehicle_type_id":"4","last_reported":1706206206,"current_range_meters":0,"station_id":"ce4bh292rcd13ifvqdf0","pricing_plan_id":"free"},{"bike_id":"90e9e2e0-9615-49e7-84b3-32a40f0a6a6e","system_id":"levelo_inurba_marseille","lat":43.290336,"lon":5.386425,"is_reserved":false,"is_disabled":false,"rental_uris":{"android":"levelo://app?vid=90e9e2e0-9615-49e7-84b3-32a40f0a6a6e","ios":"levelo://app?vid=90e9e2e0-9615-49e7-84b3-32a40f0a6a6e"},"vehicle_type_id":"4","last_reported":1706206206,"current_range_meters":5200,"station_id":"ce4bh4p2rcd13ifvqe0g","pricing_plan_id":"free"},{"bike_id":"240150a4-e88d-4ddd-8aa7-1c302d713e7f","system_id":"levelo_inurba_marseille","lat":43.289307,"lon":5.38406,"is_reserved":false,"is_disabled":false,"rental_uris":{"android":"levelo://app?vid=240150a4-e88d-4ddd-8aa7-1c302d713e7f","ios":"levelo://app?vid=240150a4-e88d-4ddd-8aa7-1c302d713e7f"},"vehicle_type_id":"4","last_reported":1706206206,"current_range_meters":11200,"station_id":"ce4bh612rcd13ifvqe6g","pricing_plan_id":"free"},{"bike_id":"4499991e-0ba1-46e2-b1d0-974fc89c15b7","system_id":"levelo_inurba_marseille","lat":43.30264,"lon":5.40061,"is_reserved":false,"is_disabled":false,"rental_uris":{"android":"levelo://app?vid=4499991e-0ba1-46e2-b1d0-974fc89c15b7","ios":"levelo://app?vid=4499991e-0ba1-46e2-b1d0-974fc89c15b7"},"vehicle_type_id":"4","last_reported":1706206206,"current_range_meters":14400,"station_id":"ce4bgvh2rcd13ifvqcs0","pricing_plan_id":"free"},{"bike_id":"9f79ffa5-1060-4247-955b-92067d401ffc","system_id":"levelo_inurba_marseille","lat":43.290345,"lon":5.38646,"is_reserved":false,"is_disabled":false,"rental_uris":{"android":"levelo://app?vid=9f79ffa5-1060-4247-955b-92067d401ffc","ios":"levelo://app?vid=9f79ffa5-1060-4247-955b-92067d401ffc"},"vehicle_type_id":"4","last_reported":1706206206,"current_range_meters":17600,"station_id":"ce4bh4p2rcd13ifvqe0g","pricing_plan_id":"free"},{"bike_id":"d451e0d5-cdde-4381-b9d3-209c265cf2c3","system_id":"levelo_inurba_marseille","lat":43.290345,"lon":5.38646,"is_reserved":false,"is_disabled":false,"rental_uris":{"android":"levelo://app?vid=d451e0d5-cdde-4381-b9d3-209c265cf2c3","ios":"levelo://app?vid=d451e0d5-cdde-4381-b9d3-209c265cf2c3"},"vehicle_type_id":"4","last_reported":1706206206,"current_range_meters":24800,"station_id":"ce4bh4p2rcd13ifvqe0g","pricing_plan_id":"free"},{"bike_id":"edce5ae0-a973-4b90-9a5a-07b962a69210","system_id":"levelo_inurba_marseille","lat":43.290241,"lon":5.38639,"is_reserved":false,"is_disabled":false,"rental_uris":{"android":"levelo://app?vid=edce5ae0-a973-4b90-9a5a-07b962a69210","ios":"levelo://app?vid=edce5ae0-a973-4b90-9a5a-07b962a69210"},"vehicle_type_id":"4","last_reported":1706206206,"current_range_meters":0,"station_id":"","pricing_plan_id":"free"},{"bike_id":"9332a57d-d30a-43b8-9229-2c79db6ec77c","system_id":"levelo_inurba_marseille","lat":43.290336,"lon":5.386425,"is_reserved":false,"is_disabled":false,"rental_uris":{"android":"levelo://app?vid=9332a57d-d30a-43b8-9229-2c79db6ec77c","ios":"levelo://app?vid=9332a57d-d30a-43b8-9229-2c79db6ec77c"},"vehicle_type_id":"4","last_reported":1706206206,"current_range_meters":18000,"station_id":"ce4bh4p2rcd13ifvqe0g","pricing_plan_id":"free"},{"bike_id":"f2096c46-de65-4669-ae37-f9dc71ca7c0a","system_id":"levelo_inurba_marseille","lat":43.3024,"lon":5.40067,"is_reserved":false,"is_disabled":false,"rental_uris":{"android":"levelo://app?vid=f2096c46-de65-4669-ae37-f9dc71ca7c0a","ios":"levelo://app?vid=f2096c46-de65-4669-ae37-f9dc71ca7c0a"},"vehicle_type_id":"4","last_reported":1706206206,"current_range_meters":0,"station_id":"ce4bgvh2rcd13ifvqcs0","pricing_plan_id":"free"},{"bike_id":"8da360de-b13d-41ae-ba68-bdbe882d2058","system_id":"levelo_inurba_marseille","lat":43.290336,"lon":5.386425,"is_reserved":false,"is_disabled":false,"rental_uris":{"android":"levelo://app?vid=8da360de-b13d-41ae-ba68-bdbe882d2058","ios":"levelo://app?vid=8da360de-b13d-41ae-ba68-bdbe882d2058"},"vehicle_type_id":"4","last_reported":1706206206,"current_range_meters":800,"station_id":"ce4bh4p2rcd13ifvqe0g","pricing_plan_id":"free"},{"bike_id":"0c72f7b9-0e7f-4bf0-879a-bc88cc1b73a4","system_id":"levelo_inurba_marseille","lat":43.286039,"lon":5.370681,"is_reserved":false,"is_disabled":false,"rental_uris":{"android":"levelo://app?vid=0c72f7b9-0e7f-4bf0-879a-bc88cc1b73a4","ios":"levelo://app?vid=0c72f7b9-0e7f-4bf0-879a-bc88cc1b73a4"},"vehicle_type_id":"4","last_reported":1706206206,"current_range_meters":21200,"station_id":"ce4bht12rcd13ifvqi60","pricing_plan_id":"free"},{"bike_id":"7b92c2a0-0a18-4c55-91a3-7ab8b5da79f3","system_id":"levelo_inurba_marseille","lat":43.281044,"lon":5.378308,"is_reserved":false,"is_disabled":false,"rental_uris":{"android":"levelo://app?vid=7b92c2a0-0a18-4c55-91a3-7ab8b5da79f3","ios":"levelo://app?vid=7b92c2a0-0a18-4c55-91a3-7ab8b5da79f3"},"vehicle_type_id":"4","last_reported":1706206206,"current_range_meters":15600,"station_id":"ce4bha12rcd13ifvqee0","pricing_plan_id":"free"},{"bike_id":"1faf616f-86c0-4d95-b3c0-e6d9450429b9","system_id":"levelo_inurba_marseille","lat":43.286039,"lon":5.370679,"is_reserved":false,"is_disabled":false,"rental_uris":{"android":"levelo://app?vid=1faf616f-86c0-4d95-b3c0-e6d9450429b9","ios":"levelo://app?vid=1faf616f-86c0-4d95-b3c0-e6d9450429b9"},"vehicle_type_id":"4","last_reported":1706206206,"current_range_meters":0,"station_id":"ce4bht12rcd13ifvqi60","pricing_plan_id":"free"},{"bike_id":"d9a0befa-1281-48d6-afd4-75eba6b70371","system_id":"levelo_inurba_marseille","lat":43.287185,"lon":5.379373,"is_reserved":false,"is_disabled":false,"rental_uris":{"android":"levelo://app?vid=d9a0befa-1281-48d6-afd4-75eba6b70371","ios":"levelo://app?vid=d9a0befa-1281-48d6-afd4-75eba6b70371"},"vehicle_type_id":"4","last_reported":1706206206,"current_range_meters":15600,"station_id":"ce4bh9p2rcd13ifvqec0","pricing_plan_id":"free"},{"bike_id":"418286c2-4fc7-4344-9845-dbf0b43ab013","system_id":"levelo_inurba_marseille","lat":43.287185,"lon":5.379373,"is_reserved":false,"is_disabled":false,"rental_uris":{"android":"levelo://app?vid=418286c2-4fc7-4344-9845-dbf0b43ab013","ios":"levelo://app?vid=418286c2-4fc7-4344-9845-dbf0b43ab013"},"vehicle_type_id":"4","last_reported":1706206206,"current_range_meters":0,"station_id":"ce4bh9p2rcd13ifvqec0","pricing_plan_id":"free"},{"bike_id":"8df08394-2c49-4a1d-a3aa-6a28aa2d0989","system_id":"levelo_inurba_marseille","lat":43.316828,"lon":5.404723,"is_reserved":false,"is_disabled":false,"rental_uris":{"android":"levelo://app?vid=8df08394-2c49-4a1d-a3aa-6a28aa2d0989","ios":"levelo://app?vid=8df08394-2c49-4a1d-a3aa-6a28aa2d0989"},"vehicle_type_id":"4","last_reported":1706206206,"current_range_meters":25600,"station_id":"ce4bh012rcd13ifvqd00","pricing_plan_id":"free"},{"bike_id":"8acefe6f-2973-43d9-9fea-07dc3d0d9a91","system_id":"levelo_inurba_marseille","lat":43.316828,"lon":5.404723,"is_reserved":false,"is_disabled":false,"rental_uris":{"android":"levelo://app?vid=8acefe6f-2973-43d9-9fea-07dc3d0d9a91","ios":"levelo://app?vid=8acefe6f-2973-43d9-9fea-07dc3d0d9a91"},"vehicle_type_id":"4","last_reported":1706206206,"current_range_meters":800,"station_id":"ce4bh012rcd13ifvqd00","pricing_plan_id":"free"},{"bike_id":"b58e23fa-8d7a-44b3-91c7-111dd0467fe5","system_id":"levelo_inurba_marseille","lat":43.316828,"lon":5.404723,"is_reserved":false,"is_disabled":false,"rental_uris":{"android":"levelo://app?vid=b58e23fa-8d7a-44b3-91c7-111dd0467fe5","ios":"levelo://app?vid=b58e23fa-8d7a-44b3-91c7-111dd0467fe5"},"vehicle_type_id":"4","last_reported":1706206206,"current_range_meters":5200,"station_id":"ce4bh012rcd13ifvqd00","pricing_plan_id":"free"},{"bike_id":"7bbf75c5-e58e-4af5-b099-79928b86b64d","system_id":"levelo_inurba_marseille","lat":43.316828,"lon":5.404723,"is_reserved":false,"is_disabled":false,"rental_uris":{"android":"levelo://app?vid=7bbf75c5-e58e-4af5-b099-79928b86b64d","ios":"levelo://app?vid=7bbf75c5-e58e-4af5-b099-79928b86b64d"},"vehicle_type_id":"4","last_reported":1706206206,"current_range_meters":14000,"station_id":"ce4bh012rcd13ifvqd00","pricing_plan_id":"free"},{"bike_id":"9465345c-c69e-497b-b4b9-27bd0dd8e781","system_id":"levelo_inurba_marseille","lat":43.284538,"lon":5.358657,"is_reserved":false,"is_disabled":false,"rental_uris":{"android":"levelo://app?vid=9465345c-c69e-497b-b4b9-27bd0dd8e781","ios":"levelo://app?vid=9465345c-c69e-497b-b4b9-27bd0dd8e781"},"vehicle_type_id":"4","last_reported":1706206206,"current_range_meters":13600,"station_id":"ce4bhah2rcd13ifvqei0","pricing_plan_id":"free"},{"bike_id":"74872dd6-26cc-4092-a5c6-888136d6dcc1","system_id":"levelo_inurba_marseille","lat":43.294314,"lon":5.397498,"is_reserved":false,"is_disabled":false,"rental_uris":{"android":"levelo://app?vid=74872dd6-26cc-4092-a5c6-888136d6dcc1","ios":"levelo://app?vid=74872dd6-26cc-4092-a5c6-888136d6dcc1"},"vehicle_type_id":"4","last_reported":1706206206,"current_range_meters":31200,"station_id":"ce4bh3h2rcd13ifvqdo0","pricing_plan_id":"free"},{"bike_id":"161774d6-0b43-41dc-a15b-1e4a889ca753","system_id":"levelo_inurba_marseille","lat":43.294314,"lon":5.397498,"is_reserved":false,"is_disabled":false,"rental_uris":{"android":"levelo://app?vid=161774d6-0b43-41dc-a15b-1e4a889ca753","ios":"levelo://app?vid=161774d6-0b43-41dc-a15b-1e4a889ca753"},"vehicle_type_id":"4","last_reported":1706206206,"current_range_meters":8000,"station_id":"ce4bh3h2rcd13ifvqdo0","pricing_plan_id":"free"},{"bike_id":"72d50a33-94f0-42ee-8fdf-aa8bc30b89cc","system_id":"levelo_inurba_marseille","lat":43.28466,"lon":5.35895,"is_reserved":false,"is_disabled":false,"rental_uris":{"android":"levelo://app?vid=72d50a33-94f0-42ee-8fdf-aa8bc30b89cc","ios":"levelo://app?vid=72d50a33-94f0-42ee-8fdf-aa8bc30b89cc"},"vehicle_type_id":"4","last_reported":1706206206,"current_range_meters":14000,"station_id":"ce4bhah2rcd13ifvqei0","pricing_plan_id":"free"},{"bike_id":"bcc11a43-4510-4887-bcbc-70a82fbb4501","system_id":"levelo_inurba_marseille","lat":43.284538,"lon":5.358657,"is_reserved":false,"is_disabled":false,"rental_uris":{"android":"levelo://app?vid=bcc11a43-4510-4887-bcbc-70a82fbb4501","ios":"levelo://app?vid=bcc11a43-4510-4887-bcbc-70a82fbb4501"},"vehicle_type_id":"4","last_reported":1706206206,"current_range_meters":20000,"station_id":"ce4bhah2rcd13ifvqei0","pricing_plan_id":"free"},{"bike_id":"2be57e9d-60ac-447f-826f-c0a1952e0940","system_id":"levelo_inurba_marseille","lat":43.284538,"lon":5.358657,"is_reserved":false,"is_disabled":false,"rental_uris":{"android":"levelo://app?vid=2be57e9d-60ac-447f-826f-c0a1952e0940","ios":"levelo://app?vid=2be57e9d-60ac-447f-826f-c0a1952e0940"},"vehicle_type_id":"4","last_reported":1706206206,"current_range_meters":0,"station_id":"ce4bhah2rcd13ifvqei0","pricing_plan_id":"free"},{"bike_id":"7f5c3572-509a-4173-a433-099449d5c24f","system_id":"levelo_inurba_marseille","lat":43.284538,"lon":5.358657,"is_reserved":false,"is_disabled":false,"rental_uris":{"android":"levelo://app?vid=7f5c3572-509a-4173-a433-099449d5c24f","ios":"levelo://app?vid=7f5c3572-509a-4173-a433-099449d5c24f"},"vehicle_type_id":"4","last_reported":1706206206,"current_range_meters":17200,"station_id":"ce4bhah2rcd13ifvqei0","pricing_plan_id":"free"},{"bike_id":"00b4e99b-b0d9-42e0-b62f-fed197e64744","system_id":"levelo_inurba_marseille","lat":43.284538,"lon":5.358657,"is_reserved":false,"is_disabled":false,"rental_uris":{"android":"levelo://app?vid=00b4e99b-b0d9-42e0-b62f-fed197e64744","ios":"levelo://app?vid=00b4e99b-b0d9-42e0-b62f-fed197e64744"},"vehicle_type_id":"4","last_reported":1706206206,"current_range_meters":13600,"station_id":"ce4bhah2rcd13ifvqei0","pricing_plan_id":"free"},{"bike_id":"167cc068-332b-4ccc-a412-768a662056ff","system_id":"levelo_inurba_marseille","lat":43.284538,"lon":5.358657,"is_reserved":false,"is_disabled":false,"rental_uris":{"android":"levelo://app?vid=167cc068-332b-4ccc-a412-768a662056ff","ios":"levelo://app?vid=167cc068-332b-4ccc-a412-768a662056ff"},"vehicle_type_id":"4","last_reported":1706206206,"current_range_meters":19200,"station_id":"ce4bhah2rcd13ifvqei0","pricing_plan_id":"free"},{"bike_id":"19205ec9-fde4-41a9-8af4-a581b3cf91cb","system_id":"levelo_inurba_marseille","lat":43.284538,"lon":5.358657,"is_reserved":false,"is_disabled":false,"rental_uris":{"android":"levelo://app?vid=19205ec9-fde4-41a9-8af4-a581b3cf91cb","ios":"levelo://app?vid=19205ec9-fde4-41a9-8af4-a581b3cf91cb"},"vehicle_type_id":"4","last_reported":1706206206,"current_range_meters":9600,"station_id":"ce4bhah2rcd13ifvqei0","pricing_plan_id":"free"},{"bike_id":"a500314c-2242-45ff-a557-62a0072f731c","system_id":"levelo_inurba_marseille","lat":43.284538,"lon":5.358657,"is_reserved":false,"is_disabled":false,"rental_uris":{"android":"levelo://app?vid=a500314c-2242-45ff-a557-62a0072f731c","ios":"levelo://app?vid=a500314c-2242-45ff-a557-62a0072f731c"},"vehicle_type_id":"4","last_reported":1706206206,"current_range_meters":15200,"station_id":"ce4bhah2rcd13ifvqei0","pricing_plan_id":"free"},{"bike_id":"1aef3aab-bf49-4d67-81f9-f27a8989d455","system_id":"levelo_inurba_marseille","lat":43.28457,"lon":5.35878,"is_reserved":false,"is_disabled":false,"rental_uris":{"android":"levelo://app?vid=1aef3aab-bf49-4d67-81f9-f27a8989d455","ios":"levelo://app?vid=1aef3aab-bf49-4d67-81f9-f27a8989d455"},"vehicle_type_id":"4","last_reported":1706206206,"current_range_meters":0,"station_id":"ce4bhah2rcd13ifvqei0","pricing_plan_id":"free"},{"bike_id":"83663181-fd3c-470d-8a75-b5687c19a4e5","system_id":"levelo_inurba_marseille","lat":43.284534,"lon":5.358662,"is_reserved":false,"is_disabled":false,"rental_uris":{"android":"levelo://app?vid=83663181-fd3c-470d-8a75-b5687c19a4e5","ios":"levelo://app?vid=83663181-fd3c-470d-8a75-b5687c19a4e5"},"vehicle_type_id":"4","last_reported":1706206206,"current_range_meters":13200,"station_id":"ce4bhah2rcd13ifvqei0","pricing_plan_id":"free"},{"bike_id":"4e758179-49d3-4d41-ad61-6123c8c76c1c","system_id":"levelo_inurba_marseille","lat":43.284538,"lon":5.358657,"is_reserved":false,"is_disabled":false,"rental_uris":{"android":"levelo://app?vid=4e758179-49d3-4d41-ad61-6123c8c76c1c","ios":"levelo://app?vid=4e758179-49d3-4d41-ad61-6123c8c76c1c"},"vehicle_type_id":"4","last_reported":1706206206,"current_range_meters":21200,"station_id":"ce4bhah2rcd13ifvqei0","pricing_plan_id":"free"},{"bike_id":"86038857-a612-4a02-bba9-1c9f54dc5e6d","system_id":"levelo_inurba_marseille","lat":43.285856,"lon":5.350771,"is_reserved":false,"is_disabled":false,"rental_uris":{"android":"levelo://app?vid=86038857-a612-4a02-bba9-1c9f54dc5e6d","ios":"levelo://app?vid=86038857-a612-4a02-bba9-1c9f54dc5e6d"},"vehicle_type_id":"4","last_reported":1706206206,"current_range_meters":14400,"station_id":"ce4bhch2rcd13ifvqeug","pricing_plan_id":"free"},{"bike_id":"3a269215-b2dc-433a-80c5-c20ca3b8be26","system_id":"levelo_inurba_marseille","lat":43.283998,"lon":5.375062,"is_reserved":false,"is_disabled":false,"rental_uris":{"android":"levelo://app?vid=3a269215-b2dc-433a-80c5-c20ca3b8be26","ios":"levelo://app?vid=3a269215-b2dc-433a-80c5-c20ca3b8be26"},"vehicle_type_id":"4","last_reported":1706206206,"current_range_meters":2800,"station_id":"ce4bh412rcd13ifvqds0","pricing_plan_id":"free"},{"bike_id":"241042c1-3867-47fe-bd8f-17763e612521","system_id":"levelo_inurba_marseille","lat":43.295713,"lon":5.399639,"is_reserved":false,"is_disabled":false,"rental_uris":{"android":"levelo://app?vid=241042c1-3867-47fe-bd8f-17763e612521","ios":"levelo://app?vid=241042c1-3867-47fe-bd8f-17763e612521"},"vehicle_type_id":"4","last_reported":1706206206,"current_range_meters":7600,"station_id":"ce4bh312rcd13ifvqdj0","pricing_plan_id":"free"},{"bike_id":"fb1270bc-f612-4188-be0a-e093f90777fc","system_id":"levelo_inurba_marseille","lat":43.295713,"lon":5.399639,"is_reserved":false,"is_disabled":false,"rental_uris":{"android":"levelo://app?vid=fb1270bc-f612-4188-be0a-e093f90777fc","ios":"levelo://app?vid=fb1270bc-f612-4188-be0a-e093f90777fc"},"vehicle_type_id":"4","last_reported":1706206206,"current_range_meters":3200,"station_id":"ce4bh312rcd13ifvqdj0","pricing_plan_id":"free"},{"bike_id":"f4b01c23-45bc-4caa-8f4f-fab054c6bda3","system_id":"levelo_inurba_marseille","lat":43.286595,"lon":5.386795,"is_reserved":false,"is_disabled":false,"rental_uris":{"android":"levelo://app?vid=f4b01c23-45bc-4caa-8f4f-fab054c6bda3","ios":"levelo://app?vid=f4b01c23-45bc-4caa-8f4f-fab054c6bda3"},"vehicle_type_id":"4","last_reported":1706206206,"current_range_meters":15600,"station_id":"ce4bh492rcd13ifvqdug","pricing_plan_id":"free"},{"bike_id":"ff3c2228-a967-4664-b471-5d60dfafa4de","system_id":"levelo_inurba_marseille","lat":43.286595,"lon":5.386795,"is_reserved":false,"is_disabled":false,"rental_uris":{"android":"levelo://app?vid=ff3c2228-a967-4664-b471-5d60dfafa4de","ios":"levelo://app?vid=ff3c2228-a967-4664-b471-5d60dfafa4de"},"vehicle_type_id":"4","last_reported":1706206206,"current_range_meters":0,"station_id":"ce4bh492rcd13ifvqdug","pricing_plan_id":"free"},{"bike_id":"ace09d05-d2f5-4ff5-898b-8034389afd8f","system_id":"levelo_inurba_marseille","lat":43.286595,"lon":5.386795,"is_reserved":false,"is_disabled":false,"rental_uris":{"android":"levelo://app?vid=ace09d05-d2f5-4ff5-898b-8034389afd8f","ios":"levelo://app?vid=ace09d05-d2f5-4ff5-898b-8034389afd8f"},"vehicle_type_id":"4","last_reported":1706206206,"current_range_meters":6000,"station_id":"ce4bh492rcd13ifvqdug","pricing_plan_id":"free"},{"bike_id":"aa1b311e-5956-49ab-86b9-1f6afdd15fc8","system_id":"levelo_inurba_marseille","lat":43.286595,"lon":5.386795,"is_reserved":false,"is_disabled":false,"rental_uris":{"android":"levelo://app?vid=aa1b311e-5956-49ab-86b9-1f6afdd15fc8","ios":"levelo://app?vid=aa1b311e-5956-49ab-86b9-1f6afdd15fc8"},"vehicle_type_id":"4","last_reported":1706206206,"current_range_meters":9600,"station_id":"ce4bh492rcd13ifvqdug","pricing_plan_id":"free"},{"bike_id":"aef8c766-52fa-4a65-afde-7f9e64b2cacd","system_id":"levelo_inurba_marseille","lat":43.286595,"lon":5.386795,"is_reserved":false,"is_disabled":false,"rental_uris":{"android":"levelo://app?vid=aef8c766-52fa-4a65-afde-7f9e64b2cacd","ios":"levelo://app?vid=aef8c766-52fa-4a65-afde-7f9e64b2cacd"},"vehicle_type_id":"4","last_reported":1706206206,"current_range_meters":24800,"station_id":"ce4bh492rcd13ifvqdug","pricing_plan_id":"free"},{"bike_id":"f8434ef2-6365-4723-b1ed-626802abccb8","system_id":"levelo_inurba_marseille","lat":43.295713,"lon":5.399639,"is_reserved":false,"is_disabled":false,"rental_uris":{"android":"levelo://app?vid=f8434ef2-6365-4723-b1ed-626802abccb8","ios":"levelo://app?vid=f8434ef2-6365-4723-b1ed-626802abccb8"},"vehicle_type_id":"4","last_reported":1706206206,"current_range_meters":0,"station_id":"ce4bh312rcd13ifvqdj0","pricing_plan_id":"free"},{"bike_id":"9c128090-5a8d-4999-9354-10fd54133f5b","system_id":"levelo_inurba_marseille","lat":43.319179,"lon":5.407725,"is_reserved":false,"is_disabled":false,"rental_uris":{"android":"levelo://app?vid=9c128090-5a8d-4999-9354-10fd54133f5b","ios":"levelo://app?vid=9c128090-5a8d-4999-9354-10fd54133f5b"},"vehicle_type_id":"4","last_reported":1706206206,"current_range_meters":18400,"station_id":"ce4bhq12rcd13ifvqhig","pricing_plan_id":"free"},{"bike_id":"31acc313-cfe3-451a-8762-b6bd59f1fbc4","system_id":"levelo_inurba_marseille","lat":43.28505,"lon":5.384044,"is_reserved":false,"is_disabled":false,"rental_uris":{"android":"levelo://app?vid=31acc313-cfe3-451a-8762-b6bd59f1fbc4","ios":"levelo://app?vid=31acc313-cfe3-451a-8762-b6bd59f1fbc4"},"vehicle_type_id":"4","last_reported":1706206206,"current_range_meters":26000,"station_id":"ce4bh512rcd13ifvqe3g","pricing_plan_id":"free"},{"bike_id":"29c971f3-912e-4f79-8c22-d20e1f4b5d74","system_id":"levelo_inurba_marseille","lat":43.337168,"lon":5.391825,"is_reserved":false,"is_disabled":false,"rental_uris":{"android":"levelo://app?vid=29c971f3-912e-4f79-8c22-d20e1f4b5d74","ios":"levelo://app?vid=29c971f3-912e-4f79-8c22-d20e1f4b5d74"},"vehicle_type_id":"4","last_reported":1706206206,"current_range_meters":28400,"station_id":"ce4bhr92rcd13ifvqhsg","pricing_plan_id":"free"},{"bike_id":"9dbccda2-dc02-403f-a006-5ff4cfc6fe3e","system_id":"levelo_inurba_marseille","lat":43.284793,"lon":5.384119,"is_reserved":false,"is_disabled":false,"rental_uris":{"android":"levelo://app?vid=9dbccda2-dc02-403f-a006-5ff4cfc6fe3e","ios":"levelo://app?vid=9dbccda2-dc02-403f-a006-5ff4cfc6fe3e"},