{"last_updated":1715796566,"ttl":30,"version":"2.2","data":{"bikes":[{"bike_id":"5b2a1b01-6e0b-467a-b450-71d8e70aefe6","system_id":"levelo_inurba_marseille","lat":43.312239,"lon":5.368562,"is_reserved":false,"is_disabled":false,"rental_uris":{"android":"levelo://app?vid=5b2a1b01-6e0b-467a-b450-71d8e70aefe6","ios":"levelo://app?vid=5b2a1b01-6e0b-467a-b450-71d8e70aefe6"},"vehicle_type_id":"4","last_reported":1715796567,"current_range_meters":6400,"station_id":"ce4bgl92rcd13ifvqbq0","pricing_plan_id":"cebpf4jnsgd1na2vs0mg"},{"bike_id":"db6889b9-e23c-415c-9e9f-5d62b350680d","system_id":"levelo_inurba_marseille","lat":43.312239,"lon":5.368562,"is_reserved":false,"is_disabled":false,"rental_uris":{"android":"levelo://app?vid=db6889b9-e23c-415c-9e9f-5d62b350680d","ios":"levelo://app?vid=db6889b9-e23c-415c-9e9f-5d62b350680d"},"vehicle_type_id":"4","last_reported":1715796567,"current_range_meters":17600,"station_id":"ce4bgl92rcd13ifvqbq0","pricing_plan_id":"cebpf4jnsgd1na2vs0mg"},{"bike_id":"8f7f12c3-d080-4f45-8437-5827e2f60f5a","system_id":"levelo_inurba_marseille","lat":43.312239,"lon":5.368562,"is_reserved":false,"is_disabled":false,"rental_uris":{"android":"levelo://app?vid=8f7f12c3-d080-4f45-8437-5827e2f60f5a","ios":"levelo://app?vid=8f7f12c3-d080-4f45-8437-5827e2f60f5a"},"vehicle_type_id":"4","last_reported":1715796567,"current_range_meters":1600,"station_id":"ce4bgl92rcd13ifvqbq0","pricing_plan_id":"cebpf4jnsgd1na2vs0mg"},{"bike_id":"98c2f548-7771-4512-9801-22e1f7b67dc3","system_id":"levelo_inurba_marseille","lat":43.312239,"lon":5.368562,"is_reserved":false,"is_disabled":false,"rental_uris":{"android":"levelo://app?vid=98c2f548-7771-4512-9801-22e1f7b67dc3","ios":"levelo://app?vid=98c2f548-7771-4512-9801-22e1f7b67dc3"},"vehicle_type_id":"4","last_reported":1715796567,"current_range_meters":18800,"station_id":"ce4bgl92rcd13ifvqbq0","pricing_plan_id":"cebpf4jnsgd1na2vs0mg"},{"bike_id":"e4b5cccb-5a5e-4cfc-b756-5b34cd2c5390","system_id":"levelo_inurba_marseille","lat":43.309039,"lon":5.371797,"is_reserved":false,"is_disabled":false,"rental_uris":{"android":"levelo://app?vid=e4b5cccb-5a5e-4cfc-b756-5b34cd2c5390","ios":"levelo://app?vid=e4b5cccb-5a5e-4cfc-b756-5b34cd2c5390"},"vehicle_type_id":"4","last_reported":1715796567,"current_range_meters":6800,"station_id":"ce4bguh2rcd13ifvqckg","pricing_plan_id":"cebpf4jnsgd1na2vs0mg"},{"bike_id":"4e22425e-1278-470f-9d6f-3a89528cd068","system_id":"levelo_inurba_marseille","lat":43.314887,"lon":5.373088,"is_reserved":false,"is_disabled":false,"rental_uris":{"android":"levelo://app?vid=4e22425e-1278-470f-9d6f-3a89528cd068","ios":"levelo://app?vid=4e22425e-1278-470f-9d6f-3a89528cd068"},"vehicle_type_id":"4","last_reported":1715796567,"current_range_meters":20000,"station_id":"ce4bgt12rcd13ifvqcd0","pricing_plan_id":"cebpf4jnsgd1na2vs0mg"},{"bike_id":"bd7030c2-9186-457a-8eaf-2a257aa49b72","system_id":"levelo_inurba_marseille","lat":43.314811,"lon":5.373103,"is_reserved":false,"is_disabled":false,"rental_uris":{"android":"levelo://app?vid=bd7030c2-9186-457a-8eaf-2a257aa49b72","ios":"levelo://app?vid=bd7030c2-9186-457a-8eaf-2a257aa49b72"},"vehicle_type_id":"4","last_reported":1715796567,"current_range_meters":24400,"station_id":"ce4bgt12rcd13ifvqcd0","pricing_plan_id":"cebpf4jnsgd1na2vs0mg"},{"bike_id":"dc232109-8f56-43c9-bd62-17b2c567502c","system_id":"levelo_inurba_marseille","lat":43.304274,"lon":5.397513,"is_reserved":false,"is_disabled":false,"rental_uris":{"android":"levelo://app?vid=dc232109-8f56-43c9-bd62-17b2c567502c","ios":"levelo://app?vid=dc232109-8f56-43c9-bd62-17b2c567502c"},"vehicle_type_id":"4","last_reported":1715796567,"current_range_meters":26000,"station_id":"ce4bh092rcd13ifvqd20","pricing_plan_id":"cebpf4jnsgd1na2vs0mg"},{"bike_id":"e6899bde-12c8-43f3-93ab-18e61ae8df18","system_id":"levelo_inurba_marseille","lat":43.306056,"lon":5.365457,"is_reserved":false,"is_disabled":false,"rental_uris":{"android":"levelo://app?vid=e6899bde-12c8-43f3-93ab-18e61ae8df18","ios":"levelo://app?vid=e6899bde-12c8-43f3-93ab-18e61ae8df18"},"vehicle_type_id":"4","last_reported":1715796567,"current_range_meters":4400,"station_id":"","pricing_plan_id":"cebpf4jnsgd1na2vs0mg"},{"bike_id":"38828395-9847-406b-8372-2ce534be7026","system_id":"levelo_inurba_marseille","lat":43.305351,"lon":5.365636,"is_reserved":false,"is_disabled":false,"rental_uris":{"android":"levelo://app?vid=38828395-9847-406b-8372-2ce534be7026","ios":"levelo://app?vid=38828395-9847-406b-8372-2ce534be7026"},"vehicle_type_id":"4","last_reported":1715796567,"current_range_meters":0,"station_id":"ce4bgqh2rcd13ifvqc5g","pricing_plan_id":"cebpf4jnsgd1na2vs0mg"},{"bike_id":"21b5479e-23bd-498b-8877-38c93d62aa0f","system_id":"levelo_inurba_marseille","lat":43.305989,"lon":5.37225,"is_reserved":false,"is_disabled":false,"rental_uris":{"android":"levelo://app?vid=21b5479e-23bd-498b-8877-38c93d62aa0f","ios":"levelo://app?vid=21b5479e-23bd-498b-8877-38c93d62aa0f"},"vehicle_type_id":"4","last_reported":1715796567,"current_range_meters":22800,"station_id":"ce4bgqh2rcd13ifvqc4g","pricing_plan_id":"cebpf4jnsgd1na2vs0mg"},{"bike_id":"0a0ec529-0c6e-4fe0-9cab-716b56e968c1","system_id":"levelo_inurba_marseille","lat":43.311113,"lon":5.377708,"is_reserved":false,"is_disabled":false,"rental_uris":{"android":"levelo://app?vid=0a0ec529-0c6e-4fe0-9cab-716b56e968c1","ios":"levelo://app?vid=0a0ec529-0c6e-4fe0-9cab-716b56e968c1"},"vehicle_type_id":"4","last_reported":1715796567,"current_range_meters":0,"station_id":"ce4bgt92rcd13ifvqcg0","pricing_plan_id":"cebpf4jnsgd1na2vs0mg"},{"bike_id":"aa0e1257-bf98-4bd2-8aca-c72e034c2bc6","system_id":"levelo_inurba_marseille","lat":43.307945,"lon":5.376487,"is_reserved":false,"is_disabled":false,"rental_uris":{"android":"levelo://app?vid=aa0e1257-bf98-4bd2-8aca-c72e034c2bc6","ios":"levelo://app?vid=aa0e1257-bf98-4bd2-8aca-c72e034c2bc6"},"vehicle_type_id":"4","last_reported":1715796567,"current_range_meters":0,"station_id":"ce4bgv92rcd13ifvqcq0","pricing_plan_id":"cebpf4jnsgd1na2vs0mg"},{"bike_id":"a8420d12-5ea1-4553-ba77-74153419b9a1","system_id":"levelo_inurba_marseille","lat":43.307945,"lon":5.376487,"is_reserved":false,"is_disabled":false,"rental_uris":{"android":"levelo://app?vid=a8420d12-5ea1-4553-ba77-74153419b9a1","ios":"levelo://app?vid=a8420d12-5ea1-4553-ba77-74153419b9a1"},"vehicle_type_id":"4","last_reported":1715796567,"current_range_meters":31200,"station_id":"ce4bgv92rcd13ifvqcq0","pricing_plan_id":"cebpf4jnsgd1na2vs0mg"},{"bike_id":"a1d28fa9-6a13-4001-bcc1-a0d9a4b7da52","system_id":"levelo_inurba_marseille","lat":43.311599,"lon":5.378599,"is_reserved":false,"is_disabled":false,"rental_uris":{"android":"levelo://app?vid=a1d28fa9-6a13-4001-bcc1-a0d9a4b7da52","ios":"levelo://app?vid=a1d28fa9-6a13-4001-bcc1-a0d9a4b7da52"},"vehicle_type_id":"4","last_reported":1715796567,"current_range_meters":0,"station_id":"ce4bgt92rcd13ifvqcg0","pricing_plan_id":"cebpf4jnsgd1na2vs0mg"},{"bike_id":"dd0d32e5-4a86-4b23-bacf-713715aeeb0f","system_id":"levelo_inurba_marseille","lat":43.317075,"lon":5.377367,"is_reserved":false,"is_disabled":false,"rental_uris":{"android":"levelo://app?vid=dd0d32e5-4a86-4b23-bacf-713715aeeb0f","ios":"levelo://app?vid=dd0d32e5-4a86-4b23-bacf-713715aeeb0f"},"vehicle_type_id":"4","last_reported":1715796567,"current_range_meters":6800,"station_id":"ce4bgth2rcd13ifvqch0","pricing_plan_id":"cebpf4jnsgd1na2vs0mg"},{"bike_id":"1bd3497a-5ab8-4da1-8075-33d3e001859c","system_id":"levelo_inurba_marseille","lat":43.317075,"lon":5.377367,"is_reserved":false,"is_disabled":false,"rental_uris":{"android":"levelo://app?vid=1bd3497a-5ab8-4da1-8075-33d3e001859c","ios":"levelo://app?vid=1bd3497a-5ab8-4da1-8075-33d3e001859c"},"vehicle_type_id":"4","last_reported":1715796567,"current_range_meters":21600,"station_id":"ce4bgth2rcd13ifvqch0","pricing_plan_id":"cebpf4jnsgd1na2vs0mg"},{"bike_id":"61ad2708-be0d-4274-9d6d-dc7652851333","system_id":"levelo_inurba_marseille","lat":43.317075,"lon":5.377367,"is_reserved":false,"is_disabled":false,"rental_uris":{"android":"levelo://app?vid=61ad2708-be0d-4274-9d6d-dc7652851333","ios":"levelo://app?vid=61ad2708-be0d-4274-9d6d-dc7652851333"},"vehicle_type_id":"4","last_reported":1715796567,"current_range_meters":1200,"station_id":"ce4bgth2rcd13ifvqch0","pricing_plan_id":"cebpf4jnsgd1na2vs0mg"},{"bike_id":"cebcd5f3-772c-43a3-8297-c5fcbd4d3394","system_id":"levelo_inurba_marseille","lat":43.317075,"lon":5.377367,"is_reserved":false,"is_disabled":false,"rental_uris":{"android":"levelo://app?vid=cebcd5f3-772c-43a3-8297-c5fcbd4d3394","ios":"levelo://app?vid=cebcd5f3-772c-43a3-8297-c5fcbd4d3394"},"vehicle_type_id":"4","last_reported":1715796567,"current_range_meters":2000,"station_id":"ce4bgth2rcd13ifvqch0","pricing_plan_id":"cebpf4jnsgd1na2vs0mg"},{"bike_id":"9248a4a3-8457-4e2a-a4ee-a6217c9ff2b3","system_id":"levelo_inurba_marseille","lat":43.315293,"lon":5.380349,"is_reserved":false,"is_disabled":false,"rental_uris":{"android":"levelo://app?vid=9248a4a3-8457-4e2a-a4ee-a6217c9ff2b3","ios":"levelo://app?vid=9248a4a3-8457-4e2a-a4ee-a6217c9ff2b3"},"vehicle_type_id":"4","last_reported":1715796567,"current_range_meters":19200,"station_id":"ce4bhsp2rcd13ifvqi50","pricing_plan_id":"cebpf4jnsgd1na2vs0mg"},{"bike_id":"50183349-ab06-4943-ad7e-43eaeca7d645","system_id":"levelo_inurba_marseille","lat":43.315293,"lon":5.380349,"is_reserved":false,"is_disabled":false,"rental_uris":{"android":"levelo://app?vid=50183349-ab06-4943-ad7e-43eaeca7d645","ios":"levelo://app?vid=50183349-ab06-4943-ad7e-43eaeca7d645"},"vehicle_type_id":"4","last_reported":1715796567,"current_range_meters":16000,"station_id":"ce4bhsp2rcd13ifvqi50","pricing_plan_id":"cebpf4jnsgd1na2vs0mg"},{"bike_id":"8788f90a-8384-4b47-812a-7fac0f0dc8d4","system_id":"levelo_inurba_marseille","lat":43.30807,"lon":5.38147,"is_reserved":false,"is_disabled":false,"rental_uris":{"android":"levelo://app?vid=8788f90a-8384-4b47-812a-7fac0f0dc8d4","ios":"levelo://app?vid=8788f90a-8384-4b47-812a-7fac0f0dc8d4"},"vehicle_type_id":"4","last_reported":1715796567,"current_range_meters":0,"station_id":"ce4bgt12rcd13ifvqce0","pricing_plan_id":"cebpf4jnsgd1na2vs0mg"},{"bike_id":"d43dea6c-f653-4a5a-9b23-7215a8a3339a","system_id":"levelo_inurba_marseille","lat":43.308012,"lon":5.381511,"is_reserved":false,"is_disabled":false,"rental_uris":{"android":"levelo://app?vid=d43dea6c-f653-4a5a-9b23-7215a8a3339a","ios":"levelo://app?vid=d43dea6c-f653-4a5a-9b23-7215a8a3339a"},"vehicle_type_id":"4","last_reported":1715796567,"current_range_meters":16800,"station_id":"ce4bgt12rcd13ifvqce0","pricing_plan_id":"cebpf4jnsgd1na2vs0mg"},{"bike_id":"12b3deeb-8881-4d23-832b-b973e63e588e","system_id":"levelo_inurba_marseille","lat":43.30803,"lon":5.38159,"is_reserved":false,"is_disabled":false,"rental_uris":{"android":"levelo://app?vid=12b3deeb-8881-4d23-832b-b973e63e588e","ios":"levelo://app?vid=12b3deeb-8881-4d23-832b-b973e63e588e"},"vehicle_type_id":"4","last_reported":1715796567,"current_range_meters":3600,"station_id":"ce4bgt12rcd13ifvqce0","pricing_plan_id":"cebpf4jnsgd1na2vs0mg"},{"bike_id":"88359e82-04b4-46ae-a7ee-68e0cbe94dc2","system_id":"levelo_inurba_marseille","lat":43.30461,"lon":5.378995,"is_reserved":false,"is_disabled":false,"rental_uris":{"android":"levelo://app?vid=88359e82-04b4-46ae-a7ee-68e0cbe94dc2","ios":"levelo://app?vid=88359e82-04b4-46ae-a7ee-68e0cbe94dc2"},"vehicle_type_id":"4","last_reported":1715796567,"current_range_meters":0,"station_id":"ce4bgup2rcd13ifvqcn0","pricing_plan_id":"cebpf4jnsgd1na2vs0mg"},{"bike_id":"8dfc9636-03f3-43ca-ac1d-ce55c26c1c71","system_id":"levelo_inurba_marseille","lat":43.324683,"lon":5.365741,"is_reserved":false,"is_disabled":false,"rental_uris":{"android":"levelo://app?vid=8dfc9636-03f3-43ca-ac1d-ce55c26c1c71","ios":"levelo://app?vid=8dfc9636-03f3-43ca-ac1d-ce55c26c1c71"},"vehicle_type_id":"4","last_reported":1715796567,"current_range_meters":2400,"station_id":"ce4bhs12rcd13ifvqhvg","pricing_plan_id":"cebpf4jnsgd1na2vs0mg"},{"bike_id":"fc836051-5de0-46f8-a792-c6a0deea6ceb","system_id":"levelo_inurba_marseille","lat":43.324772,"lon":5.365699,"is_reserved":false,"is_disabled":false,"rental_uris":{"android":"levelo://app?vid=fc836051-5de0-46f8-a792-c6a0deea6ceb","ios":"levelo://app?vid=fc836051-5de0-46f8-a792-c6a0deea6ceb"},"vehicle_type_id":"4","last_reported":1715796567,"current_range_meters":22400,"station_id":"ce4bhs12rcd13ifvqhvg","pricing_plan_id":"cebpf4jnsgd1na2vs0mg"},{"bike_id":"1dc34fd3-5c10-4699-a06b-4a9bc187d6a8","system_id":"levelo_inurba_marseille","lat":43.324771,"lon":5.36557,"is_reserved":false,"is_disabled":false,"rental_uris":{"android":"levelo://app?vid=1dc34fd3-5c10-4699-a06b-4a9bc187d6a8","ios":"levelo://app?vid=1dc34fd3-5c10-4699-a06b-4a9bc187d6a8"},"vehicle_type_id":"4","last_reported":1715796567,"current_range_meters":6000,"station_id":"ce4bhs12rcd13ifvqhvg","pricing_plan_id":"cebpf4jnsgd1na2vs0mg"},{"bike_id":"29c9570f-fcf3-488e-89d8-23e99063b819","system_id":"levelo_inurba_marseille","lat":43.324771,"lon":5.36557,"is_reserved":false,"is_disabled":false,"rental_uris":{"android":"levelo://app?vid=29c9570f-fcf3-488e-89d8-23e99063b819","ios":"levelo://app?vid=29c9570f-fcf3-488e-89d8-23e99063b819"},"vehicle_type_id":"4","last_reported":1715796567,"current_range_meters":27200,"station_id":"ce4bhs12rcd13ifvqhvg","pricing_plan_id":"cebpf4jnsgd1na2vs0mg"},{"bike_id":"de363a9b-b8dd-4f25-97c4-05ca23eea0b0","system_id":"levelo_inurba_marseille","lat":43.324771,"lon":5.36557,"is_reserved":false,"is_disabled":false,"rental_uris":{"android":"levelo://app?vid=de363a9b-b8dd-4f25-97c4-05ca23eea0b0","ios":"levelo://app?vid=de363a9b-b8dd-4f25-97c4-05ca23eea0b0"},"vehicle_type_id":"4","last_reported":1715796567,"current_range_meters":13600,"station_id":"ce4bhs12rcd13ifvqhvg","pricing_plan_id":"cebpf4jnsgd1na2vs0mg"},{"bike_id":"23ee2da2-f60a-407b-97f6-cc4a45e3f130","system_id":"levelo_inurba_marseille","lat":43.324771,"lon":5.36557,"is_reserved":false,"is_disabled":false,"rental_uris":{"android":"levelo://app?vid=23ee2da2-f60a-407b-97f6-cc4a45e3f130","ios":"levelo://app?vid=23ee2da2-f60a-407b-97f6-cc4a45e3f130"},"vehicle_type_id":"4","last_reported":1715796567,"current_range_meters":24400,"station_id":"ce4bhs12rcd13ifvqhvg","pricing_plan_id":"cebpf4jnsgd1na2vs0mg"},{"bike_id":"fbb6cef2-0251-45ac-be4c-6827acb26d5a","system_id":"levelo_inurba_marseille","lat":43.324802,"lon":5.365719,"is_reserved":false,"is_disabled":false,"rental_uris":{"android":"levelo://app?vid=fbb6cef2-0251-45ac-be4c-6827acb26d5a","ios":"levelo://app?vid=fbb6cef2-0251-45ac-be4c-6827acb26d5a"},"vehicle_type_id":"4","last_reported":1715796567,"current_range_meters":3200,"station_id":"ce4bhs12rcd13ifvqhvg","pricing_plan_id":"cebpf4jnsgd1na2vs0mg"},{"bike_id":"6f14d4b8-d745-4acc-afa4-80fb43413763","system_id":"levelo_inurba_marseille","lat":43.324771,"lon":5.36557,"is_reserved":false,"is_disabled":false,"rental_uris":{"android":"levelo://app?vid=6f14d4b8-d745-4acc-afa4-80fb43413763","ios":"levelo://app?vid=6f14d4b8-d745-4acc-afa4-80fb43413763"},"vehicle_type_id":"4","last_reported":1715796567,"current_range_meters":27600,"station_id":"ce4bhs12rcd13ifvqhvg","pricing_plan_id":"cebpf4jnsgd1na2vs0mg"},{"bike_id":"adbbe334-2605-41cd-9a56-9e99f0234cfc","system_id":"levelo_inurba_marseille","lat":43.324771,"lon":5.36557,"is_reserved":false,"is_disabled":false,"rental_uris":{"android":"levelo://app?vid=adbbe334-2605-41cd-9a56-9e99f0234cfc","ios":"levelo://app?vid=adbbe334-2605-41cd-9a56-9e99f0234cfc"},"vehicle_type_id":"4","last_reported":1715796567,"current_range_meters":2400,"station_id":"ce4bhs12rcd13ifvqhvg","pricing_plan_id":"cebpf4jnsgd1na2vs0mg"},{"bike_id":"b3305284-c927-4299-8648-9512a466e418","system_id":"levelo_inurba_marseille","lat":43.32483,"lon":5.36579,"is_reserved":false,"is_disabled":false,"rental_uris":{"android":"levelo://app?vid=b3305284-c927-4299-8648-9512a466e418","ios":"levelo://app?vid=b3305284-c927-4299-8648-9512a466e418"},"vehicle_type_id":"4","last_reported":1715796567,"current_range_meters":4800,"station_id":"ce4bhs12rcd13ifvqhvg","pricing_plan_id":"cebpf4jnsgd1na2vs0mg"},{"bike_id":"77b48e1d-83c7-4b46-8f92-6f8995a7f266","system_id":"levelo_inurba_marseille","lat":43.324771,"lon":5.36557,"is_reserved":false,"is_disabled":false,"rental_uris":{"android":"levelo://app?vid=77b48e1d-83c7-4b46-8f92-6f8995a7f266","ios":"levelo://app?vid=77b48e1d-83c7-4b46-8f92-6f8995a7f266"},"vehicle_type_id":"4","last_reported":1715796567,"current_range_meters":19200,"station_id":"ce4bhs12rcd13ifvqhvg","pricing_plan_id":"cebpf4jnsgd1na2vs0mg"},{"bike_id":"d4a18592-1898-44ad-a2df-d97add309de2","system_id":"levelo_inurba_marseille","lat":43.324771,"lon":5.36557,"is_reserved":false,"is_disabled":false,"rental_uris":{"android":"levelo://app?vid=d4a18592-1898-44ad-a2df-d97add309de2","ios":"levelo://app?vid=d4a18592-1898-44ad-a2df-d97add309de2"},"vehicle_type_id":"4","last_reported":1715796567,"current_range_meters":11600,"station_id":"ce4bhs12rcd13ifvqhvg","pricing_plan_id":"cebpf4jnsgd1na2vs0mg"},{"bike_id":"f00ae0dc-1178-41a8-9dc0-862d41770975","system_id":"levelo_inurba_marseille","lat":43.310804,"lon":5.38359,"is_reserved":false,"is_disabled":false,"rental_uris":{"android":"levelo://app?vid=f00ae0dc-1178-41a8-9dc0-862d41770975","ios":"levelo://app?vid=f00ae0dc-1178-41a8-9dc0-862d41770975"},"vehicle_type_id":"4","last_reported":1715796567,"current_range_meters":27200,"station_id":"ce4bgv92rcd13ifvqcr0","pricing_plan_id":"cebpf4jnsgd1na2vs0mg"},{"bike_id":"57bf36ff-98c7-4cf3-9617-b96084cb4be9","system_id":"levelo_inurba_marseille","lat":43.310804,"lon":5.38359,"is_reserved":false,"is_disabled":false,"rental_uris":{"android":"levelo://app?vid=57bf36ff-98c7-4cf3-9617-b96084cb4be9","ios":"levelo://app?vid=57bf36ff-98c7-4cf3-9617-b96084cb4be9"},"vehicle_type_id":"4","last_reported":1715796567,"current_range_meters":16000,"station_id":"ce4bgv92rcd13ifvqcr0","pricing_plan_id":"cebpf4jnsgd1na2vs0mg"},{"bike_id":"75ae05ae-9094-4ec5-961d-b75c2db5387c","system_id":"levelo_inurba_marseille","lat":43.310804,"lon":5.38359,"is_reserved":false,"is_disabled":false,"rental_uris":{"android":"levelo://app?vid=75ae05ae-9094-4ec5-961d-b75c2db5387c","ios":"levelo://app?vid=75ae05ae-9094-4ec5-961d-b75c2db5387c"},"vehicle_type_id":"4","last_reported":1715796567,"current_range_meters":0,"station_id":"ce4bgv92rcd13ifvqcr0","pricing_plan_id":"cebpf4jnsgd1na2vs0mg"},{"bike_id":"0e3fd1eb-6ec5-4bbc-882c-ed4efce54596","system_id":"levelo_inurba_marseille","lat":43.310804,"lon":5.38359,"is_reserved":false,"is_disabled":false,"rental_uris":{"android":"levelo://app?vid=0e3fd1eb-6ec5-4bbc-882c-ed4efce54596","ios":"levelo://app?vid=0e3fd1eb-6ec5-4bbc-882c-ed4efce54596"},"vehicle_type_id":"4","last_reported":1715796567,"current_range_meters":11600,"station_id":"ce4bgv92rcd13ifvqcr0","pricing_plan_id":"cebpf4jnsgd1na2vs0mg"},{"bike_id":"b1e2eb34-c1ce-4ffa-ac42-118e9c2561ad","system_id":"levelo_inurba_marseille","lat":43.319967,"lon":5.381563,"is_reserved":false,"is_disabled":false,"rental_uris":{"android":"levelo://app?vid=b1e2eb34-c1ce-4ffa-ac42-118e9c2561ad","ios":"levelo://app?vid=b1e2eb34-c1ce-4ffa-ac42-118e9c2561ad"},"vehicle_type_id":"4","last_reported":1715796567,"current_range_meters":2400,"station_id":"ce4bhr12rcd13ifvqhpg","pricing_plan_id":"cebpf4jnsgd1na2vs0mg"},{"bike_id":"05a08cd3-2dba-4ad7-9594-35a1ccc39fb4","system_id":"levelo_inurba_marseille","lat":43.319935,"lon":5.381699,"is_reserved":false,"is_disabled":false,"rental_uris":{"android":"levelo://app?vid=05a08cd3-2dba-4ad7-9594-35a1ccc39fb4","ios":"levelo://app?vid=05a08cd3-2dba-4ad7-9594-35a1ccc39fb4"},"vehicle_type_id":"4","last_reported":1715796567,"current_range_meters":6400,"station_id":"ce4bhr12rcd13ifvqhpg","pricing_plan_id":"cebpf4jnsgd1na2vs0mg"},{"bike_id":"2a9fa8b7-50b2-4d27-825e-9e4a296f956f","system_id":"levelo_inurba_marseille","lat":43.319935,"lon":5.381699,"is_reserved":false,"is_disabled":false,"rental_uris":{"android":"levelo://app?vid=2a9fa8b7-50b2-4d27-825e-9e4a296f956f","ios":"levelo://app?vid=2a9fa8b7-50b2-4d27-825e-9e4a296f956f"},"vehicle_type_id":"4","last_reported":1715796567,"current_range_meters":3600,"station_id":"ce4bhr12rcd13ifvqhpg","pricing_plan_id":"cebpf4jnsgd1na2vs0mg"},{"bike_id":"5022c498-233c-4f4b-9b2f-9c781514b372","system_id":"levelo_inurba_marseille","lat":43.319935,"lon":5.381699,"is_reserved":false,"is_disabled":false,"rental_uris":{"android":"levelo://app?vid=5022c498-233c-4f4b-9b2f-9c781514b372","ios":"levelo://app?vid=5022c498-233c-4f4b-9b2f-9c781514b372"},"vehicle_type_id":"4","last_reported":1715796567,"current_range_meters":20400,"station_id":"ce4bhr12rcd13ifvqhpg","pricing_plan_id":"cebpf4jnsgd1na2vs0mg"},{"bike_id":"71237a2b-ee8a-4528-b1c5-8dfeb567cb31","system_id":"levelo_inurba_marseille","lat":43.319935,"lon":5.381699,"is_reserved":false,"is_disabled":false,"rental_uris":{"android":"levelo://app?vid=71237a2b-ee8a-4528-b1c5-8dfeb567cb31","ios":"levelo://app?vid=71237a2b-ee8a-4528-b1c5-8dfeb567cb31"},"vehicle_type_id":"4","last_reported":1715796567,"current_range_meters":17600,"station_id":"ce4bhr12rcd13ifvqhpg","pricing_plan_id":"cebpf4jnsgd1na2vs0mg"},{"bike_id":"d9bd77c3-1225-4c25-8c49-148044e7c327","system_id":"levelo_inurba_marseille","lat":43.320029,"lon":5.381617,"is_reserved":false,"is_disabled":false,"rental_uris":{"android":"levelo://app?vid=d9bd77c3-1225-4c25-8c49-148044e7c327","ios":"levelo://app?vid=d9bd77c3-1225-4c25-8c49-148044e7c327"},"vehicle_type_id":"4","last_reported":1715796567,"current_range_meters":17600,"station_id":"ce4bhr12rcd13ifvqhpg","pricing_plan_id":"cebpf4jnsgd1na2vs0mg"},{"bike_id":"56eb435e-2baa-47ee-8427-e25890ca4c32","system_id":"levelo_inurba_marseille","lat":43.320034,"lon":5.381626,"is_reserved":false,"is_disabled":false,"rental_uris":{"android":"levelo://app?vid=56eb435e-2baa-47ee-8427-e25890ca4c32","ios":"levelo://app?vid=56eb435e-2baa-47ee-8427-e25890ca4c32"},"vehicle_type_id":"4","last_reported":1715796567,"current_range_meters":2800,"station_id":"ce4bhr12rcd13ifvqhpg","pricing_plan_id":"cebpf4jnsgd1na2vs0mg"},{"bike_id":"852da4af-0db4-4667-80dd-5f0ed9db69ca","system_id":"levelo_inurba_marseille","lat":43.319935,"lon":5.381699,"is_reserved":false,"is_disabled":false,"rental_uris":{"android":"levelo://app?vid=852da4af-0db4-4667-80dd-5f0ed9db69ca","ios":"levelo://app?vid=852da4af-0db4-4667-80dd-5f0ed9db69ca"},"vehicle_type_id":"4","last_reported":1715796567,"current_range_meters":400,"station_id":"ce4bhr12rcd13ifvqhpg","pricing_plan_id":"cebpf4jnsgd1na2vs0mg"},{"bike_id":"e47ffd5e-98f5-4934-ae2b-51079f6000c5","system_id":"levelo_inurba_marseille","lat":43.313571,"lon":5.384829,"is_reserved":false,"is_disabled":false,"rental_uris":{"android":"levelo://app?vid=e47ffd5e-98f5-4934-ae2b-51079f6000c5","ios":"levelo://app?vid=e47ffd5e-98f5-4934-ae2b-51079f6000c5"},"vehicle_type_id":"4","last_reported":1715796567,"current_range_meters":12400,"station_id":"ce4bgt92rcd13ifvqcf0","pricing_plan_id":"cebpf4jnsgd1na2vs0mg"},{"bike_id":"510cd86e-473d-4b10-b659-128985e5ba34","system_id":"levelo_inurba_marseille","lat":43.313571,"lon":5.384829,"is_reserved":false,"is_disabled":false,"rental_uris":{"android":"levelo://app?vid=510cd86e-473d-4b10-b659-128985e5ba34","ios":"levelo://app?vid=510cd86e-473d-4b10-b659-128985e5ba34"},"vehicle_type_id":"4","last_reported":1715796567,"current_range_meters":4400,"station_id":"ce4bgt92rcd13ifvqcf0","pricing_plan_id":"cebpf4jnsgd1na2vs0mg"},{"bike_id":"7916a5af-5438-497f-8d07-74de53715d00","system_id":"levelo_inurba_marseille","lat":43.299724,"lon":5.371829,"is_reserved":false,"is_disabled":false,"rental_uris":{"android":"levelo://app?vid=7916a5af-5438-497f-8d07-74de53715d00","ios":"levelo://app?vid=7916a5af-5438-497f-8d07-74de53715d00"},"vehicle_type_id":"4","last_reported":1715796567,"current_range_meters":3600,"station_id":"ce4bgr92rcd13ifvqc7g","pricing_plan_id":"cebpf4jnsgd1na2vs0mg"},{"bike_id":"b2633a78-a734-4b58-8629-e182004def72","system_id":"levelo_inurba_marseille","lat":43.299709,"lon":5.371869,"is_reserved":false,"is_disabled":false,"rental_uris":{"android":"levelo://app?vid=b2633a78-a734-4b58-8629-e182004def72","ios":"levelo://app?vid=b2633a78-a734-4b58-8629-e182004def72"},"vehicle_type_id":"4","last_reported":1715796567,"current_range_meters":0,"station_id":"ce4bgr92rcd13ifvqc7g","pricing_plan_id":"cebpf4jnsgd1na2vs0mg"},{"bike_id":"71e87df8-a3f8-4595-92b0-0b657daac39d","system_id":"levelo_inurba_marseille","lat":43.299724,"lon":5.371829,"is_reserved":false,"is_disabled":false,"rental_uris":{"android":"levelo://app?vid=71e87df8-a3f8-4595-92b0-0b657daac39d","ios":"levelo://app?vid=71e87df8-a3f8-4595-92b0-0b657daac39d"},"vehicle_type_id":"4","last_reported":1715796567,"current_range_meters":13600,"station_id":"ce4bgr92rcd13ifvqc7g","pricing_plan_id":"cebpf4jnsgd1na2vs0mg"},{"bike_id":"4dbd3206-41dc-4eac-9481-5f10ecd269c2","system_id":"levelo_inurba_marseille","lat":43.311722,"lon":5.387247,"is_reserved":false,"is_disabled":false,"rental_uris":{"android":"levelo://app?vid=4dbd3206-41dc-4eac-9481-5f10ecd269c2","ios":"levelo://app?vid=4dbd3206-41dc-4eac-9481-5f10ecd269c2"},"vehicle_type_id":"4","last_reported":1715796567,"current_range_meters":15600,"station_id":"ce4bgv12rcd13ifvqcp0","pricing_plan_id":"cebpf4jnsgd1na2vs0mg"},{"bike_id":"a2af7caf-579d-49bc-a8aa-3544e150411e","system_id":"levelo_inurba_marseille","lat":43.305364,"lon":5.384119,"is_reserved":false,"is_disabled":false,"rental_uris":{"android":"levelo://app?vid=a2af7caf-579d-49bc-a8aa-3544e150411e","ios":"levelo://app?vid=a2af7caf-579d-49bc-a8aa-3544e150411e"},"vehicle_type_id":"4","last_reported":1715796567,"current_range_meters":12800,"station_id":"ce4bgg92rcd13ifvqb30","pricing_plan_id":"cebpf4jnsgd1na2vs0mg"},{"bike_id":"c7113040-d3d9-4b3c-b787-9aa4da2988f3","system_id":"levelo_inurba_marseille","lat":43.298433,"lon":5.362774,"is_reserved":false,"is_disabled":false,"rental_uris":{"android":"levelo://app?vid=c7113040-d3d9-4b3c-b787-9aa4da2988f3","ios":"levelo://app?vid=c7113040-d3d9-4b3c-b787-9aa4da2988f3"},"vehicle_type_id":"4","last_reported":1715796567,"current_range_meters":12800,"station_id":"ce4bgpp2rcd13ifvqc3g","pricing_plan_id":"cebpf4jnsgd1na2vs0mg"},{"bike_id":"417dbc4b-285b-4d59-abc5-f96bae552703","system_id":"levelo_inurba_marseille","lat":43.305364,"lon":5.384119,"is_reserved":false,"is_disabled":false,"rental_uris":{"android":"levelo://app?vid=417dbc4b-285b-4d59-abc5-f96bae552703","ios":"levelo://app?vid=417dbc4b-285b-4d59-abc5-f96bae552703"},"vehicle_type_id":"4","last_reported":1715796567,"current_range_meters":3600,"station_id":"ce4bgg92rcd13ifvqb30","pricing_plan_id":"cebpf4jnsgd1na2vs0mg"},{"bike_id":"9af0e06b-bc29-40a2-96a6-72c92e026685","system_id":"levelo_inurba_marseille","lat":43.31174,"lon":5.38714,"is_reserved":false,"is_disabled":false,"rental_uris":{"android":"levelo://app?vid=9af0e06b-bc29-40a2-96a6-72c92e026685","ios":"levelo://app?vid=9af0e06b-bc29-40a2-96a6-72c92e026685"},"vehicle_type_id":"4","last_reported":1715796567,"current_range_meters":0,"station_id":"ce4bgv12rcd13ifvqcp0","pricing_plan_id":"cebpf4jnsgd1na2vs0mg"},{"bike_id":"4ada9706-d0b9-4972-ad0b-73ac444159f7","system_id":"levelo_inurba_marseille","lat":43.310931,"lon":5.387631,"is_reserved":false,"is_disabled":false,"rental_uris":{"android":"levelo://app?vid=4ada9706-d0b9-4972-ad0b-73ac444159f7","ios":"levelo://app?vid=4ada9706-d0b9-4972-ad0b-73ac444159f7"},"vehicle_type_id":"4","last_reported":1715796567,"current_range_meters":0,"station_id":"","pricing_plan_id":"cebpf4jnsgd1na2vs0mg"},{"bike_id":"f06c6880-fda0-4657-aa6f-5fb1cb9f9afe","system_id":"levelo_inurba_marseille","lat":43.297774,"lon":5.370875,"is_reserved":false,"is_disabled":false,"rental_uris":{"android":"levelo://app?vid=f06c6880-fda0-4657-aa6f-5fb1cb9f9afe","ios":"levelo://app?vid=f06c6880-fda0-4657-aa6f-5fb1cb9f9afe"},"vehicle_type_id":"4","last_reported":1715796567,"current_range_meters":17600,"station_id":"ce4bgop2rcd13ifvqc1g","pricing_plan_id":"cebpf4jnsgd1na2vs0mg"},{"bike_id":"54d25f35-d52f-4637-85a7-878948382ba6","system_id":"levelo_inurba_marseille","lat":43.322872,"lon":5.382756,"is_reserved":false,"is_disabled":false,"rental_uris":{"android":"levelo://app?vid=54d25f35-d52f-4637-85a7-878948382ba6","ios":"levelo://app?vid=54d25f35-d52f-4637-85a7-878948382ba6"},"vehicle_type_id":"4","last_reported":1715796567,"current_range_meters":7600,"station_id":"ce4bhr12rcd13ifvqhqg","pricing_plan_id":"cebpf4jnsgd1na2vs0mg"},{"bike_id":"f933e9f8-1845-4f28-8f7c-9e7983120a79","system_id":"levelo_inurba_marseille","lat":43.29776,"lon":5.371711,"is_reserved":false,"is_disabled":false,"rental_uris":{"android":"levelo://app?vid=f933e9f8-1845-4f28-8f7c-9e7983120a79","ios":"levelo://app?vid=f933e9f8-1845-4f28-8f7c-9e7983120a79"},"vehicle_type_id":"4","last_reported":1715796567,"current_range_meters":400,"station_id":"","pricing_plan_id":"cebpf4jnsgd1na2vs0mg"},{"bike_id":"7284e658-6c37-4d7b-9e0a-a0b3e744c4e7","system_id":"levelo_inurba_marseille","lat":43.322872,"lon":5.382756,"is_reserved":false,"is_disabled":false,"rental_uris":{"android":"levelo://app?vid=7284e658-6c37-4d7b-9e0a-a0b3e744c4e7","ios":"levelo://app?vid=7284e658-6c37-4d7b-9e0a-a0b3e744c4e7"},"vehicle_type_id":"4","last_reported":1715796567,"current_range_meters":4800,"station_id":"ce4bhr12rcd13ifvqhqg","pricing_plan_id":"cebpf4jnsgd1na2vs0mg"},{"bike_id":"1b781551-5c68-422b-8578-9a9b02dc42ad","system_id":"levelo_inurba_marseille","lat":43.322872,"lon":5.382756,"is_reserved":false,"is_disabled":false,"rental_uris":{"android":"levelo://app?vid=1b781551-5c68-422b-8578-9a9b02dc42ad","ios":"levelo://app?vid=1b781551-5c68-422b-8578-9a9b02dc42ad"},"vehicle_type_id":"4","last_reported":1715796567,"current_range_meters":19600,"station_id":"ce4bhr12rcd13ifvqhqg","pricing_plan_id":"cebpf4jnsgd1na2vs0mg"},{"bike_id":"78c10865-0eed-415a-9b90-a86c5363eb3e","system_id":"levelo_inurba_marseille","lat":43.297163,"lon":5.365866,"is_reserved":false,"is_disabled":false,"rental_uris":{"android":"levelo://app?vid=78c10865-0eed-415a-9b90-a86c5363eb3e","ios":"levelo://app?vid=78c10865-0eed-415a-9b90-a86c5363eb3e"},"vehicle_type_id":"4","last_reported":1715796567,"current_range_meters":12400,"station_id":"ce4bgn12rcd13ifvqbt0","pricing_plan_id":"cebpf4jnsgd1na2vs0mg"},{"bike_id":"346dd6ab-e980-45bf-8d9f-245f523a8c1f","system_id":"levelo_inurba_marseille","lat":43.330442,"lon":5.389148,"is_reserved":false,"is_disabled":false,"rental_uris":{"android":"levelo://app?vid=346dd6ab-e980-45bf-8d9f-245f523a8c1f","ios":"levelo://app?vid=346dd6ab-e980-45bf-8d9f-245f523a8c1f"},"vehicle_type_id":"4","last_reported":1715796567,"current_range_meters":10800,"station_id":"ce4bhr92rcd13ifvqhrg","pricing_plan_id":"cebpf4jnsgd1na2vs0mg"},{"bike_id":"a0c49906-8ed5-40ee-8da4-5e9af361e35b","system_id":"levelo_inurba_marseille","lat":43.2968,"lon":5.37291,"is_reserved":false,"is_disabled":false,"rental_uris":{"android":"levelo://app?vid=a0c49906-8ed5-40ee-8da4-5e9af361e35b","ios":"levelo://app?vid=a0c49906-8ed5-40ee-8da4-5e9af361e35b"},"vehicle_type_id":"4","last_reported":1715796567,"current_range_meters":8400,"station_id":"ce4bgk12rcd13ifvqbj0","pricing_plan_id":"cebpf4jnsgd1na2vs0mg"},{"bike_id":"edb9ccdd-e33b-4bdc-9d6e-b63359f16efb","system_id":"levelo_inurba_marseille","lat":43.2968,"lon":5.37291,"is_reserved":false,"is_disabled":false,"rental_uris":{"android":"levelo://app?vid=edb9ccdd-e33b-4bdc-9d6e-b63359f16efb","ios":"levelo://app?vid=edb9ccdd-e33b-4bdc-9d6e-b63359f16efb"},"vehicle_type_id":"4","last_reported":1715796567,"current_range_meters":24400,"station_id":"ce4bgk12rcd13ifvqbj0","pricing_plan_id":"cebpf4jnsgd1na2vs0mg"},{"bike_id":"a5e582c4-b6b3-4a2d-ad28-ff3c26ebee67","system_id":"levelo_inurba_marseille","lat":43.296131,"lon":5.370773,"is_reserved":false,"is_disabled":false,"rental_uris":{"android":"levelo://app?vid=a5e582c4-b6b3-4a2d-ad28-ff3c26ebee67","ios":"levelo://app?vid=a5e582c4-b6b3-4a2d-ad28-ff3c26ebee67"},"vehicle_type_id":"4","last_reported":1715796567,"current_range_meters":24400,"station_id":"ce4bgnh2rcd13ifvqc0g","pricing_plan_id":"cebpf4jnsgd1na2vs0mg"},{"bike_id":"c4f222e1-881c-4271-948f-2b8e5fbb7262","system_id":"levelo_inurba_marseille","lat":43.296129,"lon":5.370777,"is_reserved":false,"is_disabled":false,"rental_uris":{"android":"levelo://app?vid=c4f222e1-881c-4271-948f-2b8e5fbb7262","ios":"levelo://app?vid=c4f222e1-881c-4271-948f-2b8e5fbb7262"},"vehicle_type_id":"4","last_reported":1715796567,"current_range_meters":7200,"station_id":"ce4bgnh2rcd13ifvqc0g","pricing_plan_id":"cebpf4jnsgd1na2vs0mg"},{"bike_id":"9a7e8045-1a90-46ac-9ea5-549c4f2217d2","system_id":"levelo_inurba_marseille","lat":43.296129,"lon":5.370777,"is_reserved":false,"is_disabled":false,"rental_uris":{"android":"levelo://app?vid=9a7e8045-1a90-46ac-9ea5-549c4f2217d2","ios":"levelo://app?vid=9a7e8045-1a90-46ac-9ea5-549c4f2217d2"},"vehicle_type_id":"4","last_reported":1715796567,"current_range_meters":11200,"station_id":"ce4bgnh2rcd13ifvqc0g","pricing_plan_id":"cebpf4jnsgd1na2vs0mg"},{"bike_id":"b42c7bad-1bd9-4b68-b2a9-8c98e7b3e401","system_id":"levelo_inurba_marseille","lat":43.299028,"lon":5.381509,"is_reserved":false,"is_disabled":false,"rental_uris":{"android":"levelo://app?vid=b42c7bad-1bd9-4b68-b2a9-8c98e7b3e401","ios":"levelo://app?vid=b42c7bad-1bd9-4b68-b2a9-8c98e7b3e401"},"vehicle_type_id":"4","last_reported":1715796567,"current_range_meters":19600,"station_id":"ce4bgj12rcd13ifvqbc0","pricing_plan_id":"cebpf4jnsgd1na2vs0mg"},{"bike_id":"7e26b51e-1955-493c-a5e0-0a41a66a4ddf","system_id":"levelo_inurba_marseille","lat":43.299028,"lon":5.381509,"is_reserved":false,"is_disabled":false,"rental_uris":{"android":"levelo://app?vid=7e26b51e-1955-493c-a5e0-0a41a66a4ddf","ios":"levelo://app?vid=7e26b51e-1955-493c-a5e0-0a41a66a4ddf"},"vehicle_type_id":"4","last_reported":1715796567,"current_range_meters":0,"station_id":"ce4bgj12rcd13ifvqbc0","pricing_plan_id":"cebpf4jnsgd1na2vs0mg"},{"bike_id":"7336d3f1-96ee-41ca-bbec-3c7bcc1a22e1","system_id":"levelo_inurba_marseille","lat":43.299028,"lon":5.381509,"is_reserved":false,"is_disabled":false,"rental_uris":{"android":"levelo://app?vid=7336d3f1-96ee-41ca-bbec-3c7bcc1a22e1","ios":"levelo://app?vid=7336d3f1-96ee-41ca-bbec-3c7bcc1a22e1"},"vehicle_type_id":"4","last_reported":1715796567,"current_range_meters":400,"station_id":"ce4bgj12rcd13ifvqbc0","pricing_plan_id":"cebpf4jnsgd1na2vs0mg"},{"bike_id":"c055242d-58a7-48e8-923c-fa8148d9247d","system_id":"levelo_inurba_marseille","lat":43.299028,"lon":5.381509,"is_reserved":false,"is_disabled":false,"rental_uris":{"android":"levelo://app?vid=c055242d-58a7-48e8-923c-fa8148d9247d","ios":"levelo://app?vid=c055242d-58a7-48e8-923c-fa8148d9247d"},"vehicle_type_id":"4","last_reported":1715796567,"current_range_meters":30400,"station_id":"ce4bgj12rcd13ifvqbc0","pricing_plan_id":"cebpf4jnsgd1na2vs0mg"},{"bike_id":"05f14fa3-896a-4218-9f4e-c9d0a69a6e42","system_id":"levelo_inurba_marseille","lat":43.29912,"lon":5.38161,"is_reserved":false,"is_disabled":false,"rental_uris":{"android":"levelo://app?vid=05f14fa3-896a-4218-9f4e-c9d0a69a6e42","ios":"levelo://app?vid=05f14fa3-896a-4218-9f4e-c9d0a69a6e42"},"vehicle_type_id":"4","last_reported":1715796567,"current_range_meters":0,"station_id":"ce4bgj12rcd13ifvqbc0","pricing_plan_id":"cebpf4jnsgd1na2vs0mg"},{"bike_id":"d7cda557-6d33-49cd-a99a-778570437d44","system_id":"levelo_inurba_marseille","lat":43.3176,"lon":5.39015,"is_reserved":false,"is_disabled":false,"rental_uris":{"android":"levelo://app?vid=d7cda557-6d33-49cd-a99a-778570437d44","ios":"levelo://app?vid=d7cda557-6d33-49cd-a99a-778570437d44"},"vehicle_type_id":"4","last_reported":1715796567,"current_range_meters":24000,"station_id":"ce4bhqp2rcd13ifvqhng","pricing_plan_id":"cebpf4jnsgd1na2vs0mg"},{"bike_id":"dc5cc116-13f6-46d6-8ac6-785df3660389","system_id":"levelo_inurba_marseille","lat":43.317557,"lon":5.390173,"is_reserved":false,"is_disabled":false,"rental_uris":{"android":"levelo://app?vid=dc5cc116-13f6-46d6-8ac6-785df3660389","ios":"levelo://app?vid=dc5cc116-13f6-46d6-8ac6-785df3660389"},"vehicle_type_id":"4","last_reported":1715796567,"current_range_meters":17600,"station_id":"ce4bhqp2rcd13ifvqhng","pricing_plan_id":"cebpf4jnsgd1na2vs0mg"},{"bike_id":"5685f384-a4ee-4442-ae86-cfaf19981b48","system_id":"levelo_inurba_marseille","lat":43.298118,"lon":5.380942,"is_reserved":false,"is_disabled":false,"rental_uris":{"android":"levelo://app?vid=5685f384-a4ee-4442-ae86-cfaf19981b48","ios":"levelo://app?vid=5685f384-a4ee-4442-ae86-cfaf19981b48"},"vehicle_type_id":"4","last_reported":1715796567,"current_range_meters":0,"station_id":"ce4bgip2rcd13ifvqbb0","pricing_plan_id":"cebpf4jnsgd1na2vs0mg"},{"bike_id":"7913af27-637f-48c3-8904-ea1501f53a5c","system_id":"levelo_inurba_marseille","lat":43.29805,"lon":5.38109,"is_reserved":false,"is_disabled":false,"rental_uris":{"android":"levelo://app?vid=7913af27-637f-48c3-8904-ea1501f53a5c","ios":"levelo://app?vid=7913af27-637f-48c3-8904-ea1501f53a5c"},"vehicle_type_id":"4","last_reported":1715796567,"current_range_meters":0,"station_id":"ce4bgip2rcd13ifvqbb0","pricing_plan_id":"cebpf4jnsgd1na2vs0mg"},{"bike_id":"7ab16313-2237-43e3-94bb-cb1cef394a30","system_id":"levelo_inurba_marseille","lat":43.29799,"lon":5.38102,"is_reserved":false,"is_disabled":false,"rental_uris":{"android":"levelo://app?vid=7ab16313-2237-43e3-94bb-cb1cef394a30","ios":"levelo://app?vid=7ab16313-2237-43e3-94bb-cb1cef394a30"},"vehicle_type_id":"4","last_reported":1715796567,"current_range_meters":0,"station_id":"ce4bgip2rcd13ifvqbb0","pricing_plan_id":"cebpf4jnsgd1na2vs0mg"},{"bike_id":"e5db2376-3a68-45e5-84bf-861a6c8b6d6f","system_id":"levelo_inurba_marseille","lat":43.295748,"lon":5.37522,"is_reserved":false,"is_disabled":false,"rental_uris":{"android":"levelo://app?vid=e5db2376-3a68-45e5-84bf-861a6c8b6d6f","ios":"levelo://app?vid=e5db2376-3a68-45e5-84bf-861a6c8b6d6f"},"vehicle_type_id":"4","last_reported":1715796567,"current_range_meters":20400,"station_id":"ce4bgh92rcd13ifvqb50","pricing_plan_id":"cebpf4jnsgd1na2vs0mg"},{"bike_id":"ff5011d6-514d-40b5-8d37-58b56892a4c7","system_id":"levelo_inurba_marseille","lat":43.295748,"lon":5.37522,"is_reserved":false,"is_disabled":false,"rental_uris":{"android":"levelo://app?vid=ff5011d6-514d-40b5-8d37-58b56892a4c7","ios":"levelo://app?vid=ff5011d6-514d-40b5-8d37-58b56892a4c7"},"vehicle_type_id":"4","last_reported":1715796567,"current_range_meters":0,"station_id":"ce4bgh92rcd13ifvqb50","pricing_plan_id":"cebpf4jnsgd1na2vs0mg"},{"bike_id":"f12fa73d-49be-4252-bdb7-ee3ee4a654e8","system_id":"levelo_inurba_marseille","lat":43.304274,"lon":5.388873,"is_reserved":false,"is_disabled":false,"rental_uris":{"android":"levelo://app?vid=f12fa73d-49be-4252-bdb7-ee3ee4a654e8","ios":"levelo://app?vid=f12fa73d-49be-4252-bdb7-ee3ee4a654e8"},"vehicle_type_id":"4","last_reported":1715796567,"current_range_meters":400,"station_id":"ce4bgk12rcd13ifvqbi0","pricing_plan_id":"cebpf4jnsgd1na2vs0mg"},{"bike_id":"b26ace3f-1471-4940-a4ef-dfb800d7cd54","system_id":"levelo_inurba_marseille","lat":43.295748,"lon":5.37522,"is_reserved":false,"is_disabled":false,"rental_uris":{"android":"levelo://app?vid=b26ace3f-1471-4940-a4ef-dfb800d7cd54","ios":"levelo://app?vid=b26ace3f-1471-4940-a4ef-dfb800d7cd54"},"vehicle_type_id":"4","last_reported":1715796567,"current_range_meters":22400,"station_id":"ce4bgh92rcd13ifvqb50","pricing_plan_id":"cebpf4jnsgd1na2vs0mg"},{"bike_id":"cf35fe52-f4cd-4705-81c3-1c0ed61fe85e","system_id":"levelo_inurba_marseille","lat":43.304278,"lon":5.388868,"is_reserved":false,"is_disabled":false,"rental_uris":{"android":"levelo://app?vid=cf35fe52-f4cd-4705-81c3-1c0ed61fe85e","ios":"levelo://app?vid=cf35fe52-f4cd-4705-81c3-1c0ed61fe85e"},"vehicle_type_id":"4","last_reported":1715796567,"current_range_meters":24000,"station_id":"ce4bgk12rcd13ifvqbi0","pricing_plan_id":"cebpf4jnsgd1na2vs0mg"},{"bike_id":"277c07c5-ffb7-4908-8413-8d0381a75e97","system_id":"levelo_inurba_marseille","lat":43.29571,"lon":5.37519,"is_reserved":false,"is_disabled":false,"rental_uris":{"android":"levelo://app?vid=277c07c5-ffb7-4908-8413-8d0381a75e97","ios":"levelo://app?vid=277c07c5-ffb7-4908-8413-8d0381a75e97"},"vehicle_type_id":"4","last_reported":1715796567,"current_range_meters":0,"station_id":"ce4bgh92rcd13ifvqb50","pricing_plan_id":"cebpf4jnsgd1na2vs0mg"},{"bike_id":"a07f39c7-9e99-4ab1-84d2-6287937245d7","system_id":"levelo_inurba_marseille","lat":43.297889,"lon":5.381068,"is_reserved":false,"is_disabled":false,"rental_uris":{"android":"levelo://app?vid=a07f39c7-9e99-4ab1-84d2-6287937245d7","ios":"levelo://app?vid=a07f39c7-9e99-4ab1-84d2-6287937245d7"},"vehicle_type_id":"4","last_reported":1715796567,"current_range_meters":19200,"station_id":"ce4bgip2rcd13ifvqbb0","pricing_plan_id":"cebpf4jnsgd1na2vs0mg"},{"bike_id":"4439c7bc-3eea-4f78-a0ff-b0661e1763d9","system_id":"levelo_inurba_marseille","lat":43.304274,"lon":5.388873,"is_reserved":false,"is_disabled":false,"rental_uris":{"android":"levelo://app?vid=4439c7bc-3eea-4f78-a0ff-b0661e1763d9","ios":"levelo://app?vid=4439c7bc-3eea-4f78-a0ff-b0661e1763d9"},"vehicle_type_id":"4","last_reported":1715796567,"current_range_meters":11200,"station_id":"ce4bgk12rcd13ifvqbi0","pricing_plan_id":"cebpf4jnsgd1na2vs0mg"},{"bike_id":"fc41f0a2-ed84-441c-a4ee-d5c8c7c62b0a","system_id":"levelo_inurba_marseille","lat":43.295748,"lon":5.37522,"is_reserved":false,"is_disabled":false,"rental_uris":{"android":"levelo://app?vid=fc41f0a2-ed84-441c-a4ee-d5c8c7c62b0a","ios":"levelo://app?vid=fc41f0a2-ed84-441c-a4ee-d5c8c7c62b0a"},"vehicle_type_id":"4","last_reported":1715796567,"current_range_meters":29200,"station_id":"ce4bgh92rcd13ifvqb50","pricing_plan_id":"cebpf4jnsgd1na2vs0mg"},{"bike_id":"edab8487-9f52-474d-82d4-3a7a7dcb1305","system_id":"levelo_inurba_marseille","lat":43.296277,"lon":5.377108,"is_reserved":false,"is_disabled":false,"rental_uris":{"android":"levelo://app?vid=edab8487-9f52-474d-82d4-3a7a7dcb1305","ios":"levelo://app?vid=edab8487-9f52-474d-82d4-3a7a7dcb1305"},"vehicle_type_id":"4","last_reported":1715796567,"current_range_meters":1600,"station_id":"ce4bgi92rcd13ifvqb90","pricing_plan_id":"cebpf4jnsgd1na2vs0mg"},{"bike_id":"c5ff0603-ef44-4618-9146-862fa65a3c8b","system_id":"levelo_inurba_marseille","lat":43.299707,"lon":5.384859,"is_reserved":false,"is_disabled":false,"rental_uris":{"android":"levelo://app?vid=c5ff0603-ef44-4618-9146-862fa65a3c8b","ios":"levelo://app?vid=c5ff0603-ef44-4618-9146-862fa65a3c8b"},"vehicle_type_id":"4","last_reported":1715796567,"current_range_meters":2400,"station_id":"ce4bgj92rcd13ifvqbd0","pricing_plan_id":"cebpf4jnsgd1na2vs0mg"},{"bike_id":"98974d6a-1ff8-44f6-afca-38e7e6e70113","system_id":"levelo_inurba_marseille","lat":43.299707,"lon":5.384859,"is_reserved":false,"is_disabled":false,"rental_uris":{"android":"levelo://app?vid=98974d6a-1ff8-44f6-afca-38e7e6e70113","ios":"levelo://app?vid=98974d6a-1ff8-44f6-afca-38e7e6e70113"},"vehicle_type_id":"4","last_reported":1715796567,"current_range_meters":22400,"station_id":"ce4bgj92rcd13ifvqbd0","pricing_plan_id":"cebpf4jnsgd1na2vs0mg"},{"bike_id":"d8e81fd9-2a11-471b-8f72-e3e49abd9f2e","system_id":"levelo_inurba_marseille","lat":43.299707,"lon":5.384859,"is_reserved":false,"is_disabled":false,"rental_uris":{"android":"levelo://app?vid=d8e81fd9-2a11-471b-8f72-e3e49abd9f2e","ios":"levelo://app?vid=d8e81fd9-2a11-471b-8f72-e3e49abd9f2e"},"vehicle_type_id":"4","last_reported":1715796567,"current_range_meters":10000,"station_id":"ce4bgj92rcd13ifvqbd0","pricing_plan_id":"cebpf4jnsgd1na2vs0mg"},{"bike_id":"1799cbc9-acb9-442e-9c38-ebd9e4832f2b","system_id":"levelo_inurba_marseille","lat":43.29978,"lon":5.384917,"is_reserved":false,"is_disabled":false,"rental_uris":{"android":"levelo://app?vid=1799cbc9-acb9-442e-9c38-ebd9e4832f2b","ios":"levelo://app?vid=1799cbc9-acb9-442e-9c38-ebd9e4832f2b"},"vehicle_type_id":"4","last_reported":1715796567,"current_range_meters":0,"station_id":"ce4bgj92rcd13ifvqbd0","pricing_plan_id":"cebpf4jnsgd1na2vs0mg"},{"bike_id":"a967bd64-0fcf-4a40-805c-61a4bc4f7174","system_id":"levelo_inurba_marseille","lat":43.299707,"lon":5.384859,"is_reserved":false,"is_disabled":false,"rental_uris":{"android":"levelo://app?vid=a967bd64-0fcf-4a40-805c-61a4bc4f7174","ios":"levelo://app?vid=a967bd64-0fcf-4a40-805c-61a4bc4f7174"},"vehicle_type_id":"4","last_reported":1715796567,"current_range_meters":6400,"station_id":"ce4bgj92rcd13ifvqbd0","pricing_plan_id":"cebpf4jnsgd1na2vs0mg"},{"bike_id":"504107d0-b772-426a-baba-ed0b8ac8cc4e","system_id":"levelo_inurba_marseille","lat":43.29971,"lon":5.3849,"is_reserved":false,"is_disabled":false,"rental_uris":{"android":"levelo://app?vid=504107d0-b772-426a-baba-ed0b8ac8cc4e","ios":"levelo://app?vid=504107d0-b772-426a-baba-ed0b8ac8cc4e"},"vehicle_type_id":"4","last_reported":1715796567,"current_range_meters":0,"station_id":"ce4bgj92rcd13ifvqbd0","pricing_plan_id":"cebpf4jnsgd1na2vs0mg"},{"bike_id":"8965773c-d8d5-4a51-a44f-3b5d5938f229","system_id":"levelo_inurba_marseille","lat":43.299717,"lon":5.384845,"is_reserved":false,"is_disabled":false,"rental_uris":{"android":"levelo://app?vid=8965773c-d8d5-4a51-a44f-3b5d5938f229","ios":"levelo://app?vid=8965773c-d8d5-4a51-a44f-3b5d5938f229"},"vehicle_type_id":"4","last_reported":1715796567,"current_range_meters":16400,"station_id":"ce4bgj92rcd13ifvqbd0","pricing_plan_id":"cebpf4jnsgd1na2vs0mg"},{"bike_id":"53b91354-3ce5-4153-b4bb-52dc39c40888","system_id":"levelo_inurba_marseille","lat":43.299697,"lon":5.384928,"is_reserved":false,"is_disabled":false,"rental_uris":{"android":"levelo://app?vid=53b91354-3ce5-4153-b4bb-52dc39c40888","ios":"levelo://app?vid=53b91354-3ce5-4153-b4bb-52dc39c40888"},"vehicle_type_id":"4","last_reported":1715796567,"current_range_meters":14400,"station_id":"ce4bgj92rcd13ifvqbd0","pricing_plan_id":"cebpf4jnsgd1na2vs0mg"},{"bike_id":"adb32b5c-639f-4bbd-833b-0e29779316bd","system_id":"levelo_inurba_marseille","lat":43.29972,"lon":5.38496,"is_reserved":false,"is_disabled":false,"rental_uris":{"android":"levelo://app?vid=adb32b5c-639f-4bbd-833b-0e29779316bd","ios":"levelo://app?vid=adb32b5c-639f-4bbd-833b-0e29779316bd"},"vehicle_type_id":"4","last_reported":1715796567,"current_range_meters":18000,"station_id":"ce4bgj92rcd13ifvqbd0","pricing_plan_id":"cebpf4jnsgd1na2vs0mg"},{"bike_id":"c7d1dbe4-8ea0-4981-aee2-7814539ff4fc","system_id":"levelo_inurba_marseille","lat":43.299717,"lon":5.384845,"is_reserved":false,"is_disabled":false,"rental_uris":{"android":"levelo://app?vid=c7d1dbe4-8ea0-4981-aee2-7814539ff4fc","ios":"levelo://app?vid=c7d1dbe4-8ea0-4981-aee2-7814539ff4fc"},"vehicle_type_id":"4","last_reported":1715796567,"current_range_meters":4000,"station_id":"ce4bgj92rcd13ifvqbd0","pricing_plan_id":"cebpf4jnsgd1na2vs0mg"},{"bike_id":"e17b7368-871e-4c60-8186-a36a0d4bb8d5","system_id":"levelo_inurba_marseille","lat":43.295279,"lon":5.375048,"is_reserved":false,"is_disabled":false,"rental_uris":{"android":"levelo://app?vid=e17b7368-871e-4c60-8186-a36a0d4bb8d5","ios":"levelo://app?vid=e17b7368-871e-4c60-8186-a36a0d4bb8d5"},"vehicle_type_id":"4","last_reported":1715796567,"current_range_meters":0,"station_id":"ce4bgkp2rcd13ifvqbmg","pricing_plan_id":"cebpf4jnsgd1na2vs0mg"},{"bike_id":"e984e999-6b85-4030-b662-ca1a1eef2ba5","system_id":"levelo_inurba_marseille","lat":43.299652,"lon":5.384988,"is_reserved":false,"is_disabled":false,"rental_uris":{"android":"levelo://app?vid=e984e999-6b85-4030-b662-ca1a1eef2ba5","ios":"levelo://app?vid=e984e999-6b85-4030-b662-ca1a1eef2ba5"},"vehicle_type_id":"4","last_reported":1715796567,"current_range_meters":0,"station_id":"ce4bgj92rcd13ifvqbd0","pricing_plan_id":"cebpf4jnsgd1na2vs0mg"},{"bike_id":"a62ee16b-6712-4dcd-9a0d-52da14f5d86e","system_id":"levelo_inurba_marseille","lat":43.299646,"lon":5.38499,"is_reserved":false,"is_disabled":false,"rental_uris":{"android":"levelo://app?vid=a62ee16b-6712-4dcd-9a0d-52da14f5d86e","ios":"levelo://app?vid=a62ee16b-6712-4dcd-9a0d-52da14f5d86e"},"vehicle_type_id":"4","last_reported":1715796567,"current_range_meters":12400,"station_id":"ce4bgj92rcd13ifvqbd0","pricing_plan_id":"cebpf4jnsgd1na2vs0mg"},{"bike_id":"6a9fdf7a-0371-4d95-934d-3a2be4925259","system_id":"levelo_inurba_marseille","lat":43.299689,"lon":5.385062,"is_reserved":false,"is_disabled":false,"rental_uris":{"android":"levelo://app?vid=6a9fdf7a-0371-4d95-934d-3a2be4925259","ios":"levelo://app?vid=6a9fdf7a-0371-4d95-934d-3a2be4925259"},"vehicle_type_id":"4","last_reported":1715796567,"current_range_meters":0,"station_id":"ce4bgj92rcd13ifvqbd0","pricing_plan_id":"cebpf4jnsgd1na2vs0mg"},{"bike_id":"5dc24bdb-287b-4494-9900-c9992583189c","system_id":"levelo_inurba_marseille","lat":43.299717,"lon":5.384845,"is_reserved":false,"is_disabled":false,"rental_uris":{"android":"levelo://app?vid=5dc24bdb-287b-4494-9900-c9992583189c","ios":"levelo://app?vid=5dc24bdb-287b-4494-9900-c9992583189c"},"vehicle_type_id":"4","last_reported":1715796567,"current_range_meters":2400,"station_id":"ce4bgj92rcd13ifvqbd0","pricing_plan_id":"cebpf4jnsgd1na2vs0mg"},{"bike_id":"20a6cc73-e6df-41a2-85de-7505009e3ae5","system_id":"levelo_inurba_marseille","lat":43.299717,"lon":5.384845,"is_reserved":false,"is_disabled":false,"rental_uris":{"android":"levelo://app?vid=20a6cc73-e6df-41a2-85de-7505009e3ae5","ios":"levelo://app?vid=20a6cc73-e6df-41a2-85de-7505009e3ae5"},"vehicle_type_id":"4","last_reported":1715796567,"current_range_meters":19600,"station_id":"ce4bgj92rcd13ifvqbd0","pricing_plan_id":"cebpf4jnsgd1na2vs0mg"},{"bike_id":"bb6c3c10-04e6-403d-94aa-dbfcde765cd4","system_id":"levelo_inurba_marseille","lat":43.299496,"lon":5.385074,"is_reserved":false,"is_disabled":false,"rental_uris":{"android":"levelo://app?vid=bb6c3c10-04e6-403d-94aa-dbfcde765cd4","ios":"levelo://app?vid=bb6c3c10-04e6-403d-94aa-dbfcde765cd4"},"vehicle_type_id":"4","last_reported":1715796567,"current_range_meters":18400,"station_id":"ce4bgj92rcd13ifvqbd0","pricing_plan_id":"cebpf4jnsgd1na2vs0mg"},{"bike_id":"f4128bcd-b46e-4ef2-ba12-dac05874894c","system_id":"levelo_inurba_marseille","lat":43.299717,"lon":5.384845,"is_reserved":false,"is_disabled":false,"rental_uris":{"android":"levelo://app?vid=f4128bcd-b46e-4ef2-ba12-dac05874894c","ios":"levelo://app?vid=f4128bcd-b46e-4ef2-ba12-dac05874894c"},"vehicle_type_id":"4","last_reported":1715796567,"current_range_meters":2400,"station_id":"ce4bgj92rcd13ifvqbd0","pricing_plan_id":"cebpf4jnsgd1na2vs0mg"},{"bike_id":"5e9d13c7-6109-4ea3-be7d-a149ba300653","system_id":"levelo_inurba_marseille","lat":43.299717,"lon":5.384845,"is_reserved":false,"is_disabled":false,"rental_uris":{"android":"levelo://app?vid=5e9d13c7-6109-4ea3-be7d-a149ba300653","ios":"levelo://app?vid=5e9d13c7-6109-4ea3-be7d-a149ba300653"},"vehicle_type_id":"4","last_reported":1715796567,"current_range_meters":25600,"station_id":"ce4bgj92rcd13ifvqbd0","pricing_plan_id":"cebpf4jnsgd1na2vs0mg"},{"bike_id":"2b05f6b6-f8e2-4696-b756-92efd10021b9","system_id":"levelo_inurba_marseille","lat":43.32367,"lon":5.388836,"is_reserved":false,"is_disabled":false,"rental_uris":{"android":"levelo://app?vid=2b05f6b6-f8e2-4696-b756-92efd10021b9","ios":"levelo://app?vid=2b05f6b6-f8e2-4696-b756-92efd10021b9"},"vehicle_type_id":"4","last_reported":1715796567,"current_range_meters":0,"station_id":"ce4bhqp2rcd13ifvqhog","pricing_plan_id":"cebpf4jnsgd1na2vs0mg"},{"bike_id":"700e72ce-1a5e-482d-82a7-9030bbdb466c","system_id":"levelo_inurba_marseille","lat":43.32367,"lon":5.388836,"is_reserved":false,"is_disabled":false,"rental_uris":{"android":"levelo://app?vid=700e72ce-1a5e-482d-82a7-9030bbdb466c","ios":"levelo://app?vid=700e72ce-1a5e-482d-82a7-9030bbdb466c"},"vehicle_type_id":"4","last_reported":1715796567,"current_range_meters":17200,"station_id":"ce4bhqp2rcd13ifvqhog","pricing_plan_id":"cebpf4jnsgd1na2vs0mg"},{"bike_id":"06ead7e6-8560-4b37-b644-12977bf89db5","system_id":"levelo_inurba_marseille","lat":43.323646,"lon":5.388744,"is_reserved":false,"is_disabled":false,"rental_uris":{"android":"levelo://app?vid=06ead7e6-8560-4b37-b644-12977bf89db5","ios":"levelo://app?vid=06ead7e6-8560-4b37-b644-12977bf89db5"},"vehicle_type_id":"4","last_reported":1715796567,"current_range_meters":0,"station_id":"ce4bhqp2rcd13ifvqhog","pricing_plan_id":"cebpf4jnsgd1na2vs0mg"},{"bike_id":"93206fb7-3bb1-4f05-9ac3-923958f3466e","system_id":"levelo_inurba_marseille","lat":43.32367,"lon":5.388836,"is_reserved":false,"is_disabled":false,"rental_uris":{"android":"levelo://app?vid=93206fb7-3bb1-4f05-9ac3-923958f3466e","ios":"levelo://app?vid=93206fb7-3bb1-4f05-9ac3-923958f3466e"},"vehicle_type_id":"4","last_reported":1715796567,"current_range_meters":15200,"station_id":"ce4bhqp2rcd13ifvqhog","pricing_plan_id":"cebpf4jnsgd1na2vs0mg"},{"bike_id":"fb50e018-8236-4cc2-8794-c9477a8a314f","system_id":"levelo_inurba_marseille","lat":43.3237,"lon":5.3888,"is_reserved":false,"is_disabled":false,"rental_uris":{"android":"levelo://app?vid=fb50e018-8236-4cc2-8794-c9477a8a314f","ios":"levelo://app?vid=fb50e018-8236-4cc2-8794-c9477a8a314f"},"vehicle_type_id":"4","last_reported":1715796567,"current_range_meters":9200,"station_id":"ce4bhqp2rcd13ifvqhog","pricing_plan_id":"cebpf4jnsgd1na2vs0mg"},{"bike_id":"f4184cd9-9d56-424e-abd1-38ac58730182","system_id":"levelo_inurba_marseille","lat":43.2936,"lon":5.37835,"is_reserved":false,"is_disabled":false,"rental_uris":{"android":"levelo://app?vid=f4184cd9-9d56-424e-abd1-38ac58730182","ios":"levelo://app?vid=f4184cd9-9d56-424e-abd1-38ac58730182"},"vehicle_type_id":"4","last_reported":1715796567,"current_range_meters":8000,"station_id":"ce4bgjh2rcd13ifvqbf0","pricing_plan_id":"cebpf4jnsgd1na2vs0mg"},{"bike_id":"ad47146c-ce86-4df5-b137-c6ddd727ab2d","system_id":"levelo_inurba_marseille","lat":43.29602,"lon":5.381084,"is_reserved":false,"is_disabled":false,"rental_uris":{"android":"levelo://app?vid=ad47146c-ce86-4df5-b137-c6ddd727ab2d","ios":"levelo://app?vid=ad47146c-ce86-4df5-b137-c6ddd727ab2d"},"vehicle_type_id":"4","last_reported":1715796567,"current_range_meters":400,"station_id":"ce4bgl12rcd13ifvqbo0","pricing_plan_id":"cebpf4jnsgd1na2vs0mg"},{"bike_id":"a6da37e9-8fcb-442a-8c40-108b8b793e04","system_id":"levelo_inurba_marseille","lat":43.292749,"lon":5.368402,"is_reserved":false,"is_disabled":false,"rental_uris":{"android":"levelo://app?vid=a6da37e9-8fcb-442a-8c40-108b8b793e04","ios":"levelo://app?vid=a6da37e9-8fcb-442a-8c40-108b8b793e04"},"vehicle_type_id":"4","last_reported":1715796567,"current_range_meters":8800,"station_id":"ce4bhbp2rcd13ifvqesg","pricing_plan_id":"cebpf4jnsgd1na2vs0mg"},{"bike_id":"1a52b4e3-8a37-4cf5-a361-83b6ab55bf89","system_id":"levelo_inurba_marseille","lat":43.293259,"lon":5.371586,"is_reserved":false,"is_disabled":false,"rental_uris":{"android":"levelo://app?vid=1a52b4e3-8a37-4cf5-a361-83b6ab55bf89","ios":"levelo://app?vid=1a52b4e3-8a37-4cf5-a361-83b6ab55bf89"},"vehicle_type_id":"4","last_reported":1715796567,"current_range_meters":22000,"station_id":"ce4bgh92rcd13ifvqb40","pricing_plan_id":"cebpf4jnsgd1na2vs0mg"},{"bike_id":"d6611dc3-a84e-4bf4-bc3b-9cd4a88289b8","system_id":"levelo_inurba_marseille","lat":43.29303,"lon":5.37184,"is_reserved":false,"is_disabled":false,"rental_uris":{"android":"levelo://app?vid=d6611dc3-a84e-4bf4-bc3b-9cd4a88289b8","ios":"levelo://app?vid=d6611dc3-a84e-4bf4-bc3b-9cd4a88289b8"},"vehicle_type_id":"4","last_reported":1715796567,"current_range_meters":26800,"station_id":"ce4bgh92rcd13ifvqb40","pricing_plan_id":"cebpf4jnsgd1na2vs0mg"},{"bike_id":"b76106b3-4720-4438-a7be-e977de07b0bf","system_id":"levelo_inurba_marseille","lat":43.292749,"lon":5.368398,"is_reserved":false,"is_disabled":false,"rental_uris":{"android":"levelo://app?vid=b76106b3-4720-4438-a7be-e977de07b0bf","ios":"levelo://app?vid=b76106b3-4720-4438-a7be-e977de07b0bf"},"vehicle_type_id":"4","last_reported":1715796567,"current_range_meters":0,"station_id":"ce4bhbp2rcd13ifvqesg","pricing_plan_id":"cebpf4jnsgd1na2vs0mg"},{"bike_id":"160be22c-814d-4494-8537-78c86db30371","system_id":"levelo_inurba_marseille","lat":43.29602,"lon":5.381084,"is_reserved":false,"is_disabled":false,"rental_uris":{"android":"levelo://app?vid=160be22c-814d-4494-8537-78c86db30371","ios":"levelo://app?vid=160be22c-814d-4494-8537-78c86db30371"},"vehicle_type_id":"4","last_reported":1715796567,"current_range_meters":0,"station_id":"ce4bgl12rcd13ifvqbo0","pricing_plan_id":"cebpf4jnsgd1na2vs0mg"},{"bike_id":"7c39b88d-5b7b-4789-85fd-01e97122cd35","system_id":"levelo_inurba_marseille","lat":43.292642,"lon":5.384254,"is_reserved":false,"is_disabled":false,"rental_uris":{"android":"levelo://app?vid=7c39b88d-5b7b-4789-85fd-01e97122cd35","ios":"levelo://app?vid=7c39b88d-5b7b-4789-85fd-01e97122cd35"},"vehicle_type_id":"4","last_reported":1715796567,"current_range_meters":20000,"station_id":"ce4bh692rcd13ifvqea0","pricing_plan_id":"cebpf4jnsgd1na2vs0mg"},{"bike_id":"33f599ab-771c-4029-8f75-033e96bbb8cb","system_id":"levelo_inurba_marseille","lat":43.293009,"lon":5.374584,"is_reserved":false,"is_disabled":false,"rental_uris":{"android":"levelo://app?vid=33f599ab-771c-4029-8f75-033e96bbb8cb","ios":"levelo://app?vid=33f599ab-771c-4029-8f75-033e96bbb8cb"},"vehicle_type_id":"4","last_reported":1715796567,"current_range_meters":7200,"station_id":"ce4bgi12rcd13ifvqb70","pricing_plan_id":"cebpf4jnsgd1na2vs0mg"},{"bike_id":"930605b6-f5a9-4b92-bed8-1b3f5954711e","system_id":"levelo_inurba_marseille","lat":43.2936,"lon":5.37835,"is_reserved":false,"is_disabled":false,"rental_uris":{"android":"levelo://app?vid=930605b6-f5a9-4b92-bed8-1b3f5954711e","ios":"levelo://app?vid=930605b6-f5a9-4b92-bed8-1b3f5954711e"},"vehicle_type_id":"4","last_reported":1715796567,"current_range_meters":6400,"station_id":"ce4bgjh2rcd13ifvqbf0","pricing_plan_id":"cebpf4jnsgd1na2vs0mg"},{"bike_id":"5e1327be-6278-48ef-83f2-02aeb406e4d0","system_id":"levelo_inurba_marseille","lat":43.293009,"lon":5.374584,"is_reserved":false,"is_disabled":false,"rental_uris":{"android":"levelo://app?vid=5e1327be-6278-48ef-83f2-02aeb406e4d0","ios":"levelo://app?vid=5e1327be-6278-48ef-83f2-02aeb406e4d0"},"vehicle_type_id":"4","last_reported":1715796567,"current_range_meters":18000,"station_id":"ce4bgi12rcd13ifvqb70","pricing_plan_id":"cebpf4jnsgd1na2vs0mg"},{"bike_id":"72f65b20-851c-43f1-b2ff-bd7b7fd1b656","system_id":"levelo_inurba_marseille","lat":43.293009,"lon":5.374584,"is_reserved":false,"is_disabled":false,"rental_uris":{"android":"levelo://app?vid=72f65b20-851c-43f1-b2ff-bd7b7fd1b656","ios":"levelo://app?vid=72f65b20-851c-43f1-b2ff-bd7b7fd1b656"},"vehicle_type_id":"4","last_reported":1715796567,"current_range_meters":0,"station_id":"ce4bgi12rcd13ifvqb70","pricing_plan_id":"cebpf4jnsgd1na2vs0mg"},{"bike_id":"3eda67b9-4c6b-4b26-8804-91cbe104e51a","system_id":"levelo_inurba_marseille","lat":43.29308,"lon":5.37454,"is_reserved":false,"is_disabled":false,"rental_uris":{"android":"levelo://app?vid=3eda67b9-4c6b-4b26-8804-91cbe104e51a","ios":"levelo://app?vid=3eda67b9-4c6b-4b26-8804-91cbe104e51a"},"vehicle_type_id":"4","last_reported":1715796567,"current_range_meters":0,"station_id":"ce4bgi12rcd13ifvqb70","pricing_plan_id":"cebpf4jnsgd1na2vs0mg"},{"bike_id":"a1b9e647-a58b-4fb3-8b2b-b857583800ce","system_id":"levelo_inurba_marseille","lat":43.293009,"lon":5.374584,"is_reserved":false,"is_disabled":false,"rental_uris":{"android":"levelo://app?vid=a1b9e647-a58b-4fb3-8b2b-b857583800ce","ios":"levelo://app?vid=a1b9e647-a58b-4fb3-8b2b-b857583800ce"},"vehicle_type_id":"4","last_reported":1715796567,"current_range_meters":16400,"station_id":"ce4bgi12rcd13ifvqb70","pricing_plan_id":"cebpf4jnsgd1na2vs0mg"},{"bike_id":"16d438e1-e8b4-4a2b-9753-183e3de7c536","system_id":"levelo_inurba_marseille","lat":43.293009,"lon":5.374584,"is_reserved":false,"is_disabled":false,"rental_uris":{"android":"levelo://app?vid=16d438e1-e8b4-4a2b-9753-183e3de7c536","ios":"levelo://app?vid=16d438e1-e8b4-4a2b-9753-183e3de7c536"},"vehicle_type_id":"4","last_reported":1715796567,"current_range_meters":6000,"station_id":"ce4bgi12rcd13ifvqb70","pricing_plan_id":"cebpf4jnsgd1na2vs0mg"},{"bike_id":"eb2bbd27-254c-48ae-8e49-746c5fc85102","system_id":"levelo_inurba_marseille","lat":43.293009,"lon":5.374584,"is_reserved":false,"is_disabled":false,"rental_uris":{"android":"levelo://app?vid=eb2bbd27-254c-48ae-8e49-746c5fc85102","ios":"levelo://app?vid=eb2bbd27-254c-48ae-8e49-746c5fc85102"},"vehicle_type_id":"4","last_reported":1715796567,"current_range_meters":18000,"station_id":"ce4bgi12rcd13ifvqb70","pricing_plan_id":"cebpf4jnsgd1na2vs0mg"},{"bike_id":"41726bd3-4312-499b-a96a-78982039b1e6","system_id":"levelo_inurba_marseille","lat":43.293009,"lon":5.374584,"is_reserved":false,"is_disabled":false,"rental_uris":{"android":"levelo://app?vid=41726bd3-4312-499b-a96a-78982039b1e6","ios":"levelo://app?vid=41726bd3-4312-499b-a96a-78982039b1e6"},"vehicle_type_id":"4","last_reported":1715796567,"current_range_meters":4400,"station_id":"ce4bgi12rcd13ifvqb70","pricing_plan_id":"cebpf4jnsgd1na2vs0mg"},{"bike_id":"49291243-ec36-486e-9330-d637b168f801","system_id":"levelo_inurba_marseille","lat":43.305364,"lon":5.384119,"is_reserved":false,"is_disabled":false,"rental_uris":{"android":"levelo://app?vid=49291243-ec36-486e-9330-d637b168f801","ios":"levelo://app?vid=49291243-ec36-486e-9330-d637b168f801"},"vehicle_type_id":"4","last_reported":1715796567,"current_range_meters":1200,"station_id":"ce4bgg92rcd13ifvqb30","pricing_plan_id":"cebpf4jnsgd1na2vs0mg"},{"bike_id":"49e52957-82bc-4b90-80b6-2929e05b828c","system_id":"levelo_inurba_marseille","lat":43.3031,"lon":5.39206,"is_reserved":false,"is_disabled":false,"rental_uris":{"android":"levelo://app?vid=49e52957-82bc-4b90-80b6-2929e05b828c","ios":"levelo://app?vid=49e52957-82bc-4b90-80b6-2929e05b828c"},"vehicle_type_id":"4","last_reported":1715796567,"current_range_meters":0,"station_id":"ce4bgkh2rcd13ifvqbk0","pricing_plan_id":"cebpf4jnsgd1na2vs0mg"},{"bike_id":"cb1be69a-bb01-420a-922a-fd83e6ad609f","system_id":"levelo_inurba_marseille","lat":43.303098,"lon":5.392107,"is_reserved":false,"is_disabled":false,"rental_uris":{"android":"levelo://app?vid=cb1be69a-bb01-420a-922a-fd83e6ad609f","ios":"levelo://app?vid=cb1be69a-bb01-420a-922a-fd83e6ad609f"},"vehicle_type_id":"4","last_reported":1715796567,"current_range_meters":0,"station_id":"ce4bgkh2rcd13ifvqbk0","pricing_plan_id":"cebpf4jnsgd1na2vs0mg"},{"bike_id":"9bf10404-93dc-49e6-8b0b-95ffc2ef1dfa","system_id":"levelo_inurba_marseille","lat":43.302992,"lon":5.392136,"is_reserved":false,"is_disabled":false,"rental_uris":{"android":"levelo://app?vid=9bf10404-93dc-49e6-8b0b-95ffc2ef1dfa","ios":"levelo://app?vid=9bf10404-93dc-49e6-8b0b-95ffc2ef1dfa"},"vehicle_type_id":"4","last_reported":1715796567,"current_range_meters":14800,"station_id":"ce4bgkh2rcd13ifvqbk0","pricing_plan_id":"cebpf4jnsgd1na2vs0mg"},{"bike_id":"a9985b3a-aa1c-4cb3-a5ee-eb6f3e8e0f7a","system_id":"levelo_inurba_marseille","lat":43.293782,"lon":5.378648,"is_reserved":false,"is_disabled":false,"rental_uris":{"android":"levelo://app?vid=a9985b3a-aa1c-4cb3-a5ee-eb6f3e8e0f7a","ios":"levelo://app?vid=a9985b3a-aa1c-4cb3-a5ee-eb6f3e8e0f7a"},"vehicle_type_id":"4","last_reported":1715796567,"current_range_meters":0,"station_id":"ce4bgjh2rcd13ifvqbf0","pricing_plan_id":"cebpf4jnsgd1na2vs0mg"},{"bike_id":"3eea379b-23b2-4ed6-a64a-08d9de7d38aa","system_id":"levelo_inurba_marseille","lat":43.2936,"lon":5.37835,"is_reserved":false,"is_disabled":false,"rental_uris":{"android":"levelo://app?vid=3eea379b-23b2-4ed6-a64a-08d9de7d38aa","ios":"levelo://app?vid=3eea379b-23b2-4ed6-a64a-08d9de7d38aa"},"vehicle_type_id":"4","last_reported":1715796567,"current_range_meters":21600,"station_id":"ce4bgjh2rcd13ifvqbf0","pricing_plan_id":"cebpf4jnsgd1na2vs0mg"},{"bike_id":"8a3f9ad2-5c5f-46de-8a91-062dea04ea86","system_id":"levelo_inurba_marseille","lat":43.305994,"lon":5.393687,"is_reserved":false,"is_disabled":false,"rental_uris":{"android":"levelo://app?vid=8a3f9ad2-5c5f-46de-8a91-062dea04ea86","ios":"levelo://app?vid=8a3f9ad2-5c5f-46de-8a91-062dea04ea86"},"vehicle_type_id":"4","last_reported":1715796567,"current_range_meters":23200,"station_id":"ce4bh0p2rcd13ifvqd80","pricing_plan_id":"cebpf4jnsgd1na2vs0mg"},{"bike_id":"61781d27-c944-4dfb-a5c0-54709007a8dd","system_id":"levelo_inurba_marseille","lat":43.2937,"lon":5.37853,"is_reserved":false,"is_disabled":false,"rental_uris":{"android":"levelo://app?vid=61781d27-c944-4dfb-a5c0-54709007a8dd","ios":"levelo://app?vid=61781d27-c944-4dfb-a5c0-54709007a8dd"},"vehicle_type_id":"4","last_reported":1715796567,"current_range_meters":0,"station_id":"ce4bgjh2rcd13ifvqbf0","pricing_plan_id":"cebpf4jnsgd1na2vs0mg"},{"bike_id":"fa1f2aec-af30-4ade-9335-6ab2628e821a","system_id":"levelo_inurba_marseille","lat":43.303002,"lon":5.392142,"is_reserved":false,"is_disabled":false,"rental_uris":{"android":"levelo://app?vid=fa1f2aec-af30-4ade-9335-6ab2628e821a","ios":"levelo://app?vid=fa1f2aec-af30-4ade-9335-6ab2628e821a"},"vehicle_type_id":"4","last_reported":1715796567,"current_range_meters":10800,"station_id":"ce4bgkh2rcd13ifvqbk0","pricing_plan_id":"cebpf4jnsgd1na2vs0mg"},{"bike_id":"f12038c6-b82f-471c-be5b-21855856a1fc","system_id":"levelo_inurba_marseille","lat":43.2936,"lon":5.37835,"is_reserved":false,"is_disabled":false,"rental_uris":{"android":"levelo://app?vid=f12038c6-b82f-471c-be5b-21855856a1fc","ios":"levelo://app?vid=f12038c6-b82f-471c-be5b-21855856a1fc"},"vehicle_type_id":"4","last_reported":1715796567,"current_range_meters":4400,"station_id":"ce4bgjh2rcd13ifvqbf0","pricing_plan_id":"cebpf4jnsgd1na2vs0mg"},{"bike_id":"8344494a-eb9e-40f5-a7e6-ba6314593ee0","system_id":"levelo_inurba_marseille","lat":43.2936,"lon":5.37835,"is_reserved":false,"is_disabled":false,"rental_uris":{"android":"levelo://app?vid=8344494a-eb9e-40f5-a7e6-ba6314593ee0","ios":"levelo://app?vid=8344494a-eb9e-40f5-a7e6-ba6314593ee0"},"vehicle_type_id":"4","last_reported":1715796567,"current_range_meters":13200,"station_id":"ce4bgjh2rcd13ifvqbf0","pricing_plan_id":"cebpf4jnsgd1na2vs0mg"},{"bike_id":"ad167322-e001-4d0f-8aca-03a5fc2f147d","system_id":"levelo_inurba_marseille","lat":43.292311,"lon":5.360731,"is_reserved":false,"is_disabled":false,"rental_uris":{"android":"levelo://app?vid=ad167322-e001-4d0f-8aca-03a5fc2f147d","ios":"levelo://app?vid=ad167322-e001-4d0f-8aca-03a5fc2f147d"},"vehicle_type_id":"4","last_reported":1715796567,"current_range_meters":4000,"station_id":"ce4bhbh2rcd13ifvqeqg","pricing_plan_id":"cebpf4jnsgd1na2vs0mg"},{"bike_id":"8b14b8c9-e995-45aa-b4f0-7f4b1ee80a94","system_id":"levelo_inurba_marseille","lat":43.300818,"lon":5.390549,"is_reserved":false,"is_disabled":false,"rental_uris":{"android":"levelo://app?vid=8b14b8c9-e995-45aa-b4f0-7f4b1ee80a94","ios":"levelo://app?vid=8b14b8c9-e995-45aa-b4f0-7f4b1ee80a94"},"vehicle_type_id":"4","last_reported":1715796567,"current_range_meters":17600,"station_id":"ce4bh192rcd13ifvqdb0","pricing_plan_id":"cebpf4jnsgd1na2vs0mg"},{"bike_id":"d229fc36-2d5e-4a46-a34d-6e55349aa2d5","system_id":"levelo_inurba_marseille","lat":43.301063,"lon":5.39078,"is_reserved":false,"is_disabled":false,"rental_uris":{"android":"levelo://app?vid=d229fc36-2d5e-4a46-a34d-6e55349aa2d5","ios":"levelo://app?vid=d229fc36-2d5e-4a46-a34d-6e55349aa2d5"},"vehicle_type_id":"4","last_reported":1715796567,"current_range_meters":0,"station_id":"ce4bh192rcd13ifvqdb0","pricing_plan_id":"cebpf4jnsgd1na2vs0mg"},{"bike_id":"996bf222-2147-403d-8f5b-78d0e14031ad","system_id":"levelo_inurba_marseille","lat":43.292311,"lon":5.360731,"is_reserved":false,"is_disabled":false,"rental_uris":{"android":"levelo://app?vid=996bf222-2147-403d-8f5b-78d0e14031ad","ios":"levelo://app?vid=996bf222-2147-403d-8f5b-78d0e14031ad"},"vehicle_type_id":"4","last_reported":1715796567,"current_range_meters":17200,"station_id":"ce4bhbh2rcd13ifvqeqg","pricing_plan_id":"cebpf4jnsgd1na2vs0mg"},{"bike_id":"15e87df7-a7a0-4c20-8615-b1e5ce1d45b9","system_id":"levelo_inurba_marseille","lat":43.2923,"lon":5.36064,"is_reserved":false,"is_disabled":false,"rental_uris":{"android":"levelo://app?vid=15e87df7-a7a0-4c20-8615-b1e5ce1d45b9","ios":"levelo://app?vid=15e87df7-a7a0-4c20-8615-b1e5ce1d45b9"},"vehicle_type_id":"4","last_reported":1715796567,"current_range_meters":0,"station_id":"ce4bhbh2rcd13ifvqeqg","pricing_plan_id":"cebpf4jnsgd1na2vs0mg"},{"bike_id":"2a106df6-ba06-44aa-a7da-a32aee2dca04","system_id":"levelo_inurba_marseille","lat":43.292311,"lon":5.360731,"is_reserved":false,"is_disabled":false,"rental_uris":{"android":"levelo://app?vid=2a106df6-ba06-44aa-a7da-a32aee2dca04","ios":"levelo://app?vid=2a106df6-ba06-44aa-a7da-a32aee2dca04"},"vehicle_type_id":"4","last_reported":1715796567,"current_range_meters":23600,"station_id":"ce4bhbh2rcd13ifvqeqg","pricing_plan_id":"cebpf4jnsgd1na2vs0mg"},{"bike_id":"b2a85d2c-c7e3-4db1-8e64-01470b584a80","system_id":"levelo_inurba_marseille","lat":43.29529,"lon":5.385581,"is_reserved":false,"is_disabled":false,"rental_uris":{"android":"levelo://app?vid=b2a85d2c-c7e3-4db1-8e64-01470b584a80","ios":"levelo://app?vid=b2a85d2c-c7e3-4db1-8e64-01470b584a80"},"vehicle_type_id":"4","last_reported":1715796567,"current_range_meters":9600,"station_id":"ce4bgih2rcd13ifvqba0","pricing_plan_id":"cebpf4jnsgd1na2vs0mg"},{"bike_id":"80ed5321-c3b3-41a1-95f8-fb57c1672fe7","system_id":"levelo_inurba_marseille","lat":43.292005,"lon":5.357875,"is_reserved":false,"is_disabled":false,"rental_uris":{"android":"levelo://app?vid=80ed5321-c3b3-41a1-95f8-fb57c1672fe7","ios":"levelo://app?vid=80ed5321-c3b3-41a1-95f8-fb57c1672fe7"},"vehicle_type_id":"4","last_reported":1715796567,"current_range_meters":4000,"station_id":"ce4bhb12rcd13ifvqel0","pricing_plan_id":"cebpf4jnsgd1na2vs0mg"},{"bike_id":"f9f4774e-56a9-4b18-8224-7704f5dfa2e8","system_id":"levelo_inurba_marseille","lat":43.30091,"lon":5.39101,"is_reserved":false,"is_disabled":false,"rental_uris":{"android":"levelo://app?vid=f9f4774e-56a9-4b18-8224-7704f5dfa2e8","ios":"levelo://app?vid=f9f4774e-56a9-4b18-8224-7704f5dfa2e8"},"vehicle_type_id":"4","last_reported":1715796567,"current_range_meters":0,"station_id":"ce4bh192rcd13ifvqdb0","pricing_plan_id":"cebpf4jnsgd1na2vs0mg"},{"bike_id":"545dbbc5-d152-4708-ab43-0d4aecdb4cb3","system_id":"levelo_inurba_marseille","lat":43.293009,"lon":5.374584,"is_reserved":false,"is_disabled":false,"rental_uris":{"android":"levelo://app?vid=545dbbc5-d152-4708-ab43-0d4aecdb4cb3","ios":"levelo://app?vid=545dbbc5-d152-4708-ab43-0d4aecdb4cb3"},"vehicle_type_id":"4","last_reported":1715796567,"current_range_meters":0,"station_id":"ce4bgi12rcd13ifvqb70","pricing_plan_id":"cebpf4jnsgd1na2vs0mg"},{"bike_id":"98793563-ebbe-4e3e-bacb-f68cc949f1b3","system_id":"levelo_inurba_marseille","lat":43.291675,"lon":5.371583,"is_reserved":false,"is_disabled":false,"rental_uris":{"android":"levelo://app?vid=98793563-ebbe-4e3e-bacb-f68cc949f1b3","ios":"levelo://app?vid=98793563-ebbe-4e3e-bacb-f68cc949f1b3"},"vehicle_type_id":"4","last_reported":1715796567,"current_range_meters":23200,"station_id":"ce4bha92rcd13ifvqeh0","pricing_plan_id":"cebpf4jnsgd1na2vs0mg"},{"bike_id":"d6949ae2-f074-4426-b851-611d14e80281","system_id":"levelo_inurba_marseille","lat":43.304226,"lon":5.393619,"is_reserved":false,"is_disabled":false,"rental_uris":{"android":"levelo://app?vid=d6949ae2-f074-4426-b851-611d14e80281","ios":"levelo://app?vid=d6949ae2-f074-4426-b851-611d14e80281"},"vehicle_type_id":"4","last_reported":1715796567,"current_range_meters":0,"station_id":"ce4bgup2rcd13ifvqco0","pricing_plan_id":"cebpf4jnsgd1na2vs0mg"},{"bike_id":"d190d961-498b-4df0-88d4-3edcb9a63803","system_id":"levelo_inurba_marseille","lat":43.291752,"lon":5.371411,"is_reserved":false,"is_disabled":false,"rental_uris":{"android":"levelo://app?vid=d190d961-498b-4df0-88d4-3edcb9a63803","ios":"levelo://app?vid=d190d961-498b-4df0-88d4-3edcb9a63803"},"vehicle_type_id":"4","last_reported":1715796567,"current_range_meters":29600,"station_id":"ce4bha92rcd13ifvqeh0","pricing_plan_id":"cebpf4jnsgd1na2vs0mg"},{"bike_id":"ed39cf8f-a5ff-4a2c-a2f9-ff5a5ae145e6","system_id":"levelo_inurba_marseille","lat":43.29174,"lon":5.37149,"is_reserved":false,"is_disabled":false,"rental_uris":{"android":"levelo://app?vid=ed39cf8f-a5ff-4a2c-a2f9-ff5a5ae145e6","ios":"levelo://app?vid=ed39cf8f-a5ff-4a2c-a2f9-ff5a5ae145e6"},"vehicle_type_id":"4","last_reported":1715796567,"current_range_meters":0,"station_id":"ce4bha92rcd13ifvqeh0","pricing_plan_id":"cebpf4jnsgd1na2vs0mg"},{"bike_id":"22cedb83-459b-4d5d-b094-eea8d5ee9fd8","system_id":"levelo_inurba_marseille","lat":43.298764,"lon":5.388973,"is_reserved":false,"is_disabled":false,"rental_uris":{"android":"levelo://app?vid=22cedb83-459b-4d5d-b094-eea8d5ee9fd8","ios":"levelo://app?vid=22cedb83-459b-4d5d-b094-eea8d5ee9fd8"},"vehicle_type_id":"4","last_reported":1715796567,"current_range_meters":7200,"station_id":"ce4bh392rcd13ifvqdl0","pricing_plan_id":"cebpf4jnsgd1na2vs0mg"},{"bike_id":"1e2d0a35-24a5-4b26-ad5a-ab47d4d55fd8","system_id":"levelo_inurba_marseille","lat":43.291675,"lon":5.371583,"is_reserved":false,"is_disabled":false,"rental_uris":{"android":"levelo://app?vid=1e2d0a35-24a5-4b26-ad5a-ab47d4d55fd8","ios":"levelo://app?vid=1e2d0a35-24a5-4b26-ad5a-ab47d4d55fd8"},"vehicle_type_id":"4","last_reported":1715796567,"current_range_meters":2800,"station_id":"ce4bha92rcd13ifvqeh0","pricing_plan_id":"cebpf4jnsgd1na2vs0mg"},{"bike_id":"f85435b5-9129-4b46-b36d-71a608d52072","system_id":"levelo_inurba_marseille","lat":43.291688,"lon":5.371663,"is_reserved":false,"is_disabled":false,"rental_uris":{"android":"levelo://app?vid=f85435b5-9129-4b46-b36d-71a608d52072","ios":"levelo://app?vid=f85435b5-9129-4b46-b36d-71a608d52072"},"vehicle_type_id":"4","last_reported":1715796567,"current_range_meters":0,"station_id":"ce4bha92rcd13ifvqeh0","pricing_plan_id":"cebpf4jnsgd1na2vs0mg"},{"bike_id":"11aff2f5-22ff-4116-9c0c-e005a07800ce","system_id":"levelo_inurba_marseille","lat":43.298764,"lon":5.388973,"is_reserved":false,"is_disabled":false,"rental_uris":{"android":"levelo://app?vid=11aff2f5-22ff-4116-9c0c-e005a07800ce","ios":"levelo://app?vid=11aff2f5-22ff-4116-9c0c-e005a07800ce"},"vehicle_type_id":"4","last_reported":1715796567,"current_range_meters":0,"station_id":"ce4bh392rcd13ifvqdl0","pricing_plan_id":"cebpf4jnsgd1na2vs0mg"},{"bike_id":"035eaa75-ec88-461b-8e1f-e521ab70606a","system_id":"levelo_inurba_marseille","lat":43.298764,"lon":5.388973,"is_reserved":false,"is_disabled":false,"rental_uris":{"android":"levelo://app?vid=035eaa75-ec88-461b-8e1f-e521ab70606a","ios":"levelo://app?vid=035eaa75-ec88-461b-8e1f-e521ab70606a"},"vehicle_type_id":"4","last_reported":1715796567,"current_range_meters":0,"station_id":"ce4bh392rcd13ifvqdl0","pricing_plan_id":"cebpf4jnsgd1na2vs0mg"},{"bike_id":"b674c6a6-08f3-4053-b2d7-bbe8a37e86ed","system_id":"levelo_inurba_marseille","lat":43.291994,"lon":5.357886,"is_reserved":false,"is_disabled":false,"rental_uris":{"android":"levelo://app?vid=b674c6a6-08f3-4053-b2d7-bbe8a37e86ed","ios":"levelo://app?vid=b674c6a6-08f3-4053-b2d7-bbe8a37e86ed"},"vehicle_type_id":"4","last_reported":1715796567,"current_range_meters":5600,"station_id":"ce4bhb12rcd13ifvqel0","pricing_plan_id":"cebpf4jnsgd1na2vs0mg"},{"bike_id":"70a1e9b7-3ccb-4ea9-85f7-7197efae2d1a","system_id":"levelo_inurba_marseille","lat":43.291994,"lon":5.357886,"is_reserved":false,"is_disabled":false,"rental_uris":{"android":"levelo://app?vid=70a1e9b7-3ccb-4ea9-85f7-7197efae2d1a","ios":"levelo://app?vid=70a1e9b7-3ccb-4ea9-85f7-7197efae2d1a"},"vehicle_type_id":"4","last_reported":1715796567,"current_range_meters":14000,"station_id":"ce4bhb12rcd13ifvqel0","pricing_plan_id":"cebpf4jnsgd1na2vs0mg"},{"bike_id":"457e0c2e-377d-4ee2-83b0-4893081b1639","system_id":"levelo_inurba_marseille","lat":43.291994,"lon":5.357886,"is_reserved":false,"is_disabled":false,"rental_uris":{"android":"levelo://app?vid=457e0c2e-377d-4ee2-83b0-4893081b1639","ios":"levelo://app?vid=457e0c2e-377d-4ee2-83b0-4893081b1639"},"vehicle_type_id":"4","last_reported":1715796567,"current_range_meters":6800,"station_id":"ce4bhb12rcd13ifvqel0","pricing_plan_id":"cebpf4jnsgd1na2vs0mg"},{"bike_id":"e03ea731-2460-45b7-ae04-22b15ccd6ca9","system_id":"levelo_inurba_marseille","lat":43.292005,"lon":5.357875,"is_reserved":false,"is_disabled":false,"rental_uris":{"android":"levelo://app?vid=e03ea731-2460-45b7-ae04-22b15ccd6ca9","ios":"levelo://app?vid=e03ea731-2460-45b7-ae04-22b15ccd6ca9"},"vehicle_type_id":"4","last_reported":1715796567,"current_range_meters":21200,"station_id":"ce4bhb12rcd13ifvqel0","pricing_plan_id":"cebpf4jnsgd1na2vs0mg"},{"bike_id":"44c1c61d-9b3e-4589-a6b4-3f383cd7b837","system_id":"levelo_inurba_marseille","lat":43.291994,"lon":5.357886,"is_reserved":false,"is_disabled":false,"rental_uris":{"android":"levelo://app?vid=44c1c61d-9b3e-4589-a6b4-3f383cd7b837","ios":"levelo://app?vid=44c1c61d-9b3e-4589-a6b4-3f383cd7b837"},"vehicle_type_id":"4","last_reported":1715796567,"current_range_meters":5200,"station_id":"ce4bhb12rcd13ifvqel0","pricing_plan_id":"cebpf4jnsgd1na2vs0mg"},{"bike_id":"3d4817d0-0723-4b98-8bcd-4ab678e8a30a","system_id":"levelo_inurba_marseille","lat":43.313291,"lon":5.396838,"is_reserved":false,"is_disabled":false,"rental_uris":{"android":"levelo://app?vid=3d4817d0-0723-4b98-8bcd-4ab678e8a30a","ios":"levelo://app?vid=3d4817d0-0723-4b98-8bcd-4ab678e8a30a"},"vehicle_type_id":"4","last_reported":1715796567,"current_range_meters":17600,"station_id":"ce4bgvp2rcd13ifvqcu0","pricing_plan_id":"cebpf4jnsgd1na2vs0mg"},{"bike_id":"08f3f81a-ca42-4fce-9090-327678483171","system_id":"levelo_inurba_marseille","lat":43.31325,"lon":5.39689,"is_reserved":false,"is_disabled":false,"rental_uris":{"android":"levelo://app?vid=08f3f81a-ca42-4fce-9090-327678483171","ios":"levelo://app?vid=08f3f81a-ca42-4fce-9090-327678483171"},"vehicle_type_id":"4","last_reported":1715796567,"current_range_meters":0,"station_id":"ce4bgvp2rcd13ifvqcu0","pricing_plan_id":"cebpf4jnsgd1na2vs0mg"},{"bike_id":"b4673602-55a2-4dcf-9c54-0a0bc3fcb063","system_id":"levelo_inurba_marseille","lat":43.309038,"lon":5.396546,"is_reserved":false,"is_disabled":false,"rental_uris":{"android":"levelo://app?vid=b4673602-55a2-4dcf-9c54-0a0bc3fcb063","ios":"levelo://app?vid=b4673602-55a2-4dcf-9c54-0a0bc3fcb063"},"vehicle_type_id":"4","last_reported":1715796567,"current_range_meters":25600,"station_id":"ce4bh012rcd13ifvqcv0","pricing_plan_id":"cebpf4jnsgd1na2vs0mg"},{"bike_id":"bed96f6f-4d7b-4854-b230-decb58efb9b6","system_id":"levelo_inurba_marseille","lat":43.29529,"lon":5.385581,"is_reserved":false,"is_disabled":false,"rental_uris":{"android":"levelo://app?vid=bed96f6f-4d7b-4854-b230-decb58efb9b6","ios":"levelo://app?vid=bed96f6f-4d7b-4854-b230-decb58efb9b6"},"vehicle_type_id":"4","last_reported":1715796567,"current_range_meters":3200,"station_id":"ce4bgih2rcd13ifvqba0","pricing_plan_id":"cebpf4jnsgd1na2vs0mg"},{"bike_id":"35e07306-3dc7-4c60-ac89-c7e771052d0f","system_id":"levelo_inurba_marseille","lat":43.313291,"lon":5.396838,"is_reserved":false,"is_disabled":false,"rental_uris":{"android":"levelo://app?vid=35e07306-3dc7-4c60-ac89-c7e771052d0f","ios":"levelo://app?vid=35e07306-3dc7-4c60-ac89-c7e771052d0f"},"vehicle_type_id":"4","last_reported":1715796567,"current_range_meters":1600,"station_id":"ce4bgvp2rcd13ifvqcu0","pricing_plan_id":"cebpf4jnsgd1na2vs0mg"},{"bike_id":"01427464-5878-48dc-b391-94876a54b3e8","system_id":"levelo_inurba_marseille","lat":43.309038,"lon":5.396546,"is_reserved":false,"is_disabled":false,"rental_uris":{"android":"levelo://app?vid=01427464-5878-48dc-b391-94876a54b3e8","ios":"levelo://app?vid=01427464-5878-48dc-b391-94876a54b3e8"},"vehicle_type_id":"4","last_reported":1715796567,"current_range_meters":0,"station_id":"ce4bh012rcd13ifvqcv0","pricing_plan_id":"cebpf4jnsgd1na2vs0mg"},{"bike_id":"9f42e626-b6cf-4374-a964-f27d59bf7b99","system_id":"levelo_inurba_marseille","lat":43.309047,"lon":5.396551,"is_reserved":false,"is_disabled":false,"rental_uris":{"android":"levelo://app?vid=9f42e626-b6cf-4374-a964-f27d59bf7b99","ios":"levelo://app?vid=9f42e626-b6cf-4374-a964-f27d59bf7b99"},"vehicle_type_id":"4","last_reported":1715796567,"current_range_meters":0,"station_id":"ce4bh012rcd13ifvqcv0","pricing_plan_id":"cebpf4jnsgd1na2vs0mg"},{"bike_id":"8aa20e6e-6473-4004-9fda-7caa882639f3","system_id":"levelo_inurba_marseille","lat":43.313291,"lon":5.396838,"is_reserved":false,"is_disabled":false,"rental_uris":{"android":"levelo://app?vid=8aa20e6e-6473-4004-9fda-7caa882639f3","ios":"levelo://app?vid=8aa20e6e-6473-4004-9fda-7caa882639f3"},"vehicle_type_id":"4","last_reported":1715796567,"current_range_meters":17600,"station_id":"ce4bgvp2rcd13ifvqcu0","pricing_plan_id":"cebpf4jnsgd1na2vs0mg"},{"bike_id":"942d7a16-0ef2-4019-920f-a71fde2fc827","system_id":"levelo_inurba_marseille","lat":43.3133,"lon":5.39704,"is_reserved":false,"is_disabled":false,"rental_uris":{"android":"levelo://app?vid=942d7a16-0ef2-4019-920f-a71fde2fc827","ios":"levelo://app?vid=942d7a16-0ef2-4019-920f-a71fde2fc827"},"vehicle_type_id":"4","last_reported":1715796567,"current_range_meters":12400,"station_id":"ce4bgvp2rcd13ifvqcu0","pricing_plan_id":"cebpf4jnsgd1na2vs0mg"},{"bike_id":"c833f16a-158e-4302-8750-a31a7ff4c2bc","system_id":"levelo_inurba_marseille","lat":43.29529,"lon":5.385581,"is_reserved":false,"is_disabled":false,"rental_uris":{"android":"levelo://app?vid=c833f16a-158e-4302-8750-a31a7ff4c2bc","ios":"levelo://app?vid=c833f16a-158e-4302-8750-a31a7ff4c2bc"},"vehicle_type_id":"4","last_reported":1715796567,"current_range_meters":4800,"station_id":"ce4bgih2rcd13ifvqba0","pricing_plan_id":"cebpf4jnsgd1na2vs0mg"},{"bike_id":"b5a1cc6d-ae06-4cfe-b15d-79e74a215545","system_id":"levelo_inurba_marseille","lat":43.29529,"lon":5.385581,"is_reserved":false,"is_disabled":false,"rental_uris":{"android":"levelo://app?vid=b5a1cc6d-ae06-4cfe-b15d-79e74a215545","ios":"levelo://app?vid=b5a1cc6d-ae06-4cfe-b15d-79e74a215545"},"vehicle_type_id":"4","last_reported":1715796567,"current_range_meters":12000,"station_id":"ce4bgih2rcd13ifvqba0","pricing_plan_id":"cebpf4jnsgd1na2vs0mg"},{"bike_id":"b8072ba4-8a5e-4fc0-9d02-7d37a0fa073a","system_id":"levelo_inurba_marseille","lat":43.29529,"lon":5.385581,"is_reserved":false,"is_disabled":false,"rental_uris":{"android":"levelo://app?vid=b8072ba4-8a5e-4fc0-9d02-7d37a0fa073a","ios":"levelo://app?vid=b8072ba4-8a5e-4fc0-9d02-7d37a0fa073a"},"vehicle_type_id":"4","last_reported":1715796567,"current_range_meters":22000,"station_id":"ce4bgih2rcd13ifvqba0","pricing_plan_id":"cebpf4jnsgd1na2vs0mg"},{"bike_id":"5ef13a13-2d3c-4348-943e-ab64bbe1224d","system_id":"levelo_inurba_marseille","lat":43.29537,"lon":5.38543,"is_reserved":false,"is_disabled":false,"rental_uris":{"android":"levelo://app?vid=5ef13a13-2d3c-4348-943e-ab64bbe1224d","ios":"levelo://app?vid=5ef13a13-2d3c-4348-943e-ab64bbe1224d"},"vehicle_type_id":"4","last_reported":1715796567,"current_range_meters":14400,"station_id":"ce4bgih2rcd13ifvqba0","pricing_plan_id":"cebpf4jnsgd1na2vs0mg"},{"bike_id":"7062e3a9-7e58-49c1-adf4-cdf2af2cbdb1","system_id":"levelo_inurba_marseille","lat":43.295353,"lon":5.385429,"is_reserved":false,"is_disabled":false,"rental_uris":{"android":"levelo://app?vid=7062e3a9-7e58-49c1-adf4-cdf2af2cbdb1","ios":"levelo://app?vid=7062e3a9-7e58-49c1-adf4-cdf2af2cbdb1"},"vehicle_type_id":"4","last_reported":1715796567,"current_range_meters":3200,"station_id":"ce4bgih2rcd13ifvqba0","pricing_plan_id":"cebpf4jnsgd1na2vs0mg"},{"bike_id":"fc62d593-ef7a-408c-a624-173b3528c172","system_id":"levelo_inurba_marseille","lat":43.295371,"lon":5.385499,"is_reserved":false,"is_disabled":false,"rental_uris":{"android":"levelo://app?vid=fc62d593-ef7a-408c-a624-173b3528c172","ios":"levelo://app?vid=fc62d593-ef7a-408c-a624-173b3528c172"},"vehicle_type_id":"4","last_reported":1715796567,"current_range_meters":0,"station_id":"ce4bgih2rcd13ifvqba0","pricing_plan_id":"cebpf4jnsgd1na2vs0mg"},{"bike_id":"97b77c9f-b08e-4a8e-b0ec-0d80e7a86a8c","system_id":"levelo_inurba_marseille","lat":43.29529,"lon":5.385581,"is_reserved":false,"is_disabled":false,"rental_uris":{"android":"levelo://app?vid=97b77c9f-b08e-4a8e-b0ec-0d80e7a86a8c","ios":"levelo://app?vid=97b77c9f-b08e-4a8e-b0ec-0d80e7a86a8c"},"vehicle_type_id":"4","last_reported":1715796567,"current_range_meters":25200,"station_id":"ce4bgih2rcd13ifvqba0","pricing_plan_id":"cebpf4jnsgd1na2vs0mg"},{"bike_id":"d1383250-3b97-4f03-9f7e-c905fc3de770","system_id":"levelo_inurba_marseille","lat":43.29529,"lon":5.385581,"is_reserved":false,"is_disabled":false,"rental_uris":{"android":"levelo://app?vid=d1383250-3b97-4f03-9f7e-c905fc3de770","ios":"levelo://app?vid=d1383250-3b97-4f03-9f7e-c905fc3de770"},"vehicle_type_id":"4","last_reported":1715796567,"current_range_meters":7200,"station_id":"ce4bgih2rcd13ifvqba0","pricing_plan_id":"cebpf4jnsgd1na2vs0mg"},{"bike_id":"54a5cc03-8791-450f-8a67-22fad38dd44f","system_id":"levelo_inurba_marseille","lat":43.29529,"lon":5.385581,"is_reserved":false,"is_disabled":false,"rental_uris":{"android":"levelo://app?vid=54a5cc03-8791-450f-8a67-22fad38dd44f","ios":"levelo://app?vid=54a5cc03-8791-450f-8a67-22fad38dd44f"},"vehicle_type_id":"4","last_reported":1715796567,"current_range_meters":0,"station_id":"ce4bgih2rcd13ifvqba0","pricing_plan_id":"cebpf4jnsgd1na2vs0mg"},{"bike_id":"64bbf9f8-167f-4d6b-bdd9-f9b96c7b06a0","system_id":"levelo_inurba_marseille","lat":43.29529,"lon":5.385581,"is_reserved":false,"is_disabled":false,"rental_uris":{"android":"levelo://app?vid=64bbf9f8-167f-4d6b-bdd9-f9b96c7b06a0","ios":"levelo://app?vid=64bbf9f8-167f-4d6b-bdd9-f9b96c7b06a0"},"vehicle_type_id":"4","last_reported":1715796567,"current_range_meters":10800,"station_id":"ce4bgih2rcd13ifvqba0","pricing_plan_id":"cebpf4jnsgd1na2vs0mg"},{"bike_id":"52060275-f648-4312-a478-4ee9b7448b4d","system_id":"levelo_inurba_marseille","lat":43.29529,"lon":5.385581,"is_reserved":false,"is_disabled":false,"rental_uris":{"android":"levelo://app?vid=52060275-f648-4312-a478-4ee9b7448b4d","ios":"levelo://app?vid=52060275-f648-4312-a478-4ee9b7448b4d"},"vehicle_type_id":"4","last_reported":1715796567,"current_range_meters":4400,"station_id":"ce4bgih2rcd13ifvqba0","pricing_plan_id":"cebpf4jnsgd1na2vs0mg"},{"bike_id":"30a07bbc-2a6c-4469-8166-88481ddceaf4","system_id":"levelo_inurba_marseille","lat":43.290779,"lon":5.371482,"is_reserved":false,"is_disabled":false,"rental_uris":{"android":"levelo://app?vid=30a07bbc-2a6c-4469-8166-88481ddceaf4","ios":"levelo://app?vid=30a07bbc-2a6c-4469-8166-88481ddceaf4"},"vehicle_type_id":"4","last_reported":1715796567,"current_range_meters":10400,"station_id":"ce4bh5p2rcd13ifvqe4g","pricing_plan_id":"cebpf4jnsgd1na2vs0mg"},{"bike_id":"96dc8eb2-afd5-4bc0-87d4-611d7700cdf7","system_id":"levelo_inurba_marseille","lat":43.330442,"lon":5.389148,"is_reserved":false,"is_disabled":false,"rental_uris":{"android":"levelo://app?vid=96dc8eb2-afd5-4bc0-87d4-611d7700cdf7","ios":"levelo://app?vid=96dc8eb2-afd5-4bc0-87d4-611d7700cdf7"},"vehicle_type_id":"4","last_reported":1715796567,"current_range_meters":3200,"station_id":"ce4bhr92rcd13ifvqhrg","pricing_plan_id":"cebpf4jnsgd1na2vs0mg"},{"bike_id":"4db77125-e774-4bd8-a45d-0dd41e11b387","system_id":"levelo_inurba_marseille","lat":43.302008,"lon":5.394694,"is_reserved":false,"is_disabled":false,"rental_uris":{"android":"levelo://app?vid=4db77125-e774-4bd8-a45d-0dd41e11b387","ios":"levelo://app?vid=4db77125-e774-4bd8-a45d-0dd41e11b387"},"vehicle_type_id":"4","last_reported":1715796567,"current_range_meters":0,"station_id":"ce4bh0p2rcd13ifvqd70","pricing_plan_id":"cebpf4jnsgd1na2vs0mg"},{"bike_id":"ff03aef3-e14a-42a5-9dae-51eb91e546dd","system_id":"levelo_inurba_marseille","lat":43.286591,"lon":5.363346,"is_reserved":false,"is_disabled":false,"rental_uris":{"android":"levelo://app?vid=ff03aef3-e14a-42a5-9dae-51eb91e546dd","ios":"levelo://app?vid=ff03aef3-e14a-42a5-9dae-51eb91e546dd"},"vehicle_type_id":"4","last_reported":1715796567,"current_range_meters":3600,"station_id":"ce4bhah2rcd13ifvqej0","pricing_plan_id":"cebpf4jnsgd1na2vs0mg"},{"bike_id":"c4e95949-29cd-44e3-8884-c4b6e056a254","system_id":"levelo_inurba_marseille","lat":43.302064,"lon":5.394436,"is_reserved":false,"is_disabled":false,"rental_uris":{"android":"levelo://app?vid=c4e95949-29cd-44e3-8884-c4b6e056a254","ios":"levelo://app?vid=c4e95949-29cd-44e3-8884-c4b6e056a254"},"vehicle_type_id":"4","last_reported":1715796567,"current_range_meters":24000,"station_id":"ce4bh192rcd13ifvqdb0","pricing_plan_id":"cebpf4jnsgd1na2vs0mg"},{"bike_id":"88a1f997-aae4-4fc6-b563-7a0061ad0a3f","system_id":"levelo_inurba_marseille","lat":43.294706,"lon":5.386021,"is_reserved":false,"is_disabled":false,"rental_uris":{"android":"levelo://app?vid=88a1f997-aae4-4fc6-b563-7a0061ad0a3f","ios":"levelo://app?vid=88a1f997-aae4-4fc6-b563-7a0061ad0a3f"},"vehicle_type_id":"4","last_reported":1715796567,"current_range_meters":0,"station_id":"ce4bh2h2rcd13ifvqdh0","pricing_plan_id":"cebpf4jnsgd1na2vs0mg"},{"bike_id":"cc542715-1bed-4dba-a310-42d80a2dfa82","system_id":"levelo_inurba_marseille","lat":43.289184,"lon":5.366408,"is_reserved":false,"is_disabled":false,"rental_uris":{"android":"levelo://app?vid=cc542715-1bed-4dba-a310-42d80a2dfa82","ios":"levelo://app?vid=cc542715-1bed-4dba-a310-42d80a2dfa82"},"vehicle_type_id":"4","last_reported":1715796567,"current_range_meters":31200,"station_id":"ce4bhap2rcd13ifvqek0","pricing_plan_id":"cebpf4jnsgd1na2vs0mg"},{"bike_id":"9def646f-7969-435b-98cf-dbaec38a95e5","system_id":"levelo_inurba_marseille","lat":43.302008,"lon":5.394694,"is_reserved":false,"is_disabled":false,"rental_uris":{"android":"levelo://app?vid=9def646f-7969-435b-98cf-dbaec38a95e5","ios":"levelo://app?vid=9def646f-7969-435b-98cf-dbaec38a95e5"},"vehicle_type_id":"4","last_reported":1715796567,"current_range_meters":800,"station_id":"ce4bh0p2rcd13ifvqd70","pricing_plan_id":"cebpf4jnsgd1na2vs0mg"},{"bike_id":"b21e7e72-e0e0-40e4-9aa8-c236959a3e51","system_id":"levelo_inurba_marseille","lat":43.29426,"lon":5.38612,"is_reserved":false,"is_disabled":false,"rental_uris":{"android":"levelo://app?vid=b21e7e72-e0e0-40e4-9aa8-c236959a3e51","ios":"levelo://app?vid=b21e7e72-e0e0-40e4-9aa8-c236959a3e51"},"vehicle_type_id":"4","last_reported":1715796567,"current_range_meters":29600,"station_id":"ce4bh2h2rcd13ifvqdh0","pricing_plan_id":"cebpf4jnsgd1na2vs0mg"},{"bike_id":"ac44ff45-0b34-42b5-9867-e3dbd247e7c3","system_id":"levelo_inurba_marseille","lat":43.289184,"lon":5.366408,"is_reserved":false,"is_disabled":false,"rental_uris":{"android":"levelo://app?vid=ac44ff45-0b34-42b5-9867-e3dbd247e7c3","ios":"levelo://app?vid=ac44ff45-0b34-42b5-9867-e3dbd247e7c3"},"vehicle_type_id":"4","last_reported":1715796567,"current_range_meters":29600,"station_id":"ce4bhap2rcd13ifvqek0","pricing_plan_id":"cebpf4jnsgd1na2vs0mg"},{"bike_id":"f90685ec-b6c0-4041-9ada-43a7f7f6d2d9","system_id":"levelo_inurba_marseille","lat":43.294153,"lon":5.386305,"is_reserved":false,"is_disabled":false,"rental_uris":{"android":"levelo://app?vid=f90685ec-b6c0-4041-9ada-43a7f7f6d2d9","ios":"levelo://app?vid=f90685ec-b6c0-4041-9ada-43a7f7f6d2d9"},"vehicle_type_id":"4","last_reported":1715796567,"current_range_meters":27200,"station_id":"ce4bh2h2rcd13ifvqdh0","pricing_plan_id":"cebpf4jnsgd1na2vs0mg"},{"bike_id":"b4b19289-361f-41a8-a94b-07b0d154bd4a","system_id":"levelo_inurba_marseille","lat":43.294325,"lon":5.386352,"is_reserved":false,"is_disabled":false,"rental_uris":{"android":"levelo://app?vid=b4b19289-361f-41a8-a94b-07b0d154bd4a","ios":"levelo://app?vid=b4b19289-361f-41a8-a94b-07b0d154bd4a"},"vehicle_type_id":"4","last_reported":1715796567,"current_range_meters":28000,"station_id":"ce4bh2h2rcd13ifvqdh0","pricing_plan_id":"cebpf4jnsgd1na2vs0mg"},{"bike_id":"cdb019cc-931d-4b2b-9060-fc016328acad","system_id":"levelo_inurba_marseille","lat":43.290327,"lon":5.375711,"is_reserved":false,"is_disabled":false,"rental_uris":{"android":"levelo://app?vid=cdb019cc-931d-4b2b-9060-fc016328acad","ios":"levelo://app?vid=cdb019cc-931d-4b2b-9060-fc016328acad"},"vehicle_type_id":"4","last_reported":1715796567,"current_range_meters":0,"station_id":"ce4bh692rcd13ifvqe90","pricing_plan_id":"cebpf4jnsgd1na2vs0mg"},{"bike_id":"568d9f54-7ec9-4ba0-bd31-949d9e0e7e25","system_id":"levelo_inurba_marseille","lat":43.294153,"lon":5.386305,"is_reserved":false,"is_disabled":false,"rental_uris":{"android":"levelo://app?vid=568d9f54-7ec9-4ba0-bd31-949d9e0e7e25","ios":"levelo://app?vid=568d9f54-7ec9-4ba0-bd31-949d9e0e7e25"},"vehicle_type_id":"4","last_reported":1715796567,"current_range_meters":29600,"station_id":"ce4bh2h2rcd13ifvqdh0","pricing_plan_id":"cebpf4jnsgd1na2vs0mg"},{"bike_id":"e514c5f2-33b1-4fc3-aeb9-95dd5c7fa604","system_id":"levelo_inurba_marseille","lat":43.29421,"lon":5.38618,"is_reserved":false,"is_disabled":false,"rental_uris":{"android":"levelo://app?vid=e514c5f2-33b1-4fc3-aeb9-95dd5c7fa604","ios":"levelo://app?vid=e514c5f2-33b1-4fc3-aeb9-95dd5c7fa604"},"vehicle_type_id":"4","last_reported":1715796567,"current_range_meters":9200,"station_id":"ce4bh2h2rcd13ifvqdh0","pricing_plan_id":"cebpf4jnsgd1na2vs0mg"},{"bike_id":"7aa1f3ac-6b14-4a2a-8559-5b279c1546ce","system_id":"levelo_inurba_marseille","lat":43.29422,"lon":5.3862,"is_reserved":false,"is_disabled":false,"rental_uris":{"android":"levelo://app?vid=7aa1f3ac-6b14-4a2a-8559-5b279c1546ce","ios":"levelo://app?vid=7aa1f3ac-6b14-4a2a-8559-5b279c1546ce"},"vehicle_type_id":"4","last_reported":1715796567,"current_range_meters":0,"station_id":"ce4bh2h2rcd13ifvqdh0","pricing_plan_id":"cebpf4jnsgd1na2vs0mg"},{"bike_id":"1757f791-211d-46d7-abb5-ecf9ff1ea376","system_id":"levelo_inurba_marseille","lat":43.29423,"lon":5.38623,"is_reserved":false,"is_disabled":false,"rental_uris":{"android":"levelo://app?vid=1757f791-211d-46d7-abb5-ecf9ff1ea376","ios":"levelo://app?vid=1757f791-211d-46d7-abb5-ecf9ff1ea376"},"vehicle_type_id":"4","last_reported":1715796567,"current_range_meters":31200,"station_id":"ce4bh2h2rcd13ifvqdh0","pricing_plan_id":"cebpf4jnsgd1na2vs0mg"},{"bike_id":"fdad24f3-a572-4f17-b021-65775344f95f","system_id":"levelo_inurba_marseille","lat":43.302008,"lon":5.394694,"is_reserved":false,"is_disabled":false,"rental_uris":{"android":"levelo://app?vid=fdad24f3-a572-4f17-b021-65775344f95f","ios":"levelo://app?vid=fdad24f3-a572-4f17-b021-65775344f95f"},"vehicle_type_id":"4","last_reported":1715796567,"current_range_meters":2000,"station_id":"ce4bh0p2rcd13ifvqd70","pricing_plan_id":"cebpf4jnsgd1na2vs0mg"},{"bike_id":"ab8e77bc-31ad-4105-a122-9b360ae5289f","system_id":"levelo_inurba_marseille","lat":43.29426,"lon":5.3863,"is_reserved":false,"is_disabled":false,"rental_uris":{"android":"levelo://app?vid=ab8e77bc-31ad-4105-a122-9b360ae5289f","ios":"levelo://app?vid=ab8e77bc-31ad-4105-a122-9b360ae5289f"},"vehicle_type_id":"4","last_reported":1715796567,"current_range_meters":27600,"station_id":"ce4bh2h2rcd13ifvqdh0","pricing_plan_id":"cebpf4jnsgd1na2vs0mg"},{"bike_id":"d13e2627-adba-46d5-82e8-224ffb41fb7b","system_id":"levelo_inurba_marseille","lat":43.29421,"lon":5.38621,"is_reserved":false,"is_disabled":false,"rental_uris":{"android":"levelo://app?vid=d13e2627-adba-46d5-82e8-224ffb41fb7b","ios":"levelo://app?vid=d13e2627-adba-46d5-82e8-224ffb41fb7b"},"vehicle_type_id":"4","last_reported":1715796567,"current_range_meters":31200,"station_id":"ce4bh2h2rcd13ifvqdh0","pricing_plan_id":"cebpf4jnsgd1na2vs0mg"},{"bike_id":"02e82d96-c4bc-49cd-b9f2-f5e7c2640af1","system_id":"levelo_inurba_marseille","lat":43.294162,"lon":5.386292,"is_reserved":false,"is_disabled":false,"rental_uris":{"android":"levelo://app?vid=02e82d96-c4bc-49cd-b9f2-f5e7c2640af1","ios":"levelo://app?vid=02e82d96-c4bc-49cd-b9f2-f5e7c2640af1"},"vehicle_type_id":"4","last_reported":1715796567,"current_range_meters":29200,"station_id":"ce4bh2h2rcd13ifvqdh0","pricing_plan_id":"cebpf4jnsgd1na2vs0mg"},{"bike_id":"7145a5f1-d3d6-463b-bbc3-e8f929b90ce2","system_id":"levelo_inurba_marseille","lat":43.2942,"lon":5.38623,"is_reserved":false,"is_disabled":false,"rental_uris":{"android":"levelo://app?vid=7145a5f1-d3d6-463b-bbc3-e8f929b90ce2","ios":"levelo://app?vid=7145a5f1-d3d6-463b-bbc3-e8f929b90ce2"},"vehicle_type_id":"4","last_reported":1715796567,"current_range_meters":29200,"station_id":"ce4bh2h2rcd13ifvqdh0","pricing_plan_id":"cebpf4jnsgd1na2vs0mg"},{"bike_id":"bbdc0da5-34a1-47c7-80c6-7fcad456e926","system_id":"levelo_inurba_marseille","lat":43.289184,"lon":5.366408,"is_reserved":false,"is_disabled":false,"rental_uris":{"android":"levelo://app?vid=bbdc0da5-34a1-47c7-80c6-7fcad456e926","ios":"levelo://app?vid=bbdc0da5-34a1-47c7-80c6-7fcad456e926"},"vehicle_type_id":"4","last_reported":1715796567,"current_range_meters":3200,"station_id":"ce4bhap2rcd13ifvqek0","pricing_plan_id":"cebpf4jnsgd1na2vs0mg"},{"bike_id":"4d5d02f7-cfd8-46a5-a4f0-d103cff1c115","system_id":"levelo_inurba_marseille","lat":43.29415,"lon":5.38617,"is_reserved":false,"is_disabled":false,"rental_uris":{"android":"levelo://app?vid=4d5d02f7-cfd8-46a5-a4f0-d103cff1c115","ios":"levelo://app?vid=4d5d02f7-cfd8-46a5-a4f0-d103cff1c115"},"vehicle_type_id":"4","last_reported":1715796567,"current_range_meters":18000,"station_id":"ce4bh2h2rcd13ifvqdh0","pricing_plan_id":"cebpf4jnsgd1na2vs0mg"},{"bike_id":"ea30f83e-8081-4790-9f2c-af27b06446bf","system_id":"levelo_inurba_marseille","lat":43.29421,"lon":5.38629,"is_reserved":false,"is_disabled":false,"rental_uris":{"android":"levelo://app?vid=ea30f83e-8081-4790-9f2c-af27b06446bf","ios":"levelo://app?vid=ea30f83e-8081-4790-9f2c-af27b06446bf"},"vehicle_type_id":"4","last_reported":1715796567,"current_range_meters":24000,"station_id":"ce4bh2h2rcd13ifvqdh0","pricing_plan_id":"cebpf4jnsgd1na2vs0mg"},{"bike_id":"a4c9f2e7-1821-4ea0-89da-e66d8c83e134","system_id":"levelo_inurba_marseille","lat":43.294198,"lon":5.38627,"is_reserved":false,"is_disabled":false,"rental_uris":{"android":"levelo://app?vid=a4c9f2e7-1821-4ea0-89da-e66d8c83e134","ios":"levelo://app?vid=a4c9f2e7-1821-4ea0-89da-e66d8c83e134"},"vehicle_type_id":"4","last_reported":1715796567,"current_range_meters":23200,"station_id":"ce4bh2h2rcd13ifvqdh0","pricing_plan_id":"cebpf4jnsgd1na2vs0mg"},{"bike_id":"f74bda9b-b6d6-4d77-8cc8-d844b3f28773","system_id":"levelo_inurba_marseille","lat":43.2942,"lon":5.38628,"is_reserved":false,"is_disabled":false,"rental_uris":{"android":"levelo://app?vid=f74bda9b-b6d6-4d77-8cc8-d844b3f28773","ios":"levelo://app?vid=f74bda9b-b6d6-4d77-8cc8-d844b3f28773"},"vehicle_type_id":"4","last_reported":1715796567,"current_range_meters":27600,"station_id":"ce4bh2h2rcd13ifvqdh0","pricing_plan_id":"cebpf4jnsgd1na2vs0mg"},{"bike_id":"9568c616-f857-4cad-be1d-5c758b29c7b6","system_id":"levelo_inurba_marseille","lat":43.29422,"lon":5.38632,"is_reserved":false,"is_disabled":false,"rental_uris":{"android":"levelo://app?vid=9568c616-f857-4cad-be1d-5c758b29c7b6","ios":"levelo://app?vid=9568c616-f857-4cad-be1d-5c758b29c7b6"},"vehicle_type_id":"4","last_reported":1715796567,"current_range_meters":31200,"station_id":"ce4bh2h2rcd13ifvqdh0","pricing_plan_id":"cebpf4jnsgd1na2vs0mg"},{"bike_id":"3e0e8f6e-62d2-4a00-aa9b-688f3475ea7c","system_id":"levelo_inurba_marseille","lat":43.289468,"lon":5.363719,"is_reserved":false,"is_disabled":false,"rental_uris":{"android":"levelo://app?vid=3e0e8f6e-62d2-4a00-aa9b-688f3475ea7c","ios":"levelo://app?vid=3e0e8f6e-62d2-4a00-aa9b-688f3475ea7c"},"vehicle_type_id":"4","last_reported":1715796567,"current_range_meters":2400,"station_id":"ce4bhc92rcd13ifvqetg","pricing_plan_id":"cebpf4jnsgd1na2vs0mg"},{"bike_id":"c76923f0-6b5a-4b71-b386-7abfd36e7d40","system_id":"levelo_inurba_marseille","lat":43.289468,"lon":5.363719,"is_reserved":false,"is_disabled":false,"rental_uris":{"android":"levelo://app?vid=c76923f0-6b5a-4b71-b386-7abfd36e7d40","ios":"levelo://app?vid=c76923f0-6b5a-4b71-b386-7abfd36e7d40"},"vehicle_type_id":"4","last_reported":1715796567,"current_range_meters":27600,"station_id":"ce4bhc92rcd13ifvqetg","pricing_plan_id":"cebpf4jnsgd1na2vs0mg"},{"bike_id":"ae0ac2fa-e00e-498b-99db-bde936076bf3","system_id":"levelo_inurba_marseille","lat":43.294239,"lon":5.386363,"is_reserved":false,"is_disabled":false,"rental_uris":{"android":"levelo://app?vid=ae0ac2fa-e00e-498b-99db-bde936076bf3","ios":"levelo://app?vid=ae0ac2fa-e00e-498b-99db-bde936076bf3"},