{"last_updated":1740157698,"ttl":60,"version":"2.2","data":{"bikes":[{"bike_id":"78db1b6c-cfb0-4adb-a8a6-a4c8afa87d2e","system_id":"levelo_inurba_marseille","lat":43.33025,"lon":5.39043,"is_reserved":false,"is_disabled":false,"rental_uris":{"android":"levelo://app?vid=78db1b6c-cfb0-4adb-a8a6-a4c8afa87d2e","ios":"levelo://app?vid=78db1b6c-cfb0-4adb-a8a6-a4c8afa87d2e"},"vehicle_type_id":"4","last_reported":1740157699,"current_range_meters":2800,"station_id":"ce4bhr92rcd13ifvqhrg","pricing_plan_id":"cebpf4jnsgd1na2vs0mg"},{"bike_id":"4b57187e-2569-4a17-84f5-8486548aaefb","system_id":"levelo_inurba_marseille","lat":43.31282,"lon":5.40181,"is_reserved":false,"is_disabled":false,"rental_uris":{"android":"levelo://app?vid=4b57187e-2569-4a17-84f5-8486548aaefb","ios":"levelo://app?vid=4b57187e-2569-4a17-84f5-8486548aaefb"},"vehicle_type_id":"4","last_reported":1740157699,"current_range_meters":2800,"station_id":"ce4bh092rcd13ifvqd30","pricing_plan_id":"cebpf4jnsgd1na2vs0mg"},{"bike_id":"1cb03cca-f4bf-4bff-a8f7-0027fcabcc19","system_id":"levelo_inurba_marseille","lat":43.2794,"lon":5.41052,"is_reserved":false,"is_disabled":false,"rental_uris":{"android":"levelo://app?vid=1cb03cca-f4bf-4bff-a8f7-0027fcabcc19","ios":"levelo://app?vid=1cb03cca-f4bf-4bff-a8f7-0027fcabcc19"},"vehicle_type_id":"4","last_reported":1740157699,"current_range_meters":2800,"station_id":"ce4bhnp2rcd13ifvqh0g","pricing_plan_id":"cebpf4jnsgd1na2vs0mg"},{"bike_id":"d47d4ae8-1e60-4e9b-a1a5-a9b1b66e4dba","system_id":"levelo_inurba_marseille","lat":43.29421,"lon":5.38612,"is_reserved":false,"is_disabled":true,"rental_uris":{"android":"levelo://app?vid=d47d4ae8-1e60-4e9b-a1a5-a9b1b66e4dba","ios":"levelo://app?vid=d47d4ae8-1e60-4e9b-a1a5-a9b1b66e4dba"},"vehicle_type_id":"4","last_reported":1740157699,"current_range_meters":3200,"station_id":"ce4bh2h2rcd13ifvqdh0","pricing_plan_id":"cebpf4jnsgd1na2vs0mg"},{"bike_id":"869fc4e9-e959-436d-9d8d-935013c9e624","system_id":"levelo_inurba_marseille","lat":43.23963,"lon":5.36625,"is_reserved":false,"is_disabled":false,"rental_uris":{"android":"levelo://app?vid=869fc4e9-e959-436d-9d8d-935013c9e624","ios":"levelo://app?vid=869fc4e9-e959-436d-9d8d-935013c9e624"},"vehicle_type_id":"4","last_reported":1740157699,"current_range_meters":3200,"station_id":"ce4bhi12rcd13ifvqfp0","pricing_plan_id":"cebpf4jnsgd1na2vs0mg"},{"bike_id":"ad574030-9a0b-4fcb-8b18-0bb889de2127","system_id":"levelo_inurba_marseille","lat":43.29962,"lon":5.38501,"is_reserved":false,"is_disabled":false,"rental_uris":{"android":"levelo://app?vid=ad574030-9a0b-4fcb-8b18-0bb889de2127","ios":"levelo://app?vid=ad574030-9a0b-4fcb-8b18-0bb889de2127"},"vehicle_type_id":"4","last_reported":1740157699,"current_range_meters":3200,"station_id":"ce4bgj92rcd13ifvqbd0","pricing_plan_id":"cebpf4jnsgd1na2vs0mg"},{"bike_id":"fd0e1041-d211-4549-ba6f-50670e3773c5","system_id":"levelo_inurba_marseille","lat":43.2509,"lon":5.39503,"is_reserved":false,"is_disabled":false,"rental_uris":{"android":"levelo://app?vid=fd0e1041-d211-4549-ba6f-50670e3773c5","ios":"levelo://app?vid=fd0e1041-d211-4549-ba6f-50670e3773c5"},"vehicle_type_id":"4","last_reported":1740157699,"current_range_meters":3600,"station_id":"ce4bhm12rcd13ifvqgkg","pricing_plan_id":"cebpf4jnsgd1na2vs0mg"},{"bike_id":"e819e380-d388-4098-bd0a-a5c72a87b330","system_id":"levelo_inurba_marseille","lat":43.25868,"lon":5.39897,"is_reserved":false,"is_disabled":false,"rental_uris":{"android":"levelo://app?vid=e819e380-d388-4098-bd0a-a5c72a87b330","ios":"levelo://app?vid=e819e380-d388-4098-bd0a-a5c72a87b330"},"vehicle_type_id":"4","last_reported":1740157699,"current_range_meters":3600,"station_id":"ce4bhl92rcd13ifvqghg","pricing_plan_id":"cebpf4jnsgd1na2vs0mg"},{"bike_id":"0fac4020-ca75-4dc1-a375-dd10f35787bc","system_id":"levelo_inurba_marseille","lat":43.26889,"lon":5.36835,"is_reserved":false,"is_disabled":false,"rental_uris":{"android":"levelo://app?vid=0fac4020-ca75-4dc1-a375-dd10f35787bc","ios":"levelo://app?vid=0fac4020-ca75-4dc1-a375-dd10f35787bc"},"vehicle_type_id":"4","last_reported":1740157699,"current_range_meters":3600,"station_id":"ce4bhbh2rcd13ifvqeo0","pricing_plan_id":"cebpf4jnsgd1na2vs0mg"},{"bike_id":"3e81785e-33ab-4df5-9fa5-74ec2f3e25d7","system_id":"levelo_inurba_marseille","lat":43.30927,"lon":5.4014,"is_reserved":false,"is_disabled":false,"rental_uris":{"android":"levelo://app?vid=3e81785e-33ab-4df5-9fa5-74ec2f3e25d7","ios":"levelo://app?vid=3e81785e-33ab-4df5-9fa5-74ec2f3e25d7"},"vehicle_type_id":"4","last_reported":1740157699,"current_range_meters":4000,"station_id":"ce4bgvp2rcd13ifvqct0","pricing_plan_id":"cebpf4jnsgd1na2vs0mg"},{"bike_id":"888d7000-1a64-434d-903a-856e413cbe5e","system_id":"levelo_inurba_marseille","lat":43.27938,"lon":5.41051,"is_reserved":false,"is_disabled":false,"rental_uris":{"android":"levelo://app?vid=888d7000-1a64-434d-903a-856e413cbe5e","ios":"levelo://app?vid=888d7000-1a64-434d-903a-856e413cbe5e"},"vehicle_type_id":"4","last_reported":1740157699,"current_range_meters":4400,"station_id":"ce4bhnp2rcd13ifvqh0g","pricing_plan_id":"cebpf4jnsgd1na2vs0mg"},{"bike_id":"20db8b67-5411-499b-900f-1d7b5ef1b331","system_id":"levelo_inurba_marseille","lat":43.29022,"lon":5.38143,"is_reserved":false,"is_disabled":false,"rental_uris":{"android":"levelo://app?vid=20db8b67-5411-499b-900f-1d7b5ef1b331","ios":"levelo://app?vid=20db8b67-5411-499b-900f-1d7b5ef1b331"},"vehicle_type_id":"4","last_reported":1740157699,"current_range_meters":4400,"station_id":"ce4bh4p2rcd13ifvqe1g","pricing_plan_id":"cebpf4jnsgd1na2vs0mg"},{"bike_id":"0c55054b-3fa5-4c02-a06c-3ccf8ea6f0fd","system_id":"levelo_inurba_marseille","lat":43.25001,"lon":5.38929,"is_reserved":false,"is_disabled":false,"rental_uris":{"android":"levelo://app?vid=0c55054b-3fa5-4c02-a06c-3ccf8ea6f0fd","ios":"levelo://app?vid=0c55054b-3fa5-4c02-a06c-3ccf8ea6f0fd"},"vehicle_type_id":"4","last_reported":1740157699,"current_range_meters":4400,"station_id":"ce4bhgp2rcd13ifvqfd0","pricing_plan_id":"cebpf4jnsgd1na2vs0mg"},{"bike_id":"3689c3f8-fca5-4bed-b814-29f7e7312dcd","system_id":"levelo_inurba_marseille","lat":43.24546,"lon":5.39527,"is_reserved":false,"is_disabled":false,"rental_uris":{"android":"levelo://app?vid=3689c3f8-fca5-4bed-b814-29f7e7312dcd","ios":"levelo://app?vid=3689c3f8-fca5-4bed-b814-29f7e7312dcd"},"vehicle_type_id":"4","last_reported":1740157699,"current_range_meters":4800,"station_id":"ce4bhlp2rcd13ifvqgjg","pricing_plan_id":"cebpf4jnsgd1na2vs0mg"},{"bike_id":"4a5a9794-dacd-4c04-85fb-86a46173caa9","system_id":"levelo_inurba_marseille","lat":43.25074,"lon":5.39519,"is_reserved":false,"is_disabled":false,"rental_uris":{"android":"levelo://app?vid=4a5a9794-dacd-4c04-85fb-86a46173caa9","ios":"levelo://app?vid=4a5a9794-dacd-4c04-85fb-86a46173caa9"},"vehicle_type_id":"4","last_reported":1740157699,"current_range_meters":4800,"station_id":"ce4bhm12rcd13ifvqgkg","pricing_plan_id":"cebpf4jnsgd1na2vs0mg"},{"bike_id":"843c8993-eb89-48c0-bc46-978aec656ac8","system_id":"levelo_inurba_marseille","lat":43.27932,"lon":5.40858,"is_reserved":false,"is_disabled":false,"rental_uris":{"android":"levelo://app?vid=843c8993-eb89-48c0-bc46-978aec656ac8","ios":"levelo://app?vid=843c8993-eb89-48c0-bc46-978aec656ac8"},"vehicle_type_id":"4","last_reported":1740157699,"current_range_meters":4800,"station_id":"","pricing_plan_id":"cebpf4jnsgd1na2vs0mg"},{"bike_id":"03edd3dc-a746-4f71-8f34-9a6ae6b8d503","system_id":"levelo_inurba_marseille","lat":43.276162,"lon":5.360988,"is_reserved":false,"is_disabled":false,"rental_uris":{"android":"levelo://app?vid=03edd3dc-a746-4f71-8f34-9a6ae6b8d503","ios":"levelo://app?vid=03edd3dc-a746-4f71-8f34-9a6ae6b8d503"},"vehicle_type_id":"4","last_reported":1740157699,"current_range_meters":5600,"station_id":"ce4bgj92rcd13ifvqbe0","pricing_plan_id":"cebpf4jnsgd1na2vs0mg"},{"bike_id":"ac548fcf-7683-4a63-94bd-c0fb76b286e9","system_id":"levelo_inurba_marseille","lat":43.29295,"lon":5.37466,"is_reserved":false,"is_disabled":false,"rental_uris":{"android":"levelo://app?vid=ac548fcf-7683-4a63-94bd-c0fb76b286e9","ios":"levelo://app?vid=ac548fcf-7683-4a63-94bd-c0fb76b286e9"},"vehicle_type_id":"4","last_reported":1740157699,"current_range_meters":5600,"station_id":"ce4bgi12rcd13ifvqb70","pricing_plan_id":"cebpf4jnsgd1na2vs0mg"},{"bike_id":"0610e84a-9465-47af-94c9-91cec3ee167e","system_id":"levelo_inurba_marseille","lat":43.29256,"lon":5.40914,"is_reserved":false,"is_disabled":false,"rental_uris":{"android":"levelo://app?vid=0610e84a-9465-47af-94c9-91cec3ee167e","ios":"levelo://app?vid=0610e84a-9465-47af-94c9-91cec3ee167e"},"vehicle_type_id":"4","last_reported":1740157699,"current_range_meters":5600,"station_id":"ce4bh192rcd13ifvqdc0","pricing_plan_id":"cebpf4jnsgd1na2vs0mg"},{"bike_id":"9841cc58-f46c-4706-ab38-06d12b90a3a5","system_id":"levelo_inurba_marseille","lat":43.30146,"lon":5.38773,"is_reserved":false,"is_disabled":false,"rental_uris":{"android":"levelo://app?vid=9841cc58-f46c-4706-ab38-06d12b90a3a5","ios":"levelo://app?vid=9841cc58-f46c-4706-ab38-06d12b90a3a5"},"vehicle_type_id":"4","last_reported":1740157699,"current_range_meters":5600,"station_id":"ce4bghh2rcd13ifvqb60","pricing_plan_id":"cebpf4jnsgd1na2vs0mg"},{"bike_id":"73111116-9338-4882-a2d8-6a7d323c4bef","system_id":"levelo_inurba_marseille","lat":43.29271,"lon":5.36847,"is_reserved":false,"is_disabled":false,"rental_uris":{"android":"levelo://app?vid=73111116-9338-4882-a2d8-6a7d323c4bef","ios":"levelo://app?vid=73111116-9338-4882-a2d8-6a7d323c4bef"},"vehicle_type_id":"4","last_reported":1740157699,"current_range_meters":6000,"station_id":"ce4bhbp2rcd13ifvqesg","pricing_plan_id":"cebpf4jnsgd1na2vs0mg"},{"bike_id":"77ff63e8-b5ae-48d0-8725-3fc2e7c2e786","system_id":"levelo_inurba_marseille","lat":43.32106,"lon":5.36782,"is_reserved":false,"is_disabled":false,"rental_uris":{"android":"levelo://app?vid=77ff63e8-b5ae-48d0-8725-3fc2e7c2e786","ios":"levelo://app?vid=77ff63e8-b5ae-48d0-8725-3fc2e7c2e786"},"vehicle_type_id":"4","last_reported":1740157699,"current_range_meters":6000,"station_id":"ce4bhrh2rcd13ifvqhug","pricing_plan_id":"cebpf4jnsgd1na2vs0mg"},{"bike_id":"b3b1980f-211a-4fb5-a55f-ed977793ebb3","system_id":"levelo_inurba_marseille","lat":43.2953,"lon":5.38544,"is_reserved":false,"is_disabled":false,"rental_uris":{"android":"levelo://app?vid=b3b1980f-211a-4fb5-a55f-ed977793ebb3","ios":"levelo://app?vid=b3b1980f-211a-4fb5-a55f-ed977793ebb3"},"vehicle_type_id":"4","last_reported":1740157699,"current_range_meters":6000,"station_id":"ce4bgih2rcd13ifvqba0","pricing_plan_id":"cebpf4jnsgd1na2vs0mg"},{"bike_id":"5c2f5a46-de22-420a-8fe6-e969ed8ba850","system_id":"levelo_inurba_marseille","lat":43.290028,"lon":5.356114,"is_reserved":false,"is_disabled":false,"rental_uris":{"android":"levelo://app?vid=5c2f5a46-de22-420a-8fe6-e969ed8ba850","ios":"levelo://app?vid=5c2f5a46-de22-420a-8fe6-e969ed8ba850"},"vehicle_type_id":"4","last_reported":1740157699,"current_range_meters":6000,"station_id":"ce4bhb92rcd13ifvqen0","pricing_plan_id":"cebpf4jnsgd1na2vs0mg"},{"bike_id":"752ba179-1159-4c40-a148-10028f656ff2","system_id":"levelo_inurba_marseille","lat":43.28467,"lon":5.35901,"is_reserved":false,"is_disabled":false,"rental_uris":{"android":"levelo://app?vid=752ba179-1159-4c40-a148-10028f656ff2","ios":"levelo://app?vid=752ba179-1159-4c40-a148-10028f656ff2"},"vehicle_type_id":"4","last_reported":1740157699,"current_range_meters":6000,"station_id":"ce4bhah2rcd13ifvqei0","pricing_plan_id":"cebpf4jnsgd1na2vs0mg"},{"bike_id":"78238bc3-8490-43ca-983e-4a987aa8f57b","system_id":"levelo_inurba_marseille","lat":43.24677,"lon":5.38141,"is_reserved":false,"is_disabled":false,"rental_uris":{"android":"levelo://app?vid=78238bc3-8490-43ca-983e-4a987aa8f57b","ios":"levelo://app?vid=78238bc3-8490-43ca-983e-4a987aa8f57b"},"vehicle_type_id":"4","last_reported":1740157699,"current_range_meters":6000,"station_id":"ce4bhih2rcd13ifvqfr0","pricing_plan_id":"cebpf4jnsgd1na2vs0mg"},{"bike_id":"b4526394-9af9-490e-a5a5-64461b4de06d","system_id":"levelo_inurba_marseille","lat":43.30302,"lon":5.39203,"is_reserved":false,"is_disabled":false,"rental_uris":{"android":"levelo://app?vid=b4526394-9af9-490e-a5a5-64461b4de06d","ios":"levelo://app?vid=b4526394-9af9-490e-a5a5-64461b4de06d"},"vehicle_type_id":"4","last_reported":1740157699,"current_range_meters":6400,"station_id":"ce4bgkh2rcd13ifvqbk0","pricing_plan_id":"cebpf4jnsgd1na2vs0mg"},{"bike_id":"d4fca504-dbbc-496e-b2bb-268afc677883","system_id":"levelo_inurba_marseille","lat":43.27491,"lon":5.42465,"is_reserved":false,"is_disabled":false,"rental_uris":{"android":"levelo://app?vid=d4fca504-dbbc-496e-b2bb-268afc677883","ios":"levelo://app?vid=d4fca504-dbbc-496e-b2bb-268afc677883"},"vehicle_type_id":"4","last_reported":1740157699,"current_range_meters":6400,"station_id":"ce4bhn92rcd13ifvqgrg","pricing_plan_id":"cebpf4jnsgd1na2vs0mg"},{"bike_id":"83e8d9cc-9bda-4afc-8983-cbfef0193c6e","system_id":"levelo_inurba_marseille","lat":43.295441,"lon":5.386461,"is_reserved":false,"is_disabled":false,"rental_uris":{"android":"levelo://app?vid=83e8d9cc-9bda-4afc-8983-cbfef0193c6e","ios":"levelo://app?vid=83e8d9cc-9bda-4afc-8983-cbfef0193c6e"},"vehicle_type_id":"4","last_reported":1740157699,"current_range_meters":6400,"station_id":"ce4bh192rcd13ifvqdc0","pricing_plan_id":"cebpf4jnsgd1na2vs0mg"},{"bike_id":"3c70252b-115f-47bd-ae1e-959b3f57e0de","system_id":"levelo_inurba_marseille","lat":43.29964,"lon":5.38499,"is_reserved":false,"is_disabled":false,"rental_uris":{"android":"levelo://app?vid=3c70252b-115f-47bd-ae1e-959b3f57e0de","ios":"levelo://app?vid=3c70252b-115f-47bd-ae1e-959b3f57e0de"},"vehicle_type_id":"4","last_reported":1740157699,"current_range_meters":6400,"station_id":"ce4bgj92rcd13ifvqbd0","pricing_plan_id":"cebpf4jnsgd1na2vs0mg"},{"bike_id":"302fb557-ff84-466a-a547-06ead61e290e","system_id":"levelo_inurba_marseille","lat":43.29259,"lon":5.38425,"is_reserved":false,"is_disabled":false,"rental_uris":{"android":"levelo://app?vid=302fb557-ff84-466a-a547-06ead61e290e","ios":"levelo://app?vid=302fb557-ff84-466a-a547-06ead61e290e"},"vehicle_type_id":"4","last_reported":1740157699,"current_range_meters":6400,"station_id":"ce4bh692rcd13ifvqea0","pricing_plan_id":"cebpf4jnsgd1na2vs0mg"},{"bike_id":"c662856d-04aa-4c44-9c65-ad55270c4c36","system_id":"levelo_inurba_marseille","lat":43.31059,"lon":5.3835,"is_reserved":false,"is_disabled":false,"rental_uris":{"android":"levelo://app?vid=c662856d-04aa-4c44-9c65-ad55270c4c36","ios":"levelo://app?vid=c662856d-04aa-4c44-9c65-ad55270c4c36"},"vehicle_type_id":"4","last_reported":1740157699,"current_range_meters":6800,"station_id":"ce4bgv92rcd13ifvqcr0","pricing_plan_id":"cebpf4jnsgd1na2vs0mg"},{"bike_id":"7b122c5e-ecc5-460f-b054-c3369f548643","system_id":"levelo_inurba_marseille","lat":43.303309,"lon":5.404305,"is_reserved":false,"is_disabled":false,"rental_uris":{"android":"levelo://app?vid=7b122c5e-ecc5-460f-b054-c3369f548643","ios":"levelo://app?vid=7b122c5e-ecc5-460f-b054-c3369f548643"},"vehicle_type_id":"4","last_reported":1740157699,"current_range_meters":6800,"station_id":"ce4bgqh2rcd13ifvqc4g","pricing_plan_id":"cebpf4jnsgd1na2vs0mg"},{"bike_id":"ec66cf70-1922-4d96-9897-51d3e4334121","system_id":"levelo_inurba_marseille","lat":43.29929,"lon":5.37157,"is_reserved":false,"is_disabled":false,"rental_uris":{"android":"levelo://app?vid=ec66cf70-1922-4d96-9897-51d3e4334121","ios":"levelo://app?vid=ec66cf70-1922-4d96-9897-51d3e4334121"},"vehicle_type_id":"4","last_reported":1740157699,"current_range_meters":7200,"station_id":"","pricing_plan_id":"cebpf4jnsgd1na2vs0mg"},{"bike_id":"efaa9647-be2f-472b-991d-68b3d077ace1","system_id":"levelo_inurba_marseille","lat":43.33753,"lon":5.39153,"is_reserved":false,"is_disabled":false,"rental_uris":{"android":"levelo://app?vid=efaa9647-be2f-472b-991d-68b3d077ace1","ios":"levelo://app?vid=efaa9647-be2f-472b-991d-68b3d077ace1"},"vehicle_type_id":"4","last_reported":1740157699,"current_range_meters":7200,"station_id":"ce4bhr92rcd13ifvqhsg","pricing_plan_id":"cebpf4jnsgd1na2vs0mg"},{"bike_id":"948ca15e-dd0e-4b24-9dae-3803d237a65d","system_id":"levelo_inurba_marseille","lat":43.23951,"lon":5.36648,"is_reserved":false,"is_disabled":false,"rental_uris":{"android":"levelo://app?vid=948ca15e-dd0e-4b24-9dae-3803d237a65d","ios":"levelo://app?vid=948ca15e-dd0e-4b24-9dae-3803d237a65d"},"vehicle_type_id":"4","last_reported":1740157699,"current_range_meters":7200,"station_id":"ce4bhi12rcd13ifvqfp0","pricing_plan_id":"cebpf4jnsgd1na2vs0mg"},{"bike_id":"87590419-9431-46cd-a562-7648976d855a","system_id":"levelo_inurba_marseille","lat":43.2791,"lon":5.41206,"is_reserved":false,"is_disabled":false,"rental_uris":{"android":"levelo://app?vid=87590419-9431-46cd-a562-7648976d855a","ios":"levelo://app?vid=87590419-9431-46cd-a562-7648976d855a"},"vehicle_type_id":"4","last_reported":1740157699,"current_range_meters":7200,"station_id":"","pricing_plan_id":"cebpf4jnsgd1na2vs0mg"},{"bike_id":"7a227780-efa1-4341-8263-6444da5d6812","system_id":"levelo_inurba_marseille","lat":43.27923,"lon":5.39552,"is_reserved":false,"is_disabled":false,"rental_uris":{"android":"levelo://app?vid=7a227780-efa1-4341-8263-6444da5d6812","ios":"levelo://app?vid=7a227780-efa1-4341-8263-6444da5d6812"},"vehicle_type_id":"4","last_reported":1740157699,"current_range_meters":7200,"station_id":"ce4bhf92rcd13ifvqf40","pricing_plan_id":"cebpf4jnsgd1na2vs0mg"},{"bike_id":"9f655aa2-1d5b-4195-bc76-fc0fff48059e","system_id":"levelo_inurba_marseille","lat":43.29868,"lon":5.39743,"is_reserved":false,"is_disabled":false,"rental_uris":{"android":"levelo://app?vid=9f655aa2-1d5b-4195-bc76-fc0fff48059e","ios":"levelo://app?vid=9f655aa2-1d5b-4195-bc76-fc0fff48059e"},"vehicle_type_id":"4","last_reported":1740157699,"current_range_meters":7200,"station_id":"ce4bh0h2rcd13ifvqd50","pricing_plan_id":"cebpf4jnsgd1na2vs0mg"},{"bike_id":"fd8df2d3-9960-492b-a89a-f3456c509a96","system_id":"levelo_inurba_marseille","lat":43.26929,"lon":5.38922,"is_reserved":false,"is_disabled":false,"rental_uris":{"android":"levelo://app?vid=fd8df2d3-9960-492b-a89a-f3456c509a96","ios":"levelo://app?vid=fd8df2d3-9960-492b-a89a-f3456c509a96"},"vehicle_type_id":"4","last_reported":1740157699,"current_range_meters":7200,"station_id":"ce4bhhh2rcd13ifvqfl0","pricing_plan_id":"cebpf4jnsgd1na2vs0mg"},{"bike_id":"195fb267-bf4a-4c03-8ec9-aebd73fa953c","system_id":"levelo_inurba_marseille","lat":43.27941,"lon":5.4105,"is_reserved":false,"is_disabled":false,"rental_uris":{"android":"levelo://app?vid=195fb267-bf4a-4c03-8ec9-aebd73fa953c","ios":"levelo://app?vid=195fb267-bf4a-4c03-8ec9-aebd73fa953c"},"vehicle_type_id":"4","last_reported":1740157699,"current_range_meters":7200,"station_id":"ce4bhnp2rcd13ifvqh0g","pricing_plan_id":"cebpf4jnsgd1na2vs0mg"},{"bike_id":"6b6e1059-5264-45b9-9cb9-d24cf5205f2a","system_id":"levelo_inurba_marseille","lat":43.23971,"lon":5.36647,"is_reserved":false,"is_disabled":true,"rental_uris":{"android":"levelo://app?vid=6b6e1059-5264-45b9-9cb9-d24cf5205f2a","ios":"levelo://app?vid=6b6e1059-5264-45b9-9cb9-d24cf5205f2a"},"vehicle_type_id":"4","last_reported":1740157699,"current_range_meters":8000,"station_id":"","pricing_plan_id":"cebpf4jnsgd1na2vs0mg"},{"bike_id":"cfb05cb1-bdaf-4628-af25-de48d634065f","system_id":"levelo_inurba_marseille","lat":43.29218,"lon":5.36055,"is_reserved":false,"is_disabled":false,"rental_uris":{"android":"levelo://app?vid=cfb05cb1-bdaf-4628-af25-de48d634065f","ios":"levelo://app?vid=cfb05cb1-bdaf-4628-af25-de48d634065f"},"vehicle_type_id":"4","last_reported":1740157699,"current_range_meters":8000,"station_id":"ce4bhbh2rcd13ifvqeqg","pricing_plan_id":"cebpf4jnsgd1na2vs0mg"},{"bike_id":"4c87352b-e4ee-4aa9-b24f-9d6ccdea13e6","system_id":"levelo_inurba_marseille","lat":43.25112,"lon":5.39516,"is_reserved":false,"is_disabled":false,"rental_uris":{"android":"levelo://app?vid=4c87352b-e4ee-4aa9-b24f-9d6ccdea13e6","ios":"levelo://app?vid=4c87352b-e4ee-4aa9-b24f-9d6ccdea13e6"},"vehicle_type_id":"4","last_reported":1740157699,"current_range_meters":8000,"station_id":"ce4bhm12rcd13ifvqgkg","pricing_plan_id":"cebpf4jnsgd1na2vs0mg"},{"bike_id":"06442e68-0cd6-418d-9b37-f911eb271522","system_id":"levelo_inurba_marseille","lat":43.25497,"lon":5.37648,"is_reserved":false,"is_disabled":false,"rental_uris":{"android":"levelo://app?vid=06442e68-0cd6-418d-9b37-f911eb271522","ios":"levelo://app?vid=06442e68-0cd6-418d-9b37-f911eb271522"},"vehicle_type_id":"4","last_reported":1740157699,"current_range_meters":8000,"station_id":"ce4bhh12rcd13ifvqff0","pricing_plan_id":"cebpf4jnsgd1na2vs0mg"},{"bike_id":"fc0349de-a96b-4e9e-88b6-f49bf89d84ae","system_id":"levelo_inurba_marseille","lat":43.28006,"lon":5.39999,"is_reserved":false,"is_disabled":false,"rental_uris":{"android":"levelo://app?vid=fc0349de-a96b-4e9e-88b6-f49bf89d84ae","ios":"levelo://app?vid=fc0349de-a96b-4e9e-88b6-f49bf89d84ae"},"vehicle_type_id":"4","last_reported":1740157699,"current_range_meters":8000,"station_id":"ce4bho92rcd13ifvqh4g","pricing_plan_id":"cebpf4jnsgd1na2vs0mg"},{"bike_id":"eced6613-a35d-442d-b640-adad8be34d7b","system_id":"levelo_inurba_marseille","lat":43.28108,"lon":5.37838,"is_reserved":false,"is_disabled":false,"rental_uris":{"android":"levelo://app?vid=eced6613-a35d-442d-b640-adad8be34d7b","ios":"levelo://app?vid=eced6613-a35d-442d-b640-adad8be34d7b"},"vehicle_type_id":"4","last_reported":1740157699,"current_range_meters":8000,"station_id":"ce4bha12rcd13ifvqee0","pricing_plan_id":"cebpf4jnsgd1na2vs0mg"},{"bike_id":"a69ca488-ea12-4013-9676-4ca1440cd477","system_id":"levelo_inurba_marseille","lat":43.3015,"lon":5.38094,"is_reserved":false,"is_disabled":false,"rental_uris":{"android":"levelo://app?vid=a69ca488-ea12-4013-9676-4ca1440cd477","ios":"levelo://app?vid=a69ca488-ea12-4013-9676-4ca1440cd477"},"vehicle_type_id":"4","last_reported":1740157699,"current_range_meters":8400,"station_id":"ce4bgjp2rcd13ifvqbh0","pricing_plan_id":"cebpf4jnsgd1na2vs0mg"},{"bike_id":"9fbf478e-59a5-411e-a379-f517842dee7d","system_id":"levelo_inurba_marseille","lat":43.3109,"lon":5.38345,"is_reserved":false,"is_disabled":false,"rental_uris":{"android":"levelo://app?vid=9fbf478e-59a5-411e-a379-f517842dee7d","ios":"levelo://app?vid=9fbf478e-59a5-411e-a379-f517842dee7d"},"vehicle_type_id":"4","last_reported":1740157699,"current_range_meters":8400,"station_id":"ce4bgv92rcd13ifvqcr0","pricing_plan_id":"cebpf4jnsgd1na2vs0mg"},{"bike_id":"5f51c95d-2056-405b-84c3-ec0f06069b58","system_id":"levelo_inurba_marseille","lat":43.29005,"lon":5.35613,"is_reserved":false,"is_disabled":false,"rental_uris":{"android":"levelo://app?vid=5f51c95d-2056-405b-84c3-ec0f06069b58","ios":"levelo://app?vid=5f51c95d-2056-405b-84c3-ec0f06069b58"},"vehicle_type_id":"4","last_reported":1740157699,"current_range_meters":8400,"station_id":"ce4bhb92rcd13ifvqen0","pricing_plan_id":"cebpf4jnsgd1na2vs0mg"},{"bike_id":"6e6b5009-ceb8-44d6-8e37-d9b55110dfb5","system_id":"levelo_inurba_marseille","lat":43.23174,"lon":5.39984,"is_reserved":false,"is_disabled":false,"rental_uris":{"android":"levelo://app?vid=6e6b5009-ceb8-44d6-8e37-d9b55110dfb5","ios":"levelo://app?vid=6e6b5009-ceb8-44d6-8e37-d9b55110dfb5"},"vehicle_type_id":"4","last_reported":1740157699,"current_range_meters":8400,"station_id":"ce4bhn12rcd13ifvqgqg","pricing_plan_id":"cebpf4jnsgd1na2vs0mg"},{"bike_id":"8737301a-71ac-4074-83bf-5d554e6dd2f9","system_id":"levelo_inurba_marseille","lat":43.29524,"lon":5.38549,"is_reserved":false,"is_disabled":false,"rental_uris":{"android":"levelo://app?vid=8737301a-71ac-4074-83bf-5d554e6dd2f9","ios":"levelo://app?vid=8737301a-71ac-4074-83bf-5d554e6dd2f9"},"vehicle_type_id":"4","last_reported":1740157699,"current_range_meters":8400,"station_id":"ce4bgih2rcd13ifvqba0","pricing_plan_id":"cebpf4jnsgd1na2vs0mg"},{"bike_id":"f75ece54-414d-4d3e-9198-c4a6ae7eb90d","system_id":"levelo_inurba_marseille","lat":43.25014,"lon":5.38918,"is_reserved":false,"is_disabled":false,"rental_uris":{"android":"levelo://app?vid=f75ece54-414d-4d3e-9198-c4a6ae7eb90d","ios":"levelo://app?vid=f75ece54-414d-4d3e-9198-c4a6ae7eb90d"},"vehicle_type_id":"4","last_reported":1740157699,"current_range_meters":8800,"station_id":"ce4bhgp2rcd13ifvqfd0","pricing_plan_id":"cebpf4jnsgd1na2vs0mg"},{"bike_id":"92c7f5f7-88b1-4eaa-bb44-cd21b5938071","system_id":"levelo_inurba_marseille","lat":43.29535,"lon":5.39038,"is_reserved":false,"is_disabled":false,"rental_uris":{"android":"levelo://app?vid=92c7f5f7-88b1-4eaa-bb44-cd21b5938071","ios":"levelo://app?vid=92c7f5f7-88b1-4eaa-bb44-cd21b5938071"},"vehicle_type_id":"4","last_reported":1740157699,"current_range_meters":8800,"station_id":"ce4bh3p2rcd13ifvqdp0","pricing_plan_id":"cebpf4jnsgd1na2vs0mg"},{"bike_id":"e1ce281f-fc7f-497e-ae65-483c52006ca7","system_id":"levelo_inurba_marseille","lat":43.28666,"lon":5.38655,"is_reserved":false,"is_disabled":false,"rental_uris":{"android":"levelo://app?vid=e1ce281f-fc7f-497e-ae65-483c52006ca7","ios":"levelo://app?vid=e1ce281f-fc7f-497e-ae65-483c52006ca7"},"vehicle_type_id":"4","last_reported":1740157699,"current_range_meters":8800,"station_id":"ce4bh492rcd13ifvqdug","pricing_plan_id":"cebpf4jnsgd1na2vs0mg"},{"bike_id":"2ddbff5c-e997-42a9-ab9d-3b70cc3d4ee1","system_id":"levelo_inurba_marseille","lat":43.28713,"lon":5.37391,"is_reserved":false,"is_disabled":false,"rental_uris":{"android":"levelo://app?vid=2ddbff5c-e997-42a9-ab9d-3b70cc3d4ee1","ios":"levelo://app?vid=2ddbff5c-e997-42a9-ab9d-3b70cc3d4ee1"},"vehicle_type_id":"4","last_reported":1740157699,"current_range_meters":8800,"station_id":"ce4bh3p2rcd13ifvqdq0","pricing_plan_id":"cebpf4jnsgd1na2vs0mg"},{"bike_id":"92dd5ad3-604f-4c99-b0f2-2bb2ede4154e","system_id":"levelo_inurba_marseille","lat":43.284271,"lon":5.349905,"is_reserved":false,"is_disabled":false,"rental_uris":{"android":"levelo://app?vid=92dd5ad3-604f-4c99-b0f2-2bb2ede4154e","ios":"levelo://app?vid=92dd5ad3-604f-4c99-b0f2-2bb2ede4154e"},"vehicle_type_id":"4","last_reported":1740157699,"current_range_meters":8800,"station_id":"ce4bhbh2rcd13ifvqepg","pricing_plan_id":"cebpf4jnsgd1na2vs0mg"},{"bike_id":"e080c45a-a05d-4297-8995-86678422b056","system_id":"levelo_inurba_marseille","lat":43.34415,"lon":5.38106,"is_reserved":false,"is_disabled":false,"rental_uris":{"android":"levelo://app?vid=e080c45a-a05d-4297-8995-86678422b056","ios":"levelo://app?vid=e080c45a-a05d-4297-8995-86678422b056"},"vehicle_type_id":"4","last_reported":1740157699,"current_range_meters":8800,"station_id":"","pricing_plan_id":"cebpf4jnsgd1na2vs0mg"},{"bike_id":"0c5df423-98c5-412d-96a3-26628109e7fb","system_id":"levelo_inurba_marseille","lat":43.297851,"lon":5.370983,"is_reserved":false,"is_disabled":false,"rental_uris":{"android":"levelo://app?vid=0c5df423-98c5-412d-96a3-26628109e7fb","ios":"levelo://app?vid=0c5df423-98c5-412d-96a3-26628109e7fb"},"vehicle_type_id":"4","last_reported":1740157699,"current_range_meters":9200,"station_id":"","pricing_plan_id":"cebpf4jnsgd1na2vs0mg"},{"bike_id":"e2124d37-d1a5-4d4d-8c06-fda2ba0b4397","system_id":"levelo_inurba_marseille","lat":43.29215,"lon":5.42662,"is_reserved":false,"is_disabled":false,"rental_uris":{"android":"levelo://app?vid=e2124d37-d1a5-4d4d-8c06-fda2ba0b4397","ios":"levelo://app?vid=e2124d37-d1a5-4d4d-8c06-fda2ba0b4397"},"vehicle_type_id":"4","last_reported":1740157699,"current_range_meters":9200,"station_id":"","pricing_plan_id":"cebpf4jnsgd1na2vs0mg"},{"bike_id":"b61d4a62-65af-4e68-a2da-50f49ded8e2a","system_id":"levelo_inurba_marseille","lat":43.28443,"lon":5.39209,"is_reserved":false,"is_disabled":false,"rental_uris":{"android":"levelo://app?vid=b61d4a62-65af-4e68-a2da-50f49ded8e2a","ios":"levelo://app?vid=b61d4a62-65af-4e68-a2da-50f49ded8e2a"},"vehicle_type_id":"4","last_reported":1740157699,"current_range_meters":9200,"station_id":"ce4bhoh2rcd13ifvqh5g","pricing_plan_id":"cebpf4jnsgd1na2vs0mg"},{"bike_id":"850a8da3-e5ac-437d-ad8e-56175fb47d64","system_id":"levelo_inurba_marseille","lat":43.33023,"lon":5.39043,"is_reserved":false,"is_disabled":false,"rental_uris":{"android":"levelo://app?vid=850a8da3-e5ac-437d-ad8e-56175fb47d64","ios":"levelo://app?vid=850a8da3-e5ac-437d-ad8e-56175fb47d64"},"vehicle_type_id":"4","last_reported":1740157699,"current_range_meters":9200,"station_id":"ce4bhr92rcd13ifvqhrg","pricing_plan_id":"cebpf4jnsgd1na2vs0mg"},{"bike_id":"5c1c3b63-b8e7-4bb0-9eef-e9206534f83e","system_id":"levelo_inurba_marseille","lat":43.32047,"lon":5.41541,"is_reserved":false,"is_disabled":false,"rental_uris":{"android":"levelo://app?vid=5c1c3b63-b8e7-4bb0-9eef-e9206534f83e","ios":"levelo://app?vid=5c1c3b63-b8e7-4bb0-9eef-e9206534f83e"},"vehicle_type_id":"4","last_reported":1740157699,"current_range_meters":9200,"station_id":"ce4bhq92rcd13ifvqhkg","pricing_plan_id":"cebpf4jnsgd1na2vs0mg"},{"bike_id":"a7e57524-7096-4476-8d9d-8e8806b1c3d0","system_id":"levelo_inurba_marseille","lat":43.2316,"lon":5.43688,"is_reserved":false,"is_disabled":true,"rental_uris":{"android":"levelo://app?vid=a7e57524-7096-4476-8d9d-8e8806b1c3d0","ios":"levelo://app?vid=a7e57524-7096-4476-8d9d-8e8806b1c3d0"},"vehicle_type_id":"4","last_reported":1740157699,"current_range_meters":9200,"station_id":"ce4bhmp2rcd13ifvqgog","pricing_plan_id":"cebpf4jnsgd1na2vs0mg"},{"bike_id":"849d245a-be14-47ff-9742-f234bf067745","system_id":"levelo_inurba_marseille","lat":43.29751,"lon":5.3791,"is_reserved":false,"is_disabled":false,"rental_uris":{"android":"levelo://app?vid=849d245a-be14-47ff-9742-f234bf067745","ios":"levelo://app?vid=849d245a-be14-47ff-9742-f234bf067745"},"vehicle_type_id":"4","last_reported":1740157699,"current_range_meters":9200,"station_id":"ce4bguh2rcd13ifvqckg","pricing_plan_id":"cebpf4jnsgd1na2vs0mg"},{"bike_id":"27903201-698c-4e96-a29f-8ea30a72eca6","system_id":"levelo_inurba_marseille","lat":43.29281,"lon":5.40137,"is_reserved":false,"is_disabled":false,"rental_uris":{"android":"levelo://app?vid=27903201-698c-4e96-a29f-8ea30a72eca6","ios":"levelo://app?vid=27903201-698c-4e96-a29f-8ea30a72eca6"},"vehicle_type_id":"4","last_reported":1740157699,"current_range_meters":9600,"station_id":"ce4bh312rcd13ifvqdk0","pricing_plan_id":"cebpf4jnsgd1na2vs0mg"},{"bike_id":"82341d2e-4896-40b9-a5a5-c07085db9d13","system_id":"levelo_inurba_marseille","lat":43.29037,"lon":5.39965,"is_reserved":false,"is_disabled":false,"rental_uris":{"android":"levelo://app?vid=82341d2e-4896-40b9-a5a5-c07085db9d13","ios":"levelo://app?vid=82341d2e-4896-40b9-a5a5-c07085db9d13"},"vehicle_type_id":"4","last_reported":1740157699,"current_range_meters":9600,"station_id":"ce4bh392rcd13ifvqdm0","pricing_plan_id":"cebpf4jnsgd1na2vs0mg"},{"bike_id":"9d3dc9e3-b895-4567-bcd4-8a586170f39e","system_id":"levelo_inurba_marseille","lat":43.28406,"lon":5.375,"is_reserved":false,"is_disabled":false,"rental_uris":{"android":"levelo://app?vid=9d3dc9e3-b895-4567-bcd4-8a586170f39e","ios":"levelo://app?vid=9d3dc9e3-b895-4567-bcd4-8a586170f39e"},"vehicle_type_id":"4","last_reported":1740157699,"current_range_meters":9600,"station_id":"ce4bh412rcd13ifvqds0","pricing_plan_id":"cebpf4jnsgd1na2vs0mg"},{"bike_id":"4fa8bf46-90e7-42f5-bd69-8132a897f84f","system_id":"levelo_inurba_marseille","lat":43.31436,"lon":5.39308,"is_reserved":false,"is_disabled":false,"rental_uris":{"android":"levelo://app?vid=4fa8bf46-90e7-42f5-bd69-8132a897f84f","ios":"levelo://app?vid=4fa8bf46-90e7-42f5-bd69-8132a897f84f"},"vehicle_type_id":"4","last_reported":1740157699,"current_range_meters":9600,"station_id":"","pricing_plan_id":"cebpf4jnsgd1na2vs0mg"},{"bike_id":"d0109f8e-c695-44b8-83b5-050518c2c6c9","system_id":"levelo_inurba_marseille","lat":43.23067,"lon":5.35487,"is_reserved":false,"is_disabled":false,"rental_uris":{"android":"levelo://app?vid=d0109f8e-c695-44b8-83b5-050518c2c6c9","ios":"levelo://app?vid=d0109f8e-c695-44b8-83b5-050518c2c6c9"},"vehicle_type_id":"4","last_reported":1740157699,"current_range_meters":9600,"station_id":"cpo3342slgdg3j2ifvpg","pricing_plan_id":"cebpf4jnsgd1na2vs0mg"},{"bike_id":"e2605be6-729f-4263-a772-380592b3879d","system_id":"levelo_inurba_marseille","lat":43.30461,"lon":5.380683,"is_reserved":false,"is_disabled":false,"rental_uris":{"android":"levelo://app?vid=e2605be6-729f-4263-a772-380592b3879d","ios":"levelo://app?vid=e2605be6-729f-4263-a772-380592b3879d"},"vehicle_type_id":"4","last_reported":1740157699,"current_range_meters":9600,"station_id":"","pricing_plan_id":"cebpf4jnsgd1na2vs0mg"},{"bike_id":"0e459e56-f899-450c-b397-460960e70002","system_id":"levelo_inurba_marseille","lat":43.29282,"lon":5.40124,"is_reserved":false,"is_disabled":false,"rental_uris":{"android":"levelo://app?vid=0e459e56-f899-450c-b397-460960e70002","ios":"levelo://app?vid=0e459e56-f899-450c-b397-460960e70002"},"vehicle_type_id":"4","last_reported":1740157699,"current_range_meters":10000,"station_id":"ce4bh312rcd13ifvqdk0","pricing_plan_id":"cebpf4jnsgd1na2vs0mg"},{"bike_id":"be7ddf01-7a56-479c-ac9b-cefb9a1a0bc1","system_id":"levelo_inurba_marseille","lat":43.23971,"lon":5.36626,"is_reserved":false,"is_disabled":false,"rental_uris":{"android":"levelo://app?vid=be7ddf01-7a56-479c-ac9b-cefb9a1a0bc1","ios":"levelo://app?vid=be7ddf01-7a56-479c-ac9b-cefb9a1a0bc1"},"vehicle_type_id":"4","last_reported":1740157699,"current_range_meters":10000,"station_id":"ce4bhi12rcd13ifvqfp0","pricing_plan_id":"cebpf4jnsgd1na2vs0mg"},{"bike_id":"9efbe2e6-8635-4666-9265-1ae8885c34eb","system_id":"levelo_inurba_marseille","lat":43.29177,"lon":5.35578,"is_reserved":false,"is_disabled":false,"rental_uris":{"android":"levelo://app?vid=9efbe2e6-8635-4666-9265-1ae8885c34eb","ios":"levelo://app?vid=9efbe2e6-8635-4666-9265-1ae8885c34eb"},"vehicle_type_id":"4","last_reported":1740157699,"current_range_meters":10000,"station_id":"ce4bhhh2rcd13ifvqfk0","pricing_plan_id":"cebpf4jnsgd1na2vs0mg"},{"bike_id":"08db81c5-fc6e-4441-aac9-f564bfaed863","system_id":"levelo_inurba_marseille","lat":43.324828,"lon":5.36566,"is_reserved":false,"is_disabled":false,"rental_uris":{"android":"levelo://app?vid=08db81c5-fc6e-4441-aac9-f564bfaed863","ios":"levelo://app?vid=08db81c5-fc6e-4441-aac9-f564bfaed863"},"vehicle_type_id":"4","last_reported":1740157699,"current_range_meters":10000,"station_id":"ce4bhs12rcd13ifvqhvg","pricing_plan_id":"cebpf4jnsgd1na2vs0mg"},{"bike_id":"ff72b3d6-f08b-4cec-82b6-3f5bf8bd662b","system_id":"levelo_inurba_marseille","lat":43.28152,"lon":5.42642,"is_reserved":false,"is_disabled":false,"rental_uris":{"android":"levelo://app?vid=ff72b3d6-f08b-4cec-82b6-3f5bf8bd662b","ios":"levelo://app?vid=ff72b3d6-f08b-4cec-82b6-3f5bf8bd662b"},"vehicle_type_id":"4","last_reported":1740157699,"current_range_meters":10000,"station_id":"ce4bhnh2rcd13ifvqgug","pricing_plan_id":"cebpf4jnsgd1na2vs0mg"},{"bike_id":"903e96ed-1785-4514-80d2-55412010618a","system_id":"levelo_inurba_marseille","lat":43.26558,"lon":5.39029,"is_reserved":false,"is_disabled":false,"rental_uris":{"android":"levelo://app?vid=903e96ed-1785-4514-80d2-55412010618a","ios":"levelo://app?vid=903e96ed-1785-4514-80d2-55412010618a"},"vehicle_type_id":"4","last_reported":1740157699,"current_range_meters":10000,"station_id":"ce4bhe12rcd13ifvqf30","pricing_plan_id":"cebpf4jnsgd1na2vs0mg"},{"bike_id":"aeee3baf-e855-4226-9ee5-64a660ab4e79","system_id":"levelo_inurba_marseille","lat":43.29804,"lon":5.365907,"is_reserved":false,"is_disabled":false,"rental_uris":{"android":"levelo://app?vid=aeee3baf-e855-4226-9ee5-64a660ab4e79","ios":"levelo://app?vid=aeee3baf-e855-4226-9ee5-64a660ab4e79"},"vehicle_type_id":"4","last_reported":1740157699,"current_range_meters":10000,"station_id":"ce4bgj92rcd13ifvqbd0","pricing_plan_id":"cebpf4jnsgd1na2vs0mg"},{"bike_id":"d414c500-f227-4efb-aabd-f7246cca81bc","system_id":"levelo_inurba_marseille","lat":43.23062,"lon":5.35497,"is_reserved":false,"is_disabled":false,"rental_uris":{"android":"levelo://app?vid=d414c500-f227-4efb-aabd-f7246cca81bc","ios":"levelo://app?vid=d414c500-f227-4efb-aabd-f7246cca81bc"},"vehicle_type_id":"4","last_reported":1740157699,"current_range_meters":10000,"station_id":"cpo3342slgdg3j2ifvpg","pricing_plan_id":"cebpf4jnsgd1na2vs0mg"},{"bike_id":"7f2404b1-1aa9-4756-ab45-2dfac3f26dad","system_id":"levelo_inurba_marseille","lat":43.28272,"lon":5.35065,"is_reserved":false,"is_disabled":false,"rental_uris":{"android":"levelo://app?vid=7f2404b1-1aa9-4756-ab45-2dfac3f26dad","ios":"levelo://app?vid=7f2404b1-1aa9-4756-ab45-2dfac3f26dad"},"vehicle_type_id":"4","last_reported":1740157699,"current_range_meters":10000,"station_id":"ce4bhbp2rcd13ifvqerg","pricing_plan_id":"cebpf4jnsgd1na2vs0mg"},{"bike_id":"f3feea2e-5bf7-41f6-a6d2-c494ec11d6a2","system_id":"levelo_inurba_marseille","lat":43.230658,"lon":5.354909,"is_reserved":false,"is_disabled":false,"rental_uris":{"android":"levelo://app?vid=f3feea2e-5bf7-41f6-a6d2-c494ec11d6a2","ios":"levelo://app?vid=f3feea2e-5bf7-41f6-a6d2-c494ec11d6a2"},"vehicle_type_id":"4","last_reported":1740157699,"current_range_meters":10000,"station_id":"cpo3342slgdg3j2ifvpg","pricing_plan_id":"cebpf4jnsgd1na2vs0mg"},{"bike_id":"d1d26a0b-2fa1-4943-9ac0-e32b819a310c","system_id":"levelo_inurba_marseille","lat":43.29804,"lon":5.38077,"is_reserved":false,"is_disabled":false,"rental_uris":{"android":"levelo://app?vid=d1d26a0b-2fa1-4943-9ac0-e32b819a310c","ios":"levelo://app?vid=d1d26a0b-2fa1-4943-9ac0-e32b819a310c"},"vehicle_type_id":"4","last_reported":1740157699,"current_range_meters":10800,"station_id":"ce4bgip2rcd13ifvqbb0","pricing_plan_id":"cebpf4jnsgd1na2vs0mg"},{"bike_id":"cc6a8605-4c23-40ce-b32a-8f3059eb48b2","system_id":"levelo_inurba_marseille","lat":43.27835,"lon":5.39213,"is_reserved":false,"is_disabled":false,"rental_uris":{"android":"levelo://app?vid=cc6a8605-4c23-40ce-b32a-8f3059eb48b2","ios":"levelo://app?vid=cc6a8605-4c23-40ce-b32a-8f3059eb48b2"},"vehicle_type_id":"4","last_reported":1740157699,"current_range_meters":10800,"station_id":"ce4bhjp2rcd13ifvqga0","pricing_plan_id":"cebpf4jnsgd1na2vs0mg"},{"bike_id":"dd88697f-e6b3-42e0-99cd-b489a1894f4b","system_id":"levelo_inurba_marseille","lat":43.28411,"lon":5.37522,"is_reserved":false,"is_disabled":false,"rental_uris":{"android":"levelo://app?vid=dd88697f-e6b3-42e0-99cd-b489a1894f4b","ios":"levelo://app?vid=dd88697f-e6b3-42e0-99cd-b489a1894f4b"},"vehicle_type_id":"4","last_reported":1740157699,"current_range_meters":10800,"station_id":"ce4bh412rcd13ifvqds0","pricing_plan_id":"cebpf4jnsgd1na2vs0mg"},{"bike_id":"550b1868-a3fb-4b59-989e-fcd6b49228fc","system_id":"levelo_inurba_marseille","lat":43.25499,"lon":5.37649,"is_reserved":false,"is_disabled":false,"rental_uris":{"android":"levelo://app?vid=550b1868-a3fb-4b59-989e-fcd6b49228fc","ios":"levelo://app?vid=550b1868-a3fb-4b59-989e-fcd6b49228fc"},"vehicle_type_id":"4","last_reported":1740157699,"current_range_meters":10000,"station_id":"ce4bhh12rcd13ifvqff0","pricing_plan_id":"cebpf4jnsgd1na2vs0mg"},{"bike_id":"a6b28a6b-9417-48f0-8a37-151990a5b583","system_id":"levelo_inurba_marseille","lat":43.29305,"lon":5.37456,"is_reserved":false,"is_disabled":false,"rental_uris":{"android":"levelo://app?vid=a6b28a6b-9417-48f0-8a37-151990a5b583","ios":"levelo://app?vid=a6b28a6b-9417-48f0-8a37-151990a5b583"},"vehicle_type_id":"4","last_reported":1740157699,"current_range_meters":11200,"station_id":"ce4bgi12rcd13ifvqb70","pricing_plan_id":"cebpf4jnsgd1na2vs0mg"},{"bike_id":"7c753c79-ed01-4f9a-bfeb-8448a46cda74","system_id":"levelo_inurba_marseille","lat":43.27903,"lon":5.38021,"is_reserved":false,"is_disabled":false,"rental_uris":{"android":"levelo://app?vid=7c753c79-ed01-4f9a-bfeb-8448a46cda74","ios":"levelo://app?vid=7c753c79-ed01-4f9a-bfeb-8448a46cda74"},"vehicle_type_id":"4","last_reported":1740157699,"current_range_meters":11200,"station_id":"ce4bhf92rcd13ifvqf50","pricing_plan_id":"cebpf4jnsgd1na2vs0mg"},{"bike_id":"943382b3-3ac2-40b7-baae-7ca1aec3b930","system_id":"levelo_inurba_marseille","lat":43.28157,"lon":5.42653,"is_reserved":false,"is_disabled":false,"rental_uris":{"android":"levelo://app?vid=943382b3-3ac2-40b7-baae-7ca1aec3b930","ios":"levelo://app?vid=943382b3-3ac2-40b7-baae-7ca1aec3b930"},"vehicle_type_id":"4","last_reported":1740157699,"current_range_meters":11200,"station_id":"ce4bhnh2rcd13ifvqgug","pricing_plan_id":"cebpf4jnsgd1na2vs0mg"},{"bike_id":"b01bdcfe-afd4-430b-9d71-f0ab6b2774eb","system_id":"levelo_inurba_marseille","lat":43.23186,"lon":5.3998,"is_reserved":false,"is_disabled":false,"rental_uris":{"android":"levelo://app?vid=b01bdcfe-afd4-430b-9d71-f0ab6b2774eb","ios":"levelo://app?vid=b01bdcfe-afd4-430b-9d71-f0ab6b2774eb"},"vehicle_type_id":"4","last_reported":1740157699,"current_range_meters":11200,"station_id":"ce4bhn12rcd13ifvqgqg","pricing_plan_id":"cebpf4jnsgd1na2vs0mg"},{"bike_id":"edbcb957-35cd-4500-84e7-6376facae100","system_id":"levelo_inurba_marseille","lat":43.2846,"lon":5.35885,"is_reserved":false,"is_disabled":false,"rental_uris":{"android":"levelo://app?vid=edbcb957-35cd-4500-84e7-6376facae100","ios":"levelo://app?vid=edbcb957-35cd-4500-84e7-6376facae100"},"vehicle_type_id":"4","last_reported":1740157699,"current_range_meters":11200,"station_id":"ce4bhah2rcd13ifvqei0","pricing_plan_id":"cebpf4jnsgd1na2vs0mg"},{"bike_id":"2dd38ef1-3cbd-43e1-9f67-5d34c7958032","system_id":"levelo_inurba_marseille","lat":43.28702,"lon":5.39984,"is_reserved":false,"is_disabled":false,"rental_uris":{"android":"levelo://app?vid=2dd38ef1-3cbd-43e1-9f67-5d34c7958032","ios":"levelo://app?vid=2dd38ef1-3cbd-43e1-9f67-5d34c7958032"},"vehicle_type_id":"4","last_reported":1740157699,"current_range_meters":11600,"station_id":"ce4bho92rcd13ifvqh3g","pricing_plan_id":"cebpf4jnsgd1na2vs0mg"},{"bike_id":"be76bd4e-6b0f-4dc0-8289-5c37f8349392","system_id":"levelo_inurba_marseille","lat":43.2899,"lon":5.37841,"is_reserved":false,"is_disabled":false,"rental_uris":{"android":"levelo://app?vid=be76bd4e-6b0f-4dc0-8289-5c37f8349392","ios":"levelo://app?vid=be76bd4e-6b0f-4dc0-8289-5c37f8349392"},"vehicle_type_id":"4","last_reported":1740157699,"current_range_meters":11600,"station_id":"ce4bh9p2rcd13ifvqed0","pricing_plan_id":"cebpf4jnsgd1na2vs0mg"},{"bike_id":"7a811fd9-b132-4914-a795-bbd931482c71","system_id":"levelo_inurba_marseille","lat":43.29534,"lon":5.38543,"is_reserved":false,"is_disabled":true,"rental_uris":{"android":"levelo://app?vid=7a811fd9-b132-4914-a795-bbd931482c71","ios":"levelo://app?vid=7a811fd9-b132-4914-a795-bbd931482c71"},"vehicle_type_id":"4","last_reported":1740157699,"current_range_meters":12000,"station_id":"ce4bgih2rcd13ifvqba0","pricing_plan_id":"cebpf4jnsgd1na2vs0mg"},{"bike_id":"ece000d4-661c-4b73-9213-ce0ed97eff8c","system_id":"levelo_inurba_marseille","lat":43.26986,"lon":5.40195,"is_reserved":false,"is_disabled":false,"rental_uris":{"android":"levelo://app?vid=ece000d4-661c-4b73-9213-ce0ed97eff8c","ios":"levelo://app?vid=ece000d4-661c-4b73-9213-ce0ed97eff8c"},"vehicle_type_id":"4","last_reported":1740157699,"current_range_meters":12000,"station_id":"","pricing_plan_id":"cebpf4jnsgd1na2vs0mg"},{"bike_id":"2ecd5223-42f4-4069-8516-448f826ae35b","system_id":"levelo_inurba_marseille","lat":43.25959,"lon":5.37591,"is_reserved":false,"is_disabled":false,"rental_uris":{"android":"levelo://app?vid=2ecd5223-42f4-4069-8516-448f826ae35b","ios":"levelo://app?vid=2ecd5223-42f4-4069-8516-448f826ae35b"},"vehicle_type_id":"4","last_reported":1740157699,"current_range_meters":12000,"station_id":"","pricing_plan_id":"cebpf4jnsgd1na2vs0mg"},{"bike_id":"5348d5dc-5dca-4978-b167-cd7e8ce45433","system_id":"levelo_inurba_marseille","lat":43.30565,"lon":5.36526,"is_reserved":false,"is_disabled":true,"rental_uris":{"android":"levelo://app?vid=5348d5dc-5dca-4978-b167-cd7e8ce45433","ios":"levelo://app?vid=5348d5dc-5dca-4978-b167-cd7e8ce45433"},"vehicle_type_id":"4","last_reported":1740157699,"current_range_meters":12000,"station_id":"ce4bgs12rcd13ifvqcag","pricing_plan_id":"cebpf4jnsgd1na2vs0mg"},{"bike_id":"a0327e4f-f95f-41b8-ad43-0de4c4eea11d","system_id":"levelo_inurba_marseille","lat":43.28705,"lon":5.37394,"is_reserved":false,"is_disabled":false,"rental_uris":{"android":"levelo://app?vid=a0327e4f-f95f-41b8-ad43-0de4c4eea11d","ios":"levelo://app?vid=a0327e4f-f95f-41b8-ad43-0de4c4eea11d"},"vehicle_type_id":"4","last_reported":1740157699,"current_range_meters":12000,"station_id":"ce4bh3p2rcd13ifvqdq0","pricing_plan_id":"cebpf4jnsgd1na2vs0mg"},{"bike_id":"e69d9534-96c9-40e0-b732-568fedec1809","system_id":"levelo_inurba_marseille","lat":43.30939,"lon":5.40149,"is_reserved":false,"is_disabled":false,"rental_uris":{"android":"levelo://app?vid=e69d9534-96c9-40e0-b732-568fedec1809","ios":"levelo://app?vid=e69d9534-96c9-40e0-b732-568fedec1809"},"vehicle_type_id":"4","last_reported":1740157699,"current_range_meters":12000,"station_id":"ce4bgvp2rcd13ifvqct0","pricing_plan_id":"cebpf4jnsgd1na2vs0mg"},{"bike_id":"0824d06b-95ac-4dc1-94dd-e3a118425ee4","system_id":"levelo_inurba_marseille","lat":43.29047,"lon":5.39964,"is_reserved":false,"is_disabled":false,"rental_uris":{"android":"levelo://app?vid=0824d06b-95ac-4dc1-94dd-e3a118425ee4","ios":"levelo://app?vid=0824d06b-95ac-4dc1-94dd-e3a118425ee4"},"vehicle_type_id":"4","last_reported":1740157699,"current_range_meters":12000,"station_id":"ce4bh392rcd13ifvqdm0","pricing_plan_id":"cebpf4jnsgd1na2vs0mg"},{"bike_id":"4ab0a5dd-ada4-4ba6-8246-2e7c0c8b1a98","system_id":"levelo_inurba_marseille","lat":43.29432,"lon":5.38625,"is_reserved":false,"is_disabled":false,"rental_uris":{"android":"levelo://app?vid=4ab0a5dd-ada4-4ba6-8246-2e7c0c8b1a98","ios":"levelo://app?vid=4ab0a5dd-ada4-4ba6-8246-2e7c0c8b1a98"},"vehicle_type_id":"4","last_reported":1740157699,"current_range_meters":12400,"station_id":"ce4bh2h2rcd13ifvqdh0","pricing_plan_id":"cebpf4jnsgd1na2vs0mg"},{"bike_id":"ee75cd4b-a3c9-4529-9f2c-1e48a3109e8b","system_id":"levelo_inurba_marseille","lat":43.30802,"lon":5.38159,"is_reserved":false,"is_disabled":false,"rental_uris":{"android":"levelo://app?vid=ee75cd4b-a3c9-4529-9f2c-1e48a3109e8b","ios":"levelo://app?vid=ee75cd4b-a3c9-4529-9f2c-1e48a3109e8b"},"vehicle_type_id":"4","last_reported":1740157699,"current_range_meters":14400,"station_id":"ce4bgt12rcd13ifvqce0","pricing_plan_id":"cebpf4jnsgd1na2vs0mg"},{"bike_id":"3e6e4df9-bbee-402a-b54f-56ba0e04635a","system_id":"levelo_inurba_marseille","lat":43.29074,"lon":5.3716,"is_reserved":false,"is_disabled":false,"rental_uris":{"android":"levelo://app?vid=3e6e4df9-bbee-402a-b54f-56ba0e04635a","ios":"levelo://app?vid=3e6e4df9-bbee-402a-b54f-56ba0e04635a"},"vehicle_type_id":"4","last_reported":1740157699,"current_range_meters":12800,"station_id":"ce4bh5p2rcd13ifvqe4g","pricing_plan_id":"cebpf4jnsgd1na2vs0mg"},{"bike_id":"8e699511-b80c-45df-8079-58d7b5258b73","system_id":"levelo_inurba_marseille","lat":43.29196,"lon":5.35801,"is_reserved":false,"is_disabled":false,"rental_uris":{"android":"levelo://app?vid=8e699511-b80c-45df-8079-58d7b5258b73","ios":"levelo://app?vid=8e699511-b80c-45df-8079-58d7b5258b73"},"vehicle_type_id":"4","last_reported":1740157699,"current_range_meters":12800,"station_id":"ce4bhb12rcd13ifvqel0","pricing_plan_id":"cebpf4jnsgd1na2vs0mg"},{"bike_id":"7c8f3d05-5401-4545-847e-9fcee9ea83d5","system_id":"levelo_inurba_marseille","lat":43.26578,"lon":5.39866,"is_reserved":false,"is_disabled":false,"rental_uris":{"android":"levelo://app?vid=7c8f3d05-5401-4545-847e-9fcee9ea83d5","ios":"levelo://app?vid=7c8f3d05-5401-4545-847e-9fcee9ea83d5"},"vehicle_type_id":"4","last_reported":1740157699,"current_range_meters":12800,"station_id":"","pricing_plan_id":"cebpf4jnsgd1na2vs0mg"},{"bike_id":"a404738f-d592-4923-bb7f-8cad6bf8fec4","system_id":"levelo_inurba_marseille","lat":43.27949,"lon":5.38495,"is_reserved":false,"is_disabled":false,"rental_uris":{"android":"levelo://app?vid=a404738f-d592-4923-bb7f-8cad6bf8fec4","ios":"levelo://app?vid=a404738f-d592-4923-bb7f-8cad6bf8fec4"},"vehicle_type_id":"4","last_reported":1740157699,"current_range_meters":12800,"station_id":"","pricing_plan_id":"cebpf4jnsgd1na2vs0mg"},{"bike_id":"f1a5c5fa-5ba8-4fa5-92c0-903187c5ee65","system_id":"levelo_inurba_marseille","lat":43.27371,"lon":5.36253,"is_reserved":false,"is_disabled":false,"rental_uris":{"android":"levelo://app?vid=f1a5c5fa-5ba8-4fa5-92c0-903187c5ee65","ios":"levelo://app?vid=f1a5c5fa-5ba8-4fa5-92c0-903187c5ee65"},"vehicle_type_id":"4","last_reported":1740157699,"current_range_meters":12800,"station_id":"ce4bhbh2rcd13ifvqeo0","pricing_plan_id":"cebpf4jnsgd1na2vs0mg"},{"bike_id":"488b2509-077d-46d1-b19e-0904d8b2b214","system_id":"levelo_inurba_marseille","lat":43.28445,"lon":5.3921,"is_reserved":false,"is_disabled":false,"rental_uris":{"android":"levelo://app?vid=488b2509-077d-46d1-b19e-0904d8b2b214","ios":"levelo://app?vid=488b2509-077d-46d1-b19e-0904d8b2b214"},"vehicle_type_id":"4","last_reported":1740157699,"current_range_meters":12800,"station_id":"ce4bhoh2rcd13ifvqh5g","pricing_plan_id":"cebpf4jnsgd1na2vs0mg"},{"bike_id":"3f14c60e-c4e5-46df-9c01-17491c2e24dd","system_id":"levelo_inurba_marseille","lat":43.24539,"lon":5.39525,"is_reserved":false,"is_disabled":false,"rental_uris":{"android":"levelo://app?vid=3f14c60e-c4e5-46df-9c01-17491c2e24dd","ios":"levelo://app?vid=3f14c60e-c4e5-46df-9c01-17491c2e24dd"},"vehicle_type_id":"4","last_reported":1740157699,"current_range_meters":12800,"station_id":"ce4bhlp2rcd13ifvqgjg","pricing_plan_id":"cebpf4jnsgd1na2vs0mg"},{"bike_id":"2b87fdfa-bd84-473d-ad2c-222fc54df47b","system_id":"levelo_inurba_marseille","lat":43.30143,"lon":5.37429,"is_reserved":false,"is_disabled":false,"rental_uris":{"android":"levelo://app?vid=2b87fdfa-bd84-473d-ad2c-222fc54df47b","ios":"levelo://app?vid=2b87fdfa-bd84-473d-ad2c-222fc54df47b"},"vehicle_type_id":"4","last_reported":1740157699,"current_range_meters":12800,"station_id":"ce4bgs92rcd13ifvqcc0","pricing_plan_id":"cebpf4jnsgd1na2vs0mg"},{"bike_id":"e501be99-a171-4e91-9e5b-ac547e4c06f2","system_id":"levelo_inurba_marseille","lat":43.23203,"lon":5.35556,"is_reserved":false,"is_disabled":false,"rental_uris":{"android":"levelo://app?vid=e501be99-a171-4e91-9e5b-ac547e4c06f2","ios":"levelo://app?vid=e501be99-a171-4e91-9e5b-ac547e4c06f2"},"vehicle_type_id":"4","last_reported":1740157699,"current_range_meters":12800,"station_id":"ce4bhu92rcd13ifvqi70","pricing_plan_id":"cebpf4jnsgd1na2vs0mg"},{"bike_id":"ed1e5f87-341b-4dc3-a6b6-ae77b34ffc59","system_id":"levelo_inurba_marseille","lat":43.29889,"lon":5.38892,"is_reserved":false,"is_disabled":false,"rental_uris":{"android":"levelo://app?vid=ed1e5f87-341b-4dc3-a6b6-ae77b34ffc59","ios":"levelo://app?vid=ed1e5f87-341b-4dc3-a6b6-ae77b34ffc59"},"vehicle_type_id":"4","last_reported":1740157699,"current_range_meters":12800,"station_id":"ce4bh392rcd13ifvqdl0","pricing_plan_id":"cebpf4jnsgd1na2vs0mg"},{"bike_id":"1951b280-e8ac-4fa5-a3ef-806580107c2a","system_id":"levelo_inurba_marseille","lat":43.28144,"lon":5.4264,"is_reserved":false,"is_disabled":false,"rental_uris":{"android":"levelo://app?vid=1951b280-e8ac-4fa5-a3ef-806580107c2a","ios":"levelo://app?vid=1951b280-e8ac-4fa5-a3ef-806580107c2a"},"vehicle_type_id":"4","last_reported":1740157699,"current_range_meters":13600,"station_id":"ce4bhnh2rcd13ifvqgug","pricing_plan_id":"cebpf4jnsgd1na2vs0mg"},{"bike_id":"731cc6a9-42c9-4b45-95c1-c6dc9e99733a","system_id":"levelo_inurba_marseille","lat":43.31872,"lon":5.40743,"is_reserved":false,"is_disabled":false,"rental_uris":{"android":"levelo://app?vid=731cc6a9-42c9-4b45-95c1-c6dc9e99733a","ios":"levelo://app?vid=731cc6a9-42c9-4b45-95c1-c6dc9e99733a"},"vehicle_type_id":"4","last_reported":1740157699,"current_range_meters":13600,"station_id":"ce4bhq12rcd13ifvqhig","pricing_plan_id":"cebpf4jnsgd1na2vs0mg"},{"bike_id":"6c2ab6e6-2d04-4225-b04d-1f709ec68055","system_id":"levelo_inurba_marseille","lat":43.22936,"lon":5.35378,"is_reserved":false,"is_disabled":false,"rental_uris":{"android":"levelo://app?vid=6c2ab6e6-2d04-4225-b04d-1f709ec68055","ios":"levelo://app?vid=6c2ab6e6-2d04-4225-b04d-1f709ec68055"},"vehicle_type_id":"4","last_reported":1740157699,"current_range_meters":13600,"station_id":"cpo3532slgdg3j2ikp40","pricing_plan_id":"cebpf4jnsgd1na2vs0mg"},{"bike_id":"54b45f3b-f685-44dd-8b79-1a758bf759d2","system_id":"levelo_inurba_marseille","lat":43.337444,"lon":5.374475,"is_reserved":false,"is_disabled":true,"rental_uris":{"android":"levelo://app?vid=54b45f3b-f685-44dd-8b79-1a758bf759d2","ios":"levelo://app?vid=54b45f3b-f685-44dd-8b79-1a758bf759d2"},"vehicle_type_id":"4","last_reported":1740157699,"current_range_meters":13600,"station_id":"","pricing_plan_id":"cebpf4jnsgd1na2vs0mg"},{"bike_id":"78ccc1b5-e05d-4c30-bc5b-473f9d97e2cd","system_id":"levelo_inurba_marseille","lat":43.30127,"lon":5.37798,"is_reserved":false,"is_disabled":false,"rental_uris":{"android":"levelo://app?vid=78ccc1b5-e05d-4c30-bc5b-473f9d97e2cd","ios":"levelo://app?vid=78ccc1b5-e05d-4c30-bc5b-473f9d97e2cd"},"vehicle_type_id":"4","last_reported":1740157699,"current_range_meters":14000,"station_id":"","pricing_plan_id":"cebpf4jnsgd1na2vs0mg"},{"bike_id":"efd9f2f1-7b10-4189-aa91-1f4ab21cf36a","system_id":"levelo_inurba_marseille","lat":43.2417,"lon":5.39737,"is_reserved":false,"is_disabled":false,"rental_uris":{"android":"levelo://app?vid=efd9f2f1-7b10-4189-aa91-1f4ab21cf36a","ios":"levelo://app?vid=efd9f2f1-7b10-4189-aa91-1f4ab21cf36a"},"vehicle_type_id":"4","last_reported":1740157699,"current_range_meters":14000,"station_id":"ce4bhn12rcd13ifvqgpg","pricing_plan_id":"cebpf4jnsgd1na2vs0mg"},{"bike_id":"8a104e00-35d6-4c1b-91e7-d8a412d62274","system_id":"levelo_inurba_marseille","lat":43.290324,"lon":5.386473,"is_reserved":false,"is_disabled":false,"rental_uris":{"android":"levelo://app?vid=8a104e00-35d6-4c1b-91e7-d8a412d62274","ios":"levelo://app?vid=8a104e00-35d6-4c1b-91e7-d8a412d62274"},"vehicle_type_id":"4","last_reported":1740157699,"current_range_meters":14000,"station_id":"ce4bh4p2rcd13ifvqe0g","pricing_plan_id":"cebpf4jnsgd1na2vs0mg"},{"bike_id":"a9c64356-ebd4-40b3-b575-f0ee0ddae91c","system_id":"levelo_inurba_marseille","lat":43.29283,"lon":5.3845,"is_reserved":false,"is_disabled":false,"rental_uris":{"android":"levelo://app?vid=a9c64356-ebd4-40b3-b575-f0ee0ddae91c","ios":"levelo://app?vid=a9c64356-ebd4-40b3-b575-f0ee0ddae91c"},"vehicle_type_id":"4","last_reported":1740157699,"current_range_meters":14000,"station_id":"ce4bh692rcd13ifvqea0","pricing_plan_id":"cebpf4jnsgd1na2vs0mg"},{"bike_id":"17930916-ea6d-455b-a10b-e7c017df1978","system_id":"levelo_inurba_marseille","lat":43.25103,"lon":5.40321,"is_reserved":false,"is_disabled":false,"rental_uris":{"android":"levelo://app?vid=17930916-ea6d-455b-a10b-e7c017df1978","ios":"levelo://app?vid=17930916-ea6d-455b-a10b-e7c017df1978"},"vehicle_type_id":"4","last_reported":1740157699,"current_range_meters":14000,"station_id":"ce4bhlh2rcd13ifvqgig","pricing_plan_id":"cebpf4jnsgd1na2vs0mg"},{"bike_id":"f8df0f0f-1bea-41ea-bee5-637c39620c1b","system_id":"levelo_inurba_marseille","lat":43.2866,"lon":5.36338,"is_reserved":false,"is_disabled":false,"rental_uris":{"android":"levelo://app?vid=f8df0f0f-1bea-41ea-bee5-637c39620c1b","ios":"levelo://app?vid=f8df0f0f-1bea-41ea-bee5-637c39620c1b"},"vehicle_type_id":"4","last_reported":1740157699,"current_range_meters":14000,"station_id":"ce4bhah2rcd13ifvqej0","pricing_plan_id":"cebpf4jnsgd1na2vs0mg"},{"bike_id":"2916b851-01ca-4c90-a233-436302f6f5b5","system_id":"levelo_inurba_marseille","lat":43.2866,"lon":5.36352,"is_reserved":false,"is_disabled":false,"rental_uris":{"android":"levelo://app?vid=2916b851-01ca-4c90-a233-436302f6f5b5","ios":"levelo://app?vid=2916b851-01ca-4c90-a233-436302f6f5b5"},"vehicle_type_id":"4","last_reported":1740157699,"current_range_meters":14000,"station_id":"ce4bhah2rcd13ifvqej0","pricing_plan_id":"cebpf4jnsgd1na2vs0mg"},{"bike_id":"98dbc5f7-86d4-4e76-ad51-32477aa40603","system_id":"levelo_inurba_marseille","lat":43.304688,"lon":5.379188,"is_reserved":false,"is_disabled":false,"rental_uris":{"android":"levelo://app?vid=98dbc5f7-86d4-4e76-ad51-32477aa40603","ios":"levelo://app?vid=98dbc5f7-86d4-4e76-ad51-32477aa40603"},"vehicle_type_id":"4","last_reported":1740157699,"current_range_meters":13600,"station_id":"ce4bh112rcd13ifvqd90","pricing_plan_id":"cebpf4jnsgd1na2vs0mg"},{"bike_id":"b985ad1f-1942-453b-b5eb-7462cafd1e31","system_id":"levelo_inurba_marseille","lat":43.23198,"lon":5.35537,"is_reserved":false,"is_disabled":false,"rental_uris":{"android":"levelo://app?vid=b985ad1f-1942-453b-b5eb-7462cafd1e31","ios":"levelo://app?vid=b985ad1f-1942-453b-b5eb-7462cafd1e31"},"vehicle_type_id":"4","last_reported":1740157699,"current_range_meters":14000,"station_id":"ce4bhu92rcd13ifvqi70","pricing_plan_id":"cebpf4jnsgd1na2vs0mg"},{"bike_id":"367b054e-9579-4c06-9f58-3a5bb116a9ef","system_id":"levelo_inurba_marseille","lat":43.32043,"lon":5.41549,"is_reserved":false,"is_disabled":false,"rental_uris":{"android":"levelo://app?vid=367b054e-9579-4c06-9f58-3a5bb116a9ef","ios":"levelo://app?vid=367b054e-9579-4c06-9f58-3a5bb116a9ef"},"vehicle_type_id":"4","last_reported":1740157699,"current_range_meters":14400,"station_id":"ce4bhq92rcd13ifvqhkg","pricing_plan_id":"cebpf4jnsgd1na2vs0mg"},{"bike_id":"1af71f24-4e09-4614-8c45-d76ced2f74ef","system_id":"levelo_inurba_marseille","lat":43.23195,"lon":5.35551,"is_reserved":false,"is_disabled":false,"rental_uris":{"android":"levelo://app?vid=1af71f24-4e09-4614-8c45-d76ced2f74ef","ios":"levelo://app?vid=1af71f24-4e09-4614-8c45-d76ced2f74ef"},"vehicle_type_id":"4","last_reported":1740157699,"current_range_meters":14400,"station_id":"ce4bhu92rcd13ifvqi70","pricing_plan_id":"cebpf4jnsgd1na2vs0mg"},{"bike_id":"1b7ac129-ecd5-4ebe-ac49-f8a6cd5fd7db","system_id":"levelo_inurba_marseille","lat":43.24997,"lon":5.38919,"is_reserved":false,"is_disabled":false,"rental_uris":{"android":"levelo://app?vid=1b7ac129-ecd5-4ebe-ac49-f8a6cd5fd7db","ios":"levelo://app?vid=1b7ac129-ecd5-4ebe-ac49-f8a6cd5fd7db"},"vehicle_type_id":"4","last_reported":1740157699,"current_range_meters":14400,"station_id":"ce4bhgp2rcd13ifvqfd0","pricing_plan_id":"cebpf4jnsgd1na2vs0mg"},{"bike_id":"089b421a-1c36-49ca-a690-f002c1cadcb6","system_id":"levelo_inurba_marseille","lat":43.24171,"lon":5.364,"is_reserved":false,"is_disabled":false,"rental_uris":{"android":"levelo://app?vid=089b421a-1c36-49ca-a690-f002c1cadcb6","ios":"levelo://app?vid=089b421a-1c36-49ca-a690-f002c1cadcb6"},"vehicle_type_id":"4","last_reported":1740157699,"current_range_meters":14400,"station_id":"cpo36qri1sfpv3e86is0","pricing_plan_id":"cebpf4jnsgd1na2vs0mg"},{"bike_id":"adf9a5eb-0e55-4938-a731-a3bed240e85c","system_id":"levelo_inurba_marseille","lat":43.27946,"lon":5.4105,"is_reserved":false,"is_disabled":false,"rental_uris":{"android":"levelo://app?vid=adf9a5eb-0e55-4938-a731-a3bed240e85c","ios":"levelo://app?vid=adf9a5eb-0e55-4938-a731-a3bed240e85c"},"vehicle_type_id":"4","last_reported":1740157699,"current_range_meters":14400,"station_id":"ce4bhnp2rcd13ifvqh0g","pricing_plan_id":"cebpf4jnsgd1na2vs0mg"},{"bike_id":"a3081ed2-47ec-4565-919c-5ba4037aafc3","system_id":"levelo_inurba_marseille","lat":43.28103,"lon":5.3783,"is_reserved":false,"is_disabled":false,"rental_uris":{"android":"levelo://app?vid=a3081ed2-47ec-4565-919c-5ba4037aafc3","ios":"levelo://app?vid=a3081ed2-47ec-4565-919c-5ba4037aafc3"},"vehicle_type_id":"4","last_reported":1740157699,"current_range_meters":14800,"station_id":"ce4bha12rcd13ifvqee0","pricing_plan_id":"cebpf4jnsgd1na2vs0mg"},{"bike_id":"b2e53e11-72d4-4c9e-97a6-ee59830b6b71","system_id":"levelo_inurba_marseille","lat":43.2893,"lon":5.36646,"is_reserved":false,"is_disabled":false,"rental_uris":{"android":"levelo://app?vid=b2e53e11-72d4-4c9e-97a6-ee59830b6b71","ios":"levelo://app?vid=b2e53e11-72d4-4c9e-97a6-ee59830b6b71"},"vehicle_type_id":"4","last_reported":1740157699,"current_range_meters":14800,"station_id":"ce4bhap2rcd13ifvqek0","pricing_plan_id":"cebpf4jnsgd1na2vs0mg"},{"bike_id":"3c36db4c-97d5-4134-a36a-ae78baf9a0f4","system_id":"levelo_inurba_marseille","lat":43.28268,"lon":5.35061,"is_reserved":false,"is_disabled":false,"rental_uris":{"android":"levelo://app?vid=3c36db4c-97d5-4134-a36a-ae78baf9a0f4","ios":"levelo://app?vid=3c36db4c-97d5-4134-a36a-ae78baf9a0f4"},"vehicle_type_id":"4","last_reported":1740157699,"current_range_meters":14800,"station_id":"ce4bhbp2rcd13ifvqerg","pricing_plan_id":"cebpf4jnsgd1na2vs0mg"},{"bike_id":"9e8b268b-a730-4bae-9d49-4ffc4be9a909","system_id":"levelo_inurba_marseille","lat":43.29878,"lon":5.39737,"is_reserved":false,"is_disabled":false,"rental_uris":{"android":"levelo://app?vid=9e8b268b-a730-4bae-9d49-4ffc4be9a909","ios":"levelo://app?vid=9e8b268b-a730-4bae-9d49-4ffc4be9a909"},"vehicle_type_id":"4","last_reported":1740157699,"current_range_meters":14800,"station_id":"ce4bh0h2rcd13ifvqd50","pricing_plan_id":"cebpf4jnsgd1na2vs0mg"},{"bike_id":"683a6c2e-9960-4cc9-ad0b-d5288c90d013","system_id":"levelo_inurba_marseille","lat":43.298802,"lon":5.397263,"is_reserved":false,"is_disabled":false,"rental_uris":{"android":"levelo://app?vid=683a6c2e-9960-4cc9-ad0b-d5288c90d013","ios":"levelo://app?vid=683a6c2e-9960-4cc9-ad0b-d5288c90d013"},"vehicle_type_id":"4","last_reported":1740157699,"current_range_meters":14800,"station_id":"ce4bh0h2rcd13ifvqd50","pricing_plan_id":"cebpf4jnsgd1na2vs0mg"},{"bike_id":"d312ce1d-aae9-4c62-a1e8-38c15d95735a","system_id":"levelo_inurba_marseille","lat":43.22936,"lon":5.3538,"is_reserved":false,"is_disabled":false,"rental_uris":{"android":"levelo://app?vid=d312ce1d-aae9-4c62-a1e8-38c15d95735a","ios":"levelo://app?vid=d312ce1d-aae9-4c62-a1e8-38c15d95735a"},"vehicle_type_id":"4","last_reported":1740157699,"current_range_meters":15200,"station_id":"cpo3532slgdg3j2ikp40","pricing_plan_id":"cebpf4jnsgd1na2vs0mg"},{"bike_id":"417001bc-e8ee-4b24-9108-f07a293bf8c3","system_id":"levelo_inurba_marseille","lat":43.29728,"lon":5.37691,"is_reserved":false,"is_disabled":true,"rental_uris":{"android":"levelo://app?vid=417001bc-e8ee-4b24-9108-f07a293bf8c3","ios":"levelo://app?vid=417001bc-e8ee-4b24-9108-f07a293bf8c3"},"vehicle_type_id":"4","last_reported":1740157699,"current_range_meters":15200,"station_id":"ce4bgkh2rcd13ifvqbl0","pricing_plan_id":"cebpf4jnsgd1na2vs0mg"},{"bike_id":"3372843d-d9b8-48e7-a75e-62d9bb27ba4f","system_id":"levelo_inurba_marseille","lat":43.27906,"lon":5.39577,"is_reserved":false,"is_disabled":false,"rental_uris":{"android":"levelo://app?vid=3372843d-d9b8-48e7-a75e-62d9bb27ba4f","ios":"levelo://app?vid=3372843d-d9b8-48e7-a75e-62d9bb27ba4f"},"vehicle_type_id":"4","last_reported":1740157699,"current_range_meters":15200,"station_id":"ce4bhf92rcd13ifvqf40","pricing_plan_id":"cebpf4jnsgd1na2vs0mg"},{"bike_id":"8fb69e57-2b8b-47a6-a8f7-db55b25243e3","system_id":"levelo_inurba_marseille","lat":43.290467,"lon":5.359183,"is_reserved":false,"is_disabled":false,"rental_uris":{"android":"levelo://app?vid=8fb69e57-2b8b-47a6-a8f7-db55b25243e3","ios":"levelo://app?vid=8fb69e57-2b8b-47a6-a8f7-db55b25243e3"},"vehicle_type_id":"4","last_reported":1740157699,"current_range_meters":15200,"station_id":"ce4bgl12rcd13ifvqbo0","pricing_plan_id":"cebpf4jnsgd1na2vs0mg"},{"bike_id":"2bd2e251-7232-4a39-8853-8cfa76cfaeff","system_id":"levelo_inurba_marseille","lat":43.32358,"lon":5.36767,"is_reserved":false,"is_disabled":false,"rental_uris":{"android":"levelo://app?vid=2bd2e251-7232-4a39-8853-8cfa76cfaeff","ios":"levelo://app?vid=2bd2e251-7232-4a39-8853-8cfa76cfaeff"},"vehicle_type_id":"4","last_reported":1740157699,"current_range_meters":15200,"station_id":"ce4bhsh2rcd13ifvqi2g","pricing_plan_id":"cebpf4jnsgd1na2vs0mg"},{"bike_id":"0dbab506-ebec-4d03-8a4a-a2b813a9ef71","system_id":"levelo_inurba_marseille","lat":43.28942,"lon":5.36398,"is_reserved":false,"is_disabled":false,"rental_uris":{"android":"levelo://app?vid=0dbab506-ebec-4d03-8a4a-a2b813a9ef71","ios":"levelo://app?vid=0dbab506-ebec-4d03-8a4a-a2b813a9ef71"},"vehicle_type_id":"4","last_reported":1740157699,"current_range_meters":16000,"station_id":"ce4bhc92rcd13ifvqetg","pricing_plan_id":"cebpf4jnsgd1na2vs0mg"},{"bike_id":"35331f57-b06c-41f1-8224-4eb3668702eb","system_id":"levelo_inurba_marseille","lat":43.23054,"lon":5.35483,"is_reserved":false,"is_disabled":false,"rental_uris":{"android":"levelo://app?vid=35331f57-b06c-41f1-8224-4eb3668702eb","ios":"levelo://app?vid=35331f57-b06c-41f1-8224-4eb3668702eb"},"vehicle_type_id":"4","last_reported":1740157699,"current_range_meters":16000,"station_id":"cpo3342slgdg3j2ifvpg","pricing_plan_id":"cebpf4jnsgd1na2vs0mg"},{"bike_id":"4da68edf-451a-4adf-bccd-ad67d140ad90","system_id":"levelo_inurba_marseille","lat":43.3014,"lon":5.37403,"is_reserved":false,"is_disabled":false,"rental_uris":{"android":"levelo://app?vid=4da68edf-451a-4adf-bccd-ad67d140ad90","ios":"levelo://app?vid=4da68edf-451a-4adf-bccd-ad67d140ad90"},"vehicle_type_id":"4","last_reported":1740157699,"current_range_meters":16400,"station_id":"ce4bgs92rcd13ifvqcc0","pricing_plan_id":"cebpf4jnsgd1na2vs0mg"},{"bike_id":"aa44d652-548f-4543-a7bb-1fe56ad0498f","system_id":"levelo_inurba_marseille","lat":43.25862,"lon":5.39894,"is_reserved":false,"is_disabled":false,"rental_uris":{"android":"levelo://app?vid=aa44d652-548f-4543-a7bb-1fe56ad0498f","ios":"levelo://app?vid=aa44d652-548f-4543-a7bb-1fe56ad0498f"},"vehicle_type_id":"4","last_reported":1740157699,"current_range_meters":16400,"station_id":"ce4bhl92rcd13ifvqghg","pricing_plan_id":"cebpf4jnsgd1na2vs0mg"},{"bike_id":"e297894e-9654-4d80-87c5-92e5d1d23aba","system_id":"levelo_inurba_marseille","lat":43.27493,"lon":5.42454,"is_reserved":false,"is_disabled":false,"rental_uris":{"android":"levelo://app?vid=e297894e-9654-4d80-87c5-92e5d1d23aba","ios":"levelo://app?vid=e297894e-9654-4d80-87c5-92e5d1d23aba"},"vehicle_type_id":"4","last_reported":1740157699,"current_range_meters":16400,"station_id":"ce4bhn92rcd13ifvqgrg","pricing_plan_id":"cebpf4jnsgd1na2vs0mg"},{"bike_id":"51762dbc-c40f-45aa-8f8e-221bcb731d40","system_id":"levelo_inurba_marseille","lat":43.30884,"lon":5.39644,"is_reserved":false,"is_disabled":false,"rental_uris":{"android":"levelo://app?vid=51762dbc-c40f-45aa-8f8e-221bcb731d40","ios":"levelo://app?vid=51762dbc-c40f-45aa-8f8e-221bcb731d40"},"vehicle_type_id":"4","last_reported":1740157699,"current_range_meters":16400,"station_id":"ce4bh012rcd13ifvqcv0","pricing_plan_id":"cebpf4jnsgd1na2vs0mg"},{"bike_id":"ec32f634-4068-45a4-8eda-8c75badc6fd4","system_id":"levelo_inurba_marseille","lat":43.295008,"lon":5.388264,"is_reserved":false,"is_disabled":false,"rental_uris":{"android":"levelo://app?vid=ec32f634-4068-45a4-8eda-8c75badc6fd4","ios":"levelo://app?vid=ec32f634-4068-45a4-8eda-8c75badc6fd4"},"vehicle_type_id":"4","last_reported":1740157699,"current_range_meters":16400,"station_id":"ce4bh3p2rcd13ifvqdp0","pricing_plan_id":"cebpf4jnsgd1na2vs0mg"},{"bike_id":"130f9693-efc1-4544-ac5a-952bad4a139b","system_id":"levelo_inurba_marseille","lat":43.31707,"lon":5.43688,"is_reserved":false,"is_disabled":false,"rental_uris":{"android":"levelo://app?vid=130f9693-efc1-4544-ac5a-952bad4a139b","ios":"levelo://app?vid=130f9693-efc1-4544-ac5a-952bad4a139b"},"vehicle_type_id":"4","last_reported":1740157699,"current_range_meters":16400,"station_id":"ce4bhp92rcd13ifvqhcg","pricing_plan_id":"cebpf4jnsgd1na2vs0mg"},{"bike_id":"18432448-a03f-4fd3-a914-e6d84ec16fd5","system_id":"levelo_inurba_marseille","lat":43.313201,"lon":5.396942,"is_reserved":false,"is_disabled":false,"rental_uris":{"android":"levelo://app?vid=18432448-a03f-4fd3-a914-e6d84ec16fd5","ios":"levelo://app?vid=18432448-a03f-4fd3-a914-e6d84ec16fd5"},"vehicle_type_id":"4","last_reported":1740157699,"current_range_meters":16400,"station_id":"ce4bgvp2rcd13ifvqcu0","pricing_plan_id":"cebpf4jnsgd1na2vs0mg"},{"bike_id":"a45c382e-0ee8-4191-a310-e53e3df19d4a","system_id":"levelo_inurba_marseille","lat":43.27684,"lon":5.38885,"is_reserved":false,"is_disabled":false,"rental_uris":{"android":"levelo://app?vid=a45c382e-0ee8-4191-a310-e53e3df19d4a","ios":"levelo://app?vid=a45c382e-0ee8-4191-a310-e53e3df19d4a"},"vehicle_type_id":"4","last_reported":1740157699,"current_range_meters":16800,"station_id":"ce4bhi12rcd13ifvqfo0","pricing_plan_id":"cebpf4jnsgd1na2vs0mg"},{"bike_id":"0b35ef10-1d1d-4e8a-949e-c3122c5e3874","system_id":"levelo_inurba_marseille","lat":43.23958,"lon":5.36625,"is_reserved":false,"is_disabled":false,"rental_uris":{"android":"levelo://app?vid=0b35ef10-1d1d-4e8a-949e-c3122c5e3874","ios":"levelo://app?vid=0b35ef10-1d1d-4e8a-949e-c3122c5e3874"},"vehicle_type_id":"4","last_reported":1740157699,"current_range_meters":16800,"station_id":"ce4bhi12rcd13ifvqfp0","pricing_plan_id":"cebpf4jnsgd1na2vs0mg"},{"bike_id":"8db7c6d7-e1a9-4eb6-b282-d83b77847bfc","system_id":"levelo_inurba_marseille","lat":43.29514,"lon":5.39405,"is_reserved":false,"is_disabled":false,"rental_uris":{"android":"levelo://app?vid=8db7c6d7-e1a9-4eb6-b282-d83b77847bfc","ios":"levelo://app?vid=8db7c6d7-e1a9-4eb6-b282-d83b77847bfc"},"vehicle_type_id":"4","last_reported":1740157699,"current_range_meters":16800,"station_id":"ce4bh292rcd13ifvqdf0","pricing_plan_id":"cebpf4jnsgd1na2vs0mg"},{"bike_id":"b0c4cff7-ef87-4f78-9f9a-1600e3ee01ad","system_id":"levelo_inurba_marseille","lat":43.3013,"lon":5.39851,"is_reserved":false,"is_disabled":false,"rental_uris":{"android":"levelo://app?vid=b0c4cff7-ef87-4f78-9f9a-1600e3ee01ad","ios":"levelo://app?vid=b0c4cff7-ef87-4f78-9f9a-1600e3ee01ad"},"vehicle_type_id":"4","last_reported":1740157699,"current_range_meters":16800,"station_id":"ce4bh0h2rcd13ifvqd40","pricing_plan_id":"cebpf4jnsgd1na2vs0mg"},{"bike_id":"e787ca5c-fddf-4351-8e22-c39460f7265b","system_id":"levelo_inurba_marseille","lat":43.26581,"lon":5.39008,"is_reserved":false,"is_disabled":false,"rental_uris":{"android":"levelo://app?vid=e787ca5c-fddf-4351-8e22-c39460f7265b","ios":"levelo://app?vid=e787ca5c-fddf-4351-8e22-c39460f7265b"},"vehicle_type_id":"4","last_reported":1740157699,"current_range_meters":17200,"station_id":"ce4bhe12rcd13ifvqf30","pricing_plan_id":"cebpf4jnsgd1na2vs0mg"},{"bike_id":"63447942-827c-43da-b438-4b06e3923c82","system_id":"levelo_inurba_marseille","lat":43.299347,"lon":5.36564,"is_reserved":false,"is_disabled":false,"rental_uris":{"android":"levelo://app?vid=63447942-827c-43da-b438-4b06e3923c82","ios":"levelo://app?vid=63447942-827c-43da-b438-4b06e3923c82"},"vehicle_type_id":"4","last_reported":1740157699,"current_range_meters":17200,"station_id":"ce4bgt92rcd13ifvqcf0","pricing_plan_id":"cebpf4jnsgd1na2vs0mg"},{"bike_id":"58200a84-9a1f-49a4-afb1-cb49453e12a5","system_id":"levelo_inurba_marseille","lat":43.292023,"lon":5.393283,"is_reserved":false,"is_disabled":false,"rental_uris":{"android":"levelo://app?vid=58200a84-9a1f-49a4-afb1-cb49453e12a5","ios":"levelo://app?vid=58200a84-9a1f-49a4-afb1-cb49453e12a5"},"vehicle_type_id":"4","last_reported":1740157699,"current_range_meters":17200,"station_id":"ce4bh192rcd13ifvqdd0","pricing_plan_id":"cebpf4jnsgd1na2vs0mg"},{"bike_id":"06b5b92e-20c2-4581-8ccf-06307578ea44","system_id":"levelo_inurba_marseille","lat":43.27174,"lon":5.40996,"is_reserved":false,"is_disabled":false,"rental_uris":{"android":"levelo://app?vid=06b5b92e-20c2-4581-8ccf-06307578ea44","ios":"levelo://app?vid=06b5b92e-20c2-4581-8ccf-06307578ea44"},"vehicle_type_id":"4","last_reported":1740157699,"current_range_meters":17200,"station_id":"ce4bhl12rcd13ifvqgf0","pricing_plan_id":"cebpf4jnsgd1na2vs0mg"},{"bike_id":"005e5eb8-39b1-40fe-bf10-36f6bd3cba88","system_id":"levelo_inurba_marseille","lat":43.28376,"lon":5.38645,"is_reserved":false,"is_disabled":false,"rental_uris":{"android":"levelo://app?vid=005e5eb8-39b1-40fe-bf10-36f6bd3cba88","ios":"levelo://app?vid=005e5eb8-39b1-40fe-bf10-36f6bd3cba88"},"vehicle_type_id":"4","last_reported":1740157699,"current_range_meters":17200,"station_id":"ce4bh492rcd13ifvqdvg","pricing_plan_id":"cebpf4jnsgd1na2vs0mg"},{"bike_id":"1ec96e34-c006-418f-9270-01cb581c0471","system_id":"levelo_inurba_marseille","lat":43.2866,"lon":5.36349,"is_reserved":false,"is_disabled":false,"rental_uris":{"android":"levelo://app?vid=1ec96e34-c006-418f-9270-01cb581c0471","ios":"levelo://app?vid=1ec96e34-c006-418f-9270-01cb581c0471"},"vehicle_type_id":"4","last_reported":1740157699,"current_range_meters":17200,"station_id":"ce4bhah2rcd13ifvqej0","pricing_plan_id":"cebpf4jnsgd1na2vs0mg"},{"bike_id":"47c2bda1-b080-4330-9259-8165a7e570ad","system_id":"levelo_inurba_marseille","lat":43.32705,"lon":5.39013,"is_reserved":false,"is_disabled":false,"rental_uris":{"android":"levelo://app?vid=47c2bda1-b080-4330-9259-8165a7e570ad","ios":"levelo://app?vid=47c2bda1-b080-4330-9259-8165a7e570ad"},"vehicle_type_id":"4","last_reported":1740157699,"current_range_meters":17600,"station_id":"","pricing_plan_id":"cebpf4jnsgd1na2vs0mg"},{"bike_id":"4a1081e3-f3e7-4fd6-9fb0-5d8877fcb136","system_id":"levelo_inurba_marseille","lat":43.26058,"lon":5.39394,"is_reserved":false,"is_disabled":false,"rental_uris":{"android":"levelo://app?vid=4a1081e3-f3e7-4fd6-9fb0-5d8877fcb136","ios":"levelo://app?vid=4a1081e3-f3e7-4fd6-9fb0-5d8877fcb136"},"vehicle_type_id":"4","last_reported":1740157699,"current_range_meters":17600,"station_id":"ce4bhh92rcd13ifvqfj0","pricing_plan_id":"cebpf4jnsgd1na2vs0mg"},{"bike_id":"d5c7e4ed-99d0-424c-bcc2-b1c825c32aaa","system_id":"levelo_inurba_marseille","lat":43.28718,"lon":5.36084,"is_reserved":false,"is_disabled":false,"rental_uris":{"android":"levelo://app?vid=d5c7e4ed-99d0-424c-bcc2-b1c825c32aaa","ios":"levelo://app?vid=d5c7e4ed-99d0-424c-bcc2-b1c825c32aaa"},"vehicle_type_id":"4","last_reported":1740157699,"current_range_meters":17600,"station_id":"cki0cbj6b192h4jlfktg","pricing_plan_id":"cebpf4jnsgd1na2vs0mg"},{"bike_id":"82a9e617-17f0-44ca-a809-a78a3ad1eefc","system_id":"levelo_inurba_marseille","lat":43.31494,"lon":5.37306,"is_reserved":false,"is_disabled":false,"rental_uris":{"android":"levelo://app?vid=82a9e617-17f0-44ca-a809-a78a3ad1eefc","ios":"levelo://app?vid=82a9e617-17f0-44ca-a809-a78a3ad1eefc"},"vehicle_type_id":"4","last_reported":1740157699,"current_range_meters":17600,"station_id":"ce4bgt12rcd13ifvqcd0","pricing_plan_id":"cebpf4jnsgd1na2vs0mg"},{"bike_id":"92236b2a-c1ac-4a5d-9747-6c438c2a8082","system_id":"levelo_inurba_marseille","lat":43.26562,"lon":5.39009,"is_reserved":false,"is_disabled":false,"rental_uris":{"android":"levelo://app?vid=92236b2a-c1ac-4a5d-9747-6c438c2a8082","ios":"levelo://app?vid=92236b2a-c1ac-4a5d-9747-6c438c2a8082"},"vehicle_type_id":"4","last_reported":1740157699,"current_range_meters":17600,"station_id":"ce4bhe12rcd13ifvqf30","pricing_plan_id":"cebpf4jnsgd1na2vs0mg"},{"bike_id":"64e754dc-73d6-43fb-9004-56cacf3080b5","system_id":"levelo_inurba_marseille","lat":43.30528,"lon":5.36545,"is_reserved":false,"is_disabled":false,"rental_uris":{"android":"levelo://app?vid=64e754dc-73d6-43fb-9004-56cacf3080b5","ios":"levelo://app?vid=64e754dc-73d6-43fb-9004-56cacf3080b5"},"vehicle_type_id":"4","last_reported":1740157699,"current_range_meters":17600,"station_id":"ce4bgs12rcd13ifvqcag","pricing_plan_id":"cebpf4jnsgd1na2vs0mg"},{"bike_id":"476d1c57-46f2-412d-9e1f-3b2e2e04ca62","system_id":"levelo_inurba_marseille","lat":43.2953,"lon":5.38543,"is_reserved":false,"is_disabled":false,"rental_uris":{"android":"levelo://app?vid=476d1c57-46f2-412d-9e1f-3b2e2e04ca62","ios":"levelo://app?vid=476d1c57-46f2-412d-9e1f-3b2e2e04ca62"},"vehicle_type_id":"4","last_reported":1740157699,"current_range_meters":17600,"station_id":"ce4bgih2rcd13ifvqba0","pricing_plan_id":"cebpf4jnsgd1na2vs0mg"},{"bike_id":"a3907e25-a14f-4f4c-ad37-bc32a1ef891a","system_id":"levelo_inurba_marseille","lat":43.29282,"lon":5.40122,"is_reserved":false,"is_disabled":false,"rental_uris":{"android":"levelo://app?vid=a3907e25-a14f-4f4c-ad37-bc32a1ef891a","ios":"levelo://app?vid=a3907e25-a14f-4f4c-ad37-bc32a1ef891a"},"vehicle_type_id":"4","last_reported":1740157699,"current_range_meters":17600,"station_id":"ce4bh312rcd13ifvqdk0","pricing_plan_id":"cebpf4jnsgd1na2vs0mg"},{"bike_id":"042e241a-5cc7-4795-abd6-ecfe0230dfcb","system_id":"levelo_inurba_marseille","lat":43.30425,"lon":5.41287,"is_reserved":false,"is_disabled":false,"rental_uris":{"android":"levelo://app?vid=042e241a-5cc7-4795-abd6-ecfe0230dfcb","ios":"levelo://app?vid=042e241a-5cc7-4795-abd6-ecfe0230dfcb"},"vehicle_type_id":"4","last_reported":1740157699,"current_range_meters":17600,"station_id":"ce4bhop2rcd13ifvqh8g","pricing_plan_id":"cebpf4jnsgd1na2vs0mg"},{"bike_id":"130638c9-5eb1-479c-b314-23d547c41cdb","system_id":"levelo_inurba_marseille","lat":43.29527,"lon":5.39058,"is_reserved":false,"is_disabled":false,"rental_uris":{"android":"levelo://app?vid=130638c9-5eb1-479c-b314-23d547c41cdb","ios":"levelo://app?vid=130638c9-5eb1-479c-b314-23d547c41cdb"},"vehicle_type_id":"4","last_reported":1740157699,"current_range_meters":17600,"station_id":"ce4bh3p2rcd13ifvqdp0","pricing_plan_id":"cebpf4jnsgd1na2vs0mg"},{"bike_id":"45baf3ec-b2f4-4fc6-9635-1090f77e5872","system_id":"levelo_inurba_marseille","lat":43.280443,"lon":5.400533,"is_reserved":false,"is_disabled":false,"rental_uris":{"android":"levelo://app?vid=45baf3ec-b2f4-4fc6-9635-1090f77e5872","ios":"levelo://app?vid=45baf3ec-b2f4-4fc6-9635-1090f77e5872"},"vehicle_type_id":"4","last_reported":1740157699,"current_range_meters":17600,"station_id":"ce4bho92rcd13ifvqh4g","pricing_plan_id":"cebpf4jnsgd1na2vs0mg"},{"bike_id":"a7c4fa13-c21c-42ce-82ab-11370de54a3d","system_id":"levelo_inurba_marseille","lat":43.27999,"lon":5.40018,"is_reserved":false,"is_disabled":false,"rental_uris":{"android":"levelo://app?vid=a7c4fa13-c21c-42ce-82ab-11370de54a3d","ios":"levelo://app?vid=a7c4fa13-c21c-42ce-82ab-11370de54a3d"},"vehicle_type_id":"4","last_reported":1740157699,"current_range_meters":18000,"station_id":"ce4bho92rcd13ifvqh4g","pricing_plan_id":"cebpf4jnsgd1na2vs0mg"},{"bike_id":"1b0d6542-f74d-4dd5-b78b-1cd1115ff80b","system_id":"levelo_inurba_marseille","lat":43.30616,"lon":5.37384,"is_reserved":false,"is_disabled":false,"rental_uris":{"android":"levelo://app?vid=1b0d6542-f74d-4dd5-b78b-1cd1115ff80b","ios":"levelo://app?vid=1b0d6542-f74d-4dd5-b78b-1cd1115ff80b"},"vehicle_type_id":"4","last_reported":1740157699,"current_range_meters":18000,"station_id":"","pricing_plan_id":"cebpf4jnsgd1na2vs0mg"},{"bike_id":"ba0bce3c-2f0f-4319-a7aa-4f3727bd81ea","system_id":"levelo_inurba_marseille","lat":43.32116,"lon":5.36785,"is_reserved":false,"is_disabled":false,"rental_uris":{"android":"levelo://app?vid=ba0bce3c-2f0f-4319-a7aa-4f3727bd81ea","ios":"levelo://app?vid=ba0bce3c-2f0f-4319-a7aa-4f3727bd81ea"},"vehicle_type_id":"4","last_reported":1740157699,"current_range_meters":18000,"station_id":"ce4bhrh2rcd13ifvqhug","pricing_plan_id":"cebpf4jnsgd1na2vs0mg"},{"bike_id":"519c0d90-c598-4074-9c80-d5e1565ff705","system_id":"levelo_inurba_marseille","lat":43.23061,"lon":5.35494,"is_reserved":false,"is_disabled":false,"rental_uris":{"android":"levelo://app?vid=519c0d90-c598-4074-9c80-d5e1565ff705","ios":"levelo://app?vid=519c0d90-c598-4074-9c80-d5e1565ff705"},"vehicle_type_id":"4","last_reported":1740157699,"current_range_meters":18000,"station_id":"cpo3342slgdg3j2ifvpg","pricing_plan_id":"cebpf4jnsgd1na2vs0mg"},{"bike_id":"ecb792ba-e590-4d62-97cc-1e9b429064df","system_id":"levelo_inurba_marseille","lat":43.25005,"lon":5.38947,"is_reserved":false,"is_disabled":false,"rental_uris":{"android":"levelo://app?vid=ecb792ba-e590-4d62-97cc-1e9b429064df","ios":"levelo://app?vid=ecb792ba-e590-4d62-97cc-1e9b429064df"},"vehicle_type_id":"4","last_reported":1740157699,"current_range_meters":18000,"station_id":"ce4bhgp2rcd13ifvqfd0","pricing_plan_id":"cebpf4jnsgd1na2vs0mg"},{"bike_id":"d5566d2e-78e8-488f-b3e7-c9c338cd491f","system_id":"levelo_inurba_marseille","lat":43.27497,"lon":5.42455,"is_reserved":false,"is_disabled":false,"rental_uris":{"android":"levelo://app?vid=d5566d2e-78e8-488f-b3e7-c9c338cd491f","ios":"levelo://app?vid=d5566d2e-78e8-488f-b3e7-c9c338cd491f"},"vehicle_type_id":"4","last_reported":1740157699,"current_range_meters":18000,"station_id":"ce4bhn92rcd13ifvqgrg","pricing_plan_id":"cebpf4jnsgd1na2vs0mg"},{"bike_id":"1deaa002-5243-48d8-8779-82891264a102","system_id":"levelo_inurba_marseille","lat":43.24815,"lon":5.37443,"is_reserved":false,"is_disabled":false,"rental_uris":{"android":"levelo://app?vid=1deaa002-5243-48d8-8779-82891264a102","ios":"levelo://app?vid=1deaa002-5243-48d8-8779-82891264a102"},"vehicle_type_id":"4","last_reported":1740157699,"current_range_meters":18000,"station_id":"ce4bhgh2rcd13ifvqfb0","pricing_plan_id":"cebpf4jnsgd1na2vs0mg"},{"bike_id":"273c6419-dee4-4627-9d53-0902edadbc9c","system_id":"levelo_inurba_marseille","lat":43.27915,"lon":5.39581,"is_reserved":false,"is_disabled":false,"rental_uris":{"android":"levelo://app?vid=273c6419-dee4-4627-9d53-0902edadbc9c","ios":"levelo://app?vid=273c6419-dee4-4627-9d53-0902edadbc9c"},"vehicle_type_id":"4","last_reported":1740157699,"current_range_meters":18000,"station_id":"ce4bhf92rcd13ifvqf40","pricing_plan_id":"cebpf4jnsgd1na2vs0mg"},{"bike_id":"dab960d9-1ede-46dd-ade3-a5360c9021cf","system_id":"levelo_inurba_marseille","lat":43.23194,"lon":5.35555,"is_reserved":false,"is_disabled":false,"rental_uris":{"android":"levelo://app?vid=dab960d9-1ede-46dd-ade3-a5360c9021cf","ios":"levelo://app?vid=dab960d9-1ede-46dd-ade3-a5360c9021cf"},"vehicle_type_id":"4","last_reported":1740157699,"current_range_meters":18000,"station_id":"ce4bhu92rcd13ifvqi70","pricing_plan_id":"cebpf4jnsgd1na2vs0mg"},{"bike_id":"1b5b87c8-f96f-4740-8b60-bcc62c6e3f59","system_id":"levelo_inurba_marseille","lat":43.31407,"lon":5.38475,"is_reserved":false,"is_disabled":false,"rental_uris":{"android":"levelo://app?vid=1b5b87c8-f96f-4740-8b60-bcc62c6e3f59","ios":"levelo://app?vid=1b5b87c8-f96f-4740-8b60-bcc62c6e3f59"},"vehicle_type_id":"4","last_reported":1740157699,"current_range_meters":18000,"station_id":"","pricing_plan_id":"cebpf4jnsgd1na2vs0mg"},{"bike_id":"84e364eb-0bd3-4a3c-8233-6ea88f117d5c","system_id":"levelo_inurba_marseille","lat":43.30178,"lon":5.38084,"is_reserved":false,"is_disabled":false,"rental_uris":{"android":"levelo://app?vid=84e364eb-0bd3-4a3c-8233-6ea88f117d5c","ios":"levelo://app?vid=84e364eb-0bd3-4a3c-8233-6ea88f117d5c"},"vehicle_type_id":"4","last_reported":1740157699,"current_range_meters":18000,"station_id":"ce4bgjp2rcd13ifvqbh0","pricing_plan_id":"cebpf4jnsgd1na2vs0mg"},{"bike_id":"af04c52e-64bc-4b40-9c5d-f4b0968fc255","system_id":"levelo_inurba_marseille","lat":43.24084,"lon":5.37741,"is_reserved":false,"is_disabled":false,"rental_uris":{"android":"levelo://app?vid=af04c52e-64bc-4b40-9c5d-f4b0968fc255","ios":"levelo://app?vid=af04c52e-64bc-4b40-9c5d-f4b0968fc255"},"vehicle_type_id":"4","last_reported":1740157699,"current_range_meters":18000,"station_id":"ce4bhnp2rcd13ifvqgvg","pricing_plan_id":"cebpf4jnsgd1na2vs0mg"},{"bike_id":"20552d1e-915a-44dd-88fc-8da4572dd2c6","system_id":"levelo_inurba_marseille","lat":43.31491,"lon":5.37312,"is_reserved":false,"is_disabled":false,"rental_uris":{"android":"levelo://app?vid=20552d1e-915a-44dd-88fc-8da4572dd2c6","ios":"levelo://app?vid=20552d1e-915a-44dd-88fc-8da4572dd2c6"},"vehicle_type_id":"4","last_reported":1740157699,"current_range_meters":18000,"station_id":"ce4bgt12rcd13ifvqcd0","pricing_plan_id":"cebpf4jnsgd1na2vs0mg"},{"bike_id":"0d19b7e0-b957-42e1-8ded-98a1ef5de94e","system_id":"levelo_inurba_marseille","lat":43.27896,"lon":5.38003,"is_reserved":false,"is_disabled":false,"rental_uris":{"android":"levelo://app?vid=0d19b7e0-b957-42e1-8ded-98a1ef5de94e","ios":"levelo://app?vid=0d19b7e0-b957-42e1-8ded-98a1ef5de94e"},"vehicle_type_id":"4","last_reported":1740157699,"current_range_meters":18000,"station_id":"ce4bhf92rcd13ifvqf50","pricing_plan_id":"cebpf4jnsgd1na2vs0mg"},{"bike_id":"467a0ac7-872c-4bb6-8ee3-3c6f458a51d9","system_id":"levelo_inurba_marseille","lat":43.27953,"lon":5.41267,"is_reserved":false,"is_disabled":false,"rental_uris":{"android":"levelo://app?vid=467a0ac7-872c-4bb6-8ee3-3c6f458a51d9","ios":"levelo://app?vid=467a0ac7-872c-4bb6-8ee3-3c6f458a51d9"},"vehicle_type_id":"4","last_reported":1740157699,"current_range_meters":18800,"station_id":"","pricing_plan_id":"cebpf4jnsgd1na2vs0mg"},{"bike_id":"76da7702-e8ce-4370-8f29-3d5c9a9366ad","system_id":"levelo_inurba_marseille","lat":43.31281,"lon":5.40153,"is_reserved":false,"is_disabled":false,"rental_uris":{"android":"levelo://app?vid=76da7702-e8ce-4370-8f29-3d5c9a9366ad","ios":"levelo://app?vid=76da7702-e8ce-4370-8f29-3d5c9a9366ad"},"vehicle_type_id":"4","last_reported":1740157699,"current_range_meters":18800,"station_id":"ce4bh092rcd13ifvqd30","pricing_plan_id":"cebpf4jnsgd1na2vs0mg"},{"bike_id":"c3699109-171e-45c2-b815-34add3c597ab","system_id":"levelo_inurba_marseille","lat":43.28152,"lon":5.42653,"is_reserved":false,"is_disabled":false,"rental_uris":{"android":"levelo://app?vid=c3699109-171e-45c2-b815-34add3c597ab","ios":"levelo://app?vid=c3699109-171e-45c2-b815-34add3c597ab"},"vehicle_type_id":"4","last_reported":1740157699,"current_range_meters":18800,"station_id":"ce4bhnh2rcd13ifvqgug","pricing_plan_id":"cebpf4jnsgd1na2vs0mg"},{"bike_id":"79e05749-28b2-4c08-a76e-0b4f9be61774","system_id":"levelo_inurba_marseille","lat":43.26778,"lon":5.3944,"is_reserved":false,"is_disabled":false,"rental_uris":{"android":"levelo://app?vid=79e05749-28b2-4c08-a76e-0b4f9be61774","ios":"levelo://app?vid=79e05749-28b2-4c08-a76e-0b4f9be61774"},"vehicle_type_id":"4","last_reported":1740157699,"current_range_meters":18800,"station_id":"ce4bhh12rcd13ifvqfg0","pricing_plan_id":"cebpf4jnsgd1na2vs0mg"},{"bike_id":"8b52c24a-60e9-4f95-8f6d-a404db75239c","system_id":"levelo_inurba_marseille","lat":43.27377,"lon":5.36247,"is_reserved":false,"is_disabled":false,"rental_uris":{"android":"levelo://app?vid=8b52c24a-60e9-4f95-8f6d-a404db75239c","ios":"levelo://app?vid=8b52c24a-60e9-4f95-8f6d-a404db75239c"},"vehicle_type_id":"4","last_reported":1740157699,"current_range_meters":18800,"station_id":"ce4bhbh2rcd13ifvqeo0","pricing_plan_id":"cebpf4jnsgd1na2vs0mg"},{"bike_id":"4d642e8d-6d7c-4f5e-994a-f27c433c1d4d","system_id":"levelo_inurba_marseille","lat":43.28427,"lon":5.39186,"is_reserved":false,"is_disabled":false,"rental_uris":{"android":"levelo://app?vid=4d642e8d-6d7c-4f5e-994a-f27c433c1d4d","ios":"levelo://app?vid=4d642e8d-6d7c-4f5e-994a-f27c433c1d4d"},"vehicle_type_id":"4","last_reported":1740157699,"current_range_meters":18800,"station_id":"ce4bhoh2rcd13ifvqh5g","pricing_plan_id":"cebpf4jnsgd1na2vs0mg"},{"bike_id":"55d83311-f102-4789-8daf-90b800010504","system_id":"levelo_inurba_marseille","lat":43.27825,"lon":5.392,"is_reserved":false,"is_disabled":false,"rental_uris":{"android":"levelo://app?vid=55d83311-f102-4789-8daf-90b800010504","ios":"levelo://app?vid=55d83311-f102-4789-8daf-90b800010504"},"vehicle_type_id":"4","last_reported":1740157699,"current_range_meters":18800,"station_id":"ce4bhjp2rcd13ifvqga0","pricing_plan_id":"cebpf4jnsgd1na2vs0mg"},{"bike_id":"f8e3477a-82b0-423e-a05d-60f27e43e201","system_id":"levelo_inurba_marseille","lat":43.29799,"lon":5.38099,"is_reserved":false,"is_disabled":false,"rental_uris":{"android":"levelo://app?vid=f8e3477a-82b0-423e-a05d-60f27e43e201","ios":"levelo://app?vid=f8e3477a-82b0-423e-a05d-60f27e43e201"},"vehicle_type_id":"4","last_reported":1740157699,"current_range_meters":18800,"station_id":"ce4bgip2rcd13ifvqbb0","pricing_plan_id":"cebpf4jnsgd1na2vs0mg"},{"bike_id":"2d3f23fa-bad7-4200-80f7-b362d6d81e16","system_id":"levelo_inurba_marseille","lat":43.28158,"lon":5.42631,"is_reserved":false,"is_disabled":false,"rental_uris":{"android":"levelo://app?vid=2d3f23fa-bad7-4200-80f7-b362d6d81e16","ios":"levelo://app?vid=2d3f23fa-bad7-4200-80f7-b362d6d81e16"},"vehicle_type_id":"4","last_reported":1740157699,"current_range_meters":18800,"station_id":"ce4bhnh2rcd13ifvqgug","pricing_plan_id":"cebpf4jnsgd1na2vs0mg"},{"bike_id":"02f7cf53-adc2-4fc5-b688-df1d4a52c0de","system_id":"levelo_inurba_marseille","lat":43.29427,"lon":5.38629,"is_reserved":false,"is_disabled":false,"rental_uris":{"android":"levelo://app?vid=02f7cf53-adc2-4fc5-b688-df1d4a52c0de","ios":"levelo://app?vid=02f7cf53-adc2-4fc5-b688-df1d4a52c0de"},"vehicle_type_id":"4","last_reported":1740157699,"current_range_meters":18800,"station_id":"ce4bh2h2rcd13ifvqdh0","pricing_plan_id":"cebpf4jnsgd1na2vs0mg"},{"bike_id":"330d64ce-5713-4328-9727-7f6f0bc2e963","system_id":"levelo_inurba_marseille","lat":43.24061,"lon":5.3777,"is_reserved":false,"is_disabled":false,"rental_uris":{"android":"levelo://app?vid=330d64ce-5713-4328-9727-7f6f0bc2e963","ios":"levelo://app?vid=330d64ce-5713-4328-9727-7f6f0bc2e963"},"vehicle_type_id":"4","last_reported":1740157699,"current_range_meters":18800,"station_id":"ce4bhnp2rcd13ifvqgvg","pricing_plan_id":"cebpf4jnsgd1na2vs0mg"},{"bike_id":"854b39bc-37af-41a7-a407-43f07f27514c","system_id":"levelo_inurba_marseille","lat":43.29603,"lon":5.38096,"is_reserved":false,"is_disabled":false,"rental_uris":{"android":"levelo://app?vid=854b39bc-37af-41a7-a407-43f07f27514c","ios":"levelo://app?vid=854b39bc-37af-41a7-a407-43f07f27514c"},"vehicle_type_id":"4","last_reported":1740157699,"current_range_meters":18800,"station_id":"ce4bgl12rcd13ifvqbo0","pricing_plan_id":"cebpf4jnsgd1na2vs0mg"},{"bike_id":"1f7411cd-9379-4bab-a8bc-411b928d8602","system_id":"levelo_inurba_marseille","lat":43.27496,"lon":5.42458,"is_reserved":false,"is_disabled":false,"rental_uris":{"android":"levelo://app?vid=1f7411cd-9379-4bab-a8bc-411b928d8602","ios":"levelo://app?vid=1f7411cd-9379-4bab-a8bc-411b928d8602"},"vehicle_type_id":"4","last_reported":1740157699,"current_range_meters":19200,"station_id":"ce4bhn92rcd13ifvqgrg","pricing_plan_id":"cebpf4jnsgd1na2vs0mg"},{"bike_id":"1aa2f339-7b06-42de-a43d-3ce6d6da8a31","system_id":"levelo_inurba_marseille","lat":43.25114,"lon":5.40321,"is_reserved":false,"is_disabled":false,"rental_uris":{"android":"levelo://app?vid=1aa2f339-7b06-42de-a43d-3ce6d6da8a31","ios":"levelo://app?vid=1aa2f339-7b06-42de-a43d-3ce6d6da8a31"},"vehicle_type_id":"4","last_reported":1740157699,"current_range_meters":19200,"station_id":"ce4bhlh2rcd13ifvqgig","pricing_plan_id":"cebpf4jnsgd1na2vs0mg"},{"bike_id":"6897935d-90c4-4aaa-81bd-a334d1112cb3","system_id":"levelo_inurba_marseille","lat":43.2467,"lon":5.38154,"is_reserved":false,"is_disabled":false,"rental_uris":{"android":"levelo://app?vid=6897935d-90c4-4aaa-81bd-a334d1112cb3","ios":"levelo://app?vid=6897935d-90c4-4aaa-81bd-a334d1112cb3"},"vehicle_type_id":"4","last_reported":1740157699,"current_range_meters":19200,"station_id":"ce4bhih2rcd13ifvqfr0","pricing_plan_id":"cebpf4jnsgd1na2vs0mg"},{"bike_id":"69ba12ad-157d-49e7-a374-e97a5ac1b174","system_id":"levelo_inurba_marseille","lat":43.28934,"lon":5.36394,"is_reserved":false,"is_disabled":false,"rental_uris":{"android":"levelo://app?vid=69ba12ad-157d-49e7-a374-e97a5ac1b174","ios":"levelo://app?vid=69ba12ad-157d-49e7-a374-e97a5ac1b174"},"vehicle_type_id":"4","last_reported":1740157699,"current_range_meters":19200,"station_id":"ce4bhc92rcd13ifvqetg","pricing_plan_id":"cebpf4jnsgd1na2vs0mg"},{"bike_id":"fe12fee4-fba1-4412-87ff-7136c432c02e","system_id":"levelo_inurba_marseille","lat":43.298,"lon":5.40391,"is_reserved":false,"is_disabled":false,"rental_uris":{"android":"levelo://app?vid=fe12fee4-fba1-4412-87ff-7136c432c02e","ios":"levelo://app?vid=fe12fee4-fba1-4412-87ff-7136c432c02e"},"vehicle_type_id":"4","last_reported":1740157699,"current_range_meters":19200,"station_id":"ce4bh112rcd13ifvqd90","pricing_plan_id":"cebpf4jnsgd1na2vs0mg"},{"bike_id":"364f3e51-fd29-4ae7-837e-e9b95d49470c","system_id":"levelo_inurba_marseille","lat":43.301524,"lon":5.380822,"is_reserved":false,"is_disabled":false,"rental_uris":{"android":"levelo://app?vid=364f3e51-fd29-4ae7-837e-e9b95d49470c","ios":"levelo://app?vid=364f3e51-fd29-4ae7-837e-e9b95d49470c"},"vehicle_type_id":"4","last_reported":1740157699,"current_range_meters":19200,"station_id":"ce4bgjp2rcd13ifvqbh0","pricing_plan_id":"cebpf4jnsgd1na2vs0mg"},{"bike_id":"8c20ab15-f04e-4e58-be71-0abf1d05d250","system_id":"levelo_inurba_marseille","lat":43.23962,"lon":5.36615,"is_reserved":false,"is_disabled":false,"rental_uris":{"android":"levelo://app?vid=8c20ab15-f04e-4e58-be71-0abf1d05d250","ios":"levelo://app?vid=8c20ab15-f04e-4e58-be71-0abf1d05d250"},"vehicle_type_id":"4","last_reported":1740157699,"current_range_meters":19200,"station_id":"ce4bhi12rcd13ifvqfp0","pricing_plan_id":"cebpf4jnsgd1na2vs0mg"},{"bike_id":"764b177b-c16e-469e-9836-cdf4d1ab9313","system_id":"levelo_inurba_marseille","lat":43.29297,"lon":5.37465,"is_reserved":false,"is_disabled":false,"rental_uris":{"android":"levelo://app?vid=764b177b-c16e-469e-9836-cdf4d1ab9313","ios":"levelo://app?vid=764b177b-c16e-469e-9836-cdf4d1ab9313"},"vehicle_type_id":"4","last_reported":1740157699,"current_range_meters":19200,"station_id":"ce4bgi12rcd13ifvqb70","pricing_plan_id":"cebpf4jnsgd1na2vs0mg"},{"bike_id":"1b34faa4-a592-4e9c-8183-46ceb41d7473","system_id":"levelo_inurba_marseille","lat":43.31182,"lon":5.38721,"is_reserved":false,"is_disabled":false,"rental_uris":{"android":"levelo://app?vid=1b34faa4-a592-4e9c-8183-46ceb41d7473","ios":"levelo://app?vid=1b34faa4-a592-4e9c-8183-46ceb41d7473"},"vehicle_type_id":"4","last_reported":1740157699,"current_range_meters":19200,"station_id":"ce4bgv12rcd13ifvqcp0","pricing_plan_id":"cebpf4jnsgd1na2vs0mg"},{"bike_id":"e3492605-7899-4afd-99e1-b0fa400914f8","system_id":"levelo_inurba_marseille","lat":43.26956,"lon":5.38634,"is_reserved":false,"is_disabled":false,"rental_uris":{"android":"levelo://app?vid=e3492605-7899-4afd-99e1-b0fa400914f8","ios":"levelo://app?vid=e3492605-7899-4afd-99e1-b0fa400914f8"},"vehicle_type_id":"4","last_reported":1740157699,"current_range_meters":19200,"station_id":"ce4bhh92rcd13ifvqfh0","pricing_plan_id":"cebpf4jnsgd1na2vs0mg"},{"bike_id":"ab46b189-6bae-4129-a7fd-10b3ccd5a48e","system_id":"levelo_inurba_marseille","lat":43.2718,"lon":5.40004,"is_reserved":false,"is_disabled":false,"rental_uris":{"android":"levelo://app?vid=ab46b189-6bae-4129-a7fd-10b3ccd5a48e","ios":"levelo://app?vid=ab46b189-6bae-4129-a7fd-10b3ccd5a48e"},"vehicle_type_id":"4","last_reported":1740157699,"current_range_meters":19200,"station_id":"","pricing_plan_id":"cebpf4jnsgd1na2vs0mg"},{"bike_id":"f5298310-14cd-4aed-bc3f-841e7d37dcf5","system_id":"levelo_inurba_marseille","lat":43.32649,"lon":5.40985,"is_reserved":false,"is_disabled":true,"rental_uris":{"android":"levelo://app?vid=f5298310-14cd-4aed-bc3f-841e7d37dcf5","ios":"levelo://app?vid=f5298310-14cd-4aed-bc3f-841e7d37dcf5"},"vehicle_type_id":"4","last_reported":1740157699,"current_range_meters":19200,"station_id":"ce4bhpp2rcd13ifvqhgg","pricing_plan_id":"cebpf4jnsgd1na2vs0mg"},{"bike_id":"8e092e3b-9bc2-43fe-ae0c-18b50e3239ce","system_id":"levelo_inurba_marseille","lat":43.29063,"lon":5.37157,"is_reserved":false,"is_disabled":false,"rental_uris":{"android":"levelo://app?vid=8e092e3b-9bc2-43fe-ae0c-18b50e3239ce","ios":"levelo://app?vid=8e092e3b-9bc2-43fe-ae0c-18b50e3239ce"},"vehicle_type_id":"4","last_reported":1740157699,"current_range_meters":19200,"station_id":"ce4bh5p2rcd13ifvqe4g","pricing_plan_id":"cebpf4jnsgd1na2vs0mg"},{"bike_id":"11702b8a-a35d-41db-b457-a50349a711d9","system_id":"levelo_inurba_marseille","lat":43.29805,"lon":5.38077,"is_reserved":false,"is_disabled":false,"rental_uris":{"android":"levelo://app?vid=11702b8a-a35d-41db-b457-a50349a711d9","ios":"levelo://app?vid=11702b8a-a35d-41db-b457-a50349a711d9"},"vehicle_type_id":"4","last_reported":1740157699,"current_range_meters":19200,"station_id":"ce4bgip2rcd13ifvqbb0","pricing_plan_id":"cebpf4jnsgd1na2vs0mg"},{"bike_id":"427c6192-3f4e-4564-b791-336d66ca8e71","system_id":"levelo_inurba_marseille","lat":43.29254,"lon":5.38441,"is_reserved":false,"is_disabled":false,"rental_uris":{"android":"levelo://app?vid=427c6192-3f4e-4564-b791-336d66ca8e71","ios":"levelo://app?vid=427c6192-3f4e-4564-b791-336d66ca8e71"},"vehicle_type_id":"4","last_reported":1740157699,"current_range_meters":19600,"station_id":"ce4bh692rcd13ifvqea0","pricing_plan_id":"cebpf4jnsgd1na2vs0mg"},{"bike_id":"53958b02-6ad4-4696-a359-e5688e468b19","system_id":"levelo_inurba_marseille","lat":43.29226,"lon":5.36071,"is_reserved":false,"is_disabled":false,"rental_uris":{"android":"levelo://app?vid=53958b02-6ad4-4696-a359-e5688e468b19","ios":"levelo://app?vid=53958b02-6ad4-4696-a359-e5688e468b19"},"vehicle_type_id":"4","last_reported":1740157699,"current_range_meters":19600,"station_id":"ce4bhbh2rcd13ifvqeqg","pricing_plan_id":"cebpf4jnsgd1na2vs0mg"},{"bike_id":"a1c01076-4fd8-47a8-9d35-05b133e10a05","system_id":"levelo_inurba_marseille","lat":43.30088,"lon":5.38229,"is_reserved":false,"is_disabled":false,"rental_uris":{"android":"levelo://app?vid=a1c01076-4fd8-47a8-9d35-05b133e10a05","ios":"levelo://app?vid=a1c01076-4fd8-47a8-9d35-05b133e10a05"},"vehicle_type_id":"4","last_reported":1740157699,"current_range_meters":19600,"station_id":"ce4bgj92rcd13ifvqbd0","pricing_plan_id":"cebpf4jnsgd1na2vs0mg"},{"bike_id":"38f9bc40-639e-4f64-87e9-15092cc7344e","system_id":"levelo_inurba_marseille","lat":43.34412,"lon":5.38159,"is_reserved":false,"is_disabled":false,"rental_uris":{"android":"levelo://app?vid=38f9bc40-639e-4f64-87e9-15092cc7344e","ios":"levelo://app?vid=38f9bc40-639e-4f64-87e9-15092cc7344e"},"vehicle_type_id":"4","last_reported":1740157699,"current_range_meters":19600,"station_id":"","pricing_plan_id":"cebpf4jnsgd1na2vs0mg"},{"bike_id":"d627e1d1-b30a-47c1-966b-4b3cb6397049","system_id":"levelo_inurba_marseille","lat":43.28154,"lon":5.42641,"is_reserved":false,"is_disabled":false,"rental_uris":{"android":"levelo://app?vid=d627e1d1-b30a-47c1-966b-4b3cb6397049","ios":"levelo://app?vid=d627e1d1-b30a-47c1-966b-4b3cb6397049"},"vehicle_type_id":"4","last_reported":1740157699,"current_range_meters":19600,"station_id":"ce4bhnh2rcd13ifvqgug","pricing_plan_id":"cebpf4jnsgd1na2vs0mg"},{"bike_id":"9c05d086-6115-4558-8b92-9ecf9a0b2115","system_id":"levelo_inurba_marseille","lat":43.29023,"lon":5.38628,"is_reserved":false,"is_disabled":false,"rental_uris":{"android":"levelo://app?vid=9c05d086-6115-4558-8b92-9ecf9a0b2115","ios":"levelo://app?vid=9c05d086-6115-4558-8b92-9ecf9a0b2115"},"vehicle_type_id":"4","last_reported":1740157699,"current_range_meters":19600,"station_id":"ce4bh4p2rcd13ifvqe0g","pricing_plan_id":"cebpf4jnsgd1na2vs0mg"},{"bike_id":"000ba060-d333-4e07-9b82-25c3408a5325","system_id":"levelo_inurba_marseille","lat":43.29591,"lon":5.36739,"is_reserved":false,"is_disabled":false,"rental_uris":{"android":"levelo://app?vid=000ba060-d333-4e07-9b82-25c3408a5325","ios":"levelo://app?vid=000ba060-d333-4e07-9b82-25c3408a5325"},"vehicle_type_id":"4","last_reported":1740157699,"current_range_meters":19600,"station_id":"ce4bgph2rcd13ifvqc2g","pricing_plan_id":"cebpf4jnsgd1na2vs0mg"},{"bike_id":"e01dfe29-6dfb-48cd-936c-078e409f7481","system_id":"levelo_inurba_marseille","lat":43.2843,"lon":5.34995,"is_reserved":false,"is_disabled":false,"rental_uris":{"android":"levelo://app?vid=e01dfe29-6dfb-48cd-936c-078e409f7481","ios":"levelo://app?vid=e01dfe29-6dfb-48cd-936c-078e409f7481"},"vehicle_type_id":"4","last_reported":1740157699,"current_range_meters":20000,"station_id":"ce4bhbh2rcd13ifvqepg","pricing_plan_id":"cebpf4jnsgd1na2vs0mg"},{"bike_id":"c2a577a3-44a6-426d-aac1-5124994319eb","system_id":"levelo_inurba_marseille","lat":43.27995,"lon":5.40004,"is_reserved":false,"is_disabled":false,"rental_uris":{"android":"levelo://app?vid=c2a577a3-44a6-426d-aac1-5124994319eb","ios":"levelo://app?vid=c2a577a3-44a6-426d-aac1-5124994319eb"},"vehicle_type_id":"4","last_reported":1740157699,"current_range_meters":20000,"station_id":"ce4bho92rcd13ifvqh4g","pricing_plan_id":"cebpf4jnsgd1na2vs0mg"},{"bike_id":"9c02c790-b192-4e12-985d-8db6d2ac71fb","system_id":"levelo_inurba_marseille","lat":43.31881,"lon":5.40731,"is_reserved":false,"is_disabled":false,"rental_uris":{"android":"levelo://app?vid=9c02c790-b192-4e12-985d-8db6d2ac71fb","ios":"levelo://app?vid=9c02c790-b192-4e12-985d-8db6d2ac71fb"},"vehicle_type_id":"4","last_reported":1740157699,"current_range_meters":20000,"station_id":"ce4bhq12rcd13ifvqhig","pricing_plan_id":"cebpf4jnsgd1na2vs0mg"},{"bike_id":"3d154919-4a7e-42a6-b177-27fad933cbeb","system_id":"levelo_inurba_marseille","lat":43.272123,"lon":5.391882,"is_reserved":false,"is_disabled":false,"rental_uris":{"android":"levelo://app?vid=3d154919-4a7e-42a6-b177-27fad933cbeb","ios":"levelo://app?vid=3d154919-4a7e-42a6-b177-27fad933cbeb"},