{"last_updated":1705199220,"ttl":30,"version":"2.2","data":{"bikes":[{"bike_id":"ba6a403d-7cb6-4f24-b3f7-66064ba92c75","system_id":"levelo_inurba_marseille","lat":43.31341,"lon":5.367098,"is_reserved":false,"is_disabled":false,"rental_uris":{"android":"levelo://app?vid=ba6a403d-7cb6-4f24-b3f7-66064ba92c75","ios":"levelo://app?vid=ba6a403d-7cb6-4f24-b3f7-66064ba92c75"},"vehicle_type_id":"4","last_reported":1705199221,"current_range_meters":27200,"station_id":"ce4bgr92rcd13ifvqc6g","pricing_plan_id":"free"},{"bike_id":"986e7ad2-fc55-4994-bb46-050e7f1a0ef7","system_id":"levelo_inurba_marseille","lat":43.31341,"lon":5.367098,"is_reserved":false,"is_disabled":false,"rental_uris":{"android":"levelo://app?vid=986e7ad2-fc55-4994-bb46-050e7f1a0ef7","ios":"levelo://app?vid=986e7ad2-fc55-4994-bb46-050e7f1a0ef7"},"vehicle_type_id":"4","last_reported":1705199221,"current_range_meters":28800,"station_id":"ce4bgr92rcd13ifvqc6g","pricing_plan_id":"free"},{"bike_id":"3df21422-423b-41c0-9fb9-9b2c18a53dda","system_id":"levelo_inurba_marseille","lat":43.3123,"lon":5.36878,"is_reserved":false,"is_disabled":false,"rental_uris":{"android":"levelo://app?vid=3df21422-423b-41c0-9fb9-9b2c18a53dda","ios":"levelo://app?vid=3df21422-423b-41c0-9fb9-9b2c18a53dda"},"vehicle_type_id":"4","last_reported":1705199221,"current_range_meters":0,"station_id":"","pricing_plan_id":"free"},{"bike_id":"655f725b-9d4e-44f7-93c6-eaf6dcb71265","system_id":"levelo_inurba_marseille","lat":43.309064,"lon":5.368563,"is_reserved":false,"is_disabled":false,"rental_uris":{"android":"levelo://app?vid=655f725b-9d4e-44f7-93c6-eaf6dcb71265","ios":"levelo://app?vid=655f725b-9d4e-44f7-93c6-eaf6dcb71265"},"vehicle_type_id":"4","last_reported":1705199221,"current_range_meters":1600,"station_id":"ce4bgn92rcd13ifvqbvg","pricing_plan_id":"free"},{"bike_id":"e63d5272-3556-4994-a099-fbe9a283da73","system_id":"levelo_inurba_marseille","lat":43.31503,"lon":5.37288,"is_reserved":false,"is_disabled":false,"rental_uris":{"android":"levelo://app?vid=e63d5272-3556-4994-a099-fbe9a283da73","ios":"levelo://app?vid=e63d5272-3556-4994-a099-fbe9a283da73"},"vehicle_type_id":"4","last_reported":1705199221,"current_range_meters":10800,"station_id":"ce4bgt12rcd13ifvqcd0","pricing_plan_id":"free"},{"bike_id":"2751fe63-7b8e-4a23-aa70-8680c00ee2b6","system_id":"levelo_inurba_marseille","lat":43.310198,"lon":5.373101,"is_reserved":false,"is_disabled":false,"rental_uris":{"android":"levelo://app?vid=2751fe63-7b8e-4a23-aa70-8680c00ee2b6","ios":"levelo://app?vid=2751fe63-7b8e-4a23-aa70-8680c00ee2b6"},"vehicle_type_id":"4","last_reported":1705199221,"current_range_meters":14000,"station_id":"","pricing_plan_id":"free"},{"bike_id":"5252161c-94af-407f-b991-1a77eb6b46aa","system_id":"levelo_inurba_marseille","lat":43.309039,"lon":5.371797,"is_reserved":false,"is_disabled":false,"rental_uris":{"android":"levelo://app?vid=5252161c-94af-407f-b991-1a77eb6b46aa","ios":"levelo://app?vid=5252161c-94af-407f-b991-1a77eb6b46aa"},"vehicle_type_id":"4","last_reported":1705199221,"current_range_meters":28800,"station_id":"ce4bguh2rcd13ifvqckg","pricing_plan_id":"free"},{"bike_id":"78a0b2f2-5f04-4d38-b29c-fc399ce7541b","system_id":"levelo_inurba_marseille","lat":43.305368,"lon":5.367343,"is_reserved":false,"is_disabled":false,"rental_uris":{"android":"levelo://app?vid=78a0b2f2-5f04-4d38-b29c-fc399ce7541b","ios":"levelo://app?vid=78a0b2f2-5f04-4d38-b29c-fc399ce7541b"},"vehicle_type_id":"4","last_reported":1705199221,"current_range_meters":0,"station_id":"ce4bgrp2rcd13ifvqc9g","pricing_plan_id":"free"},{"bike_id":"345ee05c-9c64-43cf-984a-2435ebe4dca3","system_id":"levelo_inurba_marseille","lat":43.305989,"lon":5.37225,"is_reserved":false,"is_disabled":false,"rental_uris":{"android":"levelo://app?vid=345ee05c-9c64-43cf-984a-2435ebe4dca3","ios":"levelo://app?vid=345ee05c-9c64-43cf-984a-2435ebe4dca3"},"vehicle_type_id":"4","last_reported":1705199221,"current_range_meters":15200,"station_id":"ce4bgqh2rcd13ifvqc4g","pricing_plan_id":"free"},{"bike_id":"7adcf20d-64eb-42ae-b811-a9bae5499516","system_id":"levelo_inurba_marseille","lat":43.311192,"lon":5.37759,"is_reserved":false,"is_disabled":false,"rental_uris":{"android":"levelo://app?vid=7adcf20d-64eb-42ae-b811-a9bae5499516","ios":"levelo://app?vid=7adcf20d-64eb-42ae-b811-a9bae5499516"},"vehicle_type_id":"4","last_reported":1705199221,"current_range_meters":31200,"station_id":"ce4bgt92rcd13ifvqcg0","pricing_plan_id":"free"},{"bike_id":"e92e0c86-54d2-4029-be4f-dd5fa7792bbb","system_id":"levelo_inurba_marseille","lat":43.31116,"lon":5.3776,"is_reserved":false,"is_disabled":false,"rental_uris":{"android":"levelo://app?vid=e92e0c86-54d2-4029-be4f-dd5fa7792bbb","ios":"levelo://app?vid=e92e0c86-54d2-4029-be4f-dd5fa7792bbb"},"vehicle_type_id":"4","last_reported":1705199221,"current_range_meters":26800,"station_id":"ce4bgt92rcd13ifvqcg0","pricing_plan_id":"free"},{"bike_id":"3aafbc2c-5e37-422b-969c-5581fcfe5910","system_id":"levelo_inurba_marseille","lat":43.311125,"lon":5.377624,"is_reserved":false,"is_disabled":false,"rental_uris":{"android":"levelo://app?vid=3aafbc2c-5e37-422b-969c-5581fcfe5910","ios":"levelo://app?vid=3aafbc2c-5e37-422b-969c-5581fcfe5910"},"vehicle_type_id":"4","last_reported":1705199221,"current_range_meters":28800,"station_id":"ce4bgt92rcd13ifvqcg0","pricing_plan_id":"free"},{"bike_id":"cdd7afca-6010-4fc7-a707-8091953d0a6c","system_id":"levelo_inurba_marseille","lat":43.311226,"lon":5.37764,"is_reserved":false,"is_disabled":false,"rental_uris":{"android":"levelo://app?vid=cdd7afca-6010-4fc7-a707-8091953d0a6c","ios":"levelo://app?vid=cdd7afca-6010-4fc7-a707-8091953d0a6c"},"vehicle_type_id":"4","last_reported":1705199221,"current_range_meters":31200,"station_id":"ce4bgt92rcd13ifvqcg0","pricing_plan_id":"free"},{"bike_id":"ff69e8d0-2939-46b6-a638-d9cd4ad70131","system_id":"levelo_inurba_marseille","lat":43.311125,"lon":5.377624,"is_reserved":false,"is_disabled":false,"rental_uris":{"android":"levelo://app?vid=ff69e8d0-2939-46b6-a638-d9cd4ad70131","ios":"levelo://app?vid=ff69e8d0-2939-46b6-a638-d9cd4ad70131"},"vehicle_type_id":"4","last_reported":1705199221,"current_range_meters":21200,"station_id":"ce4bgt92rcd13ifvqcg0","pricing_plan_id":"free"},{"bike_id":"bd36a8fd-d823-4625-891b-4847100e8c86","system_id":"levelo_inurba_marseille","lat":43.311125,"lon":5.377624,"is_reserved":false,"is_disabled":false,"rental_uris":{"android":"levelo://app?vid=bd36a8fd-d823-4625-891b-4847100e8c86","ios":"levelo://app?vid=bd36a8fd-d823-4625-891b-4847100e8c86"},"vehicle_type_id":"4","last_reported":1705199221,"current_range_meters":30800,"station_id":"ce4bgt92rcd13ifvqcg0","pricing_plan_id":"free"},{"bike_id":"4c1d1fa2-2dd4-4d42-8b9b-577e16dbecb3","system_id":"levelo_inurba_marseille","lat":43.307945,"lon":5.376487,"is_reserved":false,"is_disabled":false,"rental_uris":{"android":"levelo://app?vid=4c1d1fa2-2dd4-4d42-8b9b-577e16dbecb3","ios":"levelo://app?vid=4c1d1fa2-2dd4-4d42-8b9b-577e16dbecb3"},"vehicle_type_id":"4","last_reported":1705199221,"current_range_meters":30400,"station_id":"ce4bgv92rcd13ifvqcq0","pricing_plan_id":"free"},{"bike_id":"849ed82e-16c3-4590-a1b1-42c7f46fc22e","system_id":"levelo_inurba_marseille","lat":43.307945,"lon":5.376487,"is_reserved":false,"is_disabled":false,"rental_uris":{"android":"levelo://app?vid=849ed82e-16c3-4590-a1b1-42c7f46fc22e","ios":"levelo://app?vid=849ed82e-16c3-4590-a1b1-42c7f46fc22e"},"vehicle_type_id":"4","last_reported":1705199221,"current_range_meters":25600,"station_id":"ce4bgv92rcd13ifvqcq0","pricing_plan_id":"free"},{"bike_id":"562920bb-b653-4608-ac5f-df82f597db71","system_id":"levelo_inurba_marseille","lat":43.317075,"lon":5.377367,"is_reserved":false,"is_disabled":false,"rental_uris":{"android":"levelo://app?vid=562920bb-b653-4608-ac5f-df82f597db71","ios":"levelo://app?vid=562920bb-b653-4608-ac5f-df82f597db71"},"vehicle_type_id":"4","last_reported":1705199221,"current_range_meters":16000,"station_id":"ce4bgth2rcd13ifvqch0","pricing_plan_id":"free"},{"bike_id":"bce7b487-55ba-46f5-b195-dcb8542c530c","system_id":"levelo_inurba_marseille","lat":43.317075,"lon":5.377367,"is_reserved":false,"is_disabled":false,"rental_uris":{"android":"levelo://app?vid=bce7b487-55ba-46f5-b195-dcb8542c530c","ios":"levelo://app?vid=bce7b487-55ba-46f5-b195-dcb8542c530c"},"vehicle_type_id":"4","last_reported":1705199221,"current_range_meters":25200,"station_id":"ce4bgth2rcd13ifvqch0","pricing_plan_id":"free"},{"bike_id":"fbbf339d-267d-4d2f-96dc-9fbf35cb5b47","system_id":"levelo_inurba_marseille","lat":43.317075,"lon":5.377367,"is_reserved":false,"is_disabled":false,"rental_uris":{"android":"levelo://app?vid=fbbf339d-267d-4d2f-96dc-9fbf35cb5b47","ios":"levelo://app?vid=fbbf339d-267d-4d2f-96dc-9fbf35cb5b47"},"vehicle_type_id":"4","last_reported":1705199221,"current_range_meters":25600,"station_id":"ce4bgth2rcd13ifvqch0","pricing_plan_id":"free"},{"bike_id":"91c21cf4-a5c3-4ef0-a2b2-4cc452c3c652","system_id":"levelo_inurba_marseille","lat":43.317075,"lon":5.377367,"is_reserved":false,"is_disabled":false,"rental_uris":{"android":"levelo://app?vid=91c21cf4-a5c3-4ef0-a2b2-4cc452c3c652","ios":"levelo://app?vid=91c21cf4-a5c3-4ef0-a2b2-4cc452c3c652"},"vehicle_type_id":"4","last_reported":1705199221,"current_range_meters":25600,"station_id":"ce4bgth2rcd13ifvqch0","pricing_plan_id":"free"},{"bike_id":"7952ed5c-eb27-43ef-91f0-7c8377791ff0","system_id":"levelo_inurba_marseille","lat":43.3127,"lon":5.37956,"is_reserved":false,"is_disabled":false,"rental_uris":{"android":"levelo://app?vid=7952ed5c-eb27-43ef-91f0-7c8377791ff0","ios":"levelo://app?vid=7952ed5c-eb27-43ef-91f0-7c8377791ff0"},"vehicle_type_id":"4","last_reported":1705199221,"current_range_meters":16800,"station_id":"","pricing_plan_id":"free"},{"bike_id":"e2f951cc-9aee-4f96-8ab6-62b3c48ffdcc","system_id":"levelo_inurba_marseille","lat":43.30304,"lon":5.368987,"is_reserved":false,"is_disabled":false,"rental_uris":{"android":"levelo://app?vid=e2f951cc-9aee-4f96-8ab6-62b3c48ffdcc","ios":"levelo://app?vid=e2f951cc-9aee-4f96-8ab6-62b3c48ffdcc"},"vehicle_type_id":"4","last_reported":1705199221,"current_range_meters":12800,"station_id":"ce4bgqh2rcd13ifvqc5g","pricing_plan_id":"free"},{"bike_id":"5a94a242-3d66-41a5-98df-6ff31d677021","system_id":"levelo_inurba_marseille","lat":43.302958,"lon":5.367517,"is_reserved":false,"is_disabled":false,"rental_uris":{"android":"levelo://app?vid=5a94a242-3d66-41a5-98df-6ff31d677021","ios":"levelo://app?vid=5a94a242-3d66-41a5-98df-6ff31d677021"},"vehicle_type_id":"4","last_reported":1705199221,"current_range_meters":26400,"station_id":"","pricing_plan_id":"free"},{"bike_id":"ea64b515-6e9c-43d6-a02b-a21fbef5aee1","system_id":"levelo_inurba_marseille","lat":43.315313,"lon":5.380337,"is_reserved":false,"is_disabled":false,"rental_uris":{"android":"levelo://app?vid=ea64b515-6e9c-43d6-a02b-a21fbef5aee1","ios":"levelo://app?vid=ea64b515-6e9c-43d6-a02b-a21fbef5aee1"},"vehicle_type_id":"4","last_reported":1705199221,"current_range_meters":8800,"station_id":"ce4bhsp2rcd13ifvqi50","pricing_plan_id":"free"},{"bike_id":"88ccd902-4606-478a-a38a-fddee0a51be8","system_id":"levelo_inurba_marseille","lat":43.301939,"lon":5.366286,"is_reserved":false,"is_disabled":false,"rental_uris":{"android":"levelo://app?vid=88ccd902-4606-478a-a38a-fddee0a51be8","ios":"levelo://app?vid=88ccd902-4606-478a-a38a-fddee0a51be8"},"vehicle_type_id":"4","last_reported":1705199221,"current_range_meters":27600,"station_id":"ce4bgrh2rcd13ifvqc8g","pricing_plan_id":"free"},{"bike_id":"345a627b-5c6c-40cb-a82a-3b877a91e2a7","system_id":"levelo_inurba_marseille","lat":43.308116,"lon":5.381492,"is_reserved":false,"is_disabled":false,"rental_uris":{"android":"levelo://app?vid=345a627b-5c6c-40cb-a82a-3b877a91e2a7","ios":"levelo://app?vid=345a627b-5c6c-40cb-a82a-3b877a91e2a7"},"vehicle_type_id":"4","last_reported":1705199221,"current_range_meters":27600,"station_id":"ce4bgt12rcd13ifvqce0","pricing_plan_id":"free"},{"bike_id":"440da0b1-e0c0-44a3-94e6-4049db5e924e","system_id":"levelo_inurba_marseille","lat":43.308012,"lon":5.381511,"is_reserved":false,"is_disabled":false,"rental_uris":{"android":"levelo://app?vid=440da0b1-e0c0-44a3-94e6-4049db5e924e","ios":"levelo://app?vid=440da0b1-e0c0-44a3-94e6-4049db5e924e"},"vehicle_type_id":"4","last_reported":1705199221,"current_range_meters":32000,"station_id":"ce4bgt12rcd13ifvqce0","pricing_plan_id":"free"},{"bike_id":"dccf6c13-567e-4a61-8e6d-699cdfe573dd","system_id":"levelo_inurba_marseille","lat":43.308012,"lon":5.381511,"is_reserved":false,"is_disabled":false,"rental_uris":{"android":"levelo://app?vid=dccf6c13-567e-4a61-8e6d-699cdfe573dd","ios":"levelo://app?vid=dccf6c13-567e-4a61-8e6d-699cdfe573dd"},"vehicle_type_id":"4","last_reported":1705199221,"current_range_meters":14400,"station_id":"ce4bgt12rcd13ifvqce0","pricing_plan_id":"free"},{"bike_id":"754f837b-73f8-43a7-a9d2-16eb79672659","system_id":"levelo_inurba_marseille","lat":43.308012,"lon":5.381511,"is_reserved":false,"is_disabled":false,"rental_uris":{"android":"levelo://app?vid=754f837b-73f8-43a7-a9d2-16eb79672659","ios":"levelo://app?vid=754f837b-73f8-43a7-a9d2-16eb79672659"},"vehicle_type_id":"4","last_reported":1705199221,"current_range_meters":21600,"station_id":"ce4bgt12rcd13ifvqce0","pricing_plan_id":"free"},{"bike_id":"293e37d9-e404-4e5a-a785-a7be075c00c0","system_id":"levelo_inurba_marseille","lat":43.308012,"lon":5.381511,"is_reserved":false,"is_disabled":false,"rental_uris":{"android":"levelo://app?vid=293e37d9-e404-4e5a-a785-a7be075c00c0","ios":"levelo://app?vid=293e37d9-e404-4e5a-a785-a7be075c00c0"},"vehicle_type_id":"4","last_reported":1705199221,"current_range_meters":30000,"station_id":"ce4bgt12rcd13ifvqce0","pricing_plan_id":"free"},{"bike_id":"e8b7049b-fe29-483e-a226-1593a890fcf6","system_id":"levelo_inurba_marseille","lat":43.308012,"lon":5.381511,"is_reserved":false,"is_disabled":false,"rental_uris":{"android":"levelo://app?vid=e8b7049b-fe29-483e-a226-1593a890fcf6","ios":"levelo://app?vid=e8b7049b-fe29-483e-a226-1593a890fcf6"},"vehicle_type_id":"4","last_reported":1705199221,"current_range_meters":16000,"station_id":"ce4bgt12rcd13ifvqce0","pricing_plan_id":"free"},{"bike_id":"12424810-1867-4c56-9c6d-93e2a78fa2a5","system_id":"levelo_inurba_marseille","lat":43.308012,"lon":5.381511,"is_reserved":false,"is_disabled":false,"rental_uris":{"android":"levelo://app?vid=12424810-1867-4c56-9c6d-93e2a78fa2a5","ios":"levelo://app?vid=12424810-1867-4c56-9c6d-93e2a78fa2a5"},"vehicle_type_id":"4","last_reported":1705199221,"current_range_meters":23600,"station_id":"ce4bgt12rcd13ifvqce0","pricing_plan_id":"free"},{"bike_id":"950af946-0c30-472d-a18a-ac6e9eaa0ab9","system_id":"levelo_inurba_marseille","lat":43.300827,"lon":5.365856,"is_reserved":false,"is_disabled":false,"rental_uris":{"android":"levelo://app?vid=950af946-0c30-472d-a18a-ac6e9eaa0ab9","ios":"levelo://app?vid=950af946-0c30-472d-a18a-ac6e9eaa0ab9"},"vehicle_type_id":"4","last_reported":1705199221,"current_range_meters":0,"station_id":"","pricing_plan_id":"free"},{"bike_id":"0eecf0b3-c1b0-4339-ae72-655c9893aacf","system_id":"levelo_inurba_marseille","lat":43.324771,"lon":5.36557,"is_reserved":false,"is_disabled":false,"rental_uris":{"android":"levelo://app?vid=0eecf0b3-c1b0-4339-ae72-655c9893aacf","ios":"levelo://app?vid=0eecf0b3-c1b0-4339-ae72-655c9893aacf"},"vehicle_type_id":"4","last_reported":1705199221,"current_range_meters":14800,"station_id":"ce4bhs12rcd13ifvqhvg","pricing_plan_id":"free"},{"bike_id":"0bbe5a65-d2d8-4186-a205-dcf06b248c1c","system_id":"levelo_inurba_marseille","lat":43.324771,"lon":5.36557,"is_reserved":false,"is_disabled":false,"rental_uris":{"android":"levelo://app?vid=0bbe5a65-d2d8-4186-a205-dcf06b248c1c","ios":"levelo://app?vid=0bbe5a65-d2d8-4186-a205-dcf06b248c1c"},"vehicle_type_id":"4","last_reported":1705199221,"current_range_meters":28800,"station_id":"ce4bhs12rcd13ifvqhvg","pricing_plan_id":"free"},{"bike_id":"f84f59aa-9755-4cff-b94f-3aaeb709a4a2","system_id":"levelo_inurba_marseille","lat":43.324771,"lon":5.36557,"is_reserved":false,"is_disabled":false,"rental_uris":{"android":"levelo://app?vid=f84f59aa-9755-4cff-b94f-3aaeb709a4a2","ios":"levelo://app?vid=f84f59aa-9755-4cff-b94f-3aaeb709a4a2"},"vehicle_type_id":"4","last_reported":1705199221,"current_range_meters":21200,"station_id":"ce4bhs12rcd13ifvqhvg","pricing_plan_id":"free"},{"bike_id":"856edf7a-aaa6-41b9-aa0b-eb1ca0eb6eeb","system_id":"levelo_inurba_marseille","lat":43.324771,"lon":5.36557,"is_reserved":false,"is_disabled":false,"rental_uris":{"android":"levelo://app?vid=856edf7a-aaa6-41b9-aa0b-eb1ca0eb6eeb","ios":"levelo://app?vid=856edf7a-aaa6-41b9-aa0b-eb1ca0eb6eeb"},"vehicle_type_id":"4","last_reported":1705199221,"current_range_meters":21600,"station_id":"ce4bhs12rcd13ifvqhvg","pricing_plan_id":"free"},{"bike_id":"24e2ed86-0c59-4f9e-ab8c-6ecdae9ff478","system_id":"levelo_inurba_marseille","lat":43.302791,"lon":5.376909,"is_reserved":false,"is_disabled":false,"rental_uris":{"android":"levelo://app?vid=24e2ed86-0c59-4f9e-ab8c-6ecdae9ff478","ios":"levelo://app?vid=24e2ed86-0c59-4f9e-ab8c-6ecdae9ff478"},"vehicle_type_id":"4","last_reported":1705199221,"current_range_meters":0,"station_id":"","pricing_plan_id":"free"},{"bike_id":"4d96336c-d500-4aaf-9895-d040b569ff11","system_id":"levelo_inurba_marseille","lat":43.30283,"lon":5.377005,"is_reserved":false,"is_disabled":false,"rental_uris":{"android":"levelo://app?vid=4d96336c-d500-4aaf-9895-d040b569ff11","ios":"levelo://app?vid=4d96336c-d500-4aaf-9895-d040b569ff11"},"vehicle_type_id":"4","last_reported":1705199221,"current_range_meters":11600,"station_id":"","pricing_plan_id":"free"},{"bike_id":"06c08f07-7cd9-49ac-9fea-0bc9bbb00efb","system_id":"levelo_inurba_marseille","lat":43.302791,"lon":5.376995,"is_reserved":false,"is_disabled":false,"rental_uris":{"android":"levelo://app?vid=06c08f07-7cd9-49ac-9fea-0bc9bbb00efb","ios":"levelo://app?vid=06c08f07-7cd9-49ac-9fea-0bc9bbb00efb"},"vehicle_type_id":"4","last_reported":1705199221,"current_range_meters":19600,"station_id":"","pricing_plan_id":"free"},{"bike_id":"fc2fe520-5707-44f6-9ea6-7c2e23ee9b31","system_id":"levelo_inurba_marseille","lat":43.30274,"lon":5.37716,"is_reserved":false,"is_disabled":false,"rental_uris":{"android":"levelo://app?vid=fc2fe520-5707-44f6-9ea6-7c2e23ee9b31","ios":"levelo://app?vid=fc2fe520-5707-44f6-9ea6-7c2e23ee9b31"},"vehicle_type_id":"4","last_reported":1705199221,"current_range_meters":18800,"station_id":"","pricing_plan_id":"free"},{"bike_id":"8d3a4545-b7d7-4f59-93d2-ca52b0b6d818","system_id":"levelo_inurba_marseille","lat":43.301429,"lon":5.37413,"is_reserved":false,"is_disabled":false,"rental_uris":{"android":"levelo://app?vid=8d3a4545-b7d7-4f59-93d2-ca52b0b6d818","ios":"levelo://app?vid=8d3a4545-b7d7-4f59-93d2-ca52b0b6d818"},"vehicle_type_id":"4","last_reported":1705199221,"current_range_meters":18000,"station_id":"ce4bgs92rcd13ifvqcc0","pricing_plan_id":"free"},{"bike_id":"41764f75-bafe-4d75-9fff-4b8ac1b89701","system_id":"levelo_inurba_marseille","lat":43.319958,"lon":5.38148,"is_reserved":false,"is_disabled":false,"rental_uris":{"android":"levelo://app?vid=41764f75-bafe-4d75-9fff-4b8ac1b89701","ios":"levelo://app?vid=41764f75-bafe-4d75-9fff-4b8ac1b89701"},"vehicle_type_id":"4","last_reported":1705199221,"current_range_meters":23200,"station_id":"ce4bhr12rcd13ifvqhpg","pricing_plan_id":"free"},{"bike_id":"a7159044-a4cb-48d1-8c7f-253d76e99afe","system_id":"levelo_inurba_marseille","lat":43.319935,"lon":5.381699,"is_reserved":false,"is_disabled":false,"rental_uris":{"android":"levelo://app?vid=a7159044-a4cb-48d1-8c7f-253d76e99afe","ios":"levelo://app?vid=a7159044-a4cb-48d1-8c7f-253d76e99afe"},"vehicle_type_id":"4","last_reported":1705199221,"current_range_meters":3600,"station_id":"ce4bhr12rcd13ifvqhpg","pricing_plan_id":"free"},{"bike_id":"1e311065-c770-4425-9c92-faa2bbf668e0","system_id":"levelo_inurba_marseille","lat":43.320021,"lon":5.381525,"is_reserved":false,"is_disabled":false,"rental_uris":{"android":"levelo://app?vid=1e311065-c770-4425-9c92-faa2bbf668e0","ios":"levelo://app?vid=1e311065-c770-4425-9c92-faa2bbf668e0"},"vehicle_type_id":"4","last_reported":1705199221,"current_range_meters":26800,"station_id":"ce4bhr12rcd13ifvqhpg","pricing_plan_id":"free"},{"bike_id":"6cb3a9a5-bcd2-4ac7-a150-0ade7e80ada7","system_id":"levelo_inurba_marseille","lat":43.319935,"lon":5.381699,"is_reserved":false,"is_disabled":false,"rental_uris":{"android":"levelo://app?vid=6cb3a9a5-bcd2-4ac7-a150-0ade7e80ada7","ios":"levelo://app?vid=6cb3a9a5-bcd2-4ac7-a150-0ade7e80ada7"},"vehicle_type_id":"4","last_reported":1705199221,"current_range_meters":20800,"station_id":"ce4bhr12rcd13ifvqhpg","pricing_plan_id":"free"},{"bike_id":"5bad7b16-b8a8-4605-bf6c-a9f207551c1d","system_id":"levelo_inurba_marseille","lat":43.313571,"lon":5.384829,"is_reserved":false,"is_disabled":false,"rental_uris":{"android":"levelo://app?vid=5bad7b16-b8a8-4605-bf6c-a9f207551c1d","ios":"levelo://app?vid=5bad7b16-b8a8-4605-bf6c-a9f207551c1d"},"vehicle_type_id":"4","last_reported":1705199221,"current_range_meters":19200,"station_id":"ce4bgt92rcd13ifvqcf0","pricing_plan_id":"free"},{"bike_id":"af193faf-7b04-4832-a412-340240dac991","system_id":"levelo_inurba_marseille","lat":43.313571,"lon":5.384829,"is_reserved":false,"is_disabled":false,"rental_uris":{"android":"levelo://app?vid=af193faf-7b04-4832-a412-340240dac991","ios":"levelo://app?vid=af193faf-7b04-4832-a412-340240dac991"},"vehicle_type_id":"4","last_reported":1705199221,"current_range_meters":8000,"station_id":"ce4bgt92rcd13ifvqcf0","pricing_plan_id":"free"},{"bike_id":"ed63f71d-e01d-4672-bba3-7c8849252921","system_id":"levelo_inurba_marseille","lat":43.313571,"lon":5.384829,"is_reserved":false,"is_disabled":false,"rental_uris":{"android":"levelo://app?vid=ed63f71d-e01d-4672-bba3-7c8849252921","ios":"levelo://app?vid=ed63f71d-e01d-4672-bba3-7c8849252921"},"vehicle_type_id":"4","last_reported":1705199221,"current_range_meters":24000,"station_id":"ce4bgt92rcd13ifvqcf0","pricing_plan_id":"free"},{"bike_id":"a671bdb2-fd49-48a3-bd60-a0328ee17d54","system_id":"levelo_inurba_marseille","lat":43.313571,"lon":5.384829,"is_reserved":false,"is_disabled":false,"rental_uris":{"android":"levelo://app?vid=a671bdb2-fd49-48a3-bd60-a0328ee17d54","ios":"levelo://app?vid=a671bdb2-fd49-48a3-bd60-a0328ee17d54"},"vehicle_type_id":"4","last_reported":1705199221,"current_range_meters":24400,"station_id":"ce4bgt92rcd13ifvqcf0","pricing_plan_id":"free"},{"bike_id":"31dc68e3-a3e6-4910-a36d-067c0b120573","system_id":"levelo_inurba_marseille","lat":43.313571,"lon":5.384829,"is_reserved":false,"is_disabled":false,"rental_uris":{"android":"levelo://app?vid=31dc68e3-a3e6-4910-a36d-067c0b120573","ios":"levelo://app?vid=31dc68e3-a3e6-4910-a36d-067c0b120573"},"vehicle_type_id":"4","last_reported":1705199221,"current_range_meters":15200,"station_id":"ce4bgt92rcd13ifvqcf0","pricing_plan_id":"free"},{"bike_id":"46ac3942-adce-4331-aa00-6a725ada31a9","system_id":"levelo_inurba_marseille","lat":43.30037,"lon":5.374429,"is_reserved":false,"is_disabled":false,"rental_uris":{"android":"levelo://app?vid=46ac3942-adce-4331-aa00-6a725ada31a9","ios":"levelo://app?vid=46ac3942-adce-4331-aa00-6a725ada31a9"},"vehicle_type_id":"4","last_reported":1705199221,"current_range_meters":24000,"station_id":"","pricing_plan_id":"free"},{"bike_id":"7568b06e-55ca-45b4-b8ac-c39d771126dd","system_id":"levelo_inurba_marseille","lat":43.300252,"lon":5.374372,"is_reserved":false,"is_disabled":false,"rental_uris":{"android":"levelo://app?vid=7568b06e-55ca-45b4-b8ac-c39d771126dd","ios":"levelo://app?vid=7568b06e-55ca-45b4-b8ac-c39d771126dd"},"vehicle_type_id":"4","last_reported":1705199221,"current_range_meters":13200,"station_id":"","pricing_plan_id":"free"},{"bike_id":"b9ecd11e-440f-4239-b234-035c279b823a","system_id":"levelo_inurba_marseille","lat":43.305364,"lon":5.384119,"is_reserved":false,"is_disabled":false,"rental_uris":{"android":"levelo://app?vid=b9ecd11e-440f-4239-b234-035c279b823a","ios":"levelo://app?vid=b9ecd11e-440f-4239-b234-035c279b823a"},"vehicle_type_id":"4","last_reported":1705199221,"current_range_meters":28400,"station_id":"ce4bgg92rcd13ifvqb30","pricing_plan_id":"free"},{"bike_id":"beee2b4e-42a4-44c7-8be6-2a9803070695","system_id":"levelo_inurba_marseille","lat":43.305364,"lon":5.384119,"is_reserved":false,"is_disabled":false,"rental_uris":{"android":"levelo://app?vid=beee2b4e-42a4-44c7-8be6-2a9803070695","ios":"levelo://app?vid=beee2b4e-42a4-44c7-8be6-2a9803070695"},"vehicle_type_id":"4","last_reported":1705199221,"current_range_meters":10000,"station_id":"ce4bgg92rcd13ifvqb30","pricing_plan_id":"free"},{"bike_id":"6cb69ddb-8eb3-447f-9c03-d51c4e2ddb7c","system_id":"levelo_inurba_marseille","lat":43.311722,"lon":5.387247,"is_reserved":false,"is_disabled":false,"rental_uris":{"android":"levelo://app?vid=6cb69ddb-8eb3-447f-9c03-d51c4e2ddb7c","ios":"levelo://app?vid=6cb69ddb-8eb3-447f-9c03-d51c4e2ddb7c"},"vehicle_type_id":"4","last_reported":1705199221,"current_range_meters":12400,"station_id":"ce4bgv12rcd13ifvqcp0","pricing_plan_id":"free"},{"bike_id":"a43f6a2c-e861-4277-bcb8-1fd78f6356f0","system_id":"levelo_inurba_marseille","lat":43.311722,"lon":5.387247,"is_reserved":false,"is_disabled":false,"rental_uris":{"android":"levelo://app?vid=a43f6a2c-e861-4277-bcb8-1fd78f6356f0","ios":"levelo://app?vid=a43f6a2c-e861-4277-bcb8-1fd78f6356f0"},"vehicle_type_id":"4","last_reported":1705199221,"current_range_meters":27600,"station_id":"ce4bgv12rcd13ifvqcp0","pricing_plan_id":"free"},{"bike_id":"7dcaceba-4578-49db-b955-e4330ac50e58","system_id":"levelo_inurba_marseille","lat":43.311722,"lon":5.387247,"is_reserved":false,"is_disabled":false,"rental_uris":{"android":"levelo://app?vid=7dcaceba-4578-49db-b955-e4330ac50e58","ios":"levelo://app?vid=7dcaceba-4578-49db-b955-e4330ac50e58"},"vehicle_type_id":"4","last_reported":1705199221,"current_range_meters":27200,"station_id":"ce4bgv12rcd13ifvqcp0","pricing_plan_id":"free"},{"bike_id":"5342cf30-6942-4fcd-9ced-e94205cd7b0b","system_id":"levelo_inurba_marseille","lat":43.297794,"lon":5.370888,"is_reserved":false,"is_disabled":false,"rental_uris":{"android":"levelo://app?vid=5342cf30-6942-4fcd-9ced-e94205cd7b0b","ios":"levelo://app?vid=5342cf30-6942-4fcd-9ced-e94205cd7b0b"},"vehicle_type_id":"4","last_reported":1705199221,"current_range_meters":25600,"station_id":"ce4bgop2rcd13ifvqc1g","pricing_plan_id":"free"},{"bike_id":"8601e953-0fde-4f75-9a24-efb2d2e6234f","system_id":"levelo_inurba_marseille","lat":43.322872,"lon":5.382756,"is_reserved":false,"is_disabled":false,"rental_uris":{"android":"levelo://app?vid=8601e953-0fde-4f75-9a24-efb2d2e6234f","ios":"levelo://app?vid=8601e953-0fde-4f75-9a24-efb2d2e6234f"},"vehicle_type_id":"4","last_reported":1705199221,"current_range_meters":31200,"station_id":"ce4bhr12rcd13ifvqhqg","pricing_plan_id":"free"},{"bike_id":"34c8b400-5074-46e3-aa02-f5d274dfaa4f","system_id":"levelo_inurba_marseille","lat":43.322865,"lon":5.38264,"is_reserved":false,"is_disabled":false,"rental_uris":{"android":"levelo://app?vid=34c8b400-5074-46e3-aa02-f5d274dfaa4f","ios":"levelo://app?vid=34c8b400-5074-46e3-aa02-f5d274dfaa4f"},"vehicle_type_id":"4","last_reported":1705199221,"current_range_meters":30000,"station_id":"ce4bhr12rcd13ifvqhqg","pricing_plan_id":"free"},{"bike_id":"3a46592c-9142-46ce-8556-a80e672a6412","system_id":"levelo_inurba_marseille","lat":43.322891,"lon":5.382619,"is_reserved":false,"is_disabled":false,"rental_uris":{"android":"levelo://app?vid=3a46592c-9142-46ce-8556-a80e672a6412","ios":"levelo://app?vid=3a46592c-9142-46ce-8556-a80e672a6412"},"vehicle_type_id":"4","last_reported":1705199221,"current_range_meters":11200,"station_id":"ce4bhr12rcd13ifvqhqg","pricing_plan_id":"free"},{"bike_id":"f16afff4-bf0e-43fc-8b8f-c10d381caa6c","system_id":"levelo_inurba_marseille","lat":43.322872,"lon":5.382756,"is_reserved":false,"is_disabled":false,"rental_uris":{"android":"levelo://app?vid=f16afff4-bf0e-43fc-8b8f-c10d381caa6c","ios":"levelo://app?vid=f16afff4-bf0e-43fc-8b8f-c10d381caa6c"},"vehicle_type_id":"4","last_reported":1705199221,"current_range_meters":31600,"station_id":"ce4bhr12rcd13ifvqhqg","pricing_plan_id":"free"},{"bike_id":"bcb437fd-6cf8-43ec-94d7-f712e0948c37","system_id":"levelo_inurba_marseille","lat":43.322872,"lon":5.382756,"is_reserved":false,"is_disabled":false,"rental_uris":{"android":"levelo://app?vid=bcb437fd-6cf8-43ec-94d7-f712e0948c37","ios":"levelo://app?vid=bcb437fd-6cf8-43ec-94d7-f712e0948c37"},"vehicle_type_id":"4","last_reported":1705199221,"current_range_meters":17600,"station_id":"ce4bhr12rcd13ifvqhqg","pricing_plan_id":"free"},{"bike_id":"33a62014-9619-4886-b9b8-f93ee851f859","system_id":"levelo_inurba_marseille","lat":43.322872,"lon":5.382756,"is_reserved":false,"is_disabled":false,"rental_uris":{"android":"levelo://app?vid=33a62014-9619-4886-b9b8-f93ee851f859","ios":"levelo://app?vid=33a62014-9619-4886-b9b8-f93ee851f859"},"vehicle_type_id":"4","last_reported":1705199221,"current_range_meters":20000,"station_id":"ce4bhr12rcd13ifvqhqg","pricing_plan_id":"free"},{"bike_id":"e4cad359-bf16-42a6-b7ad-19b9dba9592b","system_id":"levelo_inurba_marseille","lat":43.322901,"lon":5.382661,"is_reserved":false,"is_disabled":false,"rental_uris":{"android":"levelo://app?vid=e4cad359-bf16-42a6-b7ad-19b9dba9592b","ios":"levelo://app?vid=e4cad359-bf16-42a6-b7ad-19b9dba9592b"},"vehicle_type_id":"4","last_reported":1705199221,"current_range_meters":22000,"station_id":"ce4bhr12rcd13ifvqhqg","pricing_plan_id":"free"},{"bike_id":"be5c14c2-d069-4824-b2b4-323fba6ab1b5","system_id":"levelo_inurba_marseille","lat":43.3282,"lon":5.36684,"is_reserved":false,"is_disabled":false,"rental_uris":{"android":"levelo://app?vid=be5c14c2-d069-4824-b2b4-323fba6ab1b5","ios":"levelo://app?vid=be5c14c2-d069-4824-b2b4-323fba6ab1b5"},"vehicle_type_id":"4","last_reported":1705199221,"current_range_meters":20800,"station_id":"ce4bhs92rcd13ifvqi0g","pricing_plan_id":"free"},{"bike_id":"947a5c0b-0299-4cd2-aecd-5f351114aaf8","system_id":"levelo_inurba_marseille","lat":43.328208,"lon":5.366841,"is_reserved":false,"is_disabled":false,"rental_uris":{"android":"levelo://app?vid=947a5c0b-0299-4cd2-aecd-5f351114aaf8","ios":"levelo://app?vid=947a5c0b-0299-4cd2-aecd-5f351114aaf8"},"vehicle_type_id":"4","last_reported":1705199221,"current_range_meters":12000,"station_id":"ce4bhs92rcd13ifvqi0g","pricing_plan_id":"free"},{"bike_id":"51785b53-971f-47ea-99d3-e82178b1bd11","system_id":"levelo_inurba_marseille","lat":43.32822,"lon":5.36697,"is_reserved":false,"is_disabled":false,"rental_uris":{"android":"levelo://app?vid=51785b53-971f-47ea-99d3-e82178b1bd11","ios":"levelo://app?vid=51785b53-971f-47ea-99d3-e82178b1bd11"},"vehicle_type_id":"4","last_reported":1705199221,"current_range_meters":29200,"station_id":"ce4bhs92rcd13ifvqi0g","pricing_plan_id":"free"},{"bike_id":"09621f87-561a-4138-9bcf-5568c59432a9","system_id":"levelo_inurba_marseille","lat":43.32824,"lon":5.366832,"is_reserved":false,"is_disabled":false,"rental_uris":{"android":"levelo://app?vid=09621f87-561a-4138-9bcf-5568c59432a9","ios":"levelo://app?vid=09621f87-561a-4138-9bcf-5568c59432a9"},"vehicle_type_id":"4","last_reported":1705199221,"current_range_meters":17200,"station_id":"ce4bhs92rcd13ifvqi0g","pricing_plan_id":"free"},{"bike_id":"eb82efee-7e46-4cef-a643-d731882b95f4","system_id":"levelo_inurba_marseille","lat":43.32824,"lon":5.36677,"is_reserved":false,"is_disabled":false,"rental_uris":{"android":"levelo://app?vid=eb82efee-7e46-4cef-a643-d731882b95f4","ios":"levelo://app?vid=eb82efee-7e46-4cef-a643-d731882b95f4"},"vehicle_type_id":"4","last_reported":1705199221,"current_range_meters":25600,"station_id":"ce4bhs92rcd13ifvqi0g","pricing_plan_id":"free"},{"bike_id":"679c367b-d108-4790-b497-4d8cd060fe27","system_id":"levelo_inurba_marseille","lat":43.32824,"lon":5.36677,"is_reserved":false,"is_disabled":false,"rental_uris":{"android":"levelo://app?vid=679c367b-d108-4790-b497-4d8cd060fe27","ios":"levelo://app?vid=679c367b-d108-4790-b497-4d8cd060fe27"},"vehicle_type_id":"4","last_reported":1705199221,"current_range_meters":16000,"station_id":"ce4bhs92rcd13ifvqi0g","pricing_plan_id":"free"},{"bike_id":"ea0178f3-2c6b-4af6-b062-91b0b8dde1df","system_id":"levelo_inurba_marseille","lat":43.328256,"lon":5.366819,"is_reserved":false,"is_disabled":false,"rental_uris":{"android":"levelo://app?vid=ea0178f3-2c6b-4af6-b062-91b0b8dde1df","ios":"levelo://app?vid=ea0178f3-2c6b-4af6-b062-91b0b8dde1df"},"vehicle_type_id":"4","last_reported":1705199221,"current_range_meters":22000,"station_id":"ce4bhs92rcd13ifvqi0g","pricing_plan_id":"free"},{"bike_id":"546834d2-cf77-404f-94a2-ca0cd6e77634","system_id":"levelo_inurba_marseille","lat":43.328279,"lon":5.366826,"is_reserved":false,"is_disabled":false,"rental_uris":{"android":"levelo://app?vid=546834d2-cf77-404f-94a2-ca0cd6e77634","ios":"levelo://app?vid=546834d2-cf77-404f-94a2-ca0cd6e77634"},"vehicle_type_id":"4","last_reported":1705199221,"current_range_meters":9600,"station_id":"ce4bhs92rcd13ifvqi0g","pricing_plan_id":"free"},{"bike_id":"85cedcff-9e9a-415d-8415-195178ea3cb7","system_id":"levelo_inurba_marseille","lat":43.32828,"lon":5.36681,"is_reserved":false,"is_disabled":false,"rental_uris":{"android":"levelo://app?vid=85cedcff-9e9a-415d-8415-195178ea3cb7","ios":"levelo://app?vid=85cedcff-9e9a-415d-8415-195178ea3cb7"},"vehicle_type_id":"4","last_reported":1705199221,"current_range_meters":14000,"station_id":"ce4bhs92rcd13ifvqi0g","pricing_plan_id":"free"},{"bike_id":"d6e71fc0-c662-46a4-9ce2-a4da97cef68b","system_id":"levelo_inurba_marseille","lat":43.32828,"lon":5.3668,"is_reserved":false,"is_disabled":false,"rental_uris":{"android":"levelo://app?vid=d6e71fc0-c662-46a4-9ce2-a4da97cef68b","ios":"levelo://app?vid=d6e71fc0-c662-46a4-9ce2-a4da97cef68b"},"vehicle_type_id":"4","last_reported":1705199221,"current_range_meters":16800,"station_id":"ce4bhs92rcd13ifvqi0g","pricing_plan_id":"free"},{"bike_id":"e38d20ff-3711-42f9-8598-8b7af98ee7b5","system_id":"levelo_inurba_marseille","lat":43.328285,"lon":5.366796,"is_reserved":false,"is_disabled":false,"rental_uris":{"android":"levelo://app?vid=e38d20ff-3711-42f9-8598-8b7af98ee7b5","ios":"levelo://app?vid=e38d20ff-3711-42f9-8598-8b7af98ee7b5"},"vehicle_type_id":"4","last_reported":1705199221,"current_range_meters":17200,"station_id":"ce4bhs92rcd13ifvqi0g","pricing_plan_id":"free"},{"bike_id":"3f1fe0f6-c408-40f5-9355-cdaa7a69ae2d","system_id":"levelo_inurba_marseille","lat":43.32829,"lon":5.36678,"is_reserved":false,"is_disabled":false,"rental_uris":{"android":"levelo://app?vid=3f1fe0f6-c408-40f5-9355-cdaa7a69ae2d","ios":"levelo://app?vid=3f1fe0f6-c408-40f5-9355-cdaa7a69ae2d"},"vehicle_type_id":"4","last_reported":1705199221,"current_range_meters":19600,"station_id":"ce4bhs92rcd13ifvqi0g","pricing_plan_id":"free"},{"bike_id":"9fbabc07-7e3e-4dc7-aad6-5f93ddb8699a","system_id":"levelo_inurba_marseille","lat":43.32829,"lon":5.36674,"is_reserved":false,"is_disabled":false,"rental_uris":{"android":"levelo://app?vid=9fbabc07-7e3e-4dc7-aad6-5f93ddb8699a","ios":"levelo://app?vid=9fbabc07-7e3e-4dc7-aad6-5f93ddb8699a"},"vehicle_type_id":"4","last_reported":1705199221,"current_range_meters":22000,"station_id":"ce4bhs92rcd13ifvqi0g","pricing_plan_id":"free"},{"bike_id":"50f4fc00-cc4b-496c-bc89-2f47ec063b56","system_id":"levelo_inurba_marseille","lat":43.3283,"lon":5.3666,"is_reserved":false,"is_disabled":false,"rental_uris":{"android":"levelo://app?vid=50f4fc00-cc4b-496c-bc89-2f47ec063b56","ios":"levelo://app?vid=50f4fc00-cc4b-496c-bc89-2f47ec063b56"},"vehicle_type_id":"4","last_reported":1705199221,"current_range_meters":24800,"station_id":"ce4bhs92rcd13ifvqi0g","pricing_plan_id":"free"},{"bike_id":"b7f19553-caf3-42e9-85f2-de3629dabc8e","system_id":"levelo_inurba_marseille","lat":43.328303,"lon":5.366801,"is_reserved":false,"is_disabled":false,"rental_uris":{"android":"levelo://app?vid=b7f19553-caf3-42e9-85f2-de3629dabc8e","ios":"levelo://app?vid=b7f19553-caf3-42e9-85f2-de3629dabc8e"},"vehicle_type_id":"4","last_reported":1705199221,"current_range_meters":16000,"station_id":"ce4bhs92rcd13ifvqi0g","pricing_plan_id":"free"},{"bike_id":"ebd1c3ae-d840-4cf1-b3ce-5dbd8e760142","system_id":"levelo_inurba_marseille","lat":43.32831,"lon":5.36681,"is_reserved":false,"is_disabled":false,"rental_uris":{"android":"levelo://app?vid=ebd1c3ae-d840-4cf1-b3ce-5dbd8e760142","ios":"levelo://app?vid=ebd1c3ae-d840-4cf1-b3ce-5dbd8e760142"},"vehicle_type_id":"4","last_reported":1705199221,"current_range_meters":6400,"station_id":"ce4bhs92rcd13ifvqi0g","pricing_plan_id":"free"},{"bike_id":"19cd95f7-dff2-4b5a-a245-aededa24213f","system_id":"levelo_inurba_marseille","lat":43.32831,"lon":5.36677,"is_reserved":false,"is_disabled":false,"rental_uris":{"android":"levelo://app?vid=19cd95f7-dff2-4b5a-a245-aededa24213f","ios":"levelo://app?vid=19cd95f7-dff2-4b5a-a245-aededa24213f"},"vehicle_type_id":"4","last_reported":1705199221,"current_range_meters":3600,"station_id":"ce4bhs92rcd13ifvqi0g","pricing_plan_id":"free"},{"bike_id":"9949c318-cd33-4e7f-93e5-9b978c57ddec","system_id":"levelo_inurba_marseille","lat":43.32832,"lon":5.3668,"is_reserved":false,"is_disabled":false,"rental_uris":{"android":"levelo://app?vid=9949c318-cd33-4e7f-93e5-9b978c57ddec","ios":"levelo://app?vid=9949c318-cd33-4e7f-93e5-9b978c57ddec"},"vehicle_type_id":"4","last_reported":1705199221,"current_range_meters":7600,"station_id":"ce4bhs92rcd13ifvqi0g","pricing_plan_id":"free"},{"bike_id":"00240506-f51a-4e5e-8e4b-da47fbef48ec","system_id":"levelo_inurba_marseille","lat":43.32833,"lon":5.36682,"is_reserved":false,"is_disabled":false,"rental_uris":{"android":"levelo://app?vid=00240506-f51a-4e5e-8e4b-da47fbef48ec","ios":"levelo://app?vid=00240506-f51a-4e5e-8e4b-da47fbef48ec"},"vehicle_type_id":"4","last_reported":1705199221,"current_range_meters":14400,"station_id":"ce4bhs92rcd13ifvqi0g","pricing_plan_id":"free"},{"bike_id":"7fe7c15b-8d92-4599-97ec-55a5b88246d4","system_id":"levelo_inurba_marseille","lat":43.32834,"lon":5.36669,"is_reserved":false,"is_disabled":false,"rental_uris":{"android":"levelo://app?vid=7fe7c15b-8d92-4599-97ec-55a5b88246d4","ios":"levelo://app?vid=7fe7c15b-8d92-4599-97ec-55a5b88246d4"},"vehicle_type_id":"4","last_reported":1705199221,"current_range_meters":19600,"station_id":"ce4bhs92rcd13ifvqi0g","pricing_plan_id":"free"},{"bike_id":"38082c03-fac1-44d3-a79f-5142b4a113a9","system_id":"levelo_inurba_marseille","lat":43.328373,"lon":5.366902,"is_reserved":false,"is_disabled":false,"rental_uris":{"android":"levelo://app?vid=38082c03-fac1-44d3-a79f-5142b4a113a9","ios":"levelo://app?vid=38082c03-fac1-44d3-a79f-5142b4a113a9"},"vehicle_type_id":"4","last_reported":1705199221,"current_range_meters":11200,"station_id":"ce4bhs92rcd13ifvqi0g","pricing_plan_id":"free"},{"bike_id":"8040a867-5cbb-4bb1-afd7-6decd4ac1ac7","system_id":"levelo_inurba_marseille","lat":43.2971,"lon":5.366114,"is_reserved":false,"is_disabled":false,"rental_uris":{"android":"levelo://app?vid=8040a867-5cbb-4bb1-afd7-6decd4ac1ac7","ios":"levelo://app?vid=8040a867-5cbb-4bb1-afd7-6decd4ac1ac7"},"vehicle_type_id":"4","last_reported":1705199221,"current_range_meters":0,"station_id":"ce4bgn12rcd13ifvqbt0","pricing_plan_id":"free"},{"bike_id":"a59c47b7-fd52-405f-aac5-c4043b1fc50e","system_id":"levelo_inurba_marseille","lat":43.311722,"lon":5.387247,"is_reserved":false,"is_disabled":false,"rental_uris":{"android":"levelo://app?vid=a59c47b7-fd52-405f-aac5-c4043b1fc50e","ios":"levelo://app?vid=a59c47b7-fd52-405f-aac5-c4043b1fc50e"},"vehicle_type_id":"4","last_reported":1705199221,"current_range_meters":17600,"station_id":"ce4bgv12rcd13ifvqcp0","pricing_plan_id":"free"},{"bike_id":"a583c5bc-ee46-49db-bbf1-5c7bc3558f76","system_id":"levelo_inurba_marseille","lat":43.296073,"lon":5.36796,"is_reserved":false,"is_disabled":false,"rental_uris":{"android":"levelo://app?vid=a583c5bc-ee46-49db-bbf1-5c7bc3558f76","ios":"levelo://app?vid=a583c5bc-ee46-49db-bbf1-5c7bc3558f76"},"vehicle_type_id":"4","last_reported":1705199221,"current_range_meters":0,"station_id":"","pricing_plan_id":"free"},{"bike_id":"15110186-28a3-4f36-bb70-ea1c1591e93a","system_id":"levelo_inurba_marseille","lat":43.296921,"lon":5.376579,"is_reserved":false,"is_disabled":false,"rental_uris":{"android":"levelo://app?vid=15110186-28a3-4f36-bb70-ea1c1591e93a","ios":"levelo://app?vid=15110186-28a3-4f36-bb70-ea1c1591e93a"},"vehicle_type_id":"4","last_reported":1705199221,"current_range_meters":30400,"station_id":"ce4bgkh2rcd13ifvqbl0","pricing_plan_id":"free"},{"bike_id":"cb4bbf2d-1efc-4895-b774-b7dd69d08521","system_id":"levelo_inurba_marseille","lat":43.299202,"lon":5.381513,"is_reserved":false,"is_disabled":false,"rental_uris":{"android":"levelo://app?vid=cb4bbf2d-1efc-4895-b774-b7dd69d08521","ios":"levelo://app?vid=cb4bbf2d-1efc-4895-b774-b7dd69d08521"},"vehicle_type_id":"4","last_reported":1705199221,"current_range_meters":400,"station_id":"","pricing_plan_id":"free"},{"bike_id":"74ba9862-cabb-4c7f-abb7-a15a4c843c7c","system_id":"levelo_inurba_marseille","lat":43.299028,"lon":5.381509,"is_reserved":false,"is_disabled":false,"rental_uris":{"android":"levelo://app?vid=74ba9862-cabb-4c7f-abb7-a15a4c843c7c","ios":"levelo://app?vid=74ba9862-cabb-4c7f-abb7-a15a4c843c7c"},"vehicle_type_id":"4","last_reported":1705199221,"current_range_meters":24000,"station_id":"ce4bgj12rcd13ifvqbc0","pricing_plan_id":"free"},{"bike_id":"b8e0b136-0dd1-4bae-8aa2-8a62c10c3dbe","system_id":"levelo_inurba_marseille","lat":43.317557,"lon":5.390173,"is_reserved":false,"is_disabled":false,"rental_uris":{"android":"levelo://app?vid=b8e0b136-0dd1-4bae-8aa2-8a62c10c3dbe","ios":"levelo://app?vid=b8e0b136-0dd1-4bae-8aa2-8a62c10c3dbe"},"vehicle_type_id":"4","last_reported":1705199221,"current_range_meters":18400,"station_id":"ce4bhqp2rcd13ifvqhng","pricing_plan_id":"free"},{"bike_id":"92f88198-9cf3-4bc6-a008-aa2a99af1ea5","system_id":"levelo_inurba_marseille","lat":43.317557,"lon":5.390173,"is_reserved":false,"is_disabled":false,"rental_uris":{"android":"levelo://app?vid=92f88198-9cf3-4bc6-a008-aa2a99af1ea5","ios":"levelo://app?vid=92f88198-9cf3-4bc6-a008-aa2a99af1ea5"},"vehicle_type_id":"4","last_reported":1705199221,"current_range_meters":4800,"station_id":"ce4bhqp2rcd13ifvqhng","pricing_plan_id":"free"},{"bike_id":"23b40fd2-7366-4c01-8ee8-6ee58ebc81ac","system_id":"levelo_inurba_marseille","lat":43.317557,"lon":5.390173,"is_reserved":false,"is_disabled":false,"rental_uris":{"android":"levelo://app?vid=23b40fd2-7366-4c01-8ee8-6ee58ebc81ac","ios":"levelo://app?vid=23b40fd2-7366-4c01-8ee8-6ee58ebc81ac"},"vehicle_type_id":"4","last_reported":1705199221,"current_range_meters":32000,"station_id":"ce4bhqp2rcd13ifvqhng","pricing_plan_id":"free"},{"bike_id":"c2d0e25a-0b1c-47ac-8e3e-cfb4f272824b","system_id":"levelo_inurba_marseille","lat":43.317557,"lon":5.390173,"is_reserved":false,"is_disabled":false,"rental_uris":{"android":"levelo://app?vid=c2d0e25a-0b1c-47ac-8e3e-cfb4f272824b","ios":"levelo://app?vid=c2d0e25a-0b1c-47ac-8e3e-cfb4f272824b"},"vehicle_type_id":"4","last_reported":1705199221,"current_range_meters":4800,"station_id":"ce4bhqp2rcd13ifvqhng","pricing_plan_id":"free"},{"bike_id":"ef284e4e-bdce-4bd5-b42f-4fd696a50f96","system_id":"levelo_inurba_marseille","lat":43.297977,"lon":5.380893,"is_reserved":false,"is_disabled":false,"rental_uris":{"android":"levelo://app?vid=ef284e4e-bdce-4bd5-b42f-4fd696a50f96","ios":"levelo://app?vid=ef284e4e-bdce-4bd5-b42f-4fd696a50f96"},"vehicle_type_id":"4","last_reported":1705199221,"current_range_meters":0,"station_id":"ce4bgip2rcd13ifvqbb0","pricing_plan_id":"free"},{"bike_id":"3be59690-7864-4d4e-961f-03041de69a34","system_id":"levelo_inurba_marseille","lat":43.30439,"lon":5.3889,"is_reserved":false,"is_disabled":false,"rental_uris":{"android":"levelo://app?vid=3be59690-7864-4d4e-961f-03041de69a34","ios":"levelo://app?vid=3be59690-7864-4d4e-961f-03041de69a34"},"vehicle_type_id":"4","last_reported":1705199221,"current_range_meters":3600,"station_id":"ce4bgk12rcd13ifvqbi0","pricing_plan_id":"free"},{"bike_id":"0e264deb-31e8-4775-b404-4487f44c2b7f","system_id":"levelo_inurba_marseille","lat":43.304407,"lon":5.38895,"is_reserved":false,"is_disabled":false,"rental_uris":{"android":"levelo://app?vid=0e264deb-31e8-4775-b404-4487f44c2b7f","ios":"levelo://app?vid=0e264deb-31e8-4775-b404-4487f44c2b7f"},"vehicle_type_id":"4","last_reported":1705199221,"current_range_meters":0,"station_id":"ce4bgk12rcd13ifvqbi0","pricing_plan_id":"free"},{"bike_id":"eff9abfd-2192-48f8-9bae-1183cad95856","system_id":"levelo_inurba_marseille","lat":43.304278,"lon":5.388868,"is_reserved":false,"is_disabled":false,"rental_uris":{"android":"levelo://app?vid=eff9abfd-2192-48f8-9bae-1183cad95856","ios":"levelo://app?vid=eff9abfd-2192-48f8-9bae-1183cad95856"},"vehicle_type_id":"4","last_reported":1705199221,"current_range_meters":0,"station_id":"ce4bgk12rcd13ifvqbi0","pricing_plan_id":"free"},{"bike_id":"79c6bd8c-af6e-49b2-9d50-559a6c107518","system_id":"levelo_inurba_marseille","lat":43.304375,"lon":5.38896,"is_reserved":false,"is_disabled":false,"rental_uris":{"android":"levelo://app?vid=79c6bd8c-af6e-49b2-9d50-559a6c107518","ios":"levelo://app?vid=79c6bd8c-af6e-49b2-9d50-559a6c107518"},"vehicle_type_id":"4","last_reported":1705199221,"current_range_meters":14400,"station_id":"ce4bgk12rcd13ifvqbi0","pricing_plan_id":"free"},{"bike_id":"56c3c067-0acc-485a-ac8c-fd9aa47cbccb","system_id":"levelo_inurba_marseille","lat":43.304273,"lon":5.388963,"is_reserved":false,"is_disabled":false,"rental_uris":{"android":"levelo://app?vid=56c3c067-0acc-485a-ac8c-fd9aa47cbccb","ios":"levelo://app?vid=56c3c067-0acc-485a-ac8c-fd9aa47cbccb"},"vehicle_type_id":"4","last_reported":1705199221,"current_range_meters":20400,"station_id":"ce4bgk12rcd13ifvqbi0","pricing_plan_id":"free"},{"bike_id":"750f9c7f-b5de-429b-b8c4-cb40b2ea0a16","system_id":"levelo_inurba_marseille","lat":43.28727,"lon":5.36078,"is_reserved":false,"is_disabled":false,"rental_uris":{"android":"levelo://app?vid=750f9c7f-b5de-429b-b8c4-cb40b2ea0a16","ios":"levelo://app?vid=750f9c7f-b5de-429b-b8c4-cb40b2ea0a16"},"vehicle_type_id":"4","last_reported":1705199221,"current_range_meters":24400,"station_id":"cki0cbj6b192h4jlfktg","pricing_plan_id":"free"},{"bike_id":"8ddc9ffa-b104-4f93-8756-83ad51566fe3","system_id":"levelo_inurba_marseille","lat":43.299724,"lon":5.384848,"is_reserved":false,"is_disabled":false,"rental_uris":{"android":"levelo://app?vid=8ddc9ffa-b104-4f93-8756-83ad51566fe3","ios":"levelo://app?vid=8ddc9ffa-b104-4f93-8756-83ad51566fe3"},"vehicle_type_id":"4","last_reported":1705199221,"current_range_meters":31200,"station_id":"ce4bgj92rcd13ifvqbd0","pricing_plan_id":"free"},{"bike_id":"c4cabd75-b2de-4449-bd08-762e475409b1","system_id":"levelo_inurba_marseille","lat":43.299724,"lon":5.384848,"is_reserved":false,"is_disabled":false,"rental_uris":{"android":"levelo://app?vid=c4cabd75-b2de-4449-bd08-762e475409b1","ios":"levelo://app?vid=c4cabd75-b2de-4449-bd08-762e475409b1"},"vehicle_type_id":"4","last_reported":1705199221,"current_range_meters":26800,"station_id":"ce4bgj92rcd13ifvqbd0","pricing_plan_id":"free"},{"bike_id":"e95985b1-3cc4-478a-8235-ff14dbdc702c","system_id":"levelo_inurba_marseille","lat":43.32367,"lon":5.388836,"is_reserved":false,"is_disabled":false,"rental_uris":{"android":"levelo://app?vid=e95985b1-3cc4-478a-8235-ff14dbdc702c","ios":"levelo://app?vid=e95985b1-3cc4-478a-8235-ff14dbdc702c"},"vehicle_type_id":"4","last_reported":1705199221,"current_range_meters":16000,"station_id":"ce4bhqp2rcd13ifvqhog","pricing_plan_id":"free"},{"bike_id":"a81ac0d4-81c8-4427-9961-eaebfed92067","system_id":"levelo_inurba_marseille","lat":43.32367,"lon":5.388836,"is_reserved":false,"is_disabled":false,"rental_uris":{"android":"levelo://app?vid=a81ac0d4-81c8-4427-9961-eaebfed92067","ios":"levelo://app?vid=a81ac0d4-81c8-4427-9961-eaebfed92067"},"vehicle_type_id":"4","last_reported":1705199221,"current_range_meters":11600,"station_id":"ce4bhqp2rcd13ifvqhog","pricing_plan_id":"free"},{"bike_id":"770e4ada-e84e-492c-abc8-cd2fc57f2334","system_id":"levelo_inurba_marseille","lat":43.32367,"lon":5.388836,"is_reserved":false,"is_disabled":false,"rental_uris":{"android":"levelo://app?vid=770e4ada-e84e-492c-abc8-cd2fc57f2334","ios":"levelo://app?vid=770e4ada-e84e-492c-abc8-cd2fc57f2334"},"vehicle_type_id":"4","last_reported":1705199221,"current_range_meters":12800,"station_id":"ce4bhqp2rcd13ifvqhog","pricing_plan_id":"free"},{"bike_id":"c6050a51-6bed-4164-91ea-47bab518fd16","system_id":"levelo_inurba_marseille","lat":43.293009,"lon":5.374584,"is_reserved":false,"is_disabled":false,"rental_uris":{"android":"levelo://app?vid=c6050a51-6bed-4164-91ea-47bab518fd16","ios":"levelo://app?vid=c6050a51-6bed-4164-91ea-47bab518fd16"},"vehicle_type_id":"4","last_reported":1705199221,"current_range_meters":28000,"station_id":"ce4bgi12rcd13ifvqb70","pricing_plan_id":"free"},{"bike_id":"a3096d80-66d9-44bc-aee8-6bc1c2630996","system_id":"levelo_inurba_marseille","lat":43.29292,"lon":5.37445,"is_reserved":false,"is_disabled":false,"rental_uris":{"android":"levelo://app?vid=a3096d80-66d9-44bc-aee8-6bc1c2630996","ios":"levelo://app?vid=a3096d80-66d9-44bc-aee8-6bc1c2630996"},"vehicle_type_id":"4","last_reported":1705199221,"current_range_meters":20800,"station_id":"ce4bgi12rcd13ifvqb70","pricing_plan_id":"free"},{"bike_id":"6e8cc723-a8ce-4db4-aa51-30576e69e5ab","system_id":"levelo_inurba_marseille","lat":43.30301,"lon":5.39214,"is_reserved":false,"is_disabled":false,"rental_uris":{"android":"levelo://app?vid=6e8cc723-a8ce-4db4-aa51-30576e69e5ab","ios":"levelo://app?vid=6e8cc723-a8ce-4db4-aa51-30576e69e5ab"},"vehicle_type_id":"4","last_reported":1705199221,"current_range_meters":14000,"station_id":"ce4bgkh2rcd13ifvqbk0","pricing_plan_id":"free"},{"bike_id":"202caa56-5dca-4b52-b6ed-83db985da66d","system_id":"levelo_inurba_marseille","lat":43.30301,"lon":5.39215,"is_reserved":false,"is_disabled":false,"rental_uris":{"android":"levelo://app?vid=202caa56-5dca-4b52-b6ed-83db985da66d","ios":"levelo://app?vid=202caa56-5dca-4b52-b6ed-83db985da66d"},"vehicle_type_id":"4","last_reported":1705199221,"current_range_meters":23200,"station_id":"ce4bgkh2rcd13ifvqbk0","pricing_plan_id":"free"},{"bike_id":"978bb3bd-be03-45e7-affb-4eb6da81df04","system_id":"levelo_inurba_marseille","lat":43.30301,"lon":5.39218,"is_reserved":false,"is_disabled":false,"rental_uris":{"android":"levelo://app?vid=978bb3bd-be03-45e7-affb-4eb6da81df04","ios":"levelo://app?vid=978bb3bd-be03-45e7-affb-4eb6da81df04"},"vehicle_type_id":"4","last_reported":1705199221,"current_range_meters":21200,"station_id":"ce4bgkh2rcd13ifvqbk0","pricing_plan_id":"free"},{"bike_id":"18727f9a-a8e6-4872-a12f-890692424096","system_id":"levelo_inurba_marseille","lat":43.29877,"lon":5.389127,"is_reserved":false,"is_disabled":false,"rental_uris":{"android":"levelo://app?vid=18727f9a-a8e6-4872-a12f-890692424096","ios":"levelo://app?vid=18727f9a-a8e6-4872-a12f-890692424096"},"vehicle_type_id":"4","last_reported":1705199221,"current_range_meters":24800,"station_id":"","pricing_plan_id":"free"},{"bike_id":"f361dba7-5673-4352-bc23-944ba85c94f4","system_id":"levelo_inurba_marseille","lat":43.2987,"lon":5.3891,"is_reserved":false,"is_disabled":false,"rental_uris":{"android":"levelo://app?vid=f361dba7-5673-4352-bc23-944ba85c94f4","ios":"levelo://app?vid=f361dba7-5673-4352-bc23-944ba85c94f4"},"vehicle_type_id":"4","last_reported":1705199221,"current_range_meters":4000,"station_id":"","pricing_plan_id":"free"},{"bike_id":"fbe759a6-6fb7-404a-8946-c0157b590488","system_id":"levelo_inurba_marseille","lat":43.309038,"lon":5.396546,"is_reserved":false,"is_disabled":false,"rental_uris":{"android":"levelo://app?vid=fbe759a6-6fb7-404a-8946-c0157b590488","ios":"levelo://app?vid=fbe759a6-6fb7-404a-8946-c0157b590488"},"vehicle_type_id":"4","last_reported":1705199221,"current_range_meters":26800,"station_id":"ce4bh012rcd13ifvqcv0","pricing_plan_id":"free"},{"bike_id":"88cbc6ab-9434-49a1-8f3b-be03df76aa1f","system_id":"levelo_inurba_marseille","lat":43.313291,"lon":5.396838,"is_reserved":false,"is_disabled":false,"rental_uris":{"android":"levelo://app?vid=88cbc6ab-9434-49a1-8f3b-be03df76aa1f","ios":"levelo://app?vid=88cbc6ab-9434-49a1-8f3b-be03df76aa1f"},"vehicle_type_id":"4","last_reported":1705199221,"current_range_meters":24800,"station_id":"ce4bgvp2rcd13ifvqcu0","pricing_plan_id":"free"},{"bike_id":"e7392ed2-8288-4c38-9f80-905fc82c3756","system_id":"levelo_inurba_marseille","lat":43.308821,"lon":5.396393,"is_reserved":false,"is_disabled":false,"rental_uris":{"android":"levelo://app?vid=e7392ed2-8288-4c38-9f80-905fc82c3756","ios":"levelo://app?vid=e7392ed2-8288-4c38-9f80-905fc82c3756"},"vehicle_type_id":"4","last_reported":1705199221,"current_range_meters":12800,"station_id":"ce4bh012rcd13ifvqcv0","pricing_plan_id":"free"},{"bike_id":"efd90755-d563-4478-878c-5b561098bccb","system_id":"levelo_inurba_marseille","lat":43.31326,"lon":5.39689,"is_reserved":false,"is_disabled":false,"rental_uris":{"android":"levelo://app?vid=efd90755-d563-4478-878c-5b561098bccb","ios":"levelo://app?vid=efd90755-d563-4478-878c-5b561098bccb"},"vehicle_type_id":"4","last_reported":1705199221,"current_range_meters":8400,"station_id":"ce4bgvp2rcd13ifvqcu0","pricing_plan_id":"free"},{"bike_id":"ea7385af-3127-4f8d-82d2-b1a9b59b1eb4","system_id":"levelo_inurba_marseille","lat":43.313291,"lon":5.396838,"is_reserved":false,"is_disabled":false,"rental_uris":{"android":"levelo://app?vid=ea7385af-3127-4f8d-82d2-b1a9b59b1eb4","ios":"levelo://app?vid=ea7385af-3127-4f8d-82d2-b1a9b59b1eb4"},"vehicle_type_id":"4","last_reported":1705199221,"current_range_meters":18800,"station_id":"ce4bgvp2rcd13ifvqcu0","pricing_plan_id":"free"},{"bike_id":"d3d8feda-1762-4ae3-84b7-7eae388b54b2","system_id":"levelo_inurba_marseille","lat":43.313291,"lon":5.396838,"is_reserved":false,"is_disabled":false,"rental_uris":{"android":"levelo://app?vid=d3d8feda-1762-4ae3-84b7-7eae388b54b2","ios":"levelo://app?vid=d3d8feda-1762-4ae3-84b7-7eae388b54b2"},"vehicle_type_id":"4","last_reported":1705199221,"current_range_meters":16800,"station_id":"ce4bgvp2rcd13ifvqcu0","pricing_plan_id":"free"},{"bike_id":"4ea78319-9206-48bc-b62c-29f98552a891","system_id":"levelo_inurba_marseille","lat":43.313291,"lon":5.396838,"is_reserved":false,"is_disabled":false,"rental_uris":{"android":"levelo://app?vid=4ea78319-9206-48bc-b62c-29f98552a891","ios":"levelo://app?vid=4ea78319-9206-48bc-b62c-29f98552a891"},"vehicle_type_id":"4","last_reported":1705199221,"current_range_meters":29600,"station_id":"ce4bgvp2rcd13ifvqcu0","pricing_plan_id":"free"},{"bike_id":"7bb49666-0f57-4a02-9f13-59efe1dced31","system_id":"levelo_inurba_marseille","lat":43.313291,"lon":5.396838,"is_reserved":false,"is_disabled":false,"rental_uris":{"android":"levelo://app?vid=7bb49666-0f57-4a02-9f13-59efe1dced31","ios":"levelo://app?vid=7bb49666-0f57-4a02-9f13-59efe1dced31"},"vehicle_type_id":"4","last_reported":1705199221,"current_range_meters":28400,"station_id":"ce4bgvp2rcd13ifvqcu0","pricing_plan_id":"free"},{"bike_id":"05211583-c467-417e-b96e-47530792ebbc","system_id":"levelo_inurba_marseille","lat":43.31323,"lon":5.39699,"is_reserved":false,"is_disabled":false,"rental_uris":{"android":"levelo://app?vid=05211583-c467-417e-b96e-47530792ebbc","ios":"levelo://app?vid=05211583-c467-417e-b96e-47530792ebbc"},"vehicle_type_id":"4","last_reported":1705199221,"current_range_meters":1600,"station_id":"ce4bgvp2rcd13ifvqcu0","pricing_plan_id":"free"},{"bike_id":"72839dbf-858e-4652-91b6-648c6a72c6a6","system_id":"levelo_inurba_marseille","lat":43.313291,"lon":5.396838,"is_reserved":false,"is_disabled":false,"rental_uris":{"android":"levelo://app?vid=72839dbf-858e-4652-91b6-648c6a72c6a6","ios":"levelo://app?vid=72839dbf-858e-4652-91b6-648c6a72c6a6"},"vehicle_type_id":"4","last_reported":1705199221,"current_range_meters":24800,"station_id":"ce4bgvp2rcd13ifvqcu0","pricing_plan_id":"free"},{"bike_id":"2438b925-e900-4827-bdd4-24b6fddf1827","system_id":"levelo_inurba_marseille","lat":43.309038,"lon":5.396546,"is_reserved":false,"is_disabled":false,"rental_uris":{"android":"levelo://app?vid=2438b925-e900-4827-bdd4-24b6fddf1827","ios":"levelo://app?vid=2438b925-e900-4827-bdd4-24b6fddf1827"},"vehicle_type_id":"4","last_reported":1705199221,"current_range_meters":21200,"station_id":"ce4bh012rcd13ifvqcv0","pricing_plan_id":"free"},{"bike_id":"fb3c827d-8819-445b-949a-0598c4625828","system_id":"levelo_inurba_marseille","lat":43.2607,"lon":5.393983,"is_reserved":false,"is_disabled":false,"rental_uris":{"android":"levelo://app?vid=fb3c827d-8819-445b-949a-0598c4625828","ios":"levelo://app?vid=fb3c827d-8819-445b-949a-0598c4625828"},"vehicle_type_id":"4","last_reported":1705199221,"current_range_meters":27600,"station_id":"ce4bhh92rcd13ifvqfj0","pricing_plan_id":"free"},{"bike_id":"c0fe1981-dea2-4d91-bf2f-46811a5816d1","system_id":"levelo_inurba_marseille","lat":43.290779,"lon":5.371482,"is_reserved":false,"is_disabled":false,"rental_uris":{"android":"levelo://app?vid=c0fe1981-dea2-4d91-bf2f-46811a5816d1","ios":"levelo://app?vid=c0fe1981-dea2-4d91-bf2f-46811a5816d1"},"vehicle_type_id":"4","last_reported":1705199221,"current_range_meters":24000,"station_id":"ce4bh5p2rcd13ifvqe4g","pricing_plan_id":"free"},{"bike_id":"c23f9543-b483-4cf1-b002-1eb3fc8cea45","system_id":"levelo_inurba_marseille","lat":43.290624,"lon":5.359245,"is_reserved":false,"is_disabled":false,"rental_uris":{"android":"levelo://app?vid=c23f9543-b483-4cf1-b002-1eb3fc8cea45","ios":"levelo://app?vid=c23f9543-b483-4cf1-b002-1eb3fc8cea45"},"vehicle_type_id":"4","last_reported":1705199221,"current_range_meters":23200,"station_id":"ce4bha92rcd13ifvqeg0","pricing_plan_id":"free"},{"bike_id":"0e5ebe70-4eb4-4133-8a5d-2428355f8e02","system_id":"levelo_inurba_marseille","lat":43.290631,"lon":5.359244,"is_reserved":false,"is_disabled":false,"rental_uris":{"android":"levelo://app?vid=0e5ebe70-4eb4-4133-8a5d-2428355f8e02","ios":"levelo://app?vid=0e5ebe70-4eb4-4133-8a5d-2428355f8e02"},"vehicle_type_id":"4","last_reported":1705199221,"current_range_meters":31600,"station_id":"ce4bha92rcd13ifvqeg0","pricing_plan_id":"free"},{"bike_id":"5eba145f-54fa-4764-a9ab-80785504c531","system_id":"levelo_inurba_marseille","lat":43.290624,"lon":5.359245,"is_reserved":false,"is_disabled":false,"rental_uris":{"android":"levelo://app?vid=5eba145f-54fa-4764-a9ab-80785504c531","ios":"levelo://app?vid=5eba145f-54fa-4764-a9ab-80785504c531"},"vehicle_type_id":"4","last_reported":1705199221,"current_range_meters":31600,"station_id":"ce4bha92rcd13ifvqeg0","pricing_plan_id":"free"},{"bike_id":"24743d61-77be-43fa-9ef6-09d5a3006850","system_id":"levelo_inurba_marseille","lat":43.290631,"lon":5.359244,"is_reserved":false,"is_disabled":false,"rental_uris":{"android":"levelo://app?vid=24743d61-77be-43fa-9ef6-09d5a3006850","ios":"levelo://app?vid=24743d61-77be-43fa-9ef6-09d5a3006850"},"vehicle_type_id":"4","last_reported":1705199221,"current_range_meters":23600,"station_id":"ce4bha92rcd13ifvqeg0","pricing_plan_id":"free"},{"bike_id":"794ee397-3c4c-4a89-ad14-e0c5c313d0c7","system_id":"levelo_inurba_marseille","lat":43.290406,"lon":5.359208,"is_reserved":false,"is_disabled":false,"rental_uris":{"android":"levelo://app?vid=794ee397-3c4c-4a89-ad14-e0c5c313d0c7","ios":"levelo://app?vid=794ee397-3c4c-4a89-ad14-e0c5c313d0c7"},"vehicle_type_id":"4","last_reported":1705199221,"current_range_meters":0,"station_id":"ce4bha92rcd13ifvqeg0","pricing_plan_id":"free"},{"bike_id":"aaff8155-bfe0-4259-b766-27aa8d1466c5","system_id":"levelo_inurba_marseille","lat":43.290631,"lon":5.359244,"is_reserved":false,"is_disabled":false,"rental_uris":{"android":"levelo://app?vid=aaff8155-bfe0-4259-b766-27aa8d1466c5","ios":"levelo://app?vid=aaff8155-bfe0-4259-b766-27aa8d1466c5"},"vehicle_type_id":"4","last_reported":1705199221,"current_range_meters":31600,"station_id":"ce4bha92rcd13ifvqeg0","pricing_plan_id":"free"},{"bike_id":"f958943f-471c-4236-812c-6442593e52c3","system_id":"levelo_inurba_marseille","lat":43.289184,"lon":5.366408,"is_reserved":false,"is_disabled":false,"rental_uris":{"android":"levelo://app?vid=f958943f-471c-4236-812c-6442593e52c3","ios":"levelo://app?vid=f958943f-471c-4236-812c-6442593e52c3"},"vehicle_type_id":"4","last_reported":1705199221,"current_range_meters":17200,"station_id":"ce4bhap2rcd13ifvqek0","pricing_plan_id":"free"},{"bike_id":"c8c23737-8721-4bab-ba86-e598ce27b9ab","system_id":"levelo_inurba_marseille","lat":43.290327,"lon":5.375711,"is_reserved":false,"is_disabled":false,"rental_uris":{"android":"levelo://app?vid=c8c23737-8721-4bab-ba86-e598ce27b9ab","ios":"levelo://app?vid=c8c23737-8721-4bab-ba86-e598ce27b9ab"},"vehicle_type_id":"4","last_reported":1705199221,"current_range_meters":26000,"station_id":"ce4bh692rcd13ifvqe90","pricing_plan_id":"free"},{"bike_id":"6809ed8d-c3fd-42d4-8f9b-bd573a51b704","system_id":"levelo_inurba_marseille","lat":43.289184,"lon":5.366408,"is_reserved":false,"is_disabled":false,"rental_uris":{"android":"levelo://app?vid=6809ed8d-c3fd-42d4-8f9b-bd573a51b704","ios":"levelo://app?vid=6809ed8d-c3fd-42d4-8f9b-bd573a51b704"},"vehicle_type_id":"4","last_reported":1705199221,"current_range_meters":19200,"station_id":"ce4bhap2rcd13ifvqek0","pricing_plan_id":"free"},{"bike_id":"b8cc4236-1a94-4e6a-b16b-92b58219777e","system_id":"levelo_inurba_marseille","lat":43.289384,"lon":5.363938,"is_reserved":false,"is_disabled":false,"rental_uris":{"android":"levelo://app?vid=b8cc4236-1a94-4e6a-b16b-92b58219777e","ios":"levelo://app?vid=b8cc4236-1a94-4e6a-b16b-92b58219777e"},"vehicle_type_id":"4","last_reported":1705199221,"current_range_meters":0,"station_id":"ce4bhc92rcd13ifvqetg","pricing_plan_id":"free"},{"bike_id":"465b8bc2-bee6-44dc-b489-7a1112c221b0","system_id":"levelo_inurba_marseille","lat":43.29265,"lon":5.3843,"is_reserved":false,"is_disabled":false,"rental_uris":{"android":"levelo://app?vid=465b8bc2-bee6-44dc-b489-7a1112c221b0","ios":"levelo://app?vid=465b8bc2-bee6-44dc-b489-7a1112c221b0"},"vehicle_type_id":"4","last_reported":1705199221,"current_range_meters":31600,"station_id":"ce4bh692rcd13ifvqea0","pricing_plan_id":"free"},{"bike_id":"b5436978-6c8f-4a66-bd4c-e197c423e6dc","system_id":"levelo_inurba_marseille","lat":43.290103,"lon":5.356114,"is_reserved":false,"is_disabled":false,"rental_uris":{"android":"levelo://app?vid=b5436978-6c8f-4a66-bd4c-e197c423e6dc","ios":"levelo://app?vid=b5436978-6c8f-4a66-bd4c-e197c423e6dc"},"vehicle_type_id":"4","last_reported":1705199221,"current_range_meters":31600,"station_id":"ce4bhb92rcd13ifvqen0","pricing_plan_id":"free"},{"bike_id":"86f27bbe-5ff5-45cd-948b-e0833f04d576","system_id":"levelo_inurba_marseille","lat":43.330442,"lon":5.389148,"is_reserved":false,"is_disabled":false,"rental_uris":{"android":"levelo://app?vid=86f27bbe-5ff5-45cd-948b-e0833f04d576","ios":"levelo://app?vid=86f27bbe-5ff5-45cd-948b-e0833f04d576"},"vehicle_type_id":"4","last_reported":1705199221,"current_range_meters":19200,"station_id":"ce4bhr92rcd13ifvqhrg","pricing_plan_id":"free"},{"bike_id":"09ab6abf-eb39-458e-99af-dc9032b14763","system_id":"levelo_inurba_marseille","lat":43.33023,"lon":5.39034,"is_reserved":false,"is_disabled":false,"rental_uris":{"android":"levelo://app?vid=09ab6abf-eb39-458e-99af-dc9032b14763","ios":"levelo://app?vid=09ab6abf-eb39-458e-99af-dc9032b14763"},"vehicle_type_id":"4","last_reported":1705199221,"current_range_meters":14800,"station_id":"ce4bhr92rcd13ifvqhrg","pricing_plan_id":"free"},{"bike_id":"f7ff301f-4bfe-4aba-8d36-fa2819f428ac","system_id":"levelo_inurba_marseille","lat":43.330442,"lon":5.389148,"is_reserved":false,"is_disabled":false,"rental_uris":{"android":"levelo://app?vid=f7ff301f-4bfe-4aba-8d36-fa2819f428ac","ios":"levelo://app?vid=f7ff301f-4bfe-4aba-8d36-fa2819f428ac"},"vehicle_type_id":"4","last_reported":1705199221,"current_range_meters":27200,"station_id":"ce4bhr92rcd13ifvqhrg","pricing_plan_id":"free"},{"bike_id":"c28bf7d9-a577-46aa-bf40-4728418d5606","system_id":"levelo_inurba_marseille","lat":43.33024,"lon":5.39036,"is_reserved":false,"is_disabled":false,"rental_uris":{"android":"levelo://app?vid=c28bf7d9-a577-46aa-bf40-4728418d5606","ios":"levelo://app?vid=c28bf7d9-a577-46aa-bf40-4728418d5606"},"vehicle_type_id":"4","last_reported":1705199221,"current_range_meters":29200,"station_id":"ce4bhr92rcd13ifvqhrg","pricing_plan_id":"free"},{"bike_id":"4ff1afb2-1ced-48a7-9737-516454b16974","system_id":"levelo_inurba_marseille","lat":43.33021,"lon":5.39041,"is_reserved":false,"is_disabled":false,"rental_uris":{"android":"levelo://app?vid=4ff1afb2-1ced-48a7-9737-516454b16974","ios":"levelo://app?vid=4ff1afb2-1ced-48a7-9737-516454b16974"},"vehicle_type_id":"4","last_reported":1705199221,"current_range_meters":17200,"station_id":"ce4bhr92rcd13ifvqhrg","pricing_plan_id":"free"},{"bike_id":"feb20652-caa9-44c6-8a62-cccb0a8ed9b6","system_id":"levelo_inurba_marseille","lat":43.330442,"lon":5.389148,"is_reserved":false,"is_disabled":false,"rental_uris":{"android":"levelo://app?vid=feb20652-caa9-44c6-8a62-cccb0a8ed9b6","ios":"levelo://app?vid=feb20652-caa9-44c6-8a62-cccb0a8ed9b6"},"vehicle_type_id":"4","last_reported":1705199221,"current_range_meters":0,"station_id":"ce4bhr92rcd13ifvqhrg","pricing_plan_id":"free"},{"bike_id":"b2885ac7-47de-4d1b-aa83-2dbba3f434a6","system_id":"levelo_inurba_marseille","lat":43.330442,"lon":5.389148,"is_reserved":false,"is_disabled":false,"rental_uris":{"android":"levelo://app?vid=b2885ac7-47de-4d1b-aa83-2dbba3f434a6","ios":"levelo://app?vid=b2885ac7-47de-4d1b-aa83-2dbba3f434a6"},"vehicle_type_id":"4","last_reported":1705199221,"current_range_meters":0,"station_id":"ce4bhr92rcd13ifvqhrg","pricing_plan_id":"free"},{"bike_id":"5d81c8e1-bfb5-4836-933e-0c9429394d0b","system_id":"levelo_inurba_marseille","lat":43.330442,"lon":5.389148,"is_reserved":false,"is_disabled":false,"rental_uris":{"android":"levelo://app?vid=5d81c8e1-bfb5-4836-933e-0c9429394d0b","ios":"levelo://app?vid=5d81c8e1-bfb5-4836-933e-0c9429394d0b"},"vehicle_type_id":"4","last_reported":1705199221,"current_range_meters":16400,"station_id":"ce4bhr92rcd13ifvqhrg","pricing_plan_id":"free"},{"bike_id":"c3e044cb-b151-474d-ac04-adbbe6ef019d","system_id":"levelo_inurba_marseille","lat":43.33026,"lon":5.39041,"is_reserved":false,"is_disabled":false,"rental_uris":{"android":"levelo://app?vid=c3e044cb-b151-474d-ac04-adbbe6ef019d","ios":"levelo://app?vid=c3e044cb-b151-474d-ac04-adbbe6ef019d"},"vehicle_type_id":"4","last_reported":1705199221,"current_range_meters":3600,"station_id":"ce4bhr92rcd13ifvqhrg","pricing_plan_id":"free"},{"bike_id":"5e21ea74-79fb-445f-a1fd-0d2b8da69ae3","system_id":"levelo_inurba_marseille","lat":43.330442,"lon":5.389148,"is_reserved":false,"is_disabled":false,"rental_uris":{"android":"levelo://app?vid=5e21ea74-79fb-445f-a1fd-0d2b8da69ae3","ios":"levelo://app?vid=5e21ea74-79fb-445f-a1fd-0d2b8da69ae3"},"vehicle_type_id":"4","last_reported":1705199221,"current_range_meters":9600,"station_id":"ce4bhr92rcd13ifvqhrg","pricing_plan_id":"free"},{"bike_id":"64e1dbd0-9da5-42ca-ac38-6ffb8073af2b","system_id":"levelo_inurba_marseille","lat":43.330442,"lon":5.389148,"is_reserved":false,"is_disabled":false,"rental_uris":{"android":"levelo://app?vid=64e1dbd0-9da5-42ca-ac38-6ffb8073af2b","ios":"levelo://app?vid=64e1dbd0-9da5-42ca-ac38-6ffb8073af2b"},"vehicle_type_id":"4","last_reported":1705199221,"current_range_meters":20400,"station_id":"ce4bhr92rcd13ifvqhrg","pricing_plan_id":"free"},{"bike_id":"9fa28e51-97cd-4aff-bc10-430a264f0acf","system_id":"levelo_inurba_marseille","lat":43.33035,"lon":5.39034,"is_reserved":false,"is_disabled":false,"rental_uris":{"android":"levelo://app?vid=9fa28e51-97cd-4aff-bc10-430a264f0acf","ios":"levelo://app?vid=9fa28e51-97cd-4aff-bc10-430a264f0acf"},"vehicle_type_id":"4","last_reported":1705199221,"current_range_meters":20800,"station_id":"ce4bhr92rcd13ifvqhrg","pricing_plan_id":"free"},{"bike_id":"68c15ded-119e-4aad-aa0b-6e9d4b7149fd","system_id":"levelo_inurba_marseille","lat":43.330442,"lon":5.389148,"is_reserved":false,"is_disabled":false,"rental_uris":{"android":"levelo://app?vid=68c15ded-119e-4aad-aa0b-6e9d4b7149fd","ios":"levelo://app?vid=68c15ded-119e-4aad-aa0b-6e9d4b7149fd"},"vehicle_type_id":"4","last_reported":1705199221,"current_range_meters":18800,"station_id":"ce4bhr92rcd13ifvqhrg","pricing_plan_id":"free"},{"bike_id":"fa05001b-7a91-4477-80ef-04da15cb3d28","system_id":"levelo_inurba_marseille","lat":43.28856,"lon":5.358371,"is_reserved":false,"is_disabled":false,"rental_uris":{"android":"levelo://app?vid=fa05001b-7a91-4477-80ef-04da15cb3d28","ios":"levelo://app?vid=fa05001b-7a91-4477-80ef-04da15cb3d28"},"vehicle_type_id":"4","last_reported":1705199221,"current_range_meters":31600,"station_id":"ce4bhb12rcd13ifvqem0","pricing_plan_id":"free"},{"bike_id":"c553cdde-effd-4588-a964-0f8cf6a01b13","system_id":"levelo_inurba_marseille","lat":43.28856,"lon":5.358371,"is_reserved":false,"is_disabled":false,"rental_uris":{"android":"levelo://app?vid=c553cdde-effd-4588-a964-0f8cf6a01b13","ios":"levelo://app?vid=c553cdde-effd-4588-a964-0f8cf6a01b13"},"vehicle_type_id":"4","last_reported":1705199221,"current_range_meters":20800,"station_id":"ce4bhb12rcd13ifvqem0","pricing_plan_id":"free"},{"bike_id":"7840dc58-300b-4ea8-91e4-513b643b7ff1","system_id":"levelo_inurba_marseille","lat":43.28856,"lon":5.358371,"is_reserved":false,"is_disabled":false,"rental_uris":{"android":"levelo://app?vid=7840dc58-300b-4ea8-91e4-513b643b7ff1","ios":"levelo://app?vid=7840dc58-300b-4ea8-91e4-513b643b7ff1"},"vehicle_type_id":"4","last_reported":1705199221,"current_range_meters":28400,"station_id":"ce4bhb12rcd13ifvqem0","pricing_plan_id":"free"},{"bike_id":"509214b2-3a48-478a-bb1c-c74559713191","system_id":"levelo_inurba_marseille","lat":43.312609,"lon":5.401662,"is_reserved":false,"is_disabled":false,"rental_uris":{"android":"levelo://app?vid=509214b2-3a48-478a-bb1c-c74559713191","ios":"levelo://app?vid=509214b2-3a48-478a-bb1c-c74559713191"},"vehicle_type_id":"4","last_reported":1705199221,"current_range_meters":18400,"station_id":"ce4bh092rcd13ifvqd30","pricing_plan_id":"free"},{"bike_id":"127c5198-451c-44e0-8ef3-4e18f5aebbf2","system_id":"levelo_inurba_marseille","lat":43.309322,"lon":5.401396,"is_reserved":false,"is_disabled":false,"rental_uris":{"android":"levelo://app?vid=127c5198-451c-44e0-8ef3-4e18f5aebbf2","ios":"levelo://app?vid=127c5198-451c-44e0-8ef3-4e18f5aebbf2"},"vehicle_type_id":"4","last_reported":1705199221,"current_range_meters":21600,"station_id":"ce4bgvp2rcd13ifvqct0","pricing_plan_id":"free"},{"bike_id":"bb2cfc4d-367e-40d9-8e6e-77d59d4489af","system_id":"levelo_inurba_marseille","lat":43.309371,"lon":5.401449,"is_reserved":false,"is_disabled":false,"rental_uris":{"android":"levelo://app?vid=bb2cfc4d-367e-40d9-8e6e-77d59d4489af","ios":"levelo://app?vid=bb2cfc4d-367e-40d9-8e6e-77d59d4489af"},"vehicle_type_id":"4","last_reported":1705199221,"current_range_meters":12400,"station_id":"ce4bgvp2rcd13ifvqct0","pricing_plan_id":"free"},{"bike_id":"6e84e433-6352-4936-9dd7-1cbe5ee77bbf","system_id":"levelo_inurba_marseille","lat":43.309258,"lon":5.401438,"is_reserved":false,"is_disabled":false,"rental_uris":{"android":"levelo://app?vid=6e84e433-6352-4936-9dd7-1cbe5ee77bbf","ios":"levelo://app?vid=6e84e433-6352-4936-9dd7-1cbe5ee77bbf"},"vehicle_type_id":"4","last_reported":1705199221,"current_range_meters":4400,"station_id":"ce4bgvp2rcd13ifvqct0","pricing_plan_id":"free"},{"bike_id":"a797f8d2-7efd-4cb9-a916-c395e3c1d358","system_id":"levelo_inurba_marseille","lat":43.309371,"lon":5.401449,"is_reserved":false,"is_disabled":false,"rental_uris":{"android":"levelo://app?vid=a797f8d2-7efd-4cb9-a916-c395e3c1d358","ios":"levelo://app?vid=a797f8d2-7efd-4cb9-a916-c395e3c1d358"},"vehicle_type_id":"4","last_reported":1705199221,"current_range_meters":5200,"station_id":"ce4bgvp2rcd13ifvqct0","pricing_plan_id":"free"},{"bike_id":"63222075-c284-4588-90b6-310e41c98a66","system_id":"levelo_inurba_marseille","lat":43.309371,"lon":5.401449,"is_reserved":false,"is_disabled":false,"rental_uris":{"android":"levelo://app?vid=63222075-c284-4588-90b6-310e41c98a66","ios":"levelo://app?vid=63222075-c284-4588-90b6-310e41c98a66"},"vehicle_type_id":"4","last_reported":1705199221,"current_range_meters":24000,"station_id":"ce4bgvp2rcd13ifvqct0","pricing_plan_id":"free"},{"bike_id":"fcef677f-14d6-42a4-bd7f-7e9648db2bd1","system_id":"levelo_inurba_marseille","lat":43.306412,"lon":5.401035,"is_reserved":false,"is_disabled":false,"rental_uris":{"android":"levelo://app?vid=fcef677f-14d6-42a4-bd7f-7e9648db2bd1","ios":"levelo://app?vid=fcef677f-14d6-42a4-bd7f-7e9648db2bd1"},"vehicle_type_id":"4","last_reported":1705199221,"current_range_meters":28000,"station_id":"ce4bh112rcd13ifvqda0","pricing_plan_id":"free"},{"bike_id":"20f61a80-f2b4-4c45-83b4-778156604dff","system_id":"levelo_inurba_marseille","lat":43.30642,"lon":5.401031,"is_reserved":false,"is_disabled":false,"rental_uris":{"android":"levelo://app?vid=20f61a80-f2b4-4c45-83b4-778156604dff","ios":"levelo://app?vid=20f61a80-f2b4-4c45-83b4-778156604dff"},"vehicle_type_id":"4","last_reported":1705199221,"current_range_meters":31600,"station_id":"ce4bh112rcd13ifvqda0","pricing_plan_id":"free"},{"bike_id":"3e952dac-6214-49b7-8208-cec0c6694583","system_id":"levelo_inurba_marseille","lat":43.30642,"lon":5.401031,"is_reserved":false,"is_disabled":false,"rental_uris":{"android":"levelo://app?vid=3e952dac-6214-49b7-8208-cec0c6694583","ios":"levelo://app?vid=3e952dac-6214-49b7-8208-cec0c6694583"},"vehicle_type_id":"4","last_reported":1705199221,"current_range_meters":31600,"station_id":"ce4bh112rcd13ifvqda0","pricing_plan_id":"free"},{"bike_id":"83e5a664-ca1d-42b1-8894-e830b0d71940","system_id":"levelo_inurba_marseille","lat":43.30642,"lon":5.401031,"is_reserved":false,"is_disabled":false,"rental_uris":{"android":"levelo://app?vid=83e5a664-ca1d-42b1-8894-e830b0d71940","ios":"levelo://app?vid=83e5a664-ca1d-42b1-8894-e830b0d71940"},"vehicle_type_id":"4","last_reported":1705199221,"current_range_meters":21200,"station_id":"ce4bh112rcd13ifvqda0","pricing_plan_id":"free"},{"bike_id":"832f1195-f6ae-40da-a043-c96fc84ae65b","system_id":"levelo_inurba_marseille","lat":43.28727,"lon":5.36078,"is_reserved":false,"is_disabled":false,"rental_uris":{"android":"levelo://app?vid=832f1195-f6ae-40da-a043-c96fc84ae65b","ios":"levelo://app?vid=832f1195-f6ae-40da-a043-c96fc84ae65b"},"vehicle_type_id":"4","last_reported":1705199221,"current_range_meters":14000,"station_id":"cki0cbj6b192h4jlfktg","pricing_plan_id":"free"},{"bike_id":"1b725958-43af-407b-88ac-1de80713dd7d","system_id":"levelo_inurba_marseille","lat":43.28727,"lon":5.36078,"is_reserved":false,"is_disabled":false,"rental_uris":{"android":"levelo://app?vid=1b725958-43af-407b-88ac-1de80713dd7d","ios":"levelo://app?vid=1b725958-43af-407b-88ac-1de80713dd7d"},"vehicle_type_id":"4","last_reported":1705199221,"current_range_meters":5600,"station_id":"cki0cbj6b192h4jlfktg","pricing_plan_id":"free"},{"bike_id":"ba1832ac-6dd2-4045-8ea2-ada67292ca32","system_id":"levelo_inurba_marseille","lat":43.28727,"lon":5.36078,"is_reserved":false,"is_disabled":false,"rental_uris":{"android":"levelo://app?vid=ba1832ac-6dd2-4045-8ea2-ada67292ca32","ios":"levelo://app?vid=ba1832ac-6dd2-4045-8ea2-ada67292ca32"},"vehicle_type_id":"4","last_reported":1705199221,"current_range_meters":27200,"station_id":"cki0cbj6b192h4jlfktg","pricing_plan_id":"free"},{"bike_id":"bc552325-aeb0-49b5-a636-e745070c7cc1","system_id":"levelo_inurba_marseille","lat":43.28727,"lon":5.36078,"is_reserved":false,"is_disabled":false,"rental_uris":{"android":"levelo://app?vid=bc552325-aeb0-49b5-a636-e745070c7cc1","ios":"levelo://app?vid=bc552325-aeb0-49b5-a636-e745070c7cc1"},"vehicle_type_id":"4","last_reported":1705199221,"current_range_meters":22400,"station_id":"cki0cbj6b192h4jlfktg","pricing_plan_id":"free"},{"bike_id":"f5a788d5-7dd3-47ca-a64a-c2e24814e58e","system_id":"levelo_inurba_marseille","lat":43.286961,"lon":5.373785,"is_reserved":false,"is_disabled":false,"rental_uris":{"android":"levelo://app?vid=f5a788d5-7dd3-47ca-a64a-c2e24814e58e","ios":"levelo://app?vid=f5a788d5-7dd3-47ca-a64a-c2e24814e58e"},"vehicle_type_id":"4","last_reported":1705199221,"current_range_meters":22800,"station_id":"ce4bh3p2rcd13ifvqdq0","pricing_plan_id":"free"},{"bike_id":"16c2ad25-4d1b-4194-aabe-55d540acd4e9","system_id":"levelo_inurba_marseille","lat":43.295194,"lon":5.39397,"is_reserved":false,"is_disabled":false,"rental_uris":{"android":"levelo://app?vid=16c2ad25-4d1b-4194-aabe-55d540acd4e9","ios":"levelo://app?vid=16c2ad25-4d1b-4194-aabe-55d540acd4e9"},"vehicle_type_id":"4","last_reported":1705199221,"current_range_meters":4800,"station_id":"ce4bh292rcd13ifvqdf0","pricing_plan_id":"free"},{"bike_id":"fefad210-db64-44d2-b986-d0382e51158e","system_id":"levelo_inurba_marseille","lat":43.286591,"lon":5.363346,"is_reserved":false,"is_disabled":false,"rental_uris":{"android":"levelo://app?vid=fefad210-db64-44d2-b986-d0382e51158e","ios":"levelo://app?vid=fefad210-db64-44d2-b986-d0382e51158e"},"vehicle_type_id":"4","last_reported":1705199221,"current_range_meters":0,"station_id":"ce4bhah2rcd13ifvqej0","pricing_plan_id":"free"},{"bike_id":"0bd01e42-41c1-4341-91ea-de997eb962a4","system_id":"levelo_inurba_marseille","lat":43.286961,"lon":5.373785,"is_reserved":false,"is_disabled":false,"rental_uris":{"android":"levelo://app?vid=0bd01e42-41c1-4341-91ea-de997eb962a4","ios":"levelo://app?vid=0bd01e42-41c1-4341-91ea-de997eb962a4"},"vehicle_type_id":"4","last_reported":1705199221,"current_range_meters":28400,"station_id":"ce4bh3p2rcd13ifvqdq0","pricing_plan_id":"free"},{"bike_id":"ee513de1-968d-49db-94bd-9305abffaa8a","system_id":"levelo_inurba_marseille","lat":43.286961,"lon":5.373785,"is_reserved":false,"is_disabled":false,"rental_uris":{"android":"levelo://app?vid=ee513de1-968d-49db-94bd-9305abffaa8a","ios":"levelo://app?vid=ee513de1-968d-49db-94bd-9305abffaa8a"},"vehicle_type_id":"4","last_reported":1705199221,"current_range_meters":8800,"station_id":"ce4bh3p2rcd13ifvqdq0","pricing_plan_id":"free"},{"bike_id":"513fdb94-bd29-4d6b-97b7-8c7c7682bb24","system_id":"levelo_inurba_marseille","lat":43.286961,"lon":5.373785,"is_reserved":false,"is_disabled":false,"rental_uris":{"android":"levelo://app?vid=513fdb94-bd29-4d6b-97b7-8c7c7682bb24","ios":"levelo://app?vid=513fdb94-bd29-4d6b-97b7-8c7c7682bb24"},"vehicle_type_id":"4","last_reported":1705199221,"current_range_meters":6000,"station_id":"ce4bh3p2rcd13ifvqdq0","pricing_plan_id":"free"},{"bike_id":"d4500231-0ded-495a-9d37-506d8478401a","system_id":"levelo_inurba_marseille","lat":43.286961,"lon":5.373785,"is_reserved":false,"is_disabled":false,"rental_uris":{"android":"levelo://app?vid=d4500231-0ded-495a-9d37-506d8478401a","ios":"levelo://app?vid=d4500231-0ded-495a-9d37-506d8478401a"},"vehicle_type_id":"4","last_reported":1705199221,"current_range_meters":19600,"station_id":"ce4bh3p2rcd13ifvqdq0","pricing_plan_id":"free"},{"bike_id":"92f98e0b-7538-478a-9928-dfeb12fd3544","system_id":"levelo_inurba_marseille","lat":43.302759,"lon":5.400793,"is_reserved":false,"is_disabled":false,"rental_uris":{"android":"levelo://app?vid=92f98e0b-7538-478a-9928-dfeb12fd3544","ios":"levelo://app?vid=92f98e0b-7538-478a-9928-dfeb12fd3544"},"vehicle_type_id":"4","last_reported":1705199221,"current_range_meters":22000,"station_id":"ce4bgvh2rcd13ifvqcs0","pricing_plan_id":"free"},{"bike_id":"d5ff2230-bfc7-4acf-b875-34732d500efc","system_id":"levelo_inurba_marseille","lat":43.286039,"lon":5.370681,"is_reserved":false,"is_disabled":false,"rental_uris":{"android":"levelo://app?vid=d5ff2230-bfc7-4acf-b875-34732d500efc","ios":"levelo://app?vid=d5ff2230-bfc7-4acf-b875-34732d500efc"},"vehicle_type_id":"4","last_reported":1705199221,"current_range_meters":1200,"station_id":"ce4bht12rcd13ifvqi60","pricing_plan_id":"free"},{"bike_id":"57ca8693-42d4-4fe6-bb90-93b9e80d683d","system_id":"levelo_inurba_marseille","lat":43.286039,"lon":5.370679,"is_reserved":false,"is_disabled":false,"rental_uris":{"android":"levelo://app?vid=57ca8693-42d4-4fe6-bb90-93b9e80d683d","ios":"levelo://app?vid=57ca8693-42d4-4fe6-bb90-93b9e80d683d"},"vehicle_type_id":"4","last_reported":1705199221,"current_range_meters":13200,"station_id":"ce4bht12rcd13ifvqi60","pricing_plan_id":"free"},{"bike_id":"b52b6a57-5a13-46cb-981c-aa08b596c67d","system_id":"levelo_inurba_marseille","lat":43.287184,"lon":5.37937,"is_reserved":false,"is_disabled":false,"rental_uris":{"android":"levelo://app?vid=b52b6a57-5a13-46cb-981c-aa08b596c67d","ios":"levelo://app?vid=b52b6a57-5a13-46cb-981c-aa08b596c67d"},"vehicle_type_id":"4","last_reported":1705199221,"current_range_meters":28400,"station_id":"ce4bh9p2rcd13ifvqec0","pricing_plan_id":"free"},{"bike_id":"53b9c2f3-eab3-43ce-9487-c3af00533bab","system_id":"levelo_inurba_marseille","lat":43.291671,"lon":5.371575,"is_reserved":false,"is_disabled":false,"rental_uris":{"android":"levelo://app?vid=53b9c2f3-eab3-43ce-9487-c3af00533bab","ios":"levelo://app?vid=53b9c2f3-eab3-43ce-9487-c3af00533bab"},"vehicle_type_id":"4","last_reported":1705199221,"current_range_meters":6800,"station_id":"ce4bha92rcd13ifvqeh0","pricing_plan_id":"free"},{"bike_id":"b7076b39-4218-4e1e-863b-3309acb3de33","system_id":"levelo_inurba_marseille","lat":43.316828,"lon":5.404723,"is_reserved":false,"is_disabled":false,"rental_uris":{"android":"levelo://app?vid=b7076b39-4218-4e1e-863b-3309acb3de33","ios":"levelo://app?vid=b7076b39-4218-4e1e-863b-3309acb3de33"},"vehicle_type_id":"4","last_reported":1705199221,"current_range_meters":2800,"station_id":"ce4bh012rcd13ifvqd00","pricing_plan_id":"free"},{"bike_id":"c7ecaf50-589c-4754-a771-478ddbdc68d0","system_id":"levelo_inurba_marseille","lat":43.316952,"lon":5.404726,"is_reserved":false,"is_disabled":false,"rental_uris":{"android":"levelo://app?vid=c7ecaf50-589c-4754-a771-478ddbdc68d0","ios":"levelo://app?vid=c7ecaf50-589c-4754-a771-478ddbdc68d0"},"vehicle_type_id":"4","last_reported":1705199221,"current_range_meters":25600,"station_id":"ce4bh012rcd13ifvqd00","pricing_plan_id":"free"},{"bike_id":"e144f044-7d7e-4eff-941a-a5e14896da5d","system_id":"levelo_inurba_marseille","lat":43.284534,"lon":5.358662,"is_reserved":false,"is_disabled":false,"rental_uris":{"android":"levelo://app?vid=e144f044-7d7e-4eff-941a-a5e14896da5d","ios":"levelo://app?vid=e144f044-7d7e-4eff-941a-a5e14896da5d"},"vehicle_type_id":"4","last_reported":1705199221,"current_range_meters":28000,"station_id":"ce4bhah2rcd13ifvqei0","pricing_plan_id":"free"},{"bike_id":"47a12f31-b511-48f7-bd6a-fb4d5e1c09e7","system_id":"levelo_inurba_marseille","lat":43.284534,"lon":5.358662,"is_reserved":false,"is_disabled":false,"rental_uris":{"android":"levelo://app?vid=47a12f31-b511-48f7-bd6a-fb4d5e1c09e7","ios":"levelo://app?vid=47a12f31-b511-48f7-bd6a-fb4d5e1c09e7"},"vehicle_type_id":"4","last_reported":1705199221,"current_range_meters":27200,"station_id":"ce4bhah2rcd13ifvqei0","pricing_plan_id":"free"},{"bike_id":"42a1cd32-16e5-4eed-8d0a-c6db455c7aad","system_id":"levelo_inurba_marseille","lat":43.294314,"lon":5.397498,"is_reserved":false,"is_disabled":false,"rental_uris":{"android":"levelo://app?vid=42a1cd32-16e5-4eed-8d0a-c6db455c7aad","ios":"levelo://app?vid=42a1cd32-16e5-4eed-8d0a-c6db455c7aad"},"vehicle_type_id":"4","last_reported":1705199221,"current_range_meters":22400,"station_id":"ce4bh3h2rcd13ifvqdo0","pricing_plan_id":"free"},{"bike_id":"0e24d271-86d7-4c14-9770-3b26c1e19f8d","system_id":"levelo_inurba_marseille","lat":43.284534,"lon":5.358662,"is_reserved":false,"is_disabled":false,"rental_uris":{"android":"levelo://app?vid=0e24d271-86d7-4c14-9770-3b26c1e19f8d","ios":"levelo://app?vid=0e24d271-86d7-4c14-9770-3b26c1e19f8d"},"vehicle_type_id":"4","last_reported":1705199221,"current_range_meters":18000,"station_id":"ce4bhah2rcd13ifvqei0","pricing_plan_id":"free"},{"bike_id":"3c8d4f61-8e69-4299-8a64-45f0f193d151","system_id":"levelo_inurba_marseille","lat":43.284597,"lon":5.35894,"is_reserved":false,"is_disabled":false,"rental_uris":{"android":"levelo://app?vid=3c8d4f61-8e69-4299-8a64-45f0f193d151","ios":"levelo://app?vid=3c8d4f61-8e69-4299-8a64-45f0f193d151"},"vehicle_type_id":"4","last_reported":1705199221,"current_range_meters":24400,"station_id":"ce4bhah2rcd13ifvqei0","pricing_plan_id":"free"},{"bike_id":"cd37f0ee-4409-4ea9-8d46-82e2e973df84","system_id":"levelo_inurba_marseille","lat":43.284534,"lon":5.358662,"is_reserved":false,"is_disabled":false,"rental_uris":{"android":"levelo://app?vid=cd37f0ee-4409-4ea9-8d46-82e2e973df84","ios":"levelo://app?vid=cd37f0ee-4409-4ea9-8d46-82e2e973df84"},"vehicle_type_id":"4","last_reported":1705199221,"current_range_meters":30800,"station_id":"ce4bhah2rcd13ifvqei0","pricing_plan_id":"free"},{"bike_id":"cedbd679-5f1e-40c2-b9ca-74ecab33ce36","system_id":"levelo_inurba_marseille","lat":43.284534,"lon":5.358662,"is_reserved":false,"is_disabled":false,"rental_uris":{"android":"levelo://app?vid=cedbd679-5f1e-40c2-b9ca-74ecab33ce36","ios":"levelo://app?vid=cedbd679-5f1e-40c2-b9ca-74ecab33ce36"},"vehicle_type_id":"4","last_reported":1705199221,"current_range_meters":30000,"station_id":"ce4bhah2rcd13ifvqei0","pricing_plan_id":"free"},{"bike_id":"d293410a-f78d-4f58-ac67-a6e5ae15678e","system_id":"levelo_inurba_marseille","lat":43.284538,"lon":5.358657,"is_reserved":false,"is_disabled":false,"rental_uris":{"android":"levelo://app?vid=d293410a-f78d-4f58-ac67-a6e5ae15678e","ios":"levelo://app?vid=d293410a-f78d-4f58-ac67-a6e5ae15678e"},"vehicle_type_id":"4","last_reported":1705199221,"current_range_meters":28000,"station_id":"ce4bhah2rcd13ifvqei0","pricing_plan_id":"free"},{"bike_id":"6f1aa667-4d08-48ee-8448-787fa777d345","system_id":"levelo_inurba_marseille","lat":43.294483,"lon":5.397433,"is_reserved":false,"is_disabled":false,"rental_uris":{"android":"levelo://app?vid=6f1aa667-4d08-48ee-8448-787fa777d345","ios":"levelo://app?vid=6f1aa667-4d08-48ee-8448-787fa777d345"},"vehicle_type_id":"4","last_reported":1705199221,"current_range_meters":0,"station_id":"ce4bh3h2rcd13ifvqdo0","pricing_plan_id":"free"},{"bike_id":"49b7bdd4-5388-4917-a8d8-3285202f4798","system_id":"levelo_inurba_marseille","lat":43.284534,"lon":5.358662,"is_reserved":false,"is_disabled":false,"rental_uris":{"android":"levelo://app?vid=49b7bdd4-5388-4917-a8d8-3285202f4798","ios":"levelo://app?vid=49b7bdd4-5388-4917-a8d8-3285202f4798"},"vehicle_type_id":"4","last_reported":1705199221,"current_range_meters":30000,"station_id":"ce4bhah2rcd13ifvqei0","pricing_plan_id":"free"},{"bike_id":"4f4f85b6-8d73-4e5c-a3c5-f792ef5bf18c","system_id":"levelo_inurba_marseille","lat":43.284534,"lon":5.358662,"is_reserved":false,"is_disabled":false,"rental_uris":{"android":"levelo://app?vid=4f4f85b6-8d73-4e5c-a3c5-f792ef5bf18c","ios":"levelo://app?vid=4f4f85b6-8d73-4e5c-a3c5-f792ef5bf18c"},"vehicle_type_id":"4","last_reported":1705199221,"current_range_meters":19600,"station_id":"ce4bhah2rcd13ifvqei0","pricing_plan_id":"free"},{"bike_id":"61fa3c04-f366-4acb-95b6-26147e863c76","system_id":"levelo_inurba_marseille","lat":43.28459,"lon":5.3589,"is_reserved":false,"is_disabled":false,"rental_uris":{"android":"levelo://app?vid=61fa3c04-f366-4acb-95b6-26147e863c76","ios":"levelo://app?vid=61fa3c04-f366-4acb-95b6-26147e863c76"},"vehicle_type_id":"4","last_reported":1705199221,"current_range_meters":30800,"station_id":"ce4bhah2rcd13ifvqei0","pricing_plan_id":"free"},{"bike_id":"51293a9f-297d-4142-973e-a1c4e9c9b794","system_id":"levelo_inurba_marseille","lat":43.284534,"lon":5.358662,"is_reserved":false,"is_disabled":false,"rental_uris":{"android":"levelo://app?vid=51293a9f-297d-4142-973e-a1c4e9c9b794","ios":"levelo://app?vid=51293a9f-297d-4142-973e-a1c4e9c9b794"},"vehicle_type_id":"4","last_reported":1705199221,"current_range_meters":27200,"station_id":"ce4bhah2rcd13ifvqei0","pricing_plan_id":"free"},{"bike_id":"dea2e7d2-2cf2-4a1a-896e-2ca6f3adffa0","system_id":"levelo_inurba_marseille","lat":43.284534,"lon":5.358662,"is_reserved":false,"is_disabled":false,"rental_uris":{"android":"levelo://app?vid=dea2e7d2-2cf2-4a1a-896e-2ca6f3adffa0","ios":"levelo://app?vid=dea2e7d2-2cf2-4a1a-896e-2ca6f3adffa0"},"vehicle_type_id":"4","last_reported":1705199221,"current_range_meters":31200,"station_id":"ce4bhah2rcd13ifvqei0","pricing_plan_id":"free"},{"bike_id":"c130289a-b2eb-455d-8f1d-40b41acd875a","system_id":"levelo_inurba_marseille","lat":43.284534,"lon":5.358662,"is_reserved":false,"is_disabled":false,"rental_uris":{"android":"levelo://app?vid=c130289a-b2eb-455d-8f1d-40b41acd875a","ios":"levelo://app?vid=c130289a-b2eb-455d-8f1d-40b41acd875a"},"vehicle_type_id":"4","last_reported":1705199221,"current_range_meters":24000,"station_id":"ce4bhah2rcd13ifvqei0","pricing_plan_id":"free"},{"bike_id":"02636bf0-b99b-4ac5-8d51-7901da9ec258","system_id":"levelo_inurba_marseille","lat":43.294314,"lon":5.397498,"is_reserved":false,"is_disabled":false,"rental_uris":{"android":"levelo://app?vid=02636bf0-b99b-4ac5-8d51-7901da9ec258","ios":"levelo://app?vid=02636bf0-b99b-4ac5-8d51-7901da9ec258"},"vehicle_type_id":"4","last_reported":1705199221,"current_range_meters":5600,"station_id":"ce4bh3h2rcd13ifvqdo0","pricing_plan_id":"free"},{"bike_id":"831d0161-98d9-481a-a661-ff6ebab5f3cf","system_id":"levelo_inurba_marseille","lat":43.331985,"lon":5.397003,"is_reserved":false,"is_disabled":false,"rental_uris":{"android":"levelo://app?vid=831d0161-98d9-481a-a661-ff6ebab5f3cf","ios":"levelo://app?vid=831d0161-98d9-481a-a661-ff6ebab5f3cf"},"vehicle_type_id":"4","last_reported":1705199221,"current_range_meters":12800,"station_id":"","pricing_plan_id":"free"},{"bike_id":"bb9f21b4-cb98-4181-9109-1e9c63dbb8e0","system_id":"levelo_inurba_marseille","lat":43.28414,"lon":5.37518,"is_reserved":false,"is_disabled":false,"rental_uris":{"android":"levelo://app?vid=bb9f21b4-cb98-4181-9109-1e9c63dbb8e0","ios":"levelo://app?vid=bb9f21b4-cb98-4181-9109-1e9c63dbb8e0"},"vehicle_type_id":"4","last_reported":1705199221,"current_range_meters":31200,"station_id":"ce4bh412rcd13ifvqds0","pricing_plan_id":"free"},{"bike_id":"7c041e4f-f075-4292-bd4d-040cdc87001f","system_id":"levelo_inurba_marseille","lat":43.28412,"lon":5.37509,"is_reserved":false,"is_disabled":false,"rental_uris":{"android":"levelo://app?vid=7c041e4f-f075-4292-bd4d-040cdc87001f","ios":"levelo://app?vid=7c041e4f-f075-4292-bd4d-040cdc87001f"},"vehicle_type_id":"4","last_reported":1705199221,"current_range_meters":25200,"station_id":"ce4bh412rcd13ifvqds0","pricing_plan_id":"free"},{"bike_id":"40b8ea00-3294-46ad-8862-baa19f87dfe1","system_id":"levelo_inurba_marseille","lat":43.295713,"lon":5.399639,"is_reserved":false,"is_disabled":false,"rental_uris":{"android":"levelo://app?vid=40b8ea00-3294-46ad-8862-baa19f87dfe1","ios":"levelo://app?vid=40b8ea00-3294-46ad-8862-baa19f87dfe1"},"vehicle_type_id":"4","last_reported":1705199221,"current_range_meters":31600,"station_id":"ce4bh312rcd13ifvqdj0","pricing_plan_id":"free"},{"bike_id":"e9f90f02-c30c-4661-8958-e447f6fe8c12","system_id":"levelo_inurba_marseille","lat":43.283998,"lon":5.375062,"is_reserved":false,"is_disabled":false,"rental_uris":{"android":"levelo://app?vid=e9f90f02-c30c-4661-8958-e447f6fe8c12","ios":"levelo://app?vid=e9f90f02-c30c-4661-8958-e447f6fe8c12"},"vehicle_type_id":"4","last_reported":1705199221,"current_range_meters":14800,"station_id":"ce4bh412rcd13ifvqds0","pricing_plan_id":"free"},{"bike_id":"846a9de4-8e42-4344-8518-585f976444b8","system_id":"levelo_inurba_marseille","lat":43.28409,"lon":5.37519,"is_reserved":false,"is_disabled":false,"rental_uris":{"android":"levelo://app?vid=846a9de4-8e42-4344-8518-585f976444b8","ios":"levelo://app?vid=846a9de4-8e42-4344-8518-585f976444b8"},"vehicle_type_id":"4","last_reported":1705199221,"current_range_meters":23600,"station_id":"ce4bh412rcd13ifvqds0","pricing_plan_id":"free"},{"bike_id":"11a6452d-a6b8-42aa-be90-ff8842842e88","system_id":"levelo_inurba_marseille","lat":43.283998,"lon":5.375062,"is_reserved":false,"is_disabled":false,"rental_uris":{"android":"levelo://app?vid=11a6452d-a6b8-42aa-be90-ff8842842e88","ios":"levelo://app?vid=11a6452d-a6b8-42aa-be90-ff8842842e88"},"vehicle_type_id":"4","last_reported":1705199221,"current_range_meters":32000,"station_id":"ce4bh412rcd13ifvqds0","pricing_plan_id":"free"},{"bike_id":"0b7f9d4a-2dc6-4655-a337-871766b22bca","system_id":"levelo_inurba_marseille","lat":43.283998,"lon":5.375062,"is_reserved":false,"is_disabled":false,"rental_uris":{"android":"levelo://app?vid=0b7f9d4a-2dc6-4655-a337-871766b22bca","ios":"levelo://app?vid=0b7f9d4a-2dc6-4655-a337-871766b22bca"},"vehicle_type_id":"4","last_reported":1705199221,"current_range_meters":12400,"station_id":"ce4bh412rcd13ifvqds0","pricing_plan_id":"free"},{"bike_id":"30b5205e-8fc1-4fed-90c5-e7e745ab1451","system_id":"levelo_inurba_marseille","lat":43.295713,"lon":5.399639,"is_reserved":false,"is_disabled":false,"rental_uris":{"android":"levelo://app?vid=30b5205e-8fc1-4fed-90c5-e7e745ab1451","ios":"levelo://app?vid=30b5205e-8fc1-4fed-90c5-e7e745ab1451"},"vehicle_type_id":"4","last_reported":1705199221,"current_range_meters":5200,"station_id":"ce4bh312rcd13ifvqdj0","pricing_plan_id":"free"},{"bike_id":"061604a8-3941-4fd1-9d72-c266a5f361c2","system_id":"levelo_inurba_marseille","lat":43.283998,"lon":5.375062,"is_reserved":false,"is_disabled":false,"rental_uris":{"android":"levelo://app?vid=061604a8-3941-4fd1-9d72-c266a5f361c2","ios":"levelo://app?vid=061604a8-3941-4fd1-9d72-c266a5f361c2"},"vehicle_type_id":"4","last_reported":1705199221,"current_range_meters":3200,"station_id":"ce4bh412rcd13ifvqds0","pricing_plan_id":"free"},{"bike_id":"1f95b204-7211-4e15-96f7-42e7605d2ac2","system_id":"levelo_inurba_marseille","lat":43.283998,"lon":5.375062,"is_reserved":false,"is_disabled":false,"rental_uris":{"android":"levelo://app?vid=1f95b204-7211-4e15-96f7-42e7605d2ac2","ios":"levelo://app?vid=1f95b204-7211-4e15-96f7-42e7605d2ac2"},"vehicle_type_id":"4","last_reported":1705199221,"current_range_meters":20400,"station_id":"ce4bh412rcd13ifvqds0","pricing_plan_id":"free"},{"bike_id":"ea08f817-c6bc-450c-b78a-88483b8393fb","system_id":"levelo_inurba_marseille","lat":43.283998,"lon":5.375062,"is_reserved":false,"is_disabled":false,"rental_uris":{"android":"levelo://app?vid=ea08f817-c6bc-450c-b78a-88483b8393fb","ios":"levelo://app?vid=ea08f817-c6bc-450c-b78a-88483b8393fb"},"vehicle_type_id":"4","last_reported":1705199221,"current_range_meters":27600,"station_id":"ce4bh412rcd13ifvqds0","pricing_plan_id":"free"},{"bike_id":"4209775e-88e2-42c3-80f1-c0c64c55179f","system_id":"levelo_inurba_marseille","lat":43.286595,"lon":5.386795,"is_reserved":false,"is_disabled":false,"rental_uris":{"android":"levelo://app?vid=4209775e-88e2-42c3-80f1-c0c64c55179f","ios":"levelo://app?vid=4209775e-88e2-42c3-80f1-c0c64c55179f"},"vehicle_type_id":"4","last_reported":1705199221,"current_range_meters":18800,"station_id":"ce4bh492rcd13ifvqdug","pricing_plan_id":"free"},{"bike_id":"d5b0fc81-2918-441f-91d1-3826cfa2ee17","system_id":"levelo_inurba_marseille","lat":43.286595,"lon":5.386795,"is_reserved":false,"is_disabled":false,"rental_uris":{"android":"levelo://app?vid=d5b0fc81-2918-441f-91d1-3826cfa2ee17","ios":"levelo://app?vid=d5b0fc81-2918-441f-91d1-3826cfa2ee17"},"vehicle_type_id":"4","last_reported":1705199221,"current_range_meters":19200,"station_id":"ce4bh492rcd13ifvqdug","pricing_plan_id":"free"},{"bike_id":"142ba30c-f9c5-40dd-a47f-83f36d862d50","system_id":"levelo_inurba_marseille","lat":43.319179,"lon":5.407725,"is_reserved":false,"is_disabled":false,"rental_uris":{"android":"levelo://app?vid=142ba30c-f9c5-40dd-a47f-83f36d862d50","ios":"levelo://app?vid=142ba30c-f9c5-40dd-a47f-83f36d862d50"},"vehicle_type_id":"4","last_reported":1705199221,"current_range_meters":29600,"station_id":"ce4bhq12rcd13ifvqhig","pricing_plan_id":"free"},{"bike_id":"705b5f3a-b0a8-4f50-b6ff-90583c1e8854","system_id":"levelo_inurba_marseille","lat":43.33717,"lon":5.391857,"is_reserved":false,"is_disabled":false,"rental_uris":{"android":"levelo://app?vid=705b5f3a-b0a8-4f50-b6ff-90583c1e8854","ios":"levelo://app?vid=705b5f3a-b0a8-4f50-b6ff-90583c1e8854"},"vehicle_type_id":"4","last_reported":1705199221,"current_range_meters":28800,"station_id":"ce4bhr92rcd13ifvqhsg","pricing_plan_id":"free"},{"bike_id":"3df0adb0-192e-464b-b0ad-bad788697b97","system_id":"levelo_inurba_marseille","lat":43.323464,"lon":5.406297,"is_reserved":false,"is_disabled":false,"rental_uris":{"android":"levelo://app?vid=3df0adb0-192e-464b-b0ad-bad788697b97","ios":"levelo://app?vid=3df0adb0-192e-464b-b0ad-bad788697b97"},"vehicle_type_id":"4","last_reported":1705199221,"current_range_meters":31600,"station_id":"ce4bhq92rcd13ifvqhjg","pricing_plan_id":"free"},{"bike_id":"9bf7f7cc-a66b-4075-ac1b-aeaabb199630","system_id":"levelo_inurba_marseille","lat":43.323464,"lon":5.406297,"is_reserved":false,"is_disabled":false,"rental_uris":{"android":"levelo://app?vid=9bf7f7cc-a66b-4075-ac1b-aeaabb199630","ios":"levelo://app?vid=9bf7f7cc-a66b-4075-ac1b-aeaabb199630"},"vehicle_type_id":"4","last_reported":1705199221,"current_range_meters":2000,"station_id":"ce4bhq92rcd13ifvqhjg","pricing_plan_id":"free"},{"bike_id":"f5729dfc-60a1-4670-a1dd-3e358055b216","system_id":"levelo_inurba_marseille","lat":43.323464,"lon":5.406297,"is_reserved":false,"is_disabled":false,"rental_uris":{"android":"levelo://app?vid=f5729dfc-60a1-4670-a1dd-3e358055b216","ios":"levelo://app?vid=f5729dfc-60a1-4670-a1dd-3e358055b216"},"vehicle_type_id":"4","last_reported":1705199221,"current_range_meters":31600,"station_id":"ce4bhq92rcd13ifvqhjg","pricing_plan_id":"free"},{"bike_id":"be06bc2a-17ba-44d7-a812-29a02b87f5f2","system_id":"levelo_inurba_marseille","lat":43.337168,"lon":5.391825,"is_reserved":false,"is_disabled":false,"rental_uris":{"android":"levelo://app?vid=be06bc2a-17ba-44d7-a812-29a02b87f5f2","ios":"levelo://app?vid=be06bc2a-17ba-44d7-a812-29a02b87f5f2"},"vehicle_type_id":"4","last_reported":1705199221,"current_range_meters":10400,"station_id":"ce4bhr92rcd13ifvqhsg","pricing_plan_id":"free"},{"bike_id":"f5372b49-6c55-46f3-ab09-7ae0863fcdbb","system_id":"levelo_inurba_marseille","lat":43.337168,"lon":5.391825,"is_reserved":false,"is_disabled":false,"rental_uris":{"android":"levelo://app?vid=f5372b49-6c55-46f3-ab09-7ae0863fcdbb","ios":"levelo://app?vid=f5372b49-6c55-46f3-ab09-7ae0863fcdbb"},"vehicle_type_id":"4","last_reported":1705199221,"current_range_meters":31200,"station_id":"ce4bhr92rcd13ifvqhsg","pricing_plan_id":"free"},{"bike_id":"99dc0bf4-7813-48a5-b5b3-d289f5287522","system_id":"levelo_inurba_marseille","lat":43.323356,"lon":5.406228,"is_reserved":false,"is_disabled":false,"rental_uris":{"android":"levelo://app?vid=99dc0bf4-7813-48a5-b5b3-d289f5287522","ios":"levelo://app?vid=99dc0bf4-7813-48a5-b5b3-d289f5287522"},"vehicle_type_id":"4","last_reported":1705199221,"current_range_meters":0,"station_id":"ce4bhq92rcd13ifvqhjg","pricing_plan_id":"free"},{"bike_id":"7346f28f-912a-4314-913c-d1bc97e5b6cc","system_id":"levelo_inurba_marseille","lat":43.33721,"lon":5.391957,"is_reserved":false,"is_disabled":false,"rental_uris":{"android":"levelo://app?vid=7346f28f-912a-4314-913c-d1bc97e5b6cc","ios":"levelo://app?vid=7346f28f-912a-4314-913c-d1bc97e5b6cc"},"vehicle_type_id":"4","last_reported":1705199221,"current_range_meters":10800,"station_id":"ce4bhr92rcd13ifvqhsg","pricing_plan_id":"free"},{"bike_id":"a6e3cdc3-393f-46dc-b287-0bc1d287f17f","system_id":"levelo_inurba_marseille","lat":43.337168,"lon":5.391825,"is_reserved":false,"is_disabled":false,"rental_uris":{"android":"levelo://app?vid=a6e3cdc3-393f-46dc-b287-0bc1d287f17f","ios":"levelo://app?vid=a6e3cdc3-393f-46dc-b287-0bc1d287f17f"},"vehicle_type_id":"4","last_reported":1705199221,"current_range_meters":22400,"station_id":"ce4bhr92rcd13ifvqhsg","pricing_plan_id":"free"},{"bike_id":"56d97270-bd49-4110-9cd9-8a858292d6f3","system_id":"levelo_inurba_marseille","lat":43.323464,"lon":5.406297,"is_reserved":false,"is_disabled":false,"rental_uris":{"android":"levelo://app?vid=56d97270-bd49-4110-9cd9-8a858292d6f3","ios":"levelo://app?vid=56d97270-bd49-4110-9cd9-8a858292d6f3"},