{"last_updated":1777317783,"ttl":60,"version":"2.2","data":{"bikes":[{"bike_id":"c35ef435-7351-4292-8bd0-8be9078d3a7d","system_id":"levelo_inurba_marseille","lat":43.3096,"lon":5.39041,"is_reserved":false,"is_disabled":true,"rental_uris":{"android":"levelo://app?vid=c35ef435-7351-4292-8bd0-8be9078d3a7d","ios":"levelo://app?vid=c35ef435-7351-4292-8bd0-8be9078d3a7d"},"vehicle_type_id":"4","last_reported":1777317784,"current_range_meters":2800,"station_id":"ce4bgup2rcd13ifvqco0","pricing_plan_id":"cebpf4jnsgd1na2vs0mg"},{"bike_id":"b03555db-0133-4373-b2a3-d1fbcb96a891","system_id":"levelo_inurba_marseille","lat":43.2919,"lon":5.3931,"is_reserved":false,"is_disabled":false,"rental_uris":{"android":"levelo://app?vid=b03555db-0133-4373-b2a3-d1fbcb96a891","ios":"levelo://app?vid=b03555db-0133-4373-b2a3-d1fbcb96a891"},"vehicle_type_id":"4","last_reported":1777317784,"current_range_meters":2800,"station_id":"ce4bh192rcd13ifvqdd0","pricing_plan_id":"cebpf4jnsgd1na2vs0mg"},{"bike_id":"a12bff03-7417-452f-8acb-a1d3c1fe28e2","system_id":"levelo_inurba_marseille","lat":43.337444,"lon":5.374475,"is_reserved":false,"is_disabled":true,"rental_uris":{"android":"levelo://app?vid=a12bff03-7417-452f-8acb-a1d3c1fe28e2","ios":"levelo://app?vid=a12bff03-7417-452f-8acb-a1d3c1fe28e2"},"vehicle_type_id":"4","last_reported":1777317784,"current_range_meters":2800,"station_id":"","pricing_plan_id":"cebpf4jnsgd1na2vs0mg"},{"bike_id":"165327d4-5d05-4dde-a230-47f4dd4fea46","system_id":"levelo_inurba_marseille","lat":43.2557,"lon":5.38247,"is_reserved":false,"is_disabled":false,"rental_uris":{"android":"levelo://app?vid=165327d4-5d05-4dde-a230-47f4dd4fea46","ios":"levelo://app?vid=165327d4-5d05-4dde-a230-47f4dd4fea46"},"vehicle_type_id":"4","last_reported":1777317784,"current_range_meters":3200,"station_id":"ce4bhih2rcd13ifvqfs0","pricing_plan_id":"cebpf4jnsgd1na2vs0mg"},{"bike_id":"93f932f5-4d83-4c7f-bb69-db42c9711908","system_id":"levelo_inurba_marseille","lat":43.2869,"lon":5.37395,"is_reserved":false,"is_disabled":true,"rental_uris":{"android":"levelo://app?vid=93f932f5-4d83-4c7f-bb69-db42c9711908","ios":"levelo://app?vid=93f932f5-4d83-4c7f-bb69-db42c9711908"},"vehicle_type_id":"4","last_reported":1777317784,"current_range_meters":3200,"station_id":"ce4bh3p2rcd13ifvqdq0","pricing_plan_id":"cebpf4jnsgd1na2vs0mg"},{"bike_id":"a5d1c5f8-e551-41de-b7f3-a52119a1050b","system_id":"levelo_inurba_marseille","lat":43.27814,"lon":5.37437,"is_reserved":false,"is_disabled":false,"rental_uris":{"android":"levelo://app?vid=a5d1c5f8-e551-41de-b7f3-a52119a1050b","ios":"levelo://app?vid=a5d1c5f8-e551-41de-b7f3-a52119a1050b"},"vehicle_type_id":"4","last_reported":1777317784,"current_range_meters":3200,"station_id":"","pricing_plan_id":"cebpf4jnsgd1na2vs0mg"},{"bike_id":"a739cf0d-9d06-40f3-95cf-061905244262","system_id":"levelo_inurba_marseille","lat":43.29887,"lon":5.38902,"is_reserved":false,"is_disabled":true,"rental_uris":{"android":"levelo://app?vid=a739cf0d-9d06-40f3-95cf-061905244262","ios":"levelo://app?vid=a739cf0d-9d06-40f3-95cf-061905244262"},"vehicle_type_id":"4","last_reported":1777317784,"current_range_meters":3200,"station_id":"ce4bh392rcd13ifvqdl0","pricing_plan_id":"cebpf4jnsgd1na2vs0mg"},{"bike_id":"1e467ca0-2768-4108-a598-baca0cc991f8","system_id":"levelo_inurba_marseille","lat":43.27516,"lon":5.41536,"is_reserved":false,"is_disabled":true,"rental_uris":{"android":"levelo://app?vid=1e467ca0-2768-4108-a598-baca0cc991f8","ios":"levelo://app?vid=1e467ca0-2768-4108-a598-baca0cc991f8"},"vehicle_type_id":"4","last_reported":1777317784,"current_range_meters":3200,"station_id":"st_d6im8g6chgec73a5pndg","pricing_plan_id":"cebpf4jnsgd1na2vs0mg"},{"bike_id":"ef6236e4-210a-4a75-a26a-c8f05cbe34d2","system_id":"levelo_inurba_marseille","lat":43.32114,"lon":5.36768,"is_reserved":false,"is_disabled":false,"rental_uris":{"android":"levelo://app?vid=ef6236e4-210a-4a75-a26a-c8f05cbe34d2","ios":"levelo://app?vid=ef6236e4-210a-4a75-a26a-c8f05cbe34d2"},"vehicle_type_id":"4","last_reported":1777317784,"current_range_meters":3600,"station_id":"ce4bhrh2rcd13ifvqhug","pricing_plan_id":"cebpf4jnsgd1na2vs0mg"},{"bike_id":"12e76862-dee0-4267-bd69-a230b389b9d8","system_id":"levelo_inurba_marseille","lat":43.29519,"lon":5.37637,"is_reserved":false,"is_disabled":false,"rental_uris":{"android":"levelo://app?vid=12e76862-dee0-4267-bd69-a230b389b9d8","ios":"levelo://app?vid=12e76862-dee0-4267-bd69-a230b389b9d8"},"vehicle_type_id":"4","last_reported":1777317784,"current_range_meters":3600,"station_id":"","pricing_plan_id":"cebpf4jnsgd1na2vs0mg"},{"bike_id":"a11b48ee-4dd4-4002-b232-098a7f88bf41","system_id":"levelo_inurba_marseille","lat":43.26546,"lon":5.37314,"is_reserved":false,"is_disabled":false,"rental_uris":{"android":"levelo://app?vid=a11b48ee-4dd4-4002-b232-098a7f88bf41","ios":"levelo://app?vid=a11b48ee-4dd4-4002-b232-098a7f88bf41"},"vehicle_type_id":"4","last_reported":1777317784,"current_range_meters":3600,"station_id":"ce4bhg12rcd13ifvqf70","pricing_plan_id":"cebpf4jnsgd1na2vs0mg"},{"bike_id":"77c45e29-a82a-4e38-907a-7053e1cb69ca","system_id":"levelo_inurba_marseille","lat":43.31489,"lon":5.37269,"is_reserved":false,"is_disabled":false,"rental_uris":{"android":"levelo://app?vid=77c45e29-a82a-4e38-907a-7053e1cb69ca","ios":"levelo://app?vid=77c45e29-a82a-4e38-907a-7053e1cb69ca"},"vehicle_type_id":"4","last_reported":1777317784,"current_range_meters":3600,"station_id":"","pricing_plan_id":"cebpf4jnsgd1na2vs0mg"},{"bike_id":"1f13452b-ac27-48ca-bbd2-1255b0865067","system_id":"levelo_inurba_marseille","lat":43.27848,"lon":5.379,"is_reserved":false,"is_disabled":false,"rental_uris":{"android":"levelo://app?vid=1f13452b-ac27-48ca-bbd2-1255b0865067","ios":"levelo://app?vid=1f13452b-ac27-48ca-bbd2-1255b0865067"},"vehicle_type_id":"4","last_reported":1777317784,"current_range_meters":3600,"station_id":"","pricing_plan_id":"cebpf4jnsgd1na2vs0mg"},{"bike_id":"c6941364-0b3e-415d-827c-e48038694e60","system_id":"levelo_inurba_marseille","lat":43.30775,"lon":5.43502,"is_reserved":false,"is_disabled":false,"rental_uris":{"android":"levelo://app?vid=c6941364-0b3e-415d-827c-e48038694e60","ios":"levelo://app?vid=c6941364-0b3e-415d-827c-e48038694e60"},"vehicle_type_id":"4","last_reported":1777317784,"current_range_meters":3600,"station_id":"","pricing_plan_id":"cebpf4jnsgd1na2vs0mg"},{"bike_id":"50fcb081-4b05-4355-adf3-07f022c0399c","system_id":"levelo_inurba_marseille","lat":43.30993,"lon":5.37913,"is_reserved":false,"is_disabled":false,"rental_uris":{"android":"levelo://app?vid=50fcb081-4b05-4355-adf3-07f022c0399c","ios":"levelo://app?vid=50fcb081-4b05-4355-adf3-07f022c0399c"},"vehicle_type_id":"4","last_reported":1777317784,"current_range_meters":3600,"station_id":"","pricing_plan_id":"cebpf4jnsgd1na2vs0mg"},{"bike_id":"e7fc00ff-b4bc-4bf1-9e29-43a5dfc505ca","system_id":"levelo_inurba_marseille","lat":43.29021,"lon":5.38129,"is_reserved":false,"is_disabled":false,"rental_uris":{"android":"levelo://app?vid=e7fc00ff-b4bc-4bf1-9e29-43a5dfc505ca","ios":"levelo://app?vid=e7fc00ff-b4bc-4bf1-9e29-43a5dfc505ca"},"vehicle_type_id":"4","last_reported":1777317784,"current_range_meters":3600,"station_id":"ce4bh4p2rcd13ifvqe1g","pricing_plan_id":"cebpf4jnsgd1na2vs0mg"},{"bike_id":"5676b1df-3102-49f0-94ea-6bd037dc90c9","system_id":"levelo_inurba_marseille","lat":43.31113,"lon":5.38057,"is_reserved":false,"is_disabled":false,"rental_uris":{"android":"levelo://app?vid=5676b1df-3102-49f0-94ea-6bd037dc90c9","ios":"levelo://app?vid=5676b1df-3102-49f0-94ea-6bd037dc90c9"},"vehicle_type_id":"4","last_reported":1777317784,"current_range_meters":4000,"station_id":"","pricing_plan_id":"cebpf4jnsgd1na2vs0mg"},{"bike_id":"e0fb6429-f0fb-49b1-ba45-0080c6e87efd","system_id":"levelo_inurba_marseille","lat":43.29269,"lon":5.38439,"is_reserved":false,"is_disabled":false,"rental_uris":{"android":"levelo://app?vid=e0fb6429-f0fb-49b1-ba45-0080c6e87efd","ios":"levelo://app?vid=e0fb6429-f0fb-49b1-ba45-0080c6e87efd"},"vehicle_type_id":"4","last_reported":1777317784,"current_range_meters":4000,"station_id":"ce4bh692rcd13ifvqea0","pricing_plan_id":"cebpf4jnsgd1na2vs0mg"},{"bike_id":"dc1e6be9-36b7-4346-b6cc-8108319e0a78","system_id":"levelo_inurba_marseille","lat":43.30128,"lon":5.3987,"is_reserved":false,"is_disabled":false,"rental_uris":{"android":"levelo://app?vid=dc1e6be9-36b7-4346-b6cc-8108319e0a78","ios":"levelo://app?vid=dc1e6be9-36b7-4346-b6cc-8108319e0a78"},"vehicle_type_id":"4","last_reported":1777317784,"current_range_meters":4000,"station_id":"ce4bh0h2rcd13ifvqd40","pricing_plan_id":"cebpf4jnsgd1na2vs0mg"},{"bike_id":"2f12ab15-f572-4ce3-b7a8-908edfbe10c5","system_id":"levelo_inurba_marseille","lat":43.31322,"lon":5.3969,"is_reserved":false,"is_disabled":false,"rental_uris":{"android":"levelo://app?vid=2f12ab15-f572-4ce3-b7a8-908edfbe10c5","ios":"levelo://app?vid=2f12ab15-f572-4ce3-b7a8-908edfbe10c5"},"vehicle_type_id":"4","last_reported":1777317784,"current_range_meters":4000,"station_id":"ce4bgvp2rcd13ifvqcu0","pricing_plan_id":"cebpf4jnsgd1na2vs0mg"},{"bike_id":"7da5aa7c-90ac-4c23-8b5e-bd4efaa5df1e","system_id":"levelo_inurba_marseille","lat":43.267855,"lon":5.394173,"is_reserved":false,"is_disabled":false,"rental_uris":{"android":"levelo://app?vid=7da5aa7c-90ac-4c23-8b5e-bd4efaa5df1e","ios":"levelo://app?vid=7da5aa7c-90ac-4c23-8b5e-bd4efaa5df1e"},"vehicle_type_id":"4","last_reported":1777317784,"current_range_meters":4000,"station_id":"ce4bhh12rcd13ifvqfg0","pricing_plan_id":"cebpf4jnsgd1na2vs0mg"},{"bike_id":"a2f10f38-622c-47c8-9840-219c696fe6ed","system_id":"levelo_inurba_marseille","lat":43.29922,"lon":5.374783,"is_reserved":false,"is_disabled":false,"rental_uris":{"android":"levelo://app?vid=a2f10f38-622c-47c8-9840-219c696fe6ed","ios":"levelo://app?vid=a2f10f38-622c-47c8-9840-219c696fe6ed"},"vehicle_type_id":"4","last_reported":1777317784,"current_range_meters":4000,"station_id":"ce4bgjh2rcd13ifvqbg0","pricing_plan_id":"cebpf4jnsgd1na2vs0mg"},{"bike_id":"fd583349-9e7d-4e5b-8155-1da1a7a44b99","system_id":"levelo_inurba_marseille","lat":43.2796,"lon":5.41038,"is_reserved":false,"is_disabled":false,"rental_uris":{"android":"levelo://app?vid=fd583349-9e7d-4e5b-8155-1da1a7a44b99","ios":"levelo://app?vid=fd583349-9e7d-4e5b-8155-1da1a7a44b99"},"vehicle_type_id":"4","last_reported":1777317784,"current_range_meters":4000,"station_id":"ce4bhnp2rcd13ifvqh0g","pricing_plan_id":"cebpf4jnsgd1na2vs0mg"},{"bike_id":"35a6efba-6e56-4656-8dc6-121dcaca4930","system_id":"levelo_inurba_marseille","lat":43.25574,"lon":5.38616,"is_reserved":false,"is_disabled":false,"rental_uris":{"android":"levelo://app?vid=35a6efba-6e56-4656-8dc6-121dcaca4930","ios":"levelo://app?vid=35a6efba-6e56-4656-8dc6-121dcaca4930"},"vehicle_type_id":"4","last_reported":1777317784,"current_range_meters":4000,"station_id":"","pricing_plan_id":"cebpf4jnsgd1na2vs0mg"},{"bike_id":"0f1661df-6621-4c1d-8f40-2dddcdddf13f","system_id":"levelo_inurba_marseille","lat":43.27905,"lon":5.38007,"is_reserved":false,"is_disabled":false,"rental_uris":{"android":"levelo://app?vid=0f1661df-6621-4c1d-8f40-2dddcdddf13f","ios":"levelo://app?vid=0f1661df-6621-4c1d-8f40-2dddcdddf13f"},"vehicle_type_id":"4","last_reported":1777317784,"current_range_meters":4000,"station_id":"ce4bhf92rcd13ifvqf50","pricing_plan_id":"cebpf4jnsgd1na2vs0mg"},{"bike_id":"a706b0af-efbc-4c2c-a81b-b56d19b2eca4","system_id":"levelo_inurba_marseille","lat":43.24677,"lon":5.38147,"is_reserved":false,"is_disabled":false,"rental_uris":{"android":"levelo://app?vid=a706b0af-efbc-4c2c-a81b-b56d19b2eca4","ios":"levelo://app?vid=a706b0af-efbc-4c2c-a81b-b56d19b2eca4"},"vehicle_type_id":"4","last_reported":1777317784,"current_range_meters":4000,"station_id":"ce4bhih2rcd13ifvqfr0","pricing_plan_id":"cebpf4jnsgd1na2vs0mg"},{"bike_id":"3da0f4a8-6878-4716-aca3-b7f1f83e8575","system_id":"levelo_inurba_marseille","lat":43.29253,"lon":5.40907,"is_reserved":false,"is_disabled":false,"rental_uris":{"android":"levelo://app?vid=3da0f4a8-6878-4716-aca3-b7f1f83e8575","ios":"levelo://app?vid=3da0f4a8-6878-4716-aca3-b7f1f83e8575"},"vehicle_type_id":"4","last_reported":1777317784,"current_range_meters":4400,"station_id":"ce4bh192rcd13ifvqdc0","pricing_plan_id":"cebpf4jnsgd1na2vs0mg"},{"bike_id":"58199301-1122-4ead-a7b3-f1971d54e7ce","system_id":"levelo_inurba_marseille","lat":43.2902,"lon":5.38664,"is_reserved":false,"is_disabled":false,"rental_uris":{"android":"levelo://app?vid=58199301-1122-4ead-a7b3-f1971d54e7ce","ios":"levelo://app?vid=58199301-1122-4ead-a7b3-f1971d54e7ce"},"vehicle_type_id":"4","last_reported":1777317784,"current_range_meters":4400,"station_id":"ce4bh4p2rcd13ifvqe0g","pricing_plan_id":"cebpf4jnsgd1na2vs0mg"},{"bike_id":"ad06fbeb-2893-47bd-9310-693ccba410e9","system_id":"levelo_inurba_marseille","lat":43.28763,"lon":5.46823,"is_reserved":false,"is_disabled":false,"rental_uris":{"android":"levelo://app?vid=ad06fbeb-2893-47bd-9310-693ccba410e9","ios":"levelo://app?vid=ad06fbeb-2893-47bd-9310-693ccba410e9"},"vehicle_type_id":"4","last_reported":1777317784,"current_range_meters":4400,"station_id":"","pricing_plan_id":"cebpf4jnsgd1na2vs0mg"},{"bike_id":"e2a3db73-500b-4326-a0e8-79d951dbfb5b","system_id":"levelo_inurba_marseille","lat":43.30057,"lon":5.37943,"is_reserved":false,"is_disabled":false,"rental_uris":{"android":"levelo://app?vid=e2a3db73-500b-4326-a0e8-79d951dbfb5b","ios":"levelo://app?vid=e2a3db73-500b-4326-a0e8-79d951dbfb5b"},"vehicle_type_id":"4","last_reported":1777317784,"current_range_meters":4400,"station_id":"","pricing_plan_id":"cebpf4jnsgd1na2vs0mg"},{"bike_id":"1aebe1b0-d44d-409c-801d-ec5862ecaf2f","system_id":"levelo_inurba_marseille","lat":43.295363,"lon":5.375272,"is_reserved":false,"is_disabled":false,"rental_uris":{"android":"levelo://app?vid=1aebe1b0-d44d-409c-801d-ec5862ecaf2f","ios":"levelo://app?vid=1aebe1b0-d44d-409c-801d-ec5862ecaf2f"},"vehicle_type_id":"4","last_reported":1777317784,"current_range_meters":4400,"station_id":"ce4bh4p2rcd13ifvqe0g","pricing_plan_id":"cebpf4jnsgd1na2vs0mg"},{"bike_id":"cf4537a9-051c-4080-9a3f-93f632ce0082","system_id":"levelo_inurba_marseille","lat":43.337444,"lon":5.374475,"is_reserved":false,"is_disabled":false,"rental_uris":{"android":"levelo://app?vid=cf4537a9-051c-4080-9a3f-93f632ce0082","ios":"levelo://app?vid=cf4537a9-051c-4080-9a3f-93f632ce0082"},"vehicle_type_id":"4","last_reported":1777317784,"current_range_meters":4400,"station_id":"","pricing_plan_id":"cebpf4jnsgd1na2vs0mg"},{"bike_id":"bdab1e31-d7ea-4c8e-b3d6-57aabe73b361","system_id":"levelo_inurba_marseille","lat":43.28567,"lon":5.39502,"is_reserved":false,"is_disabled":true,"rental_uris":{"android":"levelo://app?vid=bdab1e31-d7ea-4c8e-b3d6-57aabe73b361","ios":"levelo://app?vid=bdab1e31-d7ea-4c8e-b3d6-57aabe73b361"},"vehicle_type_id":"4","last_reported":1777317784,"current_range_meters":4400,"station_id":"ce4bh292rcd13ifvqdg0","pricing_plan_id":"cebpf4jnsgd1na2vs0mg"},{"bike_id":"b21748b2-fb24-4ee6-8e6a-c7c61264faec","system_id":"levelo_inurba_marseille","lat":43.27392,"lon":5.42223,"is_reserved":false,"is_disabled":false,"rental_uris":{"android":"levelo://app?vid=b21748b2-fb24-4ee6-8e6a-c7c61264faec","ios":"levelo://app?vid=b21748b2-fb24-4ee6-8e6a-c7c61264faec"},"vehicle_type_id":"4","last_reported":1777317784,"current_range_meters":4400,"station_id":"","pricing_plan_id":"cebpf4jnsgd1na2vs0mg"},{"bike_id":"9ddc50a2-d65a-496f-9542-2a4f8bf60429","system_id":"levelo_inurba_marseille","lat":43.28454,"lon":5.3919,"is_reserved":false,"is_disabled":false,"rental_uris":{"android":"levelo://app?vid=9ddc50a2-d65a-496f-9542-2a4f8bf60429","ios":"levelo://app?vid=9ddc50a2-d65a-496f-9542-2a4f8bf60429"},"vehicle_type_id":"4","last_reported":1777317784,"current_range_meters":4400,"station_id":"ce4bhoh2rcd13ifvqh5g","pricing_plan_id":"cebpf4jnsgd1na2vs0mg"},{"bike_id":"81353630-aa43-4f42-be93-f2f4b0090a76","system_id":"levelo_inurba_marseille","lat":43.283867,"lon":5.387124,"is_reserved":false,"is_disabled":false,"rental_uris":{"android":"levelo://app?vid=81353630-aa43-4f42-be93-f2f4b0090a76","ios":"levelo://app?vid=81353630-aa43-4f42-be93-f2f4b0090a76"},"vehicle_type_id":"4","last_reported":1777317784,"current_range_meters":4400,"station_id":"ce4bh492rcd13ifvqdvg","pricing_plan_id":"cebpf4jnsgd1na2vs0mg"},{"bike_id":"91e4eed8-7aa0-4ca6-bc8b-33ffc5693469","system_id":"levelo_inurba_marseille","lat":43.31334,"lon":5.37908,"is_reserved":false,"is_disabled":false,"rental_uris":{"android":"levelo://app?vid=91e4eed8-7aa0-4ca6-bc8b-33ffc5693469","ios":"levelo://app?vid=91e4eed8-7aa0-4ca6-bc8b-33ffc5693469"},"vehicle_type_id":"4","last_reported":1777317784,"current_range_meters":4800,"station_id":"","pricing_plan_id":"cebpf4jnsgd1na2vs0mg"},{"bike_id":"d2a170e9-4683-45e4-8ad8-6a20e503868b","system_id":"levelo_inurba_marseille","lat":43.2551,"lon":5.37659,"is_reserved":false,"is_disabled":true,"rental_uris":{"android":"levelo://app?vid=d2a170e9-4683-45e4-8ad8-6a20e503868b","ios":"levelo://app?vid=d2a170e9-4683-45e4-8ad8-6a20e503868b"},"vehicle_type_id":"4","last_reported":1777317784,"current_range_meters":4800,"station_id":"ce4bhh12rcd13ifvqff0","pricing_plan_id":"cebpf4jnsgd1na2vs0mg"},{"bike_id":"ed932134-0d8c-4ed0-9419-b2195dea6d7f","system_id":"levelo_inurba_marseille","lat":43.2953,"lon":5.39403,"is_reserved":false,"is_disabled":false,"rental_uris":{"android":"levelo://app?vid=ed932134-0d8c-4ed0-9419-b2195dea6d7f","ios":"levelo://app?vid=ed932134-0d8c-4ed0-9419-b2195dea6d7f"},"vehicle_type_id":"4","last_reported":1777317784,"current_range_meters":4800,"station_id":"ce4bh292rcd13ifvqdf0","pricing_plan_id":"cebpf4jnsgd1na2vs0mg"},{"bike_id":"593310f2-e1f3-47ad-841b-8858f25eadcd","system_id":"levelo_inurba_marseille","lat":43.28686,"lon":5.37441,"is_reserved":false,"is_disabled":false,"rental_uris":{"android":"levelo://app?vid=593310f2-e1f3-47ad-841b-8858f25eadcd","ios":"levelo://app?vid=593310f2-e1f3-47ad-841b-8858f25eadcd"},"vehicle_type_id":"4","last_reported":1777317784,"current_range_meters":4800,"station_id":"","pricing_plan_id":"cebpf4jnsgd1na2vs0mg"},{"bike_id":"e156f185-2ba1-4198-9b73-d095acd9ab2a","system_id":"levelo_inurba_marseille","lat":43.31684,"lon":5.40479,"is_reserved":false,"is_disabled":false,"rental_uris":{"android":"levelo://app?vid=e156f185-2ba1-4198-9b73-d095acd9ab2a","ios":"levelo://app?vid=e156f185-2ba1-4198-9b73-d095acd9ab2a"},"vehicle_type_id":"4","last_reported":1777317784,"current_range_meters":4800,"station_id":"ce4bh012rcd13ifvqd00","pricing_plan_id":"cebpf4jnsgd1na2vs0mg"},{"bike_id":"7e17da21-de27-4e4b-9912-876e46bc8a36","system_id":"levelo_inurba_marseille","lat":43.32134,"lon":5.36799,"is_reserved":false,"is_disabled":false,"rental_uris":{"android":"levelo://app?vid=7e17da21-de27-4e4b-9912-876e46bc8a36","ios":"levelo://app?vid=7e17da21-de27-4e4b-9912-876e46bc8a36"},"vehicle_type_id":"4","last_reported":1777317784,"current_range_meters":4800,"station_id":"ce4bhrh2rcd13ifvqhug","pricing_plan_id":"cebpf4jnsgd1na2vs0mg"},{"bike_id":"50ebd43a-6839-4d6f-bd0f-caa4fd215e10","system_id":"levelo_inurba_marseille","lat":43.27804,"lon":5.40737,"is_reserved":false,"is_disabled":false,"rental_uris":{"android":"levelo://app?vid=50ebd43a-6839-4d6f-bd0f-caa4fd215e10","ios":"levelo://app?vid=50ebd43a-6839-4d6f-bd0f-caa4fd215e10"},"vehicle_type_id":"4","last_reported":1777317784,"current_range_meters":4800,"station_id":"ce4bhnh2rcd13ifvqgtg","pricing_plan_id":"cebpf4jnsgd1na2vs0mg"},{"bike_id":"d65ce655-eaf8-4487-87e1-16e36bd69852","system_id":"levelo_inurba_marseille","lat":43.30152,"lon":5.37412,"is_reserved":false,"is_disabled":false,"rental_uris":{"android":"levelo://app?vid=d65ce655-eaf8-4487-87e1-16e36bd69852","ios":"levelo://app?vid=d65ce655-eaf8-4487-87e1-16e36bd69852"},"vehicle_type_id":"4","last_reported":1777317784,"current_range_meters":4800,"station_id":"ce4bgs92rcd13ifvqcc0","pricing_plan_id":"cebpf4jnsgd1na2vs0mg"},{"bike_id":"5c1b9c2c-9165-425f-8d16-631a1c541b04","system_id":"levelo_inurba_marseille","lat":43.29363,"lon":5.37862,"is_reserved":false,"is_disabled":false,"rental_uris":{"android":"levelo://app?vid=5c1b9c2c-9165-425f-8d16-631a1c541b04","ios":"levelo://app?vid=5c1b9c2c-9165-425f-8d16-631a1c541b04"},"vehicle_type_id":"4","last_reported":1777317784,"current_range_meters":4800,"station_id":"ce4bgjh2rcd13ifvqbf0","pricing_plan_id":"cebpf4jnsgd1na2vs0mg"},{"bike_id":"133229f9-005d-4bb5-ab2f-ab2b5f490625","system_id":"levelo_inurba_marseille","lat":43.28698,"lon":5.3999,"is_reserved":false,"is_disabled":false,"rental_uris":{"android":"levelo://app?vid=133229f9-005d-4bb5-ab2f-ab2b5f490625","ios":"levelo://app?vid=133229f9-005d-4bb5-ab2f-ab2b5f490625"},"vehicle_type_id":"4","last_reported":1777317784,"current_range_meters":4800,"station_id":"ce4bho92rcd13ifvqh3g","pricing_plan_id":"cebpf4jnsgd1na2vs0mg"},{"bike_id":"db66ebda-1264-4ec7-912d-0d75d8a625e7","system_id":"levelo_inurba_marseille","lat":43.284836,"lon":5.384112,"is_reserved":false,"is_disabled":false,"rental_uris":{"android":"levelo://app?vid=db66ebda-1264-4ec7-912d-0d75d8a625e7","ios":"levelo://app?vid=db66ebda-1264-4ec7-912d-0d75d8a625e7"},"vehicle_type_id":"4","last_reported":1777317784,"current_range_meters":4800,"station_id":"ce4bh512rcd13ifvqe3g","pricing_plan_id":"cebpf4jnsgd1na2vs0mg"},{"bike_id":"e68450c7-e3ad-4361-bea1-9aae5c1f9622","system_id":"levelo_inurba_marseille","lat":43.28105,"lon":5.3784,"is_reserved":false,"is_disabled":false,"rental_uris":{"android":"levelo://app?vid=e68450c7-e3ad-4361-bea1-9aae5c1f9622","ios":"levelo://app?vid=e68450c7-e3ad-4361-bea1-9aae5c1f9622"},"vehicle_type_id":"4","last_reported":1777317784,"current_range_meters":5600,"station_id":"ce4bha12rcd13ifvqee0","pricing_plan_id":"cebpf4jnsgd1na2vs0mg"},{"bike_id":"10d2c39a-e24d-4c10-9b33-f3f6db153578","system_id":"levelo_inurba_marseille","lat":43.31719,"lon":5.43713,"is_reserved":false,"is_disabled":false,"rental_uris":{"android":"levelo://app?vid=10d2c39a-e24d-4c10-9b33-f3f6db153578","ios":"levelo://app?vid=10d2c39a-e24d-4c10-9b33-f3f6db153578"},"vehicle_type_id":"4","last_reported":1777317784,"current_range_meters":5600,"station_id":"ce4bhp92rcd13ifvqhcg","pricing_plan_id":"cebpf4jnsgd1na2vs0mg"},{"bike_id":"ad26b8dc-edee-444c-8fc3-cb83169b331a","system_id":"levelo_inurba_marseille","lat":43.28172,"lon":5.42666,"is_reserved":false,"is_disabled":false,"rental_uris":{"android":"levelo://app?vid=ad26b8dc-edee-444c-8fc3-cb83169b331a","ios":"levelo://app?vid=ad26b8dc-edee-444c-8fc3-cb83169b331a"},"vehicle_type_id":"4","last_reported":1777317784,"current_range_meters":5600,"station_id":"ce4bhnh2rcd13ifvqgug","pricing_plan_id":"cebpf4jnsgd1na2vs0mg"},{"bike_id":"50f8bdff-b169-44f8-8920-840c94d5e30a","system_id":"levelo_inurba_marseille","lat":43.28473,"lon":5.48407,"is_reserved":false,"is_disabled":false,"rental_uris":{"android":"levelo://app?vid=50f8bdff-b169-44f8-8920-840c94d5e30a","ios":"levelo://app?vid=50f8bdff-b169-44f8-8920-840c94d5e30a"},"vehicle_type_id":"4","last_reported":1777317784,"current_range_meters":5600,"station_id":"","pricing_plan_id":"cebpf4jnsgd1na2vs0mg"},{"bike_id":"78cec665-aff8-49a8-975f-306efbb7aab4","system_id":"levelo_inurba_marseille","lat":43.28849,"lon":5.39319,"is_reserved":false,"is_disabled":false,"rental_uris":{"android":"levelo://app?vid=78cec665-aff8-49a8-975f-306efbb7aab4","ios":"levelo://app?vid=78cec665-aff8-49a8-975f-306efbb7aab4"},"vehicle_type_id":"4","last_reported":1777317784,"current_range_meters":5600,"station_id":"ce4bh2p2rcd13ifvqdi0","pricing_plan_id":"cebpf4jnsgd1na2vs0mg"},{"bike_id":"70293194-d5cb-42ed-b8ce-7bdd782db57b","system_id":"levelo_inurba_marseille","lat":43.31254,"lon":5.36836,"is_reserved":false,"is_disabled":false,"rental_uris":{"android":"levelo://app?vid=70293194-d5cb-42ed-b8ce-7bdd782db57b","ios":"levelo://app?vid=70293194-d5cb-42ed-b8ce-7bdd782db57b"},"vehicle_type_id":"4","last_reported":1777317784,"current_range_meters":5600,"station_id":"ce4bgl92rcd13ifvqbq0","pricing_plan_id":"cebpf4jnsgd1na2vs0mg"},{"bike_id":"0738b116-46d6-4576-94a4-021d359c563e","system_id":"levelo_inurba_marseille","lat":43.28345,"lon":5.3815,"is_reserved":false,"is_disabled":false,"rental_uris":{"android":"levelo://app?vid=0738b116-46d6-4576-94a4-021d359c563e","ios":"levelo://app?vid=0738b116-46d6-4576-94a4-021d359c563e"},"vehicle_type_id":"4","last_reported":1777317784,"current_range_meters":5600,"station_id":"ce4bh412rcd13ifvqdr0","pricing_plan_id":"cebpf4jnsgd1na2vs0mg"},{"bike_id":"127186fe-87fe-4347-8c14-2b72a4effa84","system_id":"levelo_inurba_marseille","lat":43.32095,"lon":5.36766,"is_reserved":false,"is_disabled":false,"rental_uris":{"android":"levelo://app?vid=127186fe-87fe-4347-8c14-2b72a4effa84","ios":"levelo://app?vid=127186fe-87fe-4347-8c14-2b72a4effa84"},"vehicle_type_id":"4","last_reported":1777317784,"current_range_meters":5600,"station_id":"ce4bhrh2rcd13ifvqhug","pricing_plan_id":"cebpf4jnsgd1na2vs0mg"},{"bike_id":"5e763e74-c728-46b7-adcf-295de217605e","system_id":"levelo_inurba_marseille","lat":43.27616,"lon":5.36107,"is_reserved":false,"is_disabled":false,"rental_uris":{"android":"levelo://app?vid=5e763e74-c728-46b7-adcf-295de217605e","ios":"levelo://app?vid=5e763e74-c728-46b7-adcf-295de217605e"},"vehicle_type_id":"4","last_reported":1777317784,"current_range_meters":5600,"station_id":"ce4bgj92rcd13ifvqbe0","pricing_plan_id":"cebpf4jnsgd1na2vs0mg"},{"bike_id":"1eb974dd-e70d-4b54-8a47-dc8dc4001131","system_id":"levelo_inurba_marseille","lat":43.258669,"lon":5.398909,"is_reserved":false,"is_disabled":false,"rental_uris":{"android":"levelo://app?vid=1eb974dd-e70d-4b54-8a47-dc8dc4001131","ios":"levelo://app?vid=1eb974dd-e70d-4b54-8a47-dc8dc4001131"},"vehicle_type_id":"4","last_reported":1777317784,"current_range_meters":5600,"station_id":"ce4bhl92rcd13ifvqghg","pricing_plan_id":"cebpf4jnsgd1na2vs0mg"},{"bike_id":"221e18b3-c542-4e20-9aeb-d72dec2af0dc","system_id":"levelo_inurba_marseille","lat":43.24806,"lon":5.37445,"is_reserved":false,"is_disabled":false,"rental_uris":{"android":"levelo://app?vid=221e18b3-c542-4e20-9aeb-d72dec2af0dc","ios":"levelo://app?vid=221e18b3-c542-4e20-9aeb-d72dec2af0dc"},"vehicle_type_id":"4","last_reported":1777317784,"current_range_meters":5600,"station_id":"ce4bhgh2rcd13ifvqfb0","pricing_plan_id":"cebpf4jnsgd1na2vs0mg"},{"bike_id":"96664ea6-aa56-4a76-9a26-e509828ee890","system_id":"levelo_inurba_marseille","lat":43.30089,"lon":5.39082,"is_reserved":false,"is_disabled":false,"rental_uris":{"android":"levelo://app?vid=96664ea6-aa56-4a76-9a26-e509828ee890","ios":"levelo://app?vid=96664ea6-aa56-4a76-9a26-e509828ee890"},"vehicle_type_id":"4","last_reported":1777317784,"current_range_meters":6000,"station_id":"ce4bh192rcd13ifvqdb0","pricing_plan_id":"cebpf4jnsgd1na2vs0mg"},{"bike_id":"5367fafd-42a5-4c52-bd35-5d85953af91c","system_id":"levelo_inurba_marseille","lat":43.31023,"lon":5.37912,"is_reserved":false,"is_disabled":true,"rental_uris":{"android":"levelo://app?vid=5367fafd-42a5-4c52-bd35-5d85953af91c","ios":"levelo://app?vid=5367fafd-42a5-4c52-bd35-5d85953af91c"},"vehicle_type_id":"4","last_reported":1777317784,"current_range_meters":6000,"station_id":"","pricing_plan_id":"cebpf4jnsgd1na2vs0mg"},{"bike_id":"ce83843f-6d15-48f4-a0ee-0c7aa98f8faa","system_id":"levelo_inurba_marseille","lat":43.28633,"lon":5.35093,"is_reserved":false,"is_disabled":false,"rental_uris":{"android":"levelo://app?vid=ce83843f-6d15-48f4-a0ee-0c7aa98f8faa","ios":"levelo://app?vid=ce83843f-6d15-48f4-a0ee-0c7aa98f8faa"},"vehicle_type_id":"4","last_reported":1777317784,"current_range_meters":6000,"station_id":"ce4bhch2rcd13ifvqeug","pricing_plan_id":"cebpf4jnsgd1na2vs0mg"},{"bike_id":"95fcacf0-7086-4a79-916d-eb3549d744d3","system_id":"levelo_inurba_marseille","lat":43.337444,"lon":5.374475,"is_reserved":false,"is_disabled":false,"rental_uris":{"android":"levelo://app?vid=95fcacf0-7086-4a79-916d-eb3549d744d3","ios":"levelo://app?vid=95fcacf0-7086-4a79-916d-eb3549d744d3"},"vehicle_type_id":"4","last_reported":1777317784,"current_range_meters":6000,"station_id":"","pricing_plan_id":"cebpf4jnsgd1na2vs0mg"},{"bike_id":"3c9ce41d-7d0e-4321-95b6-f75f0599af83","system_id":"levelo_inurba_marseille","lat":43.27989,"lon":5.41653,"is_reserved":false,"is_disabled":false,"rental_uris":{"android":"levelo://app?vid=3c9ce41d-7d0e-4321-95b6-f75f0599af83","ios":"levelo://app?vid=3c9ce41d-7d0e-4321-95b6-f75f0599af83"},"vehicle_type_id":"4","last_reported":1777317784,"current_range_meters":6000,"station_id":"ce4bho12rcd13ifvqh1g","pricing_plan_id":"cebpf4jnsgd1na2vs0mg"},{"bike_id":"59ef7588-5a74-4e41-bc39-9680331e063f","system_id":"levelo_inurba_marseille","lat":43.24827,"lon":5.37467,"is_reserved":false,"is_disabled":false,"rental_uris":{"android":"levelo://app?vid=59ef7588-5a74-4e41-bc39-9680331e063f","ios":"levelo://app?vid=59ef7588-5a74-4e41-bc39-9680331e063f"},"vehicle_type_id":"4","last_reported":1777317784,"current_range_meters":6000,"station_id":"ce4bhgh2rcd13ifvqfb0","pricing_plan_id":"cebpf4jnsgd1na2vs0mg"},{"bike_id":"24e35f06-6648-4409-9645-57b615f0e5cf","system_id":"levelo_inurba_marseille","lat":43.29033,"lon":5.39969,"is_reserved":false,"is_disabled":false,"rental_uris":{"android":"levelo://app?vid=24e35f06-6648-4409-9645-57b615f0e5cf","ios":"levelo://app?vid=24e35f06-6648-4409-9645-57b615f0e5cf"},"vehicle_type_id":"4","last_reported":1777317784,"current_range_meters":6000,"station_id":"ce4bh392rcd13ifvqdm0","pricing_plan_id":"cebpf4jnsgd1na2vs0mg"},{"bike_id":"98c9cf87-a906-4acc-ae7c-f6e5672ebe89","system_id":"levelo_inurba_marseille","lat":43.28442,"lon":5.39186,"is_reserved":false,"is_disabled":false,"rental_uris":{"android":"levelo://app?vid=98c9cf87-a906-4acc-ae7c-f6e5672ebe89","ios":"levelo://app?vid=98c9cf87-a906-4acc-ae7c-f6e5672ebe89"},"vehicle_type_id":"4","last_reported":1777317784,"current_range_meters":6000,"station_id":"ce4bhoh2rcd13ifvqh5g","pricing_plan_id":"cebpf4jnsgd1na2vs0mg"},{"bike_id":"f9cef9e9-646e-449a-81b9-bfd329c57358","system_id":"levelo_inurba_marseille","lat":43.28598,"lon":5.39903,"is_reserved":false,"is_disabled":false,"rental_uris":{"android":"levelo://app?vid=f9cef9e9-646e-449a-81b9-bfd329c57358","ios":"levelo://app?vid=f9cef9e9-646e-449a-81b9-bfd329c57358"},"vehicle_type_id":"4","last_reported":1777317784,"current_range_meters":6000,"station_id":"st_d4a7ka997mjs738ck50g","pricing_plan_id":"cebpf4jnsgd1na2vs0mg"},{"bike_id":"80b161cc-6e40-44e8-9454-73c670e460e2","system_id":"levelo_inurba_marseille","lat":43.2847,"lon":5.48388,"is_reserved":false,"is_disabled":false,"rental_uris":{"android":"levelo://app?vid=80b161cc-6e40-44e8-9454-73c670e460e2","ios":"levelo://app?vid=80b161cc-6e40-44e8-9454-73c670e460e2"},"vehicle_type_id":"4","last_reported":1777317784,"current_range_meters":6000,"station_id":"","pricing_plan_id":"cebpf4jnsgd1na2vs0mg"},{"bike_id":"69a2d223-bf66-4571-9613-79c65e1e1d32","system_id":"levelo_inurba_marseille","lat":43.29687,"lon":5.36584,"is_reserved":false,"is_disabled":false,"rental_uris":{"android":"levelo://app?vid=69a2d223-bf66-4571-9613-79c65e1e1d32","ios":"levelo://app?vid=69a2d223-bf66-4571-9613-79c65e1e1d32"},"vehicle_type_id":"4","last_reported":1777317784,"current_range_meters":6000,"station_id":"ce4bgn12rcd13ifvqbt0","pricing_plan_id":"cebpf4jnsgd1na2vs0mg"},{"bike_id":"647c318a-9d6f-4d4d-954d-250588901504","system_id":"levelo_inurba_marseille","lat":43.28942,"lon":5.36395,"is_reserved":false,"is_disabled":false,"rental_uris":{"android":"levelo://app?vid=647c318a-9d6f-4d4d-954d-250588901504","ios":"levelo://app?vid=647c318a-9d6f-4d4d-954d-250588901504"},"vehicle_type_id":"4","last_reported":1777317784,"current_range_meters":6000,"station_id":"ce4bhc92rcd13ifvqetg","pricing_plan_id":"cebpf4jnsgd1na2vs0mg"},{"bike_id":"2519ee8d-92c6-419f-941a-6566274d07bb","system_id":"levelo_inurba_marseille","lat":43.3089,"lon":5.39637,"is_reserved":false,"is_disabled":false,"rental_uris":{"android":"levelo://app?vid=2519ee8d-92c6-419f-941a-6566274d07bb","ios":"levelo://app?vid=2519ee8d-92c6-419f-941a-6566274d07bb"},"vehicle_type_id":"4","last_reported":1777317784,"current_range_meters":6400,"station_id":"ce4bh012rcd13ifvqcv0","pricing_plan_id":"cebpf4jnsgd1na2vs0mg"},{"bike_id":"56cfd166-61d6-42ac-8509-394aecd3604a","system_id":"levelo_inurba_marseille","lat":43.31163,"lon":5.38716,"is_reserved":false,"is_disabled":false,"rental_uris":{"android":"levelo://app?vid=56cfd166-61d6-42ac-8509-394aecd3604a","ios":"levelo://app?vid=56cfd166-61d6-42ac-8509-394aecd3604a"},"vehicle_type_id":"4","last_reported":1777317784,"current_range_meters":6400,"station_id":"ce4bgv12rcd13ifvqcp0","pricing_plan_id":"cebpf4jnsgd1na2vs0mg"},{"bike_id":"781d8d3d-fabf-4ca2-9f47-16929586692d","system_id":"levelo_inurba_marseille","lat":43.27516,"lon":5.43483,"is_reserved":false,"is_disabled":false,"rental_uris":{"android":"levelo://app?vid=781d8d3d-fabf-4ca2-9f47-16929586692d","ios":"levelo://app?vid=781d8d3d-fabf-4ca2-9f47-16929586692d"},"vehicle_type_id":"4","last_reported":1777317784,"current_range_meters":6400,"station_id":"","pricing_plan_id":"cebpf4jnsgd1na2vs0mg"},{"bike_id":"bc584a85-6741-4be7-9cde-555047be7d06","system_id":"levelo_inurba_marseille","lat":43.29279,"lon":5.36847,"is_reserved":false,"is_disabled":false,"rental_uris":{"android":"levelo://app?vid=bc584a85-6741-4be7-9cde-555047be7d06","ios":"levelo://app?vid=bc584a85-6741-4be7-9cde-555047be7d06"},"vehicle_type_id":"4","last_reported":1777317784,"current_range_meters":6400,"station_id":"ce4bhbp2rcd13ifvqesg","pricing_plan_id":"cebpf4jnsgd1na2vs0mg"},{"bike_id":"f0c74e8b-a798-4dae-9ccd-9d533f5a173e","system_id":"levelo_inurba_marseille","lat":43.31177,"lon":5.38719,"is_reserved":false,"is_disabled":true,"rental_uris":{"android":"levelo://app?vid=f0c74e8b-a798-4dae-9ccd-9d533f5a173e","ios":"levelo://app?vid=f0c74e8b-a798-4dae-9ccd-9d533f5a173e"},"vehicle_type_id":"4","last_reported":1777317784,"current_range_meters":6400,"station_id":"ce4bgv12rcd13ifvqcp0","pricing_plan_id":"cebpf4jnsgd1na2vs0mg"},{"bike_id":"282ffbf9-fbf3-4d44-bf2f-1929132e9e08","system_id":"levelo_inurba_marseille","lat":43.26564,"lon":5.37265,"is_reserved":false,"is_disabled":false,"rental_uris":{"android":"levelo://app?vid=282ffbf9-fbf3-4d44-bf2f-1929132e9e08","ios":"levelo://app?vid=282ffbf9-fbf3-4d44-bf2f-1929132e9e08"},"vehicle_type_id":"4","last_reported":1777317784,"current_range_meters":6400,"station_id":"ce4bhg12rcd13ifvqf70","pricing_plan_id":"cebpf4jnsgd1na2vs0mg"},{"bike_id":"37896065-07b8-4262-a8c1-0e5ad90649cd","system_id":"levelo_inurba_marseille","lat":43.29279,"lon":5.40119,"is_reserved":false,"is_disabled":false,"rental_uris":{"android":"levelo://app?vid=37896065-07b8-4262-a8c1-0e5ad90649cd","ios":"levelo://app?vid=37896065-07b8-4262-a8c1-0e5ad90649cd"},"vehicle_type_id":"4","last_reported":1777317784,"current_range_meters":6400,"station_id":"ce4bh312rcd13ifvqdk0","pricing_plan_id":"cebpf4jnsgd1na2vs0mg"},{"bike_id":"6c0e44b5-b4c6-4989-a0ec-b3c6d257ac1d","system_id":"levelo_inurba_marseille","lat":43.33186,"lon":5.37828,"is_reserved":false,"is_disabled":false,"rental_uris":{"android":"levelo://app?vid=6c0e44b5-b4c6-4989-a0ec-b3c6d257ac1d","ios":"levelo://app?vid=6c0e44b5-b4c6-4989-a0ec-b3c6d257ac1d"},"vehicle_type_id":"4","last_reported":1777317784,"current_range_meters":6800,"station_id":"","pricing_plan_id":"cebpf4jnsgd1na2vs0mg"},{"bike_id":"8fb25265-e0b9-494e-a11e-daf94a893dd4","system_id":"levelo_inurba_marseille","lat":43.29362,"lon":5.37851,"is_reserved":false,"is_disabled":false,"rental_uris":{"android":"levelo://app?vid=8fb25265-e0b9-494e-a11e-daf94a893dd4","ios":"levelo://app?vid=8fb25265-e0b9-494e-a11e-daf94a893dd4"},"vehicle_type_id":"4","last_reported":1777317784,"current_range_meters":6800,"station_id":"ce4bgjh2rcd13ifvqbf0","pricing_plan_id":"cebpf4jnsgd1na2vs0mg"},{"bike_id":"2f755aa1-105e-447f-807e-a8d37a45e600","system_id":"levelo_inurba_marseille","lat":43.28956,"lon":5.39277,"is_reserved":false,"is_disabled":false,"rental_uris":{"android":"levelo://app?vid=2f755aa1-105e-447f-807e-a8d37a45e600","ios":"levelo://app?vid=2f755aa1-105e-447f-807e-a8d37a45e600"},"vehicle_type_id":"4","last_reported":1777317784,"current_range_meters":6800,"station_id":"","pricing_plan_id":"cebpf4jnsgd1na2vs0mg"},{"bike_id":"d91a79ea-757d-4fb0-822d-efffb3df9a9a","system_id":"levelo_inurba_marseille","lat":43.24625,"lon":5.38926,"is_reserved":false,"is_disabled":false,"rental_uris":{"android":"levelo://app?vid=d91a79ea-757d-4fb0-822d-efffb3df9a9a","ios":"levelo://app?vid=d91a79ea-757d-4fb0-822d-efffb3df9a9a"},"vehicle_type_id":"4","last_reported":1777317784,"current_range_meters":6800,"station_id":"ce4bhg12rcd13ifvqf60","pricing_plan_id":"cebpf4jnsgd1na2vs0mg"},{"bike_id":"6b9ceb44-f98b-4474-bf14-5e53602be7a5","system_id":"levelo_inurba_marseille","lat":43.33544,"lon":5.37471,"is_reserved":false,"is_disabled":false,"rental_uris":{"android":"levelo://app?vid=6b9ceb44-f98b-4474-bf14-5e53602be7a5","ios":"levelo://app?vid=6b9ceb44-f98b-4474-bf14-5e53602be7a5"},"vehicle_type_id":"4","last_reported":1777317784,"current_range_meters":6800,"station_id":"st_d46tts09ee8s73dlu43g","pricing_plan_id":"cebpf4jnsgd1na2vs0mg"},{"bike_id":"12811a9c-eb10-4b33-9d8f-ee152e8f6264","system_id":"levelo_inurba_marseille","lat":43.26052,"lon":5.39399,"is_reserved":false,"is_disabled":false,"rental_uris":{"android":"levelo://app?vid=12811a9c-eb10-4b33-9d8f-ee152e8f6264","ios":"levelo://app?vid=12811a9c-eb10-4b33-9d8f-ee152e8f6264"},"vehicle_type_id":"4","last_reported":1777317784,"current_range_meters":6800,"station_id":"ce4bhh92rcd13ifvqfj0","pricing_plan_id":"cebpf4jnsgd1na2vs0mg"},{"bike_id":"df328259-bad9-4e3d-bb17-d852955a2a91","system_id":"levelo_inurba_marseille","lat":43.29532,"lon":5.38543,"is_reserved":false,"is_disabled":false,"rental_uris":{"android":"levelo://app?vid=df328259-bad9-4e3d-bb17-d852955a2a91","ios":"levelo://app?vid=df328259-bad9-4e3d-bb17-d852955a2a91"},"vehicle_type_id":"4","last_reported":1777317784,"current_range_meters":6800,"station_id":"ce4bgih2rcd13ifvqba0","pricing_plan_id":"cebpf4jnsgd1na2vs0mg"},{"bike_id":"55ffa9cb-0e63-4320-8c55-2d765a24cf5f","system_id":"levelo_inurba_marseille","lat":43.24159,"lon":5.36399,"is_reserved":false,"is_disabled":false,"rental_uris":{"android":"levelo://app?vid=55ffa9cb-0e63-4320-8c55-2d765a24cf5f","ios":"levelo://app?vid=55ffa9cb-0e63-4320-8c55-2d765a24cf5f"},"vehicle_type_id":"4","last_reported":1777317784,"current_range_meters":6800,"station_id":"cpo36qri1sfpv3e86is0","pricing_plan_id":"cebpf4jnsgd1na2vs0mg"},{"bike_id":"db4ace9d-5906-44a3-9f39-539fac621617","system_id":"levelo_inurba_marseille","lat":43.29982,"lon":5.3849,"is_reserved":false,"is_disabled":false,"rental_uris":{"android":"levelo://app?vid=db4ace9d-5906-44a3-9f39-539fac621617","ios":"levelo://app?vid=db4ace9d-5906-44a3-9f39-539fac621617"},"vehicle_type_id":"4","last_reported":1777317784,"current_range_meters":6800,"station_id":"ce4bgj92rcd13ifvqbd0","pricing_plan_id":"cebpf4jnsgd1na2vs0mg"},{"bike_id":"2e013045-b635-4629-a87d-995ec1628a85","system_id":"levelo_inurba_marseille","lat":43.32126,"lon":5.36767,"is_reserved":false,"is_disabled":false,"rental_uris":{"android":"levelo://app?vid=2e013045-b635-4629-a87d-995ec1628a85","ios":"levelo://app?vid=2e013045-b635-4629-a87d-995ec1628a85"},"vehicle_type_id":"4","last_reported":1777317784,"current_range_meters":6800,"station_id":"ce4bhrh2rcd13ifvqhug","pricing_plan_id":"cebpf4jnsgd1na2vs0mg"},{"bike_id":"ee283708-0540-44c6-bfb9-62266f3a3e5b","system_id":"levelo_inurba_marseille","lat":43.23892,"lon":5.37465,"is_reserved":false,"is_disabled":false,"rental_uris":{"android":"levelo://app?vid=ee283708-0540-44c6-bfb9-62266f3a3e5b","ios":"levelo://app?vid=ee283708-0540-44c6-bfb9-62266f3a3e5b"},"vehicle_type_id":"4","last_reported":1777317784,"current_range_meters":6800,"station_id":"st_d6sm7csbq4hs73f8fpjg","pricing_plan_id":"cebpf4jnsgd1na2vs0mg"},{"bike_id":"35f075b9-b95b-4d24-8399-c66fa5fb9db3","system_id":"levelo_inurba_marseille","lat":43.29709,"lon":5.377,"is_reserved":false,"is_disabled":false,"rental_uris":{"android":"levelo://app?vid=35f075b9-b95b-4d24-8399-c66fa5fb9db3","ios":"levelo://app?vid=35f075b9-b95b-4d24-8399-c66fa5fb9db3"},"vehicle_type_id":"4","last_reported":1777317784,"current_range_meters":6800,"station_id":"ce4bgkh2rcd13ifvqbl0","pricing_plan_id":"cebpf4jnsgd1na2vs0mg"},{"bike_id":"a48d549c-75d4-4fc9-a969-84c94347d740","system_id":"levelo_inurba_marseille","lat":43.30293,"lon":5.39215,"is_reserved":false,"is_disabled":false,"rental_uris":{"android":"levelo://app?vid=a48d549c-75d4-4fc9-a969-84c94347d740","ios":"levelo://app?vid=a48d549c-75d4-4fc9-a969-84c94347d740"},"vehicle_type_id":"4","last_reported":1777317784,"current_range_meters":6800,"station_id":"ce4bgkh2rcd13ifvqbk0","pricing_plan_id":"cebpf4jnsgd1na2vs0mg"},{"bike_id":"f3887d6f-5f58-4650-a2da-9d2cb7467222","system_id":"levelo_inurba_marseille","lat":43.30228,"lon":5.40057,"is_reserved":false,"is_disabled":false,"rental_uris":{"android":"levelo://app?vid=f3887d6f-5f58-4650-a2da-9d2cb7467222","ios":"levelo://app?vid=f3887d6f-5f58-4650-a2da-9d2cb7467222"},"vehicle_type_id":"4","last_reported":1777317784,"current_range_meters":6800,"station_id":"ce4bgvh2rcd13ifvqcs0","pricing_plan_id":"cebpf4jnsgd1na2vs0mg"},{"bike_id":"c39de570-e7a4-42a3-bc87-effa0cfb5c9c","system_id":"levelo_inurba_marseille","lat":43.310382,"lon":5.37166,"is_reserved":false,"is_disabled":false,"rental_uris":{"android":"levelo://app?vid=c39de570-e7a4-42a3-bc87-effa0cfb5c9c","ios":"levelo://app?vid=c39de570-e7a4-42a3-bc87-effa0cfb5c9c"},"vehicle_type_id":"4","last_reported":1777317784,"current_range_meters":6800,"station_id":"st_d4kl2rp97mjs73e7tdfg","pricing_plan_id":"cebpf4jnsgd1na2vs0mg"},{"bike_id":"bf755b54-9bfc-4f5a-b759-04d952b762e5","system_id":"levelo_inurba_marseille","lat":43.24395,"lon":5.37061,"is_reserved":false,"is_disabled":false,"rental_uris":{"android":"levelo://app?vid=bf755b54-9bfc-4f5a-b759-04d952b762e5","ios":"levelo://app?vid=bf755b54-9bfc-4f5a-b759-04d952b762e5"},"vehicle_type_id":"4","last_reported":1777317784,"current_range_meters":6800,"station_id":"ce4bhhh2rcd13ifvqfk0","pricing_plan_id":"cebpf4jnsgd1na2vs0mg"},{"bike_id":"db5f1b84-43d9-4c3e-87fe-c4a395815fa8","system_id":"levelo_inurba_marseille","lat":43.24945,"lon":5.40496,"is_reserved":false,"is_disabled":false,"rental_uris":{"android":"levelo://app?vid=db5f1b84-43d9-4c3e-87fe-c4a395815fa8","ios":"levelo://app?vid=db5f1b84-43d9-4c3e-87fe-c4a395815fa8"},"vehicle_type_id":"4","last_reported":1777317784,"current_range_meters":6800,"station_id":"st_d2ngiaodas8pm72gd1h0","pricing_plan_id":"cebpf4jnsgd1na2vs0mg"},{"bike_id":"21f52599-fde1-4c00-b865-aad15d6052e8","system_id":"levelo_inurba_marseille","lat":43.29531,"lon":5.38542,"is_reserved":false,"is_disabled":false,"rental_uris":{"android":"levelo://app?vid=21f52599-fde1-4c00-b865-aad15d6052e8","ios":"levelo://app?vid=21f52599-fde1-4c00-b865-aad15d6052e8"},"vehicle_type_id":"4","last_reported":1777317784,"current_range_meters":6800,"station_id":"ce4bgih2rcd13ifvqba0","pricing_plan_id":"cebpf4jnsgd1na2vs0mg"},{"bike_id":"272adfe1-16c9-4d3d-bb04-2ed96330910c","system_id":"levelo_inurba_marseille","lat":43.28822,"lon":5.39347,"is_reserved":false,"is_disabled":false,"rental_uris":{"android":"levelo://app?vid=272adfe1-16c9-4d3d-bb04-2ed96330910c","ios":"levelo://app?vid=272adfe1-16c9-4d3d-bb04-2ed96330910c"},"vehicle_type_id":"4","last_reported":1777317784,"current_range_meters":6800,"station_id":"ce4bh2p2rcd13ifvqdi0","pricing_plan_id":"cebpf4jnsgd1na2vs0mg"},{"bike_id":"e03c7d82-376e-4958-9c9e-7a28eac1248d","system_id":"levelo_inurba_marseille","lat":43.24166,"lon":5.36393,"is_reserved":false,"is_disabled":false,"rental_uris":{"android":"levelo://app?vid=e03c7d82-376e-4958-9c9e-7a28eac1248d","ios":"levelo://app?vid=e03c7d82-376e-4958-9c9e-7a28eac1248d"},"vehicle_type_id":"4","last_reported":1777317784,"current_range_meters":6800,"station_id":"cpo36qri1sfpv3e86is0","pricing_plan_id":"cebpf4jnsgd1na2vs0mg"},{"bike_id":"7f1c4436-043d-4972-ac32-9815ec7b848f","system_id":"levelo_inurba_marseille","lat":43.29273,"lon":5.36841,"is_reserved":false,"is_disabled":false,"rental_uris":{"android":"levelo://app?vid=7f1c4436-043d-4972-ac32-9815ec7b848f","ios":"levelo://app?vid=7f1c4436-043d-4972-ac32-9815ec7b848f"},"vehicle_type_id":"4","last_reported":1777317784,"current_range_meters":6800,"station_id":"ce4bhbp2rcd13ifvqesg","pricing_plan_id":"cebpf4jnsgd1na2vs0mg"},{"bike_id":"7c4235ab-4001-41ac-b909-039a90df962e","system_id":"levelo_inurba_marseille","lat":43.31271,"lon":5.3775,"is_reserved":false,"is_disabled":false,"rental_uris":{"android":"levelo://app?vid=7c4235ab-4001-41ac-b909-039a90df962e","ios":"levelo://app?vid=7c4235ab-4001-41ac-b909-039a90df962e"},"vehicle_type_id":"4","last_reported":1777317784,"current_range_meters":7200,"station_id":"","pricing_plan_id":"cebpf4jnsgd1na2vs0mg"},{"bike_id":"209354b2-4e76-412e-a276-29f5b4c51421","system_id":"levelo_inurba_marseille","lat":43.28451,"lon":5.39197,"is_reserved":false,"is_disabled":false,"rental_uris":{"android":"levelo://app?vid=209354b2-4e76-412e-a276-29f5b4c51421","ios":"levelo://app?vid=209354b2-4e76-412e-a276-29f5b4c51421"},"vehicle_type_id":"4","last_reported":1777317784,"current_range_meters":7200,"station_id":"ce4bhoh2rcd13ifvqh5g","pricing_plan_id":"cebpf4jnsgd1na2vs0mg"},{"bike_id":"8f13b61e-8a25-4927-8213-0f8d3090195b","system_id":"levelo_inurba_marseille","lat":43.28478,"lon":5.48405,"is_reserved":false,"is_disabled":false,"rental_uris":{"android":"levelo://app?vid=8f13b61e-8a25-4927-8213-0f8d3090195b","ios":"levelo://app?vid=8f13b61e-8a25-4927-8213-0f8d3090195b"},"vehicle_type_id":"4","last_reported":1777317784,"current_range_meters":7200,"station_id":"","pricing_plan_id":"cebpf4jnsgd1na2vs0mg"},{"bike_id":"76b4f087-0f22-4c73-974a-792293a4e394","system_id":"levelo_inurba_marseille","lat":43.29572,"lon":5.3749,"is_reserved":false,"is_disabled":false,"rental_uris":{"android":"levelo://app?vid=76b4f087-0f22-4c73-974a-792293a4e394","ios":"levelo://app?vid=76b4f087-0f22-4c73-974a-792293a4e394"},"vehicle_type_id":"4","last_reported":1777317784,"current_range_meters":7200,"station_id":"ce4bgh92rcd13ifvqb50","pricing_plan_id":"cebpf4jnsgd1na2vs0mg"},{"bike_id":"9f9ab910-a023-4363-9524-c19e2f166cf1","system_id":"levelo_inurba_marseille","lat":43.31992,"lon":5.38152,"is_reserved":false,"is_disabled":false,"rental_uris":{"android":"levelo://app?vid=9f9ab910-a023-4363-9524-c19e2f166cf1","ios":"levelo://app?vid=9f9ab910-a023-4363-9524-c19e2f166cf1"},"vehicle_type_id":"4","last_reported":1777317784,"current_range_meters":7200,"station_id":"ce4bhr12rcd13ifvqhpg","pricing_plan_id":"cebpf4jnsgd1na2vs0mg"},{"bike_id":"0a5a3ac5-e405-4d55-b971-b42d5be0aa52","system_id":"levelo_inurba_marseille","lat":43.28385,"lon":5.34998,"is_reserved":false,"is_disabled":false,"rental_uris":{"android":"levelo://app?vid=0a5a3ac5-e405-4d55-b971-b42d5be0aa52","ios":"levelo://app?vid=0a5a3ac5-e405-4d55-b971-b42d5be0aa52"},"vehicle_type_id":"4","last_reported":1777317784,"current_range_meters":7200,"station_id":"ce4bhbh2rcd13ifvqepg","pricing_plan_id":"cebpf4jnsgd1na2vs0mg"},{"bike_id":"2e1487b5-ffbe-4174-a3cb-5f2ca03b60ce","system_id":"levelo_inurba_marseille","lat":43.28479,"lon":5.48397,"is_reserved":false,"is_disabled":false,"rental_uris":{"android":"levelo://app?vid=2e1487b5-ffbe-4174-a3cb-5f2ca03b60ce","ios":"levelo://app?vid=2e1487b5-ffbe-4174-a3cb-5f2ca03b60ce"},"vehicle_type_id":"4","last_reported":1777317784,"current_range_meters":7200,"station_id":"st_d3svhcjqgbts73a3dn0g","pricing_plan_id":"cebpf4jnsgd1na2vs0mg"},{"bike_id":"cd526b47-ae05-404d-a2e3-8e68a29567e0","system_id":"levelo_inurba_marseille","lat":43.2991,"lon":5.39727,"is_reserved":false,"is_disabled":false,"rental_uris":{"android":"levelo://app?vid=cd526b47-ae05-404d-a2e3-8e68a29567e0","ios":"levelo://app?vid=cd526b47-ae05-404d-a2e3-8e68a29567e0"},"vehicle_type_id":"4","last_reported":1777317784,"current_range_meters":7200,"station_id":"ce4bh0h2rcd13ifvqd50","pricing_plan_id":"cebpf4jnsgd1na2vs0mg"},{"bike_id":"a6068782-ae8e-4e83-8d7d-bd7975f66b49","system_id":"levelo_inurba_marseille","lat":43.29572,"lon":5.39994,"is_reserved":false,"is_disabled":false,"rental_uris":{"android":"levelo://app?vid=a6068782-ae8e-4e83-8d7d-bd7975f66b49","ios":"levelo://app?vid=a6068782-ae8e-4e83-8d7d-bd7975f66b49"},"vehicle_type_id":"4","last_reported":1777317784,"current_range_meters":7200,"station_id":"ce4bh312rcd13ifvqdj0","pricing_plan_id":"cebpf4jnsgd1na2vs0mg"},{"bike_id":"6b8549bf-30d2-490f-8f61-d9ca43e4d06c","system_id":"levelo_inurba_marseille","lat":43.27019,"lon":5.40257,"is_reserved":false,"is_disabled":false,"rental_uris":{"android":"levelo://app?vid=6b8549bf-30d2-490f-8f61-d9ca43e4d06c","ios":"levelo://app?vid=6b8549bf-30d2-490f-8f61-d9ca43e4d06c"},"vehicle_type_id":"4","last_reported":1777317784,"current_range_meters":7200,"station_id":"ce4bhk92rcd13ifvqgc0","pricing_plan_id":"cebpf4jnsgd1na2vs0mg"},{"bike_id":"2ae9cae0-c33b-417f-88f4-f99a04270a2d","system_id":"levelo_inurba_marseille","lat":43.30299,"lon":5.39201,"is_reserved":false,"is_disabled":false,"rental_uris":{"android":"levelo://app?vid=2ae9cae0-c33b-417f-88f4-f99a04270a2d","ios":"levelo://app?vid=2ae9cae0-c33b-417f-88f4-f99a04270a2d"},"vehicle_type_id":"4","last_reported":1777317784,"current_range_meters":7200,"station_id":"ce4bgkh2rcd13ifvqbk0","pricing_plan_id":"cebpf4jnsgd1na2vs0mg"},{"bike_id":"5bacf1f4-066c-425b-ac93-4476d8f0b7be","system_id":"levelo_inurba_marseille","lat":43.301287,"lon":5.398566,"is_reserved":false,"is_disabled":false,"rental_uris":{"android":"levelo://app?vid=5bacf1f4-066c-425b-ac93-4476d8f0b7be","ios":"levelo://app?vid=5bacf1f4-066c-425b-ac93-4476d8f0b7be"},"vehicle_type_id":"4","last_reported":1777317784,"current_range_meters":7200,"station_id":"ce4bh0h2rcd13ifvqd40","pricing_plan_id":"cebpf4jnsgd1na2vs0mg"},{"bike_id":"58ed6a13-d208-4ebb-82ad-8708a5bbec55","system_id":"levelo_inurba_marseille","lat":43.32098,"lon":5.36795,"is_reserved":false,"is_disabled":false,"rental_uris":{"android":"levelo://app?vid=58ed6a13-d208-4ebb-82ad-8708a5bbec55","ios":"levelo://app?vid=58ed6a13-d208-4ebb-82ad-8708a5bbec55"},"vehicle_type_id":"4","last_reported":1777317784,"current_range_meters":7200,"station_id":"ce4bhrh2rcd13ifvqhug","pricing_plan_id":"cebpf4jnsgd1na2vs0mg"},{"bike_id":"f13fe151-afeb-4327-9952-17422c4d2706","system_id":"levelo_inurba_marseille","lat":43.25414,"lon":5.41885,"is_reserved":false,"is_disabled":false,"rental_uris":{"android":"levelo://app?vid=f13fe151-afeb-4327-9952-17422c4d2706","ios":"levelo://app?vid=f13fe151-afeb-4327-9952-17422c4d2706"},"vehicle_type_id":"4","last_reported":1777317784,"current_range_meters":7200,"station_id":"","pricing_plan_id":"cebpf4jnsgd1na2vs0mg"},{"bike_id":"d20ccda7-29ef-4aa5-bbf2-63f1e6c3dcf5","system_id":"levelo_inurba_marseille","lat":43.32118,"lon":5.3677,"is_reserved":false,"is_disabled":false,"rental_uris":{"android":"levelo://app?vid=d20ccda7-29ef-4aa5-bbf2-63f1e6c3dcf5","ios":"levelo://app?vid=d20ccda7-29ef-4aa5-bbf2-63f1e6c3dcf5"},"vehicle_type_id":"4","last_reported":1777317784,"current_range_meters":7200,"station_id":"ce4bhrh2rcd13ifvqhug","pricing_plan_id":"cebpf4jnsgd1na2vs0mg"},{"bike_id":"7d24a3ee-0eb9-47a1-8904-33af700bdc69","system_id":"levelo_inurba_marseille","lat":43.2849,"lon":5.48403,"is_reserved":false,"is_disabled":false,"rental_uris":{"android":"levelo://app?vid=7d24a3ee-0eb9-47a1-8904-33af700bdc69","ios":"levelo://app?vid=7d24a3ee-0eb9-47a1-8904-33af700bdc69"},"vehicle_type_id":"4","last_reported":1777317784,"current_range_meters":8000,"station_id":"st_d3svhcjqgbts73a3dn0g","pricing_plan_id":"cebpf4jnsgd1na2vs0mg"},{"bike_id":"27cd71a7-0940-4415-a67f-21597fbf1cd9","system_id":"levelo_inurba_marseille","lat":43.34534,"lon":5.37787,"is_reserved":false,"is_disabled":false,"rental_uris":{"android":"levelo://app?vid=27cd71a7-0940-4415-a67f-21597fbf1cd9","ios":"levelo://app?vid=27cd71a7-0940-4415-a67f-21597fbf1cd9"},"vehicle_type_id":"4","last_reported":1777317784,"current_range_meters":8000,"station_id":"","pricing_plan_id":"cebpf4jnsgd1na2vs0mg"},{"bike_id":"076bfd27-976a-485d-9c77-ccd9f3c45afa","system_id":"levelo_inurba_marseille","lat":43.290426,"lon":5.386442,"is_reserved":false,"is_disabled":false,"rental_uris":{"android":"levelo://app?vid=076bfd27-976a-485d-9c77-ccd9f3c45afa","ios":"levelo://app?vid=076bfd27-976a-485d-9c77-ccd9f3c45afa"},"vehicle_type_id":"4","last_reported":1777317784,"current_range_meters":8000,"station_id":"ce4bh4p2rcd13ifvqe0g","pricing_plan_id":"cebpf4jnsgd1na2vs0mg"},{"bike_id":"adbaf395-5129-43a4-bb70-42ca632d6438","system_id":"levelo_inurba_marseille","lat":43.3055,"lon":5.3842,"is_reserved":false,"is_disabled":false,"rental_uris":{"android":"levelo://app?vid=adbaf395-5129-43a4-bb70-42ca632d6438","ios":"levelo://app?vid=adbaf395-5129-43a4-bb70-42ca632d6438"},"vehicle_type_id":"4","last_reported":1777317784,"current_range_meters":8000,"station_id":"ce4bgg92rcd13ifvqb30","pricing_plan_id":"cebpf4jnsgd1na2vs0mg"},{"bike_id":"8e77f3ba-38f8-4add-b61b-b2f308d4dba7","system_id":"levelo_inurba_marseille","lat":43.24636,"lon":5.38153,"is_reserved":false,"is_disabled":false,"rental_uris":{"android":"levelo://app?vid=8e77f3ba-38f8-4add-b61b-b2f308d4dba7","ios":"levelo://app?vid=8e77f3ba-38f8-4add-b61b-b2f308d4dba7"},"vehicle_type_id":"4","last_reported":1777317784,"current_range_meters":8000,"station_id":"ce4bhih2rcd13ifvqfr0","pricing_plan_id":"cebpf4jnsgd1na2vs0mg"},{"bike_id":"857afe8d-0afc-4ff7-bb19-627f3197cacc","system_id":"levelo_inurba_marseille","lat":43.26566,"lon":5.37307,"is_reserved":false,"is_disabled":false,"rental_uris":{"android":"levelo://app?vid=857afe8d-0afc-4ff7-bb19-627f3197cacc","ios":"levelo://app?vid=857afe8d-0afc-4ff7-bb19-627f3197cacc"},"vehicle_type_id":"4","last_reported":1777317784,"current_range_meters":8000,"station_id":"ce4bhg12rcd13ifvqf70","pricing_plan_id":"cebpf4jnsgd1na2vs0mg"},{"bike_id":"2207323a-44e2-4f1a-a95e-92cd1d0b6f9b","system_id":"levelo_inurba_marseille","lat":43.29177,"lon":5.35797,"is_reserved":false,"is_disabled":false,"rental_uris":{"android":"levelo://app?vid=2207323a-44e2-4f1a-a95e-92cd1d0b6f9b","ios":"levelo://app?vid=2207323a-44e2-4f1a-a95e-92cd1d0b6f9b"},"vehicle_type_id":"4","last_reported":1777317784,"current_range_meters":8000,"station_id":"ce4bhb12rcd13ifvqel0","pricing_plan_id":"cebpf4jnsgd1na2vs0mg"},{"bike_id":"4ba88d8e-2daa-44b9-94a7-860408423931","system_id":"levelo_inurba_marseille","lat":43.30437,"lon":5.3889,"is_reserved":false,"is_disabled":false,"rental_uris":{"android":"levelo://app?vid=4ba88d8e-2daa-44b9-94a7-860408423931","ios":"levelo://app?vid=4ba88d8e-2daa-44b9-94a7-860408423931"},"vehicle_type_id":"4","last_reported":1777317784,"current_range_meters":8000,"station_id":"ce4bgk12rcd13ifvqbi0","pricing_plan_id":"cebpf4jnsgd1na2vs0mg"},{"bike_id":"b504488c-4a5c-43df-b299-e768506d1980","system_id":"levelo_inurba_marseille","lat":43.29308,"lon":5.37179,"is_reserved":false,"is_disabled":true,"rental_uris":{"android":"levelo://app?vid=b504488c-4a5c-43df-b299-e768506d1980","ios":"levelo://app?vid=b504488c-4a5c-43df-b299-e768506d1980"},"vehicle_type_id":"4","last_reported":1777317784,"current_range_meters":8000,"station_id":"ce4bgh92rcd13ifvqb40","pricing_plan_id":"cebpf4jnsgd1na2vs0mg"},{"bike_id":"65be2cd8-ab0d-46ba-80d2-20d5752f09bd","system_id":"levelo_inurba_marseille","lat":43.33007,"lon":5.39007,"is_reserved":false,"is_disabled":false,"rental_uris":{"android":"levelo://app?vid=65be2cd8-ab0d-46ba-80d2-20d5752f09bd","ios":"levelo://app?vid=65be2cd8-ab0d-46ba-80d2-20d5752f09bd"},"vehicle_type_id":"4","last_reported":1777317784,"current_range_meters":8000,"station_id":"ce4bhr92rcd13ifvqhrg","pricing_plan_id":"cebpf4jnsgd1na2vs0mg"},{"bike_id":"14869599-ab60-4e86-8f2c-d0b35d29b95e","system_id":"levelo_inurba_marseille","lat":43.25648,"lon":5.41839,"is_reserved":false,"is_disabled":false,"rental_uris":{"android":"levelo://app?vid=14869599-ab60-4e86-8f2c-d0b35d29b95e","ios":"levelo://app?vid=14869599-ab60-4e86-8f2c-d0b35d29b95e"},"vehicle_type_id":"4","last_reported":1777317784,"current_range_meters":8000,"station_id":"","pricing_plan_id":"cebpf4jnsgd1na2vs0mg"},{"bike_id":"b4090665-6ea9-49fa-bfb8-e314332cdf54","system_id":"levelo_inurba_marseille","lat":43.30305,"lon":5.39212,"is_reserved":false,"is_disabled":false,"rental_uris":{"android":"levelo://app?vid=b4090665-6ea9-49fa-bfb8-e314332cdf54","ios":"levelo://app?vid=b4090665-6ea9-49fa-bfb8-e314332cdf54"},"vehicle_type_id":"4","last_reported":1777317784,"current_range_meters":8000,"station_id":"ce4bgkh2rcd13ifvqbk0","pricing_plan_id":"cebpf4jnsgd1na2vs0mg"},{"bike_id":"64633d88-7e11-4956-bb07-afe41f84a160","system_id":"levelo_inurba_marseille","lat":43.31156,"lon":5.37724,"is_reserved":false,"is_disabled":false,"rental_uris":{"android":"levelo://app?vid=64633d88-7e11-4956-bb07-afe41f84a160","ios":"levelo://app?vid=64633d88-7e11-4956-bb07-afe41f84a160"},"vehicle_type_id":"4","last_reported":1777317784,"current_range_meters":8000,"station_id":"","pricing_plan_id":"cebpf4jnsgd1na2vs0mg"},{"bike_id":"336f5cbc-6c28-4ddb-88c7-6ffc052d9724","system_id":"levelo_inurba_marseille","lat":43.31722,"lon":5.42399,"is_reserved":false,"is_disabled":false,"rental_uris":{"android":"levelo://app?vid=336f5cbc-6c28-4ddb-88c7-6ffc052d9724","ios":"levelo://app?vid=336f5cbc-6c28-4ddb-88c7-6ffc052d9724"},"vehicle_type_id":"4","last_reported":1777317784,"current_range_meters":8000,"station_id":"ce4bhp92rcd13ifvqhbg","pricing_plan_id":"cebpf4jnsgd1na2vs0mg"},{"bike_id":"e993cba1-46e4-4461-855f-3f2092ae4ac8","system_id":"levelo_inurba_marseille","lat":43.28366,"lon":5.34908,"is_reserved":false,"is_disabled":true,"rental_uris":{"android":"levelo://app?vid=e993cba1-46e4-4461-855f-3f2092ae4ac8","ios":"levelo://app?vid=e993cba1-46e4-4461-855f-3f2092ae4ac8"},"vehicle_type_id":"4","last_reported":1777317784,"current_range_meters":8000,"station_id":"ce4bhbh2rcd13ifvqepg","pricing_plan_id":"cebpf4jnsgd1na2vs0mg"},{"bike_id":"ba620f84-46cc-4f3a-aef3-014ddc408667","system_id":"levelo_inurba_marseille","lat":43.30889,"lon":5.39646,"is_reserved":false,"is_disabled":false,"rental_uris":{"android":"levelo://app?vid=ba620f84-46cc-4f3a-aef3-014ddc408667","ios":"levelo://app?vid=ba620f84-46cc-4f3a-aef3-014ddc408667"},"vehicle_type_id":"4","last_reported":1777317784,"current_range_meters":8000,"station_id":"ce4bh012rcd13ifvqcv0","pricing_plan_id":"cebpf4jnsgd1na2vs0mg"},{"bike_id":"2b2662f1-d28b-44f2-b2c8-61c6569e4c3d","system_id":"levelo_inurba_marseille","lat":43.29273,"lon":5.40124,"is_reserved":false,"is_disabled":true,"rental_uris":{"android":"levelo://app?vid=2b2662f1-d28b-44f2-b2c8-61c6569e4c3d","ios":"levelo://app?vid=2b2662f1-d28b-44f2-b2c8-61c6569e4c3d"},"vehicle_type_id":"4","last_reported":1777317784,"current_range_meters":8000,"station_id":"ce4bh312rcd13ifvqdk0","pricing_plan_id":"cebpf4jnsgd1na2vs0mg"},{"bike_id":"490da4e0-f1d1-44fa-b9f5-08efe3a6a4da","system_id":"levelo_inurba_marseille","lat":43.30422,"lon":5.3889,"is_reserved":false,"is_disabled":false,"rental_uris":{"android":"levelo://app?vid=490da4e0-f1d1-44fa-b9f5-08efe3a6a4da","ios":"levelo://app?vid=490da4e0-f1d1-44fa-b9f5-08efe3a6a4da"},"vehicle_type_id":"4","last_reported":1777317784,"current_range_meters":8000,"station_id":"ce4bgk12rcd13ifvqbi0","pricing_plan_id":"cebpf4jnsgd1na2vs0mg"},{"bike_id":"7c9d2fb5-077f-4451-ad3c-a302e4476fd2","system_id":"levelo_inurba_marseille","lat":43.28728,"lon":5.36092,"is_reserved":false,"is_disabled":false,"rental_uris":{"android":"levelo://app?vid=7c9d2fb5-077f-4451-ad3c-a302e4476fd2","ios":"levelo://app?vid=7c9d2fb5-077f-4451-ad3c-a302e4476fd2"},"vehicle_type_id":"4","last_reported":1777317784,"current_range_meters":8000,"station_id":"cki0cbj6b192h4jlfktg","pricing_plan_id":"cebpf4jnsgd1na2vs0mg"},{"bike_id":"0f1d3d83-e8b0-4d8e-a0c9-aba4c5bbe46c","system_id":"levelo_inurba_marseille","lat":43.28936,"lon":5.3664,"is_reserved":false,"is_disabled":true,"rental_uris":{"android":"levelo://app?vid=0f1d3d83-e8b0-4d8e-a0c9-aba4c5bbe46c","ios":"levelo://app?vid=0f1d3d83-e8b0-4d8e-a0c9-aba4c5bbe46c"},"vehicle_type_id":"4","last_reported":1777317784,"current_range_meters":8000,"station_id":"ce4bhap2rcd13ifvqek0","pricing_plan_id":"cebpf4jnsgd1na2vs0mg"},{"bike_id":"486a6bd7-6877-47a7-872d-b6d92138ce35","system_id":"levelo_inurba_marseille","lat":43.28179,"lon":5.42622,"is_reserved":false,"is_disabled":false,"rental_uris":{"android":"levelo://app?vid=486a6bd7-6877-47a7-872d-b6d92138ce35","ios":"levelo://app?vid=486a6bd7-6877-47a7-872d-b6d92138ce35"},"vehicle_type_id":"4","last_reported":1777317784,"current_range_meters":8000,"station_id":"ce4bhnh2rcd13ifvqgug","pricing_plan_id":"cebpf4jnsgd1na2vs0mg"},{"bike_id":"0005ee1b-57f7-46be-b3b5-ee2a3ed0b226","system_id":"levelo_inurba_marseille","lat":43.282205,"lon":5.390646,"is_reserved":false,"is_disabled":false,"rental_uris":{"android":"levelo://app?vid=0005ee1b-57f7-46be-b3b5-ee2a3ed0b226","ios":"levelo://app?vid=0005ee1b-57f7-46be-b3b5-ee2a3ed0b226"},"vehicle_type_id":"4","last_reported":1777317784,"current_range_meters":8000,"station_id":"ce4bhf92rcd13ifvqf40","pricing_plan_id":"cebpf4jnsgd1na2vs0mg"},{"bike_id":"1d51c702-75ba-494d-89c9-6b8c4379e860","system_id":"levelo_inurba_marseille","lat":43.31207,"lon":5.37813,"is_reserved":false,"is_disabled":false,"rental_uris":{"android":"levelo://app?vid=1d51c702-75ba-494d-89c9-6b8c4379e860","ios":"levelo://app?vid=1d51c702-75ba-494d-89c9-6b8c4379e860"},"vehicle_type_id":"4","last_reported":1777317784,"current_range_meters":8000,"station_id":"","pricing_plan_id":"cebpf4jnsgd1na2vs0mg"},{"bike_id":"ed25a454-52a8-4945-92c6-672abf802e4d","system_id":"levelo_inurba_marseille","lat":43.24125,"lon":5.37165,"is_reserved":false,"is_disabled":false,"rental_uris":{"android":"levelo://app?vid=ed25a454-52a8-4945-92c6-672abf802e4d","ios":"levelo://app?vid=ed25a454-52a8-4945-92c6-672abf802e4d"},"vehicle_type_id":"4","last_reported":1777317784,"current_range_meters":8000,"station_id":"","pricing_plan_id":"cebpf4jnsgd1na2vs0mg"},{"bike_id":"91803bf2-5077-48fc-be70-cac91b6641f0","system_id":"levelo_inurba_marseille","lat":43.29841,"lon":5.36276,"is_reserved":false,"is_disabled":false,"rental_uris":{"android":"levelo://app?vid=91803bf2-5077-48fc-be70-cac91b6641f0","ios":"levelo://app?vid=91803bf2-5077-48fc-be70-cac91b6641f0"},"vehicle_type_id":"4","last_reported":1777317784,"current_range_meters":8000,"station_id":"ce4bgpp2rcd13ifvqc3g","pricing_plan_id":"cebpf4jnsgd1na2vs0mg"},{"bike_id":"80a77f34-1f2e-4707-b115-a9a69320fb22","system_id":"levelo_inurba_marseille","lat":43.27837,"lon":5.39214,"is_reserved":false,"is_disabled":true,"rental_uris":{"android":"levelo://app?vid=80a77f34-1f2e-4707-b115-a9a69320fb22","ios":"levelo://app?vid=80a77f34-1f2e-4707-b115-a9a69320fb22"},"vehicle_type_id":"4","last_reported":1777317784,"current_range_meters":8000,"station_id":"ce4bhjp2rcd13ifvqga0","pricing_plan_id":"cebpf4jnsgd1na2vs0mg"},{"bike_id":"014b83b0-2118-487a-9651-365cd2b3ef93","system_id":"levelo_inurba_marseille","lat":43.28847,"lon":5.35851,"is_reserved":false,"is_disabled":false,"rental_uris":{"android":"levelo://app?vid=014b83b0-2118-487a-9651-365cd2b3ef93","ios":"levelo://app?vid=014b83b0-2118-487a-9651-365cd2b3ef93"},"vehicle_type_id":"4","last_reported":1777317784,"current_range_meters":8000,"station_id":"ce4bhb12rcd13ifvqem0","pricing_plan_id":"cebpf4jnsgd1na2vs0mg"},{"bike_id":"da21d569-cd0f-4b5d-99aa-c297dd18d724","system_id":"levelo_inurba_marseille","lat":43.29556,"lon":5.3999,"is_reserved":false,"is_disabled":false,"rental_uris":{"android":"levelo://app?vid=da21d569-cd0f-4b5d-99aa-c297dd18d724","ios":"levelo://app?vid=da21d569-cd0f-4b5d-99aa-c297dd18d724"},"vehicle_type_id":"4","last_reported":1777317784,"current_range_meters":8000,"station_id":"ce4bh312rcd13ifvqdj0","pricing_plan_id":"cebpf4jnsgd1na2vs0mg"},{"bike_id":"8d2379bf-f22e-40e6-8dae-f11a3910ff69","system_id":"levelo_inurba_marseille","lat":43.28356,"lon":5.38117,"is_reserved":false,"is_disabled":false,"rental_uris":{"android":"levelo://app?vid=8d2379bf-f22e-40e6-8dae-f11a3910ff69","ios":"levelo://app?vid=8d2379bf-f22e-40e6-8dae-f11a3910ff69"},"vehicle_type_id":"4","last_reported":1777317784,"current_range_meters":8000,"station_id":"ce4bh412rcd13ifvqdr0","pricing_plan_id":"cebpf4jnsgd1na2vs0mg"},{"bike_id":"f0fb9ea3-3e84-4452-96de-5561bc5df5e1","system_id":"levelo_inurba_marseille","lat":43.29961,"lon":5.37197,"is_reserved":false,"is_disabled":false,"rental_uris":{"android":"levelo://app?vid=f0fb9ea3-3e84-4452-96de-5561bc5df5e1","ios":"levelo://app?vid=f0fb9ea3-3e84-4452-96de-5561bc5df5e1"},"vehicle_type_id":"4","last_reported":1777317784,"current_range_meters":8000,"station_id":"ce4bgr92rcd13ifvqc7g","pricing_plan_id":"cebpf4jnsgd1na2vs0mg"},{"bike_id":"f34173ba-e522-42fc-89f1-ad871c6b29c4","system_id":"levelo_inurba_marseille","lat":43.29482,"lon":5.43304,"is_reserved":false,"is_disabled":false,"rental_uris":{"android":"levelo://app?vid=f34173ba-e522-42fc-89f1-ad871c6b29c4","ios":"levelo://app?vid=f34173ba-e522-42fc-89f1-ad871c6b29c4"},"vehicle_type_id":"4","last_reported":1777317784,"current_range_meters":8400,"station_id":"st_d3j5ugp08ojc73fj9d10","pricing_plan_id":"cebpf4jnsgd1na2vs0mg"},{"bike_id":"ce68b828-fb91-43d4-ac0c-ceb9763b3f0b","system_id":"levelo_inurba_marseille","lat":43.29534,"lon":5.38544,"is_reserved":false,"is_disabled":false,"rental_uris":{"android":"levelo://app?vid=ce68b828-fb91-43d4-ac0c-ceb9763b3f0b","ios":"levelo://app?vid=ce68b828-fb91-43d4-ac0c-ceb9763b3f0b"},"vehicle_type_id":"4","last_reported":1777317784,"current_range_meters":8400,"station_id":"ce4bgih2rcd13ifvqba0","pricing_plan_id":"cebpf4jnsgd1na2vs0mg"},{"bike_id":"a1b14db5-0613-4c15-8602-01233c797aa7","system_id":"levelo_inurba_marseille","lat":43.29282,"lon":5.40122,"is_reserved":false,"is_disabled":false,"rental_uris":{"android":"levelo://app?vid=a1b14db5-0613-4c15-8602-01233c797aa7","ios":"levelo://app?vid=a1b14db5-0613-4c15-8602-01233c797aa7"},"vehicle_type_id":"4","last_reported":1777317784,"current_range_meters":8400,"station_id":"ce4bh312rcd13ifvqdk0","pricing_plan_id":"cebpf4jnsgd1na2vs0mg"},{"bike_id":"e593377f-0b04-468e-be39-461905e9f322","system_id":"levelo_inurba_marseille","lat":43.24659,"lon":5.38915,"is_reserved":false,"is_disabled":false,"rental_uris":{"android":"levelo://app?vid=e593377f-0b04-468e-be39-461905e9f322","ios":"levelo://app?vid=e593377f-0b04-468e-be39-461905e9f322"},"vehicle_type_id":"4","last_reported":1777317784,"current_range_meters":8400,"station_id":"ce4bhg12rcd13ifvqf60","pricing_plan_id":"cebpf4jnsgd1na2vs0mg"},{"bike_id":"8ac0bd5f-2f2a-4833-ada5-2e9beded5ddb","system_id":"levelo_inurba_marseille","lat":43.31503,"lon":5.39136,"is_reserved":false,"is_disabled":false,"rental_uris":{"android":"levelo://app?vid=8ac0bd5f-2f2a-4833-ada5-2e9beded5ddb","ios":"levelo://app?vid=8ac0bd5f-2f2a-4833-ada5-2e9beded5ddb"},"vehicle_type_id":"4","last_reported":1777317784,"current_range_meters":8400,"station_id":"","pricing_plan_id":"cebpf4jnsgd1na2vs0mg"},{"bike_id":"16d472fe-eb19-4acc-8aa8-94088ad37de6","system_id":"levelo_inurba_marseille","lat":43.35183,"lon":5.36401,"is_reserved":false,"is_disabled":false,"rental_uris":{"android":"levelo://app?vid=16d472fe-eb19-4acc-8aa8-94088ad37de6","ios":"levelo://app?vid=16d472fe-eb19-4acc-8aa8-94088ad37de6"},"vehicle_type_id":"4","last_reported":1777317784,"current_range_meters":8400,"station_id":"","pricing_plan_id":"cebpf4jnsgd1na2vs0mg"},{"bike_id":"cf0a0194-68f3-45ff-ade3-63ba20b62b92","system_id":"levelo_inurba_marseille","lat":43.33026,"lon":5.39042,"is_reserved":false,"is_disabled":false,"rental_uris":{"android":"levelo://app?vid=cf0a0194-68f3-45ff-ade3-63ba20b62b92","ios":"levelo://app?vid=cf0a0194-68f3-45ff-ade3-63ba20b62b92"},"vehicle_type_id":"4","last_reported":1777317784,"current_range_meters":8400,"station_id":"ce4bhr92rcd13ifvqhrg","pricing_plan_id":"cebpf4jnsgd1na2vs0mg"},{"bike_id":"43f14e28-775b-4c62-8cfb-82895e769a7f","system_id":"levelo_inurba_marseille","lat":43.28945,"lon":5.36368,"is_reserved":false,"is_disabled":false,"rental_uris":{"android":"levelo://app?vid=43f14e28-775b-4c62-8cfb-82895e769a7f","ios":"levelo://app?vid=43f14e28-775b-4c62-8cfb-82895e769a7f"},"vehicle_type_id":"4","last_reported":1777317784,"current_range_meters":8400,"station_id":"ce4bhc92rcd13ifvqetg","pricing_plan_id":"cebpf4jnsgd1na2vs0mg"},{"bike_id":"f9f92c5c-5f51-4e1c-a4a4-da02d7396e3a","system_id":"levelo_inurba_marseille","lat":43.21708,"lon":5.34602,"is_reserved":false,"is_disabled":false,"rental_uris":{"android":"levelo://app?vid=f9f92c5c-5f51-4e1c-a4a4-da02d7396e3a","ios":"levelo://app?vid=f9f92c5c-5f51-4e1c-a4a4-da02d7396e3a"},"vehicle_type_id":"4","last_reported":1777317784,"current_range_meters":8400,"station_id":"st_cvj6r9ubvosntc0bgbag","pricing_plan_id":"cebpf4jnsgd1na2vs0mg"},{"bike_id":"d7351b39-725c-49f6-90a2-cb1b0918259d","system_id":"levelo_inurba_marseille","lat":43.29313,"lon":5.37437,"is_reserved":false,"is_disabled":false,"rental_uris":{"android":"levelo://app?vid=d7351b39-725c-49f6-90a2-cb1b0918259d","ios":"levelo://app?vid=d7351b39-725c-49f6-90a2-cb1b0918259d"},"vehicle_type_id":"4","last_reported":1777317784,"current_range_meters":8400,"station_id":"ce4bgi12rcd13ifvqb70","pricing_plan_id":"cebpf4jnsgd1na2vs0mg"},{"bike_id":"bbd05204-1046-4620-9526-0eca8aa80295","system_id":"levelo_inurba_marseille","lat":43.29534,"lon":5.38534,"is_reserved":false,"is_disabled":false,"rental_uris":{"android":"levelo://app?vid=bbd05204-1046-4620-9526-0eca8aa80295","ios":"levelo://app?vid=bbd05204-1046-4620-9526-0eca8aa80295"},"vehicle_type_id":"4","last_reported":1777317784,"current_range_meters":8400,"station_id":"ce4bgih2rcd13ifvqba0","pricing_plan_id":"cebpf4jnsgd1na2vs0mg"},{"bike_id":"4d06cad1-2e4a-4159-99f3-38d6bcb9cc90","system_id":"levelo_inurba_marseille","lat":43.23194,"lon":5.35545,"is_reserved":false,"is_disabled":false,"rental_uris":{"android":"levelo://app?vid=4d06cad1-2e4a-4159-99f3-38d6bcb9cc90","ios":"levelo://app?vid=4d06cad1-2e4a-4159-99f3-38d6bcb9cc90"},"vehicle_type_id":"4","last_reported":1777317784,"current_range_meters":8400,"station_id":"ce4bhu92rcd13ifvqi70","pricing_plan_id":"cebpf4jnsgd1na2vs0mg"},{"bike_id":"369ccb57-d03b-41f4-a2b8-8a53088742e0","system_id":"levelo_inurba_marseille","lat":43.29789,"lon":5.39339,"is_reserved":false,"is_disabled":false,"rental_uris":{"android":"levelo://app?vid=369ccb57-d03b-41f4-a2b8-8a53088742e0","ios":"levelo://app?vid=369ccb57-d03b-41f4-a2b8-8a53088742e0"},"vehicle_type_id":"4","last_reported":1777317784,"current_range_meters":8400,"station_id":"chh1huq6cuj3fo74tm60","pricing_plan_id":"cebpf4jnsgd1na2vs0mg"},{"bike_id":"a7ef47ae-ac7a-4811-8371-2ebdbd6eea38","system_id":"levelo_inurba_marseille","lat":43.21755,"lon":5.34601,"is_reserved":false,"is_disabled":false,"rental_uris":{"android":"levelo://app?vid=a7ef47ae-ac7a-4811-8371-2ebdbd6eea38","ios":"levelo://app?vid=a7ef47ae-ac7a-4811-8371-2ebdbd6eea38"},"vehicle_type_id":"4","last_reported":1777317784,"current_range_meters":8400,"station_id":"st_cvj6r9ubvosntc0bgbag","pricing_plan_id":"cebpf4jnsgd1na2vs0mg"},{"bike_id":"d14de05e-8665-4c3d-949e-102c763303bf","system_id":"levelo_inurba_marseille","lat":43.2861,"lon":5.37067,"is_reserved":false,"is_disabled":false,"rental_uris":{"android":"levelo://app?vid=d14de05e-8665-4c3d-949e-102c763303bf","ios":"levelo://app?vid=d14de05e-8665-4c3d-949e-102c763303bf"},"vehicle_type_id":"4","last_reported":1777317784,"current_range_meters":8400,"station_id":"ce4bht12rcd13ifvqi60","pricing_plan_id":"cebpf4jnsgd1na2vs0mg"},{"bike_id":"1395b271-6bcd-4509-801d-3ede40af7746","system_id":"levelo_inurba_marseille","lat":43.31117,"lon":5.43835,"is_reserved":false,"is_disabled":false,"rental_uris":{"android":"levelo://app?vid=1395b271-6bcd-4509-801d-3ede40af7746","ios":"levelo://app?vid=1395b271-6bcd-4509-801d-3ede40af7746"},"vehicle_type_id":"4","last_reported":1777317784,"current_range_meters":8400,"station_id":"","pricing_plan_id":"cebpf4jnsgd1na2vs0mg"},{"bike_id":"d0633771-e198-482e-aee8-099fb72776d5","system_id":"levelo_inurba_marseille","lat":43.23188,"lon":5.39999,"is_reserved":false,"is_disabled":true,"rental_uris":{"android":"levelo://app?vid=d0633771-e198-482e-aee8-099fb72776d5","ios":"levelo://app?vid=d0633771-e198-482e-aee8-099fb72776d5"},"vehicle_type_id":"4","last_reported":1777317784,"current_range_meters":8400,"station_id":"ce4bhn12rcd13ifvqgqg","pricing_plan_id":"cebpf4jnsgd1na2vs0mg"},{"bike_id":"9ce63d40-6d31-4810-9d08-18099d265915","system_id":"levelo_inurba_marseille","lat":43.3012,"lon":5.39879,"is_reserved":false,"is_disabled":false,"rental_uris":{"android":"levelo://app?vid=9ce63d40-6d31-4810-9d08-18099d265915","ios":"levelo://app?vid=9ce63d40-6d31-4810-9d08-18099d265915"},"vehicle_type_id":"4","last_reported":1777317784,"current_range_meters":8400,"station_id":"ce4bh0h2rcd13ifvqd40","pricing_plan_id":"cebpf4jnsgd1na2vs0mg"},{"bike_id":"1b777b2a-868b-41f8-a934-5ffefe1d9742","system_id":"levelo_inurba_marseille","lat":43.28088,"lon":5.39671,"is_reserved":false,"is_disabled":false,"rental_uris":{"android":"levelo://app?vid=1b777b2a-868b-41f8-a934-5ffefe1d9742","ios":"levelo://app?vid=1b777b2a-868b-41f8-a934-5ffefe1d9742"},"vehicle_type_id":"4","last_reported":1777317784,"current_range_meters":8400,"station_id":"ce4bho12rcd13ifvqh2g","pricing_plan_id":"cebpf4jnsgd1na2vs0mg"},{"bike_id":"f68f1035-28b2-4d29-bb46-2eba59d9dd05","system_id":"levelo_inurba_marseille","lat":43.29029,"lon":5.35952,"is_reserved":false,"is_disabled":false,"rental_uris":{"android":"levelo://app?vid=f68f1035-28b2-4d29-bb46-2eba59d9dd05","ios":"levelo://app?vid=f68f1035-28b2-4d29-bb46-2eba59d9dd05"},"vehicle_type_id":"4","last_reported":1777317784,"current_range_meters":8400,"station_id":"ce4bha92rcd13ifvqeg0","pricing_plan_id":"cebpf4jnsgd1na2vs0mg"},{"bike_id":"afd36c34-6084-49cf-9c01-70cd56abaa23","system_id":"levelo_inurba_marseille","lat":43.29273,"lon":5.36851,"is_reserved":false,"is_disabled":false,"rental_uris":{"android":"levelo://app?vid=afd36c34-6084-49cf-9c01-70cd56abaa23","ios":"levelo://app?vid=afd36c34-6084-49cf-9c01-70cd56abaa23"},"vehicle_type_id":"4","last_reported":1777317784,"current_range_meters":8400,"station_id":"ce4bhbp2rcd13ifvqesg","pricing_plan_id":"cebpf4jnsgd1na2vs0mg"},{"bike_id":"2c474e85-f6f2-42dd-83b3-9739002f0731","system_id":"levelo_inurba_marseille","lat":43.30298,"lon":5.39212,"is_reserved":false,"is_disabled":false,"rental_uris":{"android":"levelo://app?vid=2c474e85-f6f2-42dd-83b3-9739002f0731","ios":"levelo://app?vid=2c474e85-f6f2-42dd-83b3-9739002f0731"},"vehicle_type_id":"4","last_reported":1777317784,"current_range_meters":8400,"station_id":"ce4bgkh2rcd13ifvqbk0","pricing_plan_id":"cebpf4jnsgd1na2vs0mg"},{"bike_id":"52773601-2a24-4a86-9c82-463ed16cf75e","system_id":"levelo_inurba_marseille","lat":43.2623,"lon":5.38771,"is_reserved":false,"is_disabled":false,"rental_uris":{"android":"levelo://app?vid=52773601-2a24-4a86-9c82-463ed16cf75e","ios":"levelo://app?vid=52773601-2a24-4a86-9c82-463ed16cf75e"},"vehicle_type_id":"4","last_reported":1777317784,"current_range_meters":8400,"station_id":"","pricing_plan_id":"cebpf4jnsgd1na2vs0mg"},{"bike_id":"5966df63-83c6-4f34-ae95-a22fe39c03ab","system_id":"levelo_inurba_marseille","lat":43.26564,"lon":5.39024,"is_reserved":false,"is_disabled":true,"rental_uris":{"android":"levelo://app?vid=5966df63-83c6-4f34-ae95-a22fe39c03ab","ios":"levelo://app?vid=5966df63-83c6-4f34-ae95-a22fe39c03ab"},"vehicle_type_id":"4","last_reported":1777317784,"current_range_meters":8400,"station_id":"ce4bhe12rcd13ifvqf30","pricing_plan_id":"cebpf4jnsgd1na2vs0mg"},{"bike_id":"48567729-a37d-43a5-be29-532eb15e1964","system_id":"levelo_inurba_marseille","lat":43.28949,"lon":5.36398,"is_reserved":false,"is_disabled":false,"rental_uris":{"android":"levelo://app?vid=48567729-a37d-43a5-be29-532eb15e1964","ios":"levelo://app?vid=48567729-a37d-43a5-be29-532eb15e1964"},"vehicle_type_id":"4","last_reported":1777317784,"current_range_meters":8400,"station_id":"ce4bhc92rcd13ifvqetg","pricing_plan_id":"cebpf4jnsgd1na2vs0mg"},{"bike_id":"99cc6e71-e5aa-4c37-8b60-24f8ba314659","system_id":"levelo_inurba_marseille","lat":43.29785,"lon":5.37114,"is_reserved":false,"is_disabled":false,"rental_uris":{"android":"levelo://app?vid=99cc6e71-e5aa-4c37-8b60-24f8ba314659","ios":"levelo://app?vid=99cc6e71-e5aa-4c37-8b60-24f8ba314659"},"vehicle_type_id":"4","last_reported":1777317784,"current_range_meters":8400,"station_id":"ce4bgop2rcd13ifvqc1g","pricing_plan_id":"cebpf4jnsgd1na2vs0mg"},{"bike_id":"af7e7602-9eee-41f4-890d-0ba3be034927","system_id":"levelo_inurba_marseille","lat":43.2953,"lon":5.38542,"is_reserved":false,"is_disabled":false,"rental_uris":{"android":"levelo://app?vid=af7e7602-9eee-41f4-890d-0ba3be034927","ios":"levelo://app?vid=af7e7602-9eee-41f4-890d-0ba3be034927"},"vehicle_type_id":"4","last_reported":1777317784,"current_range_meters":8400,"station_id":"ce4bgih2rcd13ifvqba0","pricing_plan_id":"cebpf4jnsgd1na2vs0mg"},{"bike_id":"c04c42cf-36a4-4a3c-b656-dde2fe1bae7e","system_id":"levelo_inurba_marseille","lat":43.28574,"lon":5.40268,"is_reserved":false,"is_disabled":false,"rental_uris":{"android":"levelo://app?vid=c04c42cf-36a4-4a3c-b656-dde2fe1bae7e","ios":"levelo://app?vid=c04c42cf-36a4-4a3c-b656-dde2fe1bae7e"},"vehicle_type_id":"4","last_reported":1777317784,"current_range_meters":8400,"station_id":"","pricing_plan_id":"cebpf4jnsgd1na2vs0mg"},{"bike_id":"baa55d1a-8e1e-46c2-9459-c2953120d083","system_id":"levelo_inurba_marseille","lat":43.28414,"lon":5.34996,"is_reserved":false,"is_disabled":false,"rental_uris":{"android":"levelo://app?vid=baa55d1a-8e1e-46c2-9459-c2953120d083","ios":"levelo://app?vid=baa55d1a-8e1e-46c2-9459-c2953120d083"},"vehicle_type_id":"4","last_reported":1777317784,"current_range_meters":8800,"station_id":"ce4bhbh2rcd13ifvqepg","pricing_plan_id":"cebpf4jnsgd1na2vs0mg"},{"bike_id":"0b37afb6-3616-4e2b-a1b9-7e558f036b5d","system_id":"levelo_inurba_marseille","lat":43.29628,"lon":5.40601,"is_reserved":false,"is_disabled":false,"rental_uris":{"android":"levelo://app?vid=0b37afb6-3616-4e2b-a1b9-7e558f036b5d","ios":"levelo://app?vid=0b37afb6-3616-4e2b-a1b9-7e558f036b5d"},"vehicle_type_id":"4","last_reported":1777317784,"current_range_meters":8800,"station_id":"ce4bh0h2rcd13ifvqd60","pricing_plan_id":"cebpf4jnsgd1na2vs0mg"},{"bike_id":"3462feaa-c9a2-441c-b3a1-f70058c367e6","system_id":"levelo_inurba_marseille","lat":43.24406,"lon":5.37079,"is_reserved":false,"is_disabled":false,"rental_uris":{"android":"levelo://app?vid=3462feaa-c9a2-441c-b3a1-f70058c367e6","ios":"levelo://app?vid=3462feaa-c9a2-441c-b3a1-f70058c367e6"},"vehicle_type_id":"4","last_reported":1777317784,"current_range_meters":8800,"station_id":"ce4bhhh2rcd13ifvqfk0","pricing_plan_id":"cebpf4jnsgd1na2vs0mg"},{"bike_id":"0d4dfb01-63c5-4be7-bdb0-5163c6b2578c","system_id":"levelo_inurba_marseille","lat":43.3187,"lon":5.36827,"is_reserved":false,"is_disabled":false,"rental_uris":{"android":"levelo://app?vid=0d4dfb01-63c5-4be7-bdb0-5163c6b2578c","ios":"levelo://app?vid=0d4dfb01-63c5-4be7-bdb0-5163c6b2578c"},"vehicle_type_id":"4","last_reported":1777317784,"current_range_meters":8800,"station_id":"st_d6o2h0d0559c73evc1b0","pricing_plan_id":"cebpf4jnsgd1na2vs0mg"},{"bike_id":"19af9a3c-5539-4472-a5a8-42eb3cf95ee3","system_id":"levelo_inurba_marseille","lat":43.29259,"lon":5.38444,"is_reserved":false,"is_disabled":false,"rental_uris":{"android":"levelo://app?vid=19af9a3c-5539-4472-a5a8-42eb3cf95ee3","ios":"levelo://app?vid=19af9a3c-5539-4472-a5a8-42eb3cf95ee3"},"vehicle_type_id":"4","last_reported":1777317784,"current_range_meters":8800,"station_id":"ce4bh692rcd13ifvqea0","pricing_plan_id":"cebpf4jnsgd1na2vs0mg"},{"bike_id":"f447fec5-f118-42c2-be2c-8ef32b6d20a2","system_id":"levelo_inurba_marseille","lat":43.25963,"lon":5.41685,"is_reserved":false,"is_disabled":false,"rental_uris":{"android":"levelo://app?vid=f447fec5-f118-42c2-be2c-8ef32b6d20a2","ios":"levelo://app?vid=f447fec5-f118-42c2-be2c-8ef32b6d20a2"},"vehicle_type_id":"4","last_reported":1777317784,"current_range_meters":8800,"station_id":"","pricing_plan_id":"cebpf4jnsgd1na2vs0mg"},{"bike_id":"b5088cd7-5e45-457a-ae9f-32446d67355c","system_id":"levelo_inurba_marseille","lat":43.3247,"lon":5.36565,"is_reserved":false,"is_disabled":false,"rental_uris":{"android":"levelo://app?vid=b5088cd7-5e45-457a-ae9f-32446d67355c","ios":"levelo://app?vid=b5088cd7-5e45-457a-ae9f-32446d67355c"},"vehicle_type_id":"4","last_reported":1777317784,"current_range_meters":8800,"station_id":"ce4bhs12rcd13ifvqhvg","pricing_plan_id":"cebpf4jnsgd1na2vs0mg"},{"bike_id":"74929e98-c2e0-43cc-b447-0901251d01cb","system_id":"levelo_inurba_marseille","lat":43.2549,"lon":5.37677,"is_reserved":false,"is_disabled":false,"rental_uris":{"android":"levelo://app?vid=74929e98-c2e0-43cc-b447-0901251d01cb","ios":"levelo://app?vid=74929e98-c2e0-43cc-b447-0901251d01cb"},"vehicle_type_id":"4","last_reported":1777317784,"current_range_meters":8800,"station_id":"ce4bhh12rcd13ifvqff0","pricing_plan_id":"cebpf4jnsgd1na2vs0mg"},{"bike_id":"e5cd69c7-9379-4379-93b8-62cf25a54177","system_id":"levelo_inurba_marseille","lat":43.337497,"lon":5.374492,"is_reserved":false,"is_disabled":false,"rental_uris":{"android":"levelo://app?vid=e5cd69c7-9379-4379-93b8-62cf25a54177","ios":"levelo://app?vid=e5cd69c7-9379-4379-93b8-62cf25a54177"},"vehicle_type_id":"4","last_reported":1777317784,"current_range_meters":8800,"station_id":"","pricing_plan_id":"cebpf4jnsgd1na2vs0mg"},{"bike_id":"d2276d1c-4dd8-4805-b674-72347073e05f","system_id":"levelo_inurba_marseille","lat":43.28863,"lon":5.42517,"is_reserved":false,"is_disabled":false,"rental_uris":{"android":"levelo://app?vid=d2276d1c-4dd8-4805-b674-72347073e05f","ios":"levelo://app?vid=d2276d1c-4dd8-4805-b674-72347073e05f"},"vehicle_type_id":"4","last_reported":1777317784,"current_range_meters":8800,"station_id":"st_d3b462108ojc7389ooeg","pricing_plan_id":"cebpf4jnsgd1na2vs0mg"},{"bike_id":"864d78ac-ee6e-46a8-8d95-6e3f008673da","system_id":"levelo_inurba_marseille","lat":43.30612,"lon":5.3933,"is_reserved":false,"is_disabled":false,"rental_uris":{"android":"levelo://app?vid=864d78ac-ee6e-46a8-8d95-6e3f008673da","ios":"levelo://app?vid=864d78ac-ee6e-46a8-8d95-6e3f008673da"},"vehicle_type_id":"4","last_reported":1777317784,"current_range_meters":8800,"station_id":"ce4bh0p2rcd13ifvqd80","pricing_plan_id":"cebpf4jnsgd1na2vs0mg"},{"bike_id":"790a1bd9-aea5-405f-9f30-c28178d656b4","system_id":"levelo_inurba_marseille","lat":43.298,"lon":5.39352,"is_reserved":false,"is_disabled":false,"rental_uris":{"android":"levelo://app?vid=790a1bd9-aea5-405f-9f30-c28178d656b4","ios":"levelo://app?vid=790a1bd9-aea5-405f-9f30-c28178d656b4"},"vehicle_type_id":"4","last_reported":1777317784,"current_range_meters":8800,"station_id":"chh1huq6cuj3fo74tm60","pricing_plan_id":"cebpf4jnsgd1na2vs0mg"},{"bike_id":"3109b0e0-cfd8-4009-92c0-9fa7911dfae1","system_id":"levelo_inurba_marseille","lat":43.31329,"lon":5.39693,"is_reserved":false,"is_disabled":false,"rental_uris":{"android":"levelo://app?vid=3109b0e0-cfd8-4009-92c0-9fa7911dfae1","ios":"levelo://app?vid=3109b0e0-cfd8-4009-92c0-9fa7911dfae1"},"vehicle_type_id":"4","last_reported":1777317784,"current_range_meters":8800,"station_id":"ce4bgvp2rcd13ifvqcu0","pricing_plan_id":"cebpf4jnsgd1na2vs0mg"},{"bike_id":"6b7c800e-d002-4b6e-87ef-1a48a95ed81c","system_id":"levelo_inurba_marseille","lat":43.29628,"lon":5.40594,"is_reserved":false,"is_disabled":false,"rental_uris":{"android":"levelo://app?vid=6b7c800e-d002-4b6e-87ef-1a48a95ed81c","ios":"levelo://app?vid=6b7c800e-d002-4b6e-87ef-1a48a95ed81c"},"vehicle_type_id":"4","last_reported":1777317784,"current_range_meters":8800,"station_id":"ce4bh0h2rcd13ifvqd60","pricing_plan_id":"cebpf4jnsgd1na2vs0mg"},{"bike_id":"1313d3cc-feb5-4a48-99b3-cb4d7635e1e9","system_id":"levelo_inurba_marseille","lat":43.32546,"lon":5.38065,"is_reserved":false,"is_disabled":false,"rental_uris":{"android":"levelo://app?vid=1313d3cc-feb5-4a48-99b3-cb4d7635e1e9","ios":"levelo://app?vid=1313d3cc-feb5-4a48-99b3-cb4d7635e1e9"},"vehicle_type_id":"4","last_reported":1777317784,"current_range_meters":8800,"station_id":"","pricing_plan_id":"cebpf4jnsgd1na2vs0mg"},{"bike_id":"f7cd50ab-86b6-4ec0-a44d-57bbb6fb2471","system_id":"levelo_inurba_marseille","lat":43.28849,"lon":5.39304,"is_reserved":false,"is_disabled":false,"rental_uris":{"android":"levelo://app?vid=f7cd50ab-86b6-4ec0-a44d-57bbb6fb2471","ios":"levelo://app?vid=f7cd50ab-86b6-4ec0-a44d-57bbb6fb2471"},"vehicle_type_id":"4","last_reported":1777317784,"current_range_meters":8800,"station_id":"ce4bh2p2rcd13ifvqdi0","pricing_plan_id":"cebpf4jnsgd1na2vs0mg"},{"bike_id":"b4d9b492-c746-46ed-bddf-343e9b749f81","system_id":"levelo_inurba_marseille","lat":43.33728,"lon":5.36911,"is_reserved":false,"is_disabled":true,"rental_uris":{"android":"levelo://app?vid=b4d9b492-c746-46ed-bddf-343e9b749f81","ios":"levelo://app?vid=b4d9b492-c746-46ed-bddf-343e9b749f81"},"vehicle_type_id":"4","last_reported":1777317784,"current_range_meters":8800,"station_id":"","pricing_plan_id":"cebpf4jnsgd1na2vs0mg"},{"bike_id":"9daae5fc-029a-4575-8080-71abfd7ee94e","system_id":"levelo_inurba_marseille","lat":43.21201,"lon":5.35052,"is_reserved":false,"is_disabled":false,"rental_uris":{"android":"levelo://app?vid=9daae5fc-029a-4575-8080-71abfd7ee94e","ios":"levelo://app?vid=9daae5fc-029a-4575-8080-71abfd7ee94e"},"vehicle_type_id":"4","last_reported":1777317784,"current_range_meters":8800,"station_id":"st_cvj6sg6p6f1abm77japg","pricing_plan_id":"cebpf4jnsgd1na2vs0mg"},{"bike_id":"f0139309-3da0-445b-ae20-7e213ec938ff","system_id":"levelo_inurba_marseille","lat":43.29047,"lon":5.35914,"is_reserved":false,"is_disabled":false,"rental_uris":{"android":"levelo://app?vid=f0139309-3da0-445b-ae20-7e213ec938ff","ios":"levelo://app?vid=f0139309-3da0-445b-ae20-7e213ec938ff"},"vehicle_type_id":"4","last_reported":1777317784,"current_range_meters":8800,"station_id":"ce4bha92rcd13ifvqeg0","pricing_plan_id":"cebpf4jnsgd1na2vs0mg"},{"bike_id":"af149280-a1ec-4c4c-ad22-56ae9afe7f50","system_id":"levelo_inurba_marseille","lat":43.28747,"lon":5.36067,"is_reserved":false,"is_disabled":false,"rental_uris":{"android":"levelo://app?vid=af149280-a1ec-4c4c-ad22-56ae9afe7f50","ios":"levelo://app?vid=af149280-a1ec-4c4c-ad22-56ae9afe7f50"},"vehicle_type_id":"4","last_reported":1777317784,"current_range_meters":8800,"station_id":"cki0cbj6b192h4jlfktg","pricing_plan_id":"cebpf4jnsgd1na2vs0mg"},{"bike_id":"dc4f256b-dad1-4b0e-b0aa-70815278bacb","system_id":"levelo_inurba_marseille","lat":43.28967,"lon":5.39318,"is_reserved":false,"is_disabled":false,"rental_uris":{"android":"levelo://app?vid=dc4f256b-dad1-4b0e-b0aa-70815278bacb","ios":"levelo://app?vid=dc4f256b-dad1-4b0e-b0aa-70815278bacb"},"vehicle_type_id":"4","last_reported":1777317784,"current_range_meters":8800,"station_id":"","pricing_plan_id":"cebpf4jnsgd1na2vs0mg"},{"bike_id":"a5c29ba6-9a3f-4a7f-8701-9a67e027726e","system_id":"levelo_inurba_marseille","lat":43.24808,"lon":5.37455,"is_reserved":false,"is_disabled":false,"rental_uris":{"android":"levelo://app?vid=a5c29ba6-9a3f-4a7f-8701-9a67e027726e","ios":"levelo://app?vid=a5c29ba6-9a3f-4a7f-8701-9a67e027726e"},"vehicle_type_id":"4","last_reported":1777317784,"current_range_meters":8800,"station_id":"ce4bhgh2rcd13ifvqfb0","pricing_plan_id":"cebpf4jnsgd1na2vs0mg"},{"bike_id":"4e1805e5-4d1e-4f2c-b9d5-6c41a90aacfb","system_id":"levelo_inurba_marseille","lat":43.307903,"lon":5.381688,"is_reserved":false,"is_disabled":false,"rental_uris":{"android":"levelo://app?vid=4e1805e5-4d1e-4f2c-b9d5-6c41a90aacfb","ios":"levelo://app?vid=4e1805e5-4d1e-4f2c-b9d5-6c41a90aacfb"},"vehicle_type_id":"4","last_reported":1777317784,"current_range_meters":8800,"station_id":"ce4bgt12rcd13ifvqce0","pricing_plan_id":"cebpf4jnsgd1na2vs0mg"},{"bike_id":"ca970bed-dff0-40b1-aa6e-d0db5b10d8ee","system_id":"levelo_inurba_marseille","lat":43.27426,"lon":5.39384,"is_reserved":false,"is_disabled":true,"rental_uris":{"android":"levelo://app?vid=ca970bed-dff0-40b1-aa6e-d0db5b10d8ee","ios":"levelo://app?vid=ca970bed-dff0-40b1-aa6e-d0db5b10d8ee"},"vehicle_type_id":"4","last_reported":1777317784,"current_range_meters":9200,"station_id":"ce4bhdp2rcd13ifvqf20","pricing_plan_id":"cebpf4jnsgd1na2vs0mg"},{"bike_id":"fb55a29e-fc68-4bb3-9b50-a2d7150b05aa","system_id":"levelo_inurba_marseille","lat":43.30658,"lon":5.40069,"is_reserved":false,"is_disabled":false,"rental_uris":{"android":"levelo://app?vid=fb55a29e-fc68-4bb3-9b50-a2d7150b05aa","ios":"levelo://app?vid=fb55a29e-fc68-4bb3-9b50-a2d7150b05aa"},"vehicle_type_id":"4","last_reported":1777317784,"current_range_meters":9200,"station_id":"ce4bh112rcd13ifvqda0","pricing_plan_id":"cebpf4jnsgd1na2vs0mg"},{"bike_id":"5901db96-a3a6-49e5-81da-1395ee800d62","system_id":"levelo_inurba_marseille","lat":43.2557,"lon":5.38244,"is_reserved":false,"is_disabled":false,"rental_uris":{"android":"levelo://app?vid=5901db96-a3a6-49e5-81da-1395ee800d62","ios":"levelo://app?vid=5901db96-a3a6-49e5-81da-1395ee800d62"},"vehicle_type_id":"4","last_reported":1777317784,"current_range_meters":9200,"station_id":"ce4bhih2rcd13ifvqfs0","pricing_plan_id":"cebpf4jnsgd1na2vs0mg"},{"bike_id":"1bca0dbc-0d5b-4841-8651-434c9878a792","system_id":"levelo_inurba_marseille","lat":43.29275,"lon":5.36842,"is_reserved":false,"is_disabled":false,"rental_uris":{"android":"levelo://app?vid=1bca0dbc-0d5b-4841-8651-434c9878a792","ios":"levelo://app?vid=1bca0dbc-0d5b-4841-8651-434c9878a792"},"vehicle_type_id":"4","last_reported":1777317784,"current_range_meters":9200,"station_id":"ce4bhbp2rcd13ifvqesg","pricing_plan_id":"cebpf4jnsgd1na2vs0mg"},{"bike_id":"bdc670fb-8df7-4a8b-bf30-eb3778a9040d","system_id":"levelo_inurba_marseille","lat":43.29792,"lon":5.38112,"is_reserved":false,"is_disabled":false,"rental_uris":{"android":"levelo://app?vid=bdc670fb-8df7-4a8b-bf30-eb3778a9040d","ios":"levelo://app?vid=bdc670fb-8df7-4a8b-bf30-eb3778a9040d"},"vehicle_type_id":"4","last_reported":1777317784,"current_range_meters":9200,"station_id":"ce4bgip2rcd13ifvqbb0","pricing_plan_id":"cebpf4jnsgd1na2vs0mg"},{"bike_id":"e67acc8f-2ca9-403b-9a72-d3f8278b7623","system_id":"levelo_inurba_marseille","lat":43.24826,"lon":5.37442,"is_reserved":false,"is_disabled":false,"rental_uris":{"android":"levelo://app?vid=e67acc8f-2ca9-403b-9a72-d3f8278b7623","ios":"levelo://app?vid=e67acc8f-2ca9-403b-9a72-d3f8278b7623"},"vehicle_type_id":"4","last_reported":1777317784,"current_range_meters":9200,"station_id":"ce4bhgh2rcd13ifvqfb0","pricing_plan_id":"cebpf4jnsgd1na2vs0mg"},{"bike_id":"fd22e8ad-f64d-443a-8458-84fef3c805b5","system_id":"levelo_inurba_marseille","lat":43.24804,"lon":5.37455,"is_reserved":false,"is_disabled":false,"rental_uris":{"android":"levelo://app?vid=fd22e8ad-f64d-443a-8458-84fef3c805b5","ios":"levelo://app?vid=fd22e8ad-f64d-443a-8458-84fef3c805b5"},"vehicle_type_id":"4","last_reported":1777317784,"current_range_meters":9200,"station_id":"ce4bhgh2rcd13ifvqfb0","pricing_plan_id":"cebpf4jnsgd1na2vs0mg"},{"bike_id":"20e9cf25-fe35-4df4-a702-bb6dfa4430e6","system_id":"levelo_inurba_marseille","lat":43.33754,"lon":5.39194,"is_reserved":false,"is_disabled":false,"rental_uris":{"android":"levelo://app?vid=20e9cf25-fe35-4df4-a702-bb6dfa4430e6","ios":"levelo://app?vid=20e9cf25-fe35-4df4-a702-bb6dfa4430e6"},"vehicle_type_id":"4","last_reported":1777317784,"current_range_meters":9200,"station_id":"ce4bhr92rcd13ifvqhsg","pricing_plan_id":"cebpf4jnsgd1na2vs0mg"},{"bike_id":"36574c3f-ff77-4aff-8d69-a4396f3350ac","system_id":"levelo_inurba_marseille","lat":43.3115,"lon":5.3948,"is_reserved":false,"is_disabled":false,"rental_uris":{"android":"levelo://app?vid=36574c3f-ff77-4aff-8d69-a4396f3350ac","ios":"levelo://app?vid=36574c3f-ff77-4aff-8d69-a4396f3350ac"},"vehicle_type_id":"4","last_reported":1777317784,"current_range_meters":9200,"station_id":"","pricing_plan_id":"cebpf4jnsgd1na2vs0mg"},{"bike_id":"7691273e-33d0-40e7-9122-ebb011af1b54","system_id":"levelo_inurba_marseille","lat":43.24677,"lon":5.38143,"is_reserved":false,"is_disabled":false,"rental_uris":{"android":"levelo://app?vid=7691273e-33d0-40e7-9122-ebb011af1b54","ios":"levelo://app?vid=7691273e-33d0-40e7-9122-ebb011af1b54"},"vehicle_type_id":"4","last_reported":1777317784,"current_range_meters":9200,"station_id":"ce4bhih2rcd13ifvqfr0","pricing_plan_id":"cebpf4jnsgd1na2vs0mg"},{"bike_id":"20f579e4-bb0c-44b0-8f96-d7af0d62c620","system_id":"levelo_inurba_marseille","lat":43.25092,"lon":5.39515,"is_reserved":false,"is_disabled":false,"rental_uris":{"android":"levelo://app?vid=20f579e4-bb0c-44b0-8f96-d7af0d62c620","ios":"levelo://app?vid=20f579e4-bb0c-44b0-8f96-d7af0d62c620"},"vehicle_type_id":"4","last_reported":1777317784,"current_range_meters":9200,"station_id":"ce4bhm12rcd13ifvqgkg","pricing_plan_id":"cebpf4jnsgd1na2vs0mg"},{"bike_id":"76907408-a8ff-4688-9cbf-66e48bb415e8","system_id":"levelo_inurba_marseille","lat":43.28699,"lon":5.46681,"is_reserved":false,"is_disabled":false,"rental_uris":{"android":"levelo://app?vid=76907408-a8ff-4688-9cbf-66e48bb415e8","ios":"levelo://app?vid=76907408-a8ff-4688-9cbf-66e48bb415e8"},"vehicle_type_id":"4","last_reported":1777317784,"current_range_meters":9200,"station_id":"st_d6tc3vkotcvc738tfjhg","pricing_plan_id":"cebpf4jnsgd1na2vs0mg"},{"bike_id":"987eda33-b3ad-4fac-a63c-0e3ff496e921","system_id":"levelo_inurba_marseille","lat":43.32354,"lon":5.36725,"is_reserved":false,"is_disabled":false,"rental_uris":{"android":"levelo://app?vid=987eda33-b3ad-4fac-a63c-0e3ff496e921","ios":"levelo://app?vid=987eda33-b3ad-4fac-a63c-0e3ff496e921"},"vehicle_type_id":"4","last_reported":1777317784,"current_range_meters":9200,"station_id":"ce4bhsh2rcd13ifvqi2g","pricing_plan_id":"cebpf4jnsgd1na2vs0mg"},{"bike_id":"afde96ac-1493-4085-af72-e5da568a87fd","system_id":"levelo_inurba_marseille","lat":43.28458,"lon":5.48416,"is_reserved":false,"is_disabled":false,"rental_uris":{"android":"levelo://app?vid=afde96ac-1493-4085-af72-e5da568a87fd","ios":"levelo://app?vid=afde96ac-1493-4085-af72-e5da568a87fd"},"vehicle_type_id":"4","last_reported":1777317784,"current_range_meters":9200,"station_id":"st_d3svhcjqgbts73a3dn0g","pricing_plan_id":"cebpf4jnsgd1na2vs0mg"},{"bike_id":"655ea128-bd9b-4909-8303-4bd466e17d8d","system_id":"levelo_inurba_marseille","lat":43.31074,"lon":5.4244,"is_reserved":false,"is_disabled":false,"rental_uris":{"android":"levelo://app?vid=655ea128-bd9b-4909-8303-4bd466e17d8d","ios":"levelo://app?vid=655ea128-bd9b-4909-8303-4bd466e17d8d"},"vehicle_type_id":"4","last_reported":1777317784,"current_range_meters":9200,"station_id":"ce4bhp92rcd13ifvqhag","pricing_plan_id":"cebpf4jnsgd1na2vs0mg"},{"bike_id":"9b69bc52-1cc6-4ab1-b83b-6f5276770ea3","system_id":"levelo_inurba_marseille","lat":43.25575,"lon":5.38245,"is_reserved":false,"is_disabled":false,"rental_uris":{"android":"levelo://app?vid=9b69bc52-1cc6-4ab1-b83b-6f5276770ea3","ios":"levelo://app?vid=9b69bc52-1cc6-4ab1-b83b-6f5276770ea3"},"vehicle_type_id":"4","last_reported":1777317784,"current_range_meters":9200,"station_id":"ce4bhih2rcd13ifvqfs0","pricing_plan_id":"cebpf4jnsgd1na2vs0mg"},{"bike_id":"a0379422-9cbe-40e5-a1fa-6ef700b79975","system_id":"levelo_inurba_marseille","lat":43.24392,"lon":5.37049,"is_reserved":false,"is_disabled":false,"rental_uris":{"android":"levelo://app?vid=a0379422-9cbe-40e5-a1fa-6ef700b79975","ios":"levelo://app?vid=a0379422-9cbe-40e5-a1fa-6ef700b79975"},"vehicle_type_id":"4","last_reported":1777317784,"current_range_meters":9200,"station_id":"ce4bhhh2rcd13ifvqfk0","pricing_plan_id":"cebpf4jnsgd1na2vs0mg"},{"bike_id":"9574f970-c63d-419a-8d79-f562f28b264a","system_id":"levelo_inurba_marseille","lat":43.23958,"lon":5.36632,"is_reserved":false,"is_disabled":false,"rental_uris":{"android":"levelo://app?vid=9574f970-c63d-419a-8d79-f562f28b264a","ios":"levelo://app?vid=9574f970-c63d-419a-8d79-f562f28b264a"},"vehicle_type_id":"4","last_reported":1777317784,"current_range_meters":9200,"station_id":"ce4bhi12rcd13ifvqfp0","pricing_plan_id":"cebpf4jnsgd1na2vs0mg"},{"bike_id":"dfc25f82-a386-4c45-8325-92ba3376ff99","system_id":"levelo_inurba_marseille","lat":43.28934,"lon":5.36646,"is_reserved":false,"is_disabled":false,"rental_uris":{"android":"levelo://app?vid=dfc25f82-a386-4c45-8325-92ba3376ff99","ios":"levelo://app?vid=dfc25f82-a386-4c45-8325-92ba3376ff99"},"vehicle_type_id":"4","last_reported":1777317784,"current_range_meters":9200,"station_id":"ce4bhap2rcd13ifvqek0","pricing_plan_id":"cebpf4jnsgd1na2vs0mg"},{"bike_id":"c4118d6e-3609-4ae2-8c49-d5d7613597bc","system_id":"levelo_inurba_marseille","lat":43.24163,"lon":5.36399,"is_reserved":false,"is_disabled":false,"rental_uris":{"android":"levelo://app?vid=c4118d6e-3609-4ae2-8c49-d5d7613597bc","ios":"levelo://app?vid=c4118d6e-3609-4ae2-8c49-d5d7613597bc"},"vehicle_type_id":"4","last_reported":1777317784,"current_range_meters":9200,"station_id":"cpo36qri1sfpv3e86is0","pricing_plan_id":"cebpf4jnsgd1na2vs0mg"},{"bike_id":"20111a87-41c4-4eaf-9fe8-f7469b02a4e4","system_id":"levelo_inurba_marseille","lat":43.30125,"lon":5.43118,"is_reserved":false,"is_disabled":false,"rental_uris":{"android":"levelo://app?vid=20111a87-41c4-4eaf-9fe8-f7469b02a4e4","ios":"levelo://app?vid=20111a87-41c4-4eaf-9fe8-f7469b02a4e4"},"vehicle_type_id":"4","last_reported":1777317784,"current_range_meters":9200,"station_id":"st_d3js3co5814s73ftftug","pricing_plan_id":"cebpf4jnsgd1na2vs0mg"},{"bike_id":"32fa63ea-2b56-42e5-bf7c-9a3e4b76e6ff","system_id":"levelo_inurba_marseille","lat":43.30936,"lon":5.40141,"is_reserved":false,"is_disabled":false,"rental_uris":{"android":"levelo://app?vid=32fa63ea-2b56-42e5-bf7c-9a3e4b76e6ff","ios":"levelo://app?vid=32fa63ea-2b56-42e5-bf7c-9a3e4b76e6ff"},"vehicle_type_id":"4","last_reported":1777317784,"current_range_meters":9200,"station_id":"ce4bgvp2rcd13ifvqct0","pricing_plan_id":"cebpf4jnsgd1na2vs0mg"},{"bike_id":"6b4aa15b-259f-4e69-9c10-9ad064f7be7c","system_id":"levelo_inurba_marseille","lat":43.25586,"lon":5.38231,"is_reserved":false,"is_disabled":false,"rental_uris":{"android":"levelo://app?vid=6b4aa15b-259f-4e69-9c10-9ad064f7be7c","ios":"levelo://app?vid=6b4aa15b-259f-4e69-9c10-9ad064f7be7c"},"vehicle_type_id":"4","last_reported":1777317784,"current_range_meters":9200,"station_id":"ce4bhih2rcd13ifvqfs0","pricing_plan_id":"cebpf4jnsgd1na2vs0mg"},{"bike_id":"0c04dc5c-4ad7-4dcf-8291-8a64ac9feca1","system_id":"levelo_inurba_marseille","lat":43.29847,"lon":5.36262,"is_reserved":false,"is_disabled":false,"rental_uris":{"android":"levelo://app?vid=0c04dc5c-4ad7-4dcf-8291-8a64ac9feca1","ios":"levelo://app?vid=0c04dc5c-4ad7-4dcf-8291-8a64ac9feca1"},"vehicle_type_id":"4","last_reported":1777317784,"current_range_meters":9200,"station_id":"ce4bgpp2rcd13ifvqc3g","pricing_plan_id":"cebpf4jnsgd1na2vs0mg"},{"bike_id":"8b4e6bd3-1e82-4277-a45a-3a8abaa4e3ab","system_id":"levelo_inurba_marseille","lat":43.2848,"lon":5.48379,"is_reserved":false,"is_disabled":false,"rental_uris":{"android":"levelo://app?vid=8b4e6bd3-1e82-4277-a45a-3a8abaa4e3ab","ios":"levelo://app?vid=8b4e6bd3-1e82-4277-a45a-3a8abaa4e3ab"},"vehicle_type_id":"4","last_reported":1777317784,"current_range_meters":9200,"station_id":"","pricing_plan_id":"cebpf4jnsgd1na2vs0mg"},{"bike_id":"33feb441-e4e4-4779-9766-91ef5a3f8517","system_id":"levelo_inurba_marseille","lat":43.2846,"lon":5.35889,"is_reserved":false,"is_disabled":false,"rental_uris":{"android":"levelo://app?vid=33feb441-e4e4-4779-9766-91ef5a3f8517","ios":"levelo://app?vid=33feb441-e4e4-4779-9766-91ef5a3f8517"},"vehicle_type_id":"4","last_reported":1777317784,"current_range_meters":9200,"station_id":"ce4bhah2rcd13ifvqei0","pricing_plan_id":"cebpf4jnsgd1na2vs0mg"},{"bike_id":"6d506104-5ab4-458f-b808-63bcbe03ef88","system_id":"levelo_inurba_marseille","lat":43.28662,"lon":5.36353,"is_reserved":false,"is_disabled":false,"rental_uris":{"android":"levelo://app?vid=6d506104-5ab4-458f-b808-63bcbe03ef88","ios":"levelo://app?vid=6d506104-5ab4-458f-b808-63bcbe03ef88"},