{"last_updated":1743531188,"ttl":60,"version":"2.2","data":{"bikes":[{"bike_id":"7503e781-3a43-4f29-9116-5c77f5a53429","system_id":"levelo_inurba_marseille","lat":43.2481,"lon":5.374525,"is_reserved":false,"is_disabled":false,"rental_uris":{"android":"levelo://app?vid=7503e781-3a43-4f29-9116-5c77f5a53429","ios":"levelo://app?vid=7503e781-3a43-4f29-9116-5c77f5a53429"},"vehicle_type_id":"4","last_reported":1743531188,"current_range_meters":2800,"station_id":"ce4bhgh2rcd13ifvqfb0","pricing_plan_id":"cebpf4jnsgd1na2vs0mg"},{"bike_id":"91178871-e266-471f-a102-a6fe88e13477","system_id":"levelo_inurba_marseille","lat":43.29077,"lon":5.37182,"is_reserved":false,"is_disabled":false,"rental_uris":{"android":"levelo://app?vid=91178871-e266-471f-a102-a6fe88e13477","ios":"levelo://app?vid=91178871-e266-471f-a102-a6fe88e13477"},"vehicle_type_id":"4","last_reported":1743531188,"current_range_meters":2800,"station_id":"ce4bh5p2rcd13ifvqe4g","pricing_plan_id":"cebpf4jnsgd1na2vs0mg"},{"bike_id":"4be237bf-04a1-410f-955e-cbece4e37ab8","system_id":"levelo_inurba_marseille","lat":43.29555,"lon":5.42294,"is_reserved":false,"is_disabled":false,"rental_uris":{"android":"levelo://app?vid=4be237bf-04a1-410f-955e-cbece4e37ab8","ios":"levelo://app?vid=4be237bf-04a1-410f-955e-cbece4e37ab8"},"vehicle_type_id":"4","last_reported":1743531188,"current_range_meters":2800,"station_id":"ce4bhph2rcd13ifvqhdg","pricing_plan_id":"cebpf4jnsgd1na2vs0mg"},{"bike_id":"a5fcf334-3a38-481a-868f-b28546d39fb1","system_id":"levelo_inurba_marseille","lat":43.26062,"lon":5.39399,"is_reserved":false,"is_disabled":false,"rental_uris":{"android":"levelo://app?vid=a5fcf334-3a38-481a-868f-b28546d39fb1","ios":"levelo://app?vid=a5fcf334-3a38-481a-868f-b28546d39fb1"},"vehicle_type_id":"4","last_reported":1743531188,"current_range_meters":2000,"station_id":"ce4bhh92rcd13ifvqfj0","pricing_plan_id":"cebpf4jnsgd1na2vs0mg"},{"bike_id":"f3226009-a5f7-412c-a754-d3718d1f941b","system_id":"levelo_inurba_marseille","lat":43.304793,"lon":5.399987,"is_reserved":false,"is_disabled":false,"rental_uris":{"android":"levelo://app?vid=f3226009-a5f7-412c-a754-d3718d1f941b","ios":"levelo://app?vid=f3226009-a5f7-412c-a754-d3718d1f941b"},"vehicle_type_id":"4","last_reported":1743531188,"current_range_meters":2800,"station_id":"","pricing_plan_id":"cebpf4jnsgd1na2vs0mg"},{"bike_id":"30fe6096-3fcf-4c69-a384-70a8b5e57b31","system_id":"levelo_inurba_marseille","lat":43.24546,"lon":5.39526,"is_reserved":false,"is_disabled":false,"rental_uris":{"android":"levelo://app?vid=30fe6096-3fcf-4c69-a384-70a8b5e57b31","ios":"levelo://app?vid=30fe6096-3fcf-4c69-a384-70a8b5e57b31"},"vehicle_type_id":"4","last_reported":1743531188,"current_range_meters":2800,"station_id":"ce4bhlp2rcd13ifvqgjg","pricing_plan_id":"cebpf4jnsgd1na2vs0mg"},{"bike_id":"b679efcc-8fb1-450e-a172-246469df10be","system_id":"levelo_inurba_marseille","lat":43.24078,"lon":5.37742,"is_reserved":false,"is_disabled":false,"rental_uris":{"android":"levelo://app?vid=b679efcc-8fb1-450e-a172-246469df10be","ios":"levelo://app?vid=b679efcc-8fb1-450e-a172-246469df10be"},"vehicle_type_id":"4","last_reported":1743531188,"current_range_meters":3200,"station_id":"ce4bhnp2rcd13ifvqgvg","pricing_plan_id":"cebpf4jnsgd1na2vs0mg"},{"bike_id":"0689bfb1-634a-4774-a415-d3280d852373","system_id":"levelo_inurba_marseille","lat":43.32159,"lon":5.36646,"is_reserved":false,"is_disabled":false,"rental_uris":{"android":"levelo://app?vid=0689bfb1-634a-4774-a415-d3280d852373","ios":"levelo://app?vid=0689bfb1-634a-4774-a415-d3280d852373"},"vehicle_type_id":"4","last_reported":1743531188,"current_range_meters":3200,"station_id":"","pricing_plan_id":"cebpf4jnsgd1na2vs0mg"},{"bike_id":"5dfec2f7-aa7f-4b37-beba-c2e7ad7ae104","system_id":"levelo_inurba_marseille","lat":43.29413,"lon":5.38625,"is_reserved":false,"is_disabled":false,"rental_uris":{"android":"levelo://app?vid=5dfec2f7-aa7f-4b37-beba-c2e7ad7ae104","ios":"levelo://app?vid=5dfec2f7-aa7f-4b37-beba-c2e7ad7ae104"},"vehicle_type_id":"4","last_reported":1743531188,"current_range_meters":3200,"station_id":"ce4bh2h2rcd13ifvqdh0","pricing_plan_id":"cebpf4jnsgd1na2vs0mg"},{"bike_id":"c70222be-2b4d-4671-abca-4b744e0b4125","system_id":"levelo_inurba_marseille","lat":43.29803,"lon":5.38098,"is_reserved":false,"is_disabled":false,"rental_uris":{"android":"levelo://app?vid=c70222be-2b4d-4671-abca-4b744e0b4125","ios":"levelo://app?vid=c70222be-2b4d-4671-abca-4b744e0b4125"},"vehicle_type_id":"4","last_reported":1743531188,"current_range_meters":3200,"station_id":"ce4bgip2rcd13ifvqbb0","pricing_plan_id":"cebpf4jnsgd1na2vs0mg"},{"bike_id":"3f7fb305-4d65-41a3-9470-7dedb7e96321","system_id":"levelo_inurba_marseille","lat":43.26969,"lon":5.40238,"is_reserved":false,"is_disabled":false,"rental_uris":{"android":"levelo://app?vid=3f7fb305-4d65-41a3-9470-7dedb7e96321","ios":"levelo://app?vid=3f7fb305-4d65-41a3-9470-7dedb7e96321"},"vehicle_type_id":"4","last_reported":1743531188,"current_range_meters":3200,"station_id":"cjm6bp8fraef2m0cb0m0","pricing_plan_id":"cebpf4jnsgd1na2vs0mg"},{"bike_id":"e1cb705b-a36f-407e-ae0e-72a11d99a23c","system_id":"levelo_inurba_marseille","lat":43.28936,"lon":5.36647,"is_reserved":false,"is_disabled":false,"rental_uris":{"android":"levelo://app?vid=e1cb705b-a36f-407e-ae0e-72a11d99a23c","ios":"levelo://app?vid=e1cb705b-a36f-407e-ae0e-72a11d99a23c"},"vehicle_type_id":"4","last_reported":1743531188,"current_range_meters":3600,"station_id":"ce4bhap2rcd13ifvqek0","pricing_plan_id":"cebpf4jnsgd1na2vs0mg"},{"bike_id":"d7cd5630-36a0-4f3c-a277-675549a99aba","system_id":"levelo_inurba_marseille","lat":43.29006,"lon":5.3561,"is_reserved":false,"is_disabled":false,"rental_uris":{"android":"levelo://app?vid=d7cd5630-36a0-4f3c-a277-675549a99aba","ios":"levelo://app?vid=d7cd5630-36a0-4f3c-a277-675549a99aba"},"vehicle_type_id":"4","last_reported":1743531188,"current_range_meters":3600,"station_id":"ce4bhb92rcd13ifvqen0","pricing_plan_id":"cebpf4jnsgd1na2vs0mg"},{"bike_id":"019e4e28-a1a2-47df-8fdd-96830370297d","system_id":"levelo_inurba_marseille","lat":43.291855,"lon":5.372721,"is_reserved":false,"is_disabled":false,"rental_uris":{"android":"levelo://app?vid=019e4e28-a1a2-47df-8fdd-96830370297d","ios":"levelo://app?vid=019e4e28-a1a2-47df-8fdd-96830370297d"},"vehicle_type_id":"4","last_reported":1743531188,"current_range_meters":3200,"station_id":"ce4bha92rcd13ifvqeh0","pricing_plan_id":"cebpf4jnsgd1na2vs0mg"},{"bike_id":"e54a3a3e-108e-480b-880a-4d0ad1b9dac3","system_id":"levelo_inurba_marseille","lat":43.24661,"lon":5.38157,"is_reserved":false,"is_disabled":false,"rental_uris":{"android":"levelo://app?vid=e54a3a3e-108e-480b-880a-4d0ad1b9dac3","ios":"levelo://app?vid=e54a3a3e-108e-480b-880a-4d0ad1b9dac3"},"vehicle_type_id":"4","last_reported":1743531188,"current_range_meters":3600,"station_id":"ce4bhih2rcd13ifvqfr0","pricing_plan_id":"cebpf4jnsgd1na2vs0mg"},{"bike_id":"a9d76542-416e-42a2-8584-3afb82997023","system_id":"levelo_inurba_marseille","lat":43.30149,"lon":5.38779,"is_reserved":false,"is_disabled":false,"rental_uris":{"android":"levelo://app?vid=a9d76542-416e-42a2-8584-3afb82997023","ios":"levelo://app?vid=a9d76542-416e-42a2-8584-3afb82997023"},"vehicle_type_id":"4","last_reported":1743531188,"current_range_meters":4000,"station_id":"ce4bghh2rcd13ifvqb60","pricing_plan_id":"cebpf4jnsgd1na2vs0mg"},{"bike_id":"4b39ecf5-38cb-408b-8823-098d0675bdef","system_id":"levelo_inurba_marseille","lat":43.29524,"lon":5.39018,"is_reserved":false,"is_disabled":false,"rental_uris":{"android":"levelo://app?vid=4b39ecf5-38cb-408b-8823-098d0675bdef","ios":"levelo://app?vid=4b39ecf5-38cb-408b-8823-098d0675bdef"},"vehicle_type_id":"4","last_reported":1743531188,"current_range_meters":4000,"station_id":"ce4bh3p2rcd13ifvqdp0","pricing_plan_id":"cebpf4jnsgd1na2vs0mg"},{"bike_id":"d6b8c753-9417-42f8-94b0-1584022ded69","system_id":"levelo_inurba_marseille","lat":43.26573,"lon":5.39021,"is_reserved":false,"is_disabled":false,"rental_uris":{"android":"levelo://app?vid=d6b8c753-9417-42f8-94b0-1584022ded69","ios":"levelo://app?vid=d6b8c753-9417-42f8-94b0-1584022ded69"},"vehicle_type_id":"4","last_reported":1743531188,"current_range_meters":4000,"station_id":"ce4bhe12rcd13ifvqf30","pricing_plan_id":"cebpf4jnsgd1na2vs0mg"},{"bike_id":"74cd69f3-8805-4407-8b8f-494bd9be89b1","system_id":"levelo_inurba_marseille","lat":43.2926,"lon":5.38446,"is_reserved":false,"is_disabled":false,"rental_uris":{"android":"levelo://app?vid=74cd69f3-8805-4407-8b8f-494bd9be89b1","ios":"levelo://app?vid=74cd69f3-8805-4407-8b8f-494bd9be89b1"},"vehicle_type_id":"4","last_reported":1743531188,"current_range_meters":4400,"station_id":"ce4bh692rcd13ifvqea0","pricing_plan_id":"cebpf4jnsgd1na2vs0mg"},{"bike_id":"44ffc420-fb00-43ca-84c6-03e543ab1913","system_id":"levelo_inurba_marseille","lat":43.29295,"lon":5.37167,"is_reserved":false,"is_disabled":false,"rental_uris":{"android":"levelo://app?vid=44ffc420-fb00-43ca-84c6-03e543ab1913","ios":"levelo://app?vid=44ffc420-fb00-43ca-84c6-03e543ab1913"},"vehicle_type_id":"4","last_reported":1743531188,"current_range_meters":4400,"station_id":"ce4bgh92rcd13ifvqb40","pricing_plan_id":"cebpf4jnsgd1na2vs0mg"},{"bike_id":"b4cd27f4-2698-4b82-94b7-122d752a46ac","system_id":"levelo_inurba_marseille","lat":43.27553,"lon":5.38424,"is_reserved":false,"is_disabled":false,"rental_uris":{"android":"levelo://app?vid=b4cd27f4-2698-4b82-94b7-122d752a46ac","ios":"levelo://app?vid=b4cd27f4-2698-4b82-94b7-122d752a46ac"},"vehicle_type_id":"4","last_reported":1743531188,"current_range_meters":4400,"station_id":"ce4bhh92rcd13ifvqfi0","pricing_plan_id":"cebpf4jnsgd1na2vs0mg"},{"bike_id":"e1952107-ad59-47bb-a610-aa0fc34b19c6","system_id":"levelo_inurba_marseille","lat":43.29529,"lon":5.38563,"is_reserved":false,"is_disabled":false,"rental_uris":{"android":"levelo://app?vid=e1952107-ad59-47bb-a610-aa0fc34b19c6","ios":"levelo://app?vid=e1952107-ad59-47bb-a610-aa0fc34b19c6"},"vehicle_type_id":"4","last_reported":1743531188,"current_range_meters":4000,"station_id":"ce4bgih2rcd13ifvqba0","pricing_plan_id":"cebpf4jnsgd1na2vs0mg"},{"bike_id":"97fcf2b1-0772-4e3b-8446-f8f22866aac9","system_id":"levelo_inurba_marseille","lat":43.28466,"lon":5.35895,"is_reserved":false,"is_disabled":false,"rental_uris":{"android":"levelo://app?vid=97fcf2b1-0772-4e3b-8446-f8f22866aac9","ios":"levelo://app?vid=97fcf2b1-0772-4e3b-8446-f8f22866aac9"},"vehicle_type_id":"4","last_reported":1743531188,"current_range_meters":1600,"station_id":"ce4bhah2rcd13ifvqei0","pricing_plan_id":"cebpf4jnsgd1na2vs0mg"},{"bike_id":"1b167083-12b7-424b-b082-ddc2382f2cdc","system_id":"levelo_inurba_marseille","lat":43.285986,"lon":5.35095,"is_reserved":false,"is_disabled":false,"rental_uris":{"android":"levelo://app?vid=1b167083-12b7-424b-b082-ddc2382f2cdc","ios":"levelo://app?vid=1b167083-12b7-424b-b082-ddc2382f2cdc"},"vehicle_type_id":"4","last_reported":1743531188,"current_range_meters":4400,"station_id":"","pricing_plan_id":"cebpf4jnsgd1na2vs0mg"},{"bike_id":"09fb278b-4a6a-4908-9f51-af53dd086bed","system_id":"levelo_inurba_marseille","lat":43.29802,"lon":5.38103,"is_reserved":false,"is_disabled":false,"rental_uris":{"android":"levelo://app?vid=09fb278b-4a6a-4908-9f51-af53dd086bed","ios":"levelo://app?vid=09fb278b-4a6a-4908-9f51-af53dd086bed"},"vehicle_type_id":"4","last_reported":1743531188,"current_range_meters":4400,"station_id":"ce4bgip2rcd13ifvqbb0","pricing_plan_id":"cebpf4jnsgd1na2vs0mg"},{"bike_id":"5e389705-f460-4292-85fe-91cb06407076","system_id":"levelo_inurba_marseille","lat":43.32339,"lon":5.40622,"is_reserved":false,"is_disabled":false,"rental_uris":{"android":"levelo://app?vid=5e389705-f460-4292-85fe-91cb06407076","ios":"levelo://app?vid=5e389705-f460-4292-85fe-91cb06407076"},"vehicle_type_id":"4","last_reported":1743531188,"current_range_meters":4800,"station_id":"ce4bhq92rcd13ifvqhjg","pricing_plan_id":"cebpf4jnsgd1na2vs0mg"},{"bike_id":"75bdcd89-53b2-448e-8cca-6f628dcbb82f","system_id":"levelo_inurba_marseille","lat":43.2842,"lon":5.34972,"is_reserved":false,"is_disabled":false,"rental_uris":{"android":"levelo://app?vid=75bdcd89-53b2-448e-8cca-6f628dcbb82f","ios":"levelo://app?vid=75bdcd89-53b2-448e-8cca-6f628dcbb82f"},"vehicle_type_id":"4","last_reported":1743531188,"current_range_meters":4800,"station_id":"ce4bhbh2rcd13ifvqepg","pricing_plan_id":"cebpf4jnsgd1na2vs0mg"},{"bike_id":"0fccf512-dac2-4876-b353-0b18b920cc7d","system_id":"levelo_inurba_marseille","lat":43.24383,"lon":5.37052,"is_reserved":false,"is_disabled":false,"rental_uris":{"android":"levelo://app?vid=0fccf512-dac2-4876-b353-0b18b920cc7d","ios":"levelo://app?vid=0fccf512-dac2-4876-b353-0b18b920cc7d"},"vehicle_type_id":"4","last_reported":1743531188,"current_range_meters":4800,"station_id":"ce4bhhh2rcd13ifvqfk0","pricing_plan_id":"cebpf4jnsgd1na2vs0mg"},{"bike_id":"0c40db3f-32b6-4ea9-9b45-f4c085819df2","system_id":"levelo_inurba_marseille","lat":43.28345,"lon":5.38872,"is_reserved":false,"is_disabled":false,"rental_uris":{"android":"levelo://app?vid=0c40db3f-32b6-4ea9-9b45-f4c085819df2","ios":"levelo://app?vid=0c40db3f-32b6-4ea9-9b45-f4c085819df2"},"vehicle_type_id":"4","last_reported":1743531188,"current_range_meters":4800,"station_id":"","pricing_plan_id":"cebpf4jnsgd1na2vs0mg"},{"bike_id":"2ed69ca9-631c-4e07-b360-45dc0f589dd3","system_id":"levelo_inurba_marseille","lat":43.27177,"lon":5.40996,"is_reserved":false,"is_disabled":false,"rental_uris":{"android":"levelo://app?vid=2ed69ca9-631c-4e07-b360-45dc0f589dd3","ios":"levelo://app?vid=2ed69ca9-631c-4e07-b360-45dc0f589dd3"},"vehicle_type_id":"4","last_reported":1743531188,"current_range_meters":4800,"station_id":"ce4bhl12rcd13ifvqgf0","pricing_plan_id":"cebpf4jnsgd1na2vs0mg"},{"bike_id":"5e4a8fc5-9599-4a1a-825c-a887c4217b88","system_id":"levelo_inurba_marseille","lat":43.283524,"lon":5.381061,"is_reserved":false,"is_disabled":false,"rental_uris":{"android":"levelo://app?vid=5e4a8fc5-9599-4a1a-825c-a887c4217b88","ios":"levelo://app?vid=5e4a8fc5-9599-4a1a-825c-a887c4217b88"},"vehicle_type_id":"4","last_reported":1743531188,"current_range_meters":4800,"station_id":"ce4bh412rcd13ifvqdr0","pricing_plan_id":"cebpf4jnsgd1na2vs0mg"},{"bike_id":"791f8b6d-c7b8-43a3-af53-554de4edbd8b","system_id":"levelo_inurba_marseille","lat":43.27055,"lon":5.40046,"is_reserved":false,"is_disabled":false,"rental_uris":{"android":"levelo://app?vid=791f8b6d-c7b8-43a3-af53-554de4edbd8b","ios":"levelo://app?vid=791f8b6d-c7b8-43a3-af53-554de4edbd8b"},"vehicle_type_id":"4","last_reported":1743531188,"current_range_meters":5600,"station_id":"","pricing_plan_id":"cebpf4jnsgd1na2vs0mg"},{"bike_id":"121010d1-d0ea-475b-97a6-f9054736109c","system_id":"levelo_inurba_marseille","lat":43.23207,"lon":5.39975,"is_reserved":false,"is_disabled":false,"rental_uris":{"android":"levelo://app?vid=121010d1-d0ea-475b-97a6-f9054736109c","ios":"levelo://app?vid=121010d1-d0ea-475b-97a6-f9054736109c"},"vehicle_type_id":"4","last_reported":1743531188,"current_range_meters":5600,"station_id":"ce4bhn12rcd13ifvqgqg","pricing_plan_id":"cebpf4jnsgd1na2vs0mg"},{"bike_id":"84b5ca14-c156-47f5-9efe-89c07796da55","system_id":"levelo_inurba_marseille","lat":43.28667,"lon":5.36302,"is_reserved":false,"is_disabled":false,"rental_uris":{"android":"levelo://app?vid=84b5ca14-c156-47f5-9efe-89c07796da55","ios":"levelo://app?vid=84b5ca14-c156-47f5-9efe-89c07796da55"},"vehicle_type_id":"4","last_reported":1743531188,"current_range_meters":5600,"station_id":"ce4bhah2rcd13ifvqej0","pricing_plan_id":"cebpf4jnsgd1na2vs0mg"},{"bike_id":"d279f352-6cd4-4c7d-a9bc-d5a5bd627b4e","system_id":"levelo_inurba_marseille","lat":43.270307,"lon":5.363954,"is_reserved":false,"is_disabled":false,"rental_uris":{"android":"levelo://app?vid=d279f352-6cd4-4c7d-a9bc-d5a5bd627b4e","ios":"levelo://app?vid=d279f352-6cd4-4c7d-a9bc-d5a5bd627b4e"},"vehicle_type_id":"4","last_reported":1743531188,"current_range_meters":5600,"station_id":"ce4bhjp2rcd13ifvqg90","pricing_plan_id":"cebpf4jnsgd1na2vs0mg"},{"bike_id":"aab14b9e-0b50-4607-8532-1baece3d1612","system_id":"levelo_inurba_marseille","lat":43.2927,"lon":5.38422,"is_reserved":false,"is_disabled":false,"rental_uris":{"android":"levelo://app?vid=aab14b9e-0b50-4607-8532-1baece3d1612","ios":"levelo://app?vid=aab14b9e-0b50-4607-8532-1baece3d1612"},"vehicle_type_id":"4","last_reported":1743531188,"current_range_meters":5600,"station_id":"ce4bh692rcd13ifvqea0","pricing_plan_id":"cebpf4jnsgd1na2vs0mg"},{"bike_id":"84eb71df-5a3f-453b-8479-97718fd95508","system_id":"levelo_inurba_marseille","lat":43.29869,"lon":5.39741,"is_reserved":false,"is_disabled":false,"rental_uris":{"android":"levelo://app?vid=84eb71df-5a3f-453b-8479-97718fd95508","ios":"levelo://app?vid=84eb71df-5a3f-453b-8479-97718fd95508"},"vehicle_type_id":"4","last_reported":1743531188,"current_range_meters":5600,"station_id":"ce4bh0h2rcd13ifvqd50","pricing_plan_id":"cebpf4jnsgd1na2vs0mg"},{"bike_id":"e3d08208-3c5b-489b-be86-7d5391954f49","system_id":"levelo_inurba_marseille","lat":43.30592,"lon":5.39359,"is_reserved":false,"is_disabled":false,"rental_uris":{"android":"levelo://app?vid=e3d08208-3c5b-489b-be86-7d5391954f49","ios":"levelo://app?vid=e3d08208-3c5b-489b-be86-7d5391954f49"},"vehicle_type_id":"4","last_reported":1743531188,"current_range_meters":5600,"station_id":"ce4bh0p2rcd13ifvqd80","pricing_plan_id":"cebpf4jnsgd1na2vs0mg"},{"bike_id":"0caacdfb-cd8f-4c5c-8dd3-611d62055e96","system_id":"levelo_inurba_marseille","lat":43.290182,"lon":5.381281,"is_reserved":false,"is_disabled":false,"rental_uris":{"android":"levelo://app?vid=0caacdfb-cd8f-4c5c-8dd3-611d62055e96","ios":"levelo://app?vid=0caacdfb-cd8f-4c5c-8dd3-611d62055e96"},"vehicle_type_id":"4","last_reported":1743531188,"current_range_meters":5600,"station_id":"ce4bh4p2rcd13ifvqe1g","pricing_plan_id":"cebpf4jnsgd1na2vs0mg"},{"bike_id":"4f6db61e-8293-4a0d-bb9c-f9aae02e4996","system_id":"levelo_inurba_marseille","lat":43.25085,"lon":5.39514,"is_reserved":false,"is_disabled":false,"rental_uris":{"android":"levelo://app?vid=4f6db61e-8293-4a0d-bb9c-f9aae02e4996","ios":"levelo://app?vid=4f6db61e-8293-4a0d-bb9c-f9aae02e4996"},"vehicle_type_id":"4","last_reported":1743531188,"current_range_meters":5600,"station_id":"ce4bhm12rcd13ifvqgkg","pricing_plan_id":"cebpf4jnsgd1na2vs0mg"},{"bike_id":"c6438c46-204d-4a79-9a65-1f7b29c6cbc4","system_id":"levelo_inurba_marseille","lat":43.28447,"lon":5.39218,"is_reserved":false,"is_disabled":true,"rental_uris":{"android":"levelo://app?vid=c6438c46-204d-4a79-9a65-1f7b29c6cbc4","ios":"levelo://app?vid=c6438c46-204d-4a79-9a65-1f7b29c6cbc4"},"vehicle_type_id":"4","last_reported":1743531188,"current_range_meters":6000,"station_id":"ce4bhoh2rcd13ifvqh5g","pricing_plan_id":"cebpf4jnsgd1na2vs0mg"},{"bike_id":"03cc9f61-dd7c-4ac7-af3a-55f779162c79","system_id":"levelo_inurba_marseille","lat":43.26815,"lon":5.40264,"is_reserved":false,"is_disabled":false,"rental_uris":{"android":"levelo://app?vid=03cc9f61-dd7c-4ac7-af3a-55f779162c79","ios":"levelo://app?vid=03cc9f61-dd7c-4ac7-af3a-55f779162c79"},"vehicle_type_id":"4","last_reported":1743531188,"current_range_meters":6000,"station_id":"ce501612rcd8frsf0b60","pricing_plan_id":"cebpf4jnsgd1na2vs0mg"},{"bike_id":"80989392-ba0e-4caf-99f7-b716b00ff2e6","system_id":"levelo_inurba_marseille","lat":43.25109,"lon":5.40408,"is_reserved":false,"is_disabled":false,"rental_uris":{"android":"levelo://app?vid=80989392-ba0e-4caf-99f7-b716b00ff2e6","ios":"levelo://app?vid=80989392-ba0e-4caf-99f7-b716b00ff2e6"},"vehicle_type_id":"4","last_reported":1743531188,"current_range_meters":6000,"station_id":"ce4bhlh2rcd13ifvqgig","pricing_plan_id":"cebpf4jnsgd1na2vs0mg"},{"bike_id":"23a2997f-acca-44d1-a72c-cccdd94a796c","system_id":"levelo_inurba_marseille","lat":43.30882,"lon":5.40116,"is_reserved":false,"is_disabled":true,"rental_uris":{"android":"levelo://app?vid=23a2997f-acca-44d1-a72c-cccdd94a796c","ios":"levelo://app?vid=23a2997f-acca-44d1-a72c-cccdd94a796c"},"vehicle_type_id":"4","last_reported":1743531188,"current_range_meters":6400,"station_id":"","pricing_plan_id":"cebpf4jnsgd1na2vs0mg"},{"bike_id":"bd662b5e-00f6-4bc0-aa96-d9f2f37c89e0","system_id":"levelo_inurba_marseille","lat":43.2904,"lon":5.38131,"is_reserved":false,"is_disabled":false,"rental_uris":{"android":"levelo://app?vid=bd662b5e-00f6-4bc0-aa96-d9f2f37c89e0","ios":"levelo://app?vid=bd662b5e-00f6-4bc0-aa96-d9f2f37c89e0"},"vehicle_type_id":"4","last_reported":1743531188,"current_range_meters":6400,"station_id":"ce4bh4p2rcd13ifvqe1g","pricing_plan_id":"cebpf4jnsgd1na2vs0mg"},{"bike_id":"8f188c1f-e79b-4d9c-bdf0-db34efe70778","system_id":"levelo_inurba_marseille","lat":43.23177,"lon":5.35591,"is_reserved":false,"is_disabled":false,"rental_uris":{"android":"levelo://app?vid=8f188c1f-e79b-4d9c-bdf0-db34efe70778","ios":"levelo://app?vid=8f188c1f-e79b-4d9c-bdf0-db34efe70778"},"vehicle_type_id":"4","last_reported":1743531188,"current_range_meters":6400,"station_id":"ce4bhu92rcd13ifvqi70","pricing_plan_id":"cebpf4jnsgd1na2vs0mg"},{"bike_id":"a198677f-1d5e-4d03-9763-007bd0254a72","system_id":"levelo_inurba_marseille","lat":43.28341,"lon":5.38113,"is_reserved":false,"is_disabled":false,"rental_uris":{"android":"levelo://app?vid=a198677f-1d5e-4d03-9763-007bd0254a72","ios":"levelo://app?vid=a198677f-1d5e-4d03-9763-007bd0254a72"},"vehicle_type_id":"4","last_reported":1743531188,"current_range_meters":6400,"station_id":"ce4bh412rcd13ifvqdr0","pricing_plan_id":"cebpf4jnsgd1na2vs0mg"},{"bike_id":"1d86137e-ae66-4ca4-846b-fbbdc3d570b6","system_id":"levelo_inurba_marseille","lat":43.29426,"lon":5.38613,"is_reserved":false,"is_disabled":false,"rental_uris":{"android":"levelo://app?vid=1d86137e-ae66-4ca4-846b-fbbdc3d570b6","ios":"levelo://app?vid=1d86137e-ae66-4ca4-846b-fbbdc3d570b6"},"vehicle_type_id":"4","last_reported":1743531188,"current_range_meters":6400,"station_id":"ce4bh2h2rcd13ifvqdh0","pricing_plan_id":"cebpf4jnsgd1na2vs0mg"},{"bike_id":"8e545383-874c-449c-96fa-bc6a6cd4f2b0","system_id":"levelo_inurba_marseille","lat":43.29317,"lon":5.37462,"is_reserved":false,"is_disabled":false,"rental_uris":{"android":"levelo://app?vid=8e545383-874c-449c-96fa-bc6a6cd4f2b0","ios":"levelo://app?vid=8e545383-874c-449c-96fa-bc6a6cd4f2b0"},"vehicle_type_id":"4","last_reported":1743531188,"current_range_meters":6400,"station_id":"ce4bgi12rcd13ifvqb70","pricing_plan_id":"cebpf4jnsgd1na2vs0mg"},{"bike_id":"e0c838b6-37f5-4b4f-bb89-487a0ae7ca4a","system_id":"levelo_inurba_marseille","lat":43.30728,"lon":5.42443,"is_reserved":false,"is_disabled":false,"rental_uris":{"android":"levelo://app?vid=e0c838b6-37f5-4b4f-bb89-487a0ae7ca4a","ios":"levelo://app?vid=e0c838b6-37f5-4b4f-bb89-487a0ae7ca4a"},"vehicle_type_id":"4","last_reported":1743531188,"current_range_meters":6400,"station_id":"st_cvj6ca6bvosntc0bfgr0","pricing_plan_id":"cebpf4jnsgd1na2vs0mg"},{"bike_id":"8f162023-6b84-414f-89dd-7eb4767191ca","system_id":"levelo_inurba_marseille","lat":43.25115,"lon":5.40316,"is_reserved":false,"is_disabled":false,"rental_uris":{"android":"levelo://app?vid=8f162023-6b84-414f-89dd-7eb4767191ca","ios":"levelo://app?vid=8f162023-6b84-414f-89dd-7eb4767191ca"},"vehicle_type_id":"4","last_reported":1743531188,"current_range_meters":6400,"station_id":"ce4bhlh2rcd13ifvqgig","pricing_plan_id":"cebpf4jnsgd1na2vs0mg"},{"bike_id":"1d88f4a3-9fba-48c8-a6c8-77657445585d","system_id":"levelo_inurba_marseille","lat":43.29903,"lon":5.43668,"is_reserved":false,"is_disabled":false,"rental_uris":{"android":"levelo://app?vid=1d88f4a3-9fba-48c8-a6c8-77657445585d","ios":"levelo://app?vid=1d88f4a3-9fba-48c8-a6c8-77657445585d"},"vehicle_type_id":"4","last_reported":1743531188,"current_range_meters":6400,"station_id":"ce4bhpp2rcd13ifvqhfg","pricing_plan_id":"cebpf4jnsgd1na2vs0mg"},{"bike_id":"626e09f7-121c-4472-9fc5-6d4c0b15d481","system_id":"levelo_inurba_marseille","lat":43.31685,"lon":5.40479,"is_reserved":false,"is_disabled":false,"rental_uris":{"android":"levelo://app?vid=626e09f7-121c-4472-9fc5-6d4c0b15d481","ios":"levelo://app?vid=626e09f7-121c-4472-9fc5-6d4c0b15d481"},"vehicle_type_id":"4","last_reported":1743531188,"current_range_meters":6400,"station_id":"ce4bh012rcd13ifvqd00","pricing_plan_id":"cebpf4jnsgd1na2vs0mg"},{"bike_id":"e02da63b-a3f6-4ab1-a526-2c5d7ca68a12","system_id":"levelo_inurba_marseille","lat":43.30432,"lon":5.39772,"is_reserved":false,"is_disabled":false,"rental_uris":{"android":"levelo://app?vid=e02da63b-a3f6-4ab1-a526-2c5d7ca68a12","ios":"levelo://app?vid=e02da63b-a3f6-4ab1-a526-2c5d7ca68a12"},"vehicle_type_id":"4","last_reported":1743531188,"current_range_meters":6400,"station_id":"ce4bh092rcd13ifvqd20","pricing_plan_id":"cebpf4jnsgd1na2vs0mg"},{"bike_id":"87ba880e-8f1d-4a08-9359-0f6b84f8bb0a","system_id":"levelo_inurba_marseille","lat":43.31158,"lon":5.387301,"is_reserved":false,"is_disabled":false,"rental_uris":{"android":"levelo://app?vid=87ba880e-8f1d-4a08-9359-0f6b84f8bb0a","ios":"levelo://app?vid=87ba880e-8f1d-4a08-9359-0f6b84f8bb0a"},"vehicle_type_id":"4","last_reported":1743531188,"current_range_meters":6800,"station_id":"ce4bgv12rcd13ifvqcp0","pricing_plan_id":"cebpf4jnsgd1na2vs0mg"},{"bike_id":"eebf72b5-e3ef-4e3f-8181-c82b2045fd37","system_id":"levelo_inurba_marseille","lat":43.26559,"lon":5.37276,"is_reserved":false,"is_disabled":false,"rental_uris":{"android":"levelo://app?vid=eebf72b5-e3ef-4e3f-8181-c82b2045fd37","ios":"levelo://app?vid=eebf72b5-e3ef-4e3f-8181-c82b2045fd37"},"vehicle_type_id":"4","last_reported":1743531188,"current_range_meters":6800,"station_id":"ce4bhg12rcd13ifvqf70","pricing_plan_id":"cebpf4jnsgd1na2vs0mg"},{"bike_id":"cc50a121-30f5-4ec0-9fd0-0d8cc5adbd88","system_id":"levelo_inurba_marseille","lat":43.26569,"lon":5.39006,"is_reserved":false,"is_disabled":false,"rental_uris":{"android":"levelo://app?vid=cc50a121-30f5-4ec0-9fd0-0d8cc5adbd88","ios":"levelo://app?vid=cc50a121-30f5-4ec0-9fd0-0d8cc5adbd88"},"vehicle_type_id":"4","last_reported":1743531188,"current_range_meters":6800,"station_id":"ce4bhe12rcd13ifvqf30","pricing_plan_id":"cebpf4jnsgd1na2vs0mg"},{"bike_id":"fa36f309-6b39-4046-9bcf-4e553f3ec51d","system_id":"levelo_inurba_marseille","lat":43.25581,"lon":5.38244,"is_reserved":false,"is_disabled":false,"rental_uris":{"android":"levelo://app?vid=fa36f309-6b39-4046-9bcf-4e553f3ec51d","ios":"levelo://app?vid=fa36f309-6b39-4046-9bcf-4e553f3ec51d"},"vehicle_type_id":"4","last_reported":1743531188,"current_range_meters":6800,"station_id":"ce4bhih2rcd13ifvqfs0","pricing_plan_id":"cebpf4jnsgd1na2vs0mg"},{"bike_id":"2e8d8654-23f7-434b-a09e-ae1e8d2abb71","system_id":"levelo_inurba_marseille","lat":43.25096,"lon":5.39489,"is_reserved":false,"is_disabled":false,"rental_uris":{"android":"levelo://app?vid=2e8d8654-23f7-434b-a09e-ae1e8d2abb71","ios":"levelo://app?vid=2e8d8654-23f7-434b-a09e-ae1e8d2abb71"},"vehicle_type_id":"4","last_reported":1743531188,"current_range_meters":6800,"station_id":"ce4bhm12rcd13ifvqgkg","pricing_plan_id":"cebpf4jnsgd1na2vs0mg"},{"bike_id":"a984b007-de79-4425-9aad-8e546e5e2271","system_id":"levelo_inurba_marseille","lat":43.25114,"lon":5.40371,"is_reserved":false,"is_disabled":false,"rental_uris":{"android":"levelo://app?vid=a984b007-de79-4425-9aad-8e546e5e2271","ios":"levelo://app?vid=a984b007-de79-4425-9aad-8e546e5e2271"},"vehicle_type_id":"4","last_reported":1743531188,"current_range_meters":6800,"station_id":"ce4bhlh2rcd13ifvqgig","pricing_plan_id":"cebpf4jnsgd1na2vs0mg"},{"bike_id":"d8dc7b2b-b521-459d-a4da-10bf163ca7c0","system_id":"levelo_inurba_marseille","lat":43.24684,"lon":5.38149,"is_reserved":false,"is_disabled":false,"rental_uris":{"android":"levelo://app?vid=d8dc7b2b-b521-459d-a4da-10bf163ca7c0","ios":"levelo://app?vid=d8dc7b2b-b521-459d-a4da-10bf163ca7c0"},"vehicle_type_id":"4","last_reported":1743531188,"current_range_meters":6800,"station_id":"ce4bhih2rcd13ifvqfr0","pricing_plan_id":"cebpf4jnsgd1na2vs0mg"},{"bike_id":"42b23b42-be3d-42df-9abb-8de2e6d60da3","system_id":"levelo_inurba_marseille","lat":43.2893,"lon":5.36641,"is_reserved":false,"is_disabled":false,"rental_uris":{"android":"levelo://app?vid=42b23b42-be3d-42df-9abb-8de2e6d60da3","ios":"levelo://app?vid=42b23b42-be3d-42df-9abb-8de2e6d60da3"},"vehicle_type_id":"4","last_reported":1743531188,"current_range_meters":6800,"station_id":"ce4bhap2rcd13ifvqek0","pricing_plan_id":"cebpf4jnsgd1na2vs0mg"},{"bike_id":"bb5b3ab2-6813-41c6-8bcd-a7f4e28c5f3e","system_id":"levelo_inurba_marseille","lat":43.31327,"lon":5.39702,"is_reserved":false,"is_disabled":false,"rental_uris":{"android":"levelo://app?vid=bb5b3ab2-6813-41c6-8bcd-a7f4e28c5f3e","ios":"levelo://app?vid=bb5b3ab2-6813-41c6-8bcd-a7f4e28c5f3e"},"vehicle_type_id":"4","last_reported":1743531188,"current_range_meters":6800,"station_id":"ce4bgvp2rcd13ifvqcu0","pricing_plan_id":"cebpf4jnsgd1na2vs0mg"},{"bike_id":"e81d0e50-2554-465e-b787-935099e8710d","system_id":"levelo_inurba_marseille","lat":43.298222,"lon":5.382573,"is_reserved":false,"is_disabled":false,"rental_uris":{"android":"levelo://app?vid=e81d0e50-2554-465e-b787-935099e8710d","ios":"levelo://app?vid=e81d0e50-2554-465e-b787-935099e8710d"},"vehicle_type_id":"4","last_reported":1743531188,"current_range_meters":6800,"station_id":"ce4bh192rcd13ifvqdb0","pricing_plan_id":"cebpf4jnsgd1na2vs0mg"},{"bike_id":"3f9dbb0e-19fd-42d9-9d51-11fb28629530","system_id":"levelo_inurba_marseille","lat":43.31648,"lon":5.37398,"is_reserved":false,"is_disabled":false,"rental_uris":{"android":"levelo://app?vid=3f9dbb0e-19fd-42d9-9d51-11fb28629530","ios":"levelo://app?vid=3f9dbb0e-19fd-42d9-9d51-11fb28629530"},"vehicle_type_id":"4","last_reported":1743531188,"current_range_meters":7200,"station_id":"","pricing_plan_id":"cebpf4jnsgd1na2vs0mg"},{"bike_id":"b0497066-241b-4e4f-b570-35c79fa0b46a","system_id":"levelo_inurba_marseille","lat":43.3107,"lon":5.38361,"is_reserved":false,"is_disabled":false,"rental_uris":{"android":"levelo://app?vid=b0497066-241b-4e4f-b570-35c79fa0b46a","ios":"levelo://app?vid=b0497066-241b-4e4f-b570-35c79fa0b46a"},"vehicle_type_id":"4","last_reported":1743531188,"current_range_meters":7200,"station_id":"ce4bgv92rcd13ifvqcr0","pricing_plan_id":"cebpf4jnsgd1na2vs0mg"},{"bike_id":"fb830583-0de3-4f37-86b7-38b93326f9ef","system_id":"levelo_inurba_marseille","lat":43.24084,"lon":5.37761,"is_reserved":false,"is_disabled":false,"rental_uris":{"android":"levelo://app?vid=fb830583-0de3-4f37-86b7-38b93326f9ef","ios":"levelo://app?vid=fb830583-0de3-4f37-86b7-38b93326f9ef"},"vehicle_type_id":"4","last_reported":1743531188,"current_range_meters":7200,"station_id":"ce4bhnp2rcd13ifvqgvg","pricing_plan_id":"cebpf4jnsgd1na2vs0mg"},{"bike_id":"cf74a421-2b75-4fbe-b1cd-47a1c978c876","system_id":"levelo_inurba_marseille","lat":43.28937,"lon":5.36649,"is_reserved":false,"is_disabled":false,"rental_uris":{"android":"levelo://app?vid=cf74a421-2b75-4fbe-b1cd-47a1c978c876","ios":"levelo://app?vid=cf74a421-2b75-4fbe-b1cd-47a1c978c876"},"vehicle_type_id":"4","last_reported":1743531188,"current_range_meters":7200,"station_id":"ce4bhap2rcd13ifvqek0","pricing_plan_id":"cebpf4jnsgd1na2vs0mg"},{"bike_id":"d662608d-504d-43ae-8d4a-6ba237d6c000","system_id":"levelo_inurba_marseille","lat":43.27839,"lon":5.38487,"is_reserved":false,"is_disabled":false,"rental_uris":{"android":"levelo://app?vid=d662608d-504d-43ae-8d4a-6ba237d6c000","ios":"levelo://app?vid=d662608d-504d-43ae-8d4a-6ba237d6c000"},"vehicle_type_id":"4","last_reported":1743531188,"current_range_meters":7200,"station_id":"","pricing_plan_id":"cebpf4jnsgd1na2vs0mg"},{"bike_id":"69d4261d-9d0d-4c13-bb15-8842179ecc59","system_id":"levelo_inurba_marseille","lat":43.30735,"lon":5.42454,"is_reserved":false,"is_disabled":false,"rental_uris":{"android":"levelo://app?vid=69d4261d-9d0d-4c13-bb15-8842179ecc59","ios":"levelo://app?vid=69d4261d-9d0d-4c13-bb15-8842179ecc59"},"vehicle_type_id":"4","last_reported":1743531188,"current_range_meters":7200,"station_id":"st_cvj6ca6bvosntc0bfgr0","pricing_plan_id":"cebpf4jnsgd1na2vs0mg"},{"bike_id":"589937a8-290f-4c12-b802-8a57bb49fdf5","system_id":"levelo_inurba_marseille","lat":43.29416,"lon":5.38631,"is_reserved":false,"is_disabled":false,"rental_uris":{"android":"levelo://app?vid=589937a8-290f-4c12-b802-8a57bb49fdf5","ios":"levelo://app?vid=589937a8-290f-4c12-b802-8a57bb49fdf5"},"vehicle_type_id":"4","last_reported":1743531188,"current_range_meters":7200,"station_id":"ce4bh2h2rcd13ifvqdh0","pricing_plan_id":"cebpf4jnsgd1na2vs0mg"},{"bike_id":"85f884c1-013a-45b8-a8fe-d48002f911ef","system_id":"levelo_inurba_marseille","lat":43.31325,"lon":5.39692,"is_reserved":false,"is_disabled":false,"rental_uris":{"android":"levelo://app?vid=85f884c1-013a-45b8-a8fe-d48002f911ef","ios":"levelo://app?vid=85f884c1-013a-45b8-a8fe-d48002f911ef"},"vehicle_type_id":"4","last_reported":1743531188,"current_range_meters":8000,"station_id":"ce4bgvp2rcd13ifvqcu0","pricing_plan_id":"cebpf4jnsgd1na2vs0mg"},{"bike_id":"ded9eae0-678c-4d92-8a0c-8c02c499010e","system_id":"levelo_inurba_marseille","lat":43.27927,"lon":5.39574,"is_reserved":false,"is_disabled":false,"rental_uris":{"android":"levelo://app?vid=ded9eae0-678c-4d92-8a0c-8c02c499010e","ios":"levelo://app?vid=ded9eae0-678c-4d92-8a0c-8c02c499010e"},"vehicle_type_id":"4","last_reported":1743531188,"current_range_meters":8000,"station_id":"ce4bhf92rcd13ifvqf40","pricing_plan_id":"cebpf4jnsgd1na2vs0mg"},{"bike_id":"42303157-d075-4d8f-904f-92c01686c9bb","system_id":"levelo_inurba_marseille","lat":43.26808,"lon":5.40259,"is_reserved":false,"is_disabled":false,"rental_uris":{"android":"levelo://app?vid=42303157-d075-4d8f-904f-92c01686c9bb","ios":"levelo://app?vid=42303157-d075-4d8f-904f-92c01686c9bb"},"vehicle_type_id":"4","last_reported":1743531188,"current_range_meters":8000,"station_id":"ce501612rcd8frsf0b60","pricing_plan_id":"cebpf4jnsgd1na2vs0mg"},{"bike_id":"5c9ee1b2-f3f8-4b41-9dfe-9734ceba36c4","system_id":"levelo_inurba_marseille","lat":43.25829,"lon":5.39444,"is_reserved":false,"is_disabled":false,"rental_uris":{"android":"levelo://app?vid=5c9ee1b2-f3f8-4b41-9dfe-9734ceba36c4","ios":"levelo://app?vid=5c9ee1b2-f3f8-4b41-9dfe-9734ceba36c4"},"vehicle_type_id":"4","last_reported":1743531188,"current_range_meters":8000,"station_id":"ce4bhip2rcd13ifvqft0","pricing_plan_id":"cebpf4jnsgd1na2vs0mg"},{"bike_id":"28b6a25f-1d3c-4a54-b29e-afa1b303d4b2","system_id":"levelo_inurba_marseille","lat":43.31328,"lon":5.39689,"is_reserved":false,"is_disabled":false,"rental_uris":{"android":"levelo://app?vid=28b6a25f-1d3c-4a54-b29e-afa1b303d4b2","ios":"levelo://app?vid=28b6a25f-1d3c-4a54-b29e-afa1b303d4b2"},"vehicle_type_id":"4","last_reported":1743531188,"current_range_meters":8000,"station_id":"ce4bgvp2rcd13ifvqcu0","pricing_plan_id":"cebpf4jnsgd1na2vs0mg"},{"bike_id":"2e86a168-eb5b-4f3c-ae41-c73168f546ca","system_id":"levelo_inurba_marseille","lat":43.29425,"lon":5.374209,"is_reserved":false,"is_disabled":false,"rental_uris":{"android":"levelo://app?vid=2e86a168-eb5b-4f3c-ae41-c73168f546ca","ios":"levelo://app?vid=2e86a168-eb5b-4f3c-ae41-c73168f546ca"},"vehicle_type_id":"4","last_reported":1743531188,"current_range_meters":8000,"station_id":"ce4bgh92rcd13ifvqb40","pricing_plan_id":"cebpf4jnsgd1na2vs0mg"},{"bike_id":"591e549a-7f2b-4f0a-85c7-2c04b586eaaa","system_id":"levelo_inurba_marseille","lat":43.24074,"lon":5.37757,"is_reserved":false,"is_disabled":false,"rental_uris":{"android":"levelo://app?vid=591e549a-7f2b-4f0a-85c7-2c04b586eaaa","ios":"levelo://app?vid=591e549a-7f2b-4f0a-85c7-2c04b586eaaa"},"vehicle_type_id":"4","last_reported":1743531188,"current_range_meters":8000,"station_id":"ce4bhnp2rcd13ifvqgvg","pricing_plan_id":"cebpf4jnsgd1na2vs0mg"},{"bike_id":"49423b93-28c3-4afa-893a-d3004cba0328","system_id":"levelo_inurba_marseille","lat":43.27842,"lon":5.392,"is_reserved":false,"is_disabled":false,"rental_uris":{"android":"levelo://app?vid=49423b93-28c3-4afa-893a-d3004cba0328","ios":"levelo://app?vid=49423b93-28c3-4afa-893a-d3004cba0328"},"vehicle_type_id":"4","last_reported":1743531188,"current_range_meters":8000,"station_id":"ce4bhjp2rcd13ifvqga0","pricing_plan_id":"cebpf4jnsgd1na2vs0mg"},{"bike_id":"6d51773c-f101-4b09-b507-ab028ef1af9c","system_id":"levelo_inurba_marseille","lat":43.2884,"lon":5.35873,"is_reserved":false,"is_disabled":false,"rental_uris":{"android":"levelo://app?vid=6d51773c-f101-4b09-b507-ab028ef1af9c","ios":"levelo://app?vid=6d51773c-f101-4b09-b507-ab028ef1af9c"},"vehicle_type_id":"4","last_reported":1743531188,"current_range_meters":8000,"station_id":"ce4bhb12rcd13ifvqem0","pricing_plan_id":"cebpf4jnsgd1na2vs0mg"},{"bike_id":"3a7691e4-df3b-46a6-afb5-cd9f2146d29e","system_id":"levelo_inurba_marseille","lat":43.30934,"lon":5.40152,"is_reserved":false,"is_disabled":false,"rental_uris":{"android":"levelo://app?vid=3a7691e4-df3b-46a6-afb5-cd9f2146d29e","ios":"levelo://app?vid=3a7691e4-df3b-46a6-afb5-cd9f2146d29e"},"vehicle_type_id":"4","last_reported":1743531188,"current_range_meters":8000,"station_id":"ce4bgvp2rcd13ifvqct0","pricing_plan_id":"cebpf4jnsgd1na2vs0mg"},{"bike_id":"8fa87752-921c-4867-8b79-c75713619160","system_id":"levelo_inurba_marseille","lat":43.29507,"lon":5.39402,"is_reserved":false,"is_disabled":false,"rental_uris":{"android":"levelo://app?vid=8fa87752-921c-4867-8b79-c75713619160","ios":"levelo://app?vid=8fa87752-921c-4867-8b79-c75713619160"},"vehicle_type_id":"4","last_reported":1743531188,"current_range_meters":8000,"station_id":"ce4bh292rcd13ifvqdf0","pricing_plan_id":"cebpf4jnsgd1na2vs0mg"},{"bike_id":"fef1d547-feef-4239-90b2-e0f3b60672f8","system_id":"levelo_inurba_marseille","lat":43.29578,"lon":5.39962,"is_reserved":false,"is_disabled":true,"rental_uris":{"android":"levelo://app?vid=fef1d547-feef-4239-90b2-e0f3b60672f8","ios":"levelo://app?vid=fef1d547-feef-4239-90b2-e0f3b60672f8"},"vehicle_type_id":"4","last_reported":1743531188,"current_range_meters":8400,"station_id":"ce4bh312rcd13ifvqdj0","pricing_plan_id":"cebpf4jnsgd1na2vs0mg"},{"bike_id":"eb7da56b-5c69-49ae-a682-c31364575d55","system_id":"levelo_inurba_marseille","lat":43.25709,"lon":5.41116,"is_reserved":false,"is_disabled":false,"rental_uris":{"android":"levelo://app?vid=eb7da56b-5c69-49ae-a682-c31364575d55","ios":"levelo://app?vid=eb7da56b-5c69-49ae-a682-c31364575d55"},"vehicle_type_id":"4","last_reported":1743531188,"current_range_meters":8400,"station_id":"ce4bhkp2rcd13ifvqgd0","pricing_plan_id":"cebpf4jnsgd1na2vs0mg"},{"bike_id":"a98ca414-5a9d-44e4-9fe8-4c3a59245923","system_id":"levelo_inurba_marseille","lat":43.30803,"lon":5.43516,"is_reserved":false,"is_disabled":false,"rental_uris":{"android":"levelo://app?vid=a98ca414-5a9d-44e4-9fe8-4c3a59245923","ios":"levelo://app?vid=a98ca414-5a9d-44e4-9fe8-4c3a59245923"},"vehicle_type_id":"4","last_reported":1743531188,"current_range_meters":8400,"station_id":"ce4bhph2rcd13ifvqheg","pricing_plan_id":"cebpf4jnsgd1na2vs0mg"},{"bike_id":"08724991-fdd4-4564-9d6b-c761aefd13aa","system_id":"levelo_inurba_marseille","lat":43.28826,"lon":5.35819,"is_reserved":false,"is_disabled":false,"rental_uris":{"android":"levelo://app?vid=08724991-fdd4-4564-9d6b-c761aefd13aa","ios":"levelo://app?vid=08724991-fdd4-4564-9d6b-c761aefd13aa"},"vehicle_type_id":"4","last_reported":1743531188,"current_range_meters":8400,"station_id":"ce4bhb12rcd13ifvqem0","pricing_plan_id":"cebpf4jnsgd1na2vs0mg"},{"bike_id":"721bcc92-6b82-4aac-988d-3c86699ef60a","system_id":"levelo_inurba_marseille","lat":43.27828,"lon":5.39205,"is_reserved":false,"is_disabled":true,"rental_uris":{"android":"levelo://app?vid=721bcc92-6b82-4aac-988d-3c86699ef60a","ios":"levelo://app?vid=721bcc92-6b82-4aac-988d-3c86699ef60a"},"vehicle_type_id":"4","last_reported":1743531188,"current_range_meters":8400,"station_id":"ce4bhjp2rcd13ifvqga0","pricing_plan_id":"cebpf4jnsgd1na2vs0mg"},{"bike_id":"1167d76f-0701-42ca-9566-e6b8288b4501","system_id":"levelo_inurba_marseille","lat":43.28266,"lon":5.37856,"is_reserved":false,"is_disabled":false,"rental_uris":{"android":"levelo://app?vid=1167d76f-0701-42ca-9566-e6b8288b4501","ios":"levelo://app?vid=1167d76f-0701-42ca-9566-e6b8288b4501"},"vehicle_type_id":"4","last_reported":1743531188,"current_range_meters":8400,"station_id":"","pricing_plan_id":"cebpf4jnsgd1na2vs0mg"},{"bike_id":"12e1f61b-9855-429a-8cb6-7740a5a561f5","system_id":"levelo_inurba_marseille","lat":43.29279,"lon":5.36843,"is_reserved":false,"is_disabled":false,"rental_uris":{"android":"levelo://app?vid=12e1f61b-9855-429a-8cb6-7740a5a561f5","ios":"levelo://app?vid=12e1f61b-9855-429a-8cb6-7740a5a561f5"},"vehicle_type_id":"4","last_reported":1743531188,"current_range_meters":8400,"station_id":"ce4bhbp2rcd13ifvqesg","pricing_plan_id":"cebpf4jnsgd1na2vs0mg"},{"bike_id":"cfa888b4-efdc-4310-ab03-bef845f6f80d","system_id":"levelo_inurba_marseille","lat":43.29265,"lon":5.38448,"is_reserved":false,"is_disabled":false,"rental_uris":{"android":"levelo://app?vid=cfa888b4-efdc-4310-ab03-bef845f6f80d","ios":"levelo://app?vid=cfa888b4-efdc-4310-ab03-bef845f6f80d"},"vehicle_type_id":"4","last_reported":1743531188,"current_range_meters":8400,"station_id":"ce4bh692rcd13ifvqea0","pricing_plan_id":"cebpf4jnsgd1na2vs0mg"},{"bike_id":"33b8dd29-56e2-488c-9bb6-7f788906afe5","system_id":"levelo_inurba_marseille","lat":43.30772,"lon":5.37245,"is_reserved":false,"is_disabled":false,"rental_uris":{"android":"levelo://app?vid=33b8dd29-56e2-488c-9bb6-7f788906afe5","ios":"levelo://app?vid=33b8dd29-56e2-488c-9bb6-7f788906afe5"},"vehicle_type_id":"4","last_reported":1743531188,"current_range_meters":8400,"station_id":"","pricing_plan_id":"cebpf4jnsgd1na2vs0mg"},{"bike_id":"1cad16af-523e-412b-b939-31d35051d12e","system_id":"levelo_inurba_marseille","lat":43.28417,"lon":5.34972,"is_reserved":false,"is_disabled":false,"rental_uris":{"android":"levelo://app?vid=1cad16af-523e-412b-b939-31d35051d12e","ios":"levelo://app?vid=1cad16af-523e-412b-b939-31d35051d12e"},"vehicle_type_id":"4","last_reported":1743531188,"current_range_meters":8400,"station_id":"ce4bhbh2rcd13ifvqepg","pricing_plan_id":"cebpf4jnsgd1na2vs0mg"},{"bike_id":"fa1fecff-0922-45a4-9e07-5369fb295144","system_id":"levelo_inurba_marseille","lat":43.29537,"lon":5.38554,"is_reserved":false,"is_disabled":false,"rental_uris":{"android":"levelo://app?vid=fa1fecff-0922-45a4-9e07-5369fb295144","ios":"levelo://app?vid=fa1fecff-0922-45a4-9e07-5369fb295144"},"vehicle_type_id":"4","last_reported":1743531188,"current_range_meters":8000,"station_id":"ce4bgih2rcd13ifvqba0","pricing_plan_id":"cebpf4jnsgd1na2vs0mg"},{"bike_id":"11fb0821-8afa-433a-9d88-19545526da74","system_id":"levelo_inurba_marseille","lat":43.27917,"lon":5.38012,"is_reserved":false,"is_disabled":true,"rental_uris":{"android":"levelo://app?vid=11fb0821-8afa-433a-9d88-19545526da74","ios":"levelo://app?vid=11fb0821-8afa-433a-9d88-19545526da74"},"vehicle_type_id":"4","last_reported":1743531188,"current_range_meters":8400,"station_id":"ce4bhf92rcd13ifvqf50","pricing_plan_id":"cebpf4jnsgd1na2vs0mg"},{"bike_id":"5e33a95c-77ec-45d3-911d-392849531992","system_id":"levelo_inurba_marseille","lat":43.28615,"lon":5.35103,"is_reserved":false,"is_disabled":false,"rental_uris":{"android":"levelo://app?vid=5e33a95c-77ec-45d3-911d-392849531992","ios":"levelo://app?vid=5e33a95c-77ec-45d3-911d-392849531992"},"vehicle_type_id":"4","last_reported":1743531188,"current_range_meters":8400,"station_id":"ce4bhch2rcd13ifvqeug","pricing_plan_id":"cebpf4jnsgd1na2vs0mg"},{"bike_id":"82473fe6-5221-4b8f-8d4b-c0ce5376bd47","system_id":"levelo_inurba_marseille","lat":43.29229,"lon":5.36069,"is_reserved":false,"is_disabled":false,"rental_uris":{"android":"levelo://app?vid=82473fe6-5221-4b8f-8d4b-c0ce5376bd47","ios":"levelo://app?vid=82473fe6-5221-4b8f-8d4b-c0ce5376bd47"},"vehicle_type_id":"4","last_reported":1743531188,"current_range_meters":8400,"station_id":"ce4bhbh2rcd13ifvqeqg","pricing_plan_id":"cebpf4jnsgd1na2vs0mg"},{"bike_id":"d7e94a04-56bd-41c4-a7fd-d5876e694f5d","system_id":"levelo_inurba_marseille","lat":43.24549,"lon":5.3952,"is_reserved":false,"is_disabled":false,"rental_uris":{"android":"levelo://app?vid=d7e94a04-56bd-41c4-a7fd-d5876e694f5d","ios":"levelo://app?vid=d7e94a04-56bd-41c4-a7fd-d5876e694f5d"},"vehicle_type_id":"4","last_reported":1743531188,"current_range_meters":8400,"station_id":"ce4bhlp2rcd13ifvqgjg","pricing_plan_id":"cebpf4jnsgd1na2vs0mg"},{"bike_id":"30073f80-3354-4a4e-a97f-f2a3af8607ab","system_id":"levelo_inurba_marseille","lat":43.29802,"lon":5.40397,"is_reserved":false,"is_disabled":false,"rental_uris":{"android":"levelo://app?vid=30073f80-3354-4a4e-a97f-f2a3af8607ab","ios":"levelo://app?vid=30073f80-3354-4a4e-a97f-f2a3af8607ab"},"vehicle_type_id":"4","last_reported":1743531188,"current_range_meters":8400,"station_id":"ce4bh112rcd13ifvqd90","pricing_plan_id":"cebpf4jnsgd1na2vs0mg"},{"bike_id":"76274f29-549a-4297-acd5-2854ae2867c9","system_id":"levelo_inurba_marseille","lat":43.29025,"lon":5.3863,"is_reserved":false,"is_disabled":false,"rental_uris":{"android":"levelo://app?vid=76274f29-549a-4297-acd5-2854ae2867c9","ios":"levelo://app?vid=76274f29-549a-4297-acd5-2854ae2867c9"},"vehicle_type_id":"4","last_reported":1743531188,"current_range_meters":8400,"station_id":"ce4bh4p2rcd13ifvqe0g","pricing_plan_id":"cebpf4jnsgd1na2vs0mg"},{"bike_id":"ab917714-e47d-4ed7-b902-4c1637c1701e","system_id":"levelo_inurba_marseille","lat":43.28855,"lon":5.35882,"is_reserved":false,"is_disabled":false,"rental_uris":{"android":"levelo://app?vid=ab917714-e47d-4ed7-b902-4c1637c1701e","ios":"levelo://app?vid=ab917714-e47d-4ed7-b902-4c1637c1701e"},"vehicle_type_id":"4","last_reported":1743531188,"current_range_meters":8400,"station_id":"ce4bhb12rcd13ifvqem0","pricing_plan_id":"cebpf4jnsgd1na2vs0mg"},{"bike_id":"91d48793-5dd7-45b0-b672-d2eea9be4411","system_id":"levelo_inurba_marseille","lat":43.249975,"lon":5.389225,"is_reserved":false,"is_disabled":false,"rental_uris":{"android":"levelo://app?vid=91d48793-5dd7-45b0-b672-d2eea9be4411","ios":"levelo://app?vid=91d48793-5dd7-45b0-b672-d2eea9be4411"},"vehicle_type_id":"4","last_reported":1743531188,"current_range_meters":8400,"station_id":"ce4bhgp2rcd13ifvqfd0","pricing_plan_id":"cebpf4jnsgd1na2vs0mg"},{"bike_id":"2506be63-8046-4b48-91ed-ec7aee80c5c8","system_id":"levelo_inurba_marseille","lat":43.29565,"lon":5.39942,"is_reserved":false,"is_disabled":false,"rental_uris":{"android":"levelo://app?vid=2506be63-8046-4b48-91ed-ec7aee80c5c8","ios":"levelo://app?vid=2506be63-8046-4b48-91ed-ec7aee80c5c8"},"vehicle_type_id":"4","last_reported":1743531188,"current_range_meters":8400,"station_id":"ce4bh312rcd13ifvqdj0","pricing_plan_id":"cebpf4jnsgd1na2vs0mg"},{"bike_id":"5372cd5f-f2d0-43e3-b60d-2ac0858b8ef7","system_id":"levelo_inurba_marseille","lat":43.24069,"lon":5.37765,"is_reserved":false,"is_disabled":false,"rental_uris":{"android":"levelo://app?vid=5372cd5f-f2d0-43e3-b60d-2ac0858b8ef7","ios":"levelo://app?vid=5372cd5f-f2d0-43e3-b60d-2ac0858b8ef7"},"vehicle_type_id":"4","last_reported":1743531188,"current_range_meters":8800,"station_id":"ce4bhnp2rcd13ifvqgvg","pricing_plan_id":"cebpf4jnsgd1na2vs0mg"},{"bike_id":"4ffc39d1-27ad-40f8-8406-eca5a7099eb4","system_id":"levelo_inurba_marseille","lat":43.323578,"lon":5.388908,"is_reserved":false,"is_disabled":false,"rental_uris":{"android":"levelo://app?vid=4ffc39d1-27ad-40f8-8406-eca5a7099eb4","ios":"levelo://app?vid=4ffc39d1-27ad-40f8-8406-eca5a7099eb4"},"vehicle_type_id":"4","last_reported":1743531188,"current_range_meters":7200,"station_id":"ce4bhqp2rcd13ifvqhog","pricing_plan_id":"cebpf4jnsgd1na2vs0mg"},{"bike_id":"1b63b40c-f8c9-4523-a438-cd9e4d72cb3a","system_id":"levelo_inurba_marseille","lat":43.31686,"lon":5.40468,"is_reserved":false,"is_disabled":false,"rental_uris":{"android":"levelo://app?vid=1b63b40c-f8c9-4523-a438-cd9e4d72cb3a","ios":"levelo://app?vid=1b63b40c-f8c9-4523-a438-cd9e4d72cb3a"},"vehicle_type_id":"4","last_reported":1743531188,"current_range_meters":8800,"station_id":"ce4bh012rcd13ifvqd00","pricing_plan_id":"cebpf4jnsgd1na2vs0mg"},{"bike_id":"2157fa36-0a94-49f1-83c0-9a6bd2844957","system_id":"levelo_inurba_marseille","lat":43.29637,"lon":5.40599,"is_reserved":false,"is_disabled":false,"rental_uris":{"android":"levelo://app?vid=2157fa36-0a94-49f1-83c0-9a6bd2844957","ios":"levelo://app?vid=2157fa36-0a94-49f1-83c0-9a6bd2844957"},"vehicle_type_id":"4","last_reported":1743531188,"current_range_meters":8800,"station_id":"ce4bh0h2rcd13ifvqd60","pricing_plan_id":"cebpf4jnsgd1na2vs0mg"},{"bike_id":"4ad73676-975d-4eb4-8ab0-34916f3a4594","system_id":"levelo_inurba_marseille","lat":43.30652,"lon":5.37131,"is_reserved":false,"is_disabled":false,"rental_uris":{"android":"levelo://app?vid=4ad73676-975d-4eb4-8ab0-34916f3a4594","ios":"levelo://app?vid=4ad73676-975d-4eb4-8ab0-34916f3a4594"},"vehicle_type_id":"4","last_reported":1743531188,"current_range_meters":8800,"station_id":"","pricing_plan_id":"cebpf4jnsgd1na2vs0mg"},{"bike_id":"ae41b77c-4ae6-4b13-b659-afc6fb07e029","system_id":"levelo_inurba_marseille","lat":43.27617,"lon":5.36104,"is_reserved":false,"is_disabled":false,"rental_uris":{"android":"levelo://app?vid=ae41b77c-4ae6-4b13-b659-afc6fb07e029","ios":"levelo://app?vid=ae41b77c-4ae6-4b13-b659-afc6fb07e029"},"vehicle_type_id":"4","last_reported":1743531188,"current_range_meters":8800,"station_id":"ce4bgj92rcd13ifvqbe0","pricing_plan_id":"cebpf4jnsgd1na2vs0mg"},{"bike_id":"2b9b31ad-6e45-403f-9450-a25bb8507203","system_id":"levelo_inurba_marseille","lat":43.32117,"lon":5.36822,"is_reserved":false,"is_disabled":false,"rental_uris":{"android":"levelo://app?vid=2b9b31ad-6e45-403f-9450-a25bb8507203","ios":"levelo://app?vid=2b9b31ad-6e45-403f-9450-a25bb8507203"},"vehicle_type_id":"4","last_reported":1743531188,"current_range_meters":8800,"station_id":"","pricing_plan_id":"cebpf4jnsgd1na2vs0mg"},{"bike_id":"06b1d6c7-37b4-4959-bca4-885ccac8901f","system_id":"levelo_inurba_marseille","lat":43.31061,"lon":5.38353,"is_reserved":false,"is_disabled":false,"rental_uris":{"android":"levelo://app?vid=06b1d6c7-37b4-4959-bca4-885ccac8901f","ios":"levelo://app?vid=06b1d6c7-37b4-4959-bca4-885ccac8901f"},"vehicle_type_id":"4","last_reported":1743531188,"current_range_meters":8800,"station_id":"ce4bgv92rcd13ifvqcr0","pricing_plan_id":"cebpf4jnsgd1na2vs0mg"},{"bike_id":"c6c438e8-d3ab-4770-968b-7a1a93e8a8c6","system_id":"levelo_inurba_marseille","lat":43.289,"lon":5.45877,"is_reserved":false,"is_disabled":false,"rental_uris":{"android":"levelo://app?vid=c6c438e8-d3ab-4770-968b-7a1a93e8a8c6","ios":"levelo://app?vid=c6c438e8-d3ab-4770-968b-7a1a93e8a8c6"},"vehicle_type_id":"4","last_reported":1743531188,"current_range_meters":8800,"station_id":"","pricing_plan_id":"cebpf4jnsgd1na2vs0mg"},{"bike_id":"4a48f963-6e5f-4777-9bcd-540f020d49d5","system_id":"levelo_inurba_marseille","lat":43.27818,"lon":5.39212,"is_reserved":false,"is_disabled":true,"rental_uris":{"android":"levelo://app?vid=4a48f963-6e5f-4777-9bcd-540f020d49d5","ios":"levelo://app?vid=4a48f963-6e5f-4777-9bcd-540f020d49d5"},"vehicle_type_id":"4","last_reported":1743531188,"current_range_meters":8800,"station_id":"ce4bhjp2rcd13ifvqga0","pricing_plan_id":"cebpf4jnsgd1na2vs0mg"},{"bike_id":"5d6ff265-987f-414b-8a3d-ea2d5197033a","system_id":"levelo_inurba_marseille","lat":43.286926,"lon":5.387657,"is_reserved":false,"is_disabled":false,"rental_uris":{"android":"levelo://app?vid=5d6ff265-987f-414b-8a3d-ea2d5197033a","ios":"levelo://app?vid=5d6ff265-987f-414b-8a3d-ea2d5197033a"},"vehicle_type_id":"4","last_reported":1743531188,"current_range_meters":9200,"station_id":"ce4bh392rcd13ifvqdm0","pricing_plan_id":"cebpf4jnsgd1na2vs0mg"},{"bike_id":"b3cc6af8-4e04-47ee-b7ed-e72bfdc8a57b","system_id":"levelo_inurba_marseille","lat":43.31738,"lon":5.39013,"is_reserved":false,"is_disabled":false,"rental_uris":{"android":"levelo://app?vid=b3cc6af8-4e04-47ee-b7ed-e72bfdc8a57b","ios":"levelo://app?vid=b3cc6af8-4e04-47ee-b7ed-e72bfdc8a57b"},"vehicle_type_id":"4","last_reported":1743531188,"current_range_meters":9200,"station_id":"ce4bhqp2rcd13ifvqhng","pricing_plan_id":"cebpf4jnsgd1na2vs0mg"},{"bike_id":"83ee946d-bfe9-4d7f-a56e-d9b90e7002cc","system_id":"levelo_inurba_marseille","lat":43.28854,"lon":5.35866,"is_reserved":false,"is_disabled":false,"rental_uris":{"android":"levelo://app?vid=83ee946d-bfe9-4d7f-a56e-d9b90e7002cc","ios":"levelo://app?vid=83ee946d-bfe9-4d7f-a56e-d9b90e7002cc"},"vehicle_type_id":"4","last_reported":1743531188,"current_range_meters":9200,"station_id":"ce4bhb12rcd13ifvqem0","pricing_plan_id":"cebpf4jnsgd1na2vs0mg"},{"bike_id":"0da93aa0-5433-479c-a6b0-2b6b6eaf5058","system_id":"levelo_inurba_marseille","lat":43.285364,"lon":5.385048,"is_reserved":false,"is_disabled":false,"rental_uris":{"android":"levelo://app?vid=0da93aa0-5433-479c-a6b0-2b6b6eaf5058","ios":"levelo://app?vid=0da93aa0-5433-479c-a6b0-2b6b6eaf5058"},"vehicle_type_id":"4","last_reported":1743531188,"current_range_meters":9200,"station_id":"ce4bh4p2rcd13ifvqe1g","pricing_plan_id":"cebpf4jnsgd1na2vs0mg"},{"bike_id":"66a6759f-f104-404f-ba35-7dd5d87e6d0b","system_id":"levelo_inurba_marseille","lat":43.30176,"lon":5.37678,"is_reserved":false,"is_disabled":false,"rental_uris":{"android":"levelo://app?vid=66a6759f-f104-404f-ba35-7dd5d87e6d0b","ios":"levelo://app?vid=66a6759f-f104-404f-ba35-7dd5d87e6d0b"},"vehicle_type_id":"4","last_reported":1743531188,"current_range_meters":9200,"station_id":"","pricing_plan_id":"cebpf4jnsgd1na2vs0mg"},{"bike_id":"15f2e6d5-a02c-480e-9df5-fe77c344011e","system_id":"levelo_inurba_marseille","lat":43.30246,"lon":5.40049,"is_reserved":false,"is_disabled":false,"rental_uris":{"android":"levelo://app?vid=15f2e6d5-a02c-480e-9df5-fe77c344011e","ios":"levelo://app?vid=15f2e6d5-a02c-480e-9df5-fe77c344011e"},"vehicle_type_id":"4","last_reported":1743531188,"current_range_meters":9600,"station_id":"ce4bgvh2rcd13ifvqcs0","pricing_plan_id":"cebpf4jnsgd1na2vs0mg"},{"bike_id":"e6928b84-bc47-4de0-8a23-14baa6be129c","system_id":"levelo_inurba_marseille","lat":43.301094,"lon":5.399156,"is_reserved":false,"is_disabled":true,"rental_uris":{"android":"levelo://app?vid=e6928b84-bc47-4de0-8a23-14baa6be129c","ios":"levelo://app?vid=e6928b84-bc47-4de0-8a23-14baa6be129c"},"vehicle_type_id":"4","last_reported":1743531188,"current_range_meters":9600,"station_id":"ce4bh0h2rcd13ifvqd40","pricing_plan_id":"cebpf4jnsgd1na2vs0mg"},{"bike_id":"d6452712-3c80-4fe7-a385-646f71cc9dcd","system_id":"levelo_inurba_marseille","lat":43.2868,"lon":5.38659,"is_reserved":false,"is_disabled":false,"rental_uris":{"android":"levelo://app?vid=d6452712-3c80-4fe7-a385-646f71cc9dcd","ios":"levelo://app?vid=d6452712-3c80-4fe7-a385-646f71cc9dcd"},"vehicle_type_id":"4","last_reported":1743531188,"current_range_meters":9600,"station_id":"ce4bh492rcd13ifvqdug","pricing_plan_id":"cebpf4jnsgd1na2vs0mg"},{"bike_id":"4e47e251-2123-47f1-8952-4da9debb1b52","system_id":"levelo_inurba_marseille","lat":43.26496,"lon":5.39549,"is_reserved":false,"is_disabled":false,"rental_uris":{"android":"levelo://app?vid=4e47e251-2123-47f1-8952-4da9debb1b52","ios":"levelo://app?vid=4e47e251-2123-47f1-8952-4da9debb1b52"},"vehicle_type_id":"4","last_reported":1743531188,"current_range_meters":9600,"station_id":"ce4bhi12rcd13ifvqfq0","pricing_plan_id":"cebpf4jnsgd1na2vs0mg"},{"bike_id":"a495ab47-72d1-4f9e-8b95-72d772792f33","system_id":"levelo_inurba_marseille","lat":43.30464,"lon":5.36873,"is_reserved":false,"is_disabled":false,"rental_uris":{"android":"levelo://app?vid=a495ab47-72d1-4f9e-8b95-72d772792f33","ios":"levelo://app?vid=a495ab47-72d1-4f9e-8b95-72d772792f33"},"vehicle_type_id":"4","last_reported":1743531188,"current_range_meters":9600,"station_id":"","pricing_plan_id":"cebpf4jnsgd1na2vs0mg"},{"bike_id":"53d91daf-f061-406c-bda6-778da9f1f94f","system_id":"levelo_inurba_marseille","lat":43.27897,"lon":5.38006,"is_reserved":false,"is_disabled":false,"rental_uris":{"android":"levelo://app?vid=53d91daf-f061-406c-bda6-778da9f1f94f","ios":"levelo://app?vid=53d91daf-f061-406c-bda6-778da9f1f94f"},"vehicle_type_id":"4","last_reported":1743531188,"current_range_meters":9600,"station_id":"ce4bhf92rcd13ifvqf50","pricing_plan_id":"cebpf4jnsgd1na2vs0mg"},{"bike_id":"f27fea75-c0ec-46f3-afd7-caabe3619969","system_id":"levelo_inurba_marseille","lat":43.25751,"lon":5.41047,"is_reserved":false,"is_disabled":false,"rental_uris":{"android":"levelo://app?vid=f27fea75-c0ec-46f3-afd7-caabe3619969","ios":"levelo://app?vid=f27fea75-c0ec-46f3-afd7-caabe3619969"},"vehicle_type_id":"4","last_reported":1743531188,"current_range_meters":9600,"station_id":"","pricing_plan_id":"cebpf4jnsgd1na2vs0mg"},{"bike_id":"e46bc2a1-26e5-4354-8e4b-c7a87bcf2a85","system_id":"levelo_inurba_marseille","lat":43.29418,"lon":5.38623,"is_reserved":false,"is_disabled":false,"rental_uris":{"android":"levelo://app?vid=e46bc2a1-26e5-4354-8e4b-c7a87bcf2a85","ios":"levelo://app?vid=e46bc2a1-26e5-4354-8e4b-c7a87bcf2a85"},"vehicle_type_id":"4","last_reported":1743531188,"current_range_meters":9600,"station_id":"ce4bh2h2rcd13ifvqdh0","pricing_plan_id":"cebpf4jnsgd1na2vs0mg"},{"bike_id":"f47d6bd3-54a7-48ca-a66a-b79df5cd7a54","system_id":"levelo_inurba_marseille","lat":43.24653,"lon":5.38901,"is_reserved":false,"is_disabled":false,"rental_uris":{"android":"levelo://app?vid=f47d6bd3-54a7-48ca-a66a-b79df5cd7a54","ios":"levelo://app?vid=f47d6bd3-54a7-48ca-a66a-b79df5cd7a54"},"vehicle_type_id":"4","last_reported":1743531188,"current_range_meters":9600,"station_id":"ce4bhg12rcd13ifvqf60","pricing_plan_id":"cebpf4jnsgd1na2vs0mg"},{"bike_id":"ab52962f-bc93-4ddd-be76-164eb31c1a2f","system_id":"levelo_inurba_marseille","lat":43.25014,"lon":5.38926,"is_reserved":false,"is_disabled":false,"rental_uris":{"android":"levelo://app?vid=ab52962f-bc93-4ddd-be76-164eb31c1a2f","ios":"levelo://app?vid=ab52962f-bc93-4ddd-be76-164eb31c1a2f"},"vehicle_type_id":"4","last_reported":1743531188,"current_range_meters":9600,"station_id":"ce4bhgp2rcd13ifvqfd0","pricing_plan_id":"cebpf4jnsgd1na2vs0mg"},{"bike_id":"2c567be4-626d-4614-8796-6c92d09d2fa1","system_id":"levelo_inurba_marseille","lat":43.29533,"lon":5.37435,"is_reserved":false,"is_disabled":false,"rental_uris":{"android":"levelo://app?vid=2c567be4-626d-4614-8796-6c92d09d2fa1","ios":"levelo://app?vid=2c567be4-626d-4614-8796-6c92d09d2fa1"},"vehicle_type_id":"4","last_reported":1743531188,"current_range_meters":10000,"station_id":"","pricing_plan_id":"cebpf4jnsgd1na2vs0mg"},{"bike_id":"515665b8-e5fc-4dbc-b90f-05d42ba5c9a9","system_id":"levelo_inurba_marseille","lat":43.30135,"lon":5.39876,"is_reserved":false,"is_disabled":true,"rental_uris":{"android":"levelo://app?vid=515665b8-e5fc-4dbc-b90f-05d42ba5c9a9","ios":"levelo://app?vid=515665b8-e5fc-4dbc-b90f-05d42ba5c9a9"},"vehicle_type_id":"4","last_reported":1743531188,"current_range_meters":10000,"station_id":"ce4bh0h2rcd13ifvqd40","pricing_plan_id":"cebpf4jnsgd1na2vs0mg"},{"bike_id":"56dff08d-08b0-4a7b-8257-52633718cb6e","system_id":"levelo_inurba_marseille","lat":43.24998,"lon":5.38923,"is_reserved":false,"is_disabled":false,"rental_uris":{"android":"levelo://app?vid=56dff08d-08b0-4a7b-8257-52633718cb6e","ios":"levelo://app?vid=56dff08d-08b0-4a7b-8257-52633718cb6e"},"vehicle_type_id":"4","last_reported":1743531188,"current_range_meters":9600,"station_id":"ce4bhi12rcd13ifvqfp0","pricing_plan_id":"cebpf4jnsgd1na2vs0mg"},{"bike_id":"eca5b4a6-35a1-43cd-933e-13102fdf25b8","system_id":"levelo_inurba_marseille","lat":43.29205,"lon":5.3932,"is_reserved":false,"is_disabled":false,"rental_uris":{"android":"levelo://app?vid=eca5b4a6-35a1-43cd-933e-13102fdf25b8","ios":"levelo://app?vid=eca5b4a6-35a1-43cd-933e-13102fdf25b8"},"vehicle_type_id":"4","last_reported":1743531188,"current_range_meters":10000,"station_id":"ce4bh192rcd13ifvqdd0","pricing_plan_id":"cebpf4jnsgd1na2vs0mg"},{"bike_id":"3e5329f3-c0cd-422c-afb1-2f46242590da","system_id":"levelo_inurba_marseille","lat":43.31937,"lon":5.37582,"is_reserved":false,"is_disabled":false,"rental_uris":{"android":"levelo://app?vid=3e5329f3-c0cd-422c-afb1-2f46242590da","ios":"levelo://app?vid=3e5329f3-c0cd-422c-afb1-2f46242590da"},"vehicle_type_id":"4","last_reported":1743531188,"current_range_meters":10000,"station_id":"","pricing_plan_id":"cebpf4jnsgd1na2vs0mg"},{"bike_id":"e47bc61d-df2d-41b3-b26b-dd94e6e5e301","system_id":"levelo_inurba_marseille","lat":43.26254,"lon":5.42131,"is_reserved":false,"is_disabled":false,"rental_uris":{"android":"levelo://app?vid=e47bc61d-df2d-41b3-b26b-dd94e6e5e301","ios":"levelo://app?vid=e47bc61d-df2d-41b3-b26b-dd94e6e5e301"},"vehicle_type_id":"4","last_reported":1743531188,"current_range_meters":10000,"station_id":"","pricing_plan_id":"cebpf4jnsgd1na2vs0mg"},{"bike_id":"0376d37a-72b5-4b87-be9b-fb6da5d42e07","system_id":"levelo_inurba_marseille","lat":43.318835,"lon":5.407317,"is_reserved":false,"is_disabled":false,"rental_uris":{"android":"levelo://app?vid=0376d37a-72b5-4b87-be9b-fb6da5d42e07","ios":"levelo://app?vid=0376d37a-72b5-4b87-be9b-fb6da5d42e07"},"vehicle_type_id":"4","last_reported":1743531188,"current_range_meters":10000,"station_id":"ce4bhq12rcd13ifvqhig","pricing_plan_id":"cebpf4jnsgd1na2vs0mg"},{"bike_id":"5ecafc64-86c4-4df5-818d-7b60b3345ce1","system_id":"levelo_inurba_marseille","lat":43.28643,"lon":5.35097,"is_reserved":false,"is_disabled":false,"rental_uris":{"android":"levelo://app?vid=5ecafc64-86c4-4df5-818d-7b60b3345ce1","ios":"levelo://app?vid=5ecafc64-86c4-4df5-818d-7b60b3345ce1"},"vehicle_type_id":"4","last_reported":1743531188,"current_range_meters":10000,"station_id":"ce4bhch2rcd13ifvqeug","pricing_plan_id":"cebpf4jnsgd1na2vs0mg"},{"bike_id":"7bdf0d60-3026-4723-ac07-ebb25b9cf79f","system_id":"levelo_inurba_marseille","lat":43.28794,"lon":5.38675,"is_reserved":false,"is_disabled":false,"rental_uris":{"android":"levelo://app?vid=7bdf0d60-3026-4723-ac07-ebb25b9cf79f","ios":"levelo://app?vid=7bdf0d60-3026-4723-ac07-ebb25b9cf79f"},"vehicle_type_id":"4","last_reported":1743531188,"current_range_meters":10000,"station_id":"","pricing_plan_id":"cebpf4jnsgd1na2vs0mg"},{"bike_id":"27773214-4312-4127-aa54-e74cba3d6d07","system_id":"levelo_inurba_marseille","lat":43.27782,"lon":5.40737,"is_reserved":false,"is_disabled":false,"rental_uris":{"android":"levelo://app?vid=27773214-4312-4127-aa54-e74cba3d6d07","ios":"levelo://app?vid=27773214-4312-4127-aa54-e74cba3d6d07"},"vehicle_type_id":"4","last_reported":1743531188,"current_range_meters":10000,"station_id":"ce4bhnh2rcd13ifvqgtg","pricing_plan_id":"cebpf4jnsgd1na2vs0mg"},{"bike_id":"67e02190-fe32-43d4-8320-0b46d4310805","system_id":"levelo_inurba_marseille","lat":43.23191,"lon":5.39999,"is_reserved":false,"is_disabled":false,"rental_uris":{"android":"levelo://app?vid=67e02190-fe32-43d4-8320-0b46d4310805","ios":"levelo://app?vid=67e02190-fe32-43d4-8320-0b46d4310805"},"vehicle_type_id":"4","last_reported":1743531188,"current_range_meters":10800,"station_id":"ce4bhn12rcd13ifvqgqg","pricing_plan_id":"cebpf4jnsgd1na2vs0mg"},{"bike_id":"94917dbd-a81f-452c-9d54-ae641a5543bb","system_id":"levelo_inurba_marseille","lat":43.31723,"lon":5.42407,"is_reserved":false,"is_disabled":false,"rental_uris":{"android":"levelo://app?vid=94917dbd-a81f-452c-9d54-ae641a5543bb","ios":"levelo://app?vid=94917dbd-a81f-452c-9d54-ae641a5543bb"},"vehicle_type_id":"4","last_reported":1743531188,"current_range_meters":10800,"station_id":"ce4bhp92rcd13ifvqhbg","pricing_plan_id":"cebpf4jnsgd1na2vs0mg"},{"bike_id":"6fe50303-3adc-422d-9b31-96597a73342b","system_id":"levelo_inurba_marseille","lat":43.23184,"lon":5.39998,"is_reserved":false,"is_disabled":false,"rental_uris":{"android":"levelo://app?vid=6fe50303-3adc-422d-9b31-96597a73342b","ios":"levelo://app?vid=6fe50303-3adc-422d-9b31-96597a73342b"},"vehicle_type_id":"4","last_reported":1743531188,"current_range_meters":10800,"station_id":"ce4bhn12rcd13ifvqgqg","pricing_plan_id":"cebpf4jnsgd1na2vs0mg"},{"bike_id":"34ead93f-0548-429e-a369-3703fc242f80","system_id":"levelo_inurba_marseille","lat":43.2558,"lon":5.382375,"is_reserved":false,"is_disabled":false,"rental_uris":{"android":"levelo://app?vid=34ead93f-0548-429e-a369-3703fc242f80","ios":"levelo://app?vid=34ead93f-0548-429e-a369-3703fc242f80"},"vehicle_type_id":"4","last_reported":1743531188,"current_range_meters":10800,"station_id":"ce4bhih2rcd13ifvqfs0","pricing_plan_id":"cebpf4jnsgd1na2vs0mg"},{"bike_id":"ab9f323b-72a1-4f20-af3b-04d541b89cf4","system_id":"levelo_inurba_marseille","lat":43.288483,"lon":5.393232,"is_reserved":false,"is_disabled":false,"rental_uris":{"android":"levelo://app?vid=ab9f323b-72a1-4f20-af3b-04d541b89cf4","ios":"levelo://app?vid=ab9f323b-72a1-4f20-af3b-04d541b89cf4"},"vehicle_type_id":"4","last_reported":1743531188,"current_range_meters":10800,"station_id":"ce4bh2p2rcd13ifvqdi0","pricing_plan_id":"cebpf4jnsgd1na2vs0mg"},{"bike_id":"b18d61be-1314-4787-bdc3-677619cdb9f9","system_id":"levelo_inurba_marseille","lat":43.29951,"lon":5.37013,"is_reserved":false,"is_disabled":false,"rental_uris":{"android":"levelo://app?vid=b18d61be-1314-4787-bdc3-677619cdb9f9","ios":"levelo://app?vid=b18d61be-1314-4787-bdc3-677619cdb9f9"},"vehicle_type_id":"4","last_reported":1743531188,"current_range_meters":10800,"station_id":"","pricing_plan_id":"cebpf4jnsgd1na2vs0mg"},{"bike_id":"f2dfd2a0-5846-4c43-9aae-f5b5157fea3b","system_id":"levelo_inurba_marseille","lat":43.2864,"lon":5.35086,"is_reserved":false,"is_disabled":false,"rental_uris":{"android":"levelo://app?vid=f2dfd2a0-5846-4c43-9aae-f5b5157fea3b","ios":"levelo://app?vid=f2dfd2a0-5846-4c43-9aae-f5b5157fea3b"},"vehicle_type_id":"4","last_reported":1743531188,"current_range_meters":10800,"station_id":"ce4bhch2rcd13ifvqeug","pricing_plan_id":"cebpf4jnsgd1na2vs0mg"},{"bike_id":"56cfda8b-2674-4efc-8ad1-c51e28d4f008","system_id":"levelo_inurba_marseille","lat":43.28038,"lon":5.36947,"is_reserved":false,"is_disabled":false,"rental_uris":{"android":"levelo://app?vid=56cfda8b-2674-4efc-8ad1-c51e28d4f008","ios":"levelo://app?vid=56cfda8b-2674-4efc-8ad1-c51e28d4f008"},"vehicle_type_id":"4","last_reported":1743531188,"current_range_meters":11200,"station_id":"ce4bha12rcd13ifvqef0","pricing_plan_id":"cebpf4jnsgd1na2vs0mg"},{"bike_id":"7d4a7b9d-7644-4f3f-9c85-7111122259dc","system_id":"levelo_inurba_marseille","lat":43.29538,"lon":5.39405,"is_reserved":false,"is_disabled":false,"rental_uris":{"android":"levelo://app?vid=7d4a7b9d-7644-4f3f-9c85-7111122259dc","ios":"levelo://app?vid=7d4a7b9d-7644-4f3f-9c85-7111122259dc"},"vehicle_type_id":"4","last_reported":1743531188,"current_range_meters":11200,"station_id":"ce4bh292rcd13ifvqdf0","pricing_plan_id":"cebpf4jnsgd1na2vs0mg"},{"bike_id":"090cdab4-f256-4ae8-ad25-33ca8da71ed4","system_id":"levelo_inurba_marseille","lat":43.290281,"lon":5.386496,"is_reserved":false,"is_disabled":false,"rental_uris":{"android":"levelo://app?vid=090cdab4-f256-4ae8-ad25-33ca8da71ed4","ios":"levelo://app?vid=090cdab4-f256-4ae8-ad25-33ca8da71ed4"},"vehicle_type_id":"4","last_reported":1743531188,"current_range_meters":11200,"station_id":"ce4bh4p2rcd13ifvqe0g","pricing_plan_id":"cebpf4jnsgd1na2vs0mg"},{"bike_id":"c309b1b2-f31b-48d7-a584-e1e6adf2d505","system_id":"levelo_inurba_marseille","lat":43.293039,"lon":5.374424,"is_reserved":false,"is_disabled":false,"rental_uris":{"android":"levelo://app?vid=c309b1b2-f31b-48d7-a584-e1e6adf2d505","ios":"levelo://app?vid=c309b1b2-f31b-48d7-a584-e1e6adf2d505"},"vehicle_type_id":"4","last_reported":1743531188,"current_range_meters":11200,"station_id":"ce4bhb12rcd13ifvqel0","pricing_plan_id":"cebpf4jnsgd1na2vs0mg"},{"bike_id":"4c67e732-7b94-49e2-90ab-962b8a036a5d","system_id":"levelo_inurba_marseille","lat":43.29966,"lon":5.38507,"is_reserved":false,"is_disabled":false,"rental_uris":{"android":"levelo://app?vid=4c67e732-7b94-49e2-90ab-962b8a036a5d","ios":"levelo://app?vid=4c67e732-7b94-49e2-90ab-962b8a036a5d"},"vehicle_type_id":"4","last_reported":1743531188,"current_range_meters":11200,"station_id":"ce4bgj92rcd13ifvqbd0","pricing_plan_id":"cebpf4jnsgd1na2vs0mg"},{"bike_id":"34a58ad9-2563-4c79-bb38-f08f2006a83e","system_id":"levelo_inurba_marseille","lat":43.290347,"lon":5.375613,"is_reserved":false,"is_disabled":false,"rental_uris":{"android":"levelo://app?vid=34a58ad9-2563-4c79-bb38-f08f2006a83e","ios":"levelo://app?vid=34a58ad9-2563-4c79-bb38-f08f2006a83e"},"vehicle_type_id":"4","last_reported":1743531188,"current_range_meters":11200,"station_id":"ce4bh692rcd13ifvqe90","pricing_plan_id":"cebpf4jnsgd1na2vs0mg"},{"bike_id":"7d24f7f3-5a91-46ae-971d-a7a715309919","system_id":"levelo_inurba_marseille","lat":43.23183,"lon":5.40009,"is_reserved":false,"is_disabled":false,"rental_uris":{"android":"levelo://app?vid=7d24f7f3-5a91-46ae-971d-a7a715309919","ios":"levelo://app?vid=7d24f7f3-5a91-46ae-971d-a7a715309919"},"vehicle_type_id":"4","last_reported":1743531188,"current_range_meters":11200,"station_id":"ce4bhn12rcd13ifvqgqg","pricing_plan_id":"cebpf4jnsgd1na2vs0mg"},{"bike_id":"041c6bb4-25e5-4d13-ad6c-53bcd18cf89f","system_id":"levelo_inurba_marseille","lat":43.25092,"lon":5.39496,"is_reserved":false,"is_disabled":false,"rental_uris":{"android":"levelo://app?vid=041c6bb4-25e5-4d13-ad6c-53bcd18cf89f","ios":"levelo://app?vid=041c6bb4-25e5-4d13-ad6c-53bcd18cf89f"},"vehicle_type_id":"4","last_reported":1743531188,"current_range_meters":11200,"station_id":"ce4bhm12rcd13ifvqgkg","pricing_plan_id":"cebpf4jnsgd1na2vs0mg"},{"bike_id":"3ba6ccff-1eda-46d4-acbd-01dbdd65bb76","system_id":"levelo_inurba_marseille","lat":43.29895,"lon":5.43665,"is_reserved":false,"is_disabled":false,"rental_uris":{"android":"levelo://app?vid=3ba6ccff-1eda-46d4-acbd-01dbdd65bb76","ios":"levelo://app?vid=3ba6ccff-1eda-46d4-acbd-01dbdd65bb76"},"vehicle_type_id":"4","last_reported":1743531188,"current_range_meters":11200,"station_id":"ce4bhpp2rcd13ifvqhfg","pricing_plan_id":"cebpf4jnsgd1na2vs0mg"},{"bike_id":"6bac47f7-05f5-4974-8ae4-14d014c019b4","system_id":"levelo_inurba_marseille","lat":43.30807,"lon":5.43525,"is_reserved":false,"is_disabled":false,"rental_uris":{"android":"levelo://app?vid=6bac47f7-05f5-4974-8ae4-14d014c019b4","ios":"levelo://app?vid=6bac47f7-05f5-4974-8ae4-14d014c019b4"},"vehicle_type_id":"4","last_reported":1743531188,"current_range_meters":11200,"station_id":"ce4bhph2rcd13ifvqheg","pricing_plan_id":"cebpf4jnsgd1na2vs0mg"},{"bike_id":"10df1298-ebee-4147-b200-58897baa6bf8","system_id":"levelo_inurba_marseille","lat":43.30259,"lon":5.40074,"is_reserved":false,"is_disabled":false,"rental_uris":{"android":"levelo://app?vid=10df1298-ebee-4147-b200-58897baa6bf8","ios":"levelo://app?vid=10df1298-ebee-4147-b200-58897baa6bf8"},"vehicle_type_id":"4","last_reported":1743531188,"current_range_meters":11200,"station_id":"ce4bgvh2rcd13ifvqcs0","pricing_plan_id":"cebpf4jnsgd1na2vs0mg"},{"bike_id":"f8953b44-d3fc-473e-b485-4bdcc03fad0f","system_id":"levelo_inurba_marseille","lat":43.31733,"lon":5.40463,"is_reserved":false,"is_disabled":false,"rental_uris":{"android":"levelo://app?vid=f8953b44-d3fc-473e-b485-4bdcc03fad0f","ios":"levelo://app?vid=f8953b44-d3fc-473e-b485-4bdcc03fad0f"},"vehicle_type_id":"4","last_reported":1743531188,"current_range_meters":11600,"station_id":"ce4bh012rcd13ifvqd00","pricing_plan_id":"cebpf4jnsgd1na2vs0mg"},{"bike_id":"60129d40-45b0-48c5-8fe5-8766c358d773","system_id":"levelo_inurba_marseille","lat":43.250973,"lon":5.395377,"is_reserved":false,"is_disabled":false,"rental_uris":{"android":"levelo://app?vid=60129d40-45b0-48c5-8fe5-8766c358d773","ios":"levelo://app?vid=60129d40-45b0-48c5-8fe5-8766c358d773"},"vehicle_type_id":"4","last_reported":1743531188,"current_range_meters":11600,"station_id":"ce4bhm12rcd13ifvqgkg","pricing_plan_id":"cebpf4jnsgd1na2vs0mg"},{"bike_id":"4c6d71a9-af45-4dd7-ac9a-330ba97f002a","system_id":"levelo_inurba_marseille","lat":43.29712,"lon":5.37716,"is_reserved":false,"is_disabled":false,"rental_uris":{"android":"levelo://app?vid=4c6d71a9-af45-4dd7-ac9a-330ba97f002a","ios":"levelo://app?vid=4c6d71a9-af45-4dd7-ac9a-330ba97f002a"},"vehicle_type_id":"4","last_reported":1743531188,"current_range_meters":11600,"station_id":"ce4bgkh2rcd13ifvqbl0","pricing_plan_id":"cebpf4jnsgd1na2vs0mg"},{"bike_id":"f7d3ff00-a424-40c8-b97e-7af86db50e3a","system_id":"levelo_inurba_marseille","lat":43.28453,"lon":5.35881,"is_reserved":false,"is_disabled":false,"rental_uris":{"android":"levelo://app?vid=f7d3ff00-a424-40c8-b97e-7af86db50e3a","ios":"levelo://app?vid=f7d3ff00-a424-40c8-b97e-7af86db50e3a"},"vehicle_type_id":"4","last_reported":1743531188,"current_range_meters":11600,"station_id":"ce4bhah2rcd13ifvqei0","pricing_plan_id":"cebpf4jnsgd1na2vs0mg"},{"bike_id":"7510ac63-dac2-4973-b271-daa982d63b9c","system_id":"levelo_inurba_marseille","lat":43.27841,"lon":5.39212,"is_reserved":false,"is_disabled":false,"rental_uris":{"android":"levelo://app?vid=7510ac63-dac2-4973-b271-daa982d63b9c","ios":"levelo://app?vid=7510ac63-dac2-4973-b271-daa982d63b9c"},"vehicle_type_id":"4","last_reported":1743531188,"current_range_meters":11600,"station_id":"ce4bhjp2rcd13ifvqga0","pricing_plan_id":"cebpf4jnsgd1na2vs0mg"},{"bike_id":"c3742909-8ac1-45e8-bbc0-0a14494abaa8","system_id":"levelo_inurba_marseille","lat":43.24631,"lon":5.3891,"is_reserved":false,"is_disabled":false,"rental_uris":{"android":"levelo://app?vid=c3742909-8ac1-45e8-bbc0-0a14494abaa8","ios":"levelo://app?vid=c3742909-8ac1-45e8-bbc0-0a14494abaa8"},"vehicle_type_id":"4","last_reported":1743531188,"current_range_meters":11600,"station_id":"ce4bhg12rcd13ifvqf60","pricing_plan_id":"cebpf4jnsgd1na2vs0mg"},{"bike_id":"4220d26d-272d-4b23-9cec-a79c1d919b49","system_id":"levelo_inurba_marseille","lat":43.30589,"lon":5.37088,"is_reserved":false,"is_disabled":false,"rental_uris":{"android":"levelo://app?vid=4220d26d-272d-4b23-9cec-a79c1d919b49","ios":"levelo://app?vid=4220d26d-272d-4b23-9cec-a79c1d919b49"},"vehicle_type_id":"4","last_reported":1743531188,"current_range_meters":11600,"station_id":"","pricing_plan_id":"cebpf4jnsgd1na2vs0mg"},{"bike_id":"e5f7b14c-dbe9-4897-9a1a-a5fcfa36e599","system_id":"levelo_inurba_marseille","lat":43.29266,"lon":5.36852,"is_reserved":false,"is_disabled":false,"rental_uris":{"android":"levelo://app?vid=e5f7b14c-dbe9-4897-9a1a-a5fcfa36e599","ios":"levelo://app?vid=e5f7b14c-dbe9-4897-9a1a-a5fcfa36e599"},"vehicle_type_id":"4","last_reported":1743531188,"current_range_meters":11600,"station_id":"ce4bhbp2rcd13ifvqesg","pricing_plan_id":"cebpf4jnsgd1na2vs0mg"},{"bike_id":"2c7647b7-c1fd-4f08-a8bd-56fd699aec09","system_id":"levelo_inurba_marseille","lat":43.29441,"lon":5.39746,"is_reserved":false,"is_disabled":false,"rental_uris":{"android":"levelo://app?vid=2c7647b7-c1fd-4f08-a8bd-56fd699aec09","ios":"levelo://app?vid=2c7647b7-c1fd-4f08-a8bd-56fd699aec09"},"vehicle_type_id":"4","last_reported":1743531188,"current_range_meters":11600,"station_id":"ce4bh3h2rcd13ifvqdo0","pricing_plan_id":"cebpf4jnsgd1na2vs0mg"},{"bike_id":"0a085ee7-0214-4633-b909-1533b29e2f0d","system_id":"levelo_inurba_marseille","lat":43.28,"lon":5.41667,"is_reserved":false,"is_disabled":false,"rental_uris":{"android":"levelo://app?vid=0a085ee7-0214-4633-b909-1533b29e2f0d","ios":"levelo://app?vid=0a085ee7-0214-4633-b909-1533b29e2f0d"},"vehicle_type_id":"4","last_reported":1743531188,"current_range_meters":11600,"station_id":"ce4bho12rcd13ifvqh1g","pricing_plan_id":"cebpf4jnsgd1na2vs0mg"},{"bike_id":"242d2e44-0b76-4fe7-9090-e4f46663924a","system_id":"levelo_inurba_marseille","lat":43.283538,"lon":5.380993,"is_reserved":false,"is_disabled":false,"rental_uris":{"android":"levelo://app?vid=242d2e44-0b76-4fe7-9090-e4f46663924a","ios":"levelo://app?vid=242d2e44-0b76-4fe7-9090-e4f46663924a"},"vehicle_type_id":"4","last_reported":1743531188,"current_range_meters":12000,"station_id":"ce4bh412rcd13ifvqdr0","pricing_plan_id":"cebpf4jnsgd1na2vs0mg"},{"bike_id":"ea258a6b-576b-4d98-bf65-c4922808ddfb","system_id":"levelo_inurba_marseille","lat":43.28421,"lon":5.34972,"is_reserved":false,"is_disabled":false,"rental_uris":{"android":"levelo://app?vid=ea258a6b-576b-4d98-bf65-c4922808ddfb","ios":"levelo://app?vid=ea258a6b-576b-4d98-bf65-c4922808ddfb"},"vehicle_type_id":"4","last_reported":1743531188,"current_range_meters":12000,"station_id":"ce4bhbh2rcd13ifvqepg","pricing_plan_id":"cebpf4jnsgd1na2vs0mg"},{"bike_id":"2a222764-4f96-439a-9529-169c09ece223","system_id":"levelo_inurba_marseille","lat":43.28437,"lon":5.3919,"is_reserved":false,"is_disabled":false,"rental_uris":{"android":"levelo://app?vid=2a222764-4f96-439a-9529-169c09ece223","ios":"levelo://app?vid=2a222764-4f96-439a-9529-169c09ece223"},"vehicle_type_id":"4","last_reported":1743531188,"current_range_meters":11600,"station_id":"ce4bhoh2rcd13ifvqh5g","pricing_plan_id":"cebpf4jnsgd1na2vs0mg"},{"bike_id":"ce946338-b7f9-474f-889d-10d12f6a9605","system_id":"levelo_inurba_marseille","lat":43.29256,"lon":5.38435,"is_reserved":false,"is_disabled":false,"rental_uris":{"android":"levelo://app?vid=ce946338-b7f9-474f-889d-10d12f6a9605","ios":"levelo://app?vid=ce946338-b7f9-474f-889d-10d12f6a9605"},"vehicle_type_id":"4","last_reported":1743531188,"current_range_meters":12000,"station_id":"ce4bh692rcd13ifvqea0","pricing_plan_id":"cebpf4jnsgd1na2vs0mg"},{"bike_id":"6b8d5371-b5ab-4832-8c8e-12234f9dff78","system_id":"levelo_inurba_marseille","lat":43.31748,"lon":5.3902,"is_reserved":false,"is_disabled":false,"rental_uris":{"android":"levelo://app?vid=6b8d5371-b5ab-4832-8c8e-12234f9dff78","ios":"levelo://app?vid=6b8d5371-b5ab-4832-8c8e-12234f9dff78"},"vehicle_type_id":"4","last_reported":1743531188,"current_range_meters":12000,"station_id":"ce4bhqp2rcd13ifvqhng","pricing_plan_id":"cebpf4jnsgd1na2vs0mg"},{"bike_id":"977dae45-1433-4880-80f1-e8b668bf7338","system_id":"levelo_inurba_marseille","lat":43.27612,"lon":5.36098,"is_reserved":false,"is_disabled":false,"rental_uris":{"android":"levelo://app?vid=977dae45-1433-4880-80f1-e8b668bf7338","ios":"levelo://app?vid=977dae45-1433-4880-80f1-e8b668bf7338"},"vehicle_type_id":"4","last_reported":1743531188,"current_range_meters":12000,"station_id":"ce4bgj92rcd13ifvqbe0","pricing_plan_id":"cebpf4jnsgd1na2vs0mg"},{"bike_id":"a743bf24-76ea-44ff-ad20-8c7df657e752","system_id":"levelo_inurba_marseille","lat":43.29777,"lon":5.3814,"is_reserved":false,"is_disabled":false,"rental_uris":{"android":"levelo://app?vid=a743bf24-76ea-44ff-ad20-8c7df657e752","ios":"levelo://app?vid=a743bf24-76ea-44ff-ad20-8c7df657e752"},"vehicle_type_id":"4","last_reported":1743531188,"current_range_meters":12400,"station_id":"ce4bgip2rcd13ifvqbb0","pricing_plan_id":"cebpf4jnsgd1na2vs0mg"},{"bike_id":"f616f89a-6b5f-47f2-be4a-c1252268f5f4","system_id":"levelo_inurba_marseille","lat":43.29411,"lon":5.38625,"is_reserved":false,"is_disabled":true,"rental_uris":{"android":"levelo://app?vid=f616f89a-6b5f-47f2-be4a-c1252268f5f4","ios":"levelo://app?vid=f616f89a-6b5f-47f2-be4a-c1252268f5f4"},"vehicle_type_id":"4","last_reported":1743531188,"current_range_meters":12400,"station_id":"ce4bh2h2rcd13ifvqdh0","pricing_plan_id":"cebpf4jnsgd1na2vs0mg"},{"bike_id":"9e87d8e6-7d87-4853-81e0-a9b8308d82de","system_id":"levelo_inurba_marseille","lat":43.2842,"lon":5.37511,"is_reserved":false,"is_disabled":false,"rental_uris":{"android":"levelo://app?vid=9e87d8e6-7d87-4853-81e0-a9b8308d82de","ios":"levelo://app?vid=9e87d8e6-7d87-4853-81e0-a9b8308d82de"},"vehicle_type_id":"4","last_reported":1743531188,"current_range_meters":12400,"station_id":"ce4bh412rcd13ifvqds0","pricing_plan_id":"cebpf4jnsgd1na2vs0mg"},{"bike_id":"a87c03f6-1e0b-496a-ba35-8cae889bb9b4","system_id":"levelo_inurba_marseille","lat":43.26808,"lon":5.40251,"is_reserved":false,"is_disabled":false,"rental_uris":{"android":"levelo://app?vid=a87c03f6-1e0b-496a-ba35-8cae889bb9b4","ios":"levelo://app?vid=a87c03f6-1e0b-496a-ba35-8cae889bb9b4"},"vehicle_type_id":"4","last_reported":1743531188,"current_range_meters":12400,"station_id":"ce501612rcd8frsf0b60","pricing_plan_id":"cebpf4jnsgd1na2vs0mg"},{"bike_id":"0955bcb1-f8dc-47f4-a135-54218809acb7","system_id":"levelo_inurba_marseille","lat":43.26563,"lon":5.37279,"is_reserved":false,"is_disabled":true,"rental_uris":{"android":"levelo://app?vid=0955bcb1-f8dc-47f4-a135-54218809acb7","ios":"levelo://app?vid=0955bcb1-f8dc-47f4-a135-54218809acb7"},"vehicle_type_id":"4","last_reported":1743531188,"current_range_meters":12400,"station_id":"ce4bhg12rcd13ifvqf70","pricing_plan_id":"cebpf4jnsgd1na2vs0mg"},{"bike_id":"c5d59ee9-7502-4fae-aa22-15acd54456b1","system_id":"levelo_inurba_marseille","lat":43.31174,"lon":5.38707,"is_reserved":false,"is_disabled":false,"rental_uris":{"android":"levelo://app?vid=c5d59ee9-7502-4fae-aa22-15acd54456b1","ios":"levelo://app?vid=c5d59ee9-7502-4fae-aa22-15acd54456b1"},"vehicle_type_id":"4","last_reported":1743531188,"current_range_meters":12400,"station_id":"ce4bgv12rcd13ifvqcp0","pricing_plan_id":"cebpf4jnsgd1na2vs0mg"},{"bike_id":"6e6a66e5-58ca-4db1-9695-b46ed5c28827","system_id":"levelo_inurba_marseille","lat":43.31807,"lon":5.36844,"is_reserved":false,"is_disabled":false,"rental_uris":{"android":"levelo://app?vid=6e6a66e5-58ca-4db1-9695-b46ed5c28827","ios":"levelo://app?vid=6e6a66e5-58ca-4db1-9695-b46ed5c28827"},"vehicle_type_id":"4","last_reported":1743531188,"current_range_meters":12400,"station_id":"","pricing_plan_id":"cebpf4jnsgd1na2vs0mg"},{"bike_id":"e055ff70-1e02-469e-8b20-efb9a9753d96","system_id":"levelo_inurba_marseille","lat":43.28469,"lon":5.35887,"is_reserved":false,"is_disabled":false,"rental_uris":{"android":"levelo://app?vid=e055ff70-1e02-469e-8b20-efb9a9753d96","ios":"levelo://app?vid=e055ff70-1e02-469e-8b20-efb9a9753d96"},"vehicle_type_id":"4","last_reported":1743531188,"current_range_meters":12400,"station_id":"ce4bhah2rcd13ifvqei0","pricing_plan_id":"cebpf4jnsgd1na2vs0mg"},{"bike_id":"b259b07c-5fe0-449b-b855-7c49dafe9a38","system_id":"levelo_inurba_marseille","lat":43.28836,"lon":5.39317,"is_reserved":false,"is_disabled":false,"rental_uris":{"android":"levelo://app?vid=b259b07c-5fe0-449b-b855-7c49dafe9a38","ios":"levelo://app?vid=b259b07c-5fe0-449b-b855-7c49dafe9a38"},"vehicle_type_id":"4","last_reported":1743531188,"current_range_meters":12400,"station_id":"ce4bh2p2rcd13ifvqdi0","pricing_plan_id":"cebpf4jnsgd1na2vs0mg"},{"bike_id":"3230e19e-78f2-4e1b-9043-cdf173a0a585","system_id":"levelo_inurba_marseille","lat":43.28705,"lon":5.37425,"is_reserved":false,"is_disabled":false,"rental_uris":{"android":"levelo://app?vid=3230e19e-78f2-4e1b-9043-cdf173a0a585","ios":"levelo://app?vid=3230e19e-78f2-4e1b-9043-cdf173a0a585"},"vehicle_type_id":"4","last_reported":1743531188,"current_range_meters":12400,"station_id":"ce4bh3p2rcd13ifvqdq0","pricing_plan_id":"cebpf4jnsgd1na2vs0mg"},{"bike_id":"7089a631-8b55-4bae-8225-d55053097321","system_id":"levelo_inurba_marseille","lat":43.2657,"lon":5.39029,"is_reserved":false,"is_disabled":false,"rental_uris":{"android":"levelo://app?vid=7089a631-8b55-4bae-8225-d55053097321","ios":"levelo://app?vid=7089a631-8b55-4bae-8225-d55053097321"},"vehicle_type_id":"4","last_reported":1743531188,"current_range_meters":12400,"station_id":"ce4bhe12rcd13ifvqf30","pricing_plan_id":"cebpf4jnsgd1na2vs0mg"},{"bike_id":"673cd2fb-9a5c-412d-a385-2a1c87de78c8","system_id":"levelo_inurba_marseille","lat":43.28605,"lon":5.37053,"is_reserved":false,"is_disabled":false,"rental_uris":{"android":"levelo://app?vid=673cd2fb-9a5c-412d-a385-2a1c87de78c8","ios":"levelo://app?vid=673cd2fb-9a5c-412d-a385-2a1c87de78c8"},"vehicle_type_id":"4","last_reported":1743531188,"current_range_meters":12400,"station_id":"ce4bht12rcd13ifvqi60","pricing_plan_id":"cebpf4jnsgd1na2vs0mg"},{"bike_id":"ed526477-4028-40b7-b011-496aa0cc2b7e","system_id":"levelo_inurba_marseille","lat":43.29014,"lon":5.38593,"is_reserved":false,"is_disabled":false,"rental_uris":{"android":"levelo://app?vid=ed526477-4028-40b7-b011-496aa0cc2b7e","ios":"levelo://app?vid=ed526477-4028-40b7-b011-496aa0cc2b7e"},"vehicle_type_id":"4","last_reported":1743531188,"current_range_meters":12800,"station_id":"ce4bh4p2rcd13ifvqe0g","pricing_plan_id":"cebpf4jnsgd1na2vs0mg"},{"bike_id":"3e87608f-cfd8-4cf0-8205-afba4fb3f83b","system_id":"levelo_inurba_marseille","lat":43.24073,"lon":5.3776,"is_reserved":false,"is_disabled":false,"rental_uris":{"android":"levelo://app?vid=3e87608f-cfd8-4cf0-8205-afba4fb3f83b","ios":"levelo://app?vid=3e87608f-cfd8-4cf0-8205-afba4fb3f83b"},"vehicle_type_id":"4","last_reported":1743531188,"current_range_meters":12800,"station_id":"ce4bhnp2rcd13ifvqgvg","pricing_plan_id":"cebpf4jnsgd1na2vs0mg"},{"bike_id":"b813a5ff-a412-46f4-95d7-045e23471ae6","system_id":"levelo_inurba_marseille","lat":43.24076,"lon":5.3776,"is_reserved":false,"is_disabled":false,"rental_uris":{"android":"levelo://app?vid=b813a5ff-a412-46f4-95d7-045e23471ae6","ios":"levelo://app?vid=b813a5ff-a412-46f4-95d7-045e23471ae6"},"vehicle_type_id":"4","last_reported":1743531188,"current_range_meters":12400,"station_id":"ce4bhnp2rcd13ifvqgvg","pricing_plan_id":"cebpf4jnsgd1na2vs0mg"},{"bike_id":"a957056b-6414-46ef-98d9-e2184e12901a","system_id":"levelo_inurba_marseille","lat":43.26206,"lon":5.37929,"is_reserved":false,"is_disabled":false,"rental_uris":{"android":"levelo://app?vid=a957056b-6414-46ef-98d9-e2184e12901a","ios":"levelo://app?vid=a957056b-6414-46ef-98d9-e2184e12901a"},"vehicle_type_id":"4","last_reported":1743531188,"current_range_meters":12800,"station_id":"ce4bhjp2rcd13ifvqg90","pricing_plan_id":"cebpf4jnsgd1na2vs0mg"},{"bike_id":"1dea0b9f-75e2-461c-a27c-b1bb906e2977","system_id":"levelo_inurba_marseille","lat":43.31716,"lon":5.43709,"is_reserved":false,"is_disabled":false,"rental_uris":{"android":"levelo://app?vid=1dea0b9f-75e2-461c-a27c-b1bb906e2977","ios":"levelo://app?vid=1dea0b9f-75e2-461c-a27c-b1bb906e2977"},"vehicle_type_id":"4","last_reported":1743531188,"current_range_meters":12800,"station_id":"ce4bhp92rcd13ifvqhcg","pricing_plan_id":"cebpf4jnsgd1na2vs0mg"},{"bike_id":"8b6d5071-7177-4272-8ae1-92127127365e","system_id":"levelo_inurba_marseille","lat":43.270567,"lon":5.423141,"is_reserved":false,"is_disabled":true,"rental_uris":{"android":"levelo://app?vid=8b6d5071-7177-4272-8ae1-92127127365e","ios":"levelo://app?vid=8b6d5071-7177-4272-8ae1-92127127365e"},"vehicle_type_id":"4","last_reported":1743531188,"current_range_meters":12800,"station_id":"ce4bhk92rcd13ifvqgb0","pricing_plan_id":"cebpf4jnsgd1na2vs0mg"},{"bike_id":"17011927-5eb5-4a38-a132-35a6858ea1fb","system_id":"levelo_inurba_marseille","lat":43.30308,"lon":5.3922,"is_reserved":false,"is_disabled":true,"rental_uris":{"android":"levelo://app?vid=17011927-5eb5-4a38-a132-35a6858ea1fb","ios":"levelo://app?vid=17011927-5eb5-4a38-a132-35a6858ea1fb"},"vehicle_type_id":"4","last_reported":1743531188,"current_range_meters":12800,"station_id":"ce4bgkh2rcd13ifvqbk0","pricing_plan_id":"cebpf4jnsgd1na2vs0mg"},{"bike_id":"0f3acb50-532e-4afe-8e37-7d407ec10fe1","system_id":"levelo_inurba_marseille","lat":43.3025,"lon":5.40077,"is_reserved":false,"is_disabled":false,"rental_uris":{"android":"levelo://app?vid=0f3acb50-532e-4afe-8e37-7d407ec10fe1","ios":"levelo://app?vid=0f3acb50-532e-4afe-8e37-7d407ec10fe1"},"vehicle_type_id":"4","last_reported":1743531188,"current_range_meters":12800,"station_id":"ce4bgvh2rcd13ifvqcs0","pricing_plan_id":"cebpf4jnsgd1na2vs0mg"},{"bike_id":"7dc3df4d-cb47-4442-be23-664b36e4ea81","system_id":"levelo_inurba_marseille","lat":43.28955,"lon":5.36627,"is_reserved":false,"is_disabled":false,"rental_uris":{"android":"levelo://app?vid=7dc3df4d-cb47-4442-be23-664b36e4ea81","ios":"levelo://app?vid=7dc3df4d-cb47-4442-be23-664b36e4ea81"},"vehicle_type_id":"4","last_reported":1743531188,"current_range_meters":13600,"station_id":"ce4bhap2rcd13ifvqek0","pricing_plan_id":"cebpf4jnsgd1na2vs0mg"},{"bike_id":"1b672112-1a49-4518-8828-abbf42b6ebac","system_id":"levelo_inurba_marseille","lat":43.28853,"lon":5.3586,"is_reserved":false,"is_disabled":false,"rental_uris":{"android":"levelo://app?vid=1b672112-1a49-4518-8828-abbf42b6ebac","ios":"levelo://app?vid=1b672112-1a49-4518-8828-abbf42b6ebac"},"vehicle_type_id":"4","last_reported":1743531188,"current_range_meters":13600,"station_id":"ce4bhb12rcd13ifvqem0","pricing_plan_id":"cebpf4jnsgd1na2vs0mg"},{"bike_id":"d239b0b5-a2d0-4e84-945d-fd7291dce43c","system_id":"levelo_inurba_marseille","lat":43.28703,"lon":5.37397,"is_reserved":false,"is_disabled":false,"rental_uris":{"android":"levelo://app?vid=d239b0b5-a2d0-4e84-945d-fd7291dce43c","ios":"levelo://app?vid=d239b0b5-a2d0-4e84-945d-fd7291dce43c"},"vehicle_type_id":"4","last_reported":1743531188,"current_range_meters":13600,"station_id":"ce4bh3p2rcd13ifvqdq0","pricing_plan_id":"cebpf4jnsgd1na2vs0mg"},{"bike_id":"9fc9ee36-20c3-45bb-b205-3eaf53f8b651","system_id":"levelo_inurba_marseille","lat":43.29018,"lon":5.35601,"is_reserved":false,"is_disabled":false,"rental_uris":{"android":"levelo://app?vid=9fc9ee36-20c3-45bb-b205-3eaf53f8b651","ios":"levelo://app?vid=9fc9ee36-20c3-45bb-b205-3eaf53f8b651"},"vehicle_type_id":"4","last_reported":1743531188,"current_range_meters":13600,"station_id":"ce4bhb92rcd13ifvqen0","pricing_plan_id":"cebpf4jnsgd1na2vs0mg"},{"bike_id":"7e134ece-0816-409c-95a5-e5f8f86448c6","system_id":"levelo_inurba_marseille","lat":43.28108,"lon":5.37837,"is_reserved":false,"is_disabled":false,"rental_uris":{"android":"levelo://app?vid=7e134ece-0816-409c-95a5-e5f8f86448c6","ios":"levelo://app?vid=7e134ece-0816-409c-95a5-e5f8f86448c6"},"vehicle_type_id":"4","last_reported":1743531188,"current_range_meters":13600,"station_id":"ce4bha12rcd13ifvqee0","pricing_plan_id":"cebpf4jnsgd1na2vs0mg"},{"bike_id":"aad57957-2103-4021-8785-09759b9cdb01","system_id":"levelo_inurba_marseille","lat":43.30586,"lon":5.39351,"is_reserved":false,"is_disabled":false,"rental_uris":{"android":"levelo://app?vid=aad57957-2103-4021-8785-09759b9cdb01","ios":"levelo://app?vid=aad57957-2103-4021-8785-09759b9cdb01"},"vehicle_type_id":"4","last_reported":1743531188,"current_range_meters":13600,"station_id":"ce4bh0p2rcd13ifvqd80","pricing_plan_id":"cebpf4jnsgd1na2vs0mg"},{"bike_id":"4dea5646-32a2-4b7c-963e-9c420add6254","system_id":"levelo_inurba_marseille","lat":43.22933,"lon":5.35377,"is_reserved":false,"is_disabled":false,"rental_uris":{"android":"levelo://app?vid=4dea5646-32a2-4b7c-963e-9c420add6254","ios":"levelo://app?vid=4dea5646-32a2-4b7c-963e-9c420add6254"},"vehicle_type_id":"4","last_reported":1743531188,"current_range_meters":13600,"station_id":"cpo3532slgdg3j2ikp40","pricing_plan_id":"cebpf4jnsgd1na2vs0mg"},{"bike_id":"91e96c9d-625e-4680-8b76-921e4bac817c","system_id":"levelo_inurba_marseille","lat":43.30216,"lon":5.39457,"is_reserved":false,"is_disabled":false,"rental_uris":{"android":"levelo://app?vid=91e96c9d-625e-4680-8b76-921e4bac817c","ios":"levelo://app?vid=91e96c9d-625e-4680-8b76-921e4bac817c"},"vehicle_type_id":"4","last_reported":1743531188,"current_range_meters":13600,"station_id":"ce4bh0p2rcd13ifvqd70","pricing_plan_id":"cebpf4jnsgd1na2vs0mg"},{"bike_id":"9fbd420b-6ea9-4b7f-900a-35df51907f64","system_id":"levelo_inurba_marseille","lat":43.29897,"lon":5.43709,"is_reserved":false,"is_disabled":false,"rental_uris":{"android":"levelo://app?vid=9fbd420b-6ea9-4b7f-900a-35df51907f64","ios":"levelo://app?vid=9fbd420b-6ea9-4b7f-900a-35df51907f64"},"vehicle_type_id":"4","last_reported":1743531188,"current_range_meters":14000,"station_id":"","pricing_plan_id":"cebpf4jnsgd1na2vs0mg"},{"bike_id":"b80ee275-2592-4659-b2e9-175feb839700","system_id":"levelo_inurba_marseille","lat":43.23198,"lon":5.35543,"is_reserved":false,"is_disabled":false,"rental_uris":{"android":"levelo://app?vid=b80ee275-2592-4659-b2e9-175feb839700","ios":"levelo://app?vid=b80ee275-2592-4659-b2e9-175feb839700"},"vehicle_type_id":"4","last_reported":1743531188,"current_range_meters":14000,"station_id":"ce4bhu92rcd13ifvqi70","pricing_plan_id":"cebpf4jnsgd1na2vs0mg"},{"bike_id":"062f662a-fdc3-4404-96a7-532a807a62a2","system_id":"levelo_inurba_marseille","lat":43.28712,"lon":5.37963,"is_reserved":false,"is_disabled":true,"rental_uris":{"android":"levelo://app?vid=062f662a-fdc3-4404-96a7-532a807a62a2","ios":"levelo://app?vid=062f662a-fdc3-4404-96a7-532a807a62a2"},"vehicle_type_id":"4","last_reported":1743531188,"current_range_meters":14000,"station_id":"ce4bh9p2rcd13ifvqec0","pricing_plan_id":"cebpf4jnsgd1na2vs0mg"},{"bike_id":"885102b0-e5d4-447d-8cf8-99c576e083ea","system_id":"levelo_inurba_marseille","lat":43.29005,"lon":5.3562,"is_reserved":false,"is_disabled":false,"rental_uris":{"android":"levelo://app?vid=885102b0-e5d4-447d-8cf8-99c576e083ea","ios":"levelo://app?vid=885102b0-e5d4-447d-8cf8-99c576e083ea"},"vehicle_type_id":"4","last_reported":1743531188,"current_range_meters":14000,"station_id":"ce4bhb92rcd13ifvqen0","pricing_plan_id":"cebpf4jnsgd1na2vs0mg"},{"bike_id":"c1550410-dc28-49b7-aee9-9f6ea530dcf6","system_id":"levelo_inurba_marseille","lat":43.30089,"lon":5.39077,"is_reserved":false,"is_disabled":false,"rental_uris":{"android":"levelo://app?vid=c1550410-dc28-49b7-aee9-9f6ea530dcf6","ios":"levelo://app?vid=c1550410-dc28-49b7-aee9-9f6ea530dcf6"},"vehicle_type_id":"4","last_reported":1743531188,"current_range_meters":14000,"station_id":"ce4bh192rcd13ifvqdb0","pricing_plan_id":"cebpf4jnsgd1na2vs0mg"},{"bike_id":"dd3db03f-0f43-4986-9ec8-2a76818fb28c","system_id":"levelo_inurba_marseille","lat":43.232,"lon":5.355476,"is_reserved":false,"is_disabled":false,"rental_uris":{"android":"levelo://app?vid=dd3db03f-0f43-4986-9ec8-2a76818fb28c","ios":"levelo://app?vid=dd3db03f-0f43-4986-9ec8-2a76818fb28c"},"vehicle_type_id":"4","last_reported":1743531188,"current_range_meters":14000,"station_id":"ce4bhu92rcd13ifvqi70","pricing_plan_id":"cebpf4jnsgd1na2vs0mg"},{"bike_id":"fd6c1ca7-b248-4c28-9bd4-41c9da81119e","system_id":"levelo_inurba_marseille","lat":43.27832,"lon":5.39213,"is_reserved":false,"is_disabled":false,"rental_uris":{"android":"levelo://app?vid=fd6c1ca7-b248-4c28-9bd4-41c9da81119e","ios":"levelo://app?vid=fd6c1ca7-b248-4c28-9bd4-41c9da81119e"},"vehicle_type_id":"4","last_reported":1743531188,"current_range_meters":14000,"station_id":"ce4bhjp2rcd13ifvqga0","pricing_plan_id":"cebpf4jnsgd1na2vs0mg"},{"bike_id":"8c8c904f-4688-4edc-8d5e-ac5ec4c04aa2","system_id":"levelo_inurba_marseille","lat":43.26064,"lon":5.39392,"is_reserved":false,"is_disabled":true,"rental_uris":{"android":"levelo://app?vid=8c8c904f-4688-4edc-8d5e-ac5ec4c04aa2","ios":"levelo://app?vid=8c8c904f-4688-4edc-8d5e-ac5ec4c04aa2"},"vehicle_type_id":"4","last_reported":1743531188,"current_range_meters":14400,"station_id":"ce4bhh92rcd13ifvqfj0","pricing_plan_id":"cebpf4jnsgd1na2vs0mg"},{"bike_id":"fd006dad-fa92-4d4e-b339-360c4396524f","system_id":"levelo_inurba_marseille","lat":43.29517,"lon":5.39044,"is_reserved":false,"is_disabled":false,"rental_uris":{"android":"levelo://app?vid=fd006dad-fa92-4d4e-b339-360c4396524f","ios":"levelo://app?vid=fd006dad-fa92-4d4e-b339-360c4396524f"},"vehicle_type_id":"4","last_reported":1743531188,"current_range_meters":14400,"station_id":"ce4bh3p2rcd13ifvqdp0","pricing_plan_id":"cebpf4jnsgd1na2vs0mg"},{"bike_id":"99fff9af-6559-45a3-bdd3-d4297efd66ed","system_id":"levelo_inurba_marseille","lat":43.248869,"lon":5.374905,"is_reserved":false,"is_disabled":false,"rental_uris":{"android":"levelo://app?vid=99fff9af-6559-45a3-bdd3-d4297efd66ed","ios":"levelo://app?vid=99fff9af-6559-45a3-bdd3-d4297efd66ed"},"vehicle_type_id":"4","last_reported":1743531188,"current_range_meters":14400,"station_id":"ce4bh3p2rcd13ifvqdp0","pricing_plan_id":"cebpf4jnsgd1na2vs0mg"},{"bike_id":"fe4ba3d4-d760-4cd7-ad92-92c2c7751376","system_id":"levelo_inurba_marseille","lat":43.29267,"lon":5.38438,"is_reserved":false,"is_disabled":false,"rental_uris":{"android":"levelo://app?vid=fe4ba3d4-d760-4cd7-ad92-92c2c7751376","ios":"levelo://app?vid=fe4ba3d4-d760-4cd7-ad92-92c2c7751376"},"vehicle_type_id":"4","last_reported":1743531188,"current_range_meters":14400,"station_id":"ce4bh692rcd13ifvqea0","pricing_plan_id":"cebpf4jnsgd1na2vs0mg"},{"bike_id":"f589c491-61bb-4ca1-aa3e-7e3bb3446950","system_id":"levelo_inurba_marseille","lat":43.23192,"lon":5.35555,"is_reserved":false,"is_disabled":false,"rental_uris":{"android":"levelo://app?vid=f589c491-61bb-4ca1-aa3e-7e3bb3446950","ios":"levelo://app?vid=f589c491-61bb-4ca1-aa3e-7e3bb3446950"},"vehicle_type_id":"4","last_reported":1743531188,"current_range_meters":14400,"station_id":"ce4bhu92rcd13ifvqi70","pricing_plan_id":"cebpf4jnsgd1na2vs0mg"},{"bike_id":"f55695a6-b65f-4a30-99ab-94b2bfa63268","system_id":"levelo_inurba_marseille","lat":43.23194,"lon":5.35541,"is_reserved":false,"is_disabled":false,"rental_uris":{"android":"levelo://app?vid=f55695a6-b65f-4a30-99ab-94b2bfa63268","ios":"levelo://app?vid=f55695a6-b65f-4a30-99ab-94b2bfa63268"},"vehicle_type_id":"4","last_reported":1743531188,"current_range_meters":14400,"station_id":"ce4bhu92rcd13ifvqi70","pricing_plan_id":"cebpf4jnsgd1na2vs0mg"},{"bike_id":"af6ac191-65b5-478f-9cfa-a68f562dbe73","system_id":"levelo_inurba_marseille","lat":43.29039,"lon":5.37565,"is_reserved":false,"is_disabled":false,"rental_uris":{"android":"levelo://app?vid=af6ac191-65b5-478f-9cfa-a68f562dbe73","ios":"levelo://app?vid=af6ac191-65b5-478f-9cfa-a68f562dbe73"},"vehicle_type_id":"4","last_reported":1743531188,"current_range_meters":14400,"station_id":"ce4bh692rcd13ifvqe90","pricing_plan_id":"cebpf4jnsgd1na2vs0mg"},{"bike_id":"de2b98dc-a4f7-4340-82ac-17c7abc7daaa","system_id":"levelo_inurba_marseille","lat":43.24649,"lon":5.38895,"is_reserved":false,"is_disabled":false,"rental_uris":{"android":"levelo://app?vid=de2b98dc-a4f7-4340-82ac-17c7abc7daaa","ios":"levelo://app?vid=de2b98dc-a4f7-4340-82ac-17c7abc7daaa"},"vehicle_type_id":"4","last_reported":1743531188,"current_range_meters":14400,"station_id":"ce4bhg12rcd13ifvqf60","pricing_plan_id":"cebpf4jnsgd1na2vs0mg"},{"bike_id":"225b9d8b-946d-4230-a446-96d836d24054","system_id":"levelo_inurba_marseille","lat":43.27558,"lon":5.38431,"is_reserved":false,"is_disabled":false,"rental_uris":{"android":"levelo://app?vid=225b9d8b-946d-4230-a446-96d836d24054","ios":"levelo://app?vid=225b9d8b-946d-4230-a446-96d836d24054"},"vehicle_type_id":"4","last_reported":1743531188,"current_range_meters":14400,"station_id":"ce4bhh92rcd13ifvqfi0","pricing_plan_id":"cebpf4jnsgd1na2vs0mg"},{"bike_id":"0ed80ee8-56b7-4580-8a94-56be39e58fa3","system_id":"levelo_inurba_marseille","lat":43.25576,"lon":5.38235,"is_reserved":false,"is_disabled":false,"rental_uris":{"android":"levelo://app?vid=0ed80ee8-56b7-4580-8a94-56be39e58fa3","ios":"levelo://app?vid=0ed80ee8-56b7-4580-8a94-56be39e58fa3"},"vehicle_type_id":"4","last_reported":1743531188,"current_range_meters":14400,"station_id":"ce4bhih2rcd13ifvqfs0","pricing_plan_id":"cebpf4jnsgd1na2vs0mg"},{"bike_id":"03fe0962-c4e5-4daa-85de-048a5f65841a","system_id":"levelo_inurba_marseille","lat":43.28424,"lon":5.35016,"is_reserved":false,"is_disabled":false,"rental_uris":{"android":"levelo://app?vid=03fe0962-c4e5-4daa-85de-048a5f65841a","ios":"levelo://app?vid=03fe0962-c4e5-4daa-85de-048a5f65841a"},"vehicle_type_id":"4","last_reported":1743531188,"current_range_meters":14400,"station_id":"ce4bhbh2rcd13ifvqepg","pricing_plan_id":"cebpf4jnsgd1na2vs0mg"},{"bike_id":"a6c4a627-43ff-4173-b93e-6ccb4c0ca01a","system_id":"levelo_inurba_marseille","lat":43.29406,"lon":5.38647,"is_reserved":false,"is_disabled":false,"rental_uris":{"android":"levelo://app?vid=a6c4a627-43ff-4173-b93e-6ccb4c0ca01a","ios":"levelo://app?vid=a6c4a627-43ff-4173-b93e-6ccb4c0ca01a"},"vehicle_type_id":"4","last_reported":1743531188,"current_range_meters":14800,"station_id":"ce4bh2h2rcd13ifvqdh0","pricing_plan_id":"cebpf4jnsgd1na2vs0mg"},{"bike_id":"ffd44412-9d08-4aeb-bfbf-cfb94a14c466","system_id":"levelo_inurba_marseille","lat":43.29886,"lon":5.38898,"is_reserved":false,"is_disabled":false,"rental_uris":{"android":"levelo://app?vid=ffd44412-9d08-4aeb-bfbf-cfb94a14c466","ios":"levelo://app?vid=ffd44412-9d08-4aeb-bfbf-cfb94a14c466"},"vehicle_type_id":"4","last_reported":1743531188,"current_range_meters":14800,"station_id":"ce4bh392rcd13ifvqdl0","pricing_plan_id":"cebpf4jnsgd1na2vs0mg"},{"bike_id":"4208cd7d-1336-48ea-9179-b4665749afde","system_id":"levelo_inurba_marseille","lat":43.27941,"lon":5.41044,"is_reserved":false,"is_disabled":false,"rental_uris":{"android":"levelo://app?vid=4208cd7d-1336-48ea-9179-b4665749afde","ios":"levelo://app?vid=4208cd7d-1336-48ea-9179-b4665749afde"},