{"last_updated":1729660162,"ttl":60,"version":"2.2","data":{"bikes":[{"bike_id":"27cc9b75-cb7e-4967-8b8f-0b45c1553f40","system_id":"levelo_inurba_marseille","lat":43.265,"lon":5.3955,"is_reserved":false,"is_disabled":false,"rental_uris":{"android":"levelo://app?vid=27cc9b75-cb7e-4967-8b8f-0b45c1553f40","ios":"levelo://app?vid=27cc9b75-cb7e-4967-8b8f-0b45c1553f40"},"vehicle_type_id":"4","last_reported":1729660163,"current_range_meters":38000,"station_id":"ce4bhi12rcd13ifvqfq0","pricing_plan_id":"cebpf4jnsgd1na2vs0mg"},{"bike_id":"94505a83-b206-4db0-aff0-8f5678e8c521","system_id":"levelo_inurba_marseille","lat":43.24078,"lon":5.37752,"is_reserved":false,"is_disabled":false,"rental_uris":{"android":"levelo://app?vid=94505a83-b206-4db0-aff0-8f5678e8c521","ios":"levelo://app?vid=94505a83-b206-4db0-aff0-8f5678e8c521"},"vehicle_type_id":"4","last_reported":1729660163,"current_range_meters":18800,"station_id":"ce4bhnp2rcd13ifvqgvg","pricing_plan_id":"cebpf4jnsgd1na2vs0mg"},{"bike_id":"6420ee85-b27f-4804-8f73-80843b3902e1","system_id":"levelo_inurba_marseille","lat":43.30547,"lon":5.38422,"is_reserved":false,"is_disabled":false,"rental_uris":{"android":"levelo://app?vid=6420ee85-b27f-4804-8f73-80843b3902e1","ios":"levelo://app?vid=6420ee85-b27f-4804-8f73-80843b3902e1"},"vehicle_type_id":"4","last_reported":1729660163,"current_range_meters":38400,"station_id":"ce4bgg92rcd13ifvqb30","pricing_plan_id":"cebpf4jnsgd1na2vs0mg"},{"bike_id":"5994a573-9be3-44fa-b34b-852648ccf703","system_id":"levelo_inurba_marseille","lat":43.30938,"lon":5.40142,"is_reserved":false,"is_disabled":false,"rental_uris":{"android":"levelo://app?vid=5994a573-9be3-44fa-b34b-852648ccf703","ios":"levelo://app?vid=5994a573-9be3-44fa-b34b-852648ccf703"},"vehicle_type_id":"4","last_reported":1729660163,"current_range_meters":36000,"station_id":"ce4bgvp2rcd13ifvqct0","pricing_plan_id":"cebpf4jnsgd1na2vs0mg"},{"bike_id":"1e912b40-cf78-4faf-8d8c-8c2a5afe1993","system_id":"levelo_inurba_marseille","lat":43.27072,"lon":5.4025,"is_reserved":false,"is_disabled":false,"rental_uris":{"android":"levelo://app?vid=1e912b40-cf78-4faf-8d8c-8c2a5afe1993","ios":"levelo://app?vid=1e912b40-cf78-4faf-8d8c-8c2a5afe1993"},"vehicle_type_id":"4","last_reported":1729660163,"current_range_meters":38800,"station_id":"ce4bhk92rcd13ifvqgc0","pricing_plan_id":"cebpf4jnsgd1na2vs0mg"},{"bike_id":"50f1ec05-4d59-4332-8aca-ecfd573a5bf5","system_id":"levelo_inurba_marseille","lat":43.27072,"lon":5.42278,"is_reserved":false,"is_disabled":false,"rental_uris":{"android":"levelo://app?vid=50f1ec05-4d59-4332-8aca-ecfd573a5bf5","ios":"levelo://app?vid=50f1ec05-4d59-4332-8aca-ecfd573a5bf5"},"vehicle_type_id":"4","last_reported":1729660163,"current_range_meters":38800,"station_id":"ce4bhk92rcd13ifvqgb0","pricing_plan_id":"cebpf4jnsgd1na2vs0mg"},{"bike_id":"e929bbf0-b67f-4d49-bb99-c9e174c9b8b0","system_id":"levelo_inurba_marseille","lat":43.305389,"lon":5.384247,"is_reserved":false,"is_disabled":false,"rental_uris":{"android":"levelo://app?vid=e929bbf0-b67f-4d49-bb99-c9e174c9b8b0","ios":"levelo://app?vid=e929bbf0-b67f-4d49-bb99-c9e174c9b8b0"},"vehicle_type_id":"4","last_reported":1729660163,"current_range_meters":38000,"station_id":"ce4bgs12rcd13ifvqcag","pricing_plan_id":"cebpf4jnsgd1na2vs0mg"},{"bike_id":"da2545c0-1aa1-4252-83b4-6c3657ee2a36","system_id":"levelo_inurba_marseille","lat":43.2956,"lon":5.42287,"is_reserved":false,"is_disabled":false,"rental_uris":{"android":"levelo://app?vid=da2545c0-1aa1-4252-83b4-6c3657ee2a36","ios":"levelo://app?vid=da2545c0-1aa1-4252-83b4-6c3657ee2a36"},"vehicle_type_id":"4","last_reported":1729660163,"current_range_meters":28800,"station_id":"ce4bhph2rcd13ifvqhdg","pricing_plan_id":"cebpf4jnsgd1na2vs0mg"},{"bike_id":"b149ce4e-51e1-44d1-a677-e09dc3311ba7","system_id":"levelo_inurba_marseille","lat":43.24389,"lon":5.37052,"is_reserved":false,"is_disabled":false,"rental_uris":{"android":"levelo://app?vid=b149ce4e-51e1-44d1-a677-e09dc3311ba7","ios":"levelo://app?vid=b149ce4e-51e1-44d1-a677-e09dc3311ba7"},"vehicle_type_id":"4","last_reported":1729660163,"current_range_meters":38800,"station_id":"ce4bhhh2rcd13ifvqfk0","pricing_plan_id":"cebpf4jnsgd1na2vs0mg"},{"bike_id":"b4cc9679-1889-4d52-9d59-6fc564d9e1c9","system_id":"levelo_inurba_marseille","lat":43.24386,"lon":5.37059,"is_reserved":false,"is_disabled":false,"rental_uris":{"android":"levelo://app?vid=b4cc9679-1889-4d52-9d59-6fc564d9e1c9","ios":"levelo://app?vid=b4cc9679-1889-4d52-9d59-6fc564d9e1c9"},"vehicle_type_id":"4","last_reported":1729660163,"current_range_meters":29600,"station_id":"ce4bhhh2rcd13ifvqfk0","pricing_plan_id":"cebpf4jnsgd1na2vs0mg"},{"bike_id":"a581c9ee-de6c-4ca2-adce-d873a10f1b7c","system_id":"levelo_inurba_marseille","lat":43.24079,"lon":5.37747,"is_reserved":false,"is_disabled":false,"rental_uris":{"android":"levelo://app?vid=a581c9ee-de6c-4ca2-adce-d873a10f1b7c","ios":"levelo://app?vid=a581c9ee-de6c-4ca2-adce-d873a10f1b7c"},"vehicle_type_id":"4","last_reported":1729660163,"current_range_meters":12400,"station_id":"ce4bhnp2rcd13ifvqgvg","pricing_plan_id":"cebpf4jnsgd1na2vs0mg"},{"bike_id":"33b2053d-bd1d-49f6-9dc6-9a0d8a900c29","system_id":"levelo_inurba_marseille","lat":43.24081,"lon":5.37756,"is_reserved":false,"is_disabled":false,"rental_uris":{"android":"levelo://app?vid=33b2053d-bd1d-49f6-9dc6-9a0d8a900c29","ios":"levelo://app?vid=33b2053d-bd1d-49f6-9dc6-9a0d8a900c29"},"vehicle_type_id":"4","last_reported":1729660163,"current_range_meters":33600,"station_id":"ce4bhnp2rcd13ifvqgvg","pricing_plan_id":"cebpf4jnsgd1na2vs0mg"},{"bike_id":"e260026a-7158-4d78-8dca-cf1b5cf94aca","system_id":"levelo_inurba_marseille","lat":43.2848,"lon":5.38557,"is_reserved":false,"is_disabled":false,"rental_uris":{"android":"levelo://app?vid=e260026a-7158-4d78-8dca-cf1b5cf94aca","ios":"levelo://app?vid=e260026a-7158-4d78-8dca-cf1b5cf94aca"},"vehicle_type_id":"4","last_reported":1729660163,"current_range_meters":12000,"station_id":"ce4bh8p2rcd13ifvqeb0","pricing_plan_id":"cebpf4jnsgd1na2vs0mg"},{"bike_id":"f959c94a-3644-4ed9-b7ed-65e914e837b3","system_id":"levelo_inurba_marseille","lat":43.31338,"lon":5.39688,"is_reserved":false,"is_disabled":false,"rental_uris":{"android":"levelo://app?vid=f959c94a-3644-4ed9-b7ed-65e914e837b3","ios":"levelo://app?vid=f959c94a-3644-4ed9-b7ed-65e914e837b3"},"vehicle_type_id":"4","last_reported":1729660163,"current_range_meters":38800,"station_id":"ce4bgvp2rcd13ifvqcu0","pricing_plan_id":"cebpf4jnsgd1na2vs0mg"},{"bike_id":"1b58aaed-af59-49fd-9748-07e3d716606a","system_id":"levelo_inurba_marseille","lat":43.30621,"lon":5.37236,"is_reserved":false,"is_disabled":false,"rental_uris":{"android":"levelo://app?vid=1b58aaed-af59-49fd-9748-07e3d716606a","ios":"levelo://app?vid=1b58aaed-af59-49fd-9748-07e3d716606a"},"vehicle_type_id":"4","last_reported":1729660163,"current_range_meters":38800,"station_id":"ce4bgqh2rcd13ifvqc4g","pricing_plan_id":"cebpf4jnsgd1na2vs0mg"},{"bike_id":"6429c5ab-58df-44e3-81a8-3cef3c5f2436","system_id":"levelo_inurba_marseille","lat":43.31709,"lon":5.37748,"is_reserved":false,"is_disabled":false,"rental_uris":{"android":"levelo://app?vid=6429c5ab-58df-44e3-81a8-3cef3c5f2436","ios":"levelo://app?vid=6429c5ab-58df-44e3-81a8-3cef3c5f2436"},"vehicle_type_id":"4","last_reported":1729660163,"current_range_meters":38800,"station_id":"ce4bgth2rcd13ifvqch0","pricing_plan_id":"cebpf4jnsgd1na2vs0mg"},{"bike_id":"328140ce-d7f5-4c8b-8ba9-92595f400267","system_id":"levelo_inurba_marseille","lat":43.28662,"lon":5.36353,"is_reserved":false,"is_disabled":false,"rental_uris":{"android":"levelo://app?vid=328140ce-d7f5-4c8b-8ba9-92595f400267","ios":"levelo://app?vid=328140ce-d7f5-4c8b-8ba9-92595f400267"},"vehicle_type_id":"4","last_reported":1729660163,"current_range_meters":30400,"station_id":"ce4bhah2rcd13ifvqej0","pricing_plan_id":"cebpf4jnsgd1na2vs0mg"},{"bike_id":"bf3cdac8-1828-4c5b-88c1-7d178598dc6a","system_id":"levelo_inurba_marseille","lat":43.30038,"lon":5.37293,"is_reserved":false,"is_disabled":false,"rental_uris":{"android":"levelo://app?vid=bf3cdac8-1828-4c5b-88c1-7d178598dc6a","ios":"levelo://app?vid=bf3cdac8-1828-4c5b-88c1-7d178598dc6a"},"vehicle_type_id":"4","last_reported":1729660163,"current_range_meters":14000,"station_id":"","pricing_plan_id":"cebpf4jnsgd1na2vs0mg"},{"bike_id":"dd063e6e-5a0e-4383-ae0e-0bb450cbba02","system_id":"levelo_inurba_marseille","lat":43.30465,"lon":5.37904,"is_reserved":false,"is_disabled":false,"rental_uris":{"android":"levelo://app?vid=dd063e6e-5a0e-4383-ae0e-0bb450cbba02","ios":"levelo://app?vid=dd063e6e-5a0e-4383-ae0e-0bb450cbba02"},"vehicle_type_id":"4","last_reported":1729660163,"current_range_meters":19600,"station_id":"ce4bgup2rcd13ifvqcn0","pricing_plan_id":"cebpf4jnsgd1na2vs0mg"},{"bike_id":"60f11e5d-42a6-4322-9186-cc06d96c7a8b","system_id":"levelo_inurba_marseille","lat":43.29173,"lon":5.3716,"is_reserved":false,"is_disabled":false,"rental_uris":{"android":"levelo://app?vid=60f11e5d-42a6-4322-9186-cc06d96c7a8b","ios":"levelo://app?vid=60f11e5d-42a6-4322-9186-cc06d96c7a8b"},"vehicle_type_id":"4","last_reported":1729660163,"current_range_meters":18800,"station_id":"ce4bha92rcd13ifvqeh0","pricing_plan_id":"cebpf4jnsgd1na2vs0mg"},{"bike_id":"1f3c2773-b04a-4a14-99a1-613b6e81b189","system_id":"levelo_inurba_marseille","lat":43.2926,"lon":5.40908,"is_reserved":false,"is_disabled":false,"rental_uris":{"android":"levelo://app?vid=1f3c2773-b04a-4a14-99a1-613b6e81b189","ios":"levelo://app?vid=1f3c2773-b04a-4a14-99a1-613b6e81b189"},"vehicle_type_id":"4","last_reported":1729660163,"current_range_meters":38800,"station_id":"ce4bh192rcd13ifvqdc0","pricing_plan_id":"cebpf4jnsgd1na2vs0mg"},{"bike_id":"5c449356-4ac4-4d08-a405-c433fbe21a80","system_id":"levelo_inurba_marseille","lat":43.33737,"lon":5.37458,"is_reserved":false,"is_disabled":false,"rental_uris":{"android":"levelo://app?vid=5c449356-4ac4-4d08-a405-c433fbe21a80","ios":"levelo://app?vid=5c449356-4ac4-4d08-a405-c433fbe21a80"},"vehicle_type_id":"4","last_reported":1729660163,"current_range_meters":30800,"station_id":"","pricing_plan_id":"cebpf4jnsgd1na2vs0mg"},{"bike_id":"3a92d8ff-54ff-443e-9b0a-a2fcb028aa18","system_id":"levelo_inurba_marseille","lat":43.30545,"lon":5.3669,"is_reserved":false,"is_disabled":false,"rental_uris":{"android":"levelo://app?vid=3a92d8ff-54ff-443e-9b0a-a2fcb028aa18","ios":"levelo://app?vid=3a92d8ff-54ff-443e-9b0a-a2fcb028aa18"},"vehicle_type_id":"4","last_reported":1729660163,"current_range_meters":38800,"station_id":"ce4bgrp2rcd13ifvqc9g","pricing_plan_id":"cebpf4jnsgd1na2vs0mg"},{"bike_id":"a1a535ed-f351-417e-8fe5-da00f4778e3a","system_id":"levelo_inurba_marseille","lat":43.304192,"lon":5.412852,"is_reserved":false,"is_disabled":false,"rental_uris":{"android":"levelo://app?vid=a1a535ed-f351-417e-8fe5-da00f4778e3a","ios":"levelo://app?vid=a1a535ed-f351-417e-8fe5-da00f4778e3a"},"vehicle_type_id":"4","last_reported":1729660163,"current_range_meters":16400,"station_id":"ce4bhop2rcd13ifvqh8g","pricing_plan_id":"cebpf4jnsgd1na2vs0mg"},{"bike_id":"309dad60-bb72-4d2d-b50c-28e8483b55b4","system_id":"levelo_inurba_marseille","lat":43.29552,"lon":5.42278,"is_reserved":false,"is_disabled":false,"rental_uris":{"android":"levelo://app?vid=309dad60-bb72-4d2d-b50c-28e8483b55b4","ios":"levelo://app?vid=309dad60-bb72-4d2d-b50c-28e8483b55b4"},"vehicle_type_id":"4","last_reported":1729660163,"current_range_meters":28000,"station_id":"ce4bhph2rcd13ifvqhdg","pricing_plan_id":"cebpf4jnsgd1na2vs0mg"},{"bike_id":"0029ee21-649e-4d16-a642-8d64d97589e4","system_id":"levelo_inurba_marseille","lat":43.24071,"lon":5.37759,"is_reserved":false,"is_disabled":false,"rental_uris":{"android":"levelo://app?vid=0029ee21-649e-4d16-a642-8d64d97589e4","ios":"levelo://app?vid=0029ee21-649e-4d16-a642-8d64d97589e4"},"vehicle_type_id":"4","last_reported":1729660163,"current_range_meters":17200,"station_id":"ce4bhnp2rcd13ifvqgvg","pricing_plan_id":"cebpf4jnsgd1na2vs0mg"},{"bike_id":"2fa1dc90-f762-4e81-bce8-6d4dab68d2a0","system_id":"levelo_inurba_marseille","lat":43.28495,"lon":5.38553,"is_reserved":false,"is_disabled":false,"rental_uris":{"android":"levelo://app?vid=2fa1dc90-f762-4e81-bce8-6d4dab68d2a0","ios":"levelo://app?vid=2fa1dc90-f762-4e81-bce8-6d4dab68d2a0"},"vehicle_type_id":"4","last_reported":1729660163,"current_range_meters":36400,"station_id":"ce4bh8p2rcd13ifvqeb0","pricing_plan_id":"cebpf4jnsgd1na2vs0mg"},{"bike_id":"80f01561-4f78-4d59-98de-f130f22341eb","system_id":"levelo_inurba_marseille","lat":43.2815,"lon":5.42636,"is_reserved":false,"is_disabled":false,"rental_uris":{"android":"levelo://app?vid=80f01561-4f78-4d59-98de-f130f22341eb","ios":"levelo://app?vid=80f01561-4f78-4d59-98de-f130f22341eb"},"vehicle_type_id":"4","last_reported":1729660163,"current_range_meters":4400,"station_id":"ce4bhnh2rcd13ifvqgug","pricing_plan_id":"cebpf4jnsgd1na2vs0mg"},{"bike_id":"0c6b11eb-50a7-4dc0-bff2-d8026011ec1d","system_id":"levelo_inurba_marseille","lat":43.24389,"lon":5.37057,"is_reserved":false,"is_disabled":false,"rental_uris":{"android":"levelo://app?vid=0c6b11eb-50a7-4dc0-bff2-d8026011ec1d","ios":"levelo://app?vid=0c6b11eb-50a7-4dc0-bff2-d8026011ec1d"},"vehicle_type_id":"4","last_reported":1729660163,"current_range_meters":38800,"station_id":"ce4bhhh2rcd13ifvqfk0","pricing_plan_id":"cebpf4jnsgd1na2vs0mg"},{"bike_id":"6f30af56-4ead-46fe-94dc-e3c11d5a0ee0","system_id":"levelo_inurba_marseille","lat":43.23193,"lon":5.39982,"is_reserved":false,"is_disabled":false,"rental_uris":{"android":"levelo://app?vid=6f30af56-4ead-46fe-94dc-e3c11d5a0ee0","ios":"levelo://app?vid=6f30af56-4ead-46fe-94dc-e3c11d5a0ee0"},"vehicle_type_id":"4","last_reported":1729660163,"current_range_meters":30800,"station_id":"ce4bhn12rcd13ifvqgqg","pricing_plan_id":"cebpf4jnsgd1na2vs0mg"},{"bike_id":"bff498d8-d979-413d-a89a-629443bc23a3","system_id":"levelo_inurba_marseille","lat":43.305145,"lon":5.384349,"is_reserved":false,"is_disabled":false,"rental_uris":{"android":"levelo://app?vid=bff498d8-d979-413d-a89a-629443bc23a3","ios":"levelo://app?vid=bff498d8-d979-413d-a89a-629443bc23a3"},"vehicle_type_id":"4","last_reported":1729660163,"current_range_meters":38000,"station_id":"ce4bgj12rcd13ifvqbc0","pricing_plan_id":"cebpf4jnsgd1na2vs0mg"},{"bike_id":"c769be1b-4262-45e1-ae17-91133a0a1d6c","system_id":"levelo_inurba_marseille","lat":43.3053,"lon":5.36659,"is_reserved":false,"is_disabled":false,"rental_uris":{"android":"levelo://app?vid=c769be1b-4262-45e1-ae17-91133a0a1d6c","ios":"levelo://app?vid=c769be1b-4262-45e1-ae17-91133a0a1d6c"},"vehicle_type_id":"4","last_reported":1729660163,"current_range_meters":12800,"station_id":"","pricing_plan_id":"cebpf4jnsgd1na2vs0mg"},{"bike_id":"4882a116-5452-4f97-bdbd-13df4cccb9d6","system_id":"levelo_inurba_marseille","lat":43.30599,"lon":5.37238,"is_reserved":false,"is_disabled":false,"rental_uris":{"android":"levelo://app?vid=4882a116-5452-4f97-bdbd-13df4cccb9d6","ios":"levelo://app?vid=4882a116-5452-4f97-bdbd-13df4cccb9d6"},"vehicle_type_id":"4","last_reported":1729660163,"current_range_meters":30800,"station_id":"ce4bgqh2rcd13ifvqc4g","pricing_plan_id":"cebpf4jnsgd1na2vs0mg"},{"bike_id":"51609f73-1be2-469a-93e3-45dd1403c91f","system_id":"levelo_inurba_marseille","lat":43.30607,"lon":5.37225,"is_reserved":false,"is_disabled":false,"rental_uris":{"android":"levelo://app?vid=51609f73-1be2-469a-93e3-45dd1403c91f","ios":"levelo://app?vid=51609f73-1be2-469a-93e3-45dd1403c91f"},"vehicle_type_id":"4","last_reported":1729660163,"current_range_meters":11200,"station_id":"ce4bgqh2rcd13ifvqc4g","pricing_plan_id":"cebpf4jnsgd1na2vs0mg"},{"bike_id":"1124aa99-a4cf-4abb-81d2-6a98e5a17338","system_id":"levelo_inurba_marseille","lat":43.278292,"lon":5.392049,"is_reserved":false,"is_disabled":false,"rental_uris":{"android":"levelo://app?vid=1124aa99-a4cf-4abb-81d2-6a98e5a17338","ios":"levelo://app?vid=1124aa99-a4cf-4abb-81d2-6a98e5a17338"},"vehicle_type_id":"4","last_reported":1729660163,"current_range_meters":38800,"station_id":"ce4bhjp2rcd13ifvqga0","pricing_plan_id":"cebpf4jnsgd1na2vs0mg"},{"bike_id":"c06309b0-c1de-457f-b658-f76ff5bddc2d","system_id":"levelo_inurba_marseille","lat":43.30156,"lon":5.38076,"is_reserved":false,"is_disabled":false,"rental_uris":{"android":"levelo://app?vid=c06309b0-c1de-457f-b658-f76ff5bddc2d","ios":"levelo://app?vid=c06309b0-c1de-457f-b658-f76ff5bddc2d"},"vehicle_type_id":"4","last_reported":1729660163,"current_range_meters":18000,"station_id":"ce4bgjp2rcd13ifvqbh0","pricing_plan_id":"cebpf4jnsgd1na2vs0mg"},{"bike_id":"57633249-3b48-4b3f-9fc9-74faaaf52100","system_id":"levelo_inurba_marseille","lat":43.28408,"lon":5.37513,"is_reserved":false,"is_disabled":false,"rental_uris":{"android":"levelo://app?vid=57633249-3b48-4b3f-9fc9-74faaaf52100","ios":"levelo://app?vid=57633249-3b48-4b3f-9fc9-74faaaf52100"},"vehicle_type_id":"4","last_reported":1729660163,"current_range_meters":38800,"station_id":"ce4bh412rcd13ifvqds0","pricing_plan_id":"cebpf4jnsgd1na2vs0mg"},{"bike_id":"541b9662-9fd0-4beb-b2fc-99ab3531f104","system_id":"levelo_inurba_marseille","lat":43.29686,"lon":5.3732,"is_reserved":false,"is_disabled":false,"rental_uris":{"android":"levelo://app?vid=541b9662-9fd0-4beb-b2fc-99ab3531f104","ios":"levelo://app?vid=541b9662-9fd0-4beb-b2fc-99ab3531f104"},"vehicle_type_id":"4","last_reported":1729660163,"current_range_meters":37600,"station_id":"ce4bgk12rcd13ifvqbj0","pricing_plan_id":"cebpf4jnsgd1na2vs0mg"},{"bike_id":"42b34e18-affb-4aa0-b872-5fe3a8b7ec70","system_id":"levelo_inurba_marseille","lat":43.23191,"lon":5.35558,"is_reserved":false,"is_disabled":false,"rental_uris":{"android":"levelo://app?vid=42b34e18-affb-4aa0-b872-5fe3a8b7ec70","ios":"levelo://app?vid=42b34e18-affb-4aa0-b872-5fe3a8b7ec70"},"vehicle_type_id":"4","last_reported":1729660163,"current_range_meters":9200,"station_id":"ce4bhu92rcd13ifvqi70","pricing_plan_id":"cebpf4jnsgd1na2vs0mg"},{"bike_id":"f42b21e7-cbd4-432b-a865-7ed8d92ab2c5","system_id":"levelo_inurba_marseille","lat":43.30981,"lon":5.40056,"is_reserved":false,"is_disabled":false,"rental_uris":{"android":"levelo://app?vid=f42b21e7-cbd4-432b-a865-7ed8d92ab2c5","ios":"levelo://app?vid=f42b21e7-cbd4-432b-a865-7ed8d92ab2c5"},"vehicle_type_id":"4","last_reported":1729660163,"current_range_meters":37600,"station_id":"ce4bhq92rcd13ifvqhjg","pricing_plan_id":"cebpf4jnsgd1na2vs0mg"},{"bike_id":"7b481b07-b99d-41b6-a5a5-346f5027bece","system_id":"levelo_inurba_marseille","lat":43.31541,"lon":5.38025,"is_reserved":false,"is_disabled":false,"rental_uris":{"android":"levelo://app?vid=7b481b07-b99d-41b6-a5a5-346f5027bece","ios":"levelo://app?vid=7b481b07-b99d-41b6-a5a5-346f5027bece"},"vehicle_type_id":"4","last_reported":1729660163,"current_range_meters":36800,"station_id":"ce4bhsp2rcd13ifvqi50","pricing_plan_id":"cebpf4jnsgd1na2vs0mg"},{"bike_id":"1f695c43-9b8f-406c-8751-eb34ab03df6c","system_id":"levelo_inurba_marseille","lat":43.2966,"lon":5.375369,"is_reserved":false,"is_disabled":false,"rental_uris":{"android":"levelo://app?vid=1f695c43-9b8f-406c-8751-eb34ab03df6c","ios":"levelo://app?vid=1f695c43-9b8f-406c-8751-eb34ab03df6c"},"vehicle_type_id":"4","last_reported":1729660163,"current_range_meters":32400,"station_id":"ce4bgkh2rcd13ifvqbl0","pricing_plan_id":"cebpf4jnsgd1na2vs0mg"},{"bike_id":"329727be-41c5-4404-8a34-4faa7b5d0b3d","system_id":"levelo_inurba_marseille","lat":43.29222,"lon":5.36058,"is_reserved":false,"is_disabled":false,"rental_uris":{"android":"levelo://app?vid=329727be-41c5-4404-8a34-4faa7b5d0b3d","ios":"levelo://app?vid=329727be-41c5-4404-8a34-4faa7b5d0b3d"},"vehicle_type_id":"4","last_reported":1729660163,"current_range_meters":27600,"station_id":"ce4bhbh2rcd13ifvqeqg","pricing_plan_id":"cebpf4jnsgd1na2vs0mg"},{"bike_id":"03e455ca-db19-4914-ba3f-fe3463aa8ffe","system_id":"levelo_inurba_marseille","lat":43.27208,"lon":5.39177,"is_reserved":false,"is_disabled":false,"rental_uris":{"android":"levelo://app?vid=03e455ca-db19-4914-ba3f-fe3463aa8ffe","ios":"levelo://app?vid=03e455ca-db19-4914-ba3f-fe3463aa8ffe"},"vehicle_type_id":"4","last_reported":1729660163,"current_range_meters":13600,"station_id":"ce4bhhp2rcd13ifvqfm0","pricing_plan_id":"cebpf4jnsgd1na2vs0mg"},{"bike_id":"20e0b48a-077f-45c8-b5a5-1f4dcb4203d2","system_id":"levelo_inurba_marseille","lat":43.28154,"lon":5.42638,"is_reserved":false,"is_disabled":false,"rental_uris":{"android":"levelo://app?vid=20e0b48a-077f-45c8-b5a5-1f4dcb4203d2","ios":"levelo://app?vid=20e0b48a-077f-45c8-b5a5-1f4dcb4203d2"},"vehicle_type_id":"4","last_reported":1729660163,"current_range_meters":38800,"station_id":"ce4bhnh2rcd13ifvqgug","pricing_plan_id":"cebpf4jnsgd1na2vs0mg"},{"bike_id":"ec27f554-4b18-49a0-8d1d-a9948b1b2ca9","system_id":"levelo_inurba_marseille","lat":43.25582,"lon":5.3823,"is_reserved":false,"is_disabled":false,"rental_uris":{"android":"levelo://app?vid=ec27f554-4b18-49a0-8d1d-a9948b1b2ca9","ios":"levelo://app?vid=ec27f554-4b18-49a0-8d1d-a9948b1b2ca9"},"vehicle_type_id":"4","last_reported":1729660163,"current_range_meters":38800,"station_id":"ce4bhih2rcd13ifvqfs0","pricing_plan_id":"cebpf4jnsgd1na2vs0mg"},{"bike_id":"fe80d9c1-0832-4267-b5ca-a1ab1923bc8a","system_id":"levelo_inurba_marseille","lat":43.29051,"lon":5.35899,"is_reserved":false,"is_disabled":false,"rental_uris":{"android":"levelo://app?vid=fe80d9c1-0832-4267-b5ca-a1ab1923bc8a","ios":"levelo://app?vid=fe80d9c1-0832-4267-b5ca-a1ab1923bc8a"},"vehicle_type_id":"4","last_reported":1729660163,"current_range_meters":38000,"station_id":"ce4bha92rcd13ifvqeg0","pricing_plan_id":"cebpf4jnsgd1na2vs0mg"},{"bike_id":"94d30471-f54b-4aca-96dd-695f3b79bd29","system_id":"levelo_inurba_marseille","lat":43.31169,"lon":5.38717,"is_reserved":false,"is_disabled":false,"rental_uris":{"android":"levelo://app?vid=94d30471-f54b-4aca-96dd-695f3b79bd29","ios":"levelo://app?vid=94d30471-f54b-4aca-96dd-695f3b79bd29"},"vehicle_type_id":"4","last_reported":1729660163,"current_range_meters":35200,"station_id":"ce4bgv12rcd13ifvqcp0","pricing_plan_id":"cebpf4jnsgd1na2vs0mg"},{"bike_id":"a04ee60d-8e8d-435a-a7ee-19b23f6dbbb0","system_id":"levelo_inurba_marseille","lat":43.26215,"lon":5.37438,"is_reserved":false,"is_disabled":false,"rental_uris":{"android":"levelo://app?vid=a04ee60d-8e8d-435a-a7ee-19b23f6dbbb0","ios":"levelo://app?vid=a04ee60d-8e8d-435a-a7ee-19b23f6dbbb0"},"vehicle_type_id":"4","last_reported":1729660163,"current_range_meters":38800,"station_id":"ce4bhgp2rcd13ifvqfc0","pricing_plan_id":"cebpf4jnsgd1na2vs0mg"},{"bike_id":"474e8192-2c3d-4290-9dca-32a411415637","system_id":"levelo_inurba_marseille","lat":43.30467,"lon":5.37906,"is_reserved":false,"is_disabled":false,"rental_uris":{"android":"levelo://app?vid=474e8192-2c3d-4290-9dca-32a411415637","ios":"levelo://app?vid=474e8192-2c3d-4290-9dca-32a411415637"},"vehicle_type_id":"4","last_reported":1729660163,"current_range_meters":38800,"station_id":"ce4bgup2rcd13ifvqcn0","pricing_plan_id":"cebpf4jnsgd1na2vs0mg"},{"bike_id":"ddd281a6-7ca1-497c-8140-a57e2ac57392","system_id":"levelo_inurba_marseille","lat":43.2679,"lon":5.39426,"is_reserved":false,"is_disabled":false,"rental_uris":{"android":"levelo://app?vid=ddd281a6-7ca1-497c-8140-a57e2ac57392","ios":"levelo://app?vid=ddd281a6-7ca1-497c-8140-a57e2ac57392"},"vehicle_type_id":"4","last_reported":1729660163,"current_range_meters":38000,"station_id":"ce4bhh12rcd13ifvqfg0","pricing_plan_id":"cebpf4jnsgd1na2vs0mg"},{"bike_id":"bde5a3e1-2b27-4680-add5-25f6634f00df","system_id":"levelo_inurba_marseille","lat":43.27989,"lon":5.41661,"is_reserved":false,"is_disabled":false,"rental_uris":{"android":"levelo://app?vid=bde5a3e1-2b27-4680-add5-25f6634f00df","ios":"levelo://app?vid=bde5a3e1-2b27-4680-add5-25f6634f00df"},"vehicle_type_id":"4","last_reported":1729660163,"current_range_meters":7200,"station_id":"ce4bho12rcd13ifvqh1g","pricing_plan_id":"cebpf4jnsgd1na2vs0mg"},{"bike_id":"f0220362-e7c7-423a-a587-85c77fbcabb6","system_id":"levelo_inurba_marseille","lat":43.27072,"lon":5.42278,"is_reserved":false,"is_disabled":false,"rental_uris":{"android":"levelo://app?vid=f0220362-e7c7-423a-a587-85c77fbcabb6","ios":"levelo://app?vid=f0220362-e7c7-423a-a587-85c77fbcabb6"},"vehicle_type_id":"4","last_reported":1729660163,"current_range_meters":38800,"station_id":"ce4bhk92rcd13ifvqgb0","pricing_plan_id":"cebpf4jnsgd1na2vs0mg"},{"bike_id":"22675db0-28b2-4ef9-a53f-b0764f3ea9dc","system_id":"levelo_inurba_marseille","lat":43.319934,"lon":5.381484,"is_reserved":false,"is_disabled":false,"rental_uris":{"android":"levelo://app?vid=22675db0-28b2-4ef9-a53f-b0764f3ea9dc","ios":"levelo://app?vid=22675db0-28b2-4ef9-a53f-b0764f3ea9dc"},"vehicle_type_id":"4","last_reported":1729660163,"current_range_meters":38800,"station_id":"ce4bhr12rcd13ifvqhpg","pricing_plan_id":"cebpf4jnsgd1na2vs0mg"},{"bike_id":"5e0f5e79-e2c7-493b-bd68-20412804c77d","system_id":"levelo_inurba_marseille","lat":43.27174,"lon":5.4099,"is_reserved":false,"is_disabled":false,"rental_uris":{"android":"levelo://app?vid=5e0f5e79-e2c7-493b-bd68-20412804c77d","ios":"levelo://app?vid=5e0f5e79-e2c7-493b-bd68-20412804c77d"},"vehicle_type_id":"4","last_reported":1729660163,"current_range_meters":38800,"station_id":"ce4bhl12rcd13ifvqgf0","pricing_plan_id":"cebpf4jnsgd1na2vs0mg"},{"bike_id":"ab17151c-94ae-401a-8d44-abbdb15f9094","system_id":"levelo_inurba_marseille","lat":43.31542,"lon":5.3803,"is_reserved":false,"is_disabled":false,"rental_uris":{"android":"levelo://app?vid=ab17151c-94ae-401a-8d44-abbdb15f9094","ios":"levelo://app?vid=ab17151c-94ae-401a-8d44-abbdb15f9094"},"vehicle_type_id":"4","last_reported":1729660163,"current_range_meters":26800,"station_id":"ce4bhsp2rcd13ifvqi50","pricing_plan_id":"cebpf4jnsgd1na2vs0mg"},{"bike_id":"d08ac600-b85a-4a44-84b0-ee33725e24f7","system_id":"levelo_inurba_marseille","lat":43.32361,"lon":5.3888,"is_reserved":false,"is_disabled":false,"rental_uris":{"android":"levelo://app?vid=d08ac600-b85a-4a44-84b0-ee33725e24f7","ios":"levelo://app?vid=d08ac600-b85a-4a44-84b0-ee33725e24f7"},"vehicle_type_id":"4","last_reported":1729660163,"current_range_meters":31200,"station_id":"ce4bhqp2rcd13ifvqhog","pricing_plan_id":"cebpf4jnsgd1na2vs0mg"},{"bike_id":"6a3d026e-f423-4e19-905c-b73e2bbde2ea","system_id":"levelo_inurba_marseille","lat":43.27177,"lon":5.40988,"is_reserved":false,"is_disabled":false,"rental_uris":{"android":"levelo://app?vid=6a3d026e-f423-4e19-905c-b73e2bbde2ea","ios":"levelo://app?vid=6a3d026e-f423-4e19-905c-b73e2bbde2ea"},"vehicle_type_id":"4","last_reported":1729660163,"current_range_meters":37600,"station_id":"ce4bhl12rcd13ifvqgf0","pricing_plan_id":"cebpf4jnsgd1na2vs0mg"},{"bike_id":"48626366-6c4d-4e93-86eb-59d9c4e5dfba","system_id":"levelo_inurba_marseille","lat":43.28945,"lon":5.39626,"is_reserved":false,"is_disabled":false,"rental_uris":{"android":"levelo://app?vid=48626366-6c4d-4e93-86eb-59d9c4e5dfba","ios":"levelo://app?vid=48626366-6c4d-4e93-86eb-59d9c4e5dfba"},"vehicle_type_id":"4","last_reported":1729660163,"current_range_meters":38800,"station_id":"ce4bh3h2rcd13ifvqdn0","pricing_plan_id":"cebpf4jnsgd1na2vs0mg"},{"bike_id":"1f92305f-3ae4-4b19-945f-1102feb6f1dd","system_id":"levelo_inurba_marseille","lat":43.30885,"lon":5.39642,"is_reserved":false,"is_disabled":false,"rental_uris":{"android":"levelo://app?vid=1f92305f-3ae4-4b19-945f-1102feb6f1dd","ios":"levelo://app?vid=1f92305f-3ae4-4b19-945f-1102feb6f1dd"},"vehicle_type_id":"4","last_reported":1729660163,"current_range_meters":30400,"station_id":"ce4bh012rcd13ifvqcv0","pricing_plan_id":"cebpf4jnsgd1na2vs0mg"},{"bike_id":"3e874096-f707-4e4f-918f-d88b9ad69dbe","system_id":"levelo_inurba_marseille","lat":43.308876,"lon":5.396414,"is_reserved":false,"is_disabled":false,"rental_uris":{"android":"levelo://app?vid=3e874096-f707-4e4f-918f-d88b9ad69dbe","ios":"levelo://app?vid=3e874096-f707-4e4f-918f-d88b9ad69dbe"},"vehicle_type_id":"4","last_reported":1729660163,"current_range_meters":24800,"station_id":"ce4bh012rcd13ifvqcv0","pricing_plan_id":"cebpf4jnsgd1na2vs0mg"},{"bike_id":"5d9d0336-c118-4784-b5fb-1fb6fe21db2c","system_id":"levelo_inurba_marseille","lat":43.30603,"lon":5.37227,"is_reserved":false,"is_disabled":false,"rental_uris":{"android":"levelo://app?vid=5d9d0336-c118-4784-b5fb-1fb6fe21db2c","ios":"levelo://app?vid=5d9d0336-c118-4784-b5fb-1fb6fe21db2c"},"vehicle_type_id":"4","last_reported":1729660163,"current_range_meters":34000,"station_id":"ce4bgqh2rcd13ifvqc4g","pricing_plan_id":"cebpf4jnsgd1na2vs0mg"},{"bike_id":"a4757616-c902-495a-993c-e6522db7f0c2","system_id":"levelo_inurba_marseille","lat":43.26558,"lon":5.37284,"is_reserved":false,"is_disabled":false,"rental_uris":{"android":"levelo://app?vid=a4757616-c902-495a-993c-e6522db7f0c2","ios":"levelo://app?vid=a4757616-c902-495a-993c-e6522db7f0c2"},"vehicle_type_id":"4","last_reported":1729660163,"current_range_meters":30800,"station_id":"ce4bhg12rcd13ifvqf70","pricing_plan_id":"cebpf4jnsgd1na2vs0mg"},{"bike_id":"57094be6-93e8-42b3-adda-7d0acb3d1a22","system_id":"levelo_inurba_marseille","lat":43.28407,"lon":5.37514,"is_reserved":false,"is_disabled":false,"rental_uris":{"android":"levelo://app?vid=57094be6-93e8-42b3-adda-7d0acb3d1a22","ios":"levelo://app?vid=57094be6-93e8-42b3-adda-7d0acb3d1a22"},"vehicle_type_id":"4","last_reported":1729660163,"current_range_meters":38800,"station_id":"ce4bh412rcd13ifvqds0","pricing_plan_id":"cebpf4jnsgd1na2vs0mg"},{"bike_id":"38486ab0-efb0-4b05-bf58-d9ae2deab94d","system_id":"levelo_inurba_marseille","lat":43.255816,"lon":5.382339,"is_reserved":false,"is_disabled":false,"rental_uris":{"android":"levelo://app?vid=38486ab0-efb0-4b05-bf58-d9ae2deab94d","ios":"levelo://app?vid=38486ab0-efb0-4b05-bf58-d9ae2deab94d"},"vehicle_type_id":"4","last_reported":1729660163,"current_range_meters":38800,"station_id":"ce4bhih2rcd13ifvqfs0","pricing_plan_id":"cebpf4jnsgd1na2vs0mg"},{"bike_id":"94ee5323-408b-46f1-902d-2172d73d223d","system_id":"levelo_inurba_marseille","lat":43.26782,"lon":5.39413,"is_reserved":false,"is_disabled":false,"rental_uris":{"android":"levelo://app?vid=94ee5323-408b-46f1-902d-2172d73d223d","ios":"levelo://app?vid=94ee5323-408b-46f1-902d-2172d73d223d"},"vehicle_type_id":"4","last_reported":1729660163,"current_range_meters":37600,"station_id":"ce4bhh12rcd13ifvqfg0","pricing_plan_id":"cebpf4jnsgd1na2vs0mg"},{"bike_id":"20e7c36a-90bd-4572-8543-6491ffe2f43e","system_id":"levelo_inurba_marseille","lat":43.24087,"lon":5.37747,"is_reserved":false,"is_disabled":false,"rental_uris":{"android":"levelo://app?vid=20e7c36a-90bd-4572-8543-6491ffe2f43e","ios":"levelo://app?vid=20e7c36a-90bd-4572-8543-6491ffe2f43e"},"vehicle_type_id":"4","last_reported":1729660163,"current_range_meters":37600,"station_id":"ce4bhnp2rcd13ifvqgvg","pricing_plan_id":"cebpf4jnsgd1na2vs0mg"},{"bike_id":"9b87b773-e061-40be-b290-ce236cd5d49c","system_id":"levelo_inurba_marseille","lat":43.28411,"lon":5.37517,"is_reserved":false,"is_disabled":false,"rental_uris":{"android":"levelo://app?vid=9b87b773-e061-40be-b290-ce236cd5d49c","ios":"levelo://app?vid=9b87b773-e061-40be-b290-ce236cd5d49c"},"vehicle_type_id":"4","last_reported":1729660163,"current_range_meters":38800,"station_id":"ce4bh412rcd13ifvqds0","pricing_plan_id":"cebpf4jnsgd1na2vs0mg"},{"bike_id":"4a240f2c-362f-4573-a545-b783c72df925","system_id":"levelo_inurba_marseille","lat":43.26951,"lon":5.38634,"is_reserved":false,"is_disabled":false,"rental_uris":{"android":"levelo://app?vid=4a240f2c-362f-4573-a545-b783c72df925","ios":"levelo://app?vid=4a240f2c-362f-4573-a545-b783c72df925"},"vehicle_type_id":"4","last_reported":1729660163,"current_range_meters":30400,"station_id":"ce4bhh92rcd13ifvqfh0","pricing_plan_id":"cebpf4jnsgd1na2vs0mg"},{"bike_id":"09f43649-59af-4bd3-b982-5fe0c64b82fe","system_id":"levelo_inurba_marseille","lat":43.23181,"lon":5.39987,"is_reserved":false,"is_disabled":false,"rental_uris":{"android":"levelo://app?vid=09f43649-59af-4bd3-b982-5fe0c64b82fe","ios":"levelo://app?vid=09f43649-59af-4bd3-b982-5fe0c64b82fe"},"vehicle_type_id":"4","last_reported":1729660163,"current_range_meters":38800,"station_id":"ce4bhn12rcd13ifvqgqg","pricing_plan_id":"cebpf4jnsgd1na2vs0mg"},{"bike_id":"f4f4cedb-ee30-4d0e-addd-0835963f6da5","system_id":"levelo_inurba_marseille","lat":43.2948,"lon":5.44396,"is_reserved":false,"is_disabled":false,"rental_uris":{"android":"levelo://app?vid=f4f4cedb-ee30-4d0e-addd-0835963f6da5","ios":"levelo://app?vid=f4f4cedb-ee30-4d0e-addd-0835963f6da5"},"vehicle_type_id":"4","last_reported":1729660163,"current_range_meters":3200,"station_id":"","pricing_plan_id":"cebpf4jnsgd1na2vs0mg"},{"bike_id":"ec5b3ce7-15ab-4985-98f5-e42469ac7b7c","system_id":"levelo_inurba_marseille","lat":43.27829,"lon":5.39206,"is_reserved":false,"is_disabled":false,"rental_uris":{"android":"levelo://app?vid=ec5b3ce7-15ab-4985-98f5-e42469ac7b7c","ios":"levelo://app?vid=ec5b3ce7-15ab-4985-98f5-e42469ac7b7c"},"vehicle_type_id":"4","last_reported":1729660163,"current_range_meters":16800,"station_id":"ce4bhjp2rcd13ifvqga0","pricing_plan_id":"cebpf4jnsgd1na2vs0mg"},{"bike_id":"bc74935d-1660-44e5-bf16-e520e3b64275","system_id":"levelo_inurba_marseille","lat":43.292058,"lon":5.368932,"is_reserved":false,"is_disabled":false,"rental_uris":{"android":"levelo://app?vid=bc74935d-1660-44e5-bf16-e520e3b64275","ios":"levelo://app?vid=bc74935d-1660-44e5-bf16-e520e3b64275"},"vehicle_type_id":"4","last_reported":1729660163,"current_range_meters":13600,"station_id":"","pricing_plan_id":"cebpf4jnsgd1na2vs0mg"},{"bike_id":"744a3036-377a-4be3-af71-6f5c833e31f2","system_id":"levelo_inurba_marseille","lat":43.30652,"lon":5.40077,"is_reserved":false,"is_disabled":false,"rental_uris":{"android":"levelo://app?vid=744a3036-377a-4be3-af71-6f5c833e31f2","ios":"levelo://app?vid=744a3036-377a-4be3-af71-6f5c833e31f2"},"vehicle_type_id":"4","last_reported":1729660163,"current_range_meters":39200,"station_id":"ce4bh112rcd13ifvqda0","pricing_plan_id":"cebpf4jnsgd1na2vs0mg"},{"bike_id":"48976f99-a149-4381-b2cd-ff558b03e56b","system_id":"levelo_inurba_marseille","lat":43.32745,"lon":5.42404,"is_reserved":false,"is_disabled":false,"rental_uris":{"android":"levelo://app?vid=48976f99-a149-4381-b2cd-ff558b03e56b","ios":"levelo://app?vid=48976f99-a149-4381-b2cd-ff558b03e56b"},"vehicle_type_id":"4","last_reported":1729660163,"current_range_meters":30800,"station_id":"ce4bgv92rcd13ifvqcr0","pricing_plan_id":"cebpf4jnsgd1na2vs0mg"},{"bike_id":"142d9185-ecb9-4cfe-8417-2c2b8b8cff4f","system_id":"levelo_inurba_marseille","lat":43.26497,"lon":5.39545,"is_reserved":false,"is_disabled":false,"rental_uris":{"android":"levelo://app?vid=142d9185-ecb9-4cfe-8417-2c2b8b8cff4f","ios":"levelo://app?vid=142d9185-ecb9-4cfe-8417-2c2b8b8cff4f"},"vehicle_type_id":"4","last_reported":1729660163,"current_range_meters":32800,"station_id":"ce4bhi12rcd13ifvqfq0","pricing_plan_id":"cebpf4jnsgd1na2vs0mg"},{"bike_id":"f7a109c2-5515-4876-a841-90b86554125e","system_id":"levelo_inurba_marseille","lat":43.30896,"lon":5.37197,"is_reserved":false,"is_disabled":false,"rental_uris":{"android":"levelo://app?vid=f7a109c2-5515-4876-a841-90b86554125e","ios":"levelo://app?vid=f7a109c2-5515-4876-a841-90b86554125e"},"vehicle_type_id":"4","last_reported":1729660163,"current_range_meters":31200,"station_id":"ce4bguh2rcd13ifvqckg","pricing_plan_id":"cebpf4jnsgd1na2vs0mg"},{"bike_id":"9c559556-b261-42fd-ae6e-668da45972a6","system_id":"levelo_inurba_marseille","lat":43.29281,"lon":5.36843,"is_reserved":false,"is_disabled":false,"rental_uris":{"android":"levelo://app?vid=9c559556-b261-42fd-ae6e-668da45972a6","ios":"levelo://app?vid=9c559556-b261-42fd-ae6e-668da45972a6"},"vehicle_type_id":"4","last_reported":1729660163,"current_range_meters":38000,"station_id":"ce4bhbp2rcd13ifvqesg","pricing_plan_id":"cebpf4jnsgd1na2vs0mg"},{"bike_id":"4139e4d0-4bc2-45e4-b5c8-820648744460","system_id":"levelo_inurba_marseille","lat":43.326935,"lon":5.40997,"is_reserved":false,"is_disabled":false,"rental_uris":{"android":"levelo://app?vid=4139e4d0-4bc2-45e4-b5c8-820648744460","ios":"levelo://app?vid=4139e4d0-4bc2-45e4-b5c8-820648744460"},"vehicle_type_id":"4","last_reported":1729660163,"current_range_meters":25600,"station_id":"ce4bhpp2rcd13ifvqhgg","pricing_plan_id":"cebpf4jnsgd1na2vs0mg"},{"bike_id":"6d68a6ed-05b5-4b7e-b709-0ce01188716b","system_id":"levelo_inurba_marseille","lat":43.283749,"lon":5.386453,"is_reserved":false,"is_disabled":false,"rental_uris":{"android":"levelo://app?vid=6d68a6ed-05b5-4b7e-b709-0ce01188716b","ios":"levelo://app?vid=6d68a6ed-05b5-4b7e-b709-0ce01188716b"},"vehicle_type_id":"4","last_reported":1729660163,"current_range_meters":37600,"station_id":"ce4bh492rcd13ifvqdvg","pricing_plan_id":"cebpf4jnsgd1na2vs0mg"},{"bike_id":"b8a46660-d0a7-4703-acd3-9cea556d4b68","system_id":"levelo_inurba_marseille","lat":43.30813,"lon":5.38172,"is_reserved":false,"is_disabled":false,"rental_uris":{"android":"levelo://app?vid=b8a46660-d0a7-4703-acd3-9cea556d4b68","ios":"levelo://app?vid=b8a46660-d0a7-4703-acd3-9cea556d4b68"},"vehicle_type_id":"4","last_reported":1729660163,"current_range_meters":38800,"station_id":"ce4bgt12rcd13ifvqce0","pricing_plan_id":"cebpf4jnsgd1na2vs0mg"},{"bike_id":"ff51567e-8a66-45f2-9fe1-12a8225c280d","system_id":"levelo_inurba_marseille","lat":43.30156,"lon":5.38081,"is_reserved":false,"is_disabled":false,"rental_uris":{"android":"levelo://app?vid=ff51567e-8a66-45f2-9fe1-12a8225c280d","ios":"levelo://app?vid=ff51567e-8a66-45f2-9fe1-12a8225c280d"},"vehicle_type_id":"4","last_reported":1729660163,"current_range_meters":28400,"station_id":"ce4bgjp2rcd13ifvqbh0","pricing_plan_id":"cebpf4jnsgd1na2vs0mg"},{"bike_id":"81db9c70-bce4-4764-86a6-8d25b1c25e6d","system_id":"levelo_inurba_marseille","lat":43.24645,"lon":5.38887,"is_reserved":false,"is_disabled":false,"rental_uris":{"android":"levelo://app?vid=81db9c70-bce4-4764-86a6-8d25b1c25e6d","ios":"levelo://app?vid=81db9c70-bce4-4764-86a6-8d25b1c25e6d"},"vehicle_type_id":"4","last_reported":1729660163,"current_range_meters":38400,"station_id":"ce4bhg12rcd13ifvqf60","pricing_plan_id":"cebpf4jnsgd1na2vs0mg"},{"bike_id":"36f29174-278d-4a36-8d64-2c490ae15868","system_id":"levelo_inurba_marseille","lat":43.27495,"lon":5.42453,"is_reserved":false,"is_disabled":false,"rental_uris":{"android":"levelo://app?vid=36f29174-278d-4a36-8d64-2c490ae15868","ios":"levelo://app?vid=36f29174-278d-4a36-8d64-2c490ae15868"},"vehicle_type_id":"4","last_reported":1729660163,"current_range_meters":32000,"station_id":"ce4bhn92rcd13ifvqgrg","pricing_plan_id":"cebpf4jnsgd1na2vs0mg"},{"bike_id":"e5bca669-5932-4b94-91cc-a61e3f5285a3","system_id":"levelo_inurba_marseille","lat":43.28447,"lon":5.3919,"is_reserved":false,"is_disabled":false,"rental_uris":{"android":"levelo://app?vid=e5bca669-5932-4b94-91cc-a61e3f5285a3","ios":"levelo://app?vid=e5bca669-5932-4b94-91cc-a61e3f5285a3"},"vehicle_type_id":"4","last_reported":1729660163,"current_range_meters":9600,"station_id":"ce4bhoh2rcd13ifvqh5g","pricing_plan_id":"cebpf4jnsgd1na2vs0mg"},{"bike_id":"82faa31d-7bf1-40c5-8e56-02a71c57e747","system_id":"levelo_inurba_marseille","lat":43.29038,"lon":5.3757,"is_reserved":false,"is_disabled":false,"rental_uris":{"android":"levelo://app?vid=82faa31d-7bf1-40c5-8e56-02a71c57e747","ios":"levelo://app?vid=82faa31d-7bf1-40c5-8e56-02a71c57e747"},"vehicle_type_id":"4","last_reported":1729660163,"current_range_meters":37600,"station_id":"ce4bh692rcd13ifvqe90","pricing_plan_id":"cebpf4jnsgd1na2vs0mg"},{"bike_id":"2f79e225-006c-421c-bea6-976fe78b8358","system_id":"levelo_inurba_marseille","lat":43.28156,"lon":5.42645,"is_reserved":false,"is_disabled":false,"rental_uris":{"android":"levelo://app?vid=2f79e225-006c-421c-bea6-976fe78b8358","ios":"levelo://app?vid=2f79e225-006c-421c-bea6-976fe78b8358"},"vehicle_type_id":"4","last_reported":1729660163,"current_range_meters":38800,"station_id":"ce4bhnh2rcd13ifvqgug","pricing_plan_id":"cebpf4jnsgd1na2vs0mg"},{"bike_id":"58bd31dc-894d-49ad-8ea8-599306c1b2f3","system_id":"levelo_inurba_marseille","lat":43.3117,"lon":5.38721,"is_reserved":false,"is_disabled":false,"rental_uris":{"android":"levelo://app?vid=58bd31dc-894d-49ad-8ea8-599306c1b2f3","ios":"levelo://app?vid=58bd31dc-894d-49ad-8ea8-599306c1b2f3"},"vehicle_type_id":"4","last_reported":1729660163,"current_range_meters":9600,"station_id":"ce4bgv12rcd13ifvqcp0","pricing_plan_id":"cebpf4jnsgd1na2vs0mg"},{"bike_id":"58fd3ac0-1f35-47b9-ad05-c396a37de10f","system_id":"levelo_inurba_marseille","lat":43.26502,"lon":5.39544,"is_reserved":false,"is_disabled":false,"rental_uris":{"android":"levelo://app?vid=58fd3ac0-1f35-47b9-ad05-c396a37de10f","ios":"levelo://app?vid=58fd3ac0-1f35-47b9-ad05-c396a37de10f"},"vehicle_type_id":"4","last_reported":1729660163,"current_range_meters":38000,"station_id":"ce4bh9p2rcd13ifvqed0","pricing_plan_id":"cebpf4jnsgd1na2vs0mg"},{"bike_id":"a43686e3-0069-495e-bb66-f12ba02ee769","system_id":"levelo_inurba_marseille","lat":43.30355,"lon":5.41884,"is_reserved":false,"is_disabled":false,"rental_uris":{"android":"levelo://app?vid=a43686e3-0069-495e-bb66-f12ba02ee769","ios":"levelo://app?vid=a43686e3-0069-495e-bb66-f12ba02ee769"},"vehicle_type_id":"4","last_reported":1729660163,"current_range_meters":38800,"station_id":"ce4bhop2rcd13ifvqh7g","pricing_plan_id":"cebpf4jnsgd1na2vs0mg"},{"bike_id":"bc79c6a9-7639-4dd9-a1c0-719ceb101c5d","system_id":"levelo_inurba_marseille","lat":43.28697,"lon":5.39982,"is_reserved":false,"is_disabled":false,"rental_uris":{"android":"levelo://app?vid=bc79c6a9-7639-4dd9-a1c0-719ceb101c5d","ios":"levelo://app?vid=bc79c6a9-7639-4dd9-a1c0-719ceb101c5d"},"vehicle_type_id":"4","last_reported":1729660163,"current_range_meters":38800,"station_id":"ce4bho92rcd13ifvqh3g","pricing_plan_id":"cebpf4jnsgd1na2vs0mg"},{"bike_id":"a6bdef88-770e-4f37-8f5f-221f0cf85086","system_id":"levelo_inurba_marseille","lat":43.31538,"lon":5.38027,"is_reserved":false,"is_disabled":false,"rental_uris":{"android":"levelo://app?vid=a6bdef88-770e-4f37-8f5f-221f0cf85086","ios":"levelo://app?vid=a6bdef88-770e-4f37-8f5f-221f0cf85086"},"vehicle_type_id":"4","last_reported":1729660163,"current_range_meters":30400,"station_id":"ce4bhsp2rcd13ifvqi50","pricing_plan_id":"cebpf4jnsgd1na2vs0mg"},{"bike_id":"f9ff8621-7700-4553-abac-ad15b1938a2c","system_id":"levelo_inurba_marseille","lat":43.31177,"lon":5.38712,"is_reserved":false,"is_disabled":false,"rental_uris":{"android":"levelo://app?vid=f9ff8621-7700-4553-abac-ad15b1938a2c","ios":"levelo://app?vid=f9ff8621-7700-4553-abac-ad15b1938a2c"},"vehicle_type_id":"4","last_reported":1729660163,"current_range_meters":38400,"station_id":"ce4bgv12rcd13ifvqcp0","pricing_plan_id":"cebpf4jnsgd1na2vs0mg"},{"bike_id":"c2ce141d-6e76-44dc-931b-253d09157587","system_id":"levelo_inurba_marseille","lat":43.25009,"lon":5.38924,"is_reserved":false,"is_disabled":false,"rental_uris":{"android":"levelo://app?vid=c2ce141d-6e76-44dc-931b-253d09157587","ios":"levelo://app?vid=c2ce141d-6e76-44dc-931b-253d09157587"},"vehicle_type_id":"4","last_reported":1729660163,"current_range_meters":38800,"station_id":"ce4bhgp2rcd13ifvqfd0","pricing_plan_id":"cebpf4jnsgd1na2vs0mg"},{"bike_id":"11256fd2-b537-43fb-8f2f-2312433c9979","system_id":"levelo_inurba_marseille","lat":43.28105,"lon":5.37842,"is_reserved":false,"is_disabled":false,"rental_uris":{"android":"levelo://app?vid=11256fd2-b537-43fb-8f2f-2312433c9979","ios":"levelo://app?vid=11256fd2-b537-43fb-8f2f-2312433c9979"},"vehicle_type_id":"4","last_reported":1729660163,"current_range_meters":6400,"station_id":"ce4bha12rcd13ifvqee0","pricing_plan_id":"cebpf4jnsgd1na2vs0mg"},{"bike_id":"e4c50509-996c-46d6-92c8-605ffe165f9d","system_id":"levelo_inurba_marseille","lat":43.28469,"lon":5.35881,"is_reserved":false,"is_disabled":false,"rental_uris":{"android":"levelo://app?vid=e4c50509-996c-46d6-92c8-605ffe165f9d","ios":"levelo://app?vid=e4c50509-996c-46d6-92c8-605ffe165f9d"},"vehicle_type_id":"4","last_reported":1729660163,"current_range_meters":25600,"station_id":"ce4bhah2rcd13ifvqei0","pricing_plan_id":"cebpf4jnsgd1na2vs0mg"},{"bike_id":"408223fe-0604-4879-9b68-36acb12c66f7","system_id":"levelo_inurba_marseille","lat":43.28406,"lon":5.37504,"is_reserved":false,"is_disabled":false,"rental_uris":{"android":"levelo://app?vid=408223fe-0604-4879-9b68-36acb12c66f7","ios":"levelo://app?vid=408223fe-0604-4879-9b68-36acb12c66f7"},"vehicle_type_id":"4","last_reported":1729660163,"current_range_meters":38000,"station_id":"ce4bh412rcd13ifvqds0","pricing_plan_id":"cebpf4jnsgd1na2vs0mg"},{"bike_id":"59db3632-a21f-411c-9dc9-da014a036310","system_id":"levelo_inurba_marseille","lat":43.2873,"lon":5.36084,"is_reserved":false,"is_disabled":false,"rental_uris":{"android":"levelo://app?vid=59db3632-a21f-411c-9dc9-da014a036310","ios":"levelo://app?vid=59db3632-a21f-411c-9dc9-da014a036310"},"vehicle_type_id":"4","last_reported":1729660163,"current_range_meters":38800,"station_id":"cki0cbj6b192h4jlfktg","pricing_plan_id":"cebpf4jnsgd1na2vs0mg"},{"bike_id":"8cc9b489-a2de-4b20-aa93-f1879e7ab37b","system_id":"levelo_inurba_marseille","lat":43.30646,"lon":5.40076,"is_reserved":false,"is_disabled":false,"rental_uris":{"android":"levelo://app?vid=8cc9b489-a2de-4b20-aa93-f1879e7ab37b","ios":"levelo://app?vid=8cc9b489-a2de-4b20-aa93-f1879e7ab37b"},"vehicle_type_id":"4","last_reported":1729660163,"current_range_meters":36000,"station_id":"ce4bh112rcd13ifvqda0","pricing_plan_id":"cebpf4jnsgd1na2vs0mg"},{"bike_id":"843cada3-4e22-4cf8-a37c-666cd586c7d4","system_id":"levelo_inurba_marseille","lat":43.28671,"lon":5.36355,"is_reserved":false,"is_disabled":false,"rental_uris":{"android":"levelo://app?vid=843cada3-4e22-4cf8-a37c-666cd586c7d4","ios":"levelo://app?vid=843cada3-4e22-4cf8-a37c-666cd586c7d4"},"vehicle_type_id":"4","last_reported":1729660163,"current_range_meters":38800,"station_id":"ce4bhah2rcd13ifvqej0","pricing_plan_id":"cebpf4jnsgd1na2vs0mg"},{"bike_id":"758c8815-d6d1-4eb0-87f2-4abe41c5d6cf","system_id":"levelo_inurba_marseille","lat":43.29555,"lon":5.42282,"is_reserved":false,"is_disabled":false,"rental_uris":{"android":"levelo://app?vid=758c8815-d6d1-4eb0-87f2-4abe41c5d6cf","ios":"levelo://app?vid=758c8815-d6d1-4eb0-87f2-4abe41c5d6cf"},"vehicle_type_id":"4","last_reported":1729660163,"current_range_meters":26000,"station_id":"ce4bhph2rcd13ifvqhdg","pricing_plan_id":"cebpf4jnsgd1na2vs0mg"},{"bike_id":"69baeb1d-9ab1-42bd-974a-175680bd96e0","system_id":"levelo_inurba_marseille","lat":43.286557,"lon":5.36358,"is_reserved":false,"is_disabled":false,"rental_uris":{"android":"levelo://app?vid=69baeb1d-9ab1-42bd-974a-175680bd96e0","ios":"levelo://app?vid=69baeb1d-9ab1-42bd-974a-175680bd96e0"},"vehicle_type_id":"4","last_reported":1729660163,"current_range_meters":38800,"station_id":"ce4bhah2rcd13ifvqej0","pricing_plan_id":"cebpf4jnsgd1na2vs0mg"},{"bike_id":"864575c1-85b8-4008-92ba-391073d4ed51","system_id":"levelo_inurba_marseille","lat":43.23194,"lon":5.35545,"is_reserved":false,"is_disabled":false,"rental_uris":{"android":"levelo://app?vid=864575c1-85b8-4008-92ba-391073d4ed51","ios":"levelo://app?vid=864575c1-85b8-4008-92ba-391073d4ed51"},"vehicle_type_id":"4","last_reported":1729660163,"current_range_meters":20000,"station_id":"ce4bhu92rcd13ifvqi70","pricing_plan_id":"cebpf4jnsgd1na2vs0mg"},{"bike_id":"e7e57fa0-7714-4dcc-b64c-519c26d856a0","system_id":"levelo_inurba_marseille","lat":43.30657,"lon":5.40092,"is_reserved":false,"is_disabled":false,"rental_uris":{"android":"levelo://app?vid=e7e57fa0-7714-4dcc-b64c-519c26d856a0","ios":"levelo://app?vid=e7e57fa0-7714-4dcc-b64c-519c26d856a0"},"vehicle_type_id":"4","last_reported":1729660163,"current_range_meters":39200,"station_id":"ce4bh112rcd13ifvqda0","pricing_plan_id":"cebpf4jnsgd1na2vs0mg"},{"bike_id":"5cff7aa1-e216-42ff-a1e8-75ef4496329b","system_id":"levelo_inurba_marseille","lat":43.29009,"lon":5.35606,"is_reserved":false,"is_disabled":false,"rental_uris":{"android":"levelo://app?vid=5cff7aa1-e216-42ff-a1e8-75ef4496329b","ios":"levelo://app?vid=5cff7aa1-e216-42ff-a1e8-75ef4496329b"},"vehicle_type_id":"4","last_reported":1729660163,"current_range_meters":38000,"station_id":"ce4bhb92rcd13ifvqen0","pricing_plan_id":"cebpf4jnsgd1na2vs0mg"},{"bike_id":"41f75c63-5a1e-4adb-bcc3-29aa8accf432","system_id":"levelo_inurba_marseille","lat":43.27495,"lon":5.42451,"is_reserved":false,"is_disabled":false,"rental_uris":{"android":"levelo://app?vid=41f75c63-5a1e-4adb-bcc3-29aa8accf432","ios":"levelo://app?vid=41f75c63-5a1e-4adb-bcc3-29aa8accf432"},"vehicle_type_id":"4","last_reported":1729660163,"current_range_meters":33600,"station_id":"ce4bhn92rcd13ifvqgrg","pricing_plan_id":"cebpf4jnsgd1na2vs0mg"},{"bike_id":"2b6b36f0-918c-4869-bfa8-cd3d9c833656","system_id":"levelo_inurba_marseille","lat":43.24624,"lon":5.41948,"is_reserved":false,"is_disabled":false,"rental_uris":{"android":"levelo://app?vid=2b6b36f0-918c-4869-bfa8-cd3d9c833656","ios":"levelo://app?vid=2b6b36f0-918c-4869-bfa8-cd3d9c833656"},"vehicle_type_id":"4","last_reported":1729660163,"current_range_meters":31200,"station_id":"","pricing_plan_id":"cebpf4jnsgd1na2vs0mg"},{"bike_id":"f50406a4-c43e-4a8e-8d40-d2fe94382454","system_id":"levelo_inurba_marseille","lat":43.27995,"lon":5.40021,"is_reserved":false,"is_disabled":false,"rental_uris":{"android":"levelo://app?vid=f50406a4-c43e-4a8e-8d40-d2fe94382454","ios":"levelo://app?vid=f50406a4-c43e-4a8e-8d40-d2fe94382454"},"vehicle_type_id":"4","last_reported":1729660163,"current_range_meters":38800,"station_id":"ce4bho92rcd13ifvqh4g","pricing_plan_id":"cebpf4jnsgd1na2vs0mg"},{"bike_id":"3937e98d-a3f8-44f0-ac1e-7c6ef6358591","system_id":"levelo_inurba_marseille","lat":43.29254,"lon":5.40903,"is_reserved":false,"is_disabled":false,"rental_uris":{"android":"levelo://app?vid=3937e98d-a3f8-44f0-ac1e-7c6ef6358591","ios":"levelo://app?vid=3937e98d-a3f8-44f0-ac1e-7c6ef6358591"},"vehicle_type_id":"4","last_reported":1729660163,"current_range_meters":38800,"station_id":"ce4bh192rcd13ifvqdc0","pricing_plan_id":"cebpf4jnsgd1na2vs0mg"},{"bike_id":"5b58dcfb-5507-4a17-8cb8-8f66d7e06861","system_id":"levelo_inurba_marseille","lat":43.23185,"lon":5.39987,"is_reserved":false,"is_disabled":false,"rental_uris":{"android":"levelo://app?vid=5b58dcfb-5507-4a17-8cb8-8f66d7e06861","ios":"levelo://app?vid=5b58dcfb-5507-4a17-8cb8-8f66d7e06861"},"vehicle_type_id":"4","last_reported":1729660163,"current_range_meters":38800,"station_id":"ce4bhn12rcd13ifvqgqg","pricing_plan_id":"cebpf4jnsgd1na2vs0mg"},{"bike_id":"44e60a5f-30f6-4e2e-b454-0fb16fcb08fa","system_id":"levelo_inurba_marseille","lat":43.24074,"lon":5.37766,"is_reserved":false,"is_disabled":false,"rental_uris":{"android":"levelo://app?vid=44e60a5f-30f6-4e2e-b454-0fb16fcb08fa","ios":"levelo://app?vid=44e60a5f-30f6-4e2e-b454-0fb16fcb08fa"},"vehicle_type_id":"4","last_reported":1729660163,"current_range_meters":31200,"station_id":"ce4bhnp2rcd13ifvqgvg","pricing_plan_id":"cebpf4jnsgd1na2vs0mg"},{"bike_id":"b18fa4b6-f955-4010-adf6-58434c900536","system_id":"levelo_inurba_marseille","lat":43.31757,"lon":5.39022,"is_reserved":false,"is_disabled":false,"rental_uris":{"android":"levelo://app?vid=b18fa4b6-f955-4010-adf6-58434c900536","ios":"levelo://app?vid=b18fa4b6-f955-4010-adf6-58434c900536"},"vehicle_type_id":"4","last_reported":1729660163,"current_range_meters":24000,"station_id":"ce4bhqp2rcd13ifvqhng","pricing_plan_id":"cebpf4jnsgd1na2vs0mg"},{"bike_id":"b8e95859-8e18-4ff1-81a5-31750270a5ac","system_id":"levelo_inurba_marseille","lat":43.26209,"lon":5.37438,"is_reserved":false,"is_disabled":false,"rental_uris":{"android":"levelo://app?vid=b8e95859-8e18-4ff1-81a5-31750270a5ac","ios":"levelo://app?vid=b8e95859-8e18-4ff1-81a5-31750270a5ac"},"vehicle_type_id":"4","last_reported":1729660163,"current_range_meters":38400,"station_id":"ce4bhgp2rcd13ifvqfc0","pricing_plan_id":"cebpf4jnsgd1na2vs0mg"},{"bike_id":"c803187e-448f-4d8d-ad3a-ff36110a20d0","system_id":"levelo_inurba_marseille","lat":43.307218,"lon":5.366198,"is_reserved":false,"is_disabled":false,"rental_uris":{"android":"levelo://app?vid=c803187e-448f-4d8d-ad3a-ff36110a20d0","ios":"levelo://app?vid=c803187e-448f-4d8d-ad3a-ff36110a20d0"},"vehicle_type_id":"4","last_reported":1729660163,"current_range_meters":37600,"station_id":"ce4bgr92rcd13ifvqc6g","pricing_plan_id":"cebpf4jnsgd1na2vs0mg"},{"bike_id":"61e926f2-d1b9-41a3-9d2d-940a1d1b9897","system_id":"levelo_inurba_marseille","lat":43.28491,"lon":5.38563,"is_reserved":false,"is_disabled":false,"rental_uris":{"android":"levelo://app?vid=61e926f2-d1b9-41a3-9d2d-940a1d1b9897","ios":"levelo://app?vid=61e926f2-d1b9-41a3-9d2d-940a1d1b9897"},"vehicle_type_id":"4","last_reported":1729660163,"current_range_meters":19200,"station_id":"ce4bh8p2rcd13ifvqeb0","pricing_plan_id":"cebpf4jnsgd1na2vs0mg"},{"bike_id":"3fe96bb3-d27a-492d-825f-9bc77dafe8c4","system_id":"levelo_inurba_marseille","lat":43.28082,"lon":5.39669,"is_reserved":false,"is_disabled":false,"rental_uris":{"android":"levelo://app?vid=3fe96bb3-d27a-492d-825f-9bc77dafe8c4","ios":"levelo://app?vid=3fe96bb3-d27a-492d-825f-9bc77dafe8c4"},"vehicle_type_id":"4","last_reported":1729660163,"current_range_meters":28800,"station_id":"ce4bho12rcd13ifvqh2g","pricing_plan_id":"cebpf4jnsgd1na2vs0mg"},{"bike_id":"e64f917e-39a9-4324-8dd2-09ac776b9a36","system_id":"levelo_inurba_marseille","lat":43.27839,"lon":5.39205,"is_reserved":false,"is_disabled":false,"rental_uris":{"android":"levelo://app?vid=e64f917e-39a9-4324-8dd2-09ac776b9a36","ios":"levelo://app?vid=e64f917e-39a9-4324-8dd2-09ac776b9a36"},"vehicle_type_id":"4","last_reported":1729660163,"current_range_meters":34000,"station_id":"ce4bhjp2rcd13ifvqga0","pricing_plan_id":"cebpf4jnsgd1na2vs0mg"},{"bike_id":"4211a73c-1486-408f-80fe-8eb55e0e5fcf","system_id":"levelo_inurba_marseille","lat":43.28466,"lon":5.3589,"is_reserved":false,"is_disabled":false,"rental_uris":{"android":"levelo://app?vid=4211a73c-1486-408f-80fe-8eb55e0e5fcf","ios":"levelo://app?vid=4211a73c-1486-408f-80fe-8eb55e0e5fcf"},"vehicle_type_id":"4","last_reported":1729660163,"current_range_meters":38800,"station_id":"ce4bhah2rcd13ifvqei0","pricing_plan_id":"cebpf4jnsgd1na2vs0mg"},{"bike_id":"56272e14-bc8e-42a4-8def-aa6a5f12bbfa","system_id":"levelo_inurba_marseille","lat":43.29035,"lon":5.38137,"is_reserved":false,"is_disabled":false,"rental_uris":{"android":"levelo://app?vid=56272e14-bc8e-42a4-8def-aa6a5f12bbfa","ios":"levelo://app?vid=56272e14-bc8e-42a4-8def-aa6a5f12bbfa"},"vehicle_type_id":"4","last_reported":1729660163,"current_range_meters":38400,"station_id":"ce4bh4p2rcd13ifvqe1g","pricing_plan_id":"cebpf4jnsgd1na2vs0mg"},{"bike_id":"e8a14ba7-1d21-4b6c-beaa-9bb23fafeb61","system_id":"levelo_inurba_marseille","lat":43.29721,"lon":5.36616,"is_reserved":false,"is_disabled":false,"rental_uris":{"android":"levelo://app?vid=e8a14ba7-1d21-4b6c-beaa-9bb23fafeb61","ios":"levelo://app?vid=e8a14ba7-1d21-4b6c-beaa-9bb23fafeb61"},"vehicle_type_id":"4","last_reported":1729660163,"current_range_meters":38800,"station_id":"ce4bgrp2rcd13ifvqc9g","pricing_plan_id":"cebpf4jnsgd1na2vs0mg"},{"bike_id":"303e4402-c78b-4934-b704-884416136125","system_id":"levelo_inurba_marseille","lat":43.27372,"lon":5.36252,"is_reserved":false,"is_disabled":false,"rental_uris":{"android":"levelo://app?vid=303e4402-c78b-4934-b704-884416136125","ios":"levelo://app?vid=303e4402-c78b-4934-b704-884416136125"},"vehicle_type_id":"4","last_reported":1729660163,"current_range_meters":38400,"station_id":"ce4bhbh2rcd13ifvqeo0","pricing_plan_id":"cebpf4jnsgd1na2vs0mg"},{"bike_id":"79a1e020-318b-42a1-a8c0-a424b1daf69e","system_id":"levelo_inurba_marseille","lat":43.296,"lon":5.36142,"is_reserved":false,"is_disabled":false,"rental_uris":{"android":"levelo://app?vid=79a1e020-318b-42a1-a8c0-a424b1daf69e","ios":"levelo://app?vid=79a1e020-318b-42a1-a8c0-a424b1daf69e"},"vehicle_type_id":"4","last_reported":1729660163,"current_range_meters":2800,"station_id":"","pricing_plan_id":"cebpf4jnsgd1na2vs0mg"},{"bike_id":"135cebe9-ffee-4a96-8e19-ff8188d72ddd","system_id":"levelo_inurba_marseille","lat":43.24392,"lon":5.37059,"is_reserved":false,"is_disabled":false,"rental_uris":{"android":"levelo://app?vid=135cebe9-ffee-4a96-8e19-ff8188d72ddd","ios":"levelo://app?vid=135cebe9-ffee-4a96-8e19-ff8188d72ddd"},"vehicle_type_id":"4","last_reported":1729660163,"current_range_meters":38400,"station_id":"ce4bhhh2rcd13ifvqfk0","pricing_plan_id":"cebpf4jnsgd1na2vs0mg"},{"bike_id":"acaa65b8-5945-4836-8149-16f22818cf43","system_id":"levelo_inurba_marseille","lat":43.30483,"lon":5.37908,"is_reserved":false,"is_disabled":false,"rental_uris":{"android":"levelo://app?vid=acaa65b8-5945-4836-8149-16f22818cf43","ios":"levelo://app?vid=acaa65b8-5945-4836-8149-16f22818cf43"},"vehicle_type_id":"4","last_reported":1729660163,"current_range_meters":35600,"station_id":"ce4bgup2rcd13ifvqcn0","pricing_plan_id":"cebpf4jnsgd1na2vs0mg"},{"bike_id":"c8ceb32e-8b96-4816-90b0-73641ae5ef9c","system_id":"levelo_inurba_marseille","lat":43.29,"lon":5.3562,"is_reserved":false,"is_disabled":false,"rental_uris":{"android":"levelo://app?vid=c8ceb32e-8b96-4816-90b0-73641ae5ef9c","ios":"levelo://app?vid=c8ceb32e-8b96-4816-90b0-73641ae5ef9c"},"vehicle_type_id":"4","last_reported":1729660163,"current_range_meters":38800,"station_id":"ce4bhb92rcd13ifvqen0","pricing_plan_id":"cebpf4jnsgd1na2vs0mg"},{"bike_id":"886e5468-77e3-44e0-b46f-e5786a0eddac","system_id":"levelo_inurba_marseille","lat":43.26216,"lon":5.37444,"is_reserved":false,"is_disabled":false,"rental_uris":{"android":"levelo://app?vid=886e5468-77e3-44e0-b46f-e5786a0eddac","ios":"levelo://app?vid=886e5468-77e3-44e0-b46f-e5786a0eddac"},"vehicle_type_id":"4","last_reported":1729660163,"current_range_meters":38800,"station_id":"ce4bhgp2rcd13ifvqfc0","pricing_plan_id":"cebpf4jnsgd1na2vs0mg"},{"bike_id":"a0174f08-8e79-4e73-8c54-0e7266d91858","system_id":"levelo_inurba_marseille","lat":43.31074,"lon":5.3834,"is_reserved":false,"is_disabled":false,"rental_uris":{"android":"levelo://app?vid=a0174f08-8e79-4e73-8c54-0e7266d91858","ios":"levelo://app?vid=a0174f08-8e79-4e73-8c54-0e7266d91858"},"vehicle_type_id":"4","last_reported":1729660163,"current_range_meters":7200,"station_id":"ce4bgv92rcd13ifvqcr0","pricing_plan_id":"cebpf4jnsgd1na2vs0mg"},{"bike_id":"e20eacab-28c4-4862-9c97-caa408edf48c","system_id":"levelo_inurba_marseille","lat":43.23191,"lon":5.39983,"is_reserved":false,"is_disabled":false,"rental_uris":{"android":"levelo://app?vid=e20eacab-28c4-4862-9c97-caa408edf48c","ios":"levelo://app?vid=e20eacab-28c4-4862-9c97-caa408edf48c"},"vehicle_type_id":"4","last_reported":1729660163,"current_range_meters":24800,"station_id":"ce4bhn12rcd13ifvqgqg","pricing_plan_id":"cebpf4jnsgd1na2vs0mg"},{"bike_id":"86dc5d84-546d-4624-8996-32db93a43917","system_id":"levelo_inurba_marseille","lat":43.30782,"lon":5.37647,"is_reserved":false,"is_disabled":false,"rental_uris":{"android":"levelo://app?vid=86dc5d84-546d-4624-8996-32db93a43917","ios":"levelo://app?vid=86dc5d84-546d-4624-8996-32db93a43917"},"vehicle_type_id":"4","last_reported":1729660163,"current_range_meters":28800,"station_id":"ce4bgv92rcd13ifvqcq0","pricing_plan_id":"cebpf4jnsgd1na2vs0mg"},{"bike_id":"26dd2d29-ae2b-42db-8ac6-529a5fde5f78","system_id":"levelo_inurba_marseille","lat":43.306,"lon":5.37215,"is_reserved":false,"is_disabled":false,"rental_uris":{"android":"levelo://app?vid=26dd2d29-ae2b-42db-8ac6-529a5fde5f78","ios":"levelo://app?vid=26dd2d29-ae2b-42db-8ac6-529a5fde5f78"},"vehicle_type_id":"4","last_reported":1729660163,"current_range_meters":35200,"station_id":"ce4bgqh2rcd13ifvqc4g","pricing_plan_id":"cebpf4jnsgd1na2vs0mg"},{"bike_id":"1cb83924-fa4e-469e-a9f1-5e7168b2f7d6","system_id":"levelo_inurba_marseille","lat":43.23193,"lon":5.35545,"is_reserved":false,"is_disabled":false,"rental_uris":{"android":"levelo://app?vid=1cb83924-fa4e-469e-a9f1-5e7168b2f7d6","ios":"levelo://app?vid=1cb83924-fa4e-469e-a9f1-5e7168b2f7d6"},"vehicle_type_id":"4","last_reported":1729660163,"current_range_meters":5600,"station_id":"ce4bhu92rcd13ifvqi70","pricing_plan_id":"cebpf4jnsgd1na2vs0mg"},{"bike_id":"99be2f0b-b203-4c22-8937-8f959c43549f","system_id":"levelo_inurba_marseille","lat":43.30253,"lon":5.40075,"is_reserved":false,"is_disabled":false,"rental_uris":{"android":"levelo://app?vid=99be2f0b-b203-4c22-8937-8f959c43549f","ios":"levelo://app?vid=99be2f0b-b203-4c22-8937-8f959c43549f"},"vehicle_type_id":"4","last_reported":1729660163,"current_range_meters":32800,"station_id":"ce4bgvh2rcd13ifvqcs0","pricing_plan_id":"cebpf4jnsgd1na2vs0mg"},{"bike_id":"14cfd534-16e4-42fd-9ce8-3a01bdefbe4c","system_id":"levelo_inurba_marseille","lat":43.306413,"lon":5.400767,"is_reserved":false,"is_disabled":false,"rental_uris":{"android":"levelo://app?vid=14cfd534-16e4-42fd-9ce8-3a01bdefbe4c","ios":"levelo://app?vid=14cfd534-16e4-42fd-9ce8-3a01bdefbe4c"},"vehicle_type_id":"4","last_reported":1729660163,"current_range_meters":31200,"station_id":"ce4bh112rcd13ifvqda0","pricing_plan_id":"cebpf4jnsgd1na2vs0mg"},{"bike_id":"1f457502-aa9c-4147-b2fb-e6b8b4340953","system_id":"levelo_inurba_marseille","lat":43.2971,"lon":5.37698,"is_reserved":false,"is_disabled":false,"rental_uris":{"android":"levelo://app?vid=1f457502-aa9c-4147-b2fb-e6b8b4340953","ios":"levelo://app?vid=1f457502-aa9c-4147-b2fb-e6b8b4340953"},"vehicle_type_id":"4","last_reported":1729660163,"current_range_meters":38800,"station_id":"ce4bgkh2rcd13ifvqbl0","pricing_plan_id":"cebpf4jnsgd1na2vs0mg"},{"bike_id":"96cd95b9-9c73-40f2-923c-e2202384412e","system_id":"levelo_inurba_marseille","lat":43.29036,"lon":5.39962,"is_reserved":false,"is_disabled":false,"rental_uris":{"android":"levelo://app?vid=96cd95b9-9c73-40f2-923c-e2202384412e","ios":"levelo://app?vid=96cd95b9-9c73-40f2-923c-e2202384412e"},"vehicle_type_id":"4","last_reported":1729660163,"current_range_meters":38800,"station_id":"ce4bh392rcd13ifvqdm0","pricing_plan_id":"cebpf4jnsgd1na2vs0mg"},{"bike_id":"54fe60dd-2a40-4a45-b210-2a0973cbe7cb","system_id":"levelo_inurba_marseille","lat":43.265641,"lon":5.390152,"is_reserved":false,"is_disabled":false,"rental_uris":{"android":"levelo://app?vid=54fe60dd-2a40-4a45-b210-2a0973cbe7cb","ios":"levelo://app?vid=54fe60dd-2a40-4a45-b210-2a0973cbe7cb"},"vehicle_type_id":"4","last_reported":1729660163,"current_range_meters":38800,"station_id":"ce4bhe12rcd13ifvqf30","pricing_plan_id":"cebpf4jnsgd1na2vs0mg"},{"bike_id":"303058a0-13bc-44e6-b6c1-852a80be8e65","system_id":"levelo_inurba_marseille","lat":43.31888,"lon":5.40732,"is_reserved":false,"is_disabled":false,"rental_uris":{"android":"levelo://app?vid=303058a0-13bc-44e6-b6c1-852a80be8e65","ios":"levelo://app?vid=303058a0-13bc-44e6-b6c1-852a80be8e65"},"vehicle_type_id":"4","last_reported":1729660163,"current_range_meters":22000,"station_id":"ce4bhq12rcd13ifvqhig","pricing_plan_id":"cebpf4jnsgd1na2vs0mg"},{"bike_id":"34be8e3a-eefe-496b-810d-162ce65754e0","system_id":"levelo_inurba_marseille","lat":43.23193,"lon":5.35552,"is_reserved":false,"is_disabled":false,"rental_uris":{"android":"levelo://app?vid=34be8e3a-eefe-496b-810d-162ce65754e0","ios":"levelo://app?vid=34be8e3a-eefe-496b-810d-162ce65754e0"},"vehicle_type_id":"4","last_reported":1729660163,"current_range_meters":38800,"station_id":"ce4bhu92rcd13ifvqi70","pricing_plan_id":"cebpf4jnsgd1na2vs0mg"},{"bike_id":"6f41eea1-82b9-4f57-9729-6d5b1a182422","system_id":"levelo_inurba_marseille","lat":43.31371,"lon":5.38503,"is_reserved":false,"is_disabled":false,"rental_uris":{"android":"levelo://app?vid=6f41eea1-82b9-4f57-9729-6d5b1a182422","ios":"levelo://app?vid=6f41eea1-82b9-4f57-9729-6d5b1a182422"},"vehicle_type_id":"4","last_reported":1729660163,"current_range_meters":16000,"station_id":"ce4bgt92rcd13ifvqcf0","pricing_plan_id":"cebpf4jnsgd1na2vs0mg"},{"bike_id":"90defe12-9ad0-4ed8-9049-013b77458a1d","system_id":"levelo_inurba_marseille","lat":43.29632,"lon":5.40598,"is_reserved":false,"is_disabled":false,"rental_uris":{"android":"levelo://app?vid=90defe12-9ad0-4ed8-9049-013b77458a1d","ios":"levelo://app?vid=90defe12-9ad0-4ed8-9049-013b77458a1d"},"vehicle_type_id":"4","last_reported":1729660163,"current_range_meters":38800,"station_id":"ce4bh0h2rcd13ifvqd60","pricing_plan_id":"cebpf4jnsgd1na2vs0mg"},{"bike_id":"0ac823a5-f565-4570-ae9b-5699dc09c7be","system_id":"levelo_inurba_marseille","lat":43.25503,"lon":5.3765,"is_reserved":false,"is_disabled":false,"rental_uris":{"android":"levelo://app?vid=0ac823a5-f565-4570-ae9b-5699dc09c7be","ios":"levelo://app?vid=0ac823a5-f565-4570-ae9b-5699dc09c7be"},"vehicle_type_id":"4","last_reported":1729660163,"current_range_meters":38400,"station_id":"ce4bhh12rcd13ifvqff0","pricing_plan_id":"cebpf4jnsgd1na2vs0mg"},{"bike_id":"970609af-4437-476a-8d28-851b001bb6b7","system_id":"levelo_inurba_marseille","lat":43.30806,"lon":5.3816,"is_reserved":false,"is_disabled":false,"rental_uris":{"android":"levelo://app?vid=970609af-4437-476a-8d28-851b001bb6b7","ios":"levelo://app?vid=970609af-4437-476a-8d28-851b001bb6b7"},"vehicle_type_id":"4","last_reported":1729660163,"current_range_meters":38000,"station_id":"ce4bgt12rcd13ifvqce0","pricing_plan_id":"cebpf4jnsgd1na2vs0mg"},{"bike_id":"8e40ff46-40ee-4202-a615-be27d36b4e1d","system_id":"levelo_inurba_marseille","lat":43.33732,"lon":5.39184,"is_reserved":false,"is_disabled":false,"rental_uris":{"android":"levelo://app?vid=8e40ff46-40ee-4202-a615-be27d36b4e1d","ios":"levelo://app?vid=8e40ff46-40ee-4202-a615-be27d36b4e1d"},"vehicle_type_id":"4","last_reported":1729660163,"current_range_meters":37600,"station_id":"ce4bhr92rcd13ifvqhsg","pricing_plan_id":"cebpf4jnsgd1na2vs0mg"},{"bike_id":"1cc0d4f8-3038-420c-9265-92004ed5a552","system_id":"levelo_inurba_marseille","lat":43.2792,"lon":5.3959,"is_reserved":false,"is_disabled":false,"rental_uris":{"android":"levelo://app?vid=1cc0d4f8-3038-420c-9265-92004ed5a552","ios":"levelo://app?vid=1cc0d4f8-3038-420c-9265-92004ed5a552"},"vehicle_type_id":"4","last_reported":1729660163,"current_range_meters":38400,"station_id":"ce4bhf92rcd13ifvqf40","pricing_plan_id":"cebpf4jnsgd1na2vs0mg"},{"bike_id":"cc2bf40a-c3a9-4fb3-8f4c-0570e51bda77","system_id":"levelo_inurba_marseille","lat":43.28419,"lon":5.37508,"is_reserved":false,"is_disabled":false,"rental_uris":{"android":"levelo://app?vid=cc2bf40a-c3a9-4fb3-8f4c-0570e51bda77","ios":"levelo://app?vid=cc2bf40a-c3a9-4fb3-8f4c-0570e51bda77"},"vehicle_type_id":"4","last_reported":1729660163,"current_range_meters":9200,"station_id":"ce4bh412rcd13ifvqds0","pricing_plan_id":"cebpf4jnsgd1na2vs0mg"},{"bike_id":"a8fd90e1-0f06-42a3-906b-c91cb727d214","system_id":"levelo_inurba_marseille","lat":43.26835,"lon":5.41116,"is_reserved":false,"is_disabled":false,"rental_uris":{"android":"levelo://app?vid=a8fd90e1-0f06-42a3-906b-c91cb727d214","ios":"levelo://app?vid=a8fd90e1-0f06-42a3-906b-c91cb727d214"},"vehicle_type_id":"4","last_reported":1729660163,"current_range_meters":10000,"station_id":"","pricing_plan_id":"cebpf4jnsgd1na2vs0mg"},{"bike_id":"b2d676a5-de76-49c7-9e76-aeca117b8755","system_id":"levelo_inurba_marseille","lat":43.27907,"lon":5.38008,"is_reserved":false,"is_disabled":false,"rental_uris":{"android":"levelo://app?vid=b2d676a5-de76-49c7-9e76-aeca117b8755","ios":"levelo://app?vid=b2d676a5-de76-49c7-9e76-aeca117b8755"},"vehicle_type_id":"4","last_reported":1729660163,"current_range_meters":26000,"station_id":"ce4bhf92rcd13ifvqf50","pricing_plan_id":"cebpf4jnsgd1na2vs0mg"},{"bike_id":"1e4f408a-7823-4f21-aceb-d6709974f1c5","system_id":"levelo_inurba_marseille","lat":43.23196,"lon":5.35543,"is_reserved":false,"is_disabled":false,"rental_uris":{"android":"levelo://app?vid=1e4f408a-7823-4f21-aceb-d6709974f1c5","ios":"levelo://app?vid=1e4f408a-7823-4f21-aceb-d6709974f1c5"},"vehicle_type_id":"4","last_reported":1729660163,"current_range_meters":23200,"station_id":"ce4bhu92rcd13ifvqi70","pricing_plan_id":"cebpf4jnsgd1na2vs0mg"},{"bike_id":"a0749339-d409-4445-aa58-75b4673a0721","system_id":"levelo_inurba_marseille","lat":43.2558,"lon":5.38231,"is_reserved":false,"is_disabled":false,"rental_uris":{"android":"levelo://app?vid=a0749339-d409-4445-aa58-75b4673a0721","ios":"levelo://app?vid=a0749339-d409-4445-aa58-75b4673a0721"},"vehicle_type_id":"4","last_reported":1729660163,"current_range_meters":25200,"station_id":"ce4bhih2rcd13ifvqfs0","pricing_plan_id":"cebpf4jnsgd1na2vs0mg"},{"bike_id":"24c18e86-322d-4859-8f16-045cb881c275","system_id":"levelo_inurba_marseille","lat":43.30932,"lon":5.40141,"is_reserved":false,"is_disabled":false,"rental_uris":{"android":"levelo://app?vid=24c18e86-322d-4859-8f16-045cb881c275","ios":"levelo://app?vid=24c18e86-322d-4859-8f16-045cb881c275"},"vehicle_type_id":"4","last_reported":1729660163,"current_range_meters":33600,"station_id":"ce4bgvp2rcd13ifvqct0","pricing_plan_id":"cebpf4jnsgd1na2vs0mg"},{"bike_id":"e3fddba7-8db6-417a-9d14-bf70d08420d4","system_id":"levelo_inurba_marseille","lat":43.30642,"lon":5.40071,"is_reserved":false,"is_disabled":false,"rental_uris":{"android":"levelo://app?vid=e3fddba7-8db6-417a-9d14-bf70d08420d4","ios":"levelo://app?vid=e3fddba7-8db6-417a-9d14-bf70d08420d4"},"vehicle_type_id":"4","last_reported":1729660163,"current_range_meters":26000,"station_id":"ce4bh112rcd13ifvqda0","pricing_plan_id":"cebpf4jnsgd1na2vs0mg"},{"bike_id":"29665abb-bb05-4470-bec8-a92af688bd5f","system_id":"levelo_inurba_marseille","lat":43.29555,"lon":5.42286,"is_reserved":false,"is_disabled":false,"rental_uris":{"android":"levelo://app?vid=29665abb-bb05-4470-bec8-a92af688bd5f","ios":"levelo://app?vid=29665abb-bb05-4470-bec8-a92af688bd5f"},"vehicle_type_id":"4","last_reported":1729660163,"current_range_meters":30400,"station_id":"ce4bhph2rcd13ifvqhdg","pricing_plan_id":"cebpf4jnsgd1na2vs0mg"},{"bike_id":"f1c395d2-e37c-4343-915a-7fee31a72ae2","system_id":"levelo_inurba_marseille","lat":43.287323,"lon":5.365042,"is_reserved":false,"is_disabled":false,"rental_uris":{"android":"levelo://app?vid=f1c395d2-e37c-4343-915a-7fee31a72ae2","ios":"levelo://app?vid=f1c395d2-e37c-4343-915a-7fee31a72ae2"},"vehicle_type_id":"4","last_reported":1729660163,"current_range_meters":32000,"station_id":"ce4bhqp2rcd13ifvqhng","pricing_plan_id":"cebpf4jnsgd1na2vs0mg"},{"bike_id":"c3945b60-e38d-4106-8f18-92c7f436cc4f","system_id":"levelo_inurba_marseille","lat":43.33757,"lon":5.37448,"is_reserved":false,"is_disabled":false,"rental_uris":{"android":"levelo://app?vid=c3945b60-e38d-4106-8f18-92c7f436cc4f","ios":"levelo://app?vid=c3945b60-e38d-4106-8f18-92c7f436cc4f"},"vehicle_type_id":"4","last_reported":1729660163,"current_range_meters":28400,"station_id":"","pricing_plan_id":"cebpf4jnsgd1na2vs0mg"},{"bike_id":"28281844-b5e2-4474-abac-8fadc08d4ed6","system_id":"levelo_inurba_marseille","lat":43.312722,"lon":5.401672,"is_reserved":false,"is_disabled":false,"rental_uris":{"android":"levelo://app?vid=28281844-b5e2-4474-abac-8fadc08d4ed6","ios":"levelo://app?vid=28281844-b5e2-4474-abac-8fadc08d4ed6"},"vehicle_type_id":"4","last_reported":1729660163,"current_range_meters":37600,"station_id":"ce4bh092rcd13ifvqd30","pricing_plan_id":"cebpf4jnsgd1na2vs0mg"},{"bike_id":"362dd47a-a0a2-4fcc-86ce-5b0a1c4cac31","system_id":"levelo_inurba_marseille","lat":43.27367,"lon":5.36256,"is_reserved":false,"is_disabled":false,"rental_uris":{"android":"levelo://app?vid=362dd47a-a0a2-4fcc-86ce-5b0a1c4cac31","ios":"levelo://app?vid=362dd47a-a0a2-4fcc-86ce-5b0a1c4cac31"},"vehicle_type_id":"4","last_reported":1729660163,"current_range_meters":38800,"station_id":"ce4bhbh2rcd13ifvqeo0","pricing_plan_id":"cebpf4jnsgd1na2vs0mg"},{"bike_id":"054f98d4-2683-4ee1-9d6b-9b0b8ce093a8","system_id":"levelo_inurba_marseille","lat":43.24545,"lon":5.39518,"is_reserved":false,"is_disabled":false,"rental_uris":{"android":"levelo://app?vid=054f98d4-2683-4ee1-9d6b-9b0b8ce093a8","ios":"levelo://app?vid=054f98d4-2683-4ee1-9d6b-9b0b8ce093a8"},"vehicle_type_id":"4","last_reported":1729660163,"current_range_meters":38400,"station_id":"ce4bhlp2rcd13ifvqgjg","pricing_plan_id":"cebpf4jnsgd1na2vs0mg"},{"bike_id":"be3dda55-bc41-4f41-91f3-f753406854f7","system_id":"levelo_inurba_marseille","lat":43.27817,"lon":5.40715,"is_reserved":false,"is_disabled":false,"rental_uris":{"android":"levelo://app?vid=be3dda55-bc41-4f41-91f3-f753406854f7","ios":"levelo://app?vid=be3dda55-bc41-4f41-91f3-f753406854f7"},"vehicle_type_id":"4","last_reported":1729660163,"current_range_meters":38800,"station_id":"ce4bhnh2rcd13ifvqgtg","pricing_plan_id":"cebpf4jnsgd1na2vs0mg"},{"bike_id":"1aa61073-a9c6-4036-b8d8-b5f32ec1c844","system_id":"levelo_inurba_marseille","lat":43.23185,"lon":5.40001,"is_reserved":false,"is_disabled":false,"rental_uris":{"android":"levelo://app?vid=1aa61073-a9c6-4036-b8d8-b5f32ec1c844","ios":"levelo://app?vid=1aa61073-a9c6-4036-b8d8-b5f32ec1c844"},"vehicle_type_id":"4","last_reported":1729660163,"current_range_meters":33600,"station_id":"ce4bhn12rcd13ifvqgqg","pricing_plan_id":"cebpf4jnsgd1na2vs0mg"},{"bike_id":"5304e6d2-a025-4504-9ff2-0054277e008d","system_id":"levelo_inurba_marseille","lat":43.27369,"lon":5.3626,"is_reserved":false,"is_disabled":false,"rental_uris":{"android":"levelo://app?vid=5304e6d2-a025-4504-9ff2-0054277e008d","ios":"levelo://app?vid=5304e6d2-a025-4504-9ff2-0054277e008d"},"vehicle_type_id":"4","last_reported":1729660163,"current_range_meters":38000,"station_id":"ce4bhbh2rcd13ifvqeo0","pricing_plan_id":"cebpf4jnsgd1na2vs0mg"},{"bike_id":"056d4fe2-0ff2-4690-9efc-6ac5f13cc30f","system_id":"levelo_inurba_marseille","lat":43.281056,"lon":5.378393,"is_reserved":false,"is_disabled":false,"rental_uris":{"android":"levelo://app?vid=056d4fe2-0ff2-4690-9efc-6ac5f13cc30f","ios":"levelo://app?vid=056d4fe2-0ff2-4690-9efc-6ac5f13cc30f"},"vehicle_type_id":"4","last_reported":1729660163,"current_range_meters":38800,"station_id":"ce4bha12rcd13ifvqee0","pricing_plan_id":"cebpf4jnsgd1na2vs0mg"},{"bike_id":"0ee38f66-ee8f-4341-8b97-438d0d625d0c","system_id":"levelo_inurba_marseille","lat":43.30281,"lon":5.37701,"is_reserved":false,"is_disabled":false,"rental_uris":{"android":"levelo://app?vid=0ee38f66-ee8f-4341-8b97-438d0d625d0c","ios":"levelo://app?vid=0ee38f66-ee8f-4341-8b97-438d0d625d0c"},"vehicle_type_id":"4","last_reported":1729660163,"current_range_meters":38800,"station_id":"ce4bguh2rcd13ifvqcj0","pricing_plan_id":"cebpf4jnsgd1na2vs0mg"},{"bike_id":"b970f848-ffd2-4907-bec4-9c1f054033d4","system_id":"levelo_inurba_marseille","lat":43.32339,"lon":5.40615,"is_reserved":false,"is_disabled":false,"rental_uris":{"android":"levelo://app?vid=b970f848-ffd2-4907-bec4-9c1f054033d4","ios":"levelo://app?vid=b970f848-ffd2-4907-bec4-9c1f054033d4"},"vehicle_type_id":"4","last_reported":1729660163,"current_range_meters":30000,"station_id":"ce4bhq92rcd13ifvqhjg","pricing_plan_id":"cebpf4jnsgd1na2vs0mg"},{"bike_id":"1135af4d-b7d7-4190-b0cb-6113c69ae2ea","system_id":"levelo_inurba_marseille","lat":43.27378,"lon":5.36255,"is_reserved":false,"is_disabled":false,"rental_uris":{"android":"levelo://app?vid=1135af4d-b7d7-4190-b0cb-6113c69ae2ea","ios":"levelo://app?vid=1135af4d-b7d7-4190-b0cb-6113c69ae2ea"},"vehicle_type_id":"4","last_reported":1729660163,"current_range_meters":38800,"station_id":"ce4bhbh2rcd13ifvqeo0","pricing_plan_id":"cebpf4jnsgd1na2vs0mg"},{"bike_id":"3af337b1-4096-493c-9221-0107a2ba6d39","system_id":"levelo_inurba_marseille","lat":43.311673,"lon":5.387193,"is_reserved":false,"is_disabled":false,"rental_uris":{"android":"levelo://app?vid=3af337b1-4096-493c-9221-0107a2ba6d39","ios":"levelo://app?vid=3af337b1-4096-493c-9221-0107a2ba6d39"},"vehicle_type_id":"4","last_reported":1729660163,"current_range_meters":29600,"station_id":"ce4bgv12rcd13ifvqcp0","pricing_plan_id":"cebpf4jnsgd1na2vs0mg"},{"bike_id":"c763553b-c83c-450c-a8f1-7806bafe14a6","system_id":"levelo_inurba_marseille","lat":43.32495,"lon":5.3657,"is_reserved":false,"is_disabled":false,"rental_uris":{"android":"levelo://app?vid=c763553b-c83c-450c-a8f1-7806bafe14a6","ios":"levelo://app?vid=c763553b-c83c-450c-a8f1-7806bafe14a6"},"vehicle_type_id":"4","last_reported":1729660163,"current_range_meters":22800,"station_id":"ce4bhs12rcd13ifvqhvg","pricing_plan_id":"cebpf4jnsgd1na2vs0mg"},{"bike_id":"81d97d25-6b95-4a79-9a7f-f6f9ad475c13","system_id":"levelo_inurba_marseille","lat":43.28462,"lon":5.35881,"is_reserved":false,"is_disabled":false,"rental_uris":{"android":"levelo://app?vid=81d97d25-6b95-4a79-9a7f-f6f9ad475c13","ios":"levelo://app?vid=81d97d25-6b95-4a79-9a7f-f6f9ad475c13"},"vehicle_type_id":"4","last_reported":1729660163,"current_range_meters":38000,"station_id":"ce4bhah2rcd13ifvqei0","pricing_plan_id":"cebpf4jnsgd1na2vs0mg"},{"bike_id":"06133ffa-30bf-4295-8e86-a7666d88ed19","system_id":"levelo_inurba_marseille","lat":43.30154,"lon":5.39883,"is_reserved":false,"is_disabled":false,"rental_uris":{"android":"levelo://app?vid=06133ffa-30bf-4295-8e86-a7666d88ed19","ios":"levelo://app?vid=06133ffa-30bf-4295-8e86-a7666d88ed19"},"vehicle_type_id":"4","last_reported":1729660163,"current_range_meters":38800,"station_id":"ce4bh0h2rcd13ifvqd40","pricing_plan_id":"cebpf4jnsgd1na2vs0mg"},{"bike_id":"8f34dca2-e523-475a-85e5-be2164d16e3c","system_id":"levelo_inurba_marseille","lat":43.281065,"lon":5.378414,"is_reserved":false,"is_disabled":false,"rental_uris":{"android":"levelo://app?vid=8f34dca2-e523-475a-85e5-be2164d16e3c","ios":"levelo://app?vid=8f34dca2-e523-475a-85e5-be2164d16e3c"},"vehicle_type_id":"4","last_reported":1729660163,"current_range_meters":38400,"station_id":"ce4bha12rcd13ifvqee0","pricing_plan_id":"cebpf4jnsgd1na2vs0mg"},{"bike_id":"929c91b4-321d-4830-be4b-17e0e65046ac","system_id":"levelo_inurba_marseille","lat":43.23181,"lon":5.4,"is_reserved":false,"is_disabled":false,"rental_uris":{"android":"levelo://app?vid=929c91b4-321d-4830-be4b-17e0e65046ac","ios":"levelo://app?vid=929c91b4-321d-4830-be4b-17e0e65046ac"},"vehicle_type_id":"4","last_reported":1729660163,"current_range_meters":6800,"station_id":"ce4bhn12rcd13ifvqgqg","pricing_plan_id":"cebpf4jnsgd1na2vs0mg"},{"bike_id":"db5ace12-daf6-423f-ae42-c8b56153cf6d","system_id":"levelo_inurba_marseille","lat":43.30932,"lon":5.40136,"is_reserved":false,"is_disabled":false,"rental_uris":{"android":"levelo://app?vid=db5ace12-daf6-423f-ae42-c8b56153cf6d","ios":"levelo://app?vid=db5ace12-daf6-423f-ae42-c8b56153cf6d"},"vehicle_type_id":"4","last_reported":1729660163,"current_range_meters":38800,"station_id":"ce4bgvp2rcd13ifvqct0","pricing_plan_id":"cebpf4jnsgd1na2vs0mg"},{"bike_id":"946611bd-808f-42aa-8d8e-3a209538d209","system_id":"levelo_inurba_marseille","lat":43.24081,"lon":5.37747,"is_reserved":false,"is_disabled":false,"rental_uris":{"android":"levelo://app?vid=946611bd-808f-42aa-8d8e-3a209538d209","ios":"levelo://app?vid=946611bd-808f-42aa-8d8e-3a209538d209"},"vehicle_type_id":"4","last_reported":1729660163,"current_range_meters":10000,"station_id":"ce4bhnp2rcd13ifvqgvg","pricing_plan_id":"cebpf4jnsgd1na2vs0mg"},{"bike_id":"228c4c46-b812-4754-8528-e0309c434b70","system_id":"levelo_inurba_marseille","lat":43.28439,"lon":5.39189,"is_reserved":false,"is_disabled":false,"rental_uris":{"android":"levelo://app?vid=228c4c46-b812-4754-8528-e0309c434b70","ios":"levelo://app?vid=228c4c46-b812-4754-8528-e0309c434b70"},"vehicle_type_id":"4","last_reported":1729660163,"current_range_meters":38800,"station_id":"ce4bhoh2rcd13ifvqh5g","pricing_plan_id":"cebpf4jnsgd1na2vs0mg"},{"bike_id":"e13e1994-64c0-4a33-890e-5154997bb10a","system_id":"levelo_inurba_marseille","lat":43.27063,"lon":5.42276,"is_reserved":false,"is_disabled":false,"rental_uris":{"android":"levelo://app?vid=e13e1994-64c0-4a33-890e-5154997bb10a","ios":"levelo://app?vid=e13e1994-64c0-4a33-890e-5154997bb10a"},"vehicle_type_id":"4","last_reported":1729660163,"current_range_meters":38800,"station_id":"ce4bhk92rcd13ifvqgb0","pricing_plan_id":"cebpf4jnsgd1na2vs0mg"},{"bike_id":"78118cc0-b013-4f91-a854-b7081797eb11","system_id":"levelo_inurba_marseille","lat":43.29634,"lon":5.40595,"is_reserved":false,"is_disabled":false,"rental_uris":{"android":"levelo://app?vid=78118cc0-b013-4f91-a854-b7081797eb11","ios":"levelo://app?vid=78118cc0-b013-4f91-a854-b7081797eb11"},"vehicle_type_id":"4","last_reported":1729660163,"current_range_meters":10000,"station_id":"ce4bh0h2rcd13ifvqd60","pricing_plan_id":"cebpf4jnsgd1na2vs0mg"},{"bike_id":"78dd845c-fc34-4928-9892-3ff12866b800","system_id":"levelo_inurba_marseille","lat":43.31696,"lon":5.40465,"is_reserved":false,"is_disabled":false,"rental_uris":{"android":"levelo://app?vid=78dd845c-fc34-4928-9892-3ff12866b800","ios":"levelo://app?vid=78dd845c-fc34-4928-9892-3ff12866b800"},"vehicle_type_id":"4","last_reported":1729660163,"current_range_meters":28000,"station_id":"ce4bh012rcd13ifvqd00","pricing_plan_id":"cebpf4jnsgd1na2vs0mg"},{"bike_id":"5f1556bb-7ce9-47ab-b5fa-fa2119e042b8","system_id":"levelo_inurba_marseille","lat":43.29041,"lon":5.39976,"is_reserved":false,"is_disabled":false,"rental_uris":{"android":"levelo://app?vid=5f1556bb-7ce9-47ab-b5fa-fa2119e042b8","ios":"levelo://app?vid=5f1556bb-7ce9-47ab-b5fa-fa2119e042b8"},"vehicle_type_id":"4","last_reported":1729660163,"current_range_meters":39200,"station_id":"ce4bh392rcd13ifvqdm0","pricing_plan_id":"cebpf4jnsgd1na2vs0mg"},{"bike_id":"4a7abcc4-a1fa-417b-8ffa-a28e55985c43","system_id":"levelo_inurba_marseille","lat":43.24081,"lon":5.37758,"is_reserved":false,"is_disabled":false,"rental_uris":{"android":"levelo://app?vid=4a7abcc4-a1fa-417b-8ffa-a28e55985c43","ios":"levelo://app?vid=4a7abcc4-a1fa-417b-8ffa-a28e55985c43"},"vehicle_type_id":"4","last_reported":1729660163,"current_range_meters":38000,"station_id":"ce4bhnp2rcd13ifvqgvg","pricing_plan_id":"cebpf4jnsgd1na2vs0mg"},{"bike_id":"cdba8dd9-10d6-4358-97ce-fe5c3999d55d","system_id":"levelo_inurba_marseille","lat":43.30352,"lon":5.41875,"is_reserved":false,"is_disabled":false,"rental_uris":{"android":"levelo://app?vid=cdba8dd9-10d6-4358-97ce-fe5c3999d55d","ios":"levelo://app?vid=cdba8dd9-10d6-4358-97ce-fe5c3999d55d"},"vehicle_type_id":"4","last_reported":1729660163,"current_range_meters":38800,"station_id":"ce4bhop2rcd13ifvqh7g","pricing_plan_id":"cebpf4jnsgd1na2vs0mg"},{"bike_id":"fd57e210-0cdc-4006-846d-96114f8f6035","system_id":"levelo_inurba_marseille","lat":43.26565,"lon":5.390128,"is_reserved":false,"is_disabled":false,"rental_uris":{"android":"levelo://app?vid=fd57e210-0cdc-4006-846d-96114f8f6035","ios":"levelo://app?vid=fd57e210-0cdc-4006-846d-96114f8f6035"},"vehicle_type_id":"4","last_reported":1729660163,"current_range_meters":14800,"station_id":"ce4bhe12rcd13ifvqf30","pricing_plan_id":"cebpf4jnsgd1na2vs0mg"},{"bike_id":"70b63f5a-0b57-488d-a520-164feb1eb8de","system_id":"levelo_inurba_marseille","lat":43.29803,"lon":5.40406,"is_reserved":false,"is_disabled":false,"rental_uris":{"android":"levelo://app?vid=70b63f5a-0b57-488d-a520-164feb1eb8de","ios":"levelo://app?vid=70b63f5a-0b57-488d-a520-164feb1eb8de"},"vehicle_type_id":"4","last_reported":1729660163,"current_range_meters":38000,"station_id":"ce4bh112rcd13ifvqd90","pricing_plan_id":"cebpf4jnsgd1na2vs0mg"},{"bike_id":"af39c80e-bebc-45d4-b1ab-aa2ef6cf1545","system_id":"levelo_inurba_marseille","lat":43.30891,"lon":5.39634,"is_reserved":false,"is_disabled":false,"rental_uris":{"android":"levelo://app?vid=af39c80e-bebc-45d4-b1ab-aa2ef6cf1545","ios":"levelo://app?vid=af39c80e-bebc-45d4-b1ab-aa2ef6cf1545"},"vehicle_type_id":"4","last_reported":1729660163,"current_range_meters":23200,"station_id":"ce4bh012rcd13ifvqcv0","pricing_plan_id":"cebpf4jnsgd1na2vs0mg"},{"bike_id":"fed29e3d-ded9-4536-b5e9-762e6c2a1343","system_id":"levelo_inurba_marseille","lat":43.29961,"lon":5.39193,"is_reserved":false,"is_disabled":false,"rental_uris":{"android":"levelo://app?vid=fed29e3d-ded9-4536-b5e9-762e6c2a1343","ios":"levelo://app?vid=fed29e3d-ded9-4536-b5e9-762e6c2a1343"},"vehicle_type_id":"4","last_reported":1729660163,"current_range_meters":14800,"station_id":"ce4bghh2rcd13ifvqb60","pricing_plan_id":"cebpf4jnsgd1na2vs0mg"},{"bike_id":"3f3a3ebf-fa05-44bb-b950-628029747f28","system_id":"levelo_inurba_marseille","lat":43.27065,"lon":5.42271,"is_reserved":false,"is_disabled":false,"rental_uris":{"android":"levelo://app?vid=3f3a3ebf-fa05-44bb-b950-628029747f28","ios":"levelo://app?vid=3f3a3ebf-fa05-44bb-b950-628029747f28"},"vehicle_type_id":"4","last_reported":1729660163,"current_range_meters":37600,"station_id":"ce4bhk92rcd13ifvqgb0","pricing_plan_id":"cebpf4jnsgd1na2vs0mg"},{"bike_id":"6f3c99f6-25c2-4dd4-ba80-ca7e8e0ba65e","system_id":"levelo_inurba_marseille","lat":43.28154,"lon":5.42655,"is_reserved":false,"is_disabled":false,"rental_uris":{"android":"levelo://app?vid=6f3c99f6-25c2-4dd4-ba80-ca7e8e0ba65e","ios":"levelo://app?vid=6f3c99f6-25c2-4dd4-ba80-ca7e8e0ba65e"},"vehicle_type_id":"4","last_reported":1729660163,"current_range_meters":8400,"station_id":"ce4bhnh2rcd13ifvqgug","pricing_plan_id":"cebpf4jnsgd1na2vs0mg"},{"bike_id":"ad760254-cc3c-4e2c-9420-2ef8e0d6528d","system_id":"levelo_inurba_marseille","lat":43.326513,"lon":5.409903,"is_reserved":false,"is_disabled":false,"rental_uris":{"android":"levelo://app?vid=ad760254-cc3c-4e2c-9420-2ef8e0d6528d","ios":"levelo://app?vid=ad760254-cc3c-4e2c-9420-2ef8e0d6528d"},"vehicle_type_id":"4","last_reported":1729660163,"current_range_meters":16000,"station_id":"ce4bhpp2rcd13ifvqhgg","pricing_plan_id":"cebpf4jnsgd1na2vs0mg"},{"bike_id":"993e42e3-100d-4f8a-9cfa-31f61648f6b8","system_id":"levelo_inurba_marseille","lat":43.28932,"lon":5.36627,"is_reserved":false,"is_disabled":false,"rental_uris":{"android":"levelo://app?vid=993e42e3-100d-4f8a-9cfa-31f61648f6b8","ios":"levelo://app?vid=993e42e3-100d-4f8a-9cfa-31f61648f6b8"},"vehicle_type_id":"4","last_reported":1729660163,"current_range_meters":38800,"station_id":"ce4bhap2rcd13ifvqek0","pricing_plan_id":"cebpf4jnsgd1na2vs0mg"},{"bike_id":"fc1f2207-b274-41d6-84e8-a4801003d752","system_id":"levelo_inurba_marseille","lat":43.30426,"lon":5.38889,"is_reserved":false,"is_disabled":false,"rental_uris":{"android":"levelo://app?vid=fc1f2207-b274-41d6-84e8-a4801003d752","ios":"levelo://app?vid=fc1f2207-b274-41d6-84e8-a4801003d752"},"vehicle_type_id":"4","last_reported":1729660163,"current_range_meters":25600,"station_id":"ce4bgk12rcd13ifvqbi0","pricing_plan_id":"cebpf4jnsgd1na2vs0mg"},{"bike_id":"01678755-0ad9-4bb7-8723-5a8d7c4420fc","system_id":"levelo_inurba_marseille","lat":43.28057,"lon":5.40975,"is_reserved":false,"is_disabled":false,"rental_uris":{"android":"levelo://app?vid=01678755-0ad9-4bb7-8723-5a8d7c4420fc","ios":"levelo://app?vid=01678755-0ad9-4bb7-8723-5a8d7c4420fc"},"vehicle_type_id":"4","last_reported":1729660163,"current_range_meters":16800,"station_id":"","pricing_plan_id":"cebpf4jnsgd1na2vs0mg"},{"bike_id":"2fb9d5ac-a82c-4393-9767-245086c7d1cd","system_id":"levelo_inurba_marseille","lat":43.308846,"lon":5.396347,"is_reserved":false,"is_disabled":false,"rental_uris":{"android":"levelo://app?vid=2fb9d5ac-a82c-4393-9767-245086c7d1cd","ios":"levelo://app?vid=2fb9d5ac-a82c-4393-9767-245086c7d1cd"},"vehicle_type_id":"4","last_reported":1729660163,"current_range_meters":38800,"station_id":"ce4bh012rcd13ifvqcv0","pricing_plan_id":"cebpf4jnsgd1na2vs0mg"},{"bike_id":"4a17de49-0eb0-4f62-b4f3-5313bdc17ba8","system_id":"levelo_inurba_marseille","lat":43.30636,"lon":5.4008,"is_reserved":false,"is_disabled":false,"rental_uris":{"android":"levelo://app?vid=4a17de49-0eb0-4f62-b4f3-5313bdc17ba8","ios":"levelo://app?vid=4a17de49-0eb0-4f62-b4f3-5313bdc17ba8"},"vehicle_type_id":"4","last_reported":1729660163,"current_range_meters":36800,"station_id":"ce4bh112rcd13ifvqda0","pricing_plan_id":"cebpf4jnsgd1na2vs0mg"},{"bike_id":"37c63ec2-b386-41dc-8477-af50a00e328e","system_id":"levelo_inurba_marseille","lat":43.30097,"lon":5.3908,"is_reserved":false,"is_disabled":false,"rental_uris":{"android":"levelo://app?vid=37c63ec2-b386-41dc-8477-af50a00e328e","ios":"levelo://app?vid=37c63ec2-b386-41dc-8477-af50a00e328e"},"vehicle_type_id":"4","last_reported":1729660163,"current_range_meters":38400,"station_id":"ce4bgip2rcd13ifvqbb0","pricing_plan_id":"cebpf4jnsgd1na2vs0mg"},{"bike_id":"3dee495a-7a37-40c3-9d5a-0edc49499f73","system_id":"levelo_inurba_marseille","lat":43.2791,"lon":5.38004,"is_reserved":false,"is_disabled":false,"rental_uris":{"android":"levelo://app?vid=3dee495a-7a37-40c3-9d5a-0edc49499f73","ios":"levelo://app?vid=3dee495a-7a37-40c3-9d5a-0edc49499f73"},"vehicle_type_id":"4","last_reported":1729660163,"current_range_meters":27200,"station_id":"ce4bhf92rcd13ifvqf50","pricing_plan_id":"cebpf4jnsgd1na2vs0mg"},{"bike_id":"0d66885d-85c4-4297-beb3-a0057b8663cf","system_id":"levelo_inurba_marseille","lat":43.2439,"lon":5.37053,"is_reserved":false,"is_disabled":false,"rental_uris":{"android":"levelo://app?vid=0d66885d-85c4-4297-beb3-a0057b8663cf","ios":"levelo://app?vid=0d66885d-85c4-4297-beb3-a0057b8663cf"},"vehicle_type_id":"4","last_reported":1729660163,"current_range_meters":28400,"station_id":"ce4bhhh2rcd13ifvqfk0","pricing_plan_id":"cebpf4jnsgd1na2vs0mg"},{"bike_id":"45744527-696d-4cfd-bc2e-e4a94e9b8112","system_id":"levelo_inurba_marseille","lat":43.30475,"lon":5.37909,"is_reserved":false,"is_disabled":false,"rental_uris":{"android":"levelo://app?vid=45744527-696d-4cfd-bc2e-e4a94e9b8112","ios":"levelo://app?vid=45744527-696d-4cfd-bc2e-e4a94e9b8112"},"vehicle_type_id":"4","last_reported":1729660163,"current_range_meters":32800,"station_id":"ce4bgup2rcd13ifvqcn0","pricing_plan_id":"cebpf4jnsgd1na2vs0mg"},{"bike_id":"e68074ff-f5e2-424b-ac9b-aa2b95174368","system_id":"levelo_inurba_marseille","lat":43.28151,"lon":5.42646,"is_reserved":false,"is_disabled":false,"rental_uris":{"android":"levelo://app?vid=e68074ff-f5e2-424b-ac9b-aa2b95174368","ios":"levelo://app?vid=e68074ff-f5e2-424b-ac9b-aa2b95174368"},"vehicle_type_id":"4","last_reported":1729660163,"current_range_meters":27600,"station_id":"ce4bhnh2rcd13ifvqgug","pricing_plan_id":"cebpf4jnsgd1na2vs0mg"},{"bike_id":"735a2476-fda6-486b-84ef-88a4c55ff9ea","system_id":"levelo_inurba_marseille","lat":43.2866,"lon":5.3636,"is_reserved":false,"is_disabled":false,"rental_uris":{"android":"levelo://app?vid=735a2476-fda6-486b-84ef-88a4c55ff9ea","ios":"levelo://app?vid=735a2476-fda6-486b-84ef-88a4c55ff9ea"},"vehicle_type_id":"4","last_reported":1729660163,"current_range_meters":18000,"station_id":"ce4bhah2rcd13ifvqej0","pricing_plan_id":"cebpf4jnsgd1na2vs0mg"},{"bike_id":"815dd284-1bd2-4bb9-992a-b2116e2485bc","system_id":"levelo_inurba_marseille","lat":43.32899,"lon":5.36428,"is_reserved":false,"is_disabled":false,"rental_uris":{"android":"levelo://app?vid=815dd284-1bd2-4bb9-992a-b2116e2485bc","ios":"levelo://app?vid=815dd284-1bd2-4bb9-992a-b2116e2485bc"},"vehicle_type_id":"4","last_reported":1729660163,"current_range_meters":30400,"station_id":"","pricing_plan_id":"cebpf4jnsgd1na2vs0mg"},{"bike_id":"3c161d3a-ed17-4363-b7c5-867698fc78e2","system_id":"levelo_inurba_marseille","lat":43.31176,"lon":5.38715,"is_reserved":false,"is_disabled":false,"rental_uris":{"android":"levelo://app?vid=3c161d3a-ed17-4363-b7c5-867698fc78e2","ios":"levelo://app?vid=3c161d3a-ed17-4363-b7c5-867698fc78e2"},"vehicle_type_id":"4","last_reported":1729660163,"current_range_meters":20400,"station_id":"ce4bgv12rcd13ifvqcp0","pricing_plan_id":"cebpf4jnsgd1na2vs0mg"},{"bike_id":"18dd70fc-d51a-4bcf-95bb-093e4188314c","system_id":"levelo_inurba_marseille","lat":43.28859,"lon":5.39319,"is_reserved":false,"is_disabled":false,"rental_uris":{"android":"levelo://app?vid=18dd70fc-d51a-4bcf-95bb-093e4188314c","ios":"levelo://app?vid=18dd70fc-d51a-4bcf-95bb-093e4188314c"},"vehicle_type_id":"4","last_reported":1729660163,"current_range_meters":38400,"station_id":"ce4bh2p2rcd13ifvqdi0","pricing_plan_id":"cebpf4jnsgd1na2vs0mg"},{"bike_id":"ac1a5b8a-9b71-45b7-a521-3579a82af80a","system_id":"levelo_inurba_marseille","lat":43.29714,"lon":5.36618,"is_reserved":false,"is_disabled":false,"rental_uris":{"android":"levelo://app?vid=ac1a5b8a-9b71-45b7-a521-3579a82af80a","ios":"levelo://app?vid=ac1a5b8a-9b71-45b7-a521-3579a82af80a"},"vehicle_type_id":"4","last_reported":1729660163,"current_range_meters":36000,"station_id":"ce4bgn12rcd13ifvqbt0","pricing_plan_id":"cebpf4jnsgd1na2vs0mg"},{"bike_id":"9ff64a80-fbeb-434b-b02d-660129a509df","system_id":"levelo_inurba_marseille","lat":43.28415,"lon":5.37515,"is_reserved":false,"is_disabled":false,"rental_uris":{"android":"levelo://app?vid=9ff64a80-fbeb-434b-b02d-660129a509df","ios":"levelo://app?vid=9ff64a80-fbeb-434b-b02d-660129a509df"},"vehicle_type_id":"4","last_reported":1729660163,"current_range_meters":19600,"station_id":"ce4bh412rcd13ifvqds0","pricing_plan_id":"cebpf4jnsgd1na2vs0mg"},{"bike_id":"b3b3aa1c-cd4d-4c72-b22c-122608d374e3","system_id":"levelo_inurba_marseille","lat":43.25112,"lon":5.40328,"is_reserved":false,"is_disabled":false,"rental_uris":{"android":"levelo://app?vid=b3b3aa1c-cd4d-4c72-b22c-122608d374e3","ios":"levelo://app?vid=b3b3aa1c-cd4d-4c72-b22c-122608d374e3"},"vehicle_type_id":"4","last_reported":1729660163,"current_range_meters":38000,"station_id":"ce4bhlh2rcd13ifvqgig","pricing_plan_id":"cebpf4jnsgd1na2vs0mg"},{"bike_id":"b12e2982-94d6-4ac5-9dd3-65ee3dd50d75","system_id":"levelo_inurba_marseille","lat":43.30556,"lon":5.38442,"is_reserved":false,"is_disabled":false,"rental_uris":{"android":"levelo://app?vid=b12e2982-94d6-4ac5-9dd3-65ee3dd50d75","ios":"levelo://app?vid=b12e2982-94d6-4ac5-9dd3-65ee3dd50d75"},"vehicle_type_id":"4","last_reported":1729660163,"current_range_meters":38000,"station_id":"ce4bgg92rcd13ifvqb30","pricing_plan_id":"cebpf4jnsgd1na2vs0mg"},{"bike_id":"627811a9-4978-496f-972a-e45837dda420","system_id":"levelo_inurba_marseille","lat":43.27496,"lon":5.42452,"is_reserved":false,"is_disabled":false,"rental_uris":{"android":"levelo://app?vid=627811a9-4978-496f-972a-e45837dda420","ios":"levelo://app?vid=627811a9-4978-496f-972a-e45837dda420"},"vehicle_type_id":"4","last_reported":1729660163,"current_range_meters":12800,"station_id":"ce4bhn92rcd13ifvqgrg","pricing_plan_id":"cebpf4jnsgd1na2vs0mg"},{"bike_id":"6c368908-43c7-4476-b728-b5aefce7396f","system_id":"levelo_inurba_marseille","lat":43.28,"lon":5.40018,"is_reserved":false,"is_disabled":false,"rental_uris":{"android":"levelo://app?vid=6c368908-43c7-4476-b728-b5aefce7396f","ios":"levelo://app?vid=6c368908-43c7-4476-b728-b5aefce7396f"},"vehicle_type_id":"4","last_reported":1729660163,"current_range_meters":38800,"station_id":"ce4bho92rcd13ifvqh4g","pricing_plan_id":"cebpf4jnsgd1na2vs0mg"},{"bike_id":"025ab4a7-0b1c-4e3c-91fd-f42f985252bd","system_id":"levelo_inurba_marseille","lat":43.29028,"lon":5.37563,"is_reserved":false,"is_disabled":false,"rental_uris":{"android":"levelo://app?vid=025ab4a7-0b1c-4e3c-91fd-f42f985252bd","ios":"levelo://app?vid=025ab4a7-0b1c-4e3c-91fd-f42f985252bd"},"vehicle_type_id":"4","last_reported":1729660163,"current_range_meters":37600,"station_id":"ce4bh692rcd13ifvqe90","pricing_plan_id":"cebpf4jnsgd1na2vs0mg"},{"bike_id":"1108c1d9-6ef1-42c6-a0c9-92dd8001ce10","system_id":"levelo_inurba_marseille","lat":43.25108,"lon":5.40329,"is_reserved":false,"is_disabled":false,"rental_uris":{"android":"levelo://app?vid=1108c1d9-6ef1-42c6-a0c9-92dd8001ce10","ios":"levelo://app?vid=1108c1d9-6ef1-42c6-a0c9-92dd8001ce10"},"vehicle_type_id":"4","last_reported":1729660163,"current_range_meters":38800,"station_id":"ce4bhlh2rcd13ifvqgig","pricing_plan_id":"cebpf4jnsgd1na2vs0mg"},{"bike_id":"70f5c988-d736-45a0-9b49-4ca642435bb6","system_id":"levelo_inurba_marseille","lat":43.24164,"lon":5.36396,"is_reserved":false,"is_disabled":false,"rental_uris":{"android":"levelo://app?vid=70f5c988-d736-45a0-9b49-4ca642435bb6","ios":"levelo://app?vid=70f5c988-d736-45a0-9b49-4ca642435bb6"},"vehicle_type_id":"4","last_reported":1729660163,"current_range_meters":14800,"station_id":"cpo36qri1sfpv3e86is0","pricing_plan_id":"cebpf4jnsgd1na2vs0mg"},{"bike_id":"7056681c-0498-4494-9b57-9087366050be","system_id":"levelo_inurba_marseille","lat":43.27068,"lon":5.40255,"is_reserved":false,"is_disabled":false,"rental_uris":{"android":"levelo://app?vid=7056681c-0498-4494-9b57-9087366050be","ios":"levelo://app?vid=7056681c-0498-4494-9b57-9087366050be"},"vehicle_type_id":"4","last_reported":1729660163,"current_range_meters":38800,"station_id":"ce4bhk92rcd13ifvqgc0","pricing_plan_id":"cebpf4jnsgd1na2vs0mg"},{"bike_id":"0e3c4388-07da-4bf0-b894-30ac8cf594bf","system_id":"levelo_inurba_marseille","lat":43.317,"lon":5.37755,"is_reserved":false,"is_disabled":false,"rental_uris":{"android":"levelo://app?vid=0e3c4388-07da-4bf0-b894-30ac8cf594bf","ios":"levelo://app?vid=0e3c4388-07da-4bf0-b894-30ac8cf594bf"},"vehicle_type_id":"4","last_reported":1729660163,"current_range_meters":20400,"station_id":"ce4bgth2rcd13ifvqch0","pricing_plan_id":"cebpf4jnsgd1na2vs0mg"},{"bike_id":"db7d770d-4dd5-4cf7-a79e-df6a497e3a91","system_id":"levelo_inurba_marseille","lat":43.27209,"lon":5.39184,"is_reserved":false,"is_disabled":false,"rental_uris":{"android":"levelo://app?vid=db7d770d-4dd5-4cf7-a79e-df6a497e3a91","ios":"levelo://app?vid=db7d770d-4dd5-4cf7-a79e-df6a497e3a91"},"vehicle_type_id":"4","last_reported":1729660163,"current_range_meters":36800,"station_id":"ce4bhhp2rcd13ifvqfm0","pricing_plan_id":"cebpf4jnsgd1na2vs0mg"},{"bike_id":"ce26414e-cf4f-4228-969f-0f32a95f8de8","system_id":"levelo_inurba_marseille","lat":43.28028,"lon":5.34985,"is_reserved":false,"is_disabled":false,"rental_uris":{"android":"levelo://app?vid=ce26414e-cf4f-4228-969f-0f32a95f8de8","ios":"levelo://app?vid=ce26414e-cf4f-4228-969f-0f32a95f8de8"},"vehicle_type_id":"4","last_reported":1729660163,"current_range_meters":23200,"station_id":"","pricing_plan_id":"cebpf4jnsgd1na2vs0mg"},{"bike_id":"6b8886e4-3bbb-40a1-af4c-af7a6f72f266","system_id":"levelo_inurba_marseille","lat":43.28357,"lon":5.38107,"is_reserved":false,"is_disabled":false,"rental_uris":{"android":"levelo://app?vid=6b8886e4-3bbb-40a1-af4c-af7a6f72f266","ios":"levelo://app?vid=6b8886e4-3bbb-40a1-af4c-af7a6f72f266"},"vehicle_type_id":"4","last_reported":1729660163,"current_range_meters":28800,"station_id":"ce4bh412rcd13ifvqdr0","pricing_plan_id":"cebpf4jnsgd1na2vs0mg"},{"bike_id":"348e9f12-f811-4d98-92d4-033c47f800b4","system_id":"levelo_inurba_marseille","lat":43.29308,"lon":5.37463,"is_reserved":false,"is_disabled":false,"rental_uris":{"android":"levelo://app?vid=348e9f12-f811-4d98-92d4-033c47f800b4","ios":"levelo://app?vid=348e9f12-f811-4d98-92d4-033c47f800b4"},"vehicle_type_id":"4","last_reported":1729660163,"current_range_meters":38800,"station_id":"ce4bgi12rcd13ifvqb70","pricing_plan_id":"cebpf4jnsgd1na2vs0mg"},{"bike_id":"d05678d2-dd4b-4eeb-824c-8d04133a0efa","system_id":"levelo_inurba_marseille","lat":43.27501,"lon":5.42454,"is_reserved":false,"is_disabled":false,"rental_uris":{"android":"levelo://app?vid=d05678d2-dd4b-4eeb-824c-8d04133a0efa","ios":"levelo://app?vid=d05678d2-dd4b-4eeb-824c-8d04133a0efa"},"vehicle_type_id":"4","last_reported":1729660163,"current_range_meters":38400,"station_id":"ce4bhn92rcd13ifvqgrg","pricing_plan_id":"cebpf4jnsgd1na2vs0mg"},{"bike_id":"ade121be-f676-4d23-92ef-4b0e2772deef","system_id":"levelo_inurba_marseille","lat":43.29023,"lon":5.38147,"is_reserved":false,"is_disabled":false,"rental_uris":{"android":"levelo://app?vid=ade121be-f676-4d23-92ef-4b0e2772deef","ios":"levelo://app?vid=ade121be-f676-4d23-92ef-4b0e2772deef"},"vehicle_type_id":"4","last_reported":1729660163,"current_range_meters":38000,"station_id":"ce4bh4p2rcd13ifvqe1g","pricing_plan_id":"cebpf4jnsgd1na2vs0mg"},{"bike_id":"50e58960-f82b-418a-b205-78b23cc6fe8b","system_id":"levelo_inurba_marseille","lat":43.31174,"lon":5.38722,"is_reserved":false,"is_disabled":false,"rental_uris":{"android":"levelo://app?vid=50e58960-f82b-418a-b205-78b23cc6fe8b","ios":"levelo://app?vid=50e58960-f82b-418a-b205-78b23cc6fe8b"},"vehicle_type_id":"4","last_reported":1729660163,"current_range_meters":22800,"station_id":"ce4bgv12rcd13ifvqcp0","pricing_plan_id":"cebpf4jnsgd1na2vs0mg"},{"bike_id":"eef83462-dd52-4fd3-a7c3-003ddd40fa75","system_id":"levelo_inurba_marseille","lat":43.25724,"lon":5.41114,"is_reserved":false,"is_disabled":false,"rental_uris":{"android":"levelo://app?vid=eef83462-dd52-4fd3-a7c3-003ddd40fa75","ios":"levelo://app?vid=eef83462-dd52-4fd3-a7c3-003ddd40fa75"},"vehicle_type_id":"4","last_reported":1729660163,"current_range_meters":38800,"station_id":"ce4bhkp2rcd13ifvqgd0","pricing_plan_id":"cebpf4jnsgd1na2vs0mg"},