{"last_updated":1731258380,"ttl":60,"version":"2.2","data":{"bikes":[{"bike_id":"dcd8b508-2c18-4839-ab68-7b52cc2d3fb7","system_id":"levelo_inurba_marseille","lat":43.27065,"lon":5.42284,"is_reserved":false,"is_disabled":false,"rental_uris":{"android":"levelo://app?vid=dcd8b508-2c18-4839-ab68-7b52cc2d3fb7","ios":"levelo://app?vid=dcd8b508-2c18-4839-ab68-7b52cc2d3fb7"},"vehicle_type_id":"4","last_reported":1731258380,"current_range_meters":29600,"station_id":"ce4bhk92rcd13ifvqgb0","pricing_plan_id":"cebpf4jnsgd1na2vs0mg"},{"bike_id":"c288b8dd-9a09-4209-b76c-ac4ae8fbe729","system_id":"levelo_inurba_marseille","lat":43.2873,"lon":5.37938,"is_reserved":false,"is_disabled":false,"rental_uris":{"android":"levelo://app?vid=c288b8dd-9a09-4209-b76c-ac4ae8fbe729","ios":"levelo://app?vid=c288b8dd-9a09-4209-b76c-ac4ae8fbe729"},"vehicle_type_id":"4","last_reported":1731258380,"current_range_meters":27600,"station_id":"ce4bh9p2rcd13ifvqec0","pricing_plan_id":"cebpf4jnsgd1na2vs0mg"},{"bike_id":"f903ea29-30fe-46ae-8eeb-7a1975d030a7","system_id":"levelo_inurba_marseille","lat":43.31741,"lon":5.37806,"is_reserved":false,"is_disabled":false,"rental_uris":{"android":"levelo://app?vid=f903ea29-30fe-46ae-8eeb-7a1975d030a7","ios":"levelo://app?vid=f903ea29-30fe-46ae-8eeb-7a1975d030a7"},"vehicle_type_id":"4","last_reported":1731258380,"current_range_meters":24000,"station_id":"ce4bgth2rcd13ifvqch0","pricing_plan_id":"cebpf4jnsgd1na2vs0mg"},{"bike_id":"6fe6b32f-11af-4595-87a6-3b78335d8002","system_id":"levelo_inurba_marseille","lat":43.29313,"lon":5.37457,"is_reserved":false,"is_disabled":false,"rental_uris":{"android":"levelo://app?vid=6fe6b32f-11af-4595-87a6-3b78335d8002","ios":"levelo://app?vid=6fe6b32f-11af-4595-87a6-3b78335d8002"},"vehicle_type_id":"4","last_reported":1731258380,"current_range_meters":34800,"station_id":"ce4bgi12rcd13ifvqb70","pricing_plan_id":"cebpf4jnsgd1na2vs0mg"},{"bike_id":"5daf7e81-adca-4c69-ac49-7439dac41928","system_id":"levelo_inurba_marseille","lat":43.29564,"lon":5.42323,"is_reserved":false,"is_disabled":false,"rental_uris":{"android":"levelo://app?vid=5daf7e81-adca-4c69-ac49-7439dac41928","ios":"levelo://app?vid=5daf7e81-adca-4c69-ac49-7439dac41928"},"vehicle_type_id":"4","last_reported":1731258380,"current_range_meters":38800,"station_id":"ce4bhph2rcd13ifvqhdg","pricing_plan_id":"cebpf4jnsgd1na2vs0mg"},{"bike_id":"4355b56d-9403-4016-bd82-c79949e2bfd8","system_id":"levelo_inurba_marseille","lat":43.2679,"lon":5.39417,"is_reserved":false,"is_disabled":false,"rental_uris":{"android":"levelo://app?vid=4355b56d-9403-4016-bd82-c79949e2bfd8","ios":"levelo://app?vid=4355b56d-9403-4016-bd82-c79949e2bfd8"},"vehicle_type_id":"4","last_reported":1731258380,"current_range_meters":2800,"station_id":"ce4bhh12rcd13ifvqfg0","pricing_plan_id":"cebpf4jnsgd1na2vs0mg"},{"bike_id":"3b9a80b6-f4fd-4bc0-92ac-51046c67479f","system_id":"levelo_inurba_marseille","lat":43.24391,"lon":5.37056,"is_reserved":false,"is_disabled":false,"rental_uris":{"android":"levelo://app?vid=3b9a80b6-f4fd-4bc0-92ac-51046c67479f","ios":"levelo://app?vid=3b9a80b6-f4fd-4bc0-92ac-51046c67479f"},"vehicle_type_id":"4","last_reported":1731258380,"current_range_meters":3200,"station_id":"ce4bhhh2rcd13ifvqfk0","pricing_plan_id":"cebpf4jnsgd1na2vs0mg"},{"bike_id":"9e44db0f-77a7-4275-a8f8-3c3b0773bfe2","system_id":"levelo_inurba_marseille","lat":43.29795,"lon":5.38096,"is_reserved":false,"is_disabled":false,"rental_uris":{"android":"levelo://app?vid=9e44db0f-77a7-4275-a8f8-3c3b0773bfe2","ios":"levelo://app?vid=9e44db0f-77a7-4275-a8f8-3c3b0773bfe2"},"vehicle_type_id":"4","last_reported":1731258380,"current_range_meters":22800,"station_id":"ce4bgip2rcd13ifvqbb0","pricing_plan_id":"cebpf4jnsgd1na2vs0mg"},{"bike_id":"05c60873-e84e-4b6b-9e01-c73375d86b0e","system_id":"levelo_inurba_marseille","lat":43.26492,"lon":5.39536,"is_reserved":false,"is_disabled":false,"rental_uris":{"android":"levelo://app?vid=05c60873-e84e-4b6b-9e01-c73375d86b0e","ios":"levelo://app?vid=05c60873-e84e-4b6b-9e01-c73375d86b0e"},"vehicle_type_id":"4","last_reported":1731258380,"current_range_meters":10000,"station_id":"ce4bhi12rcd13ifvqfq0","pricing_plan_id":"cebpf4jnsgd1na2vs0mg"},{"bike_id":"bf2f7036-692b-4cad-86f9-2d2c67e2b122","system_id":"levelo_inurba_marseille","lat":43.29789,"lon":5.37101,"is_reserved":false,"is_disabled":false,"rental_uris":{"android":"levelo://app?vid=bf2f7036-692b-4cad-86f9-2d2c67e2b122","ios":"levelo://app?vid=bf2f7036-692b-4cad-86f9-2d2c67e2b122"},"vehicle_type_id":"4","last_reported":1731258380,"current_range_meters":8400,"station_id":"ce4bgop2rcd13ifvqc1g","pricing_plan_id":"cebpf4jnsgd1na2vs0mg"},{"bike_id":"f89d3613-8002-46d6-8a93-1bc029531b76","system_id":"levelo_inurba_marseille","lat":43.24807,"lon":5.37457,"is_reserved":false,"is_disabled":false,"rental_uris":{"android":"levelo://app?vid=f89d3613-8002-46d6-8a93-1bc029531b76","ios":"levelo://app?vid=f89d3613-8002-46d6-8a93-1bc029531b76"},"vehicle_type_id":"4","last_reported":1731258380,"current_range_meters":4400,"station_id":"ce4bhgh2rcd13ifvqfb0","pricing_plan_id":"cebpf4jnsgd1na2vs0mg"},{"bike_id":"255952e5-e6bd-4eaa-8192-940a1d43910f","system_id":"levelo_inurba_marseille","lat":43.312605,"lon":5.401732,"is_reserved":false,"is_disabled":false,"rental_uris":{"android":"levelo://app?vid=255952e5-e6bd-4eaa-8192-940a1d43910f","ios":"levelo://app?vid=255952e5-e6bd-4eaa-8192-940a1d43910f"},"vehicle_type_id":"4","last_reported":1731258380,"current_range_meters":34000,"station_id":"ce4bh092rcd13ifvqd30","pricing_plan_id":"cebpf4jnsgd1na2vs0mg"},{"bike_id":"cd8ae44f-d14d-4c94-8e7e-22a3d5bf6978","system_id":"levelo_inurba_marseille","lat":43.31349,"lon":5.36701,"is_reserved":false,"is_disabled":false,"rental_uris":{"android":"levelo://app?vid=cd8ae44f-d14d-4c94-8e7e-22a3d5bf6978","ios":"levelo://app?vid=cd8ae44f-d14d-4c94-8e7e-22a3d5bf6978"},"vehicle_type_id":"4","last_reported":1731258380,"current_range_meters":19200,"station_id":"ce4bgr92rcd13ifvqc6g","pricing_plan_id":"cebpf4jnsgd1na2vs0mg"},{"bike_id":"e904c0a4-78db-4608-88c2-38980bf05049","system_id":"levelo_inurba_marseille","lat":43.31372,"lon":5.38499,"is_reserved":false,"is_disabled":false,"rental_uris":{"android":"levelo://app?vid=e904c0a4-78db-4608-88c2-38980bf05049","ios":"levelo://app?vid=e904c0a4-78db-4608-88c2-38980bf05049"},"vehicle_type_id":"4","last_reported":1731258380,"current_range_meters":32400,"station_id":"ce4bgt92rcd13ifvqcf0","pricing_plan_id":"cebpf4jnsgd1na2vs0mg"},{"bike_id":"b2658ac3-73b7-47a0-b186-72b66a3edcb5","system_id":"levelo_inurba_marseille","lat":43.28711,"lon":5.37957,"is_reserved":false,"is_disabled":false,"rental_uris":{"android":"levelo://app?vid=b2658ac3-73b7-47a0-b186-72b66a3edcb5","ios":"levelo://app?vid=b2658ac3-73b7-47a0-b186-72b66a3edcb5"},"vehicle_type_id":"4","last_reported":1731258380,"current_range_meters":2000,"station_id":"ce4bh9p2rcd13ifvqec0","pricing_plan_id":"cebpf4jnsgd1na2vs0mg"},{"bike_id":"a2910012-5088-4e99-9580-f2fb3b03a2a4","system_id":"levelo_inurba_marseille","lat":43.24806,"lon":5.37457,"is_reserved":false,"is_disabled":false,"rental_uris":{"android":"levelo://app?vid=a2910012-5088-4e99-9580-f2fb3b03a2a4","ios":"levelo://app?vid=a2910012-5088-4e99-9580-f2fb3b03a2a4"},"vehicle_type_id":"4","last_reported":1731258380,"current_range_meters":9200,"station_id":"ce4bhgh2rcd13ifvqfb0","pricing_plan_id":"cebpf4jnsgd1na2vs0mg"},{"bike_id":"12f9411e-5b72-4616-9f4b-bd164eb02960","system_id":"levelo_inurba_marseille","lat":43.29364,"lon":5.37857,"is_reserved":false,"is_disabled":false,"rental_uris":{"android":"levelo://app?vid=12f9411e-5b72-4616-9f4b-bd164eb02960","ios":"levelo://app?vid=12f9411e-5b72-4616-9f4b-bd164eb02960"},"vehicle_type_id":"4","last_reported":1731258380,"current_range_meters":22800,"station_id":"ce4bgjh2rcd13ifvqbf0","pricing_plan_id":"cebpf4jnsgd1na2vs0mg"},{"bike_id":"a8fb642c-4510-4e33-bd73-c9866e5874aa","system_id":"levelo_inurba_marseille","lat":43.29577,"lon":5.37518,"is_reserved":false,"is_disabled":false,"rental_uris":{"android":"levelo://app?vid=a8fb642c-4510-4e33-bd73-c9866e5874aa","ios":"levelo://app?vid=a8fb642c-4510-4e33-bd73-c9866e5874aa"},"vehicle_type_id":"4","last_reported":1731258380,"current_range_meters":11600,"station_id":"ce4bgh92rcd13ifvqb50","pricing_plan_id":"cebpf4jnsgd1na2vs0mg"},{"bike_id":"ebdd5514-8912-4bbf-bad0-44a84240c4d1","system_id":"levelo_inurba_marseille","lat":43.29539,"lon":5.38537,"is_reserved":false,"is_disabled":false,"rental_uris":{"android":"levelo://app?vid=ebdd5514-8912-4bbf-bad0-44a84240c4d1","ios":"levelo://app?vid=ebdd5514-8912-4bbf-bad0-44a84240c4d1"},"vehicle_type_id":"4","last_reported":1731258380,"current_range_meters":7200,"station_id":"ce4bgih2rcd13ifvqba0","pricing_plan_id":"cebpf4jnsgd1na2vs0mg"},{"bike_id":"6c618baf-0311-4778-8381-3928dd609394","system_id":"levelo_inurba_marseille","lat":43.28,"lon":5.4166,"is_reserved":false,"is_disabled":false,"rental_uris":{"android":"levelo://app?vid=6c618baf-0311-4778-8381-3928dd609394","ios":"levelo://app?vid=6c618baf-0311-4778-8381-3928dd609394"},"vehicle_type_id":"4","last_reported":1731258380,"current_range_meters":6400,"station_id":"ce4bho12rcd13ifvqh1g","pricing_plan_id":"cebpf4jnsgd1na2vs0mg"},{"bike_id":"ba5b1cf6-ad48-4893-b24b-8d8e2fa0a860","system_id":"levelo_inurba_marseille","lat":43.27559,"lon":5.35926,"is_reserved":false,"is_disabled":false,"rental_uris":{"android":"levelo://app?vid=ba5b1cf6-ad48-4893-b24b-8d8e2fa0a860","ios":"levelo://app?vid=ba5b1cf6-ad48-4893-b24b-8d8e2fa0a860"},"vehicle_type_id":"4","last_reported":1731258380,"current_range_meters":30800,"station_id":"","pricing_plan_id":"cebpf4jnsgd1na2vs0mg"},{"bike_id":"6e80b2b8-4330-4eee-b3df-88683de6fb19","system_id":"levelo_inurba_marseille","lat":43.29206,"lon":5.39315,"is_reserved":false,"is_disabled":false,"rental_uris":{"android":"levelo://app?vid=6e80b2b8-4330-4eee-b3df-88683de6fb19","ios":"levelo://app?vid=6e80b2b8-4330-4eee-b3df-88683de6fb19"},"vehicle_type_id":"4","last_reported":1731258380,"current_range_meters":9600,"station_id":"ce4bh192rcd13ifvqdd0","pricing_plan_id":"cebpf4jnsgd1na2vs0mg"},{"bike_id":"55824a0f-695a-44a4-a991-d5ed9c3f8c72","system_id":"levelo_inurba_marseille","lat":43.25823,"lon":5.39436,"is_reserved":false,"is_disabled":false,"rental_uris":{"android":"levelo://app?vid=55824a0f-695a-44a4-a991-d5ed9c3f8c72","ios":"levelo://app?vid=55824a0f-695a-44a4-a991-d5ed9c3f8c72"},"vehicle_type_id":"4","last_reported":1731258380,"current_range_meters":28000,"station_id":"ce4bhip2rcd13ifvqft0","pricing_plan_id":"cebpf4jnsgd1na2vs0mg"},{"bike_id":"ddee1e02-1e30-4966-aac7-daef7667241f","system_id":"levelo_inurba_marseille","lat":43.29203,"lon":5.39326,"is_reserved":false,"is_disabled":false,"rental_uris":{"android":"levelo://app?vid=ddee1e02-1e30-4966-aac7-daef7667241f","ios":"levelo://app?vid=ddee1e02-1e30-4966-aac7-daef7667241f"},"vehicle_type_id":"4","last_reported":1731258380,"current_range_meters":29600,"station_id":"ce4bh192rcd13ifvqdd0","pricing_plan_id":"cebpf4jnsgd1na2vs0mg"},{"bike_id":"d1f46802-a56a-485e-9ead-c5c68436bb1e","system_id":"levelo_inurba_marseille","lat":43.28704,"lon":5.374,"is_reserved":false,"is_disabled":false,"rental_uris":{"android":"levelo://app?vid=d1f46802-a56a-485e-9ead-c5c68436bb1e","ios":"levelo://app?vid=d1f46802-a56a-485e-9ead-c5c68436bb1e"},"vehicle_type_id":"4","last_reported":1731258380,"current_range_meters":16400,"station_id":"ce4bh3p2rcd13ifvqdq0","pricing_plan_id":"cebpf4jnsgd1na2vs0mg"},{"bike_id":"9e6fdb43-a07a-4de5-9d5d-1f82c3b5d631","system_id":"levelo_inurba_marseille","lat":43.31538,"lon":5.38037,"is_reserved":false,"is_disabled":false,"rental_uris":{"android":"levelo://app?vid=9e6fdb43-a07a-4de5-9d5d-1f82c3b5d631","ios":"levelo://app?vid=9e6fdb43-a07a-4de5-9d5d-1f82c3b5d631"},"vehicle_type_id":"4","last_reported":1731258380,"current_range_meters":38800,"station_id":"ce4bhsp2rcd13ifvqi50","pricing_plan_id":"cebpf4jnsgd1na2vs0mg"},{"bike_id":"bb4be99f-5976-4a62-82c1-0fa838f785ee","system_id":"levelo_inurba_marseille","lat":43.28498,"lon":5.38423,"is_reserved":false,"is_disabled":false,"rental_uris":{"android":"levelo://app?vid=bb4be99f-5976-4a62-82c1-0fa838f785ee","ios":"levelo://app?vid=bb4be99f-5976-4a62-82c1-0fa838f785ee"},"vehicle_type_id":"4","last_reported":1731258380,"current_range_meters":16000,"station_id":"ce4bh512rcd13ifvqe3g","pricing_plan_id":"cebpf4jnsgd1na2vs0mg"},{"bike_id":"4a70f65c-63cf-453a-a87a-8b6a8dab6047","system_id":"levelo_inurba_marseille","lat":43.31184,"lon":5.36821,"is_reserved":false,"is_disabled":false,"rental_uris":{"android":"levelo://app?vid=4a70f65c-63cf-453a-a87a-8b6a8dab6047","ios":"levelo://app?vid=4a70f65c-63cf-453a-a87a-8b6a8dab6047"},"vehicle_type_id":"4","last_reported":1731258380,"current_range_meters":38400,"station_id":"ce4bgs12rcd13ifvqcag","pricing_plan_id":"cebpf4jnsgd1na2vs0mg"},{"bike_id":"c221efe7-efcb-49b8-a1b0-1dd8d171a453","system_id":"levelo_inurba_marseille","lat":43.33716,"lon":5.39196,"is_reserved":false,"is_disabled":false,"rental_uris":{"android":"levelo://app?vid=c221efe7-efcb-49b8-a1b0-1dd8d171a453","ios":"levelo://app?vid=c221efe7-efcb-49b8-a1b0-1dd8d171a453"},"vehicle_type_id":"4","last_reported":1731258380,"current_range_meters":38800,"station_id":"ce4bhr92rcd13ifvqhsg","pricing_plan_id":"cebpf4jnsgd1na2vs0mg"},{"bike_id":"69b05dc1-5376-472f-a35d-b50c76a10800","system_id":"levelo_inurba_marseille","lat":43.24808,"lon":5.37457,"is_reserved":false,"is_disabled":false,"rental_uris":{"android":"levelo://app?vid=69b05dc1-5376-472f-a35d-b50c76a10800","ios":"levelo://app?vid=69b05dc1-5376-472f-a35d-b50c76a10800"},"vehicle_type_id":"4","last_reported":1731258380,"current_range_meters":38800,"station_id":"ce4bhgh2rcd13ifvqfb0","pricing_plan_id":"cebpf4jnsgd1na2vs0mg"},{"bike_id":"7a412987-a6a4-45b4-b4ec-7609753dd753","system_id":"levelo_inurba_marseille","lat":43.2481,"lon":5.37461,"is_reserved":false,"is_disabled":false,"rental_uris":{"android":"levelo://app?vid=7a412987-a6a4-45b4-b4ec-7609753dd753","ios":"levelo://app?vid=7a412987-a6a4-45b4-b4ec-7609753dd753"},"vehicle_type_id":"4","last_reported":1731258380,"current_range_meters":38800,"station_id":"ce4bhgh2rcd13ifvqfb0","pricing_plan_id":"cebpf4jnsgd1na2vs0mg"},{"bike_id":"835bbb3e-620b-40eb-b47f-2007fd6402e0","system_id":"levelo_inurba_marseille","lat":43.294159,"lon":5.386187,"is_reserved":false,"is_disabled":false,"rental_uris":{"android":"levelo://app?vid=835bbb3e-620b-40eb-b47f-2007fd6402e0","ios":"levelo://app?vid=835bbb3e-620b-40eb-b47f-2007fd6402e0"},"vehicle_type_id":"4","last_reported":1731258380,"current_range_meters":35600,"station_id":"ce4bh2h2rcd13ifvqdh0","pricing_plan_id":"cebpf4jnsgd1na2vs0mg"},{"bike_id":"b246bbda-8603-4abc-85d2-1bb2531c4f41","system_id":"levelo_inurba_marseille","lat":43.29975,"lon":5.37183,"is_reserved":false,"is_disabled":false,"rental_uris":{"android":"levelo://app?vid=b246bbda-8603-4abc-85d2-1bb2531c4f41","ios":"levelo://app?vid=b246bbda-8603-4abc-85d2-1bb2531c4f41"},"vehicle_type_id":"4","last_reported":1731258380,"current_range_meters":38800,"station_id":"ce4bgr92rcd13ifvqc7g","pricing_plan_id":"cebpf4jnsgd1na2vs0mg"},{"bike_id":"2d777a29-098e-4a3c-8608-498bf6a0d8f6","system_id":"levelo_inurba_marseille","lat":43.28105,"lon":5.37838,"is_reserved":false,"is_disabled":false,"rental_uris":{"android":"levelo://app?vid=2d777a29-098e-4a3c-8608-498bf6a0d8f6","ios":"levelo://app?vid=2d777a29-098e-4a3c-8608-498bf6a0d8f6"},"vehicle_type_id":"4","last_reported":1731258380,"current_range_meters":38800,"station_id":"ce4bha12rcd13ifvqee0","pricing_plan_id":"cebpf4jnsgd1na2vs0mg"},{"bike_id":"561c29fc-e122-4079-8ff6-1577acf08335","system_id":"levelo_inurba_marseille","lat":43.28563,"lon":5.39497,"is_reserved":false,"is_disabled":false,"rental_uris":{"android":"levelo://app?vid=561c29fc-e122-4079-8ff6-1577acf08335","ios":"levelo://app?vid=561c29fc-e122-4079-8ff6-1577acf08335"},"vehicle_type_id":"4","last_reported":1731258380,"current_range_meters":35200,"station_id":"ce4bh292rcd13ifvqdg0","pricing_plan_id":"cebpf4jnsgd1na2vs0mg"},{"bike_id":"6021a413-f234-4543-9e2c-041cafeef6a9","system_id":"levelo_inurba_marseille","lat":43.29561,"lon":5.42282,"is_reserved":false,"is_disabled":false,"rental_uris":{"android":"levelo://app?vid=6021a413-f234-4543-9e2c-041cafeef6a9","ios":"levelo://app?vid=6021a413-f234-4543-9e2c-041cafeef6a9"},"vehicle_type_id":"4","last_reported":1731258380,"current_range_meters":30400,"station_id":"ce4bhph2rcd13ifvqhdg","pricing_plan_id":"cebpf4jnsgd1na2vs0mg"},{"bike_id":"03873e08-eac2-4005-ba1f-b873992fc50a","system_id":"levelo_inurba_marseille","lat":43.29364,"lon":5.37854,"is_reserved":false,"is_disabled":false,"rental_uris":{"android":"levelo://app?vid=03873e08-eac2-4005-ba1f-b873992fc50a","ios":"levelo://app?vid=03873e08-eac2-4005-ba1f-b873992fc50a"},"vehicle_type_id":"4","last_reported":1731258380,"current_range_meters":9200,"station_id":"ce4bgjh2rcd13ifvqbf0","pricing_plan_id":"cebpf4jnsgd1na2vs0mg"},{"bike_id":"2972f759-c98e-4fe7-9758-85d215895273","system_id":"levelo_inurba_marseille","lat":43.23957,"lon":5.36627,"is_reserved":false,"is_disabled":false,"rental_uris":{"android":"levelo://app?vid=2972f759-c98e-4fe7-9758-85d215895273","ios":"levelo://app?vid=2972f759-c98e-4fe7-9758-85d215895273"},"vehicle_type_id":"4","last_reported":1731258380,"current_range_meters":36000,"station_id":"ce4bhi12rcd13ifvqfp0","pricing_plan_id":"cebpf4jnsgd1na2vs0mg"},{"bike_id":"aabe507e-040a-4ee4-b83d-ed3f44c4876d","system_id":"levelo_inurba_marseille","lat":43.32481,"lon":5.36561,"is_reserved":false,"is_disabled":false,"rental_uris":{"android":"levelo://app?vid=aabe507e-040a-4ee4-b83d-ed3f44c4876d","ios":"levelo://app?vid=aabe507e-040a-4ee4-b83d-ed3f44c4876d"},"vehicle_type_id":"4","last_reported":1731258380,"current_range_meters":9600,"station_id":"ce4bhs12rcd13ifvqhvg","pricing_plan_id":"cebpf4jnsgd1na2vs0mg"},{"bike_id":"63785c38-f7ee-47c8-816e-184020ef9645","system_id":"levelo_inurba_marseille","lat":43.2696,"lon":5.38651,"is_reserved":false,"is_disabled":false,"rental_uris":{"android":"levelo://app?vid=63785c38-f7ee-47c8-816e-184020ef9645","ios":"levelo://app?vid=63785c38-f7ee-47c8-816e-184020ef9645"},"vehicle_type_id":"4","last_reported":1731258380,"current_range_meters":4800,"station_id":"ce4bhh92rcd13ifvqfh0","pricing_plan_id":"cebpf4jnsgd1na2vs0mg"},{"bike_id":"9b076279-78e6-4a6f-971d-91280791a498","system_id":"levelo_inurba_marseille","lat":43.29534,"lon":5.38544,"is_reserved":false,"is_disabled":false,"rental_uris":{"android":"levelo://app?vid=9b076279-78e6-4a6f-971d-91280791a498","ios":"levelo://app?vid=9b076279-78e6-4a6f-971d-91280791a498"},"vehicle_type_id":"4","last_reported":1731258380,"current_range_meters":36800,"station_id":"ce4bgih2rcd13ifvqba0","pricing_plan_id":"cebpf4jnsgd1na2vs0mg"},{"bike_id":"5431230d-e3a2-4901-ba5a-a6dc7e9d8bcf","system_id":"levelo_inurba_marseille","lat":43.30136,"lon":5.39874,"is_reserved":false,"is_disabled":false,"rental_uris":{"android":"levelo://app?vid=5431230d-e3a2-4901-ba5a-a6dc7e9d8bcf","ios":"levelo://app?vid=5431230d-e3a2-4901-ba5a-a6dc7e9d8bcf"},"vehicle_type_id":"4","last_reported":1731258380,"current_range_meters":11200,"station_id":"ce4bh0h2rcd13ifvqd40","pricing_plan_id":"cebpf4jnsgd1na2vs0mg"},{"bike_id":"3ab0565a-be0f-49e7-9910-e3a2d93dc9a6","system_id":"levelo_inurba_marseille","lat":43.30796,"lon":5.43543,"is_reserved":false,"is_disabled":false,"rental_uris":{"android":"levelo://app?vid=3ab0565a-be0f-49e7-9910-e3a2d93dc9a6","ios":"levelo://app?vid=3ab0565a-be0f-49e7-9910-e3a2d93dc9a6"},"vehicle_type_id":"4","last_reported":1731258380,"current_range_meters":22400,"station_id":"ce4bhph2rcd13ifvqheg","pricing_plan_id":"cebpf4jnsgd1na2vs0mg"},{"bike_id":"34be49f4-ec1a-4caf-bda0-ab0756709f76","system_id":"levelo_inurba_marseille","lat":43.2909,"lon":5.38144,"is_reserved":false,"is_disabled":false,"rental_uris":{"android":"levelo://app?vid=34be49f4-ec1a-4caf-bda0-ab0756709f76","ios":"levelo://app?vid=34be49f4-ec1a-4caf-bda0-ab0756709f76"},"vehicle_type_id":"4","last_reported":1731258380,"current_range_meters":18800,"station_id":"ce4bh512rcd13ifvqe2g","pricing_plan_id":"cebpf4jnsgd1na2vs0mg"},{"bike_id":"65b2dc08-6fcd-4fdc-919c-2e833fcd33ae","system_id":"levelo_inurba_marseille","lat":43.30597,"lon":5.37238,"is_reserved":false,"is_disabled":false,"rental_uris":{"android":"levelo://app?vid=65b2dc08-6fcd-4fdc-919c-2e833fcd33ae","ios":"levelo://app?vid=65b2dc08-6fcd-4fdc-919c-2e833fcd33ae"},"vehicle_type_id":"4","last_reported":1731258380,"current_range_meters":21600,"station_id":"ce4bgqh2rcd13ifvqc4g","pricing_plan_id":"cebpf4jnsgd1na2vs0mg"},{"bike_id":"b9478b1d-79e3-44c9-ae60-496dd5151f62","system_id":"levelo_inurba_marseille","lat":43.29173,"lon":5.37144,"is_reserved":false,"is_disabled":false,"rental_uris":{"android":"levelo://app?vid=b9478b1d-79e3-44c9-ae60-496dd5151f62","ios":"levelo://app?vid=b9478b1d-79e3-44c9-ae60-496dd5151f62"},"vehicle_type_id":"4","last_reported":1731258380,"current_range_meters":30400,"station_id":"ce4bha92rcd13ifvqeh0","pricing_plan_id":"cebpf4jnsgd1na2vs0mg"},{"bike_id":"0cb6da7e-ae7f-4880-8e3b-2aa766243eed","system_id":"levelo_inurba_marseille","lat":43.29103,"lon":5.38112,"is_reserved":false,"is_disabled":false,"rental_uris":{"android":"levelo://app?vid=0cb6da7e-ae7f-4880-8e3b-2aa766243eed","ios":"levelo://app?vid=0cb6da7e-ae7f-4880-8e3b-2aa766243eed"},"vehicle_type_id":"4","last_reported":1731258380,"current_range_meters":25600,"station_id":"ce4bh512rcd13ifvqe2g","pricing_plan_id":"cebpf4jnsgd1na2vs0mg"},{"bike_id":"6dc3d1c8-e317-4b9d-9a39-abdd9a755fc2","system_id":"levelo_inurba_marseille","lat":43.2954,"lon":5.3751,"is_reserved":false,"is_disabled":false,"rental_uris":{"android":"levelo://app?vid=6dc3d1c8-e317-4b9d-9a39-abdd9a755fc2","ios":"levelo://app?vid=6dc3d1c8-e317-4b9d-9a39-abdd9a755fc2"},"vehicle_type_id":"4","last_reported":1731258380,"current_range_meters":30400,"station_id":"ce4bgkp2rcd13ifvqbmg","pricing_plan_id":"cebpf4jnsgd1na2vs0mg"},{"bike_id":"26391d67-c29d-40e9-b008-d02caba20e1c","system_id":"levelo_inurba_marseille","lat":43.26959,"lon":5.38637,"is_reserved":false,"is_disabled":false,"rental_uris":{"android":"levelo://app?vid=26391d67-c29d-40e9-b008-d02caba20e1c","ios":"levelo://app?vid=26391d67-c29d-40e9-b008-d02caba20e1c"},"vehicle_type_id":"4","last_reported":1731258380,"current_range_meters":5600,"station_id":"ce4bhh92rcd13ifvqfh0","pricing_plan_id":"cebpf4jnsgd1na2vs0mg"},{"bike_id":"27c4e1e1-7eb9-4285-8a15-09c02c11d1f5","system_id":"levelo_inurba_marseille","lat":43.31073,"lon":5.38354,"is_reserved":false,"is_disabled":false,"rental_uris":{"android":"levelo://app?vid=27c4e1e1-7eb9-4285-8a15-09c02c11d1f5","ios":"levelo://app?vid=27c4e1e1-7eb9-4285-8a15-09c02c11d1f5"},"vehicle_type_id":"4","last_reported":1731258380,"current_range_meters":36800,"station_id":"ce4bgv92rcd13ifvqcr0","pricing_plan_id":"cebpf4jnsgd1na2vs0mg"},{"bike_id":"f18e3bca-1241-49e2-a473-1fbefd7476f8","system_id":"levelo_inurba_marseille","lat":43.32288,"lon":5.38281,"is_reserved":false,"is_disabled":false,"rental_uris":{"android":"levelo://app?vid=f18e3bca-1241-49e2-a473-1fbefd7476f8","ios":"levelo://app?vid=f18e3bca-1241-49e2-a473-1fbefd7476f8"},"vehicle_type_id":"4","last_reported":1731258380,"current_range_meters":15200,"station_id":"ce4bhr12rcd13ifvqhqg","pricing_plan_id":"cebpf4jnsgd1na2vs0mg"},{"bike_id":"eea89b14-e5f3-4242-9fbf-52d861894071","system_id":"levelo_inurba_marseille","lat":43.23194,"lon":5.35558,"is_reserved":false,"is_disabled":false,"rental_uris":{"android":"levelo://app?vid=eea89b14-e5f3-4242-9fbf-52d861894071","ios":"levelo://app?vid=eea89b14-e5f3-4242-9fbf-52d861894071"},"vehicle_type_id":"4","last_reported":1731258380,"current_range_meters":27600,"station_id":"ce4bhu92rcd13ifvqi70","pricing_plan_id":"cebpf4jnsgd1na2vs0mg"},{"bike_id":"ca9395df-6252-4afc-bff8-4e0818b02bb4","system_id":"levelo_inurba_marseille","lat":43.27327,"lon":5.39081,"is_reserved":false,"is_disabled":false,"rental_uris":{"android":"levelo://app?vid=ca9395df-6252-4afc-bff8-4e0818b02bb4","ios":"levelo://app?vid=ca9395df-6252-4afc-bff8-4e0818b02bb4"},"vehicle_type_id":"4","last_reported":1731258380,"current_range_meters":16000,"station_id":"ce4bhgp2rcd13ifvqfe0","pricing_plan_id":"cebpf4jnsgd1na2vs0mg"},{"bike_id":"1c6d5595-1939-4a28-ad4e-377a51188d4e","system_id":"levelo_inurba_marseille","lat":43.2924,"lon":5.40915,"is_reserved":false,"is_disabled":false,"rental_uris":{"android":"levelo://app?vid=1c6d5595-1939-4a28-ad4e-377a51188d4e","ios":"levelo://app?vid=1c6d5595-1939-4a28-ad4e-377a51188d4e"},"vehicle_type_id":"4","last_reported":1731258380,"current_range_meters":5600,"station_id":"ce4bh192rcd13ifvqdc0","pricing_plan_id":"cebpf4jnsgd1na2vs0mg"},{"bike_id":"e52bda73-b8a1-4d31-975f-8ba1456e9653","system_id":"levelo_inurba_marseille","lat":43.320942,"lon":5.450285,"is_reserved":false,"is_disabled":false,"rental_uris":{"android":"levelo://app?vid=e52bda73-b8a1-4d31-975f-8ba1456e9653","ios":"levelo://app?vid=e52bda73-b8a1-4d31-975f-8ba1456e9653"},"vehicle_type_id":"4","last_reported":1731258380,"current_range_meters":9200,"station_id":"ce4bhp92rcd13ifvqhcg","pricing_plan_id":"cebpf4jnsgd1na2vs0mg"},{"bike_id":"e9e7dfb6-ced1-450f-b31c-e5157318a41a","system_id":"levelo_inurba_marseille","lat":43.29007,"lon":5.35612,"is_reserved":false,"is_disabled":false,"rental_uris":{"android":"levelo://app?vid=e9e7dfb6-ced1-450f-b31c-e5157318a41a","ios":"levelo://app?vid=e9e7dfb6-ced1-450f-b31c-e5157318a41a"},"vehicle_type_id":"4","last_reported":1731258380,"current_range_meters":39200,"station_id":"ce4bhb92rcd13ifvqen0","pricing_plan_id":"cebpf4jnsgd1na2vs0mg"},{"bike_id":"b62f243c-5acb-49ee-9053-72349193cab0","system_id":"levelo_inurba_marseille","lat":43.3031,"lon":5.36887,"is_reserved":false,"is_disabled":false,"rental_uris":{"android":"levelo://app?vid=b62f243c-5acb-49ee-9053-72349193cab0","ios":"levelo://app?vid=b62f243c-5acb-49ee-9053-72349193cab0"},"vehicle_type_id":"4","last_reported":1731258380,"current_range_meters":2000,"station_id":"ce4bgqh2rcd13ifvqc5g","pricing_plan_id":"cebpf4jnsgd1na2vs0mg"},{"bike_id":"f89d14b3-1fc7-4786-a08f-243c3eb3964d","system_id":"levelo_inurba_marseille","lat":43.29032,"lon":5.37551,"is_reserved":false,"is_disabled":false,"rental_uris":{"android":"levelo://app?vid=f89d14b3-1fc7-4786-a08f-243c3eb3964d","ios":"levelo://app?vid=f89d14b3-1fc7-4786-a08f-243c3eb3964d"},"vehicle_type_id":"4","last_reported":1731258380,"current_range_meters":38800,"station_id":"ce4bh692rcd13ifvqe90","pricing_plan_id":"cebpf4jnsgd1na2vs0mg"},{"bike_id":"85e2f4f3-6aa2-4c02-8cb0-3f10017cc61a","system_id":"levelo_inurba_marseille","lat":43.2509,"lon":5.39523,"is_reserved":false,"is_disabled":false,"rental_uris":{"android":"levelo://app?vid=85e2f4f3-6aa2-4c02-8cb0-3f10017cc61a","ios":"levelo://app?vid=85e2f4f3-6aa2-4c02-8cb0-3f10017cc61a"},"vehicle_type_id":"4","last_reported":1731258380,"current_range_meters":38800,"station_id":"ce4bhm12rcd13ifvqgkg","pricing_plan_id":"cebpf4jnsgd1na2vs0mg"},{"bike_id":"4cf37f44-33c6-461c-9673-9b002a663973","system_id":"levelo_inurba_marseille","lat":43.27307,"lon":5.39084,"is_reserved":false,"is_disabled":false,"rental_uris":{"android":"levelo://app?vid=4cf37f44-33c6-461c-9673-9b002a663973","ios":"levelo://app?vid=4cf37f44-33c6-461c-9673-9b002a663973"},"vehicle_type_id":"4","last_reported":1731258380,"current_range_meters":31200,"station_id":"ce4bhgp2rcd13ifvqfe0","pricing_plan_id":"cebpf4jnsgd1na2vs0mg"},{"bike_id":"a39ebd89-a00a-43df-96ce-8ed35a2fea9e","system_id":"levelo_inurba_marseille","lat":43.29728,"lon":5.37685,"is_reserved":false,"is_disabled":false,"rental_uris":{"android":"levelo://app?vid=a39ebd89-a00a-43df-96ce-8ed35a2fea9e","ios":"levelo://app?vid=a39ebd89-a00a-43df-96ce-8ed35a2fea9e"},"vehicle_type_id":"4","last_reported":1731258380,"current_range_meters":36800,"station_id":"ce4bgkh2rcd13ifvqbl0","pricing_plan_id":"cebpf4jnsgd1na2vs0mg"},{"bike_id":"8bac9053-3887-4a8c-beaf-c9a3ca84e1f9","system_id":"levelo_inurba_marseille","lat":43.29914,"lon":5.37444,"is_reserved":false,"is_disabled":false,"rental_uris":{"android":"levelo://app?vid=8bac9053-3887-4a8c-beaf-c9a3ca84e1f9","ios":"levelo://app?vid=8bac9053-3887-4a8c-beaf-c9a3ca84e1f9"},"vehicle_type_id":"4","last_reported":1731258380,"current_range_meters":34000,"station_id":"ce4bgjh2rcd13ifvqbg0","pricing_plan_id":"cebpf4jnsgd1na2vs0mg"},{"bike_id":"502958e4-ebc0-4c3c-a22c-416243a028b1","system_id":"levelo_inurba_marseille","lat":43.292297,"lon":5.360687,"is_reserved":false,"is_disabled":false,"rental_uris":{"android":"levelo://app?vid=502958e4-ebc0-4c3c-a22c-416243a028b1","ios":"levelo://app?vid=502958e4-ebc0-4c3c-a22c-416243a028b1"},"vehicle_type_id":"4","last_reported":1731258380,"current_range_meters":29600,"station_id":"","pricing_plan_id":"cebpf4jnsgd1na2vs0mg"},{"bike_id":"9815f926-daf6-452a-83e3-dbe3b03f05b8","system_id":"levelo_inurba_marseille","lat":43.29002,"lon":5.3562,"is_reserved":false,"is_disabled":false,"rental_uris":{"android":"levelo://app?vid=9815f926-daf6-452a-83e3-dbe3b03f05b8","ios":"levelo://app?vid=9815f926-daf6-452a-83e3-dbe3b03f05b8"},"vehicle_type_id":"4","last_reported":1731258380,"current_range_meters":38800,"station_id":"ce4bhb92rcd13ifvqen0","pricing_plan_id":"cebpf4jnsgd1na2vs0mg"},{"bike_id":"61ebae1e-7e43-4156-bc77-b929042392dc","system_id":"levelo_inurba_marseille","lat":43.29168,"lon":5.37147,"is_reserved":false,"is_disabled":false,"rental_uris":{"android":"levelo://app?vid=61ebae1e-7e43-4156-bc77-b929042392dc","ios":"levelo://app?vid=61ebae1e-7e43-4156-bc77-b929042392dc"},"vehicle_type_id":"4","last_reported":1731258380,"current_range_meters":38000,"station_id":"ce4bha92rcd13ifvqeh0","pricing_plan_id":"cebpf4jnsgd1na2vs0mg"},{"bike_id":"ea1c39cc-6666-4ec8-8bcb-eb2ccb0663a6","system_id":"levelo_inurba_marseille","lat":43.29539,"lon":5.3854,"is_reserved":false,"is_disabled":false,"rental_uris":{"android":"levelo://app?vid=ea1c39cc-6666-4ec8-8bcb-eb2ccb0663a6","ios":"levelo://app?vid=ea1c39cc-6666-4ec8-8bcb-eb2ccb0663a6"},"vehicle_type_id":"4","last_reported":1731258380,"current_range_meters":35600,"station_id":"ce4bgih2rcd13ifvqba0","pricing_plan_id":"cebpf4jnsgd1na2vs0mg"},{"bike_id":"caaab718-73b5-44f8-82c4-f1e61e7470f1","system_id":"levelo_inurba_marseille","lat":43.26956,"lon":5.38636,"is_reserved":false,"is_disabled":false,"rental_uris":{"android":"levelo://app?vid=caaab718-73b5-44f8-82c4-f1e61e7470f1","ios":"levelo://app?vid=caaab718-73b5-44f8-82c4-f1e61e7470f1"},"vehicle_type_id":"4","last_reported":1731258380,"current_range_meters":39200,"station_id":"ce4bhh92rcd13ifvqfh0","pricing_plan_id":"cebpf4jnsgd1na2vs0mg"},{"bike_id":"ca6bc757-afb2-47ae-8348-d50290e625d2","system_id":"levelo_inurba_marseille","lat":43.24811,"lon":5.37462,"is_reserved":false,"is_disabled":false,"rental_uris":{"android":"levelo://app?vid=ca6bc757-afb2-47ae-8348-d50290e625d2","ios":"levelo://app?vid=ca6bc757-afb2-47ae-8348-d50290e625d2"},"vehicle_type_id":"4","last_reported":1731258380,"current_range_meters":34800,"station_id":"ce4bhgh2rcd13ifvqfb0","pricing_plan_id":"cebpf4jnsgd1na2vs0mg"},{"bike_id":"beb26317-6daf-4280-afee-f4f951d8c540","system_id":"levelo_inurba_marseille","lat":43.283569,"lon":5.386409,"is_reserved":false,"is_disabled":false,"rental_uris":{"android":"levelo://app?vid=beb26317-6daf-4280-afee-f4f951d8c540","ios":"levelo://app?vid=beb26317-6daf-4280-afee-f4f951d8c540"},"vehicle_type_id":"4","last_reported":1731258380,"current_range_meters":33600,"station_id":"ce4bh492rcd13ifvqdvg","pricing_plan_id":"cebpf4jnsgd1na2vs0mg"},{"bike_id":"9badfce7-7321-4ef7-a8ba-e5190033f086","system_id":"levelo_inurba_marseille","lat":43.280011,"lon":5.400113,"is_reserved":false,"is_disabled":false,"rental_uris":{"android":"levelo://app?vid=9badfce7-7321-4ef7-a8ba-e5190033f086","ios":"levelo://app?vid=9badfce7-7321-4ef7-a8ba-e5190033f086"},"vehicle_type_id":"4","last_reported":1731258380,"current_range_meters":38800,"station_id":"ce4bho92rcd13ifvqh4g","pricing_plan_id":"cebpf4jnsgd1na2vs0mg"},{"bike_id":"b09f8662-d6b7-4d5f-9e7b-2e64de5c4b24","system_id":"levelo_inurba_marseille","lat":43.27936,"lon":5.41043,"is_reserved":false,"is_disabled":false,"rental_uris":{"android":"levelo://app?vid=b09f8662-d6b7-4d5f-9e7b-2e64de5c4b24","ios":"levelo://app?vid=b09f8662-d6b7-4d5f-9e7b-2e64de5c4b24"},"vehicle_type_id":"4","last_reported":1731258380,"current_range_meters":29600,"station_id":"ce4bhnp2rcd13ifvqh0g","pricing_plan_id":"cebpf4jnsgd1na2vs0mg"},{"bike_id":"5ed23518-fc12-4169-bbb4-a4a7ae24df31","system_id":"levelo_inurba_marseille","lat":43.28376,"lon":5.38648,"is_reserved":false,"is_disabled":false,"rental_uris":{"android":"levelo://app?vid=5ed23518-fc12-4169-bbb4-a4a7ae24df31","ios":"levelo://app?vid=5ed23518-fc12-4169-bbb4-a4a7ae24df31"},"vehicle_type_id":"4","last_reported":1731258380,"current_range_meters":28800,"station_id":"ce4bh492rcd13ifvqdvg","pricing_plan_id":"cebpf4jnsgd1na2vs0mg"},{"bike_id":"d80bc80a-79e2-4960-9f5a-d3c1961dd6d5","system_id":"levelo_inurba_marseille","lat":43.24077,"lon":5.37756,"is_reserved":false,"is_disabled":false,"rental_uris":{"android":"levelo://app?vid=d80bc80a-79e2-4960-9f5a-d3c1961dd6d5","ios":"levelo://app?vid=d80bc80a-79e2-4960-9f5a-d3c1961dd6d5"},"vehicle_type_id":"4","last_reported":1731258380,"current_range_meters":39200,"station_id":"ce4bhnp2rcd13ifvqgvg","pricing_plan_id":"cebpf4jnsgd1na2vs0mg"},{"bike_id":"67dc114c-1a92-4659-b791-2a62985524d3","system_id":"levelo_inurba_marseille","lat":43.31761,"lon":5.39012,"is_reserved":false,"is_disabled":false,"rental_uris":{"android":"levelo://app?vid=67dc114c-1a92-4659-b791-2a62985524d3","ios":"levelo://app?vid=67dc114c-1a92-4659-b791-2a62985524d3"},"vehicle_type_id":"4","last_reported":1731258380,"current_range_meters":38800,"station_id":"ce4bhqp2rcd13ifvqhng","pricing_plan_id":"cebpf4jnsgd1na2vs0mg"},{"bike_id":"78925440-ea58-4d15-ada4-d4bb6d4a61b7","system_id":"levelo_inurba_marseille","lat":43.29897,"lon":5.43678,"is_reserved":false,"is_disabled":false,"rental_uris":{"android":"levelo://app?vid=78925440-ea58-4d15-ada4-d4bb6d4a61b7","ios":"levelo://app?vid=78925440-ea58-4d15-ada4-d4bb6d4a61b7"},"vehicle_type_id":"4","last_reported":1731258380,"current_range_meters":36800,"station_id":"ce4bhpp2rcd13ifvqhfg","pricing_plan_id":"cebpf4jnsgd1na2vs0mg"},{"bike_id":"517a4c01-b8b5-4a47-9431-48ec7f9ef942","system_id":"levelo_inurba_marseille","lat":43.25005,"lon":5.38923,"is_reserved":false,"is_disabled":false,"rental_uris":{"android":"levelo://app?vid=517a4c01-b8b5-4a47-9431-48ec7f9ef942","ios":"levelo://app?vid=517a4c01-b8b5-4a47-9431-48ec7f9ef942"},"vehicle_type_id":"4","last_reported":1731258380,"current_range_meters":8000,"station_id":"ce4bhgp2rcd13ifvqfd0","pricing_plan_id":"cebpf4jnsgd1na2vs0mg"},{"bike_id":"181fa628-fd06-4339-88f4-5d411c857699","system_id":"levelo_inurba_marseille","lat":43.270656,"lon":5.422789,"is_reserved":false,"is_disabled":false,"rental_uris":{"android":"levelo://app?vid=181fa628-fd06-4339-88f4-5d411c857699","ios":"levelo://app?vid=181fa628-fd06-4339-88f4-5d411c857699"},"vehicle_type_id":"4","last_reported":1731258380,"current_range_meters":8400,"station_id":"ce4bhk92rcd13ifvqgb0","pricing_plan_id":"cebpf4jnsgd1na2vs0mg"},{"bike_id":"d9da941c-fa1f-4227-ab7a-6019b46a5ef9","system_id":"levelo_inurba_marseille","lat":43.291779,"lon":5.371504,"is_reserved":false,"is_disabled":false,"rental_uris":{"android":"levelo://app?vid=d9da941c-fa1f-4227-ab7a-6019b46a5ef9","ios":"levelo://app?vid=d9da941c-fa1f-4227-ab7a-6019b46a5ef9"},"vehicle_type_id":"4","last_reported":1731258380,"current_range_meters":8400,"station_id":"ce4bha92rcd13ifvqeh0","pricing_plan_id":"cebpf4jnsgd1na2vs0mg"},{"bike_id":"56b9fd6a-cb69-48a9-a114-494c2f608e55","system_id":"levelo_inurba_marseille","lat":43.29266,"lon":5.3844,"is_reserved":false,"is_disabled":false,"rental_uris":{"android":"levelo://app?vid=56b9fd6a-cb69-48a9-a114-494c2f608e55","ios":"levelo://app?vid=56b9fd6a-cb69-48a9-a114-494c2f608e55"},"vehicle_type_id":"4","last_reported":1731258380,"current_range_meters":38000,"station_id":"ce4bh692rcd13ifvqea0","pricing_plan_id":"cebpf4jnsgd1na2vs0mg"},{"bike_id":"9a5eb101-92a2-4eeb-93bd-8d070d90c1ea","system_id":"levelo_inurba_marseille","lat":43.30433,"lon":5.42528,"is_reserved":false,"is_disabled":false,"rental_uris":{"android":"levelo://app?vid=9a5eb101-92a2-4eeb-93bd-8d070d90c1ea","ios":"levelo://app?vid=9a5eb101-92a2-4eeb-93bd-8d070d90c1ea"},"vehicle_type_id":"4","last_reported":1731258380,"current_range_meters":10800,"station_id":"","pricing_plan_id":"cebpf4jnsgd1na2vs0mg"},{"bike_id":"f2c82a4f-663b-49db-a068-6dc24ce4e8ea","system_id":"levelo_inurba_marseille","lat":43.28424,"lon":5.36258,"is_reserved":false,"is_disabled":false,"rental_uris":{"android":"levelo://app?vid=f2c82a4f-663b-49db-a068-6dc24ce4e8ea","ios":"levelo://app?vid=f2c82a4f-663b-49db-a068-6dc24ce4e8ea"},"vehicle_type_id":"4","last_reported":1731258380,"current_range_meters":5600,"station_id":"ce4bhah2rcd13ifvqei0","pricing_plan_id":"cebpf4jnsgd1na2vs0mg"},{"bike_id":"7a1c0814-ac1f-4a35-abd8-136e6da8d465","system_id":"levelo_inurba_marseille","lat":43.30322,"lon":5.36908,"is_reserved":false,"is_disabled":false,"rental_uris":{"android":"levelo://app?vid=7a1c0814-ac1f-4a35-abd8-136e6da8d465","ios":"levelo://app?vid=7a1c0814-ac1f-4a35-abd8-136e6da8d465"},"vehicle_type_id":"4","last_reported":1731258380,"current_range_meters":38400,"station_id":"ce4bgqh2rcd13ifvqc5g","pricing_plan_id":"cebpf4jnsgd1na2vs0mg"},{"bike_id":"91a598a9-4284-4e88-ab7f-5e3a7e64ed8d","system_id":"levelo_inurba_marseille","lat":43.255,"lon":5.3765,"is_reserved":false,"is_disabled":false,"rental_uris":{"android":"levelo://app?vid=91a598a9-4284-4e88-ab7f-5e3a7e64ed8d","ios":"levelo://app?vid=91a598a9-4284-4e88-ab7f-5e3a7e64ed8d"},"vehicle_type_id":"4","last_reported":1731258380,"current_range_meters":6800,"station_id":"ce4bhh12rcd13ifvqff0","pricing_plan_id":"cebpf4jnsgd1na2vs0mg"},{"bike_id":"ecd32f14-95f0-46e8-a817-7f76327f5271","system_id":"levelo_inurba_marseille","lat":43.25826,"lon":5.39433,"is_reserved":false,"is_disabled":false,"rental_uris":{"android":"levelo://app?vid=ecd32f14-95f0-46e8-a817-7f76327f5271","ios":"levelo://app?vid=ecd32f14-95f0-46e8-a817-7f76327f5271"},"vehicle_type_id":"4","last_reported":1731258380,"current_range_meters":38800,"station_id":"ce4bhip2rcd13ifvqft0","pricing_plan_id":"cebpf4jnsgd1na2vs0mg"},{"bike_id":"04163c0f-9038-4c2c-ab3b-7d71867f9d39","system_id":"levelo_inurba_marseille","lat":43.27288,"lon":5.36282,"is_reserved":false,"is_disabled":false,"rental_uris":{"android":"levelo://app?vid=04163c0f-9038-4c2c-ab3b-7d71867f9d39","ios":"levelo://app?vid=04163c0f-9038-4c2c-ab3b-7d71867f9d39"},"vehicle_type_id":"4","last_reported":1731258380,"current_range_meters":18000,"station_id":"ce4bhbh2rcd13ifvqeo0","pricing_plan_id":"cebpf4jnsgd1na2vs0mg"},{"bike_id":"889e1c0c-2b96-4089-919a-b9933ca285ab","system_id":"levelo_inurba_marseille","lat":43.2455,"lon":5.39524,"is_reserved":false,"is_disabled":false,"rental_uris":{"android":"levelo://app?vid=889e1c0c-2b96-4089-919a-b9933ca285ab","ios":"levelo://app?vid=889e1c0c-2b96-4089-919a-b9933ca285ab"},"vehicle_type_id":"4","last_reported":1731258380,"current_range_meters":13600,"station_id":"ce4bhlp2rcd13ifvqgjg","pricing_plan_id":"cebpf4jnsgd1na2vs0mg"},{"bike_id":"172bbd64-3a78-48bd-b130-2d894b61a115","system_id":"levelo_inurba_marseille","lat":43.30253,"lon":5.40098,"is_reserved":false,"is_disabled":false,"rental_uris":{"android":"levelo://app?vid=172bbd64-3a78-48bd-b130-2d894b61a115","ios":"levelo://app?vid=172bbd64-3a78-48bd-b130-2d894b61a115"},"vehicle_type_id":"4","last_reported":1731258380,"current_range_meters":27200,"station_id":"ce4bgvh2rcd13ifvqcs0","pricing_plan_id":"cebpf4jnsgd1na2vs0mg"},{"bike_id":"a0715f43-5c35-44b0-affc-3f7558fd9f59","system_id":"levelo_inurba_marseille","lat":43.28851,"lon":5.35885,"is_reserved":false,"is_disabled":false,"rental_uris":{"android":"levelo://app?vid=a0715f43-5c35-44b0-affc-3f7558fd9f59","ios":"levelo://app?vid=a0715f43-5c35-44b0-affc-3f7558fd9f59"},"vehicle_type_id":"4","last_reported":1731258380,"current_range_meters":25600,"station_id":"ce4bh4p2rcd13ifvqe0g","pricing_plan_id":"cebpf4jnsgd1na2vs0mg"},{"bike_id":"96753775-bbea-4f45-b9f3-0bf25ad305d8","system_id":"levelo_inurba_marseille","lat":43.25935,"lon":5.40914,"is_reserved":false,"is_disabled":false,"rental_uris":{"android":"levelo://app?vid=96753775-bbea-4f45-b9f3-0bf25ad305d8","ios":"levelo://app?vid=96753775-bbea-4f45-b9f3-0bf25ad305d8"},"vehicle_type_id":"4","last_reported":1731258380,"current_range_meters":12000,"station_id":"ce4bhm92rcd13ifvqglg","pricing_plan_id":"cebpf4jnsgd1na2vs0mg"},{"bike_id":"07704a86-dbed-425a-854d-11b1a4e3d84c","system_id":"levelo_inurba_marseille","lat":43.33757,"lon":5.37442,"is_reserved":false,"is_disabled":false,"rental_uris":{"android":"levelo://app?vid=07704a86-dbed-425a-854d-11b1a4e3d84c","ios":"levelo://app?vid=07704a86-dbed-425a-854d-11b1a4e3d84c"},"vehicle_type_id":"4","last_reported":1731258380,"current_range_meters":29600,"station_id":"","pricing_plan_id":"cebpf4jnsgd1na2vs0mg"},{"bike_id":"0b9bd857-fbaf-469e-bff4-08ea93cd6703","system_id":"levelo_inurba_marseille","lat":43.29626,"lon":5.37718,"is_reserved":false,"is_disabled":false,"rental_uris":{"android":"levelo://app?vid=0b9bd857-fbaf-469e-bff4-08ea93cd6703","ios":"levelo://app?vid=0b9bd857-fbaf-469e-bff4-08ea93cd6703"},"vehicle_type_id":"4","last_reported":1731258380,"current_range_meters":38400,"station_id":"ce4bgi92rcd13ifvqb90","pricing_plan_id":"cebpf4jnsgd1na2vs0mg"},{"bike_id":"0b74ce83-e6b1-4485-8ca6-3897f29a426e","system_id":"levelo_inurba_marseille","lat":43.23959,"lon":5.36637,"is_reserved":false,"is_disabled":false,"rental_uris":{"android":"levelo://app?vid=0b74ce83-e6b1-4485-8ca6-3897f29a426e","ios":"levelo://app?vid=0b74ce83-e6b1-4485-8ca6-3897f29a426e"},"vehicle_type_id":"4","last_reported":1731258380,"current_range_meters":8400,"station_id":"ce4bhi12rcd13ifvqfp0","pricing_plan_id":"cebpf4jnsgd1na2vs0mg"},{"bike_id":"077d0165-dfb8-47b2-8955-f71087418f56","system_id":"levelo_inurba_marseille","lat":43.286997,"lon":5.399834,"is_reserved":false,"is_disabled":false,"rental_uris":{"android":"levelo://app?vid=077d0165-dfb8-47b2-8955-f71087418f56","ios":"levelo://app?vid=077d0165-dfb8-47b2-8955-f71087418f56"},"vehicle_type_id":"4","last_reported":1731258380,"current_range_meters":8000,"station_id":"ce4bho92rcd13ifvqh3g","pricing_plan_id":"cebpf4jnsgd1na2vs0mg"},{"bike_id":"50b03514-e7e6-47f3-aed2-89db7b056ed4","system_id":"levelo_inurba_marseille","lat":43.299877,"lon":5.384764,"is_reserved":false,"is_disabled":false,"rental_uris":{"android":"levelo://app?vid=50b03514-e7e6-47f3-aed2-89db7b056ed4","ios":"levelo://app?vid=50b03514-e7e6-47f3-aed2-89db7b056ed4"},"vehicle_type_id":"4","last_reported":1731258380,"current_range_meters":20800,"station_id":"ce4bgj92rcd13ifvqbd0","pricing_plan_id":"cebpf4jnsgd1na2vs0mg"},{"bike_id":"5b35cba1-0f16-456d-8a2f-c4a9b1510b1f","system_id":"levelo_inurba_marseille","lat":43.30303,"lon":5.36886,"is_reserved":false,"is_disabled":false,"rental_uris":{"android":"levelo://app?vid=5b35cba1-0f16-456d-8a2f-c4a9b1510b1f","ios":"levelo://app?vid=5b35cba1-0f16-456d-8a2f-c4a9b1510b1f"},"vehicle_type_id":"4","last_reported":1731258380,"current_range_meters":39200,"station_id":"ce4bgqh2rcd13ifvqc5g","pricing_plan_id":"cebpf4jnsgd1na2vs0mg"},{"bike_id":"0c1d7df7-ae4e-47f6-bf0d-eb14fff27e0c","system_id":"levelo_inurba_marseille","lat":43.28102,"lon":5.37836,"is_reserved":false,"is_disabled":false,"rental_uris":{"android":"levelo://app?vid=0c1d7df7-ae4e-47f6-bf0d-eb14fff27e0c","ios":"levelo://app?vid=0c1d7df7-ae4e-47f6-bf0d-eb14fff27e0c"},"vehicle_type_id":"4","last_reported":1731258380,"current_range_meters":28400,"station_id":"ce4bha12rcd13ifvqee0","pricing_plan_id":"cebpf4jnsgd1na2vs0mg"},{"bike_id":"baac3be3-010c-4ab7-b814-2af962c842f8","system_id":"levelo_inurba_marseille","lat":43.28369,"lon":5.37527,"is_reserved":false,"is_disabled":false,"rental_uris":{"android":"levelo://app?vid=baac3be3-010c-4ab7-b814-2af962c842f8","ios":"levelo://app?vid=baac3be3-010c-4ab7-b814-2af962c842f8"},"vehicle_type_id":"4","last_reported":1731258380,"current_range_meters":25600,"station_id":"ce4bh412rcd13ifvqds0","pricing_plan_id":"cebpf4jnsgd1na2vs0mg"},{"bike_id":"7fca2be9-e6d6-48ce-88ef-112984554918","system_id":"levelo_inurba_marseille","lat":43.30357,"lon":5.41881,"is_reserved":false,"is_disabled":false,"rental_uris":{"android":"levelo://app?vid=7fca2be9-e6d6-48ce-88ef-112984554918","ios":"levelo://app?vid=7fca2be9-e6d6-48ce-88ef-112984554918"},"vehicle_type_id":"4","last_reported":1731258380,"current_range_meters":11600,"station_id":"ce4bhop2rcd13ifvqh7g","pricing_plan_id":"cebpf4jnsgd1na2vs0mg"},{"bike_id":"24e9f0e6-0676-4f55-a46e-734079f34f83","system_id":"levelo_inurba_marseille","lat":43.30248,"lon":5.40079,"is_reserved":false,"is_disabled":false,"rental_uris":{"android":"levelo://app?vid=24e9f0e6-0676-4f55-a46e-734079f34f83","ios":"levelo://app?vid=24e9f0e6-0676-4f55-a46e-734079f34f83"},"vehicle_type_id":"4","last_reported":1731258380,"current_range_meters":13600,"station_id":"ce4bgvh2rcd13ifvqcs0","pricing_plan_id":"cebpf4jnsgd1na2vs0mg"},{"bike_id":"8a810937-7ee2-474a-b68f-c89ce5fb2e84","system_id":"levelo_inurba_marseille","lat":43.27504,"lon":5.42461,"is_reserved":false,"is_disabled":false,"rental_uris":{"android":"levelo://app?vid=8a810937-7ee2-474a-b68f-c89ce5fb2e84","ios":"levelo://app?vid=8a810937-7ee2-474a-b68f-c89ce5fb2e84"},"vehicle_type_id":"4","last_reported":1731258380,"current_range_meters":18000,"station_id":"ce4bhn92rcd13ifvqgrg","pricing_plan_id":"cebpf4jnsgd1na2vs0mg"},{"bike_id":"7c59c113-339d-4f9b-b12b-18190bdaf895","system_id":"levelo_inurba_marseille","lat":43.25085,"lon":5.39529,"is_reserved":false,"is_disabled":false,"rental_uris":{"android":"levelo://app?vid=7c59c113-339d-4f9b-b12b-18190bdaf895","ios":"levelo://app?vid=7c59c113-339d-4f9b-b12b-18190bdaf895"},"vehicle_type_id":"4","last_reported":1731258380,"current_range_meters":38800,"station_id":"ce4bhm12rcd13ifvqgkg","pricing_plan_id":"cebpf4jnsgd1na2vs0mg"},{"bike_id":"6fabbb8c-a56d-4a53-9f01-1bc3642318a0","system_id":"levelo_inurba_marseille","lat":43.23962,"lon":5.36635,"is_reserved":false,"is_disabled":false,"rental_uris":{"android":"levelo://app?vid=6fabbb8c-a56d-4a53-9f01-1bc3642318a0","ios":"levelo://app?vid=6fabbb8c-a56d-4a53-9f01-1bc3642318a0"},"vehicle_type_id":"4","last_reported":1731258380,"current_range_meters":14400,"station_id":"ce4bhi12rcd13ifvqfp0","pricing_plan_id":"cebpf4jnsgd1na2vs0mg"},{"bike_id":"4fa1528e-18e5-4186-969d-418c95383671","system_id":"levelo_inurba_marseille","lat":43.26054,"lon":5.39406,"is_reserved":false,"is_disabled":false,"rental_uris":{"android":"levelo://app?vid=4fa1528e-18e5-4186-969d-418c95383671","ios":"levelo://app?vid=4fa1528e-18e5-4186-969d-418c95383671"},"vehicle_type_id":"4","last_reported":1731258380,"current_range_meters":20800,"station_id":"ce4bhh92rcd13ifvqfj0","pricing_plan_id":"cebpf4jnsgd1na2vs0mg"},{"bike_id":"3d7d5d6d-c6a7-4c5e-94fd-d628aecdce64","system_id":"levelo_inurba_marseille","lat":43.32292,"lon":5.38275,"is_reserved":false,"is_disabled":false,"rental_uris":{"android":"levelo://app?vid=3d7d5d6d-c6a7-4c5e-94fd-d628aecdce64","ios":"levelo://app?vid=3d7d5d6d-c6a7-4c5e-94fd-d628aecdce64"},"vehicle_type_id":"4","last_reported":1731258380,"current_range_meters":12400,"station_id":"ce4bhr12rcd13ifvqhqg","pricing_plan_id":"cebpf4jnsgd1na2vs0mg"},{"bike_id":"33d0e7ab-362c-4e4c-85a0-5b19116b340b","system_id":"levelo_inurba_marseille","lat":43.29959,"lon":5.41339,"is_reserved":false,"is_disabled":false,"rental_uris":{"android":"levelo://app?vid=33d0e7ab-362c-4e4c-85a0-5b19116b340b","ios":"levelo://app?vid=33d0e7ab-362c-4e4c-85a0-5b19116b340b"},"vehicle_type_id":"4","last_reported":1731258380,"current_range_meters":2000,"station_id":"ce4bhp12rcd13ifvqh9g","pricing_plan_id":"cebpf4jnsgd1na2vs0mg"},{"bike_id":"14dd4318-003d-449d-88d9-523d5607a73a","system_id":"levelo_inurba_marseille","lat":43.29788,"lon":5.38113,"is_reserved":false,"is_disabled":false,"rental_uris":{"android":"levelo://app?vid=14dd4318-003d-449d-88d9-523d5607a73a","ios":"levelo://app?vid=14dd4318-003d-449d-88d9-523d5607a73a"},"vehicle_type_id":"4","last_reported":1731258380,"current_range_meters":35200,"station_id":"ce4bgip2rcd13ifvqbb0","pricing_plan_id":"cebpf4jnsgd1na2vs0mg"},{"bike_id":"f9536705-6469-40fe-8b90-ba5d77388fb4","system_id":"levelo_inurba_marseille","lat":43.2549,"lon":5.37652,"is_reserved":false,"is_disabled":false,"rental_uris":{"android":"levelo://app?vid=f9536705-6469-40fe-8b90-ba5d77388fb4","ios":"levelo://app?vid=f9536705-6469-40fe-8b90-ba5d77388fb4"},"vehicle_type_id":"4","last_reported":1731258380,"current_range_meters":17200,"station_id":"ce4bhh12rcd13ifvqff0","pricing_plan_id":"cebpf4jnsgd1na2vs0mg"},{"bike_id":"902f2a39-2685-42bb-9d04-4c2ff2a803a8","system_id":"levelo_inurba_marseille","lat":43.29269,"lon":5.409,"is_reserved":false,"is_disabled":false,"rental_uris":{"android":"levelo://app?vid=902f2a39-2685-42bb-9d04-4c2ff2a803a8","ios":"levelo://app?vid=902f2a39-2685-42bb-9d04-4c2ff2a803a8"},"vehicle_type_id":"4","last_reported":1731258380,"current_range_meters":34000,"station_id":"ce4bh192rcd13ifvqdc0","pricing_plan_id":"cebpf4jnsgd1na2vs0mg"},{"bike_id":"6da06f85-e08e-4d62-b03d-37391773fb47","system_id":"levelo_inurba_marseille","lat":43.32485,"lon":5.36567,"is_reserved":false,"is_disabled":false,"rental_uris":{"android":"levelo://app?vid=6da06f85-e08e-4d62-b03d-37391773fb47","ios":"levelo://app?vid=6da06f85-e08e-4d62-b03d-37391773fb47"},"vehicle_type_id":"4","last_reported":1731258380,"current_range_meters":29600,"station_id":"ce4bhs12rcd13ifvqhvg","pricing_plan_id":"cebpf4jnsgd1na2vs0mg"},{"bike_id":"76cb7de1-c6cf-46f4-817f-a13daaf098d0","system_id":"levelo_inurba_marseille","lat":43.31536,"lon":5.38022,"is_reserved":false,"is_disabled":false,"rental_uris":{"android":"levelo://app?vid=76cb7de1-c6cf-46f4-817f-a13daaf098d0","ios":"levelo://app?vid=76cb7de1-c6cf-46f4-817f-a13daaf098d0"},"vehicle_type_id":"4","last_reported":1731258380,"current_range_meters":6400,"station_id":"ce4bhsp2rcd13ifvqi50","pricing_plan_id":"cebpf4jnsgd1na2vs0mg"},{"bike_id":"e8cee6d3-d6db-4327-998c-e92454f00891","system_id":"levelo_inurba_marseille","lat":43.31696,"lon":5.40485,"is_reserved":false,"is_disabled":false,"rental_uris":{"android":"levelo://app?vid=e8cee6d3-d6db-4327-998c-e92454f00891","ios":"levelo://app?vid=e8cee6d3-d6db-4327-998c-e92454f00891"},"vehicle_type_id":"4","last_reported":1731258380,"current_range_meters":37600,"station_id":"ce4bh012rcd13ifvqd00","pricing_plan_id":"cebpf4jnsgd1na2vs0mg"},{"bike_id":"4b7b02ab-4354-4c4f-8674-66c5b02886de","system_id":"levelo_inurba_marseille","lat":43.29535,"lon":5.38538,"is_reserved":false,"is_disabled":false,"rental_uris":{"android":"levelo://app?vid=4b7b02ab-4354-4c4f-8674-66c5b02886de","ios":"levelo://app?vid=4b7b02ab-4354-4c4f-8674-66c5b02886de"},"vehicle_type_id":"4","last_reported":1731258380,"current_range_meters":34800,"station_id":"ce4bgih2rcd13ifvqba0","pricing_plan_id":"cebpf4jnsgd1na2vs0mg"},{"bike_id":"934ea3cb-1b84-4567-901a-851db8c64839","system_id":"levelo_inurba_marseille","lat":43.262085,"lon":5.374402,"is_reserved":false,"is_disabled":false,"rental_uris":{"android":"levelo://app?vid=934ea3cb-1b84-4567-901a-851db8c64839","ios":"levelo://app?vid=934ea3cb-1b84-4567-901a-851db8c64839"},"vehicle_type_id":"4","last_reported":1731258380,"current_range_meters":32400,"station_id":"ce4bh0h2rcd13ifvqd60","pricing_plan_id":"cebpf4jnsgd1na2vs0mg"},{"bike_id":"79fb1cba-384e-4b39-91e8-a5a9c4ed956e","system_id":"levelo_inurba_marseille","lat":43.284668,"lon":5.384464,"is_reserved":false,"is_disabled":false,"rental_uris":{"android":"levelo://app?vid=79fb1cba-384e-4b39-91e8-a5a9c4ed956e","ios":"levelo://app?vid=79fb1cba-384e-4b39-91e8-a5a9c4ed956e"},"vehicle_type_id":"4","last_reported":1731258380,"current_range_meters":28400,"station_id":"ce4bh512rcd13ifvqe3g","pricing_plan_id":"cebpf4jnsgd1na2vs0mg"},{"bike_id":"84810520-ff69-4f47-a2b6-83d3e958793d","system_id":"levelo_inurba_marseille","lat":43.29626,"lon":5.40598,"is_reserved":false,"is_disabled":false,"rental_uris":{"android":"levelo://app?vid=84810520-ff69-4f47-a2b6-83d3e958793d","ios":"levelo://app?vid=84810520-ff69-4f47-a2b6-83d3e958793d"},"vehicle_type_id":"4","last_reported":1731258380,"current_range_meters":34000,"station_id":"ce4bh0h2rcd13ifvqd60","pricing_plan_id":"cebpf4jnsgd1na2vs0mg"},{"bike_id":"58456880-108f-4854-bd37-9a9d96f58604","system_id":"levelo_inurba_marseille","lat":43.295354,"lon":5.385515,"is_reserved":false,"is_disabled":false,"rental_uris":{"android":"levelo://app?vid=58456880-108f-4854-bd37-9a9d96f58604","ios":"levelo://app?vid=58456880-108f-4854-bd37-9a9d96f58604"},"vehicle_type_id":"4","last_reported":1731258380,"current_range_meters":6400,"station_id":"ce4bgih2rcd13ifvqba0","pricing_plan_id":"cebpf4jnsgd1na2vs0mg"},{"bike_id":"e439dd18-489b-417d-8271-2a0e899a398d","system_id":"levelo_inurba_marseille","lat":43.25493,"lon":5.3765,"is_reserved":false,"is_disabled":false,"rental_uris":{"android":"levelo://app?vid=e439dd18-489b-417d-8271-2a0e899a398d","ios":"levelo://app?vid=e439dd18-489b-417d-8271-2a0e899a398d"},"vehicle_type_id":"4","last_reported":1731258380,"current_range_meters":38800,"station_id":"ce4bhh12rcd13ifvqff0","pricing_plan_id":"cebpf4jnsgd1na2vs0mg"},{"bike_id":"b27d7648-7f54-4ad3-a4f4-a22ee3bd61f3","system_id":"levelo_inurba_marseille","lat":43.28037,"lon":5.36955,"is_reserved":false,"is_disabled":false,"rental_uris":{"android":"levelo://app?vid=b27d7648-7f54-4ad3-a4f4-a22ee3bd61f3","ios":"levelo://app?vid=b27d7648-7f54-4ad3-a4f4-a22ee3bd61f3"},"vehicle_type_id":"4","last_reported":1731258380,"current_range_meters":16000,"station_id":"ce4bha12rcd13ifvqef0","pricing_plan_id":"cebpf4jnsgd1na2vs0mg"},{"bike_id":"30de2e8a-2067-4723-b10c-0ae5e73636b6","system_id":"levelo_inurba_marseille","lat":43.29535,"lon":5.38542,"is_reserved":false,"is_disabled":false,"rental_uris":{"android":"levelo://app?vid=30de2e8a-2067-4723-b10c-0ae5e73636b6","ios":"levelo://app?vid=30de2e8a-2067-4723-b10c-0ae5e73636b6"},"vehicle_type_id":"4","last_reported":1731258380,"current_range_meters":38000,"station_id":"ce4bgih2rcd13ifvqba0","pricing_plan_id":"cebpf4jnsgd1na2vs0mg"},{"bike_id":"5faca53e-f54f-4420-98e8-f26ee1fce0d3","system_id":"levelo_inurba_marseille","lat":43.29244,"lon":5.38451,"is_reserved":false,"is_disabled":false,"rental_uris":{"android":"levelo://app?vid=5faca53e-f54f-4420-98e8-f26ee1fce0d3","ios":"levelo://app?vid=5faca53e-f54f-4420-98e8-f26ee1fce0d3"},"vehicle_type_id":"4","last_reported":1731258380,"current_range_meters":9200,"station_id":"ce4bh692rcd13ifvqea0","pricing_plan_id":"cebpf4jnsgd1na2vs0mg"},{"bike_id":"dbf8eb75-d060-4e1b-b763-a42b17a72f02","system_id":"levelo_inurba_marseille","lat":43.31818,"lon":5.42251,"is_reserved":false,"is_disabled":false,"rental_uris":{"android":"levelo://app?vid=dbf8eb75-d060-4e1b-b763-a42b17a72f02","ios":"levelo://app?vid=dbf8eb75-d060-4e1b-b763-a42b17a72f02"},"vehicle_type_id":"4","last_reported":1731258380,"current_range_meters":38000,"station_id":"","pricing_plan_id":"cebpf4jnsgd1na2vs0mg"},{"bike_id":"5ba74336-ac20-45c4-b879-3c13195ddc2f","system_id":"levelo_inurba_marseille","lat":43.32483,"lon":5.36565,"is_reserved":false,"is_disabled":false,"rental_uris":{"android":"levelo://app?vid=5ba74336-ac20-45c4-b879-3c13195ddc2f","ios":"levelo://app?vid=5ba74336-ac20-45c4-b879-3c13195ddc2f"},"vehicle_type_id":"4","last_reported":1731258380,"current_range_meters":39200,"station_id":"ce4bhs12rcd13ifvqhvg","pricing_plan_id":"cebpf4jnsgd1na2vs0mg"},{"bike_id":"561e866e-dea6-4406-823f-8aeedb46e0dc","system_id":"levelo_inurba_marseille","lat":43.2651,"lon":5.39547,"is_reserved":false,"is_disabled":false,"rental_uris":{"android":"levelo://app?vid=561e866e-dea6-4406-823f-8aeedb46e0dc","ios":"levelo://app?vid=561e866e-dea6-4406-823f-8aeedb46e0dc"},"vehicle_type_id":"4","last_reported":1731258380,"current_range_meters":25200,"station_id":"ce4bhi12rcd13ifvqfq0","pricing_plan_id":"cebpf4jnsgd1na2vs0mg"},{"bike_id":"494b04c7-6785-4c5d-a61c-8f0040956b64","system_id":"levelo_inurba_marseille","lat":43.289263,"lon":5.384062,"is_reserved":false,"is_disabled":false,"rental_uris":{"android":"levelo://app?vid=494b04c7-6785-4c5d-a61c-8f0040956b64","ios":"levelo://app?vid=494b04c7-6785-4c5d-a61c-8f0040956b64"},"vehicle_type_id":"4","last_reported":1731258380,"current_range_meters":4000,"station_id":"ce4bh612rcd13ifvqe6g","pricing_plan_id":"cebpf4jnsgd1na2vs0mg"},{"bike_id":"89fd104b-8a8c-47be-9ec7-9e0822074c0d","system_id":"levelo_inurba_marseille","lat":43.24803,"lon":5.37457,"is_reserved":false,"is_disabled":false,"rental_uris":{"android":"levelo://app?vid=89fd104b-8a8c-47be-9ec7-9e0822074c0d","ios":"levelo://app?vid=89fd104b-8a8c-47be-9ec7-9e0822074c0d"},"vehicle_type_id":"4","last_reported":1731258380,"current_range_meters":26000,"station_id":"ce4bhgh2rcd13ifvqfb0","pricing_plan_id":"cebpf4jnsgd1na2vs0mg"},{"bike_id":"db2e6139-0551-4de2-8e50-fffa4eceeafd","system_id":"levelo_inurba_marseille","lat":43.29268,"lon":5.36843,"is_reserved":false,"is_disabled":false,"rental_uris":{"android":"levelo://app?vid=db2e6139-0551-4de2-8e50-fffa4eceeafd","ios":"levelo://app?vid=db2e6139-0551-4de2-8e50-fffa4eceeafd"},"vehicle_type_id":"4","last_reported":1731258380,"current_range_meters":28000,"station_id":"ce4bhbp2rcd13ifvqesg","pricing_plan_id":"cebpf4jnsgd1na2vs0mg"},{"bike_id":"fc383813-80ad-49ed-b22e-a82ab82701f9","system_id":"levelo_inurba_marseille","lat":43.32479,"lon":5.36566,"is_reserved":false,"is_disabled":false,"rental_uris":{"android":"levelo://app?vid=fc383813-80ad-49ed-b22e-a82ab82701f9","ios":"levelo://app?vid=fc383813-80ad-49ed-b22e-a82ab82701f9"},"vehicle_type_id":"4","last_reported":1731258380,"current_range_meters":18000,"station_id":"ce4bhs12rcd13ifvqhvg","pricing_plan_id":"cebpf4jnsgd1na2vs0mg"},{"bike_id":"52a71ef5-8ef7-4a13-9edb-b931936b8cfb","system_id":"levelo_inurba_marseille","lat":43.33722,"lon":5.39187,"is_reserved":false,"is_disabled":false,"rental_uris":{"android":"levelo://app?vid=52a71ef5-8ef7-4a13-9edb-b931936b8cfb","ios":"levelo://app?vid=52a71ef5-8ef7-4a13-9edb-b931936b8cfb"},"vehicle_type_id":"4","last_reported":1731258380,"current_range_meters":35200,"station_id":"ce4bhr92rcd13ifvqhsg","pricing_plan_id":"cebpf4jnsgd1na2vs0mg"},{"bike_id":"96be8a37-4df7-4668-aafb-c6095fc30445","system_id":"levelo_inurba_marseille","lat":43.287028,"lon":5.373931,"is_reserved":false,"is_disabled":false,"rental_uris":{"android":"levelo://app?vid=96be8a37-4df7-4668-aafb-c6095fc30445","ios":"levelo://app?vid=96be8a37-4df7-4668-aafb-c6095fc30445"},"vehicle_type_id":"4","last_reported":1731258380,"current_range_meters":16800,"station_id":"ce4bh3p2rcd13ifvqdq0","pricing_plan_id":"cebpf4jnsgd1na2vs0mg"},{"bike_id":"10356833-33b6-41fe-9ef0-40c7be270586","system_id":"levelo_inurba_marseille","lat":43.295319,"lon":5.385398,"is_reserved":false,"is_disabled":false,"rental_uris":{"android":"levelo://app?vid=10356833-33b6-41fe-9ef0-40c7be270586","ios":"levelo://app?vid=10356833-33b6-41fe-9ef0-40c7be270586"},"vehicle_type_id":"4","last_reported":1731258380,"current_range_meters":36000,"station_id":"ce4bgih2rcd13ifvqba0","pricing_plan_id":"cebpf4jnsgd1na2vs0mg"},{"bike_id":"c4580820-01d1-437a-b089-0b721d0f8150","system_id":"levelo_inurba_marseille","lat":43.31226,"lon":5.36854,"is_reserved":false,"is_disabled":false,"rental_uris":{"android":"levelo://app?vid=c4580820-01d1-437a-b089-0b721d0f8150","ios":"levelo://app?vid=c4580820-01d1-437a-b089-0b721d0f8150"},"vehicle_type_id":"4","last_reported":1731258380,"current_range_meters":38400,"station_id":"ce4bgl92rcd13ifvqbq0","pricing_plan_id":"cebpf4jnsgd1na2vs0mg"},{"bike_id":"1cebbe68-266b-46fe-b2e0-a6e0c18613b4","system_id":"levelo_inurba_marseille","lat":43.30303,"lon":5.40249,"is_reserved":false,"is_disabled":false,"rental_uris":{"android":"levelo://app?vid=1cebbe68-266b-46fe-b2e0-a6e0c18613b4","ios":"levelo://app?vid=1cebbe68-266b-46fe-b2e0-a6e0c18613b4"},"vehicle_type_id":"4","last_reported":1731258380,"current_range_meters":24000,"station_id":"ce4bhpp2rcd13ifvqhgg","pricing_plan_id":"cebpf4jnsgd1na2vs0mg"},{"bike_id":"5c18fdbd-142b-47d2-ae71-a350b9577093","system_id":"levelo_inurba_marseille","lat":43.31073,"lon":5.3835,"is_reserved":false,"is_disabled":false,"rental_uris":{"android":"levelo://app?vid=5c18fdbd-142b-47d2-ae71-a350b9577093","ios":"levelo://app?vid=5c18fdbd-142b-47d2-ae71-a350b9577093"},"vehicle_type_id":"4","last_reported":1731258380,"current_range_meters":6400,"station_id":"ce4bgv92rcd13ifvqcr0","pricing_plan_id":"cebpf4jnsgd1na2vs0mg"},{"bike_id":"044a3edc-9a14-4f39-8824-b4326d5db563","system_id":"levelo_inurba_marseille","lat":43.29638,"lon":5.40591,"is_reserved":false,"is_disabled":false,"rental_uris":{"android":"levelo://app?vid=044a3edc-9a14-4f39-8824-b4326d5db563","ios":"levelo://app?vid=044a3edc-9a14-4f39-8824-b4326d5db563"},"vehicle_type_id":"4","last_reported":1731258380,"current_range_meters":33200,"station_id":"ce4bh0h2rcd13ifvqd60","pricing_plan_id":"cebpf4jnsgd1na2vs0mg"},{"bike_id":"16edd5e5-0497-4831-bb6b-d18eb7e92293","system_id":"levelo_inurba_marseille","lat":43.24812,"lon":5.37457,"is_reserved":false,"is_disabled":false,"rental_uris":{"android":"levelo://app?vid=16edd5e5-0497-4831-bb6b-d18eb7e92293","ios":"levelo://app?vid=16edd5e5-0497-4831-bb6b-d18eb7e92293"},"vehicle_type_id":"4","last_reported":1731258380,"current_range_meters":28800,"station_id":"ce4bhgh2rcd13ifvqfb0","pricing_plan_id":"cebpf4jnsgd1na2vs0mg"},{"bike_id":"feb86f62-2c80-4064-8e38-33c5534046da","system_id":"levelo_inurba_marseille","lat":43.28198,"lon":5.39919,"is_reserved":false,"is_disabled":false,"rental_uris":{"android":"levelo://app?vid=feb86f62-2c80-4064-8e38-33c5534046da","ios":"levelo://app?vid=feb86f62-2c80-4064-8e38-33c5534046da"},"vehicle_type_id":"4","last_reported":1731258380,"current_range_meters":20800,"station_id":"","pricing_plan_id":"cebpf4jnsgd1na2vs0mg"},{"bike_id":"f7938edf-6384-4160-9e00-aec056fe654c","system_id":"levelo_inurba_marseille","lat":43.231934,"lon":5.35555,"is_reserved":false,"is_disabled":false,"rental_uris":{"android":"levelo://app?vid=f7938edf-6384-4160-9e00-aec056fe654c","ios":"levelo://app?vid=f7938edf-6384-4160-9e00-aec056fe654c"},"vehicle_type_id":"4","last_reported":1731258380,"current_range_meters":38400,"station_id":"ce4bhu92rcd13ifvqi70","pricing_plan_id":"cebpf4jnsgd1na2vs0mg"},{"bike_id":"dfa5ed4b-9c58-4233-8b21-e3838d442496","system_id":"levelo_inurba_marseille","lat":43.32665,"lon":5.40994,"is_reserved":false,"is_disabled":false,"rental_uris":{"android":"levelo://app?vid=dfa5ed4b-9c58-4233-8b21-e3838d442496","ios":"levelo://app?vid=dfa5ed4b-9c58-4233-8b21-e3838d442496"},"vehicle_type_id":"4","last_reported":1731258380,"current_range_meters":26800,"station_id":"ce4bhpp2rcd13ifvqhgg","pricing_plan_id":"cebpf4jnsgd1na2vs0mg"},{"bike_id":"2ce143bc-60a0-403a-b548-70e5b60e9fa4","system_id":"levelo_inurba_marseille","lat":43.29369,"lon":5.37855,"is_reserved":false,"is_disabled":false,"rental_uris":{"android":"levelo://app?vid=2ce143bc-60a0-403a-b548-70e5b60e9fa4","ios":"levelo://app?vid=2ce143bc-60a0-403a-b548-70e5b60e9fa4"},"vehicle_type_id":"4","last_reported":1731258380,"current_range_meters":34800,"station_id":"ce4bgjh2rcd13ifvqbf0","pricing_plan_id":"cebpf4jnsgd1na2vs0mg"},{"bike_id":"5433f255-8b3a-4ae1-97d0-4edec35efaff","system_id":"levelo_inurba_marseille","lat":43.29009,"lon":5.35614,"is_reserved":false,"is_disabled":false,"rental_uris":{"android":"levelo://app?vid=5433f255-8b3a-4ae1-97d0-4edec35efaff","ios":"levelo://app?vid=5433f255-8b3a-4ae1-97d0-4edec35efaff"},"vehicle_type_id":"4","last_reported":1731258380,"current_range_meters":22000,"station_id":"ce4bhb92rcd13ifvqen0","pricing_plan_id":"cebpf4jnsgd1na2vs0mg"},{"bike_id":"08b0ca7b-b238-4764-9458-fc55896e554d","system_id":"levelo_inurba_marseille","lat":43.299,"lon":5.38128,"is_reserved":false,"is_disabled":false,"rental_uris":{"android":"levelo://app?vid=08b0ca7b-b238-4764-9458-fc55896e554d","ios":"levelo://app?vid=08b0ca7b-b238-4764-9458-fc55896e554d"},"vehicle_type_id":"4","last_reported":1731258380,"current_range_meters":38400,"station_id":"ce4bgj12rcd13ifvqbc0","pricing_plan_id":"cebpf4jnsgd1na2vs0mg"},{"bike_id":"92d10030-6bbf-4b13-8747-6eaf1d5803ed","system_id":"levelo_inurba_marseille","lat":43.24086,"lon":5.37747,"is_reserved":false,"is_disabled":false,"rental_uris":{"android":"levelo://app?vid=92d10030-6bbf-4b13-8747-6eaf1d5803ed","ios":"levelo://app?vid=92d10030-6bbf-4b13-8747-6eaf1d5803ed"},"vehicle_type_id":"4","last_reported":1731258380,"current_range_meters":18800,"station_id":"ce4bhnp2rcd13ifvqgvg","pricing_plan_id":"cebpf4jnsgd1na2vs0mg"},{"bike_id":"623a82b7-3ac1-427a-b599-9a2277323706","system_id":"levelo_inurba_marseille","lat":43.28364,"lon":5.38105,"is_reserved":false,"is_disabled":false,"rental_uris":{"android":"levelo://app?vid=623a82b7-3ac1-427a-b599-9a2277323706","ios":"levelo://app?vid=623a82b7-3ac1-427a-b599-9a2277323706"},"vehicle_type_id":"4","last_reported":1731258380,"current_range_meters":16800,"station_id":"ce4bh412rcd13ifvqdr0","pricing_plan_id":"cebpf4jnsgd1na2vs0mg"},{"bike_id":"95618571-f759-4e96-a9e5-1073affa7a3b","system_id":"levelo_inurba_marseille","lat":43.29228,"lon":5.36064,"is_reserved":false,"is_disabled":false,"rental_uris":{"android":"levelo://app?vid=95618571-f759-4e96-a9e5-1073affa7a3b","ios":"levelo://app?vid=95618571-f759-4e96-a9e5-1073affa7a3b"},"vehicle_type_id":"4","last_reported":1731258380,"current_range_meters":38800,"station_id":"ce4bhbh2rcd13ifvqeqg","pricing_plan_id":"cebpf4jnsgd1na2vs0mg"},{"bike_id":"a09cbe4a-ea7f-4315-850c-aee37d8f9de7","system_id":"levelo_inurba_marseille","lat":43.29803,"lon":5.38231,"is_reserved":false,"is_disabled":false,"rental_uris":{"android":"levelo://app?vid=a09cbe4a-ea7f-4315-850c-aee37d8f9de7","ios":"levelo://app?vid=a09cbe4a-ea7f-4315-850c-aee37d8f9de7"},"vehicle_type_id":"4","last_reported":1731258380,"current_range_meters":19200,"station_id":"","pricing_plan_id":"cebpf4jnsgd1na2vs0mg"},{"bike_id":"af9148c1-4903-44d5-89db-db730aa5492c","system_id":"levelo_inurba_marseille","lat":43.29652,"lon":5.37299,"is_reserved":false,"is_disabled":false,"rental_uris":{"android":"levelo://app?vid=af9148c1-4903-44d5-89db-db730aa5492c","ios":"levelo://app?vid=af9148c1-4903-44d5-89db-db730aa5492c"},"vehicle_type_id":"4","last_reported":1731258380,"current_range_meters":34800,"station_id":"ce4bgk12rcd13ifvqbj0","pricing_plan_id":"cebpf4jnsgd1na2vs0mg"},{"bike_id":"0acccacb-5c5e-4293-af73-a3ca4b76801a","system_id":"levelo_inurba_marseille","lat":43.27956,"lon":5.41057,"is_reserved":false,"is_disabled":false,"rental_uris":{"android":"levelo://app?vid=0acccacb-5c5e-4293-af73-a3ca4b76801a","ios":"levelo://app?vid=0acccacb-5c5e-4293-af73-a3ca4b76801a"},"vehicle_type_id":"4","last_reported":1731258380,"current_range_meters":12000,"station_id":"ce4bhnp2rcd13ifvqh0g","pricing_plan_id":"cebpf4jnsgd1na2vs0mg"},{"bike_id":"7d01f28f-9676-47e5-bcf9-d2c2f1ea339f","system_id":"levelo_inurba_marseille","lat":43.2944,"lon":5.39749,"is_reserved":false,"is_disabled":false,"rental_uris":{"android":"levelo://app?vid=7d01f28f-9676-47e5-bcf9-d2c2f1ea339f","ios":"levelo://app?vid=7d01f28f-9676-47e5-bcf9-d2c2f1ea339f"},"vehicle_type_id":"4","last_reported":1731258380,"current_range_meters":30000,"station_id":"ce4bh3h2rcd13ifvqdo0","pricing_plan_id":"cebpf4jnsgd1na2vs0mg"},{"bike_id":"a347c9be-d588-4eb0-b9e9-73e02db827dd","system_id":"levelo_inurba_marseille","lat":43.28974,"lon":5.36469,"is_reserved":false,"is_disabled":false,"rental_uris":{"android":"levelo://app?vid=a347c9be-d588-4eb0-b9e9-73e02db827dd","ios":"levelo://app?vid=a347c9be-d588-4eb0-b9e9-73e02db827dd"},"vehicle_type_id":"4","last_reported":1731258380,"current_range_meters":32800,"station_id":"","pricing_plan_id":"cebpf4jnsgd1na2vs0mg"},{"bike_id":"679bcd8b-316c-48d9-ba94-93bf961c85fd","system_id":"levelo_inurba_marseille","lat":43.28487,"lon":5.38425,"is_reserved":false,"is_disabled":false,"rental_uris":{"android":"levelo://app?vid=679bcd8b-316c-48d9-ba94-93bf961c85fd","ios":"levelo://app?vid=679bcd8b-316c-48d9-ba94-93bf961c85fd"},"vehicle_type_id":"4","last_reported":1731258380,"current_range_meters":33600,"station_id":"ce4bh512rcd13ifvqe3g","pricing_plan_id":"cebpf4jnsgd1na2vs0mg"},{"bike_id":"45d55ecb-a45a-4605-9a70-a4bacc552201","system_id":"levelo_inurba_marseille","lat":43.25162,"lon":5.40298,"is_reserved":false,"is_disabled":false,"rental_uris":{"android":"levelo://app?vid=45d55ecb-a45a-4605-9a70-a4bacc552201","ios":"levelo://app?vid=45d55ecb-a45a-4605-9a70-a4bacc552201"},"vehicle_type_id":"4","last_reported":1731258380,"current_range_meters":2800,"station_id":"ce4bhlh2rcd13ifvqgig","pricing_plan_id":"cebpf4jnsgd1na2vs0mg"},{"bike_id":"7e514a83-c0dd-47db-9deb-0c35bed0ce43","system_id":"levelo_inurba_marseille","lat":43.246395,"lon":5.388827,"is_reserved":false,"is_disabled":false,"rental_uris":{"android":"levelo://app?vid=7e514a83-c0dd-47db-9deb-0c35bed0ce43","ios":"levelo://app?vid=7e514a83-c0dd-47db-9deb-0c35bed0ce43"},"vehicle_type_id":"4","last_reported":1731258380,"current_range_meters":11200,"station_id":"","pricing_plan_id":"cebpf4jnsgd1na2vs0mg"},{"bike_id":"bd8c90e1-842d-4b29-aa20-5d027002179b","system_id":"levelo_inurba_marseille","lat":43.25522,"lon":5.37663,"is_reserved":false,"is_disabled":false,"rental_uris":{"android":"levelo://app?vid=bd8c90e1-842d-4b29-aa20-5d027002179b","ios":"levelo://app?vid=bd8c90e1-842d-4b29-aa20-5d027002179b"},"vehicle_type_id":"4","last_reported":1731258380,"current_range_meters":38800,"station_id":"ce4bhh12rcd13ifvqff0","pricing_plan_id":"cebpf4jnsgd1na2vs0mg"},{"bike_id":"08d01455-986a-49c3-a8fd-66486f2a0e02","system_id":"levelo_inurba_marseille","lat":43.25796,"lon":5.37642,"is_reserved":false,"is_disabled":false,"rental_uris":{"android":"levelo://app?vid=08d01455-986a-49c3-a8fd-66486f2a0e02","ios":"levelo://app?vid=08d01455-986a-49c3-a8fd-66486f2a0e02"},"vehicle_type_id":"4","last_reported":1731258380,"current_range_meters":27200,"station_id":"ce4bhh12rcd13ifvqff0","pricing_plan_id":"cebpf4jnsgd1na2vs0mg"},{"bike_id":"ed7dc008-bcc6-4358-96f0-580a52a4bc7a","system_id":"levelo_inurba_marseille","lat":43.27814,"lon":5.40714,"is_reserved":false,"is_disabled":false,"rental_uris":{"android":"levelo://app?vid=ed7dc008-bcc6-4358-96f0-580a52a4bc7a","ios":"levelo://app?vid=ed7dc008-bcc6-4358-96f0-580a52a4bc7a"},"vehicle_type_id":"4","last_reported":1731258380,"current_range_meters":20400,"station_id":"ce4bhnh2rcd13ifvqgtg","pricing_plan_id":"cebpf4jnsgd1na2vs0mg"},{"bike_id":"ac44a4a7-0974-45db-a6e2-c790cfe8518f","system_id":"levelo_inurba_marseille","lat":43.29418,"lon":5.38622,"is_reserved":false,"is_disabled":false,"rental_uris":{"android":"levelo://app?vid=ac44a4a7-0974-45db-a6e2-c790cfe8518f","ios":"levelo://app?vid=ac44a4a7-0974-45db-a6e2-c790cfe8518f"},"vehicle_type_id":"4","last_reported":1731258380,"current_range_meters":11600,"station_id":"ce4bh2h2rcd13ifvqdh0","pricing_plan_id":"cebpf4jnsgd1na2vs0mg"},{"bike_id":"ce80ff5a-f67e-4987-be9e-e476799b9f7c","system_id":"levelo_inurba_marseille","lat":43.29078,"lon":5.37167,"is_reserved":false,"is_disabled":false,"rental_uris":{"android":"levelo://app?vid=ce80ff5a-f67e-4987-be9e-e476799b9f7c","ios":"levelo://app?vid=ce80ff5a-f67e-4987-be9e-e476799b9f7c"},"vehicle_type_id":"4","last_reported":1731258380,"current_range_meters":31200,"station_id":"ce4bh5p2rcd13ifvqe4g","pricing_plan_id":"cebpf4jnsgd1na2vs0mg"},{"bike_id":"b3913a79-c01d-4e47-8641-05fc7f377a7f","system_id":"levelo_inurba_marseille","lat":43.29008,"lon":5.3722,"is_reserved":false,"is_disabled":false,"rental_uris":{"android":"levelo://app?vid=b3913a79-c01d-4e47-8641-05fc7f377a7f","ios":"levelo://app?vid=b3913a79-c01d-4e47-8641-05fc7f377a7f"},"vehicle_type_id":"4","last_reported":1731258380,"current_range_meters":8400,"station_id":"","pricing_plan_id":"cebpf4jnsgd1na2vs0mg"},{"bike_id":"2e4af632-f3f0-402d-87e9-8cd52b6a94d0","system_id":"levelo_inurba_marseille","lat":43.29557,"lon":5.42296,"is_reserved":false,"is_disabled":false,"rental_uris":{"android":"levelo://app?vid=2e4af632-f3f0-402d-87e9-8cd52b6a94d0","ios":"levelo://app?vid=2e4af632-f3f0-402d-87e9-8cd52b6a94d0"},"vehicle_type_id":"4","last_reported":1731258380,"current_range_meters":26800,"station_id":"ce4bhph2rcd13ifvqhdg","pricing_plan_id":"cebpf4jnsgd1na2vs0mg"},{"bike_id":"47d698d4-39ed-4c01-8c9f-7dbfc2421a21","system_id":"levelo_inurba_marseille","lat":43.28056,"lon":5.36896,"is_reserved":false,"is_disabled":false,"rental_uris":{"android":"levelo://app?vid=47d698d4-39ed-4c01-8c9f-7dbfc2421a21","ios":"levelo://app?vid=47d698d4-39ed-4c01-8c9f-7dbfc2421a21"},"vehicle_type_id":"4","last_reported":1731258380,"current_range_meters":8400,"station_id":"","pricing_plan_id":"cebpf4jnsgd1na2vs0mg"},{"bike_id":"7737e147-61f8-4bbf-98dc-c954b52fc73f","system_id":"levelo_inurba_marseille","lat":43.27811,"lon":5.40714,"is_reserved":false,"is_disabled":false,"rental_uris":{"android":"levelo://app?vid=7737e147-61f8-4bbf-98dc-c954b52fc73f","ios":"levelo://app?vid=7737e147-61f8-4bbf-98dc-c954b52fc73f"},"vehicle_type_id":"4","last_reported":1731258380,"current_range_meters":32400,"station_id":"ce4bhnh2rcd13ifvqgtg","pricing_plan_id":"cebpf4jnsgd1na2vs0mg"},{"bike_id":"f62c9599-8f94-4b77-a76c-d41630489314","system_id":"levelo_inurba_marseille","lat":43.313876,"lon":5.432091,"is_reserved":false,"is_disabled":false,"rental_uris":{"android":"levelo://app?vid=f62c9599-8f94-4b77-a76c-d41630489314","ios":"levelo://app?vid=f62c9599-8f94-4b77-a76c-d41630489314"},"vehicle_type_id":"4","last_reported":1731258380,"current_range_meters":14000,"station_id":"ce4bhp92rcd13ifvqhcg","pricing_plan_id":"cebpf4jnsgd1na2vs0mg"},{"bike_id":"5c695d36-2c73-4637-a2fe-051b078ca651","system_id":"levelo_inurba_marseille","lat":43.284418,"lon":5.392068,"is_reserved":false,"is_disabled":false,"rental_uris":{"android":"levelo://app?vid=5c695d36-2c73-4637-a2fe-051b078ca651","ios":"levelo://app?vid=5c695d36-2c73-4637-a2fe-051b078ca651"},"vehicle_type_id":"4","last_reported":1731258380,"current_range_meters":30400,"station_id":"ce4bhoh2rcd13ifvqh5g","pricing_plan_id":"cebpf4jnsgd1na2vs0mg"},{"bike_id":"afb988c0-1750-4f1c-8f40-e845c277ce6d","system_id":"levelo_inurba_marseille","lat":43.29366,"lon":5.37838,"is_reserved":false,"is_disabled":false,"rental_uris":{"android":"levelo://app?vid=afb988c0-1750-4f1c-8f40-e845c277ce6d","ios":"levelo://app?vid=afb988c0-1750-4f1c-8f40-e845c277ce6d"},"vehicle_type_id":"4","last_reported":1731258380,"current_range_meters":8400,"station_id":"ce4bgjh2rcd13ifvqbf0","pricing_plan_id":"cebpf4jnsgd1na2vs0mg"},{"bike_id":"302549b6-93b8-4816-b73b-98a9fc64dcea","system_id":"levelo_inurba_marseille","lat":43.2905,"lon":5.35909,"is_reserved":false,"is_disabled":false,"rental_uris":{"android":"levelo://app?vid=302549b6-93b8-4816-b73b-98a9fc64dcea","ios":"levelo://app?vid=302549b6-93b8-4816-b73b-98a9fc64dcea"},"vehicle_type_id":"4","last_reported":1731258380,"current_range_meters":38800,"station_id":"ce4bha92rcd13ifvqeg0","pricing_plan_id":"cebpf4jnsgd1na2vs0mg"},{"bike_id":"f8c9ba4c-c052-4256-ab0d-fa48e8e8edd1","system_id":"levelo_inurba_marseille","lat":43.28926,"lon":5.36651,"is_reserved":false,"is_disabled":false,"rental_uris":{"android":"levelo://app?vid=f8c9ba4c-c052-4256-ab0d-fa48e8e8edd1","ios":"levelo://app?vid=f8c9ba4c-c052-4256-ab0d-fa48e8e8edd1"},"vehicle_type_id":"4","last_reported":1731258380,"current_range_meters":3600,"station_id":"ce4bhap2rcd13ifvqek0","pricing_plan_id":"cebpf4jnsgd1na2vs0mg"},{"bike_id":"89a57a28-29d9-433a-8c92-c1756cdb1f95","system_id":"levelo_inurba_marseille","lat":43.24084,"lon":5.3775,"is_reserved":false,"is_disabled":false,"rental_uris":{"android":"levelo://app?vid=89a57a28-29d9-433a-8c92-c1756cdb1f95","ios":"levelo://app?vid=89a57a28-29d9-433a-8c92-c1756cdb1f95"},"vehicle_type_id":"4","last_reported":1731258380,"current_range_meters":11200,"station_id":"ce4bhnp2rcd13ifvqgvg","pricing_plan_id":"cebpf4jnsgd1na2vs0mg"},{"bike_id":"30b4c460-0032-4040-b03a-cd708154c7e4","system_id":"levelo_inurba_marseille","lat":43.27065,"lon":5.42283,"is_reserved":false,"is_disabled":false,"rental_uris":{"android":"levelo://app?vid=30b4c460-0032-4040-b03a-cd708154c7e4","ios":"levelo://app?vid=30b4c460-0032-4040-b03a-cd708154c7e4"},"vehicle_type_id":"4","last_reported":1731258380,"current_range_meters":38400,"station_id":"ce4bhk92rcd13ifvqgb0","pricing_plan_id":"cebpf4jnsgd1na2vs0mg"},{"bike_id":"a7eb5692-1f2b-48c6-af16-f2fe0b372124","system_id":"levelo_inurba_marseille","lat":43.33726,"lon":5.39185,"is_reserved":false,"is_disabled":false,"rental_uris":{"android":"levelo://app?vid=a7eb5692-1f2b-48c6-af16-f2fe0b372124","ios":"levelo://app?vid=a7eb5692-1f2b-48c6-af16-f2fe0b372124"},"vehicle_type_id":"4","last_reported":1731258380,"current_range_meters":14000,"station_id":"ce4bhr92rcd13ifvqhsg","pricing_plan_id":"cebpf4jnsgd1na2vs0mg"},{"bike_id":"4dc0e3bd-ab9c-461a-835f-d4784d7b8326","system_id":"levelo_inurba_marseille","lat":43.3133,"lon":5.42356,"is_reserved":false,"is_disabled":false,"rental_uris":{"android":"levelo://app?vid=4dc0e3bd-ab9c-461a-835f-d4784d7b8326","ios":"levelo://app?vid=4dc0e3bd-ab9c-461a-835f-d4784d7b8326"},"vehicle_type_id":"4","last_reported":1731258380,"current_range_meters":12000,"station_id":"ce4bhp92rcd13ifvqhcg","pricing_plan_id":"cebpf4jnsgd1na2vs0mg"},{"bike_id":"76b23abe-d4fa-4b4a-9ab9-b285bd2abab5","system_id":"levelo_inurba_marseille","lat":43.28131,"lon":5.40179,"is_reserved":false,"is_disabled":false,"rental_uris":{"android":"levelo://app?vid=76b23abe-d4fa-4b4a-9ab9-b285bd2abab5","ios":"levelo://app?vid=76b23abe-d4fa-4b4a-9ab9-b285bd2abab5"},"vehicle_type_id":"4","last_reported":1731258380,"current_range_meters":30800,"station_id":"","pricing_plan_id":"cebpf4jnsgd1na2vs0mg"},{"bike_id":"e285768f-9107-4b09-9adc-037eef59db59","system_id":"levelo_inurba_marseille","lat":43.27993,"lon":5.40013,"is_reserved":false,"is_disabled":false,"rental_uris":{"android":"levelo://app?vid=e285768f-9107-4b09-9adc-037eef59db59","ios":"levelo://app?vid=e285768f-9107-4b09-9adc-037eef59db59"},"vehicle_type_id":"4","last_reported":1731258380,"current_range_meters":23200,"station_id":"ce4bho92rcd13ifvqh4g","pricing_plan_id":"cebpf4jnsgd1na2vs0mg"},{"bike_id":"4f7d36d3-f0b6-4241-8add-da1ec0f708fa","system_id":"levelo_inurba_marseille","lat":43.31999,"lon":5.38157,"is_reserved":false,"is_disabled":false,"rental_uris":{"android":"levelo://app?vid=4f7d36d3-f0b6-4241-8add-da1ec0f708fa","ios":"levelo://app?vid=4f7d36d3-f0b6-4241-8add-da1ec0f708fa"},"vehicle_type_id":"4","last_reported":1731258380,"current_range_meters":27200,"station_id":"ce4bhr12rcd13ifvqhpg","pricing_plan_id":"cebpf4jnsgd1na2vs0mg"},{"bike_id":"b72a2e98-e2e3-4ad5-bd73-150f57b7d25e","system_id":"levelo_inurba_marseille","lat":43.3031,"lon":5.36896,"is_reserved":false,"is_disabled":false,"rental_uris":{"android":"levelo://app?vid=b72a2e98-e2e3-4ad5-bd73-150f57b7d25e","ios":"levelo://app?vid=b72a2e98-e2e3-4ad5-bd73-150f57b7d25e"},"vehicle_type_id":"4","last_reported":1731258380,"current_range_meters":39200,"station_id":"ce4bgqh2rcd13ifvqc5g","pricing_plan_id":"cebpf4jnsgd1na2vs0mg"},{"bike_id":"ad4f2231-230e-4715-b0b0-2ecb5044a2c3","system_id":"levelo_inurba_marseille","lat":43.31714,"lon":5.43709,"is_reserved":false,"is_disabled":false,"rental_uris":{"android":"levelo://app?vid=ad4f2231-230e-4715-b0b0-2ecb5044a2c3","ios":"levelo://app?vid=ad4f2231-230e-4715-b0b0-2ecb5044a2c3"},"vehicle_type_id":"4","last_reported":1731258380,"current_range_meters":36400,"station_id":"ce4bhp92rcd13ifvqhcg","pricing_plan_id":"cebpf4jnsgd1na2vs0mg"},{"bike_id":"cca114cd-e05c-4601-a24a-c758b88f50e4","system_id":"levelo_inurba_marseille","lat":43.24664,"lon":5.3817,"is_reserved":false,"is_disabled":false,"rental_uris":{"android":"levelo://app?vid=cca114cd-e05c-4601-a24a-c758b88f50e4","ios":"levelo://app?vid=cca114cd-e05c-4601-a24a-c758b88f50e4"},"vehicle_type_id":"4","last_reported":1731258380,"current_range_meters":14000,"station_id":"ce4bhih2rcd13ifvqfr0","pricing_plan_id":"cebpf4jnsgd1na2vs0mg"},{"bike_id":"3d4f2f13-c72c-4f8b-8374-c8da95a5592a","system_id":"levelo_inurba_marseille","lat":43.28469,"lon":5.3842,"is_reserved":false,"is_disabled":false,"rental_uris":{"android":"levelo://app?vid=3d4f2f13-c72c-4f8b-8374-c8da95a5592a","ios":"levelo://app?vid=3d4f2f13-c72c-4f8b-8374-c8da95a5592a"},"vehicle_type_id":"4","last_reported":1731258380,"current_range_meters":31200,"station_id":"ce4bh512rcd13ifvqe3g","pricing_plan_id":"cebpf4jnsgd1na2vs0mg"},{"bike_id":"525831b7-83d5-4477-8ac6-08c675b9a9d6","system_id":"levelo_inurba_marseille","lat":43.26062,"lon":5.39398,"is_reserved":false,"is_disabled":false,"rental_uris":{"android":"levelo://app?vid=525831b7-83d5-4477-8ac6-08c675b9a9d6","ios":"levelo://app?vid=525831b7-83d5-4477-8ac6-08c675b9a9d6"},"vehicle_type_id":"4","last_reported":1731258380,"current_range_meters":4400,"station_id":"ce4bhh92rcd13ifvqfj0","pricing_plan_id":"cebpf4jnsgd1na2vs0mg"},{"bike_id":"a1c4ebd5-8883-44fc-8437-d213433ffef8","system_id":"levelo_inurba_marseille","lat":43.32483,"lon":5.36563,"is_reserved":false,"is_disabled":false,"rental_uris":{"android":"levelo://app?vid=a1c4ebd5-8883-44fc-8437-d213433ffef8","ios":"levelo://app?vid=a1c4ebd5-8883-44fc-8437-d213433ffef8"},"vehicle_type_id":"4","last_reported":1731258380,"current_range_meters":38800,"station_id":"ce4bhs12rcd13ifvqhvg","pricing_plan_id":"cebpf4jnsgd1na2vs0mg"},{"bike_id":"8332f846-1305-413e-b1c9-a7058d37d094","system_id":"levelo_inurba_marseille","lat":43.24169,"lon":5.36405,"is_reserved":false,"is_disabled":false,"rental_uris":{"android":"levelo://app?vid=8332f846-1305-413e-b1c9-a7058d37d094","ios":"levelo://app?vid=8332f846-1305-413e-b1c9-a7058d37d094"},"vehicle_type_id":"4","last_reported":1731258380,"current_range_meters":22000,"station_id":"cpo36qri1sfpv3e86is0","pricing_plan_id":"cebpf4jnsgd1na2vs0mg"},{"bike_id":"1f36bdba-d645-4bdc-83b1-49424041cf99","system_id":"levelo_inurba_marseille","lat":43.28449,"lon":5.34976,"is_reserved":false,"is_disabled":false,"rental_uris":{"android":"levelo://app?vid=1f36bdba-d645-4bdc-83b1-49424041cf99","ios":"levelo://app?vid=1f36bdba-d645-4bdc-83b1-49424041cf99"},"vehicle_type_id":"4","last_reported":1731258380,"current_range_meters":24800,"station_id":"ce4bgkp2rcd13ifvqbmg","pricing_plan_id":"cebpf4jnsgd1na2vs0mg"},{"bike_id":"1392b978-943b-489c-b565-f7760ee62685","system_id":"levelo_inurba_marseille","lat":43.30441,"lon":5.36549,"is_reserved":false,"is_disabled":false,"rental_uris":{"android":"levelo://app?vid=1392b978-943b-489c-b565-f7760ee62685","ios":"levelo://app?vid=1392b978-943b-489c-b565-f7760ee62685"},"vehicle_type_id":"4","last_reported":1731258380,"current_range_meters":32400,"station_id":"","pricing_plan_id":"cebpf4jnsgd1na2vs0mg"},{"bike_id":"38ede4ec-02d2-4698-9667-a675b1975706","system_id":"levelo_inurba_marseille","lat":43.28037,"lon":5.36958,"is_reserved":false,"is_disabled":false,"rental_uris":{"android":"levelo://app?vid=38ede4ec-02d2-4698-9667-a675b1975706","ios":"levelo://app?vid=38ede4ec-02d2-4698-9667-a675b1975706"},"vehicle_type_id":"4","last_reported":1731258380,"current_range_meters":22800,"station_id":"ce4bha12rcd13ifvqef0","pricing_plan_id":"cebpf4jnsgd1na2vs0mg"},{"bike_id":"3e817f81-cf48-4c32-a86f-a1109e0ffcf4","system_id":"levelo_inurba_marseille","lat":43.30258,"lon":5.4009,"is_reserved":false,"is_disabled":false,"rental_uris":{"android":"levelo://app?vid=3e817f81-cf48-4c32-a86f-a1109e0ffcf4","ios":"levelo://app?vid=3e817f81-cf48-4c32-a86f-a1109e0ffcf4"},"vehicle_type_id":"4","last_reported":1731258380,"current_range_meters":6000,"station_id":"ce4bgvh2rcd13ifvqcs0","pricing_plan_id":"cebpf4jnsgd1na2vs0mg"},{"bike_id":"3169ad9d-5c7c-493a-8e26-f300140a4f12","system_id":"levelo_inurba_marseille","lat":43.32545,"lon":5.41432,"is_reserved":false,"is_disabled":false,"rental_uris":{"android":"levelo://app?vid=3169ad9d-5c7c-493a-8e26-f300140a4f12","ios":"levelo://app?vid=3169ad9d-5c7c-493a-8e26-f300140a4f12"},"vehicle_type_id":"4","last_reported":1731258380,"current_range_meters":15200,"station_id":"ce4bhq12rcd13ifvqhhg","pricing_plan_id":"cebpf4jnsgd1na2vs0mg"},{"bike_id":"64ebd6a5-9bc6-472f-ab4a-4f4a033339b9","system_id":"levelo_inurba_marseille","lat":43.29555,"lon":5.42293,"is_reserved":false,"is_disabled":false,"rental_uris":{"android":"levelo://app?vid=64ebd6a5-9bc6-472f-ab4a-4f4a033339b9","ios":"levelo://app?vid=64ebd6a5-9bc6-472f-ab4a-4f4a033339b9"},"vehicle_type_id":"4","last_reported":1731258380,"current_range_meters":36800,"station_id":"ce4bhph2rcd13ifvqhdg","pricing_plan_id":"cebpf4jnsgd1na2vs0mg"},{"bike_id":"959ef72b-c591-49f3-9768-24f29732843d","system_id":"levelo_inurba_marseille","lat":43.3122,"lon":5.36864,"is_reserved":false,"is_disabled":false,"rental_uris":{"android":"levelo://app?vid=959ef72b-c591-49f3-9768-24f29732843d","ios":"levelo://app?vid=959ef72b-c591-49f3-9768-24f29732843d"},"vehicle_type_id":"4","last_reported":1731258380,"current_range_meters":2000,"station_id":"ce4bgl92rcd13ifvqbq0","pricing_plan_id":"cebpf4jnsgd1na2vs0mg"},{"bike_id":"ca0fee04-aca6-4de1-9d00-1ea5aa1df3f6","system_id":"levelo_inurba_marseille","lat":43.295776,"lon":5.375183,"is_reserved":false,"is_disabled":false,"rental_uris":{"android":"levelo://app?vid=ca0fee04-aca6-4de1-9d00-1ea5aa1df3f6","ios":"levelo://app?vid=ca0fee04-aca6-4de1-9d00-1ea5aa1df3f6"},"vehicle_type_id":"4","last_reported":1731258380,"current_range_meters":33600,"station_id":"ce4bgh92rcd13ifvqb50","pricing_plan_id":"cebpf4jnsgd1na2vs0mg"},{"bike_id":"3145def3-fc91-45d3-a49d-5d462af32cc3","system_id":"levelo_inurba_marseille","lat":43.29422,"lon":5.3863,"is_reserved":false,"is_disabled":false,"rental_uris":{"android":"levelo://app?vid=3145def3-fc91-45d3-a49d-5d462af32cc3","ios":"levelo://app?vid=3145def3-fc91-45d3-a49d-5d462af32cc3"},"vehicle_type_id":"4","last_reported":1731258380,"current_range_meters":38400,"station_id":"ce4bh2h2rcd13ifvqdh0","pricing_plan_id":"cebpf4jnsgd1na2vs0mg"},{"bike_id":"3a341db7-e5a7-454a-89f5-e5cedc9113a8","system_id":"levelo_inurba_marseille","lat":43.32002,"lon":5.38159,"is_reserved":false,"is_disabled":false,"rental_uris":{"android":"levelo://app?vid=3a341db7-e5a7-454a-89f5-e5cedc9113a8","ios":"levelo://app?vid=3a341db7-e5a7-454a-89f5-e5cedc9113a8"},"vehicle_type_id":"4","last_reported":1731258380,"current_range_meters":34800,"station_id":"ce4bhr12rcd13ifvqhpg","pricing_plan_id":"cebpf4jnsgd1na2vs0mg"},{"bike_id":"37b6036e-84ff-42fd-b866-ee78e8ef30ce","system_id":"levelo_inurba_marseille","lat":43.2842,"lon":5.37507,"is_reserved":false,"is_disabled":false,"rental_uris":{"android":"levelo://app?vid=37b6036e-84ff-42fd-b866-ee78e8ef30ce","ios":"levelo://app?vid=37b6036e-84ff-42fd-b866-ee78e8ef30ce"},"vehicle_type_id":"4","last_reported":1731258380,"current_range_meters":9600,"station_id":"ce4bh412rcd13ifvqds0","pricing_plan_id":"cebpf4jnsgd1na2vs0mg"},{"bike_id":"9ca3e13c-9e73-4fe2-b46f-7a9b8ad5c9b0","system_id":"levelo_inurba_marseille","lat":43.29375,"lon":5.3784,"is_reserved":false,"is_disabled":false,"rental_uris":{"android":"levelo://app?vid=9ca3e13c-9e73-4fe2-b46f-7a9b8ad5c9b0","ios":"levelo://app?vid=9ca3e13c-9e73-4fe2-b46f-7a9b8ad5c9b0"},"vehicle_type_id":"4","last_reported":1731258380,"current_range_meters":37600,"station_id":"ce4bgjh2rcd13ifvqbf0","pricing_plan_id":"cebpf4jnsgd1na2vs0mg"},{"bike_id":"49bf5110-7fab-4f20-9dc0-55c3197df8db","system_id":"levelo_inurba_marseille","lat":43.2957,"lon":5.37533,"is_reserved":false,"is_disabled":false,"rental_uris":{"android":"levelo://app?vid=49bf5110-7fab-4f20-9dc0-55c3197df8db","ios":"levelo://app?vid=49bf5110-7fab-4f20-9dc0-55c3197df8db"},"vehicle_type_id":"4","last_reported":1731258380,"current_range_meters":36000,"station_id":"ce4bgh92rcd13ifvqb50","pricing_plan_id":"cebpf4jnsgd1na2vs0mg"},{"bike_id":"c7ff7616-d406-4e22-a204-799ccdf355f3","system_id":"levelo_inurba_marseille","lat":43.23197,"lon":5.3555,"is_reserved":false,"is_disabled":false,"rental_uris":{"android":"levelo://app?vid=c7ff7616-d406-4e22-a204-799ccdf355f3","ios":"levelo://app?vid=c7ff7616-d406-4e22-a204-799ccdf355f3"},"vehicle_type_id":"4","last_reported":1731258380,"current_range_meters":24400,"station_id":"ce4bhu92rcd13ifvqi70","pricing_plan_id":"cebpf4jnsgd1na2vs0mg"},{"bike_id":"d4896b94-8e40-4a0b-892d-413e3253f07e","system_id":"levelo_inurba_marseille","lat":43.24663,"lon":5.38163,"is_reserved":false,"is_disabled":false,"rental_uris":{"android":"levelo://app?vid=d4896b94-8e40-4a0b-892d-413e3253f07e","ios":"levelo://app?vid=d4896b94-8e40-4a0b-892d-413e3253f07e"},"vehicle_type_id":"4","last_reported":1731258380,"current_range_meters":8000,"station_id":"ce4bhih2rcd13ifvqfr0","pricing_plan_id":"cebpf4jnsgd1na2vs0mg"},{"bike_id":"a649fe9a-6210-44a1-999f-abafedadc2c3","system_id":"levelo_inurba_marseille","lat":43.25935,"lon":5.40915,"is_reserved":false,"is_disabled":false,"rental_uris":{"android":"levelo://app?vid=a649fe9a-6210-44a1-999f-abafedadc2c3","ios":"levelo://app?vid=a649fe9a-6210-44a1-999f-abafedadc2c3"},"vehicle_type_id":"4","last_reported":1731258380,"current_range_meters":17600,"station_id":"ce4bhm92rcd13ifvqglg","pricing_plan_id":"cebpf4jnsgd1na2vs0mg"},{"bike_id":"327fccf5-46ee-4138-ba0b-6f7a7c6374c0","system_id":"levelo_inurba_marseille","lat":43.22885,"lon":5.36509,"is_reserved":false,"is_disabled":false,"rental_uris":{"android":"levelo://app?vid=327fccf5-46ee-4138-ba0b-6f7a7c6374c0","ios":"levelo://app?vid=327fccf5-46ee-4138-ba0b-6f7a7c6374c0"},"vehicle_type_id":"4","last_reported":1731258380,"current_range_meters":14000,"station_id":"","pricing_plan_id":"cebpf4jnsgd1na2vs0mg"},{"bike_id":"f6749602-4a6e-4743-9fe9-c25364a86cd2","system_id":"levelo_inurba_marseille","lat":43.25584,"lon":5.38238,"is_reserved":false,"is_disabled":false,"rental_uris":{"android":"levelo://app?vid=f6749602-4a6e-4743-9fe9-c25364a86cd2","ios":"levelo://app?vid=f6749602-4a6e-4743-9fe9-c25364a86cd2"},"vehicle_type_id":"4","last_reported":1731258380,"current_range_meters":18000,"station_id":"ce4bhih2rcd13ifvqfs0","pricing_plan_id":"cebpf4jnsgd1na2vs0mg"},{"bike_id":"e7dbf14b-6b4f-4f95-9b32-2a72f3157268","system_id":"levelo_inurba_marseille","lat":43.29042,"lon":5.39961,"is_reserved":false,"is_disabled":false,"rental_uris":{"android":"levelo://app?vid=e7dbf14b-6b4f-4f95-9b32-2a72f3157268","ios":"levelo://app?vid=e7dbf14b-6b4f-4f95-9b32-2a72f3157268"},"vehicle_type_id":"4","last_reported":1731258380,"current_range_meters":6400,"station_id":"ce4bh312rcd13ifvqdj0","pricing_plan_id":"cebpf4jnsgd1na2vs0mg"},{"bike_id":"20a7ae1f-da5e-4729-8108-6a7eb618055d","system_id":"levelo_inurba_marseille","lat":43.27834,"lon":5.39214,"is_reserved":false,"is_disabled":false,"rental_uris":{"android":"levelo://app?vid=20a7ae1f-da5e-4729-8108-6a7eb618055d","ios":"levelo://app?vid=20a7ae1f-da5e-4729-8108-6a7eb618055d"},"vehicle_type_id":"4","last_reported":1731258380,"current_range_meters":8000,"station_id":"ce4bhjp2rcd13ifvqga0","pricing_plan_id":"cebpf4jnsgd1na2vs0mg"},{"bike_id":"82fe20b7-0e87-40a9-afc5-3c40884c58a7","system_id":"levelo_inurba_marseille","lat":43.29555,"lon":5.42293,"is_reserved":false,"is_disabled":false,"rental_uris":{"android":"levelo://app?vid=82fe20b7-0e87-40a9-afc5-3c40884c58a7","ios":"levelo://app?vid=82fe20b7-0e87-40a9-afc5-3c40884c58a7"},"vehicle_type_id":"4","last_reported":1731258380,"current_range_meters":7200,"station_id":"ce4bhph2rcd13ifvqhdg","pricing_plan_id":"cebpf4jnsgd1na2vs0mg"},{"bike_id":"eac429de-1e42-4d42-a8d2-b851cc94a9bb","system_id":"levelo_inurba_marseille","lat":43.26064,"lon":5.39398,"is_reserved":false,"is_disabled":false,"rental_uris":{"android":"levelo://app?vid=eac429de-1e42-4d42-a8d2-b851cc94a9bb","ios":"levelo://app?vid=eac429de-1e42-4d42-a8d2-b851cc94a9bb"},"vehicle_type_id":"4","last_reported":1731258380,"current_range_meters":37600,"station_id":"ce4bhh92rcd13ifvqfj0","pricing_plan_id":"cebpf4jnsgd1na2vs0mg"},{"bike_id":"e839511e-9e36-4c61-9d1c-384a3cd6bde4","system_id":"levelo_inurba_marseille","lat":43.28035,"lon":5.36958,"is_reserved":false,"is_disabled":false,"rental_uris":{"android":"levelo://app?vid=e839511e-9e36-4c61-9d1c-384a3cd6bde4","ios":"levelo://app?vid=e839511e-9e36-4c61-9d1c-384a3cd6bde4"},"vehicle_type_id":"4","last_reported":1731258380,"current_range_meters":39200,"station_id":"ce4bha12rcd13ifvqef0","pricing_plan_id":"cebpf4jnsgd1na2vs0mg"},{"bike_id":"1b3c2e5b-c2b0-4d13-830b-0589c1dbc613","system_id":"levelo_inurba_marseille","lat":43.2587,"lon":5.39901,"is_reserved":false,"is_disabled":false,"rental_uris":{"android":"levelo://app?vid=1b3c2e5b-c2b0-4d13-830b-0589c1dbc613","ios":"levelo://app?vid=1b3c2e5b-c2b0-4d13-830b-0589c1dbc613"},"vehicle_type_id":"4","last_reported":1731258380,"current_range_meters":12800,"station_id":"ce4bhl92rcd13ifvqghg","pricing_plan_id":"cebpf4jnsgd1na2vs0mg"},{"bike_id":"c056b958-7413-4592-8445-b90785a00fbd","system_id":"levelo_inurba_marseille","lat":43.25491,"lon":5.37653,"is_reserved":false,"is_disabled":false,"rental_uris":{"android":"levelo://app?vid=c056b958-7413-4592-8445-b90785a00fbd","ios":"levelo://app?vid=c056b958-7413-4592-8445-b90785a00fbd"},"vehicle_type_id":"4","last_reported":1731258380,"current_range_meters":19600,"station_id":"ce4bhh12rcd13ifvqff0","pricing_plan_id":"cebpf4jnsgd1na2vs0mg"},{"bike_id":"316df46f-7be1-454c-bbe2-78bda2f20b20","system_id":"levelo_inurba_marseille","lat":43.26557,"lon":5.37282,"is_reserved":false,"is_disabled":false,"rental_uris":{"android":"levelo://app?vid=316df46f-7be1-454c-bbe2-78bda2f20b20","ios":"levelo://app?vid=316df46f-7be1-454c-bbe2-78bda2f20b20"},"vehicle_type_id":"4","last_reported":1731258380,"current_range_meters":20800,"station_id":"ce4bhg12rcd13ifvqf70","pricing_plan_id":"cebpf4jnsgd1na2vs0mg"},{"bike_id":"70e6af62-30fa-41da-92f5-aaae36760481","system_id":"levelo_inurba_marseille","lat":43.27497,"lon":5.42452,"is_reserved":false,"is_disabled":false,"rental_uris":{"android":"levelo://app?vid=70e6af62-30fa-41da-92f5-aaae36760481","ios":"levelo://app?vid=70e6af62-30fa-41da-92f5-aaae36760481"},"vehicle_type_id":"4","last_reported":1731258380,"current_range_meters":7200,"station_id":"ce4bhn92rcd13ifvqgrg","pricing_plan_id":"cebpf4jnsgd1na2vs0mg"},{"bike_id":"5c38ca9f-41b4-492b-af7d-eb58c16176dc","system_id":"levelo_inurba_marseille","lat":43.27948,"lon":5.4105,"is_reserved":false,"is_disabled":false,"rental_uris":{"android":"levelo://app?vid=5c38ca9f-41b4-492b-af7d-eb58c16176dc","ios":"levelo://app?vid=5c38ca9f-41b4-492b-af7d-eb58c16176dc"},"vehicle_type_id":"4","last_reported":1731258380,"current_range_meters":36000,"station_id":"ce4bhnp2rcd13ifvqh0g","pricing_plan_id":"cebpf4jnsgd1na2vs0mg"},{"bike_id":"4b224fd3-1602-4ca1-8135-0f67700de0a5","system_id":"levelo_inurba_marseille","lat":43.29114,"lon":5.35582,"is_reserved":false,"is_disabled":false,"rental_uris":{"android":"levelo://app?vid=4b224fd3-1602-4ca1-8135-0f67700de0a5","ios":"levelo://app?vid=4b224fd3-1602-4ca1-8135-0f67700de0a5"},"vehicle_type_id":"4","last_reported":1731258380,"current_range_meters":26800,"station_id":"","pricing_plan_id":"cebpf4jnsgd1na2vs0mg"},{"bike_id":"dc0da7b4-0b4f-4905-a7cd-db7ec8d18498","system_id":"levelo_inurba_marseille","lat":43.28562,"lon":5.39503,"is_reserved":false,"is_disabled":false,"rental_uris":{"android":"levelo://app?vid=dc0da7b4-0b4f-4905-a7cd-db7ec8d18498","ios":"levelo://app?vid=dc0da7b4-0b4f-4905-a7cd-db7ec8d18498"},"vehicle_type_id":"4","last_reported":1731258380,"current_range_meters":32000,"station_id":"ce4bh292rcd13ifvqdg0","pricing_plan_id":"cebpf4jnsgd1na2vs0mg"},{"bike_id":"8b3c73e3-4a0b-4a8f-81d1-80ebdb5d60d9","system_id":"levelo_inurba_marseille","lat":43.27496,"lon":5.42459,"is_reserved":false,"is_disabled":false,"rental_uris":{"android":"levelo://app?vid=8b3c73e3-4a0b-4a8f-81d1-80ebdb5d60d9","ios":"levelo://app?vid=8b3c73e3-4a0b-4a8f-81d1-80ebdb5d60d9"},"vehicle_type_id":"4","last_reported":1731258380,"current_range_meters":32000,"station_id":"ce4bhn92rcd13ifvqgrg","pricing_plan_id":"cebpf4jnsgd1na2vs0mg"},{"bike_id":"4b16ecd9-dafd-41d5-b83b-a70ac39862ad","system_id":"levelo_inurba_marseille","lat":43.27938,"lon":5.410495,"is_reserved":false,"is_disabled":false,"rental_uris":{"android":"levelo://app?vid=4b16ecd9-dafd-41d5-b83b-a70ac39862ad","ios":"levelo://app?vid=4b16ecd9-dafd-41d5-b83b-a70ac39862ad"},"vehicle_type_id":"4","last_reported":1731258380,"current_range_meters":32400,"station_id":"ce4bhnp2rcd13ifvqh0g","pricing_plan_id":"cebpf4jnsgd1na2vs0mg"},{"bike_id":"8dc38960-9ae8-4f10-9732-94781f81383c","system_id":"levelo_inurba_marseille","lat":43.26058,"lon":5.39402,"is_reserved":false,"is_disabled":false,"rental_uris":{"android":"levelo://app?vid=8dc38960-9ae8-4f10-9732-94781f81383c","ios":"levelo://app?vid=8dc38960-9ae8-4f10-9732-94781f81383c"},"vehicle_type_id":"4","last_reported":1731258380,"current_range_meters":20000,"station_id":"ce4bhh92rcd13ifvqfj0","pricing_plan_id":"cebpf4jnsgd1na2vs0mg"},{"bike_id":"f97e691d-c0a8-443c-ab0e-698b3aeca1c6","system_id":"levelo_inurba_marseille","lat":43.2979,"lon":5.39345,"is_reserved":false,"is_disabled":false,"rental_uris":{"android":"levelo://app?vid=f97e691d-c0a8-443c-ab0e-698b3aeca1c6","ios":"levelo://app?vid=f97e691d-c0a8-443c-ab0e-698b3aeca1c6"},"vehicle_type_id":"4","last_reported":1731258380,"current_range_meters":38000,"station_id":"chh1huq6cuj3fo74tm60","pricing_plan_id":"cebpf4jnsgd1na2vs0mg"},{"bike_id":"88a42eb8-dead-4788-9315-762ecb3b335e","system_id":"levelo_inurba_marseille","lat":43.245605,"lon":5.395253,"is_reserved":false,"is_disabled":false,"rental_uris":{"android":"levelo://app?vid=88a42eb8-dead-4788-9315-762ecb3b335e","ios":"levelo://app?vid=88a42eb8-dead-4788-9315-762ecb3b335e"},"vehicle_type_id":"4","last_reported":1731258380,"current_range_meters":13600,"station_id":"ce4bhlp2rcd13ifvqgjg","pricing_plan_id":"cebpf4jnsgd1na2vs0mg"},{"bike_id":"c09dcb65-8dca-434e-8926-4d6cb83e1c8e","system_id":"levelo_inurba_marseille","lat":43.25001,"lon":5.38935,"is_reserved":false,"is_disabled":false,"rental_uris":{"android":"levelo://app?vid=c09dcb65-8dca-434e-8926-4d6cb83e1c8e","ios":"levelo://app?vid=c09dcb65-8dca-434e-8926-4d6cb83e1c8e"},"vehicle_type_id":"4","last_reported":1731258380,"current_range_meters":39200,"station_id":"ce4bhgp2rcd13ifvqfd0","pricing_plan_id":"cebpf4jnsgd1na2vs0mg"},{"bike_id":"8cf0ed41-fe9c-413d-87ad-7dd151a113e0","system_id":"levelo_inurba_marseille","lat":43.23155,"lon":5.43717,"is_reserved":false,"is_disabled":false,"rental_uris":{"android":"levelo://app?vid=8cf0ed41-fe9c-413d-87ad-7dd151a113e0","ios":"levelo://app?vid=8cf0ed41-fe9c-413d-87ad-7dd151a113e0"},"vehicle_type_id":"4","last_reported":1731258380,"current_range_meters":4000,"station_id":"ce4bhmp2rcd13ifvqgog","pricing_plan_id":"cebpf4jnsgd1na2vs0mg"},{"bike_id":"12e600dc-8673-4be7-8e4b-9f9505159bb6","system_id":"levelo_inurba_marseille","lat":43.29789,"lon":5.39334,"is_reserved":false,"is_disabled":false,"rental_uris":{"android":"levelo://app?vid=12e600dc-8673-4be7-8e4b-9f9505159bb6","ios":"levelo://app?vid=12e600dc-8673-4be7-8e4b-9f9505159bb6"},"vehicle_type_id":"4","last_reported":1731258380,"current_range_meters":36000,"station_id":"chh1huq6cuj3fo74tm60","pricing_plan_id":"cebpf4jnsgd1na2vs0mg"},{"bike_id":"82240520-5e7a-478c-acf6-90412e38e4a5","system_id":"levelo_inurba_marseille","lat":43.23966,"lon":5.3663,"is_reserved":false,"is_disabled":false,"rental_uris":{"android":"levelo://app?vid=82240520-5e7a-478c-acf6-90412e38e4a5","ios":"levelo://app?vid=82240520-5e7a-478c-acf6-90412e38e4a5"},"vehicle_type_id":"4","last_reported":1731258380,"current_range_meters":20800,"station_id":"ce4bhi12rcd13ifvqfp0","pricing_plan_id":"cebpf4jnsgd1na2vs0mg"},