{"last_updated":1753104764,"ttl":60,"version":"2.2","data":{"bikes":[{"bike_id":"53b742a7-31ae-4272-9bba-7740339e2a2f","system_id":"levelo_inurba_marseille","lat":43.33747,"lon":5.37463,"is_reserved":false,"is_disabled":false,"rental_uris":{"android":"levelo://app?vid=53b742a7-31ae-4272-9bba-7740339e2a2f","ios":"levelo://app?vid=53b742a7-31ae-4272-9bba-7740339e2a2f"},"vehicle_type_id":"1","last_reported":1753104764,"current_range_meters":6400,"station_id":"","pricing_plan_id":"cebpf4jnsgd1na2vs0mg"},{"bike_id":"57bb565d-2136-465a-803d-648474c4a3a7","system_id":"levelo_inurba_marseille","lat":43.33111,"lon":5.35498,"is_reserved":false,"is_disabled":false,"rental_uris":{"android":"levelo://app?vid=57bb565d-2136-465a-803d-648474c4a3a7","ios":"levelo://app?vid=57bb565d-2136-465a-803d-648474c4a3a7"},"vehicle_type_id":"4","last_reported":1753104764,"current_range_meters":2800,"station_id":"","pricing_plan_id":"cebpf4jnsgd1na2vs0mg"},{"bike_id":"433415c1-acea-4306-b3ad-c55437db8988","system_id":"levelo_inurba_marseille","lat":43.29512,"lon":5.38196,"is_reserved":false,"is_disabled":false,"rental_uris":{"android":"levelo://app?vid=433415c1-acea-4306-b3ad-c55437db8988","ios":"levelo://app?vid=433415c1-acea-4306-b3ad-c55437db8988"},"vehicle_type_id":"4","last_reported":1753104764,"current_range_meters":3200,"station_id":"","pricing_plan_id":"cebpf4jnsgd1na2vs0mg"},{"bike_id":"ac141403-2eff-454e-8bd1-3d400d40ed2b","system_id":"levelo_inurba_marseille","lat":43.33109,"lon":5.40014,"is_reserved":false,"is_disabled":false,"rental_uris":{"android":"levelo://app?vid=ac141403-2eff-454e-8bd1-3d400d40ed2b","ios":"levelo://app?vid=ac141403-2eff-454e-8bd1-3d400d40ed2b"},"vehicle_type_id":"4","last_reported":1753104764,"current_range_meters":3600,"station_id":"","pricing_plan_id":"cebpf4jnsgd1na2vs0mg"},{"bike_id":"192c0fa5-c826-4847-bdd0-11edb7180ff9","system_id":"levelo_inurba_marseille","lat":43.306553,"lon":5.400894,"is_reserved":false,"is_disabled":true,"rental_uris":{"android":"levelo://app?vid=192c0fa5-c826-4847-bdd0-11edb7180ff9","ios":"levelo://app?vid=192c0fa5-c826-4847-bdd0-11edb7180ff9"},"vehicle_type_id":"4","last_reported":1753104764,"current_range_meters":3600,"station_id":"ce4bh112rcd13ifvqda0","pricing_plan_id":"cebpf4jnsgd1na2vs0mg"},{"bike_id":"6c7402ab-3287-49ef-8d06-a534e09abbb4","system_id":"levelo_inurba_marseille","lat":43.28266,"lon":5.35072,"is_reserved":false,"is_disabled":false,"rental_uris":{"android":"levelo://app?vid=6c7402ab-3287-49ef-8d06-a534e09abbb4","ios":"levelo://app?vid=6c7402ab-3287-49ef-8d06-a534e09abbb4"},"vehicle_type_id":"4","last_reported":1753104764,"current_range_meters":3600,"station_id":"ce4bhbp2rcd13ifvqerg","pricing_plan_id":"cebpf4jnsgd1na2vs0mg"},{"bike_id":"933cca4a-a204-4032-b1cb-85ef4ec77c79","system_id":"levelo_inurba_marseille","lat":43.23193,"lon":5.39981,"is_reserved":false,"is_disabled":false,"rental_uris":{"android":"levelo://app?vid=933cca4a-a204-4032-b1cb-85ef4ec77c79","ios":"levelo://app?vid=933cca4a-a204-4032-b1cb-85ef4ec77c79"},"vehicle_type_id":"4","last_reported":1753104764,"current_range_meters":3600,"station_id":"ce4bhn12rcd13ifvqgqg","pricing_plan_id":"cebpf4jnsgd1na2vs0mg"},{"bike_id":"78d017cc-ddfa-49ba-9ef0-9355b5a69c32","system_id":"levelo_inurba_marseille","lat":43.31672,"lon":5.43698,"is_reserved":false,"is_disabled":false,"rental_uris":{"android":"levelo://app?vid=78d017cc-ddfa-49ba-9ef0-9355b5a69c32","ios":"levelo://app?vid=78d017cc-ddfa-49ba-9ef0-9355b5a69c32"},"vehicle_type_id":"4","last_reported":1753104764,"current_range_meters":4000,"station_id":"ce4bhp92rcd13ifvqhcg","pricing_plan_id":"cebpf4jnsgd1na2vs0mg"},{"bike_id":"cbd307fc-66eb-4dee-a29d-e104182eb83c","system_id":"levelo_inurba_marseille","lat":43.311773,"lon":5.387159,"is_reserved":false,"is_disabled":false,"rental_uris":{"android":"levelo://app?vid=cbd307fc-66eb-4dee-a29d-e104182eb83c","ios":"levelo://app?vid=cbd307fc-66eb-4dee-a29d-e104182eb83c"},"vehicle_type_id":"4","last_reported":1753104764,"current_range_meters":4800,"station_id":"ce4bgv12rcd13ifvqcp0","pricing_plan_id":"cebpf4jnsgd1na2vs0mg"},{"bike_id":"0fd02cf6-67fb-4589-807f-241dd50b7e1a","system_id":"levelo_inurba_marseille","lat":43.29899,"lon":5.43633,"is_reserved":false,"is_disabled":true,"rental_uris":{"android":"levelo://app?vid=0fd02cf6-67fb-4589-807f-241dd50b7e1a","ios":"levelo://app?vid=0fd02cf6-67fb-4589-807f-241dd50b7e1a"},"vehicle_type_id":"4","last_reported":1753104764,"current_range_meters":6000,"station_id":"ce4bhpp2rcd13ifvqhfg","pricing_plan_id":"cebpf4jnsgd1na2vs0mg"},{"bike_id":"a6aeaa41-3ed9-448c-bb94-9301917e3794","system_id":"levelo_inurba_marseille","lat":43.235168,"lon":5.350007,"is_reserved":false,"is_disabled":false,"rental_uris":{"android":"levelo://app?vid=a6aeaa41-3ed9-448c-bb94-9301917e3794","ios":"levelo://app?vid=a6aeaa41-3ed9-448c-bb94-9301917e3794"},"vehicle_type_id":"4","last_reported":1753104764,"current_range_meters":6000,"station_id":"","pricing_plan_id":"cebpf4jnsgd1na2vs0mg"},{"bike_id":"1e7722c0-86e6-4876-acae-b5712dec02ee","system_id":"levelo_inurba_marseille","lat":43.284175,"lon":5.349887,"is_reserved":false,"is_disabled":false,"rental_uris":{"android":"levelo://app?vid=1e7722c0-86e6-4876-acae-b5712dec02ee","ios":"levelo://app?vid=1e7722c0-86e6-4876-acae-b5712dec02ee"},"vehicle_type_id":"4","last_reported":1753104764,"current_range_meters":6000,"station_id":"ce4bhbh2rcd13ifvqepg","pricing_plan_id":"cebpf4jnsgd1na2vs0mg"},{"bike_id":"e83b026b-eaa4-47f5-bf6e-4c9c28cb9465","system_id":"levelo_inurba_marseille","lat":43.2979,"lon":5.37098,"is_reserved":false,"is_disabled":false,"rental_uris":{"android":"levelo://app?vid=e83b026b-eaa4-47f5-bf6e-4c9c28cb9465","ios":"levelo://app?vid=e83b026b-eaa4-47f5-bf6e-4c9c28cb9465"},"vehicle_type_id":"4","last_reported":1753104764,"current_range_meters":6000,"station_id":"ce4bgop2rcd13ifvqc1g","pricing_plan_id":"cebpf4jnsgd1na2vs0mg"},{"bike_id":"7a4fe572-42b7-4c9c-b286-5ad677c109bb","system_id":"levelo_inurba_marseille","lat":43.33026,"lon":5.39039,"is_reserved":false,"is_disabled":false,"rental_uris":{"android":"levelo://app?vid=7a4fe572-42b7-4c9c-b286-5ad677c109bb","ios":"levelo://app?vid=7a4fe572-42b7-4c9c-b286-5ad677c109bb"},"vehicle_type_id":"4","last_reported":1753104764,"current_range_meters":6400,"station_id":"ce4bhr92rcd13ifvqhrg","pricing_plan_id":"cebpf4jnsgd1na2vs0mg"},{"bike_id":"d1ee7f36-da5c-4bec-902c-6d51a70af19f","system_id":"levelo_inurba_marseille","lat":43.28418,"lon":5.34969,"is_reserved":false,"is_disabled":false,"rental_uris":{"android":"levelo://app?vid=d1ee7f36-da5c-4bec-902c-6d51a70af19f","ios":"levelo://app?vid=d1ee7f36-da5c-4bec-902c-6d51a70af19f"},"vehicle_type_id":"4","last_reported":1753104764,"current_range_meters":6400,"station_id":"ce4bhbh2rcd13ifvqepg","pricing_plan_id":"cebpf4jnsgd1na2vs0mg"},{"bike_id":"ed415a14-b4b4-4caf-8a06-7fd1c907bac5","system_id":"levelo_inurba_marseille","lat":43.21456,"lon":5.34625,"is_reserved":false,"is_disabled":false,"rental_uris":{"android":"levelo://app?vid=ed415a14-b4b4-4caf-8a06-7fd1c907bac5","ios":"levelo://app?vid=ed415a14-b4b4-4caf-8a06-7fd1c907bac5"},"vehicle_type_id":"4","last_reported":1753104764,"current_range_meters":6800,"station_id":"","pricing_plan_id":"cebpf4jnsgd1na2vs0mg"},{"bike_id":"6834b706-a618-40f6-8722-8e5e5439ff2c","system_id":"levelo_inurba_marseille","lat":43.217503,"lon":5.346078,"is_reserved":false,"is_disabled":false,"rental_uris":{"android":"levelo://app?vid=6834b706-a618-40f6-8722-8e5e5439ff2c","ios":"levelo://app?vid=6834b706-a618-40f6-8722-8e5e5439ff2c"},"vehicle_type_id":"4","last_reported":1753104764,"current_range_meters":6800,"station_id":"st_cvj6r9ubvosntc0bgbag","pricing_plan_id":"cebpf4jnsgd1na2vs0mg"},{"bike_id":"793e387b-3d17-4d7f-80e2-2632dc4c4506","system_id":"levelo_inurba_marseille","lat":43.24167,"lon":5.39719,"is_reserved":false,"is_disabled":true,"rental_uris":{"android":"levelo://app?vid=793e387b-3d17-4d7f-80e2-2632dc4c4506","ios":"levelo://app?vid=793e387b-3d17-4d7f-80e2-2632dc4c4506"},"vehicle_type_id":"4","last_reported":1753104764,"current_range_meters":38800,"station_id":"ce4bhn12rcd13ifvqgpg","pricing_plan_id":"cebpf4jnsgd1na2vs0mg"},{"bike_id":"a6de290b-5c15-427b-bc37-8301607e1735","system_id":"levelo_inurba_marseille","lat":43.3377,"lon":5.374405,"is_reserved":false,"is_disabled":false,"rental_uris":{"android":"levelo://app?vid=a6de290b-5c15-427b-bc37-8301607e1735","ios":"levelo://app?vid=a6de290b-5c15-427b-bc37-8301607e1735"},"vehicle_type_id":"4","last_reported":1753104764,"current_range_meters":7200,"station_id":"","pricing_plan_id":"cebpf4jnsgd1na2vs0mg"},{"bike_id":"b6f6c691-84d1-4442-b0e6-8b3a41dd9586","system_id":"levelo_inurba_marseille","lat":43.28269,"lon":5.35056,"is_reserved":false,"is_disabled":false,"rental_uris":{"android":"levelo://app?vid=b6f6c691-84d1-4442-b0e6-8b3a41dd9586","ios":"levelo://app?vid=b6f6c691-84d1-4442-b0e6-8b3a41dd9586"},"vehicle_type_id":"4","last_reported":1753104764,"current_range_meters":7200,"station_id":"ce4bhbp2rcd13ifvqerg","pricing_plan_id":"cebpf4jnsgd1na2vs0mg"},{"bike_id":"6cf56784-2fea-4251-9d8f-584a5636c1b0","system_id":"levelo_inurba_marseille","lat":43.2794,"lon":5.41047,"is_reserved":false,"is_disabled":false,"rental_uris":{"android":"levelo://app?vid=6cf56784-2fea-4251-9d8f-584a5636c1b0","ios":"levelo://app?vid=6cf56784-2fea-4251-9d8f-584a5636c1b0"},"vehicle_type_id":"4","last_reported":1753104764,"current_range_meters":8000,"station_id":"ce4bhnp2rcd13ifvqh0g","pricing_plan_id":"cebpf4jnsgd1na2vs0mg"},{"bike_id":"84133b2c-54f7-40c0-9db6-ff896dc83184","system_id":"levelo_inurba_marseille","lat":43.301074,"lon":5.398712,"is_reserved":false,"is_disabled":true,"rental_uris":{"android":"levelo://app?vid=84133b2c-54f7-40c0-9db6-ff896dc83184","ios":"levelo://app?vid=84133b2c-54f7-40c0-9db6-ff896dc83184"},"vehicle_type_id":"4","last_reported":1753104764,"current_range_meters":8000,"station_id":"ce4bh0h2rcd13ifvqd40","pricing_plan_id":"cebpf4jnsgd1na2vs0mg"},{"bike_id":"aa060a46-926b-42cd-9c04-3f263c91a19f","system_id":"levelo_inurba_marseille","lat":43.22501,"lon":5.34799,"is_reserved":false,"is_disabled":false,"rental_uris":{"android":"levelo://app?vid=aa060a46-926b-42cd-9c04-3f263c91a19f","ios":"levelo://app?vid=aa060a46-926b-42cd-9c04-3f263c91a19f"},"vehicle_type_id":"4","last_reported":1753104764,"current_range_meters":8000,"station_id":"st_cvj5dfep6f1abm77gieg","pricing_plan_id":"cebpf4jnsgd1na2vs0mg"},{"bike_id":"6a59316c-944b-42c2-b494-8c67ddc9f17e","system_id":"levelo_inurba_marseille","lat":43.2416,"lon":5.36393,"is_reserved":false,"is_disabled":false,"rental_uris":{"android":"levelo://app?vid=6a59316c-944b-42c2-b494-8c67ddc9f17e","ios":"levelo://app?vid=6a59316c-944b-42c2-b494-8c67ddc9f17e"},"vehicle_type_id":"4","last_reported":1753104764,"current_range_meters":8000,"station_id":"cpo36qri1sfpv3e86is0","pricing_plan_id":"cebpf4jnsgd1na2vs0mg"},{"bike_id":"f18952d9-de72-4b00-ac50-ca46d1bc16b9","system_id":"levelo_inurba_marseille","lat":43.2119,"lon":5.35062,"is_reserved":false,"is_disabled":false,"rental_uris":{"android":"levelo://app?vid=f18952d9-de72-4b00-ac50-ca46d1bc16b9","ios":"levelo://app?vid=f18952d9-de72-4b00-ac50-ca46d1bc16b9"},"vehicle_type_id":"4","last_reported":1753104764,"current_range_meters":8000,"station_id":"st_cvj6sg6p6f1abm77japg","pricing_plan_id":"cebpf4jnsgd1na2vs0mg"},{"bike_id":"02860f1e-d711-4398-b757-6c9dd2b46894","system_id":"levelo_inurba_marseille","lat":43.25978,"lon":5.40925,"is_reserved":false,"is_disabled":true,"rental_uris":{"android":"levelo://app?vid=02860f1e-d711-4398-b757-6c9dd2b46894","ios":"levelo://app?vid=02860f1e-d711-4398-b757-6c9dd2b46894"},"vehicle_type_id":"4","last_reported":1753104764,"current_range_meters":8000,"station_id":"","pricing_plan_id":"cebpf4jnsgd1na2vs0mg"},{"bike_id":"c0bdb2ba-7918-487d-a63a-9e5dc47f9f3a","system_id":"levelo_inurba_marseille","lat":43.225,"lon":5.34786,"is_reserved":false,"is_disabled":false,"rental_uris":{"android":"levelo://app?vid=c0bdb2ba-7918-487d-a63a-9e5dc47f9f3a","ios":"levelo://app?vid=c0bdb2ba-7918-487d-a63a-9e5dc47f9f3a"},"vehicle_type_id":"4","last_reported":1753104764,"current_range_meters":8400,"station_id":"st_cvj5dfep6f1abm77gieg","pricing_plan_id":"cebpf4jnsgd1na2vs0mg"},{"bike_id":"412dc0f2-c759-4ab6-a909-c5ea3ae392b0","system_id":"levelo_inurba_marseille","lat":43.30527,"lon":5.36715,"is_reserved":false,"is_disabled":false,"rental_uris":{"android":"levelo://app?vid=412dc0f2-c759-4ab6-a909-c5ea3ae392b0","ios":"levelo://app?vid=412dc0f2-c759-4ab6-a909-c5ea3ae392b0"},"vehicle_type_id":"4","last_reported":1753104764,"current_range_meters":8800,"station_id":"ce4bgrp2rcd13ifvqc9g","pricing_plan_id":"cebpf4jnsgd1na2vs0mg"},{"bike_id":"5a02ed02-f8c7-475b-b116-3c15ce34a03e","system_id":"levelo_inurba_marseille","lat":43.30564,"lon":5.36534,"is_reserved":false,"is_disabled":false,"rental_uris":{"android":"levelo://app?vid=5a02ed02-f8c7-475b-b116-3c15ce34a03e","ios":"levelo://app?vid=5a02ed02-f8c7-475b-b116-3c15ce34a03e"},"vehicle_type_id":"4","last_reported":1753104764,"current_range_meters":8400,"station_id":"ce4bgs12rcd13ifvqcag","pricing_plan_id":"cebpf4jnsgd1na2vs0mg"},{"bike_id":"c22bc60d-345e-4a5e-b48d-4b12f6904385","system_id":"levelo_inurba_marseille","lat":43.301865,"lon":5.366122,"is_reserved":false,"is_disabled":false,"rental_uris":{"android":"levelo://app?vid=c22bc60d-345e-4a5e-b48d-4b12f6904385","ios":"levelo://app?vid=c22bc60d-345e-4a5e-b48d-4b12f6904385"},"vehicle_type_id":"4","last_reported":1753104764,"current_range_meters":8800,"station_id":"ce4bgrh2rcd13ifvqc8g","pricing_plan_id":"cebpf4jnsgd1na2vs0mg"},{"bike_id":"54c62cfd-190d-4a0a-99a0-7a5cc5804e08","system_id":"levelo_inurba_marseille","lat":43.21185,"lon":5.35071,"is_reserved":false,"is_disabled":false,"rental_uris":{"android":"levelo://app?vid=54c62cfd-190d-4a0a-99a0-7a5cc5804e08","ios":"levelo://app?vid=54c62cfd-190d-4a0a-99a0-7a5cc5804e08"},"vehicle_type_id":"4","last_reported":1753104764,"current_range_meters":9200,"station_id":"st_cvj6sg6p6f1abm77japg","pricing_plan_id":"cebpf4jnsgd1na2vs0mg"},{"bike_id":"9036d315-4723-4cdd-9f68-856fe767f9c3","system_id":"levelo_inurba_marseille","lat":43.33179,"lon":5.38106,"is_reserved":false,"is_disabled":false,"rental_uris":{"android":"levelo://app?vid=9036d315-4723-4cdd-9f68-856fe767f9c3","ios":"levelo://app?vid=9036d315-4723-4cdd-9f68-856fe767f9c3"},"vehicle_type_id":"4","last_reported":1753104764,"current_range_meters":9200,"station_id":"","pricing_plan_id":"cebpf4jnsgd1na2vs0mg"},{"bike_id":"736c363b-3641-43dd-b890-bd43d8fd5283","system_id":"levelo_inurba_marseille","lat":43.21414,"lon":5.34846,"is_reserved":false,"is_disabled":false,"rental_uris":{"android":"levelo://app?vid=736c363b-3641-43dd-b890-bd43d8fd5283","ios":"levelo://app?vid=736c363b-3641-43dd-b890-bd43d8fd5283"},"vehicle_type_id":"4","last_reported":1753104764,"current_range_meters":9600,"station_id":"","pricing_plan_id":"cebpf4jnsgd1na2vs0mg"},{"bike_id":"fbcac72e-11bb-4b63-bff7-d6ed2a063dfb","system_id":"levelo_inurba_marseille","lat":43.30792,"lon":5.38149,"is_reserved":false,"is_disabled":false,"rental_uris":{"android":"levelo://app?vid=fbcac72e-11bb-4b63-bff7-d6ed2a063dfb","ios":"levelo://app?vid=fbcac72e-11bb-4b63-bff7-d6ed2a063dfb"},"vehicle_type_id":"4","last_reported":1753104764,"current_range_meters":9600,"station_id":"ce4bgt12rcd13ifvqce0","pricing_plan_id":"cebpf4jnsgd1na2vs0mg"},{"bike_id":"69830a29-e392-4736-8805-f2b59f82271f","system_id":"levelo_inurba_marseille","lat":43.30139,"lon":5.38085,"is_reserved":false,"is_disabled":false,"rental_uris":{"android":"levelo://app?vid=69830a29-e392-4736-8805-f2b59f82271f","ios":"levelo://app?vid=69830a29-e392-4736-8805-f2b59f82271f"},"vehicle_type_id":"4","last_reported":1753104764,"current_range_meters":9600,"station_id":"ce4bgjp2rcd13ifvqbh0","pricing_plan_id":"cebpf4jnsgd1na2vs0mg"},{"bike_id":"381bbdbb-4332-4d41-9c33-b55f56790799","system_id":"levelo_inurba_marseille","lat":43.27052,"lon":5.42266,"is_reserved":false,"is_disabled":false,"rental_uris":{"android":"levelo://app?vid=381bbdbb-4332-4d41-9c33-b55f56790799","ios":"levelo://app?vid=381bbdbb-4332-4d41-9c33-b55f56790799"},"vehicle_type_id":"4","last_reported":1753104764,"current_range_meters":9600,"station_id":"ce4bhk92rcd13ifvqgb0","pricing_plan_id":"cebpf4jnsgd1na2vs0mg"},{"bike_id":"52a09432-883f-465b-b54f-746e87888ccf","system_id":"levelo_inurba_marseille","lat":43.32485,"lon":5.36566,"is_reserved":false,"is_disabled":false,"rental_uris":{"android":"levelo://app?vid=52a09432-883f-465b-b54f-746e87888ccf","ios":"levelo://app?vid=52a09432-883f-465b-b54f-746e87888ccf"},"vehicle_type_id":"4","last_reported":1753104764,"current_range_meters":10000,"station_id":"ce4bhs12rcd13ifvqhvg","pricing_plan_id":"cebpf4jnsgd1na2vs0mg"},{"bike_id":"8b70e333-db95-4dad-9f25-3f58617e52f2","system_id":"levelo_inurba_marseille","lat":43.29916,"lon":5.43625,"is_reserved":false,"is_disabled":false,"rental_uris":{"android":"levelo://app?vid=8b70e333-db95-4dad-9f25-3f58617e52f2","ios":"levelo://app?vid=8b70e333-db95-4dad-9f25-3f58617e52f2"},"vehicle_type_id":"4","last_reported":1753104764,"current_range_meters":10000,"station_id":"ce4bhpp2rcd13ifvqhfg","pricing_plan_id":"cebpf4jnsgd1na2vs0mg"},{"bike_id":"dee6628b-f370-478a-a4db-32c84542aee7","system_id":"levelo_inurba_marseille","lat":43.33288,"lon":5.39007,"is_reserved":false,"is_disabled":false,"rental_uris":{"android":"levelo://app?vid=dee6628b-f370-478a-a4db-32c84542aee7","ios":"levelo://app?vid=dee6628b-f370-478a-a4db-32c84542aee7"},"vehicle_type_id":"4","last_reported":1753104764,"current_range_meters":10000,"station_id":"","pricing_plan_id":"cebpf4jnsgd1na2vs0mg"},{"bike_id":"37d8cb1b-1988-4390-9e4c-4eca73c82c19","system_id":"levelo_inurba_marseille","lat":43.26185,"lon":5.37438,"is_reserved":false,"is_disabled":true,"rental_uris":{"android":"levelo://app?vid=37d8cb1b-1988-4390-9e4c-4eca73c82c19","ios":"levelo://app?vid=37d8cb1b-1988-4390-9e4c-4eca73c82c19"},"vehicle_type_id":"4","last_reported":1753104764,"current_range_meters":10000,"station_id":"ce4bhgp2rcd13ifvqfc0","pricing_plan_id":"cebpf4jnsgd1na2vs0mg"},{"bike_id":"cfd7c1d9-7bcd-4971-afe4-64d706646a62","system_id":"levelo_inurba_marseille","lat":43.32368,"lon":5.367612,"is_reserved":false,"is_disabled":false,"rental_uris":{"android":"levelo://app?vid=cfd7c1d9-7bcd-4971-afe4-64d706646a62","ios":"levelo://app?vid=cfd7c1d9-7bcd-4971-afe4-64d706646a62"},"vehicle_type_id":"4","last_reported":1753104764,"current_range_meters":10000,"station_id":"ce4bhsh2rcd13ifvqi2g","pricing_plan_id":"cebpf4jnsgd1na2vs0mg"},{"bike_id":"696c5e5f-ee49-4cdd-b0d3-ceab6c87d298","system_id":"levelo_inurba_marseille","lat":43.32116,"lon":5.36782,"is_reserved":false,"is_disabled":false,"rental_uris":{"android":"levelo://app?vid=696c5e5f-ee49-4cdd-b0d3-ceab6c87d298","ios":"levelo://app?vid=696c5e5f-ee49-4cdd-b0d3-ceab6c87d298"},"vehicle_type_id":"4","last_reported":1753104764,"current_range_meters":10800,"station_id":"ce4bhrh2rcd13ifvqhug","pricing_plan_id":"cebpf4jnsgd1na2vs0mg"},{"bike_id":"30efaa53-cf10-4ffa-bbcb-ea5f7a9db1bf","system_id":"levelo_inurba_marseille","lat":43.29272,"lon":5.36841,"is_reserved":false,"is_disabled":false,"rental_uris":{"android":"levelo://app?vid=30efaa53-cf10-4ffa-bbcb-ea5f7a9db1bf","ios":"levelo://app?vid=30efaa53-cf10-4ffa-bbcb-ea5f7a9db1bf"},"vehicle_type_id":"4","last_reported":1753104764,"current_range_meters":10800,"station_id":"ce4bhbp2rcd13ifvqesg","pricing_plan_id":"cebpf4jnsgd1na2vs0mg"},{"bike_id":"76eeea32-2ee3-47ac-8968-6f1d6354c18e","system_id":"levelo_inurba_marseille","lat":43.3095,"lon":5.37981,"is_reserved":false,"is_disabled":false,"rental_uris":{"android":"levelo://app?vid=76eeea32-2ee3-47ac-8968-6f1d6354c18e","ios":"levelo://app?vid=76eeea32-2ee3-47ac-8968-6f1d6354c18e"},"vehicle_type_id":"4","last_reported":1753104764,"current_range_meters":10800,"station_id":"","pricing_plan_id":"cebpf4jnsgd1na2vs0mg"},{"bike_id":"8921ce94-3310-4813-a66c-72bebc48747f","system_id":"levelo_inurba_marseille","lat":43.295561,"lon":5.422937,"is_reserved":false,"is_disabled":false,"rental_uris":{"android":"levelo://app?vid=8921ce94-3310-4813-a66c-72bebc48747f","ios":"levelo://app?vid=8921ce94-3310-4813-a66c-72bebc48747f"},"vehicle_type_id":"4","last_reported":1753104764,"current_range_meters":11200,"station_id":"ce4bhph2rcd13ifvqhdg","pricing_plan_id":"cebpf4jnsgd1na2vs0mg"},{"bike_id":"e83113b6-e10d-4450-8d64-65ec099452e6","system_id":"levelo_inurba_marseille","lat":43.29529,"lon":5.39389,"is_reserved":false,"is_disabled":false,"rental_uris":{"android":"levelo://app?vid=e83113b6-e10d-4450-8d64-65ec099452e6","ios":"levelo://app?vid=e83113b6-e10d-4450-8d64-65ec099452e6"},"vehicle_type_id":"4","last_reported":1753104764,"current_range_meters":10800,"station_id":"ce4bh292rcd13ifvqdf0","pricing_plan_id":"cebpf4jnsgd1na2vs0mg"},{"bike_id":"341eec4e-ddcf-4f75-95c6-ecd84ef432ec","system_id":"levelo_inurba_marseille","lat":43.229327,"lon":5.353794,"is_reserved":false,"is_disabled":false,"rental_uris":{"android":"levelo://app?vid=341eec4e-ddcf-4f75-95c6-ecd84ef432ec","ios":"levelo://app?vid=341eec4e-ddcf-4f75-95c6-ecd84ef432ec"},"vehicle_type_id":"4","last_reported":1753104764,"current_range_meters":11200,"station_id":"cpo3532slgdg3j2ikp40","pricing_plan_id":"cebpf4jnsgd1na2vs0mg"},{"bike_id":"4e973043-abe0-42a5-bc06-51329ee48584","system_id":"levelo_inurba_marseille","lat":43.28721,"lon":5.36084,"is_reserved":false,"is_disabled":false,"rental_uris":{"android":"levelo://app?vid=4e973043-abe0-42a5-bc06-51329ee48584","ios":"levelo://app?vid=4e973043-abe0-42a5-bc06-51329ee48584"},"vehicle_type_id":"4","last_reported":1753104764,"current_range_meters":11200,"station_id":"cki0cbj6b192h4jlfktg","pricing_plan_id":"cebpf4jnsgd1na2vs0mg"},{"bike_id":"53cb4f43-b1af-4efe-9f40-e0338804f4d4","system_id":"levelo_inurba_marseille","lat":43.31273,"lon":5.39054,"is_reserved":false,"is_disabled":false,"rental_uris":{"android":"levelo://app?vid=53cb4f43-b1af-4efe-9f40-e0338804f4d4","ios":"levelo://app?vid=53cb4f43-b1af-4efe-9f40-e0338804f4d4"},"vehicle_type_id":"4","last_reported":1753104764,"current_range_meters":11200,"station_id":"","pricing_plan_id":"cebpf4jnsgd1na2vs0mg"},{"bike_id":"54848f60-30a5-4ea1-a7ac-f2baf6e68bfe","system_id":"levelo_inurba_marseille","lat":43.273102,"lon":5.39071,"is_reserved":false,"is_disabled":true,"rental_uris":{"android":"levelo://app?vid=54848f60-30a5-4ea1-a7ac-f2baf6e68bfe","ios":"levelo://app?vid=54848f60-30a5-4ea1-a7ac-f2baf6e68bfe"},"vehicle_type_id":"4","last_reported":1753104764,"current_range_meters":11200,"station_id":"ce4bhgp2rcd13ifvqfe0","pricing_plan_id":"cebpf4jnsgd1na2vs0mg"},{"bike_id":"0cb2c80a-7457-4a4a-ad92-f0361b5225d6","system_id":"levelo_inurba_marseille","lat":43.24413,"lon":5.37413,"is_reserved":false,"is_disabled":false,"rental_uris":{"android":"levelo://app?vid=0cb2c80a-7457-4a4a-ad92-f0361b5225d6","ios":"levelo://app?vid=0cb2c80a-7457-4a4a-ad92-f0361b5225d6"},"vehicle_type_id":"4","last_reported":1753104764,"current_range_meters":11200,"station_id":"","pricing_plan_id":"cebpf4jnsgd1na2vs0mg"},{"bike_id":"0cacba45-7875-4453-8ad8-62c9329fee21","system_id":"levelo_inurba_marseille","lat":43.30141,"lon":5.37419,"is_reserved":false,"is_disabled":false,"rental_uris":{"android":"levelo://app?vid=0cacba45-7875-4453-8ad8-62c9329fee21","ios":"levelo://app?vid=0cacba45-7875-4453-8ad8-62c9329fee21"},"vehicle_type_id":"4","last_reported":1753104764,"current_range_meters":11200,"station_id":"ce4bgs92rcd13ifvqcc0","pricing_plan_id":"cebpf4jnsgd1na2vs0mg"},{"bike_id":"89954574-8c17-4192-a9ff-7a3c7f4c8faa","system_id":"levelo_inurba_marseille","lat":43.280024,"lon":5.400181,"is_reserved":false,"is_disabled":false,"rental_uris":{"android":"levelo://app?vid=89954574-8c17-4192-a9ff-7a3c7f4c8faa","ios":"levelo://app?vid=89954574-8c17-4192-a9ff-7a3c7f4c8faa"},"vehicle_type_id":"4","last_reported":1753104764,"current_range_meters":11200,"station_id":"ce4bho92rcd13ifvqh4g","pricing_plan_id":"cebpf4jnsgd1na2vs0mg"},{"bike_id":"9e7b8382-bec5-42d2-8d02-5c13ad20722b","system_id":"levelo_inurba_marseille","lat":43.29787,"lon":5.39338,"is_reserved":false,"is_disabled":false,"rental_uris":{"android":"levelo://app?vid=9e7b8382-bec5-42d2-8d02-5c13ad20722b","ios":"levelo://app?vid=9e7b8382-bec5-42d2-8d02-5c13ad20722b"},"vehicle_type_id":"4","last_reported":1753104764,"current_range_meters":11600,"station_id":"chh1huq6cuj3fo74tm60","pricing_plan_id":"cebpf4jnsgd1na2vs0mg"},{"bike_id":"4e5823ac-9313-4e20-81da-720a18c2dac7","system_id":"levelo_inurba_marseille","lat":43.32128,"lon":5.36779,"is_reserved":false,"is_disabled":false,"rental_uris":{"android":"levelo://app?vid=4e5823ac-9313-4e20-81da-720a18c2dac7","ios":"levelo://app?vid=4e5823ac-9313-4e20-81da-720a18c2dac7"},"vehicle_type_id":"4","last_reported":1753104764,"current_range_meters":11600,"station_id":"ce4bhrh2rcd13ifvqhug","pricing_plan_id":"cebpf4jnsgd1na2vs0mg"},{"bike_id":"c9267a94-d966-40df-b417-3cf2bf2a2f0e","system_id":"levelo_inurba_marseille","lat":43.26026,"lon":5.37553,"is_reserved":false,"is_disabled":false,"rental_uris":{"android":"levelo://app?vid=c9267a94-d966-40df-b417-3cf2bf2a2f0e","ios":"levelo://app?vid=c9267a94-d966-40df-b417-3cf2bf2a2f0e"},"vehicle_type_id":"4","last_reported":1753104764,"current_range_meters":11200,"station_id":"ce4bhgh2rcd13ifvqfa0","pricing_plan_id":"cebpf4jnsgd1na2vs0mg"},{"bike_id":"64318f78-93b0-43f9-b7d1-fef3103d94ab","system_id":"levelo_inurba_marseille","lat":43.26795,"lon":5.39407,"is_reserved":false,"is_disabled":false,"rental_uris":{"android":"levelo://app?vid=64318f78-93b0-43f9-b7d1-fef3103d94ab","ios":"levelo://app?vid=64318f78-93b0-43f9-b7d1-fef3103d94ab"},"vehicle_type_id":"4","last_reported":1753104764,"current_range_meters":11600,"station_id":"ce4bhh12rcd13ifvqfg0","pricing_plan_id":"cebpf4jnsgd1na2vs0mg"},{"bike_id":"b29e2d14-59cb-4e3a-a7d7-249c735e0321","system_id":"levelo_inurba_marseille","lat":43.24176,"lon":5.36398,"is_reserved":false,"is_disabled":false,"rental_uris":{"android":"levelo://app?vid=b29e2d14-59cb-4e3a-a7d7-249c735e0321","ios":"levelo://app?vid=b29e2d14-59cb-4e3a-a7d7-249c735e0321"},"vehicle_type_id":"4","last_reported":1753104764,"current_range_meters":12000,"station_id":"cpo36qri1sfpv3e86is0","pricing_plan_id":"cebpf4jnsgd1na2vs0mg"},{"bike_id":"819d0834-cee1-4b2f-9b89-a76a3278c968","system_id":"levelo_inurba_marseille","lat":43.262106,"lon":5.374364,"is_reserved":false,"is_disabled":false,"rental_uris":{"android":"levelo://app?vid=819d0834-cee1-4b2f-9b89-a76a3278c968","ios":"levelo://app?vid=819d0834-cee1-4b2f-9b89-a76a3278c968"},"vehicle_type_id":"4","last_reported":1753104764,"current_range_meters":12000,"station_id":"ce4bhgp2rcd13ifvqfc0","pricing_plan_id":"cebpf4jnsgd1na2vs0mg"},{"bike_id":"4f7df333-6d95-4a78-8d27-9dfcc4c8e54e","system_id":"levelo_inurba_marseille","lat":43.28044,"lon":5.36934,"is_reserved":false,"is_disabled":false,"rental_uris":{"android":"levelo://app?vid=4f7df333-6d95-4a78-8d27-9dfcc4c8e54e","ios":"levelo://app?vid=4f7df333-6d95-4a78-8d27-9dfcc4c8e54e"},"vehicle_type_id":"4","last_reported":1753104764,"current_range_meters":12400,"station_id":"ce4bha12rcd13ifvqef0","pricing_plan_id":"cebpf4jnsgd1na2vs0mg"},{"bike_id":"9c3a4b2d-b63e-4143-9015-8c998eae265c","system_id":"levelo_inurba_marseille","lat":43.29549,"lon":5.42294,"is_reserved":false,"is_disabled":false,"rental_uris":{"android":"levelo://app?vid=9c3a4b2d-b63e-4143-9015-8c998eae265c","ios":"levelo://app?vid=9c3a4b2d-b63e-4143-9015-8c998eae265c"},"vehicle_type_id":"4","last_reported":1753104764,"current_range_meters":12400,"station_id":"ce4bhph2rcd13ifvqhdg","pricing_plan_id":"cebpf4jnsgd1na2vs0mg"},{"bike_id":"7230cb4d-8cd2-4957-9d99-c27265ab6ce1","system_id":"levelo_inurba_marseille","lat":43.29299,"lon":5.37168,"is_reserved":false,"is_disabled":false,"rental_uris":{"android":"levelo://app?vid=7230cb4d-8cd2-4957-9d99-c27265ab6ce1","ios":"levelo://app?vid=7230cb4d-8cd2-4957-9d99-c27265ab6ce1"},"vehicle_type_id":"4","last_reported":1753104764,"current_range_meters":12400,"station_id":"","pricing_plan_id":"cebpf4jnsgd1na2vs0mg"},{"bike_id":"00b859be-86f4-4715-b79c-dbd934115c47","system_id":"levelo_inurba_marseille","lat":43.24165,"lon":5.39726,"is_reserved":false,"is_disabled":false,"rental_uris":{"android":"levelo://app?vid=00b859be-86f4-4715-b79c-dbd934115c47","ios":"levelo://app?vid=00b859be-86f4-4715-b79c-dbd934115c47"},"vehicle_type_id":"4","last_reported":1753104764,"current_range_meters":12800,"station_id":"ce4bhn12rcd13ifvqgpg","pricing_plan_id":"cebpf4jnsgd1na2vs0mg"},{"bike_id":"3d36c590-bfb3-4f3d-a821-3b0275041fa7","system_id":"levelo_inurba_marseille","lat":43.30409,"lon":5.41287,"is_reserved":false,"is_disabled":false,"rental_uris":{"android":"levelo://app?vid=3d36c590-bfb3-4f3d-a821-3b0275041fa7","ios":"levelo://app?vid=3d36c590-bfb3-4f3d-a821-3b0275041fa7"},"vehicle_type_id":"4","last_reported":1753104764,"current_range_meters":12800,"station_id":"ce4bhop2rcd13ifvqh8g","pricing_plan_id":"cebpf4jnsgd1na2vs0mg"},{"bike_id":"52fc553f-1e8c-4701-a604-31e90c76b1d4","system_id":"levelo_inurba_marseille","lat":43.314867,"lon":5.37299,"is_reserved":false,"is_disabled":false,"rental_uris":{"android":"levelo://app?vid=52fc553f-1e8c-4701-a604-31e90c76b1d4","ios":"levelo://app?vid=52fc553f-1e8c-4701-a604-31e90c76b1d4"},"vehicle_type_id":"4","last_reported":1753104764,"current_range_meters":13600,"station_id":"ce4bgt12rcd13ifvqcd0","pricing_plan_id":"cebpf4jnsgd1na2vs0mg"},{"bike_id":"0921f7df-2f57-4078-aed8-d9e6f4afda21","system_id":"levelo_inurba_marseille","lat":43.24158,"lon":5.36392,"is_reserved":false,"is_disabled":false,"rental_uris":{"android":"levelo://app?vid=0921f7df-2f57-4078-aed8-d9e6f4afda21","ios":"levelo://app?vid=0921f7df-2f57-4078-aed8-d9e6f4afda21"},"vehicle_type_id":"4","last_reported":1753104764,"current_range_meters":13600,"station_id":"cpo36qri1sfpv3e86is0","pricing_plan_id":"cebpf4jnsgd1na2vs0mg"},{"bike_id":"0ca31726-affa-4d23-89b6-6cea1b5c38be","system_id":"levelo_inurba_marseille","lat":43.26216,"lon":5.40443,"is_reserved":false,"is_disabled":false,"rental_uris":{"android":"levelo://app?vid=0ca31726-affa-4d23-89b6-6cea1b5c38be","ios":"levelo://app?vid=0ca31726-affa-4d23-89b6-6cea1b5c38be"},"vehicle_type_id":"4","last_reported":1753104764,"current_range_meters":13600,"station_id":"ce4bhmh2rcd13ifvqgmg","pricing_plan_id":"cebpf4jnsgd1na2vs0mg"},{"bike_id":"ce83e565-25f4-44b4-9159-664c2c9ef77f","system_id":"levelo_inurba_marseille","lat":43.31169,"lon":5.38716,"is_reserved":false,"is_disabled":false,"rental_uris":{"android":"levelo://app?vid=ce83e565-25f4-44b4-9159-664c2c9ef77f","ios":"levelo://app?vid=ce83e565-25f4-44b4-9159-664c2c9ef77f"},"vehicle_type_id":"4","last_reported":1753104764,"current_range_meters":12800,"station_id":"ce4bgv12rcd13ifvqcp0","pricing_plan_id":"cebpf4jnsgd1na2vs0mg"},{"bike_id":"d2a9ef2a-3ecf-454e-ac8d-c81b3a196753","system_id":"levelo_inurba_marseille","lat":43.28623,"lon":5.3822,"is_reserved":false,"is_disabled":false,"rental_uris":{"android":"levelo://app?vid=d2a9ef2a-3ecf-454e-ac8d-c81b3a196753","ios":"levelo://app?vid=d2a9ef2a-3ecf-454e-ac8d-c81b3a196753"},"vehicle_type_id":"4","last_reported":1753104764,"current_range_meters":13600,"station_id":"","pricing_plan_id":"cebpf4jnsgd1na2vs0mg"},{"bike_id":"07481afa-6635-4dc1-8a31-8a97247e4afb","system_id":"levelo_inurba_marseille","lat":43.21184,"lon":5.35061,"is_reserved":false,"is_disabled":false,"rental_uris":{"android":"levelo://app?vid=07481afa-6635-4dc1-8a31-8a97247e4afb","ios":"levelo://app?vid=07481afa-6635-4dc1-8a31-8a97247e4afb"},"vehicle_type_id":"4","last_reported":1753104764,"current_range_meters":14000,"station_id":"st_cvj6sg6p6f1abm77japg","pricing_plan_id":"cebpf4jnsgd1na2vs0mg"},{"bike_id":"b0851b2d-68e2-4d18-8a9b-2ae3d7cce819","system_id":"levelo_inurba_marseille","lat":43.23191,"lon":5.35553,"is_reserved":false,"is_disabled":false,"rental_uris":{"android":"levelo://app?vid=b0851b2d-68e2-4d18-8a9b-2ae3d7cce819","ios":"levelo://app?vid=b0851b2d-68e2-4d18-8a9b-2ae3d7cce819"},"vehicle_type_id":"4","last_reported":1753104764,"current_range_meters":14000,"station_id":"ce4bhu92rcd13ifvqi70","pricing_plan_id":"cebpf4jnsgd1na2vs0mg"},{"bike_id":"52783707-f5c7-4828-a589-c4e2563a4fcc","system_id":"levelo_inurba_marseille","lat":43.28719,"lon":5.36088,"is_reserved":false,"is_disabled":false,"rental_uris":{"android":"levelo://app?vid=52783707-f5c7-4828-a589-c4e2563a4fcc","ios":"levelo://app?vid=52783707-f5c7-4828-a589-c4e2563a4fcc"},"vehicle_type_id":"4","last_reported":1753104764,"current_range_meters":14000,"station_id":"cki0cbj6b192h4jlfktg","pricing_plan_id":"cebpf4jnsgd1na2vs0mg"},{"bike_id":"5a42e90a-94ef-4a1b-b43d-3c279f1b53e1","system_id":"levelo_inurba_marseille","lat":43.23185,"lon":5.35573,"is_reserved":false,"is_disabled":false,"rental_uris":{"android":"levelo://app?vid=5a42e90a-94ef-4a1b-b43d-3c279f1b53e1","ios":"levelo://app?vid=5a42e90a-94ef-4a1b-b43d-3c279f1b53e1"},"vehicle_type_id":"4","last_reported":1753104764,"current_range_meters":14000,"station_id":"ce4bhu92rcd13ifvqi70","pricing_plan_id":"cebpf4jnsgd1na2vs0mg"},{"bike_id":"8ec3987c-4e5e-4f67-aba7-96e36709e826","system_id":"levelo_inurba_marseille","lat":43.3274,"lon":5.40886,"is_reserved":false,"is_disabled":false,"rental_uris":{"android":"levelo://app?vid=8ec3987c-4e5e-4f67-aba7-96e36709e826","ios":"levelo://app?vid=8ec3987c-4e5e-4f67-aba7-96e36709e826"},"vehicle_type_id":"4","last_reported":1753104764,"current_range_meters":14000,"station_id":"","pricing_plan_id":"cebpf4jnsgd1na2vs0mg"},{"bike_id":"c695f162-6b42-40d7-8780-ed224e75f8e8","system_id":"levelo_inurba_marseille","lat":43.21416,"lon":5.3484,"is_reserved":false,"is_disabled":false,"rental_uris":{"android":"levelo://app?vid=c695f162-6b42-40d7-8780-ed224e75f8e8","ios":"levelo://app?vid=c695f162-6b42-40d7-8780-ed224e75f8e8"},"vehicle_type_id":"4","last_reported":1753104764,"current_range_meters":14400,"station_id":"","pricing_plan_id":"cebpf4jnsgd1na2vs0mg"},{"bike_id":"ac49738a-4d4f-43d3-9c67-46980e61ae95","system_id":"levelo_inurba_marseille","lat":43.31736,"lon":5.37731,"is_reserved":false,"is_disabled":false,"rental_uris":{"android":"levelo://app?vid=ac49738a-4d4f-43d3-9c67-46980e61ae95","ios":"levelo://app?vid=ac49738a-4d4f-43d3-9c67-46980e61ae95"},"vehicle_type_id":"4","last_reported":1753104764,"current_range_meters":14400,"station_id":"ce4bgth2rcd13ifvqch0","pricing_plan_id":"cebpf4jnsgd1na2vs0mg"},{"bike_id":"9c838529-2f8d-4cf1-ba58-27067ac84219","system_id":"levelo_inurba_marseille","lat":43.24164,"lon":5.36392,"is_reserved":false,"is_disabled":false,"rental_uris":{"android":"levelo://app?vid=9c838529-2f8d-4cf1-ba58-27067ac84219","ios":"levelo://app?vid=9c838529-2f8d-4cf1-ba58-27067ac84219"},"vehicle_type_id":"4","last_reported":1753104764,"current_range_meters":14800,"station_id":"cpo36qri1sfpv3e86is0","pricing_plan_id":"cebpf4jnsgd1na2vs0mg"},{"bike_id":"223b91e9-7398-4ab4-a85c-2ec44386b0e7","system_id":"levelo_inurba_marseille","lat":43.26938,"lon":5.402527,"is_reserved":false,"is_disabled":false,"rental_uris":{"android":"levelo://app?vid=223b91e9-7398-4ab4-a85c-2ec44386b0e7","ios":"levelo://app?vid=223b91e9-7398-4ab4-a85c-2ec44386b0e7"},"vehicle_type_id":"4","last_reported":1753104764,"current_range_meters":14800,"station_id":"cjm6bp8fraef2m0cb0m0","pricing_plan_id":"cebpf4jnsgd1na2vs0mg"},{"bike_id":"02bda465-5730-4d42-a0d1-5ffc89217a3f","system_id":"levelo_inurba_marseille","lat":43.28258,"lon":5.35066,"is_reserved":false,"is_disabled":false,"rental_uris":{"android":"levelo://app?vid=02bda465-5730-4d42-a0d1-5ffc89217a3f","ios":"levelo://app?vid=02bda465-5730-4d42-a0d1-5ffc89217a3f"},"vehicle_type_id":"4","last_reported":1753104764,"current_range_meters":14800,"station_id":"","pricing_plan_id":"cebpf4jnsgd1na2vs0mg"},{"bike_id":"9bed02cd-f8f7-472d-aeb1-78f3f8ad5a73","system_id":"levelo_inurba_marseille","lat":43.24388,"lon":5.37068,"is_reserved":false,"is_disabled":false,"rental_uris":{"android":"levelo://app?vid=9bed02cd-f8f7-472d-aeb1-78f3f8ad5a73","ios":"levelo://app?vid=9bed02cd-f8f7-472d-aeb1-78f3f8ad5a73"},"vehicle_type_id":"4","last_reported":1753104764,"current_range_meters":15200,"station_id":"ce4bhhh2rcd13ifvqfk0","pricing_plan_id":"cebpf4jnsgd1na2vs0mg"},{"bike_id":"b7e0d1c7-c592-40ed-8a46-5c539fa1d393","system_id":"levelo_inurba_marseille","lat":43.301342,"lon":5.398634,"is_reserved":false,"is_disabled":false,"rental_uris":{"android":"levelo://app?vid=b7e0d1c7-c592-40ed-8a46-5c539fa1d393","ios":"levelo://app?vid=b7e0d1c7-c592-40ed-8a46-5c539fa1d393"},"vehicle_type_id":"4","last_reported":1753104764,"current_range_meters":15200,"station_id":"ce4bh0h2rcd13ifvqd40","pricing_plan_id":"cebpf4jnsgd1na2vs0mg"},{"bike_id":"3117258b-a0b2-4038-960e-7505313a6719","system_id":"levelo_inurba_marseille","lat":43.32247,"lon":5.36605,"is_reserved":false,"is_disabled":false,"rental_uris":{"android":"levelo://app?vid=3117258b-a0b2-4038-960e-7505313a6719","ios":"levelo://app?vid=3117258b-a0b2-4038-960e-7505313a6719"},"vehicle_type_id":"4","last_reported":1753104764,"current_range_meters":15200,"station_id":"ce4bhrh2rcd13ifvqhug","pricing_plan_id":"cebpf4jnsgd1na2vs0mg"},{"bike_id":"f0d8d162-6040-4d04-bf93-cf5be6be6485","system_id":"levelo_inurba_marseille","lat":43.2439,"lon":5.37037,"is_reserved":false,"is_disabled":false,"rental_uris":{"android":"levelo://app?vid=f0d8d162-6040-4d04-bf93-cf5be6be6485","ios":"levelo://app?vid=f0d8d162-6040-4d04-bf93-cf5be6be6485"},"vehicle_type_id":"4","last_reported":1753104764,"current_range_meters":15200,"station_id":"ce4bhhh2rcd13ifvqfk0","pricing_plan_id":"cebpf4jnsgd1na2vs0mg"},{"bike_id":"42c6daca-a04f-4385-b335-d79919ebfbf3","system_id":"levelo_inurba_marseille","lat":43.32478,"lon":5.36573,"is_reserved":false,"is_disabled":false,"rental_uris":{"android":"levelo://app?vid=42c6daca-a04f-4385-b335-d79919ebfbf3","ios":"levelo://app?vid=42c6daca-a04f-4385-b335-d79919ebfbf3"},"vehicle_type_id":"4","last_reported":1753104764,"current_range_meters":15200,"station_id":"ce4bhs12rcd13ifvqhvg","pricing_plan_id":"cebpf4jnsgd1na2vs0mg"},{"bike_id":"d28f8bde-c61b-4636-835b-2c512fcfc746","system_id":"levelo_inurba_marseille","lat":43.30799,"lon":5.38155,"is_reserved":false,"is_disabled":false,"rental_uris":{"android":"levelo://app?vid=d28f8bde-c61b-4636-835b-2c512fcfc746","ios":"levelo://app?vid=d28f8bde-c61b-4636-835b-2c512fcfc746"},"vehicle_type_id":"4","last_reported":1753104764,"current_range_meters":16000,"station_id":"ce4bgt12rcd13ifvqce0","pricing_plan_id":"cebpf4jnsgd1na2vs0mg"},{"bike_id":"efaa7a12-f23c-408b-b6c6-f2f5b1a2c0f0","system_id":"levelo_inurba_marseille","lat":43.29786,"lon":5.38078,"is_reserved":false,"is_disabled":false,"rental_uris":{"android":"levelo://app?vid=efaa7a12-f23c-408b-b6c6-f2f5b1a2c0f0","ios":"levelo://app?vid=efaa7a12-f23c-408b-b6c6-f2f5b1a2c0f0"},"vehicle_type_id":"4","last_reported":1753104764,"current_range_meters":16000,"station_id":"ce4bgip2rcd13ifvqbb0","pricing_plan_id":"cebpf4jnsgd1na2vs0mg"},{"bike_id":"68ad25bf-3ce4-4219-aae6-b4b4ca3df214","system_id":"levelo_inurba_marseille","lat":43.22501,"lon":5.3479,"is_reserved":false,"is_disabled":false,"rental_uris":{"android":"levelo://app?vid=68ad25bf-3ce4-4219-aae6-b4b4ca3df214","ios":"levelo://app?vid=68ad25bf-3ce4-4219-aae6-b4b4ca3df214"},"vehicle_type_id":"4","last_reported":1753104764,"current_range_meters":16000,"station_id":"st_cvj5dfep6f1abm77gieg","pricing_plan_id":"cebpf4jnsgd1na2vs0mg"},{"bike_id":"96e48d28-168f-4543-9328-a4bf44e820ec","system_id":"levelo_inurba_marseille","lat":43.26233,"lon":5.37425,"is_reserved":false,"is_disabled":false,"rental_uris":{"android":"levelo://app?vid=96e48d28-168f-4543-9328-a4bf44e820ec","ios":"levelo://app?vid=96e48d28-168f-4543-9328-a4bf44e820ec"},"vehicle_type_id":"4","last_reported":1753104764,"current_range_meters":16000,"station_id":"ce4bhgp2rcd13ifvqfc0","pricing_plan_id":"cebpf4jnsgd1na2vs0mg"},{"bike_id":"ed038071-b001-4ca3-9894-bf753a456e7c","system_id":"levelo_inurba_marseille","lat":43.30549,"lon":5.36516,"is_reserved":false,"is_disabled":false,"rental_uris":{"android":"levelo://app?vid=ed038071-b001-4ca3-9894-bf753a456e7c","ios":"levelo://app?vid=ed038071-b001-4ca3-9894-bf753a456e7c"},"vehicle_type_id":"4","last_reported":1753104764,"current_range_meters":16000,"station_id":"ce4bgs12rcd13ifvqcag","pricing_plan_id":"cebpf4jnsgd1na2vs0mg"},{"bike_id":"ecdfd721-9355-47ec-bb72-adc3ee5af59a","system_id":"levelo_inurba_marseille","lat":43.27154,"lon":5.40994,"is_reserved":false,"is_disabled":false,"rental_uris":{"android":"levelo://app?vid=ecdfd721-9355-47ec-bb72-adc3ee5af59a","ios":"levelo://app?vid=ecdfd721-9355-47ec-bb72-adc3ee5af59a"},"vehicle_type_id":"4","last_reported":1753104764,"current_range_meters":16000,"station_id":"ce4bhl12rcd13ifvqgf0","pricing_plan_id":"cebpf4jnsgd1na2vs0mg"},{"bike_id":"f64d75ff-ad35-47dc-b9a6-7e983f014400","system_id":"levelo_inurba_marseille","lat":43.28934,"lon":5.36633,"is_reserved":false,"is_disabled":false,"rental_uris":{"android":"levelo://app?vid=f64d75ff-ad35-47dc-b9a6-7e983f014400","ios":"levelo://app?vid=f64d75ff-ad35-47dc-b9a6-7e983f014400"},"vehicle_type_id":"4","last_reported":1753104764,"current_range_meters":15200,"station_id":"ce4bhap2rcd13ifvqek0","pricing_plan_id":"cebpf4jnsgd1na2vs0mg"},{"bike_id":"1c22819b-ef69-41c3-af80-068c7a58af48","system_id":"levelo_inurba_marseille","lat":43.32115,"lon":5.36764,"is_reserved":false,"is_disabled":false,"rental_uris":{"android":"levelo://app?vid=1c22819b-ef69-41c3-af80-068c7a58af48","ios":"levelo://app?vid=1c22819b-ef69-41c3-af80-068c7a58af48"},"vehicle_type_id":"4","last_reported":1753104764,"current_range_meters":16000,"station_id":"ce4bhrh2rcd13ifvqhug","pricing_plan_id":"cebpf4jnsgd1na2vs0mg"},{"bike_id":"c3901ec0-1229-4631-bcf1-238232393337","system_id":"levelo_inurba_marseille","lat":43.29667,"lon":5.37294,"is_reserved":false,"is_disabled":false,"rental_uris":{"android":"levelo://app?vid=c3901ec0-1229-4631-bcf1-238232393337","ios":"levelo://app?vid=c3901ec0-1229-4631-bcf1-238232393337"},"vehicle_type_id":"4","last_reported":1753104764,"current_range_meters":16000,"station_id":"ce4bgk12rcd13ifvqbj0","pricing_plan_id":"cebpf4jnsgd1na2vs0mg"},{"bike_id":"d778a561-0abe-4676-9dca-d85a214615cb","system_id":"levelo_inurba_marseille","lat":43.337694,"lon":5.374249,"is_reserved":false,"is_disabled":false,"rental_uris":{"android":"levelo://app?vid=d778a561-0abe-4676-9dca-d85a214615cb","ios":"levelo://app?vid=d778a561-0abe-4676-9dca-d85a214615cb"},"vehicle_type_id":"4","last_reported":1753104764,"current_range_meters":16400,"station_id":"","pricing_plan_id":"cebpf4jnsgd1na2vs0mg"},{"bike_id":"c4ddf749-008b-4a14-af16-f3a13a431402","system_id":"levelo_inurba_marseille","lat":43.21202,"lon":5.3507,"is_reserved":false,"is_disabled":false,"rental_uris":{"android":"levelo://app?vid=c4ddf749-008b-4a14-af16-f3a13a431402","ios":"levelo://app?vid=c4ddf749-008b-4a14-af16-f3a13a431402"},"vehicle_type_id":"4","last_reported":1753104764,"current_range_meters":16400,"station_id":"st_cvj6sg6p6f1abm77japg","pricing_plan_id":"cebpf4jnsgd1na2vs0mg"},{"bike_id":"1d5aee7d-e6a6-410e-a6d4-4539731cae9a","system_id":"levelo_inurba_marseille","lat":43.27935,"lon":5.41041,"is_reserved":false,"is_disabled":false,"rental_uris":{"android":"levelo://app?vid=1d5aee7d-e6a6-410e-a6d4-4539731cae9a","ios":"levelo://app?vid=1d5aee7d-e6a6-410e-a6d4-4539731cae9a"},"vehicle_type_id":"4","last_reported":1753104764,"current_range_meters":16400,"station_id":"ce4bhnp2rcd13ifvqh0g","pricing_plan_id":"cebpf4jnsgd1na2vs0mg"},{"bike_id":"37eb163c-27b6-4f21-8e81-022abe2385c0","system_id":"levelo_inurba_marseille","lat":43.28404,"lon":5.34984,"is_reserved":false,"is_disabled":false,"rental_uris":{"android":"levelo://app?vid=37eb163c-27b6-4f21-8e81-022abe2385c0","ios":"levelo://app?vid=37eb163c-27b6-4f21-8e81-022abe2385c0"},"vehicle_type_id":"4","last_reported":1753104764,"current_range_meters":16400,"station_id":"ce4bhbh2rcd13ifvqepg","pricing_plan_id":"cebpf4jnsgd1na2vs0mg"},{"bike_id":"50d16da1-39af-48c8-9080-8fc1a2184959","system_id":"levelo_inurba_marseille","lat":43.212004,"lon":5.350848,"is_reserved":false,"is_disabled":false,"rental_uris":{"android":"levelo://app?vid=50d16da1-39af-48c8-9080-8fc1a2184959","ios":"levelo://app?vid=50d16da1-39af-48c8-9080-8fc1a2184959"},"vehicle_type_id":"4","last_reported":1753104764,"current_range_meters":16400,"station_id":"st_cvj6sg6p6f1abm77japg","pricing_plan_id":"cebpf4jnsgd1na2vs0mg"},{"bike_id":"85b008dd-0f9f-4205-aa28-4f549082c3e6","system_id":"levelo_inurba_marseille","lat":43.21191,"lon":5.350751,"is_reserved":false,"is_disabled":false,"rental_uris":{"android":"levelo://app?vid=85b008dd-0f9f-4205-aa28-4f549082c3e6","ios":"levelo://app?vid=85b008dd-0f9f-4205-aa28-4f549082c3e6"},"vehicle_type_id":"4","last_reported":1753104764,"current_range_meters":16800,"station_id":"st_cvj6sg6p6f1abm77japg","pricing_plan_id":"cebpf4jnsgd1na2vs0mg"},{"bike_id":"b6f2030d-c573-4f28-b30b-ec5e626f201a","system_id":"levelo_inurba_marseille","lat":43.28623,"lon":5.35078,"is_reserved":false,"is_disabled":false,"rental_uris":{"android":"levelo://app?vid=b6f2030d-c573-4f28-b30b-ec5e626f201a","ios":"levelo://app?vid=b6f2030d-c573-4f28-b30b-ec5e626f201a"},"vehicle_type_id":"4","last_reported":1753104764,"current_range_meters":16800,"station_id":"ce4bhch2rcd13ifvqeug","pricing_plan_id":"cebpf4jnsgd1na2vs0mg"},{"bike_id":"c77d944d-8fb8-47e7-be48-f0955690e686","system_id":"levelo_inurba_marseille","lat":43.28936,"lon":5.36634,"is_reserved":false,"is_disabled":false,"rental_uris":{"android":"levelo://app?vid=c77d944d-8fb8-47e7-be48-f0955690e686","ios":"levelo://app?vid=c77d944d-8fb8-47e7-be48-f0955690e686"},"vehicle_type_id":"4","last_reported":1753104764,"current_range_meters":16800,"station_id":"ce4bhap2rcd13ifvqek0","pricing_plan_id":"cebpf4jnsgd1na2vs0mg"},{"bike_id":"14aaa933-b5b7-4a38-8abc-08e245977bef","system_id":"levelo_inurba_marseille","lat":43.286157,"lon":5.351039,"is_reserved":false,"is_disabled":false,"rental_uris":{"android":"levelo://app?vid=14aaa933-b5b7-4a38-8abc-08e245977bef","ios":"levelo://app?vid=14aaa933-b5b7-4a38-8abc-08e245977bef"},"vehicle_type_id":"4","last_reported":1753104764,"current_range_meters":16800,"station_id":"ce4bhch2rcd13ifvqeug","pricing_plan_id":"cebpf4jnsgd1na2vs0mg"},{"bike_id":"4faa3c8e-9b5a-4d55-aebc-2e52610bf132","system_id":"levelo_inurba_marseille","lat":43.32641,"lon":5.42343,"is_reserved":false,"is_disabled":false,"rental_uris":{"android":"levelo://app?vid=4faa3c8e-9b5a-4d55-aebc-2e52610bf132","ios":"levelo://app?vid=4faa3c8e-9b5a-4d55-aebc-2e52610bf132"},"vehicle_type_id":"4","last_reported":1753104764,"current_range_meters":16800,"station_id":"","pricing_plan_id":"cebpf4jnsgd1na2vs0mg"},{"bike_id":"e57606de-d549-4a50-8b75-91216215a181","system_id":"levelo_inurba_marseille","lat":43.27493,"lon":5.42445,"is_reserved":false,"is_disabled":true,"rental_uris":{"android":"levelo://app?vid=e57606de-d549-4a50-8b75-91216215a181","ios":"levelo://app?vid=e57606de-d549-4a50-8b75-91216215a181"},"vehicle_type_id":"4","last_reported":1753104764,"current_range_meters":16800,"station_id":"ce4bhn92rcd13ifvqgrg","pricing_plan_id":"cebpf4jnsgd1na2vs0mg"},{"bike_id":"8423e589-47bf-47a8-b90f-452fc938c46b","system_id":"levelo_inurba_marseille","lat":43.32363,"lon":5.367,"is_reserved":false,"is_disabled":false,"rental_uris":{"android":"levelo://app?vid=8423e589-47bf-47a8-b90f-452fc938c46b","ios":"levelo://app?vid=8423e589-47bf-47a8-b90f-452fc938c46b"},"vehicle_type_id":"4","last_reported":1753104764,"current_range_meters":16800,"station_id":"ce4bhsh2rcd13ifvqi2g","pricing_plan_id":"cebpf4jnsgd1na2vs0mg"},{"bike_id":"70192f99-f1b3-4ab3-a4df-9f1b2d0930ed","system_id":"levelo_inurba_marseille","lat":43.29688,"lon":5.37731,"is_reserved":false,"is_disabled":false,"rental_uris":{"android":"levelo://app?vid=70192f99-f1b3-4ab3-a4df-9f1b2d0930ed","ios":"levelo://app?vid=70192f99-f1b3-4ab3-a4df-9f1b2d0930ed"},"vehicle_type_id":"4","last_reported":1753104764,"current_range_meters":16800,"station_id":"ce4bgkh2rcd13ifvqbl0","pricing_plan_id":"cebpf4jnsgd1na2vs0mg"},{"bike_id":"f4db7269-f206-4a02-a422-cb83b44a46db","system_id":"levelo_inurba_marseille","lat":43.2694,"lon":5.4025,"is_reserved":false,"is_disabled":false,"rental_uris":{"android":"levelo://app?vid=f4db7269-f206-4a02-a422-cb83b44a46db","ios":"levelo://app?vid=f4db7269-f206-4a02-a422-cb83b44a46db"},"vehicle_type_id":"4","last_reported":1753104764,"current_range_meters":16400,"station_id":"cjm6bp8fraef2m0cb0m0","pricing_plan_id":"cebpf4jnsgd1na2vs0mg"},{"bike_id":"6ecd5a2b-6dae-44b3-a162-e5286af43d43","system_id":"levelo_inurba_marseille","lat":43.22535,"lon":5.34785,"is_reserved":false,"is_disabled":false,"rental_uris":{"android":"levelo://app?vid=6ecd5a2b-6dae-44b3-a162-e5286af43d43","ios":"levelo://app?vid=6ecd5a2b-6dae-44b3-a162-e5286af43d43"},"vehicle_type_id":"4","last_reported":1753104764,"current_range_meters":16800,"station_id":"st_cvj5dfep6f1abm77gieg","pricing_plan_id":"cebpf4jnsgd1na2vs0mg"},{"bike_id":"2d6095ea-f882-494d-a187-fa879408181e","system_id":"levelo_inurba_marseille","lat":43.25146,"lon":5.37345,"is_reserved":false,"is_disabled":false,"rental_uris":{"android":"levelo://app?vid=2d6095ea-f882-494d-a187-fa879408181e","ios":"levelo://app?vid=2d6095ea-f882-494d-a187-fa879408181e"},"vehicle_type_id":"4","last_reported":1753104764,"current_range_meters":16800,"station_id":"","pricing_plan_id":"cebpf4jnsgd1na2vs0mg"},{"bike_id":"1b7bae2b-e58b-421b-88fb-afd1c833b87b","system_id":"levelo_inurba_marseille","lat":43.211975,"lon":5.350662,"is_reserved":false,"is_disabled":false,"rental_uris":{"android":"levelo://app?vid=1b7bae2b-e58b-421b-88fb-afd1c833b87b","ios":"levelo://app?vid=1b7bae2b-e58b-421b-88fb-afd1c833b87b"},"vehicle_type_id":"4","last_reported":1753104764,"current_range_meters":17200,"station_id":"st_cvj6sg6p6f1abm77japg","pricing_plan_id":"cebpf4jnsgd1na2vs0mg"},{"bike_id":"51931bf6-1eb4-445c-8f29-98888cfaefc7","system_id":"levelo_inurba_marseille","lat":43.29404,"lon":5.39851,"is_reserved":false,"is_disabled":false,"rental_uris":{"android":"levelo://app?vid=51931bf6-1eb4-445c-8f29-98888cfaefc7","ios":"levelo://app?vid=51931bf6-1eb4-445c-8f29-98888cfaefc7"},"vehicle_type_id":"4","last_reported":1753104764,"current_range_meters":17200,"station_id":"","pricing_plan_id":"cebpf4jnsgd1na2vs0mg"},{"bike_id":"a5d420c1-6f63-4560-9fe2-e08db2c4fecb","system_id":"levelo_inurba_marseille","lat":43.21236,"lon":5.35102,"is_reserved":false,"is_disabled":false,"rental_uris":{"android":"levelo://app?vid=a5d420c1-6f63-4560-9fe2-e08db2c4fecb","ios":"levelo://app?vid=a5d420c1-6f63-4560-9fe2-e08db2c4fecb"},"vehicle_type_id":"4","last_reported":1753104764,"current_range_meters":17200,"station_id":"","pricing_plan_id":"cebpf4jnsgd1na2vs0mg"},{"bike_id":"f34af2d9-41c6-4d35-a620-5385393482b0","system_id":"levelo_inurba_marseille","lat":43.28613,"lon":5.35106,"is_reserved":false,"is_disabled":false,"rental_uris":{"android":"levelo://app?vid=f34af2d9-41c6-4d35-a620-5385393482b0","ios":"levelo://app?vid=f34af2d9-41c6-4d35-a620-5385393482b0"},"vehicle_type_id":"4","last_reported":1753104764,"current_range_meters":17200,"station_id":"ce4bhch2rcd13ifvqeug","pricing_plan_id":"cebpf4jnsgd1na2vs0mg"},{"bike_id":"ccb3a2c1-5335-4346-b5bb-08cb08061e0e","system_id":"levelo_inurba_marseille","lat":43.297777,"lon":5.381044,"is_reserved":false,"is_disabled":true,"rental_uris":{"android":"levelo://app?vid=ccb3a2c1-5335-4346-b5bb-08cb08061e0e","ios":"levelo://app?vid=ccb3a2c1-5335-4346-b5bb-08cb08061e0e"},"vehicle_type_id":"4","last_reported":1753104764,"current_range_meters":17200,"station_id":"ce4bgip2rcd13ifvqbb0","pricing_plan_id":"cebpf4jnsgd1na2vs0mg"},{"bike_id":"298d7476-28c7-4c61-8302-df95a7d5d3d6","system_id":"levelo_inurba_marseille","lat":43.22505,"lon":5.34769,"is_reserved":false,"is_disabled":false,"rental_uris":{"android":"levelo://app?vid=298d7476-28c7-4c61-8302-df95a7d5d3d6","ios":"levelo://app?vid=298d7476-28c7-4c61-8302-df95a7d5d3d6"},"vehicle_type_id":"4","last_reported":1753104764,"current_range_meters":17600,"station_id":"st_cvj5dfep6f1abm77gieg","pricing_plan_id":"cebpf4jnsgd1na2vs0mg"},{"bike_id":"76e8a4c7-1966-4c02-a21a-c2d4f4e224d8","system_id":"levelo_inurba_marseille","lat":43.2926,"lon":5.37622,"is_reserved":false,"is_disabled":true,"rental_uris":{"android":"levelo://app?vid=76e8a4c7-1966-4c02-a21a-c2d4f4e224d8","ios":"levelo://app?vid=76e8a4c7-1966-4c02-a21a-c2d4f4e224d8"},"vehicle_type_id":"4","last_reported":1753104764,"current_range_meters":17600,"station_id":"ce4bgi12rcd13ifvqb80","pricing_plan_id":"cebpf4jnsgd1na2vs0mg"},{"bike_id":"b6191c96-af83-462f-a3cc-e4778a781fff","system_id":"levelo_inurba_marseille","lat":43.21187,"lon":5.35072,"is_reserved":false,"is_disabled":false,"rental_uris":{"android":"levelo://app?vid=b6191c96-af83-462f-a3cc-e4778a781fff","ios":"levelo://app?vid=b6191c96-af83-462f-a3cc-e4778a781fff"},"vehicle_type_id":"4","last_reported":1753104764,"current_range_meters":17600,"station_id":"st_cvj6sg6p6f1abm77japg","pricing_plan_id":"cebpf4jnsgd1na2vs0mg"},{"bike_id":"c56f0310-e733-4877-846c-06c792a78914","system_id":"levelo_inurba_marseille","lat":43.2927,"lon":5.37163,"is_reserved":false,"is_disabled":false,"rental_uris":{"android":"levelo://app?vid=c56f0310-e733-4877-846c-06c792a78914","ios":"levelo://app?vid=c56f0310-e733-4877-846c-06c792a78914"},"vehicle_type_id":"4","last_reported":1753104764,"current_range_meters":17600,"station_id":"ce4bgh92rcd13ifvqb40","pricing_plan_id":"cebpf4jnsgd1na2vs0mg"},{"bike_id":"f394e9da-c4ef-4d75-9a78-8694ae8e001b","system_id":"levelo_inurba_marseille","lat":43.24155,"lon":5.39678,"is_reserved":false,"is_disabled":false,"rental_uris":{"android":"levelo://app?vid=f394e9da-c4ef-4d75-9a78-8694ae8e001b","ios":"levelo://app?vid=f394e9da-c4ef-4d75-9a78-8694ae8e001b"},"vehicle_type_id":"4","last_reported":1753104764,"current_range_meters":17600,"station_id":"ce4bhn12rcd13ifvqgpg","pricing_plan_id":"cebpf4jnsgd1na2vs0mg"},{"bike_id":"3fb96fc8-d5fa-4cf5-a8ad-367ac5eda46c","system_id":"levelo_inurba_marseille","lat":43.32527,"lon":5.41463,"is_reserved":false,"is_disabled":false,"rental_uris":{"android":"levelo://app?vid=3fb96fc8-d5fa-4cf5-a8ad-367ac5eda46c","ios":"levelo://app?vid=3fb96fc8-d5fa-4cf5-a8ad-367ac5eda46c"},"vehicle_type_id":"4","last_reported":1753104764,"current_range_meters":17600,"station_id":"ce4bhq12rcd13ifvqhhg","pricing_plan_id":"cebpf4jnsgd1na2vs0mg"},{"bike_id":"740b7423-7a27-4daa-9991-c3141fb84b3f","system_id":"levelo_inurba_marseille","lat":43.27185,"lon":5.40986,"is_reserved":false,"is_disabled":false,"rental_uris":{"android":"levelo://app?vid=740b7423-7a27-4daa-9991-c3141fb84b3f","ios":"levelo://app?vid=740b7423-7a27-4daa-9991-c3141fb84b3f"},"vehicle_type_id":"4","last_reported":1753104764,"current_range_meters":17600,"station_id":"ce4bhl12rcd13ifvqgf0","pricing_plan_id":"cebpf4jnsgd1na2vs0mg"},{"bike_id":"2f2f580c-ef7a-43a4-b01c-d27d729d3be1","system_id":"levelo_inurba_marseille","lat":43.29307,"lon":5.37202,"is_reserved":false,"is_disabled":false,"rental_uris":{"android":"levelo://app?vid=2f2f580c-ef7a-43a4-b01c-d27d729d3be1","ios":"levelo://app?vid=2f2f580c-ef7a-43a4-b01c-d27d729d3be1"},"vehicle_type_id":"4","last_reported":1753104764,"current_range_meters":17600,"station_id":"ce4bgh92rcd13ifvqb40","pricing_plan_id":"cebpf4jnsgd1na2vs0mg"},{"bike_id":"9a0afa66-837f-4ca5-a71c-c9928f34da67","system_id":"levelo_inurba_marseille","lat":43.255806,"lon":5.38235,"is_reserved":false,"is_disabled":false,"rental_uris":{"android":"levelo://app?vid=9a0afa66-837f-4ca5-a71c-c9928f34da67","ios":"levelo://app?vid=9a0afa66-837f-4ca5-a71c-c9928f34da67"},"vehicle_type_id":"4","last_reported":1753104764,"current_range_meters":17600,"station_id":"ce4bhih2rcd13ifvqfs0","pricing_plan_id":"cebpf4jnsgd1na2vs0mg"},{"bike_id":"eee87223-1236-466e-8b58-5fd832f550c8","system_id":"levelo_inurba_marseille","lat":43.26204,"lon":5.37448,"is_reserved":false,"is_disabled":false,"rental_uris":{"android":"levelo://app?vid=eee87223-1236-466e-8b58-5fd832f550c8","ios":"levelo://app?vid=eee87223-1236-466e-8b58-5fd832f550c8"},"vehicle_type_id":"4","last_reported":1753104764,"current_range_meters":17600,"station_id":"ce4bhgp2rcd13ifvqfc0","pricing_plan_id":"cebpf4jnsgd1na2vs0mg"},{"bike_id":"f179510f-b81c-45fe-9555-e8a207850b63","system_id":"levelo_inurba_marseille","lat":43.25917,"lon":5.40872,"is_reserved":false,"is_disabled":false,"rental_uris":{"android":"levelo://app?vid=f179510f-b81c-45fe-9555-e8a207850b63","ios":"levelo://app?vid=f179510f-b81c-45fe-9555-e8a207850b63"},"vehicle_type_id":"4","last_reported":1753104764,"current_range_meters":17600,"station_id":"ce4bhm92rcd13ifvqglg","pricing_plan_id":"cebpf4jnsgd1na2vs0mg"},{"bike_id":"91faf937-6768-4101-98da-411036d125c4","system_id":"levelo_inurba_marseille","lat":43.2294,"lon":5.35371,"is_reserved":false,"is_disabled":false,"rental_uris":{"android":"levelo://app?vid=91faf937-6768-4101-98da-411036d125c4","ios":"levelo://app?vid=91faf937-6768-4101-98da-411036d125c4"},"vehicle_type_id":"4","last_reported":1753104764,"current_range_meters":17600,"station_id":"cpo3532slgdg3j2ikp40","pricing_plan_id":"cebpf4jnsgd1na2vs0mg"},{"bike_id":"9a6393a8-34a4-401f-8426-79013b451607","system_id":"levelo_inurba_marseille","lat":43.30533,"lon":5.36538,"is_reserved":false,"is_disabled":false,"rental_uris":{"android":"levelo://app?vid=9a6393a8-34a4-401f-8426-79013b451607","ios":"levelo://app?vid=9a6393a8-34a4-401f-8426-79013b451607"},"vehicle_type_id":"4","last_reported":1753104764,"current_range_meters":17600,"station_id":"ce4bgs12rcd13ifvqcag","pricing_plan_id":"cebpf4jnsgd1na2vs0mg"},{"bike_id":"927a05a6-b5d8-45da-ae36-64e6b15899c3","system_id":"levelo_inurba_marseille","lat":43.28471,"lon":5.38421,"is_reserved":false,"is_disabled":false,"rental_uris":{"android":"levelo://app?vid=927a05a6-b5d8-45da-ae36-64e6b15899c3","ios":"levelo://app?vid=927a05a6-b5d8-45da-ae36-64e6b15899c3"},"vehicle_type_id":"4","last_reported":1753104764,"current_range_meters":17600,"station_id":"ce4bh512rcd13ifvqe3g","pricing_plan_id":"cebpf4jnsgd1na2vs0mg"},{"bike_id":"1ef2503f-ea41-4c4a-a986-942aff558f83","system_id":"levelo_inurba_marseille","lat":43.317014,"lon":5.404615,"is_reserved":false,"is_disabled":false,"rental_uris":{"android":"levelo://app?vid=1ef2503f-ea41-4c4a-a986-942aff558f83","ios":"levelo://app?vid=1ef2503f-ea41-4c4a-a986-942aff558f83"},"vehicle_type_id":"4","last_reported":1753104764,"current_range_meters":17600,"station_id":"ce4bh012rcd13ifvqd00","pricing_plan_id":"cebpf4jnsgd1na2vs0mg"},{"bike_id":"6a4db019-5090-493d-9eef-f9096a466e8d","system_id":"levelo_inurba_marseille","lat":43.30886,"lon":5.39654,"is_reserved":false,"is_disabled":false,"rental_uris":{"android":"levelo://app?vid=6a4db019-5090-493d-9eef-f9096a466e8d","ios":"levelo://app?vid=6a4db019-5090-493d-9eef-f9096a466e8d"},"vehicle_type_id":"4","last_reported":1753104764,"current_range_meters":17600,"station_id":"ce4bh012rcd13ifvqcv0","pricing_plan_id":"cebpf4jnsgd1na2vs0mg"},{"bike_id":"75c2f31a-1338-4b99-8763-34badd38b498","system_id":"levelo_inurba_marseille","lat":43.32659,"lon":5.40991,"is_reserved":false,"is_disabled":false,"rental_uris":{"android":"levelo://app?vid=75c2f31a-1338-4b99-8763-34badd38b498","ios":"levelo://app?vid=75c2f31a-1338-4b99-8763-34badd38b498"},"vehicle_type_id":"4","last_reported":1753104764,"current_range_meters":16800,"station_id":"ce4bhpp2rcd13ifvqhgg","pricing_plan_id":"cebpf4jnsgd1na2vs0mg"},{"bike_id":"8375284e-2691-413a-83ad-f0707c45735e","system_id":"levelo_inurba_marseille","lat":43.24171,"lon":5.39694,"is_reserved":false,"is_disabled":false,"rental_uris":{"android":"levelo://app?vid=8375284e-2691-413a-83ad-f0707c45735e","ios":"levelo://app?vid=8375284e-2691-413a-83ad-f0707c45735e"},"vehicle_type_id":"4","last_reported":1753104764,"current_range_meters":17600,"station_id":"ce4bhn12rcd13ifvqgpg","pricing_plan_id":"cebpf4jnsgd1na2vs0mg"},{"bike_id":"454cecf5-f38d-48ba-b164-d46303f516c1","system_id":"levelo_inurba_marseille","lat":43.30927,"lon":5.36841,"is_reserved":false,"is_disabled":false,"rental_uris":{"android":"levelo://app?vid=454cecf5-f38d-48ba-b164-d46303f516c1","ios":"levelo://app?vid=454cecf5-f38d-48ba-b164-d46303f516c1"},"vehicle_type_id":"4","last_reported":1753104764,"current_range_meters":17600,"station_id":"ce4bgn92rcd13ifvqbvg","pricing_plan_id":"cebpf4jnsgd1na2vs0mg"},{"bike_id":"71c06b91-27b9-4b1a-934b-62a5af12ec29","system_id":"levelo_inurba_marseille","lat":43.29271,"lon":5.36839,"is_reserved":false,"is_disabled":false,"rental_uris":{"android":"levelo://app?vid=71c06b91-27b9-4b1a-934b-62a5af12ec29","ios":"levelo://app?vid=71c06b91-27b9-4b1a-934b-62a5af12ec29"},"vehicle_type_id":"4","last_reported":1753104764,"current_range_meters":17600,"station_id":"ce4bhbp2rcd13ifvqesg","pricing_plan_id":"cebpf4jnsgd1na2vs0mg"},{"bike_id":"9f12a5cf-3689-47b5-9168-a495273e84c9","system_id":"levelo_inurba_marseille","lat":43.337444,"lon":5.374475,"is_reserved":false,"is_disabled":false,"rental_uris":{"android":"levelo://app?vid=9f12a5cf-3689-47b5-9168-a495273e84c9","ios":"levelo://app?vid=9f12a5cf-3689-47b5-9168-a495273e84c9"},"vehicle_type_id":"4","last_reported":1753104764,"current_range_meters":18000,"station_id":"","pricing_plan_id":"cebpf4jnsgd1na2vs0mg"},{"bike_id":"69f5f30a-d09e-48fe-a79b-5d9d1e2a1fc0","system_id":"levelo_inurba_marseille","lat":43.30948,"lon":5.39025,"is_reserved":false,"is_disabled":false,"rental_uris":{"android":"levelo://app?vid=69f5f30a-d09e-48fe-a79b-5d9d1e2a1fc0","ios":"levelo://app?vid=69f5f30a-d09e-48fe-a79b-5d9d1e2a1fc0"},"vehicle_type_id":"4","last_reported":1753104764,"current_range_meters":17600,"station_id":"ce4bgup2rcd13ifvqco0","pricing_plan_id":"cebpf4jnsgd1na2vs0mg"},{"bike_id":"4d2fb385-600a-460f-817d-c81c8838ad28","system_id":"levelo_inurba_marseille","lat":43.32364,"lon":5.36757,"is_reserved":false,"is_disabled":false,"rental_uris":{"android":"levelo://app?vid=4d2fb385-600a-460f-817d-c81c8838ad28","ios":"levelo://app?vid=4d2fb385-600a-460f-817d-c81c8838ad28"},"vehicle_type_id":"4","last_reported":1753104764,"current_range_meters":18000,"station_id":"ce4bhsh2rcd13ifvqi2g","pricing_plan_id":"cebpf4jnsgd1na2vs0mg"},{"bike_id":"8e3deb96-c66a-40c0-abbb-7b5a89f3c232","system_id":"levelo_inurba_marseille","lat":43.24999,"lon":5.38932,"is_reserved":false,"is_disabled":false,"rental_uris":{"android":"levelo://app?vid=8e3deb96-c66a-40c0-abbb-7b5a89f3c232","ios":"levelo://app?vid=8e3deb96-c66a-40c0-abbb-7b5a89f3c232"},"vehicle_type_id":"4","last_reported":1753104764,"current_range_meters":18000,"station_id":"ce4bhgp2rcd13ifvqfd0","pricing_plan_id":"cebpf4jnsgd1na2vs0mg"},{"bike_id":"c8dd4e84-12bb-4c60-88a1-34f0e773ec0f","system_id":"levelo_inurba_marseille","lat":43.28262,"lon":5.35064,"is_reserved":false,"is_disabled":false,"rental_uris":{"android":"levelo://app?vid=c8dd4e84-12bb-4c60-88a1-34f0e773ec0f","ios":"levelo://app?vid=c8dd4e84-12bb-4c60-88a1-34f0e773ec0f"},"vehicle_type_id":"4","last_reported":1753104764,"current_range_meters":18000,"station_id":"ce4bhbp2rcd13ifvqerg","pricing_plan_id":"cebpf4jnsgd1na2vs0mg"},{"bike_id":"8775308d-a91e-4abc-aa83-a4e1580af611","system_id":"levelo_inurba_marseille","lat":43.26225,"lon":5.40467,"is_reserved":false,"is_disabled":false,"rental_uris":{"android":"levelo://app?vid=8775308d-a91e-4abc-aa83-a4e1580af611","ios":"levelo://app?vid=8775308d-a91e-4abc-aa83-a4e1580af611"},"vehicle_type_id":"4","last_reported":1753104764,"current_range_meters":18000,"station_id":"ce4bhmh2rcd13ifvqgmg","pricing_plan_id":"cebpf4jnsgd1na2vs0mg"},{"bike_id":"c565f3da-388a-443e-b841-7d114c3eb960","system_id":"levelo_inurba_marseille","lat":43.24683,"lon":5.38126,"is_reserved":false,"is_disabled":false,"rental_uris":{"android":"levelo://app?vid=c565f3da-388a-443e-b841-7d114c3eb960","ios":"levelo://app?vid=c565f3da-388a-443e-b841-7d114c3eb960"},"vehicle_type_id":"4","last_reported":1753104764,"current_range_meters":18000,"station_id":"ce4bhih2rcd13ifvqfr0","pricing_plan_id":"cebpf4jnsgd1na2vs0mg"},{"bike_id":"05e8f4a7-c4f4-4947-8bfe-ef3454d7a6e4","system_id":"levelo_inurba_marseille","lat":43.301183,"lon":5.387885,"is_reserved":false,"is_disabled":false,"rental_uris":{"android":"levelo://app?vid=05e8f4a7-c4f4-4947-8bfe-ef3454d7a6e4","ios":"levelo://app?vid=05e8f4a7-c4f4-4947-8bfe-ef3454d7a6e4"},"vehicle_type_id":"4","last_reported":1753104764,"current_range_meters":18000,"station_id":"ce4bghh2rcd13ifvqb60","pricing_plan_id":"cebpf4jnsgd1na2vs0mg"},{"bike_id":"bfef84e9-8b7b-4f14-9a97-7a74788bf0a0","system_id":"levelo_inurba_marseille","lat":43.30455,"lon":5.37903,"is_reserved":false,"is_disabled":false,"rental_uris":{"android":"levelo://app?vid=bfef84e9-8b7b-4f14-9a97-7a74788bf0a0","ios":"levelo://app?vid=bfef84e9-8b7b-4f14-9a97-7a74788bf0a0"},"vehicle_type_id":"4","last_reported":1753104764,"current_range_meters":18000,"station_id":"ce4bgup2rcd13ifvqcn0","pricing_plan_id":"cebpf4jnsgd1na2vs0mg"},{"bike_id":"270a17cb-d400-4dcf-b95e-31f2bfe3b52d","system_id":"levelo_inurba_marseille","lat":43.22924,"lon":5.35382,"is_reserved":false,"is_disabled":false,"rental_uris":{"android":"levelo://app?vid=270a17cb-d400-4dcf-b95e-31f2bfe3b52d","ios":"levelo://app?vid=270a17cb-d400-4dcf-b95e-31f2bfe3b52d"},"vehicle_type_id":"4","last_reported":1753104764,"current_range_meters":18000,"station_id":"cpo3532slgdg3j2ikp40","pricing_plan_id":"cebpf4jnsgd1na2vs0mg"},{"bike_id":"1d9ef0de-e029-42bd-9e9e-9f5146b59522","system_id":"levelo_inurba_marseille","lat":43.29622,"lon":5.37149,"is_reserved":false,"is_disabled":false,"rental_uris":{"android":"levelo://app?vid=1d9ef0de-e029-42bd-9e9e-9f5146b59522","ios":"levelo://app?vid=1d9ef0de-e029-42bd-9e9e-9f5146b59522"},"vehicle_type_id":"4","last_reported":1753104764,"current_range_meters":18000,"station_id":"ce4bgnh2rcd13ifvqc0g","pricing_plan_id":"cebpf4jnsgd1na2vs0mg"},{"bike_id":"58cbfa7e-c704-4866-ba9b-204648f1391a","system_id":"levelo_inurba_marseille","lat":43.299579,"lon":5.380973,"is_reserved":false,"is_disabled":false,"rental_uris":{"android":"levelo://app?vid=58cbfa7e-c704-4866-ba9b-204648f1391a","ios":"levelo://app?vid=58cbfa7e-c704-4866-ba9b-204648f1391a"},"vehicle_type_id":"4","last_reported":1753104764,"current_range_meters":18000,"station_id":"","pricing_plan_id":"cebpf4jnsgd1na2vs0mg"},{"bike_id":"7d8104bb-2ecd-4fee-a740-eeb5aafeefbe","system_id":"levelo_inurba_marseille","lat":43.30149,"lon":5.38099,"is_reserved":false,"is_disabled":false,"rental_uris":{"android":"levelo://app?vid=7d8104bb-2ecd-4fee-a740-eeb5aafeefbe","ios":"levelo://app?vid=7d8104bb-2ecd-4fee-a740-eeb5aafeefbe"},"vehicle_type_id":"4","last_reported":1753104764,"current_range_meters":18000,"station_id":"ce4bgjp2rcd13ifvqbh0","pricing_plan_id":"cebpf4jnsgd1na2vs0mg"},{"bike_id":"263d4ced-6e04-4169-ac4b-7fa733c92fa6","system_id":"levelo_inurba_marseille","lat":43.32389,"lon":5.36759,"is_reserved":false,"is_disabled":false,"rental_uris":{"android":"levelo://app?vid=263d4ced-6e04-4169-ac4b-7fa733c92fa6","ios":"levelo://app?vid=263d4ced-6e04-4169-ac4b-7fa733c92fa6"},"vehicle_type_id":"4","last_reported":1753104764,"current_range_meters":18000,"station_id":"ce4bhsh2rcd13ifvqi2g","pricing_plan_id":"cebpf4jnsgd1na2vs0mg"},{"bike_id":"00a5c24b-99ea-4873-99ca-23695b647942","system_id":"levelo_inurba_marseille","lat":43.26228,"lon":5.40444,"is_reserved":false,"is_disabled":false,"rental_uris":{"android":"levelo://app?vid=00a5c24b-99ea-4873-99ca-23695b647942","ios":"levelo://app?vid=00a5c24b-99ea-4873-99ca-23695b647942"},"vehicle_type_id":"4","last_reported":1753104764,"current_range_meters":18800,"station_id":"ce4bhmh2rcd13ifvqgmg","pricing_plan_id":"cebpf4jnsgd1na2vs0mg"},{"bike_id":"77c79051-1e6e-464c-a5be-a7df63199bd4","system_id":"levelo_inurba_marseille","lat":43.26675,"lon":5.3827,"is_reserved":false,"is_disabled":false,"rental_uris":{"android":"levelo://app?vid=77c79051-1e6e-464c-a5be-a7df63199bd4","ios":"levelo://app?vid=77c79051-1e6e-464c-a5be-a7df63199bd4"},"vehicle_type_id":"4","last_reported":1753104764,"current_range_meters":18800,"station_id":"ce4bhg92rcd13ifvqf90","pricing_plan_id":"cebpf4jnsgd1na2vs0mg"},{"bike_id":"ad7f0a60-ce59-4747-9fdc-c03dcbd4556c","system_id":"levelo_inurba_marseille","lat":43.30937,"lon":5.40133,"is_reserved":false,"is_disabled":false,"rental_uris":{"android":"levelo://app?vid=ad7f0a60-ce59-4747-9fdc-c03dcbd4556c","ios":"levelo://app?vid=ad7f0a60-ce59-4747-9fdc-c03dcbd4556c"},"vehicle_type_id":"4","last_reported":1753104764,"current_range_meters":18800,"station_id":"ce4bgvp2rcd13ifvqct0","pricing_plan_id":"cebpf4jnsgd1na2vs0mg"},{"bike_id":"e2f86886-eff5-42f7-b7a6-9956f7a22dc5","system_id":"levelo_inurba_marseille","lat":43.28485,"lon":5.38536,"is_reserved":false,"is_disabled":false,"rental_uris":{"android":"levelo://app?vid=e2f86886-eff5-42f7-b7a6-9956f7a22dc5","ios":"levelo://app?vid=e2f86886-eff5-42f7-b7a6-9956f7a22dc5"},"vehicle_type_id":"4","last_reported":1753104764,"current_range_meters":18800,"station_id":"","pricing_plan_id":"cebpf4jnsgd1na2vs0mg"},{"bike_id":"59490d9f-a4a9-4458-91b0-8fbf969ca654","system_id":"levelo_inurba_marseille","lat":43.29622,"lon":5.3771,"is_reserved":false,"is_disabled":false,"rental_uris":{"android":"levelo://app?vid=59490d9f-a4a9-4458-91b0-8fbf969ca654","ios":"levelo://app?vid=59490d9f-a4a9-4458-91b0-8fbf969ca654"},"vehicle_type_id":"4","last_reported":1753104764,"current_range_meters":18000,"station_id":"ce4bgi92rcd13ifvqb90","pricing_plan_id":"cebpf4jnsgd1na2vs0mg"},{"bike_id":"b67ca3f0-e632-4b9e-ad2f-ba95e62966cd","system_id":"levelo_inurba_marseille","lat":43.321004,"lon":5.367686,"is_reserved":false,"is_disabled":false,"rental_uris":{"android":"levelo://app?vid=b67ca3f0-e632-4b9e-ad2f-ba95e62966cd","ios":"levelo://app?vid=b67ca3f0-e632-4b9e-ad2f-ba95e62966cd"},"vehicle_type_id":"4","last_reported":1753104764,"current_range_meters":18800,"station_id":"ce4bhrh2rcd13ifvqhug","pricing_plan_id":"cebpf4jnsgd1na2vs0mg"},{"bike_id":"2975a10e-052a-4ed4-8afb-b52549159b49","system_id":"levelo_inurba_marseille","lat":43.32461,"lon":5.39023,"is_reserved":false,"is_disabled":false,"rental_uris":{"android":"levelo://app?vid=2975a10e-052a-4ed4-8afb-b52549159b49","ios":"levelo://app?vid=2975a10e-052a-4ed4-8afb-b52549159b49"},"vehicle_type_id":"4","last_reported":1753104764,"current_range_meters":18800,"station_id":"","pricing_plan_id":"cebpf4jnsgd1na2vs0mg"},{"bike_id":"f00edc13-f36f-48e1-91ef-9c20dba77eb5","system_id":"levelo_inurba_marseille","lat":43.33766,"lon":5.374414,"is_reserved":false,"is_disabled":false,"rental_uris":{"android":"levelo://app?vid=f00edc13-f36f-48e1-91ef-9c20dba77eb5","ios":"levelo://app?vid=f00edc13-f36f-48e1-91ef-9c20dba77eb5"},"vehicle_type_id":"4","last_reported":1753104764,"current_range_meters":18800,"station_id":"","pricing_plan_id":"cebpf4jnsgd1na2vs0mg"},{"bike_id":"97662646-2e67-43f3-b39d-37292cdb7854","system_id":"levelo_inurba_marseille","lat":43.302837,"lon":5.377112,"is_reserved":false,"is_disabled":false,"rental_uris":{"android":"levelo://app?vid=97662646-2e67-43f3-b39d-37292cdb7854","ios":"levelo://app?vid=97662646-2e67-43f3-b39d-37292cdb7854"},"vehicle_type_id":"4","last_reported":1753104764,"current_range_meters":18800,"station_id":"","pricing_plan_id":"cebpf4jnsgd1na2vs0mg"},{"bike_id":"668bfa40-7ae0-42dd-a6b6-6631a40f0c0f","system_id":"levelo_inurba_marseille","lat":43.33124,"lon":5.38591,"is_reserved":false,"is_disabled":false,"rental_uris":{"android":"levelo://app?vid=668bfa40-7ae0-42dd-a6b6-6631a40f0c0f","ios":"levelo://app?vid=668bfa40-7ae0-42dd-a6b6-6631a40f0c0f"},"vehicle_type_id":"4","last_reported":1753104764,"current_range_meters":18800,"station_id":"","pricing_plan_id":"cebpf4jnsgd1na2vs0mg"},{"bike_id":"e77da9ef-8155-42a4-a49c-30e2b59818cc","system_id":"levelo_inurba_marseille","lat":43.33794,"lon":5.37424,"is_reserved":false,"is_disabled":false,"rental_uris":{"android":"levelo://app?vid=e77da9ef-8155-42a4-a49c-30e2b59818cc","ios":"levelo://app?vid=e77da9ef-8155-42a4-a49c-30e2b59818cc"},"vehicle_type_id":"4","last_reported":1753104764,"current_range_meters":18800,"station_id":"","pricing_plan_id":"cebpf4jnsgd1na2vs0mg"},{"bike_id":"e06695ae-a245-4711-a52d-2e4e9d5d9750","system_id":"levelo_inurba_marseille","lat":43.30156,"lon":5.38088,"is_reserved":false,"is_disabled":false,"rental_uris":{"android":"levelo://app?vid=e06695ae-a245-4711-a52d-2e4e9d5d9750","ios":"levelo://app?vid=e06695ae-a245-4711-a52d-2e4e9d5d9750"},"vehicle_type_id":"4","last_reported":1753104764,"current_range_meters":19200,"station_id":"ce4bgjp2rcd13ifvqbh0","pricing_plan_id":"cebpf4jnsgd1na2vs0mg"},{"bike_id":"fe732a6c-bff8-47cc-932a-3c976c2c7a76","system_id":"levelo_inurba_marseille","lat":43.280363,"lon":5.369555,"is_reserved":false,"is_disabled":true,"rental_uris":{"android":"levelo://app?vid=fe732a6c-bff8-47cc-932a-3c976c2c7a76","ios":"levelo://app?vid=fe732a6c-bff8-47cc-932a-3c976c2c7a76"},"vehicle_type_id":"4","last_reported":1753104764,"current_range_meters":19200,"station_id":"","pricing_plan_id":"cebpf4jnsgd1na2vs0mg"},{"bike_id":"35a4bc41-2b31-4703-aafd-5dadb2a35d4d","system_id":"levelo_inurba_marseille","lat":43.25076,"lon":5.39519,"is_reserved":false,"is_disabled":false,"rental_uris":{"android":"levelo://app?vid=35a4bc41-2b31-4703-aafd-5dadb2a35d4d","ios":"levelo://app?vid=35a4bc41-2b31-4703-aafd-5dadb2a35d4d"},"vehicle_type_id":"4","last_reported":1753104764,"current_range_meters":19200,"station_id":"ce4bhm12rcd13ifvqgkg","pricing_plan_id":"cebpf4jnsgd1na2vs0mg"},{"bike_id":"13adf853-6ca7-4ebd-8c9f-f4512dd3a322","system_id":"levelo_inurba_marseille","lat":43.33275,"lon":5.39832,"is_reserved":false,"is_disabled":false,"rental_uris":{"android":"levelo://app?vid=13adf853-6ca7-4ebd-8c9f-f4512dd3a322","ios":"levelo://app?vid=13adf853-6ca7-4ebd-8c9f-f4512dd3a322"},"vehicle_type_id":"4","last_reported":1753104764,"current_range_meters":19200,"station_id":"","pricing_plan_id":"cebpf4jnsgd1na2vs0mg"},{"bike_id":"b050b2a0-6d4d-4d6b-b7de-6a89501ce2b7","system_id":"levelo_inurba_marseille","lat":43.28958,"lon":5.36404,"is_reserved":false,"is_disabled":true,"rental_uris":{"android":"levelo://app?vid=b050b2a0-6d4d-4d6b-b7de-6a89501ce2b7","ios":"levelo://app?vid=b050b2a0-6d4d-4d6b-b7de-6a89501ce2b7"},"vehicle_type_id":"4","last_reported":1753104764,"current_range_meters":19200,"station_id":"ce4bhc92rcd13ifvqetg","pricing_plan_id":"cebpf4jnsgd1na2vs0mg"},{"bike_id":"cda67b63-4442-420d-b5ad-8af381852f4b","system_id":"levelo_inurba_marseille","lat":43.2807,"lon":5.39661,"is_reserved":false,"is_disabled":false,"rental_uris":{"android":"levelo://app?vid=cda67b63-4442-420d-b5ad-8af381852f4b","ios":"levelo://app?vid=cda67b63-4442-420d-b5ad-8af381852f4b"},"vehicle_type_id":"4","last_reported":1753104764,"current_range_meters":19200,"station_id":"ce4bho12rcd13ifvqh2g","pricing_plan_id":"cebpf4jnsgd1na2vs0mg"},{"bike_id":"2873a13c-a554-4fc2-ab7b-44caf8c746c8","system_id":"levelo_inurba_marseille","lat":43.26359,"lon":5.42135,"is_reserved":false,"is_disabled":false,"rental_uris":{"android":"levelo://app?vid=2873a13c-a554-4fc2-ab7b-44caf8c746c8","ios":"levelo://app?vid=2873a13c-a554-4fc2-ab7b-44caf8c746c8"},"vehicle_type_id":"4","last_reported":1753104764,"current_range_meters":19200,"station_id":"","pricing_plan_id":"cebpf4jnsgd1na2vs0mg"},{"bike_id":"36106c15-a7c9-4bd2-afe6-c24e3f774659","system_id":"levelo_inurba_marseille","lat":43.308947,"lon":5.36837,"is_reserved":false,"is_disabled":false,"rental_uris":{"android":"levelo://app?vid=36106c15-a7c9-4bd2-afe6-c24e3f774659","ios":"levelo://app?vid=36106c15-a7c9-4bd2-afe6-c24e3f774659"},"vehicle_type_id":"4","last_reported":1753104764,"current_range_meters":19200,"station_id":"ce4bgn92rcd13ifvqbvg","pricing_plan_id":"cebpf4jnsgd1na2vs0mg"},{"bike_id":"a8425362-197a-4dc6-a73b-d17d37743a9c","system_id":"levelo_inurba_marseille","lat":43.21786,"lon":5.34591,"is_reserved":false,"is_disabled":false,"rental_uris":{"android":"levelo://app?vid=a8425362-197a-4dc6-a73b-d17d37743a9c","ios":"levelo://app?vid=a8425362-197a-4dc6-a73b-d17d37743a9c"},"vehicle_type_id":"4","last_reported":1753104764,"current_range_meters":19200,"station_id":"","pricing_plan_id":"cebpf4jnsgd1na2vs0mg"},{"bike_id":"6f7d32d6-b088-4c20-b9e3-585ba0fc1933","system_id":"levelo_inurba_marseille","lat":43.30555,"lon":5.36523,"is_reserved":false,"is_disabled":false,"rental_uris":{"android":"levelo://app?vid=6f7d32d6-b088-4c20-b9e3-585ba0fc1933","ios":"levelo://app?vid=6f7d32d6-b088-4c20-b9e3-585ba0fc1933"},"vehicle_type_id":"4","last_reported":1753104764,"current_range_meters":19600,"station_id":"ce4bgs12rcd13ifvqcag","pricing_plan_id":"cebpf4jnsgd1na2vs0mg"},{"bike_id":"0252eab3-c3f3-4486-b893-58cb3f957c57","system_id":"levelo_inurba_marseille","lat":43.31705,"lon":5.38484,"is_reserved":false,"is_disabled":false,"rental_uris":{"android":"levelo://app?vid=0252eab3-c3f3-4486-b893-58cb3f957c57","ios":"levelo://app?vid=0252eab3-c3f3-4486-b893-58cb3f957c57"},"vehicle_type_id":"4","last_reported":1753104764,"current_range_meters":19600,"station_id":"","pricing_plan_id":"cebpf4jnsgd1na2vs0mg"},{"bike_id":"56c849d0-2fd7-4663-bd40-4459368ce979","system_id":"levelo_inurba_marseille","lat":43.31229,"lon":5.36854,"is_reserved":false,"is_disabled":false,"rental_uris":{"android":"levelo://app?vid=56c849d0-2fd7-4663-bd40-4459368ce979","ios":"levelo://app?vid=56c849d0-2fd7-4663-bd40-4459368ce979"},"vehicle_type_id":"4","last_reported":1753104764,"current_range_meters":19600,"station_id":"ce4bgl92rcd13ifvqbq0","pricing_plan_id":"cebpf4jnsgd1na2vs0mg"},{"bike_id":"b4c1aa2a-e931-4ce6-8816-30ad77bdd520","system_id":"levelo_inurba_marseille","lat":43.241448,"lon":5.363743,"is_reserved":false,"is_disabled":false,"rental_uris":{"android":"levelo://app?vid=b4c1aa2a-e931-4ce6-8816-30ad77bdd520","ios":"levelo://app?vid=b4c1aa2a-e931-4ce6-8816-30ad77bdd520"},"vehicle_type_id":"4","last_reported":1753104764,"current_range_meters":19600,"station_id":"","pricing_plan_id":"cebpf4jnsgd1na2vs0mg"},{"bike_id":"baa09ecb-1260-4a75-885c-7120cc38153d","system_id":"levelo_inurba_marseille","lat":43.30086,"lon":5.3907,"is_reserved":false,"is_disabled":false,"rental_uris":{"android":"levelo://app?vid=baa09ecb-1260-4a75-885c-7120cc38153d","ios":"levelo://app?vid=baa09ecb-1260-4a75-885c-7120cc38153d"},"vehicle_type_id":"4","last_reported":1753104764,"current_range_meters":19600,"station_id":"ce4bh192rcd13ifvqdb0","pricing_plan_id":"cebpf4jnsgd1na2vs0mg"},{"bike_id":"f2f8e66b-5d0e-4450-95dd-4175f2ab33b5","system_id":"levelo_inurba_marseille","lat":43.29058,"lon":5.3717,"is_reserved":false,"is_disabled":false,"rental_uris":{"android":"levelo://app?vid=f2f8e66b-5d0e-4450-95dd-4175f2ab33b5","ios":"levelo://app?vid=f2f8e66b-5d0e-4450-95dd-4175f2ab33b5"},"vehicle_type_id":"4","last_reported":1753104764,"current_range_meters":19600,"station_id":"ce4bgh92rcd13ifvqb40","pricing_plan_id":"cebpf4jnsgd1na2vs0mg"},{"bike_id":"064a0862-531d-4977-ae56-d0c9f19c963e","system_id":"levelo_inurba_marseille","lat":43.24554,"lon":5.39517,"is_reserved":false,"is_disabled":false,"rental_uris":{"android":"levelo://app?vid=064a0862-531d-4977-ae56-d0c9f19c963e","ios":"levelo://app?vid=064a0862-531d-4977-ae56-d0c9f19c963e"},"vehicle_type_id":"4","last_reported":1753104764,"current_range_meters":19600,"station_id":"ce4bhlp2rcd13ifvqgjg","pricing_plan_id":"cebpf4jnsgd1na2vs0mg"},{"bike_id":"e39e46a0-8a31-4891-9576-c42463dca604","system_id":"levelo_inurba_marseille","lat":43.26557,"lon":5.37283,"is_reserved":false,"is_disabled":false,"rental_uris":{"android":"levelo://app?vid=e39e46a0-8a31-4891-9576-c42463dca604","ios":"levelo://app?vid=e39e46a0-8a31-4891-9576-c42463dca604"},"vehicle_type_id":"4","last_reported":1753104764,"current_range_meters":19600,"station_id":"ce4bhg12rcd13ifvqf70","pricing_plan_id":"cebpf4jnsgd1na2vs0mg"},{"bike_id":"dd42f033-eb85-4733-a94a-352d9d3b5b6e","system_id":"levelo_inurba_marseille","lat":43.309378,"lon":5.401363,"is_reserved":false,"is_disabled":false,"rental_uris":{"android":"levelo://app?vid=dd42f033-eb85-4733-a94a-352d9d3b5b6e","ios":"levelo://app?vid=dd42f033-eb85-4733-a94a-352d9d3b5b6e"},"vehicle_type_id":"4","last_reported":1753104764,"current_range_meters":19600,"station_id":"ce4bgvp2rcd13ifvqct0","pricing_plan_id":"cebpf4jnsgd1na2vs0mg"},{"bike_id":"117fab79-dbd7-4e20-91a1-c32dd8c47d23","system_id":"levelo_inurba_marseille","lat":43.309348,"lon":5.401373,"is_reserved":false,"is_disabled":false,"rental_uris":{"android":"levelo://app?vid=117fab79-dbd7-4e20-91a1-c32dd8c47d23","ios":"levelo://app?vid=117fab79-dbd7-4e20-91a1-c32dd8c47d23"},"vehicle_type_id":"4","last_reported":1753104764,"current_range_meters":19600,"station_id":"ce4bgvp2rcd13ifvqct0","pricing_plan_id":"cebpf4jnsgd1na2vs0mg"},{"bike_id":"f2ae3914-afd9-4ae9-b087-b6a8c5753948","system_id":"levelo_inurba_marseille","lat":43.32368,"lon":5.36768,"is_reserved":false,"is_disabled":false,"rental_uris":{"android":"levelo://app?vid=f2ae3914-afd9-4ae9-b087-b6a8c5753948","ios":"levelo://app?vid=f2ae3914-afd9-4ae9-b087-b6a8c5753948"},"vehicle_type_id":"4","last_reported":1753104764,"current_range_meters":19600,"station_id":"ce4bhsh2rcd13ifvqi2g","pricing_plan_id":"cebpf4jnsgd1na2vs0mg"},{"bike_id":"f85f0937-3e4c-4670-999e-07815a8fd9b9","system_id":"levelo_inurba_marseille","lat":43.31352,"lon":5.36705,"is_reserved":false,"is_disabled":false,"rental_uris":{"android":"levelo://app?vid=f85f0937-3e4c-4670-999e-07815a8fd9b9","ios":"levelo://app?vid=f85f0937-3e4c-4670-999e-07815a8fd9b9"},"vehicle_type_id":"4","last_reported":1753104764,"current_range_meters":19200,"station_id":"ce4bgr92rcd13ifvqc6g","pricing_plan_id":"cebpf4jnsgd1na2vs0mg"},{"bike_id":"b6407bd6-c394-4891-b6fc-05e9538eeb6c","system_id":"levelo_inurba_marseille","lat":43.23945,"lon":5.36621,"is_reserved":false,"is_disabled":false,"rental_uris":{"android":"levelo://app?vid=b6407bd6-c394-4891-b6fc-05e9538eeb6c","ios":"levelo://app?vid=b6407bd6-c394-4891-b6fc-05e9538eeb6c"},"vehicle_type_id":"4","last_reported":1753104764,"current_range_meters":19600,"station_id":"ce4bhi12rcd13ifvqfp0","pricing_plan_id":"cebpf4jnsgd1na2vs0mg"},{"bike_id":"67914e3b-e9a5-4938-8605-3bd1e9d321ca","system_id":"levelo_inurba_marseille","lat":43.29522,"lon":5.39053,"is_reserved":false,"is_disabled":false,"rental_uris":{"android":"levelo://app?vid=67914e3b-e9a5-4938-8605-3bd1e9d321ca","ios":"levelo://app?vid=67914e3b-e9a5-4938-8605-3bd1e9d321ca"},"vehicle_type_id":"4","last_reported":1753104764,"current_range_meters":19600,"station_id":"ce4bh3p2rcd13ifvqdp0","pricing_plan_id":"cebpf4jnsgd1na2vs0mg"},{"bike_id":"68271cad-06a1-4c11-b0a2-e1b9e188338b","system_id":"levelo_inurba_marseille","lat":43.3047,"lon":5.37905,"is_reserved":false,"is_disabled":false,"rental_uris":{"android":"levelo://app?vid=68271cad-06a1-4c11-b0a2-e1b9e188338b","ios":"levelo://app?vid=68271cad-06a1-4c11-b0a2-e1b9e188338b"},"vehicle_type_id":"4","last_reported":1753104764,"current_range_meters":20000,"station_id":"ce4bgup2rcd13ifvqcn0","pricing_plan_id":"cebpf4jnsgd1na2vs0mg"},{"bike_id":"ee09eda1-e075-4f4d-9c5f-ac6a4aa881c4","system_id":"levelo_inurba_marseille","lat":43.278195,"lon":5.407193,"is_reserved":false,"is_disabled":false,"rental_uris":{"android":"levelo://app?vid=ee09eda1-e075-4f4d-9c5f-ac6a4aa881c4","ios":"levelo://app?vid=ee09eda1-e075-4f4d-9c5f-ac6a4aa881c4"},"vehicle_type_id":"4","last_reported":1753104764,"current_range_meters":20000,"station_id":"ce4bhnh2rcd13ifvqgtg","pricing_plan_id":"cebpf4jnsgd1na2vs0mg"},{"bike_id":"534098fe-a2b0-45be-a076-83fc2f5e28f9","system_id":"levelo_inurba_marseille","lat":43.32112,"lon":5.36791,"is_reserved":false,"is_disabled":false,"rental_uris":{"android":"levelo://app?vid=534098fe-a2b0-45be-a076-83fc2f5e28f9","ios":"levelo://app?vid=534098fe-a2b0-45be-a076-83fc2f5e28f9"},"vehicle_type_id":"4","last_reported":1753104764,"current_range_meters":20000,"station_id":"ce4bhrh2rcd13ifvqhug","pricing_plan_id":"cebpf4jnsgd1na2vs0mg"},{"bike_id":"07cad5da-863b-4dcd-9b5f-8a55c0a76449","system_id":"levelo_inurba_marseille","lat":43.28833,"lon":5.39127,"is_reserved":false,"is_disabled":false,"rental_uris":{"android":"levelo://app?vid=07cad5da-863b-4dcd-9b5f-8a55c0a76449","ios":"levelo://app?vid=07cad5da-863b-4dcd-9b5f-8a55c0a76449"},"vehicle_type_id":"4","last_reported":1753104764,"current_range_meters":20000,"station_id":"","pricing_plan_id":"cebpf4jnsgd1na2vs0mg"},{"bike_id":"e2ff0d40-96c5-49d3-9b11-5c1d81777276","system_id":"levelo_inurba_marseille","lat":43.29724,"lon":5.37677,"is_reserved":false,"is_disabled":false,"rental_uris":{"android":"levelo://app?vid=e2ff0d40-96c5-49d3-9b11-5c1d81777276","ios":"levelo://app?vid=e2ff0d40-96c5-49d3-9b11-5c1d81777276"},"vehicle_type_id":"4","last_reported":1753104764,"current_range_meters":20000,"station_id":"ce4bgkh2rcd13ifvqbl0","pricing_plan_id":"cebpf4jnsgd1na2vs0mg"},{"bike_id":"72f56324-b905-4218-a3af-f51dbcc59179","system_id":"levelo_inurba_marseille","lat":43.3377,"lon":5.37498,"is_reserved":false,"is_disabled":false,"rental_uris":{"android":"levelo://app?vid=72f56324-b905-4218-a3af-f51dbcc59179","ios":"levelo://app?vid=72f56324-b905-4218-a3af-f51dbcc59179"},"vehicle_type_id":"4","last_reported":1753104764,"current_range_meters":20000,"station_id":"ce4bgvp2rcd13ifvqct0","pricing_plan_id":"cebpf4jnsgd1na2vs0mg"},{"bike_id":"a71aea1f-dac8-4380-84df-553d1015c6fe","system_id":"levelo_inurba_marseille","lat":43.30379,"lon":5.42482,"is_reserved":false,"is_disabled":false,"rental_uris":{"android":"levelo://app?vid=a71aea1f-dac8-4380-84df-553d1015c6fe","ios":"levelo://app?vid=a71aea1f-dac8-4380-84df-553d1015c6fe"},"vehicle_type_id":"4","last_reported":1753104764,"current_range_meters":20000,"station_id":"ce4bhoh2rcd13ifvqh6g","pricing_plan_id":"cebpf4jnsgd1na2vs0mg"},{"bike_id":"de5426ba-ae67-47a4-bece-c11c7065cd1e","system_id":"levelo_inurba_marseille","lat":43.2119,"lon":5.35074,"is_reserved":false,"is_disabled":false,"rental_uris":{"android":"levelo://app?vid=de5426ba-ae67-47a4-bece-c11c7065cd1e","ios":"levelo://app?vid=de5426ba-ae67-47a4-bece-c11c7065cd1e"},"vehicle_type_id":"4","last_reported":1753104764,"current_range_meters":20000,"station_id":"st_cvj6sg6p6f1abm77japg","pricing_plan_id":"cebpf4jnsgd1na2vs0mg"},{"bike_id":"54a652b4-738e-4f1a-baa9-990b8dad3690","system_id":"levelo_inurba_marseille","lat":43.337301,"lon":5.391794,"is_reserved":false,"is_disabled":false,"rental_uris":{"android":"levelo://app?vid=54a652b4-738e-4f1a-baa9-990b8dad3690","ios":"levelo://app?vid=54a652b4-738e-4f1a-baa9-990b8dad3690"},"vehicle_type_id":"4","last_reported":1753104764,"current_range_meters":20400,"station_id":"ce4bhr92rcd13ifvqhsg","pricing_plan_id":"cebpf4jnsgd1na2vs0mg"},{"bike_id":"dda96cde-9f78-4371-a72f-1d24145c396a","system_id":"levelo_inurba_marseille","lat":43.211932,"lon":5.350788,"is_reserved":false,"is_disabled":false,"rental_uris":{"android":"levelo://app?vid=dda96cde-9f78-4371-a72f-1d24145c396a","ios":"levelo://app?vid=dda96cde-9f78-4371-a72f-1d24145c396a"},"vehicle_type_id":"4","last_reported":1753104764,"current_range_meters":20400,"station_id":"st_cvj6sg6p6f1abm77japg","pricing_plan_id":"cebpf4jnsgd1na2vs0mg"},{"bike_id":"de0be1a9-0a16-48ff-9d7c-406fb96a3b0f","system_id":"levelo_inurba_marseille","lat":43.30455,"lon":5.37905,"is_reserved":false,"is_disabled":false,"rental_uris":{"android":"levelo://app?vid=de0be1a9-0a16-48ff-9d7c-406fb96a3b0f","ios":"levelo://app?vid=de0be1a9-0a16-48ff-9d7c-406fb96a3b0f"},"vehicle_type_id":"4","last_reported":1753104764,"current_range_meters":20400,"station_id":"ce4bgup2rcd13ifvqcn0","pricing_plan_id":"cebpf4jnsgd1na2vs0mg"},{"bike_id":"976da9c0-0754-4bb7-b63f-194e20614f29","system_id":"levelo_inurba_marseille","lat":43.27315,"lon":5.39077,"is_reserved":false,"is_disabled":false,"rental_uris":{"android":"levelo://app?vid=976da9c0-0754-4bb7-b63f-194e20614f29","ios":"levelo://app?vid=976da9c0-0754-4bb7-b63f-194e20614f29"},"vehicle_type_id":"4","last_reported":1753104764,"current_range_meters":20000,"station_id":"ce4bhgp2rcd13ifvqfe0","pricing_plan_id":"cebpf4jnsgd1na2vs0mg"},{"bike_id":"22404279-60c0-402c-80cb-08e64d5ac5aa","system_id":"levelo_inurba_marseille","lat":43.21746,"lon":5.34593,"is_reserved":false,"is_disabled":false,"rental_uris":{"android":"levelo://app?vid=22404279-60c0-402c-80cb-08e64d5ac5aa","ios":"levelo://app?vid=22404279-60c0-402c-80cb-08e64d5ac5aa"},"vehicle_type_id":"4","last_reported":1753104764,"current_range_meters":20400,"station_id":"st_cvj6r9ubvosntc0bgbag","pricing_plan_id":"cebpf4jnsgd1na2vs0mg"},{"bike_id":"47df1afe-9f69-4139-9382-e0f94dbfbda7","system_id":"levelo_inurba_marseille","lat":43.24165,"lon":5.36394,"is_reserved":false,"is_disabled":false,"rental_uris":{"android":"levelo://app?vid=47df1afe-9f69-4139-9382-e0f94dbfbda7","ios":"levelo://app?vid=47df1afe-9f69-4139-9382-e0f94dbfbda7"},"vehicle_type_id":"4","last_reported":1753104764,"current_range_meters":20400,"station_id":"cpo36qri1sfpv3e86is0","pricing_plan_id":"cebpf4jnsgd1na2vs0mg"},{"bike_id":"d4ae3d20-9dc0-4d9e-ad31-1b1b5924c74e","system_id":"levelo_inurba_marseille","lat":43.30533,"lon":5.36718,"is_reserved":false,"is_disabled":false,"rental_uris":{"android":"levelo://app?vid=d4ae3d20-9dc0-4d9e-ad31-1b1b5924c74e","ios":"levelo://app?vid=d4ae3d20-9dc0-4d9e-ad31-1b1b5924c74e"},"vehicle_type_id":"4","last_reported":1753104764,"current_range_meters":20400,"station_id":"ce4bgrp2rcd13ifvqc9g","pricing_plan_id":"cebpf4jnsgd1na2vs0mg"},{"bike_id":"5153e984-1abc-4d5b-91ef-21249865a3e6","system_id":"levelo_inurba_marseille","lat":43.21194,"lon":5.35071,"is_reserved":false,"is_disabled":false,"rental_uris":{"android":"levelo://app?vid=5153e984-1abc-4d5b-91ef-21249865a3e6","ios":"levelo://app?vid=5153e984-1abc-4d5b-91ef-21249865a3e6"},"vehicle_type_id":"4","last_reported":1753104764,"current_range_meters":20400,"station_id":"st_cvj6sg6p6f1abm77japg","pricing_plan_id":"cebpf4jnsgd1na2vs0mg"},{"bike_id":"87bc9e6f-1d5b-4237-a1df-3b5cfd8a9777","system_id":"levelo_inurba_marseille","lat":43.21191,"lon":5.35067,"is_reserved":false,"is_disabled":false,"rental_uris":{"android":"levelo://app?vid=87bc9e6f-1d5b-4237-a1df-3b5cfd8a9777","ios":"levelo://app?vid=87bc9e6f-1d5b-4237-a1df-3b5cfd8a9777"},"vehicle_type_id":"4","last_reported":1753104764,"current_range_meters":20400,"station_id":"st_cvj6sg6p6f1abm77japg","pricing_plan_id":"cebpf4jnsgd1na2vs0mg"},{"bike_id":"e1821983-402d-4a49-a51f-17090930a3e9","system_id":"levelo_inurba_marseille","lat":43.21255,"lon":5.35068,"is_reserved":false,"is_disabled":false,"rental_uris":{"android":"levelo://app?vid=e1821983-402d-4a49-a51f-17090930a3e9","ios":"levelo://app?vid=e1821983-402d-4a49-a51f-17090930a3e9"},"vehicle_type_id":"4","last_reported":1753104764,"current_range_meters":20400,"station_id":"","pricing_plan_id":"cebpf4jnsgd1na2vs0mg"},{"bike_id":"8bc71457-02ce-4b74-9515-b8d910faba47","system_id":"levelo_inurba_marseille","lat":43.33025,"lon":5.3904,"is_reserved":false,"is_disabled":false,"rental_uris":{"android":"levelo://app?vid=8bc71457-02ce-4b74-9515-b8d910faba47","ios":"levelo://app?vid=8bc71457-02ce-4b74-9515-b8d910faba47"},"vehicle_type_id":"4","last_reported":1753104764,"current_range_meters":20400,"station_id":"ce4bhr92rcd13ifvqhrg","pricing_plan_id":"cebpf4jnsgd1na2vs0mg"},{"bike_id":"7023c04e-63a5-482f-b4d2-1cc1cf4fc91d","system_id":"levelo_inurba_marseille","lat":43.30972,"lon":5.40009,"is_reserved":false,"is_disabled":false,"rental_uris":{"android":"levelo://app?vid=7023c04e-63a5-482f-b4d2-1cc1cf4fc91d","ios":"levelo://app?vid=7023c04e-63a5-482f-b4d2-1cc1cf4fc91d"},"vehicle_type_id":"4","last_reported":1753104764,"current_range_meters":20400,"station_id":"ce4bgvp2rcd13ifvqct0","pricing_plan_id":"cebpf4jnsgd1na2vs0mg"},{"bike_id":"45319781-b1f7-4c36-8147-c62985b67826","system_id":"levelo_inurba_marseille","lat":43.27413,"lon":5.39416,"is_reserved":false,"is_disabled":false,"rental_uris":{"android":"levelo://app?vid=45319781-b1f7-4c36-8147-c62985b67826","ios":"levelo://app?vid=45319781-b1f7-4c36-8147-c62985b67826"},"vehicle_type_id":"4","last_reported":1753104764,"current_range_meters":20400,"station_id":"ce4bhgp2rcd13ifvqfe0","pricing_plan_id":"cebpf4jnsgd1na2vs0mg"},{"bike_id":"64a2f514-4942-458d-b3fc-7d7fd0dfd1b1","system_id":"levelo_inurba_marseille","lat":43.21179,"lon":5.35068,"is_reserved":false,"is_disabled":false,"rental_uris":{"android":"levelo://app?vid=64a2f514-4942-458d-b3fc-7d7fd0dfd1b1","ios":"levelo://app?vid=64a2f514-4942-458d-b3fc-7d7fd0dfd1b1"},"vehicle_type_id":"4","last_reported":1753104764,"current_range_meters":20400,"station_id":"st_cvj6sg6p6f1abm77japg","pricing_plan_id":"cebpf4jnsgd1na2vs0mg"},{"bike_id":"43289c39-b43b-4745-8781-6d56ee0c5b1f","system_id":"levelo_inurba_marseille","lat":43.311886,"lon":5.368428,"is_reserved":false,"is_disabled":false,"rental_uris":{"android":"levelo://app?vid=43289c39-b43b-4745-8781-6d56ee0c5b1f","ios":"levelo://app?vid=43289c39-b43b-4745-8781-6d56ee0c5b1f"},"vehicle_type_id":"4","last_reported":1753104764,"current_range_meters":20400,"station_id":"ce4bgl92rcd13ifvqbq0","pricing_plan_id":"cebpf4jnsgd1na2vs0mg"},{"bike_id":"9630f194-82ad-4c9d-a5ea-966e09b83c6f","system_id":"levelo_inurba_marseille","lat":43.30888,"lon":5.39654,"is_reserved":false,"is_disabled":false,"rental_uris":{"android":"levelo://app?vid=9630f194-82ad-4c9d-a5ea-966e09b83c6f","ios":"levelo://app?vid=9630f194-82ad-4c9d-a5ea-966e09b83c6f"},"vehicle_type_id":"4","last_reported":1753104764,"current_range_meters":20800,"station_id":"ce4bh012rcd13ifvqcv0","pricing_plan_id":"cebpf4jnsgd1na2vs0mg"},{"bike_id":"1e1331c1-af88-42d5-a7de-22226f7b901b","system_id":"levelo_inurba_marseille","lat":43.26213,"lon":5.3744,"is_reserved":false,"is_disabled":false,"rental_uris":{"android":"levelo://app?vid=1e1331c1-af88-42d5-a7de-22226f7b901b","ios":"levelo://app?vid=1e1331c1-af88-42d5-a7de-22226f7b901b"},"vehicle_type_id":"4","last_reported":1753104764,"current_range_meters":20800,"station_id":"ce4bhgp2rcd13ifvqfc0","pricing_plan_id":"cebpf4jnsgd1na2vs0mg"},{"bike_id":"c1deda83-ed7e-475d-b4e1-66ef17f3d0b5","system_id":"levelo_inurba_marseille","lat":43.24166,"lon":5.36395,"is_reserved":false,"is_disabled":false,"rental_uris":{"android":"levelo://app?vid=c1deda83-ed7e-475d-b4e1-66ef17f3d0b5","ios":"levelo://app?vid=c1deda83-ed7e-475d-b4e1-66ef17f3d0b5"},"vehicle_type_id":"4","last_reported":1753104764,"current_range_meters":20800,"station_id":"cpo36qri1sfpv3e86is0","pricing_plan_id":"cebpf4jnsgd1na2vs0mg"},{"bike_id":"f5767321-03ff-4c6c-8a78-ad57e022e0a0","system_id":"levelo_inurba_marseille","lat":43.290314,"lon":5.3816,"is_reserved":false,"is_disabled":true,"rental_uris":{"android":"levelo://app?vid=f5767321-03ff-4c6c-8a78-ad57e022e0a0","ios":"levelo://app?vid=f5767321-03ff-4c6c-8a78-ad57e022e0a0"},"vehicle_type_id":"4","last_reported":1753104764,"current_range_meters":20800,"station_id":"ce4bh4p2rcd13ifvqe1g","pricing_plan_id":"cebpf4jnsgd1na2vs0mg"},{"bike_id":"01bf9138-81a7-4e42-b396-fbe505bb4eb1","system_id":"levelo_inurba_marseille","lat":43.26805,"lon":5.40255,"is_reserved":false,"is_disabled":false,"rental_uris":{"android":"levelo://app?vid=01bf9138-81a7-4e42-b396-fbe505bb4eb1","ios":"levelo://app?vid=01bf9138-81a7-4e42-b396-fbe505bb4eb1"},"vehicle_type_id":"4","last_reported":1753104764,"current_range_meters":20400,"station_id":"ce501612rcd8frsf0b60","pricing_plan_id":"cebpf4jnsgd1na2vs0mg"},{"bike_id":"c1b07bd0-6094-41aa-9aa6-51d991c3f8de","system_id":"levelo_inurba_marseille","lat":43.2625,"lon":5.385267,"is_reserved":false,"is_disabled":false,"rental_uris":{"android":"levelo://app?vid=c1b07bd0-6094-41aa-9aa6-51d991c3f8de","ios":"levelo://app?vid=c1b07bd0-6094-41aa-9aa6-51d991c3f8de"},"vehicle_type_id":"4","last_reported":1753104764,"current_range_meters":20800,"station_id":"","pricing_plan_id":"cebpf4jnsgd1na2vs0mg"},{"bike_id":"99841499-c958-4e5a-a8a8-f74cf9b2d2c7","system_id":"levelo_inurba_marseille","lat":43.259705,"lon":5.40851,"is_reserved":false,"is_disabled":false,"rental_uris":{"android":"levelo://app?vid=99841499-c958-4e5a-a8a8-f74cf9b2d2c7","ios":"levelo://app?vid=99841499-c958-4e5a-a8a8-f74cf9b2d2c7"},"vehicle_type_id":"4","last_reported":1753104764,"current_range_meters":20800,"station_id":"ce4bht12rcd13ifvqi60","pricing_plan_id":"cebpf4jnsgd1na2vs0mg"},{"bike_id":"112c519a-75f9-465e-a3be-d35e91feb119","system_id":"levelo_inurba_marseille","lat":43.2248,"lon":5.34802,"is_reserved":false,"is_disabled":false,"rental_uris":{"android":"levelo://app?vid=112c519a-75f9-465e-a3be-d35e91feb119","ios":"levelo://app?vid=112c519a-75f9-465e-a3be-d35e91feb119"},"vehicle_type_id":"4","last_reported":1753104764,"current_range_meters":20800,"station_id":"st_cvj5dfep6f1abm77gieg","pricing_plan_id":"cebpf4jnsgd1na2vs0mg"},{"bike_id":"b804ee9c-64f3-443c-905d-9b6de8b95ee2","system_id":"levelo_inurba_marseille","lat":43.27503,"lon":5.42455,"is_reserved":false,"is_disabled":false,"rental_uris":{"android":"levelo://app?vid=b804ee9c-64f3-443c-905d-9b6de8b95ee2","ios":"levelo://app?vid=b804ee9c-64f3-443c-905d-9b6de8b95ee2"},"vehicle_type_id":"4","last_reported":1753104764,"current_range_meters":20800,"station_id":"ce4bhn92rcd13ifvqgrg","pricing_plan_id":"cebpf4jnsgd1na2vs0mg"},{"bike_id":"ec731dc8-f12a-4274-8f1f-e56533c0cdd8","system_id":"levelo_inurba_marseille","lat":43.30556,"lon":5.36539,"is_reserved":false,"is_disabled":false,"rental_uris":{"android":"levelo://app?vid=ec731dc8-f12a-4274-8f1f-e56533c0cdd8","ios":"levelo://app?vid=ec731dc8-f12a-4274-8f1f-e56533c0cdd8"},"vehicle_type_id":"4","last_reported":1753104764,"current_range_meters":20800,"station_id":"ce4bgs12rcd13ifvqcag","pricing_plan_id":"cebpf4jnsgd1na2vs0mg"},{"bike_id":"5318d43a-4761-49f5-a226-f37048bd84eb","system_id":"levelo_inurba_marseille","lat":43.24683,"lon":5.38151,"is_reserved":false,"is_disabled":false,"rental_uris":{"android":"levelo://app?vid=5318d43a-4761-49f5-a226-f37048bd84eb","ios":"levelo://app?vid=5318d43a-4761-49f5-a226-f37048bd84eb"},"vehicle_type_id":"4","last_reported":1753104764,"current_range_meters":21600,"station_id":"ce4bhih2rcd13ifvqfr0","pricing_plan_id":"cebpf4jnsgd1na2vs0mg"},{"bike_id":"cb1eed87-707a-4cb6-874b-9e00df2e933f","system_id":"levelo_inurba_marseille","lat":43.28422,"lon":5.34996,"is_reserved":false,"is_disabled":false,"rental_uris":{"android":"levelo://app?vid=cb1eed87-707a-4cb6-874b-9e00df2e933f","ios":"levelo://app?vid=cb1eed87-707a-4cb6-874b-9e00df2e933f"},"vehicle_type_id":"4","last_reported":1753104764,"current_range_meters":21600,"station_id":"ce4bhbh2rcd13ifvqepg","pricing_plan_id":"cebpf4jnsgd1na2vs0mg"},{"bike_id":"69bc51f8-a7fe-4ea9-a95e-46aa06773691","system_id":"levelo_inurba_marseille","lat":43.2121,"lon":5.35063,"is_reserved":false,"is_disabled":false,"rental_uris":{"android":"levelo://app?vid=69bc51f8-a7fe-4ea9-a95e-46aa06773691","ios":"levelo://app?vid=69bc51f8-a7fe-4ea9-a95e-46aa06773691"},"vehicle_type_id":"4","last_reported":1753104764,"current_range_meters":21600,"station_id":"st_cvj6sg6p6f1abm77japg","pricing_plan_id":"cebpf4jnsgd1na2vs0mg"},{"bike_id":"91f528de-626e-46cf-ba56-2b41f50873fe","system_id":"levelo_inurba_marseille","lat":43.29771,"lon":5.38126,"is_reserved":false,"is_disabled":false,"rental_uris":{"android":"levelo://app?vid=91f528de-626e-46cf-ba56-2b41f50873fe","ios":"levelo://app?vid=91f528de-626e-46cf-ba56-2b41f50873fe"},"vehicle_type_id":"4","last_reported":1753104764,"current_range_meters":21600,"station_id":"ce4bgip2rcd13ifvqbb0","pricing_plan_id":"cebpf4jnsgd1na2vs0mg"},{"bike_id":"50683868-7180-4b04-99e3-13d4377535e4","system_id":"levelo_inurba_marseille","lat":43.30459,"lon":5.37909,"is_reserved":false,"is_disabled":false,"rental_uris":{"android":"levelo://app?vid=50683868-7180-4b04-99e3-13d4377535e4","ios":"levelo://app?vid=50683868-7180-4b04-99e3-13d4377535e4"},"vehicle_type_id":"4","last_reported":1753104764,"current_range_meters":21600,"station_id":"ce4bgup2rcd13ifvqcn0","pricing_plan_id":"cebpf4jnsgd1na2vs0mg"},