{"last_updated":1736838481,"ttl":60,"version":"2.2","data":{"bikes":[{"bike_id":"8b877a16-2c6f-4913-a8ea-b53aacb81218","system_id":"levelo_inurba_marseille","lat":43.28137,"lon":5.39716,"is_reserved":false,"is_disabled":false,"rental_uris":{"android":"levelo://app?vid=8b877a16-2c6f-4913-a8ea-b53aacb81218","ios":"levelo://app?vid=8b877a16-2c6f-4913-a8ea-b53aacb81218"},"vehicle_type_id":"4","last_reported":1736838481,"current_range_meters":38400,"station_id":"ce4bho12rcd13ifvqh2g","pricing_plan_id":"cebpf4jnsgd1na2vs0mg"},{"bike_id":"be737a50-b788-47a7-941f-b7f41cf59f88","system_id":"levelo_inurba_marseille","lat":43.30242,"lon":5.40051,"is_reserved":false,"is_disabled":false,"rental_uris":{"android":"levelo://app?vid=be737a50-b788-47a7-941f-b7f41cf59f88","ios":"levelo://app?vid=be737a50-b788-47a7-941f-b7f41cf59f88"},"vehicle_type_id":"4","last_reported":1736838481,"current_range_meters":28000,"station_id":"ce4bgvh2rcd13ifvqcs0","pricing_plan_id":"cebpf4jnsgd1na2vs0mg"},{"bike_id":"48868e6b-b462-44fb-add4-de9b053971d0","system_id":"levelo_inurba_marseille","lat":43.28486,"lon":5.38421,"is_reserved":false,"is_disabled":false,"rental_uris":{"android":"levelo://app?vid=48868e6b-b462-44fb-add4-de9b053971d0","ios":"levelo://app?vid=48868e6b-b462-44fb-add4-de9b053971d0"},"vehicle_type_id":"4","last_reported":1736838481,"current_range_meters":34800,"station_id":"ce4bh512rcd13ifvqe3g","pricing_plan_id":"cebpf4jnsgd1na2vs0mg"},{"bike_id":"98d8f861-c9dc-4d79-ad5c-eca49444ff7b","system_id":"levelo_inurba_marseille","lat":43.30478,"lon":5.37904,"is_reserved":false,"is_disabled":false,"rental_uris":{"android":"levelo://app?vid=98d8f861-c9dc-4d79-ad5c-eca49444ff7b","ios":"levelo://app?vid=98d8f861-c9dc-4d79-ad5c-eca49444ff7b"},"vehicle_type_id":"4","last_reported":1736838481,"current_range_meters":4000,"station_id":"ce4bgup2rcd13ifvqcn0","pricing_plan_id":"cebpf4jnsgd1na2vs0mg"},{"bike_id":"e44c9023-cb91-4256-a80f-0328c861883f","system_id":"levelo_inurba_marseille","lat":43.31533,"lon":5.38033,"is_reserved":false,"is_disabled":false,"rental_uris":{"android":"levelo://app?vid=e44c9023-cb91-4256-a80f-0328c861883f","ios":"levelo://app?vid=e44c9023-cb91-4256-a80f-0328c861883f"},"vehicle_type_id":"4","last_reported":1736838481,"current_range_meters":32400,"station_id":"ce4bhsp2rcd13ifvqi50","pricing_plan_id":"cebpf4jnsgd1na2vs0mg"},{"bike_id":"3953439b-f509-49e5-bb8d-9b9887e5086e","system_id":"levelo_inurba_marseille","lat":43.31067,"lon":5.38338,"is_reserved":false,"is_disabled":false,"rental_uris":{"android":"levelo://app?vid=3953439b-f509-49e5-bb8d-9b9887e5086e","ios":"levelo://app?vid=3953439b-f509-49e5-bb8d-9b9887e5086e"},"vehicle_type_id":"4","last_reported":1736838481,"current_range_meters":28800,"station_id":"ce4bgv92rcd13ifvqcr0","pricing_plan_id":"cebpf4jnsgd1na2vs0mg"},{"bike_id":"a9caf45c-9b62-4fad-bb25-cf9cfd1dff86","system_id":"levelo_inurba_marseille","lat":43.33729,"lon":5.39178,"is_reserved":false,"is_disabled":false,"rental_uris":{"android":"levelo://app?vid=a9caf45c-9b62-4fad-bb25-cf9cfd1dff86","ios":"levelo://app?vid=a9caf45c-9b62-4fad-bb25-cf9cfd1dff86"},"vehicle_type_id":"4","last_reported":1736838481,"current_range_meters":38800,"station_id":"ce4bhr92rcd13ifvqhsg","pricing_plan_id":"cebpf4jnsgd1na2vs0mg"},{"bike_id":"8df66f74-b7b1-4730-a851-ab6b59f101e6","system_id":"levelo_inurba_marseille","lat":43.286139,"lon":5.351008,"is_reserved":false,"is_disabled":false,"rental_uris":{"android":"levelo://app?vid=8df66f74-b7b1-4730-a851-ab6b59f101e6","ios":"levelo://app?vid=8df66f74-b7b1-4730-a851-ab6b59f101e6"},"vehicle_type_id":"4","last_reported":1736838481,"current_range_meters":29600,"station_id":"ce4bhch2rcd13ifvqeug","pricing_plan_id":"cebpf4jnsgd1na2vs0mg"},{"bike_id":"5e0b46d4-53a6-4a9b-81ed-42b3629948b7","system_id":"levelo_inurba_marseille","lat":43.32104,"lon":5.36771,"is_reserved":false,"is_disabled":false,"rental_uris":{"android":"levelo://app?vid=5e0b46d4-53a6-4a9b-81ed-42b3629948b7","ios":"levelo://app?vid=5e0b46d4-53a6-4a9b-81ed-42b3629948b7"},"vehicle_type_id":"4","last_reported":1736838481,"current_range_meters":38400,"station_id":"ce4bhrh2rcd13ifvqhug","pricing_plan_id":"cebpf4jnsgd1na2vs0mg"},{"bike_id":"a6943742-818e-4008-acc6-cc0735fe9917","system_id":"levelo_inurba_marseille","lat":43.31477,"lon":5.38869,"is_reserved":false,"is_disabled":false,"rental_uris":{"android":"levelo://app?vid=a6943742-818e-4008-acc6-cc0735fe9917","ios":"levelo://app?vid=a6943742-818e-4008-acc6-cc0735fe9917"},"vehicle_type_id":"4","last_reported":1736838481,"current_range_meters":22000,"station_id":"","pricing_plan_id":"cebpf4jnsgd1na2vs0mg"},{"bike_id":"d7f851be-3276-40aa-8188-4dc6d2538f9f","system_id":"levelo_inurba_marseille","lat":43.26955,"lon":5.38637,"is_reserved":false,"is_disabled":false,"rental_uris":{"android":"levelo://app?vid=d7f851be-3276-40aa-8188-4dc6d2538f9f","ios":"levelo://app?vid=d7f851be-3276-40aa-8188-4dc6d2538f9f"},"vehicle_type_id":"4","last_reported":1736838481,"current_range_meters":8800,"station_id":"ce4bhh92rcd13ifvqfh0","pricing_plan_id":"cebpf4jnsgd1na2vs0mg"},{"bike_id":"aa33637b-8a82-4e98-be0e-5c5aaff6d0f9","system_id":"levelo_inurba_marseille","lat":43.29797,"lon":5.38094,"is_reserved":false,"is_disabled":false,"rental_uris":{"android":"levelo://app?vid=aa33637b-8a82-4e98-be0e-5c5aaff6d0f9","ios":"levelo://app?vid=aa33637b-8a82-4e98-be0e-5c5aaff6d0f9"},"vehicle_type_id":"4","last_reported":1736838481,"current_range_meters":38000,"station_id":"ce4bgip2rcd13ifvqbb0","pricing_plan_id":"cebpf4jnsgd1na2vs0mg"},{"bike_id":"5bb5758f-37be-496e-ac0a-3712e6b43125","system_id":"levelo_inurba_marseille","lat":43.26205,"lon":5.37924,"is_reserved":false,"is_disabled":false,"rental_uris":{"android":"levelo://app?vid=5bb5758f-37be-496e-ac0a-3712e6b43125","ios":"levelo://app?vid=5bb5758f-37be-496e-ac0a-3712e6b43125"},"vehicle_type_id":"4","last_reported":1736838481,"current_range_meters":38800,"station_id":"ce4bhjp2rcd13ifvqg90","pricing_plan_id":"cebpf4jnsgd1na2vs0mg"},{"bike_id":"fbdc1be9-0896-4827-9983-8a84e7013511","system_id":"levelo_inurba_marseille","lat":43.252039,"lon":5.39095,"is_reserved":false,"is_disabled":false,"rental_uris":{"android":"levelo://app?vid=fbdc1be9-0896-4827-9983-8a84e7013511","ios":"levelo://app?vid=fbdc1be9-0896-4827-9983-8a84e7013511"},"vehicle_type_id":"4","last_reported":1736838481,"current_range_meters":32800,"station_id":"","pricing_plan_id":"cebpf4jnsgd1na2vs0mg"},{"bike_id":"6543972d-0761-4196-9099-00fe131ba5b9","system_id":"levelo_inurba_marseille","lat":43.30588,"lon":5.39355,"is_reserved":false,"is_disabled":false,"rental_uris":{"android":"levelo://app?vid=6543972d-0761-4196-9099-00fe131ba5b9","ios":"levelo://app?vid=6543972d-0761-4196-9099-00fe131ba5b9"},"vehicle_type_id":"4","last_reported":1736838481,"current_range_meters":25600,"station_id":"ce4bh0p2rcd13ifvqd80","pricing_plan_id":"cebpf4jnsgd1na2vs0mg"},{"bike_id":"5404f601-338b-42b6-b222-0f8e6658aff2","system_id":"levelo_inurba_marseille","lat":43.286943,"lon":5.373926,"is_reserved":false,"is_disabled":false,"rental_uris":{"android":"levelo://app?vid=5404f601-338b-42b6-b222-0f8e6658aff2","ios":"levelo://app?vid=5404f601-338b-42b6-b222-0f8e6658aff2"},"vehicle_type_id":"4","last_reported":1736838481,"current_range_meters":19600,"station_id":"ce4bh3p2rcd13ifvqdq0","pricing_plan_id":"cebpf4jnsgd1na2vs0mg"},{"bike_id":"962cc5cc-fec7-46f8-84df-102fbfaf51f6","system_id":"levelo_inurba_marseille","lat":43.25929,"lon":5.40918,"is_reserved":false,"is_disabled":false,"rental_uris":{"android":"levelo://app?vid=962cc5cc-fec7-46f8-84df-102fbfaf51f6","ios":"levelo://app?vid=962cc5cc-fec7-46f8-84df-102fbfaf51f6"},"vehicle_type_id":"4","last_reported":1736838481,"current_range_meters":38400,"station_id":"ce4bhm92rcd13ifvqglg","pricing_plan_id":"cebpf4jnsgd1na2vs0mg"},{"bike_id":"82a6ba22-4fb6-4762-a475-80b36233bd6a","system_id":"levelo_inurba_marseille","lat":43.29779,"lon":5.39359,"is_reserved":false,"is_disabled":false,"rental_uris":{"android":"levelo://app?vid=82a6ba22-4fb6-4762-a475-80b36233bd6a","ios":"levelo://app?vid=82a6ba22-4fb6-4762-a475-80b36233bd6a"},"vehicle_type_id":"4","last_reported":1736838481,"current_range_meters":38800,"station_id":"chh1huq6cuj3fo74tm60","pricing_plan_id":"cebpf4jnsgd1na2vs0mg"},{"bike_id":"766fcbc5-2274-4a2f-90b2-b81c8e781bf8","system_id":"levelo_inurba_marseille","lat":43.29623,"lon":5.37716,"is_reserved":false,"is_disabled":false,"rental_uris":{"android":"levelo://app?vid=766fcbc5-2274-4a2f-90b2-b81c8e781bf8","ios":"levelo://app?vid=766fcbc5-2274-4a2f-90b2-b81c8e781bf8"},"vehicle_type_id":"4","last_reported":1736838481,"current_range_meters":34800,"station_id":"ce4bgi92rcd13ifvqb90","pricing_plan_id":"cebpf4jnsgd1na2vs0mg"},{"bike_id":"34ab4a2c-1cfd-44bc-8a6f-9e19f16ad438","system_id":"levelo_inurba_marseille","lat":43.27995,"lon":5.40016,"is_reserved":false,"is_disabled":false,"rental_uris":{"android":"levelo://app?vid=34ab4a2c-1cfd-44bc-8a6f-9e19f16ad438","ios":"levelo://app?vid=34ab4a2c-1cfd-44bc-8a6f-9e19f16ad438"},"vehicle_type_id":"4","last_reported":1736838481,"current_range_meters":24400,"station_id":"ce4bho92rcd13ifvqh4g","pricing_plan_id":"cebpf4jnsgd1na2vs0mg"},{"bike_id":"65e85a03-cf3e-4519-b8a8-200c5bb1b0c9","system_id":"levelo_inurba_marseille","lat":43.26199,"lon":5.37937,"is_reserved":false,"is_disabled":false,"rental_uris":{"android":"levelo://app?vid=65e85a03-cf3e-4519-b8a8-200c5bb1b0c9","ios":"levelo://app?vid=65e85a03-cf3e-4519-b8a8-200c5bb1b0c9"},"vehicle_type_id":"4","last_reported":1736838481,"current_range_meters":38000,"station_id":"ce4bhjp2rcd13ifvqg90","pricing_plan_id":"cebpf4jnsgd1na2vs0mg"},{"bike_id":"25201559-3be6-490e-b049-639df5366fcd","system_id":"levelo_inurba_marseille","lat":43.29971,"lon":5.38472,"is_reserved":false,"is_disabled":true,"rental_uris":{"android":"levelo://app?vid=25201559-3be6-490e-b049-639df5366fcd","ios":"levelo://app?vid=25201559-3be6-490e-b049-639df5366fcd"},"vehicle_type_id":"4","last_reported":1736838481,"current_range_meters":37600,"station_id":"ce4bgj92rcd13ifvqbd0","pricing_plan_id":"cebpf4jnsgd1na2vs0mg"},{"bike_id":"94440fca-9d66-4315-a057-b48311229f6d","system_id":"levelo_inurba_marseille","lat":43.33617,"lon":5.41019,"is_reserved":false,"is_disabled":true,"rental_uris":{"android":"levelo://app?vid=94440fca-9d66-4315-a057-b48311229f6d","ios":"levelo://app?vid=94440fca-9d66-4315-a057-b48311229f6d"},"vehicle_type_id":"4","last_reported":1736838481,"current_range_meters":35600,"station_id":"ce4bhqh2rcd13ifvqhmg","pricing_plan_id":"cebpf4jnsgd1na2vs0mg"},{"bike_id":"a2faf94a-ac42-466f-a186-76014e1ad540","system_id":"levelo_inurba_marseille","lat":43.30592,"lon":5.39371,"is_reserved":false,"is_disabled":false,"rental_uris":{"android":"levelo://app?vid=a2faf94a-ac42-466f-a186-76014e1ad540","ios":"levelo://app?vid=a2faf94a-ac42-466f-a186-76014e1ad540"},"vehicle_type_id":"4","last_reported":1736838481,"current_range_meters":38000,"station_id":"ce4bh0p2rcd13ifvqd80","pricing_plan_id":"cebpf4jnsgd1na2vs0mg"},{"bike_id":"7d3aae48-febe-4e36-ac3b-4c55d203abfb","system_id":"levelo_inurba_marseille","lat":43.28943,"lon":5.39631,"is_reserved":false,"is_disabled":false,"rental_uris":{"android":"levelo://app?vid=7d3aae48-febe-4e36-ac3b-4c55d203abfb","ios":"levelo://app?vid=7d3aae48-febe-4e36-ac3b-4c55d203abfb"},"vehicle_type_id":"4","last_reported":1736838481,"current_range_meters":8000,"station_id":"ce4bh3h2rcd13ifvqdn0","pricing_plan_id":"cebpf4jnsgd1na2vs0mg"},{"bike_id":"6a8dc65c-8c47-4239-8815-8efa2acdc338","system_id":"levelo_inurba_marseille","lat":43.279981,"lon":5.416535,"is_reserved":false,"is_disabled":true,"rental_uris":{"android":"levelo://app?vid=6a8dc65c-8c47-4239-8815-8efa2acdc338","ios":"levelo://app?vid=6a8dc65c-8c47-4239-8815-8efa2acdc338"},"vehicle_type_id":"4","last_reported":1736838481,"current_range_meters":0,"station_id":"ce4bho12rcd13ifvqh1g","pricing_plan_id":"cebpf4jnsgd1na2vs0mg"},{"bike_id":"52eb8685-aa4f-4a32-8125-c5f597ab8128","system_id":"levelo_inurba_marseille","lat":43.30596,"lon":5.39361,"is_reserved":false,"is_disabled":false,"rental_uris":{"android":"levelo://app?vid=52eb8685-aa4f-4a32-8125-c5f597ab8128","ios":"levelo://app?vid=52eb8685-aa4f-4a32-8125-c5f597ab8128"},"vehicle_type_id":"4","last_reported":1736838481,"current_range_meters":18800,"station_id":"ce4bh0p2rcd13ifvqd80","pricing_plan_id":"cebpf4jnsgd1na2vs0mg"},{"bike_id":"94d00723-79f7-443c-bc62-0c89ddbb1d1c","system_id":"levelo_inurba_marseille","lat":43.28154,"lon":5.42616,"is_reserved":false,"is_disabled":true,"rental_uris":{"android":"levelo://app?vid=94d00723-79f7-443c-bc62-0c89ddbb1d1c","ios":"levelo://app?vid=94d00723-79f7-443c-bc62-0c89ddbb1d1c"},"vehicle_type_id":"4","last_reported":1736838481,"current_range_meters":17200,"station_id":"ce4bhnh2rcd13ifvqgug","pricing_plan_id":"cebpf4jnsgd1na2vs0mg"},{"bike_id":"c0e03a6d-7718-4e89-a31d-4257cb0ed095","system_id":"levelo_inurba_marseille","lat":43.290424,"lon":5.359154,"is_reserved":false,"is_disabled":false,"rental_uris":{"android":"levelo://app?vid=c0e03a6d-7718-4e89-a31d-4257cb0ed095","ios":"levelo://app?vid=c0e03a6d-7718-4e89-a31d-4257cb0ed095"},"vehicle_type_id":"4","last_reported":1736838481,"current_range_meters":30400,"station_id":"ce4bha92rcd13ifvqeg0","pricing_plan_id":"cebpf4jnsgd1na2vs0mg"},{"bike_id":"86872141-c0f5-4c90-9e74-cc1fb1d57e3f","system_id":"levelo_inurba_marseille","lat":43.28474,"lon":5.38408,"is_reserved":false,"is_disabled":false,"rental_uris":{"android":"levelo://app?vid=86872141-c0f5-4c90-9e74-cc1fb1d57e3f","ios":"levelo://app?vid=86872141-c0f5-4c90-9e74-cc1fb1d57e3f"},"vehicle_type_id":"4","last_reported":1736838481,"current_range_meters":39200,"station_id":"ce4bh512rcd13ifvqe3g","pricing_plan_id":"cebpf4jnsgd1na2vs0mg"},{"bike_id":"e35d110b-0ca6-4c99-b711-04ba364d3860","system_id":"levelo_inurba_marseille","lat":43.23186,"lon":5.35564,"is_reserved":false,"is_disabled":false,"rental_uris":{"android":"levelo://app?vid=e35d110b-0ca6-4c99-b711-04ba364d3860","ios":"levelo://app?vid=e35d110b-0ca6-4c99-b711-04ba364d3860"},"vehicle_type_id":"4","last_reported":1736838481,"current_range_meters":36000,"station_id":"ce4bhu92rcd13ifvqi70","pricing_plan_id":"cebpf4jnsgd1na2vs0mg"},{"bike_id":"796c010e-44a8-4d56-8f5d-e25d668cd041","system_id":"levelo_inurba_marseille","lat":43.28352,"lon":5.38097,"is_reserved":false,"is_disabled":false,"rental_uris":{"android":"levelo://app?vid=796c010e-44a8-4d56-8f5d-e25d668cd041","ios":"levelo://app?vid=796c010e-44a8-4d56-8f5d-e25d668cd041"},"vehicle_type_id":"4","last_reported":1736838481,"current_range_meters":20000,"station_id":"ce4bh412rcd13ifvqdr0","pricing_plan_id":"cebpf4jnsgd1na2vs0mg"},{"bike_id":"21491938-f4d6-418d-9d69-f4fb47581529","system_id":"levelo_inurba_marseille","lat":43.31272,"lon":5.40164,"is_reserved":false,"is_disabled":false,"rental_uris":{"android":"levelo://app?vid=21491938-f4d6-418d-9d69-f4fb47581529","ios":"levelo://app?vid=21491938-f4d6-418d-9d69-f4fb47581529"},"vehicle_type_id":"4","last_reported":1736838481,"current_range_meters":38800,"station_id":"ce4bh092rcd13ifvqd30","pricing_plan_id":"cebpf4jnsgd1na2vs0mg"},{"bike_id":"97613558-e291-43dd-a8bd-232b1263cba7","system_id":"levelo_inurba_marseille","lat":43.29285,"lon":5.40122,"is_reserved":false,"is_disabled":true,"rental_uris":{"android":"levelo://app?vid=97613558-e291-43dd-a8bd-232b1263cba7","ios":"levelo://app?vid=97613558-e291-43dd-a8bd-232b1263cba7"},"vehicle_type_id":"4","last_reported":1736838481,"current_range_meters":1200,"station_id":"ce4bh312rcd13ifvqdk0","pricing_plan_id":"cebpf4jnsgd1na2vs0mg"},{"bike_id":"04242d7d-6524-4840-9376-c0bce1fa64bb","system_id":"levelo_inurba_marseille","lat":43.25493,"lon":5.37643,"is_reserved":false,"is_disabled":false,"rental_uris":{"android":"levelo://app?vid=04242d7d-6524-4840-9376-c0bce1fa64bb","ios":"levelo://app?vid=04242d7d-6524-4840-9376-c0bce1fa64bb"},"vehicle_type_id":"4","last_reported":1736838481,"current_range_meters":12800,"station_id":"ce4bhh12rcd13ifvqff0","pricing_plan_id":"cebpf4jnsgd1na2vs0mg"},{"bike_id":"87ecfd66-ef43-4d79-bb7a-de8e0aaaaf45","system_id":"levelo_inurba_marseille","lat":43.26946,"lon":5.38625,"is_reserved":false,"is_disabled":false,"rental_uris":{"android":"levelo://app?vid=87ecfd66-ef43-4d79-bb7a-de8e0aaaaf45","ios":"levelo://app?vid=87ecfd66-ef43-4d79-bb7a-de8e0aaaaf45"},"vehicle_type_id":"4","last_reported":1736838481,"current_range_meters":26800,"station_id":"ce4bhh92rcd13ifvqfh0","pricing_plan_id":"cebpf4jnsgd1na2vs0mg"},{"bike_id":"4ff57719-03f4-47bd-8538-0e0467c2c848","system_id":"levelo_inurba_marseille","lat":43.2587,"lon":5.39907,"is_reserved":false,"is_disabled":false,"rental_uris":{"android":"levelo://app?vid=4ff57719-03f4-47bd-8538-0e0467c2c848","ios":"levelo://app?vid=4ff57719-03f4-47bd-8538-0e0467c2c848"},"vehicle_type_id":"4","last_reported":1736838481,"current_range_meters":20800,"station_id":"ce4bhl92rcd13ifvqghg","pricing_plan_id":"cebpf4jnsgd1na2vs0mg"},{"bike_id":"7855b5cd-fbd6-4d6d-8731-19c257408fa0","system_id":"levelo_inurba_marseille","lat":43.2419,"lon":5.39728,"is_reserved":false,"is_disabled":false,"rental_uris":{"android":"levelo://app?vid=7855b5cd-fbd6-4d6d-8731-19c257408fa0","ios":"levelo://app?vid=7855b5cd-fbd6-4d6d-8731-19c257408fa0"},"vehicle_type_id":"4","last_reported":1736838481,"current_range_meters":27600,"station_id":"ce4bhn12rcd13ifvqgpg","pricing_plan_id":"cebpf4jnsgd1na2vs0mg"},{"bike_id":"b6bffee2-c6ed-4aa9-9fd9-c15567787e8b","system_id":"levelo_inurba_marseille","lat":43.30387,"lon":5.41304,"is_reserved":false,"is_disabled":false,"rental_uris":{"android":"levelo://app?vid=b6bffee2-c6ed-4aa9-9fd9-c15567787e8b","ios":"levelo://app?vid=b6bffee2-c6ed-4aa9-9fd9-c15567787e8b"},"vehicle_type_id":"4","last_reported":1736838481,"current_range_meters":38800,"station_id":"ce4bhop2rcd13ifvqh8g","pricing_plan_id":"cebpf4jnsgd1na2vs0mg"},{"bike_id":"c8e997c0-8580-4d0f-8d9f-0766596381e1","system_id":"levelo_inurba_marseille","lat":43.34014,"lon":5.37548,"is_reserved":false,"is_disabled":true,"rental_uris":{"android":"levelo://app?vid=c8e997c0-8580-4d0f-8d9f-0766596381e1","ios":"levelo://app?vid=c8e997c0-8580-4d0f-8d9f-0766596381e1"},"vehicle_type_id":"4","last_reported":1736838481,"current_range_meters":0,"station_id":"","pricing_plan_id":"cebpf4jnsgd1na2vs0mg"},{"bike_id":"b3f2c5a8-957b-4f42-84ac-8f18f141282e","system_id":"levelo_inurba_marseille","lat":43.30907,"lon":5.36837,"is_reserved":false,"is_disabled":false,"rental_uris":{"android":"levelo://app?vid=b3f2c5a8-957b-4f42-84ac-8f18f141282e","ios":"levelo://app?vid=b3f2c5a8-957b-4f42-84ac-8f18f141282e"},"vehicle_type_id":"4","last_reported":1736838481,"current_range_meters":20800,"station_id":"ce4bgn92rcd13ifvqbvg","pricing_plan_id":"cebpf4jnsgd1na2vs0mg"},{"bike_id":"5e16ec8e-2e42-41a5-98c3-d7ec14fc7cea","system_id":"levelo_inurba_marseille","lat":43.23152,"lon":5.43712,"is_reserved":false,"is_disabled":false,"rental_uris":{"android":"levelo://app?vid=5e16ec8e-2e42-41a5-98c3-d7ec14fc7cea","ios":"levelo://app?vid=5e16ec8e-2e42-41a5-98c3-d7ec14fc7cea"},"vehicle_type_id":"4","last_reported":1736838481,"current_range_meters":6800,"station_id":"ce4bhmp2rcd13ifvqgog","pricing_plan_id":"cebpf4jnsgd1na2vs0mg"},{"bike_id":"ba5df164-d25c-4a1c-8679-1bd1a1db0642","system_id":"levelo_inurba_marseille","lat":43.3373,"lon":5.39193,"is_reserved":false,"is_disabled":false,"rental_uris":{"android":"levelo://app?vid=ba5df164-d25c-4a1c-8679-1bd1a1db0642","ios":"levelo://app?vid=ba5df164-d25c-4a1c-8679-1bd1a1db0642"},"vehicle_type_id":"4","last_reported":1736838481,"current_range_meters":36800,"station_id":"ce4bhr92rcd13ifvqhsg","pricing_plan_id":"cebpf4jnsgd1na2vs0mg"},{"bike_id":"ee3a8e62-9612-4383-a90d-e2bce1f472cd","system_id":"levelo_inurba_marseille","lat":43.27939,"lon":5.41545,"is_reserved":false,"is_disabled":false,"rental_uris":{"android":"levelo://app?vid=ee3a8e62-9612-4383-a90d-e2bce1f472cd","ios":"levelo://app?vid=ee3a8e62-9612-4383-a90d-e2bce1f472cd"},"vehicle_type_id":"4","last_reported":1736838481,"current_range_meters":18800,"station_id":"","pricing_plan_id":"cebpf4jnsgd1na2vs0mg"},{"bike_id":"f2d10143-3d8a-44b4-986d-b5c5dab280b3","system_id":"levelo_inurba_marseille","lat":43.2869,"lon":5.37378,"is_reserved":false,"is_disabled":false,"rental_uris":{"android":"levelo://app?vid=f2d10143-3d8a-44b4-986d-b5c5dab280b3","ios":"levelo://app?vid=f2d10143-3d8a-44b4-986d-b5c5dab280b3"},"vehicle_type_id":"4","last_reported":1736838481,"current_range_meters":16400,"station_id":"ce4bh3p2rcd13ifvqdq0","pricing_plan_id":"cebpf4jnsgd1na2vs0mg"},{"bike_id":"d2b56ef2-e218-46a7-807e-26e0bb49d74c","system_id":"levelo_inurba_marseille","lat":43.28717,"lon":5.37933,"is_reserved":false,"is_disabled":false,"rental_uris":{"android":"levelo://app?vid=d2b56ef2-e218-46a7-807e-26e0bb49d74c","ios":"levelo://app?vid=d2b56ef2-e218-46a7-807e-26e0bb49d74c"},"vehicle_type_id":"4","last_reported":1736838481,"current_range_meters":2800,"station_id":"ce4bh9p2rcd13ifvqec0","pricing_plan_id":"cebpf4jnsgd1na2vs0mg"},{"bike_id":"1e72500a-a638-4270-b0f0-d3bef5f78eaa","system_id":"levelo_inurba_marseille","lat":43.23152,"lon":5.43715,"is_reserved":false,"is_disabled":false,"rental_uris":{"android":"levelo://app?vid=1e72500a-a638-4270-b0f0-d3bef5f78eaa","ios":"levelo://app?vid=1e72500a-a638-4270-b0f0-d3bef5f78eaa"},"vehicle_type_id":"4","last_reported":1736838481,"current_range_meters":17600,"station_id":"ce4bhmp2rcd13ifvqgog","pricing_plan_id":"cebpf4jnsgd1na2vs0mg"},{"bike_id":"7dd5dd5e-1d75-4c5b-b5b8-248a34302cca","system_id":"levelo_inurba_marseille","lat":43.304623,"lon":5.378987,"is_reserved":false,"is_disabled":true,"rental_uris":{"android":"levelo://app?vid=7dd5dd5e-1d75-4c5b-b5b8-248a34302cca","ios":"levelo://app?vid=7dd5dd5e-1d75-4c5b-b5b8-248a34302cca"},"vehicle_type_id":"4","last_reported":1736838481,"current_range_meters":24000,"station_id":"ce4bgup2rcd13ifvqcn0","pricing_plan_id":"cebpf4jnsgd1na2vs0mg"},{"bike_id":"9ff45d91-29d6-4e2b-a952-c5923c490e28","system_id":"levelo_inurba_marseille","lat":43.26031,"lon":5.37552,"is_reserved":false,"is_disabled":false,"rental_uris":{"android":"levelo://app?vid=9ff45d91-29d6-4e2b-a952-c5923c490e28","ios":"levelo://app?vid=9ff45d91-29d6-4e2b-a952-c5923c490e28"},"vehicle_type_id":"4","last_reported":1736838481,"current_range_meters":38000,"station_id":"ce4bhgh2rcd13ifvqfa0","pricing_plan_id":"cebpf4jnsgd1na2vs0mg"},{"bike_id":"d85a1d9b-f035-4b2a-858c-2526acab5ed6","system_id":"levelo_inurba_marseille","lat":43.30156,"lon":5.37425,"is_reserved":false,"is_disabled":true,"rental_uris":{"android":"levelo://app?vid=d85a1d9b-f035-4b2a-858c-2526acab5ed6","ios":"levelo://app?vid=d85a1d9b-f035-4b2a-858c-2526acab5ed6"},"vehicle_type_id":"4","last_reported":1736838481,"current_range_meters":36000,"station_id":"ce4bgs92rcd13ifvqcc0","pricing_plan_id":"cebpf4jnsgd1na2vs0mg"},{"bike_id":"71bc6d5c-f520-419f-88bb-53326f05b4e2","system_id":"levelo_inurba_marseille","lat":43.24072,"lon":5.37764,"is_reserved":false,"is_disabled":false,"rental_uris":{"android":"levelo://app?vid=71bc6d5c-f520-419f-88bb-53326f05b4e2","ios":"levelo://app?vid=71bc6d5c-f520-419f-88bb-53326f05b4e2"},"vehicle_type_id":"4","last_reported":1736838481,"current_range_meters":21600,"station_id":"ce4bhnp2rcd13ifvqgvg","pricing_plan_id":"cebpf4jnsgd1na2vs0mg"},{"bike_id":"5901f4de-f320-42a7-a3ee-cdd54016ad77","system_id":"levelo_inurba_marseille","lat":43.27977,"lon":5.38717,"is_reserved":false,"is_disabled":false,"rental_uris":{"android":"levelo://app?vid=5901f4de-f320-42a7-a3ee-cdd54016ad77","ios":"levelo://app?vid=5901f4de-f320-42a7-a3ee-cdd54016ad77"},"vehicle_type_id":"4","last_reported":1736838481,"current_range_meters":39200,"station_id":"ce4bhg12rcd13ifvqf80","pricing_plan_id":"cebpf4jnsgd1na2vs0mg"},{"bike_id":"42cfeef1-ded8-43ac-8888-284da4376b57","system_id":"levelo_inurba_marseille","lat":43.32476,"lon":5.36536,"is_reserved":false,"is_disabled":false,"rental_uris":{"android":"levelo://app?vid=42cfeef1-ded8-43ac-8888-284da4376b57","ios":"levelo://app?vid=42cfeef1-ded8-43ac-8888-284da4376b57"},"vehicle_type_id":"4","last_reported":1736838481,"current_range_meters":28800,"station_id":"ce4bhs12rcd13ifvqhvg","pricing_plan_id":"cebpf4jnsgd1na2vs0mg"},{"bike_id":"c914e9c6-6e6b-4dbd-afce-1f90576b3e13","system_id":"levelo_inurba_marseille","lat":43.31703,"lon":5.40468,"is_reserved":false,"is_disabled":false,"rental_uris":{"android":"levelo://app?vid=c914e9c6-6e6b-4dbd-afce-1f90576b3e13","ios":"levelo://app?vid=c914e9c6-6e6b-4dbd-afce-1f90576b3e13"},"vehicle_type_id":"4","last_reported":1736838481,"current_range_meters":8400,"station_id":"ce4bh012rcd13ifvqd00","pricing_plan_id":"cebpf4jnsgd1na2vs0mg"},{"bike_id":"6ba8d844-4be9-4966-b91c-0b5bcfe6a94b","system_id":"levelo_inurba_marseille","lat":43.29173,"lon":5.37089,"is_reserved":false,"is_disabled":true,"rental_uris":{"android":"levelo://app?vid=6ba8d844-4be9-4966-b91c-0b5bcfe6a94b","ios":"levelo://app?vid=6ba8d844-4be9-4966-b91c-0b5bcfe6a94b"},"vehicle_type_id":"4","last_reported":1736838481,"current_range_meters":38000,"station_id":"ce4bha92rcd13ifvqeh0","pricing_plan_id":"cebpf4jnsgd1na2vs0mg"},{"bike_id":"9ad50848-99be-46c4-9e13-59516141e94e","system_id":"levelo_inurba_marseille","lat":43.31711,"lon":5.37754,"is_reserved":false,"is_disabled":false,"rental_uris":{"android":"levelo://app?vid=9ad50848-99be-46c4-9e13-59516141e94e","ios":"levelo://app?vid=9ad50848-99be-46c4-9e13-59516141e94e"},"vehicle_type_id":"4","last_reported":1736838481,"current_range_meters":36800,"station_id":"ce4bgth2rcd13ifvqch0","pricing_plan_id":"cebpf4jnsgd1na2vs0mg"},{"bike_id":"59d914a9-7941-4d0c-ad3f-66ae0befc663","system_id":"levelo_inurba_marseille","lat":43.28028,"lon":5.36963,"is_reserved":false,"is_disabled":false,"rental_uris":{"android":"levelo://app?vid=59d914a9-7941-4d0c-ad3f-66ae0befc663","ios":"levelo://app?vid=59d914a9-7941-4d0c-ad3f-66ae0befc663"},"vehicle_type_id":"4","last_reported":1736838481,"current_range_meters":8400,"station_id":"ce4bha12rcd13ifvqef0","pricing_plan_id":"cebpf4jnsgd1na2vs0mg"},{"bike_id":"426ee80e-06b0-4d0f-86a5-ea8ad64aaa11","system_id":"levelo_inurba_marseille","lat":43.289121,"lon":5.437702,"is_reserved":false,"is_disabled":false,"rental_uris":{"android":"levelo://app?vid=426ee80e-06b0-4d0f-86a5-ea8ad64aaa11","ios":"levelo://app?vid=426ee80e-06b0-4d0f-86a5-ea8ad64aaa11"},"vehicle_type_id":"4","last_reported":1736838481,"current_range_meters":6800,"station_id":"","pricing_plan_id":"cebpf4jnsgd1na2vs0mg"},{"bike_id":"1d330b5a-d9b7-41e9-9604-ad128471ef9e","system_id":"levelo_inurba_marseille","lat":43.28486,"lon":5.38421,"is_reserved":false,"is_disabled":false,"rental_uris":{"android":"levelo://app?vid=1d330b5a-d9b7-41e9-9604-ad128471ef9e","ios":"levelo://app?vid=1d330b5a-d9b7-41e9-9604-ad128471ef9e"},"vehicle_type_id":"4","last_reported":1736838481,"current_range_meters":32000,"station_id":"ce4bh512rcd13ifvqe3g","pricing_plan_id":"cebpf4jnsgd1na2vs0mg"},{"bike_id":"0df811df-67ee-43a6-b3b1-032dde1159a3","system_id":"levelo_inurba_marseille","lat":43.27208,"lon":5.39189,"is_reserved":false,"is_disabled":false,"rental_uris":{"android":"levelo://app?vid=0df811df-67ee-43a6-b3b1-032dde1159a3","ios":"levelo://app?vid=0df811df-67ee-43a6-b3b1-032dde1159a3"},"vehicle_type_id":"4","last_reported":1736838481,"current_range_meters":6800,"station_id":"ce4bhhp2rcd13ifvqfm0","pricing_plan_id":"cebpf4jnsgd1na2vs0mg"},{"bike_id":"b28c733a-9074-4465-b8f3-397a69876096","system_id":"levelo_inurba_marseille","lat":43.33611,"lon":5.41027,"is_reserved":false,"is_disabled":false,"rental_uris":{"android":"levelo://app?vid=b28c733a-9074-4465-b8f3-397a69876096","ios":"levelo://app?vid=b28c733a-9074-4465-b8f3-397a69876096"},"vehicle_type_id":"4","last_reported":1736838481,"current_range_meters":11200,"station_id":"ce4bhqh2rcd13ifvqhmg","pricing_plan_id":"cebpf4jnsgd1na2vs0mg"},{"bike_id":"969e27ab-5a9e-459e-9526-3b57e6f57682","system_id":"levelo_inurba_marseille","lat":43.22931,"lon":5.3539,"is_reserved":false,"is_disabled":false,"rental_uris":{"android":"levelo://app?vid=969e27ab-5a9e-459e-9526-3b57e6f57682","ios":"levelo://app?vid=969e27ab-5a9e-459e-9526-3b57e6f57682"},"vehicle_type_id":"4","last_reported":1736838481,"current_range_meters":38800,"station_id":"cpo3532slgdg3j2ikp40","pricing_plan_id":"cebpf4jnsgd1na2vs0mg"},{"bike_id":"1a0edb26-6918-425b-8387-f290be87a2c0","system_id":"levelo_inurba_marseille","lat":43.33113,"lon":5.38217,"is_reserved":false,"is_disabled":false,"rental_uris":{"android":"levelo://app?vid=1a0edb26-6918-425b-8387-f290be87a2c0","ios":"levelo://app?vid=1a0edb26-6918-425b-8387-f290be87a2c0"},"vehicle_type_id":"4","last_reported":1736838481,"current_range_meters":36400,"station_id":"","pricing_plan_id":"cebpf4jnsgd1na2vs0mg"},{"bike_id":"e15c3cd1-d175-4a5d-acad-2e63d41da217","system_id":"levelo_inurba_marseille","lat":43.29526,"lon":5.39064,"is_reserved":false,"is_disabled":false,"rental_uris":{"android":"levelo://app?vid=e15c3cd1-d175-4a5d-acad-2e63d41da217","ios":"levelo://app?vid=e15c3cd1-d175-4a5d-acad-2e63d41da217"},"vehicle_type_id":"4","last_reported":1736838481,"current_range_meters":34000,"station_id":"ce4bh3p2rcd13ifvqdp0","pricing_plan_id":"cebpf4jnsgd1na2vs0mg"},{"bike_id":"13fe195f-e01b-4420-aa12-4802e9b2b635","system_id":"levelo_inurba_marseille","lat":43.31344,"lon":5.36723,"is_reserved":false,"is_disabled":false,"rental_uris":{"android":"levelo://app?vid=13fe195f-e01b-4420-aa12-4802e9b2b635","ios":"levelo://app?vid=13fe195f-e01b-4420-aa12-4802e9b2b635"},"vehicle_type_id":"4","last_reported":1736838481,"current_range_meters":30400,"station_id":"ce4bgr92rcd13ifvqc6g","pricing_plan_id":"cebpf4jnsgd1na2vs0mg"},{"bike_id":"27017103-f97d-4d74-9944-afdabdca38be","system_id":"levelo_inurba_marseille","lat":43.30148,"lon":5.38051,"is_reserved":false,"is_disabled":false,"rental_uris":{"android":"levelo://app?vid=27017103-f97d-4d74-9944-afdabdca38be","ios":"levelo://app?vid=27017103-f97d-4d74-9944-afdabdca38be"},"vehicle_type_id":"4","last_reported":1736838481,"current_range_meters":13600,"station_id":"ce4bgjp2rcd13ifvqbh0","pricing_plan_id":"cebpf4jnsgd1na2vs0mg"},{"bike_id":"ab10846d-13f2-4f21-8075-25b6583e29b0","system_id":"levelo_inurba_marseille","lat":43.25935,"lon":5.40914,"is_reserved":false,"is_disabled":false,"rental_uris":{"android":"levelo://app?vid=ab10846d-13f2-4f21-8075-25b6583e29b0","ios":"levelo://app?vid=ab10846d-13f2-4f21-8075-25b6583e29b0"},"vehicle_type_id":"4","last_reported":1736838481,"current_range_meters":19600,"station_id":"ce4bhm92rcd13ifvqglg","pricing_plan_id":"cebpf4jnsgd1na2vs0mg"},{"bike_id":"d31ee1ee-c230-4e1e-91e4-50de4be7609e","system_id":"levelo_inurba_marseille","lat":43.32368,"lon":5.38873,"is_reserved":false,"is_disabled":true,"rental_uris":{"android":"levelo://app?vid=d31ee1ee-c230-4e1e-91e4-50de4be7609e","ios":"levelo://app?vid=d31ee1ee-c230-4e1e-91e4-50de4be7609e"},"vehicle_type_id":"4","last_reported":1736838481,"current_range_meters":8800,"station_id":"ce4bhqp2rcd13ifvqhog","pricing_plan_id":"cebpf4jnsgd1na2vs0mg"},{"bike_id":"f4dbc556-58b0-4dfd-be99-18a51c032520","system_id":"levelo_inurba_marseille","lat":43.24191,"lon":5.39695,"is_reserved":false,"is_disabled":false,"rental_uris":{"android":"levelo://app?vid=f4dbc556-58b0-4dfd-be99-18a51c032520","ios":"levelo://app?vid=f4dbc556-58b0-4dfd-be99-18a51c032520"},"vehicle_type_id":"4","last_reported":1736838481,"current_range_meters":28000,"station_id":"ce4bhn12rcd13ifvqgpg","pricing_plan_id":"cebpf4jnsgd1na2vs0mg"},{"bike_id":"6ad2c837-d646-4944-883d-bec2c51f158b","system_id":"levelo_inurba_marseille","lat":43.30154,"lon":5.38067,"is_reserved":false,"is_disabled":false,"rental_uris":{"android":"levelo://app?vid=6ad2c837-d646-4944-883d-bec2c51f158b","ios":"levelo://app?vid=6ad2c837-d646-4944-883d-bec2c51f158b"},"vehicle_type_id":"4","last_reported":1736838481,"current_range_meters":31200,"station_id":"ce4bgjp2rcd13ifvqbh0","pricing_plan_id":"cebpf4jnsgd1na2vs0mg"},{"bike_id":"18e19ed6-88d7-4622-82f3-2ff9799d04a6","system_id":"levelo_inurba_marseille","lat":43.3047,"lon":5.37908,"is_reserved":false,"is_disabled":false,"rental_uris":{"android":"levelo://app?vid=18e19ed6-88d7-4622-82f3-2ff9799d04a6","ios":"levelo://app?vid=18e19ed6-88d7-4622-82f3-2ff9799d04a6"},"vehicle_type_id":"4","last_reported":1736838481,"current_range_meters":33200,"station_id":"ce4bgup2rcd13ifvqcn0","pricing_plan_id":"cebpf4jnsgd1na2vs0mg"},{"bike_id":"e865328e-a6ed-4b87-8a90-7ebee72df0af","system_id":"levelo_inurba_marseille","lat":43.29064,"lon":5.3718,"is_reserved":false,"is_disabled":false,"rental_uris":{"android":"levelo://app?vid=e865328e-a6ed-4b87-8a90-7ebee72df0af","ios":"levelo://app?vid=e865328e-a6ed-4b87-8a90-7ebee72df0af"},"vehicle_type_id":"4","last_reported":1736838481,"current_range_meters":32400,"station_id":"ce4bh5p2rcd13ifvqe4g","pricing_plan_id":"cebpf4jnsgd1na2vs0mg"},{"bike_id":"16cd7865-ac11-4de4-aaa0-7fea3faec45b","system_id":"levelo_inurba_marseille","lat":43.29909,"lon":5.38189,"is_reserved":false,"is_disabled":false,"rental_uris":{"android":"levelo://app?vid=16cd7865-ac11-4de4-aaa0-7fea3faec45b","ios":"levelo://app?vid=16cd7865-ac11-4de4-aaa0-7fea3faec45b"},"vehicle_type_id":"4","last_reported":1736838481,"current_range_meters":38400,"station_id":"ce4bgj12rcd13ifvqbc0","pricing_plan_id":"cebpf4jnsgd1na2vs0mg"},{"bike_id":"3ab3bbf7-8c70-4649-ad84-8954557a86b5","system_id":"levelo_inurba_marseille","lat":43.27997,"lon":5.40015,"is_reserved":false,"is_disabled":false,"rental_uris":{"android":"levelo://app?vid=3ab3bbf7-8c70-4649-ad84-8954557a86b5","ios":"levelo://app?vid=3ab3bbf7-8c70-4649-ad84-8954557a86b5"},"vehicle_type_id":"4","last_reported":1736838481,"current_range_meters":28800,"station_id":"ce4bho92rcd13ifvqh4g","pricing_plan_id":"cebpf4jnsgd1na2vs0mg"},{"bike_id":"70562480-03bf-4288-bf29-49298cd9d4d1","system_id":"levelo_inurba_marseille","lat":43.24082,"lon":5.37753,"is_reserved":false,"is_disabled":false,"rental_uris":{"android":"levelo://app?vid=70562480-03bf-4288-bf29-49298cd9d4d1","ios":"levelo://app?vid=70562480-03bf-4288-bf29-49298cd9d4d1"},"vehicle_type_id":"4","last_reported":1736838481,"current_range_meters":35200,"station_id":"ce4bhnp2rcd13ifvqgvg","pricing_plan_id":"cebpf4jnsgd1na2vs0mg"},{"bike_id":"0304da49-b388-43f0-bce6-c07c0ce6b87f","system_id":"levelo_inurba_marseille","lat":43.31168,"lon":5.38722,"is_reserved":false,"is_disabled":false,"rental_uris":{"android":"levelo://app?vid=0304da49-b388-43f0-bce6-c07c0ce6b87f","ios":"levelo://app?vid=0304da49-b388-43f0-bce6-c07c0ce6b87f"},"vehicle_type_id":"4","last_reported":1736838481,"current_range_meters":38800,"station_id":"ce4bgv12rcd13ifvqcp0","pricing_plan_id":"cebpf4jnsgd1na2vs0mg"},{"bike_id":"edcb58e5-5d8f-4c45-a09b-58525f1c6d73","system_id":"levelo_inurba_marseille","lat":43.30594,"lon":5.39354,"is_reserved":false,"is_disabled":false,"rental_uris":{"android":"levelo://app?vid=edcb58e5-5d8f-4c45-a09b-58525f1c6d73","ios":"levelo://app?vid=edcb58e5-5d8f-4c45-a09b-58525f1c6d73"},"vehicle_type_id":"4","last_reported":1736838481,"current_range_meters":27600,"station_id":"ce4bh0p2rcd13ifvqd80","pricing_plan_id":"cebpf4jnsgd1na2vs0mg"},{"bike_id":"ade1ffd7-379f-44ee-93e1-8c261178e187","system_id":"levelo_inurba_marseille","lat":43.24804,"lon":5.37451,"is_reserved":false,"is_disabled":false,"rental_uris":{"android":"levelo://app?vid=ade1ffd7-379f-44ee-93e1-8c261178e187","ios":"levelo://app?vid=ade1ffd7-379f-44ee-93e1-8c261178e187"},"vehicle_type_id":"4","last_reported":1736838481,"current_range_meters":21600,"station_id":"ce4bhgh2rcd13ifvqfb0","pricing_plan_id":"cebpf4jnsgd1na2vs0mg"},{"bike_id":"9f90ab46-c373-4698-9418-c8ef5e2133b0","system_id":"levelo_inurba_marseille","lat":43.23195,"lon":5.35556,"is_reserved":false,"is_disabled":false,"rental_uris":{"android":"levelo://app?vid=9f90ab46-c373-4698-9418-c8ef5e2133b0","ios":"levelo://app?vid=9f90ab46-c373-4698-9418-c8ef5e2133b0"},"vehicle_type_id":"4","last_reported":1736838481,"current_range_meters":18000,"station_id":"ce4bhu92rcd13ifvqi70","pricing_plan_id":"cebpf4jnsgd1na2vs0mg"},{"bike_id":"7a869afa-fc4c-4b30-aea6-e0d8b156eb83","system_id":"levelo_inurba_marseille","lat":43.24675,"lon":5.38148,"is_reserved":false,"is_disabled":true,"rental_uris":{"android":"levelo://app?vid=7a869afa-fc4c-4b30-aea6-e0d8b156eb83","ios":"levelo://app?vid=7a869afa-fc4c-4b30-aea6-e0d8b156eb83"},"vehicle_type_id":"4","last_reported":1736838481,"current_range_meters":28400,"station_id":"ce4bhih2rcd13ifvqfr0","pricing_plan_id":"cebpf4jnsgd1na2vs0mg"},{"bike_id":"755e5c0a-8de7-4ee5-9d4e-5ec609711170","system_id":"levelo_inurba_marseille","lat":43.29603,"lon":5.381034,"is_reserved":false,"is_disabled":true,"rental_uris":{"android":"levelo://app?vid=755e5c0a-8de7-4ee5-9d4e-5ec609711170","ios":"levelo://app?vid=755e5c0a-8de7-4ee5-9d4e-5ec609711170"},"vehicle_type_id":"4","last_reported":1736838481,"current_range_meters":32000,"station_id":"ce4bgl12rcd13ifvqbo0","pricing_plan_id":"cebpf4jnsgd1na2vs0mg"},{"bike_id":"d5df5eea-e9d3-454e-b6dc-d3a27804762e","system_id":"levelo_inurba_marseille","lat":43.30534,"lon":5.36695,"is_reserved":false,"is_disabled":false,"rental_uris":{"android":"levelo://app?vid=d5df5eea-e9d3-454e-b6dc-d3a27804762e","ios":"levelo://app?vid=d5df5eea-e9d3-454e-b6dc-d3a27804762e"},"vehicle_type_id":"4","last_reported":1736838481,"current_range_meters":24400,"station_id":"ce4bgrp2rcd13ifvqc9g","pricing_plan_id":"cebpf4jnsgd1na2vs0mg"},{"bike_id":"11ba34ad-8618-419b-b510-3c527e1cf8c3","system_id":"levelo_inurba_marseille","lat":43.28425,"lon":5.37503,"is_reserved":false,"is_disabled":true,"rental_uris":{"android":"levelo://app?vid=11ba34ad-8618-419b-b510-3c527e1cf8c3","ios":"levelo://app?vid=11ba34ad-8618-419b-b510-3c527e1cf8c3"},"vehicle_type_id":"4","last_reported":1736838481,"current_range_meters":3200,"station_id":"ce4bh412rcd13ifvqds0","pricing_plan_id":"cebpf4jnsgd1na2vs0mg"},{"bike_id":"941fe04b-1a6d-4c0e-ae47-f67263c42d46","system_id":"levelo_inurba_marseille","lat":43.2509,"lon":5.39511,"is_reserved":false,"is_disabled":false,"rental_uris":{"android":"levelo://app?vid=941fe04b-1a6d-4c0e-ae47-f67263c42d46","ios":"levelo://app?vid=941fe04b-1a6d-4c0e-ae47-f67263c42d46"},"vehicle_type_id":"4","last_reported":1736838481,"current_range_meters":8000,"station_id":"ce4bhm12rcd13ifvqgkg","pricing_plan_id":"cebpf4jnsgd1na2vs0mg"},{"bike_id":"dc033de7-fdfc-4d6e-81d0-725cd793a634","system_id":"levelo_inurba_marseille","lat":43.28356,"lon":5.38083,"is_reserved":false,"is_disabled":false,"rental_uris":{"android":"levelo://app?vid=dc033de7-fdfc-4d6e-81d0-725cd793a634","ios":"levelo://app?vid=dc033de7-fdfc-4d6e-81d0-725cd793a634"},"vehicle_type_id":"4","last_reported":1736838481,"current_range_meters":28800,"station_id":"ce4bh412rcd13ifvqdr0","pricing_plan_id":"cebpf4jnsgd1na2vs0mg"},{"bike_id":"a15980ac-c225-4e68-8982-6cc8c4cbfd79","system_id":"levelo_inurba_marseille","lat":43.23191,"lon":5.3556,"is_reserved":false,"is_disabled":false,"rental_uris":{"android":"levelo://app?vid=a15980ac-c225-4e68-8982-6cc8c4cbfd79","ios":"levelo://app?vid=a15980ac-c225-4e68-8982-6cc8c4cbfd79"},"vehicle_type_id":"4","last_reported":1736838481,"current_range_meters":6800,"station_id":"ce4bhu92rcd13ifvqi70","pricing_plan_id":"cebpf4jnsgd1na2vs0mg"},{"bike_id":"ddb6fc04-2855-4930-8852-76b4803d8a8c","system_id":"levelo_inurba_marseille","lat":43.28729,"lon":5.36086,"is_reserved":false,"is_disabled":false,"rental_uris":{"android":"levelo://app?vid=ddb6fc04-2855-4930-8852-76b4803d8a8c","ios":"levelo://app?vid=ddb6fc04-2855-4930-8852-76b4803d8a8c"},"vehicle_type_id":"4","last_reported":1736838481,"current_range_meters":27600,"station_id":"cki0cbj6b192h4jlfktg","pricing_plan_id":"cebpf4jnsgd1na2vs0mg"},{"bike_id":"45910403-43fe-46b0-8271-3ee82162b96d","system_id":"levelo_inurba_marseille","lat":43.28463,"lon":5.35882,"is_reserved":false,"is_disabled":false,"rental_uris":{"android":"levelo://app?vid=45910403-43fe-46b0-8271-3ee82162b96d","ios":"levelo://app?vid=45910403-43fe-46b0-8271-3ee82162b96d"},"vehicle_type_id":"4","last_reported":1736838481,"current_range_meters":38800,"station_id":"ce4bhah2rcd13ifvqei0","pricing_plan_id":"cebpf4jnsgd1na2vs0mg"},{"bike_id":"985c1c01-e0fb-4b6e-8af5-6b2ea74c2b5d","system_id":"levelo_inurba_marseille","lat":43.27497,"lon":5.42466,"is_reserved":false,"is_disabled":false,"rental_uris":{"android":"levelo://app?vid=985c1c01-e0fb-4b6e-8af5-6b2ea74c2b5d","ios":"levelo://app?vid=985c1c01-e0fb-4b6e-8af5-6b2ea74c2b5d"},"vehicle_type_id":"4","last_reported":1736838481,"current_range_meters":24800,"station_id":"ce4bhn92rcd13ifvqgrg","pricing_plan_id":"cebpf4jnsgd1na2vs0mg"},{"bike_id":"3b74a056-c0cf-4f44-8772-22ed33115fcd","system_id":"levelo_inurba_marseille","lat":43.23188,"lon":5.399742,"is_reserved":false,"is_disabled":false,"rental_uris":{"android":"levelo://app?vid=3b74a056-c0cf-4f44-8772-22ed33115fcd","ios":"levelo://app?vid=3b74a056-c0cf-4f44-8772-22ed33115fcd"},"vehicle_type_id":"4","last_reported":1736838481,"current_range_meters":9200,"station_id":"ce4bhn12rcd13ifvqgqg","pricing_plan_id":"cebpf4jnsgd1na2vs0mg"},{"bike_id":"00d35b81-6026-4ccf-b684-050116ad01f2","system_id":"levelo_inurba_marseille","lat":43.30866,"lon":5.39646,"is_reserved":false,"is_disabled":false,"rental_uris":{"android":"levelo://app?vid=00d35b81-6026-4ccf-b684-050116ad01f2","ios":"levelo://app?vid=00d35b81-6026-4ccf-b684-050116ad01f2"},"vehicle_type_id":"4","last_reported":1736838481,"current_range_meters":33200,"station_id":"ce4bh012rcd13ifvqcv0","pricing_plan_id":"cebpf4jnsgd1na2vs0mg"},{"bike_id":"15a123e3-426a-48a6-856c-4ff934808257","system_id":"levelo_inurba_marseille","lat":43.29617,"lon":5.37711,"is_reserved":false,"is_disabled":false,"rental_uris":{"android":"levelo://app?vid=15a123e3-426a-48a6-856c-4ff934808257","ios":"levelo://app?vid=15a123e3-426a-48a6-856c-4ff934808257"},"vehicle_type_id":"4","last_reported":1736838481,"current_range_meters":29600,"station_id":"ce4bgi92rcd13ifvqb90","pricing_plan_id":"cebpf4jnsgd1na2vs0mg"},{"bike_id":"7a6c262a-cea0-4455-9870-5049b5036297","system_id":"levelo_inurba_marseille","lat":43.24085,"lon":5.37757,"is_reserved":false,"is_disabled":false,"rental_uris":{"android":"levelo://app?vid=7a6c262a-cea0-4455-9870-5049b5036297","ios":"levelo://app?vid=7a6c262a-cea0-4455-9870-5049b5036297"},"vehicle_type_id":"4","last_reported":1736838481,"current_range_meters":16400,"station_id":"ce4bhnp2rcd13ifvqgvg","pricing_plan_id":"cebpf4jnsgd1na2vs0mg"},{"bike_id":"5d82b5f7-e9e4-4b0c-9f65-91fa3cf2a2ad","system_id":"levelo_inurba_marseille","lat":43.30252,"lon":5.40071,"is_reserved":false,"is_disabled":false,"rental_uris":{"android":"levelo://app?vid=5d82b5f7-e9e4-4b0c-9f65-91fa3cf2a2ad","ios":"levelo://app?vid=5d82b5f7-e9e4-4b0c-9f65-91fa3cf2a2ad"},"vehicle_type_id":"4","last_reported":1736838481,"current_range_meters":37600,"station_id":"ce4bgvh2rcd13ifvqcs0","pricing_plan_id":"cebpf4jnsgd1na2vs0mg"},{"bike_id":"624b203e-0276-4de2-b849-578c5a78720d","system_id":"levelo_inurba_marseille","lat":43.29279,"lon":5.40114,"is_reserved":false,"is_disabled":false,"rental_uris":{"android":"levelo://app?vid=624b203e-0276-4de2-b849-578c5a78720d","ios":"levelo://app?vid=624b203e-0276-4de2-b849-578c5a78720d"},"vehicle_type_id":"4","last_reported":1736838481,"current_range_meters":35600,"station_id":"ce4bh312rcd13ifvqdk0","pricing_plan_id":"cebpf4jnsgd1na2vs0mg"},{"bike_id":"51bb6953-dea8-4e82-96bf-52696267905f","system_id":"levelo_inurba_marseille","lat":43.230608,"lon":5.35491,"is_reserved":false,"is_disabled":false,"rental_uris":{"android":"levelo://app?vid=51bb6953-dea8-4e82-96bf-52696267905f","ios":"levelo://app?vid=51bb6953-dea8-4e82-96bf-52696267905f"},"vehicle_type_id":"4","last_reported":1736838481,"current_range_meters":8800,"station_id":"cpo3342slgdg3j2ifvpg","pricing_plan_id":"cebpf4jnsgd1na2vs0mg"},{"bike_id":"0b88dd1c-32d6-4985-9dce-334e64f85142","system_id":"levelo_inurba_marseille","lat":43.29034,"lon":5.39962,"is_reserved":false,"is_disabled":false,"rental_uris":{"android":"levelo://app?vid=0b88dd1c-32d6-4985-9dce-334e64f85142","ios":"levelo://app?vid=0b88dd1c-32d6-4985-9dce-334e64f85142"},"vehicle_type_id":"4","last_reported":1736838481,"current_range_meters":30400,"station_id":"ce4bh392rcd13ifvqdm0","pricing_plan_id":"cebpf4jnsgd1na2vs0mg"},{"bike_id":"ba1fe761-33cd-4480-91c0-d6193a980470","system_id":"levelo_inurba_marseille","lat":43.2858,"lon":5.39473,"is_reserved":false,"is_disabled":false,"rental_uris":{"android":"levelo://app?vid=ba1fe761-33cd-4480-91c0-d6193a980470","ios":"levelo://app?vid=ba1fe761-33cd-4480-91c0-d6193a980470"},"vehicle_type_id":"4","last_reported":1736838481,"current_range_meters":36000,"station_id":"ce4bh292rcd13ifvqdg0","pricing_plan_id":"cebpf4jnsgd1na2vs0mg"},{"bike_id":"dc388f0e-5ba4-4401-b2b7-3e59da087469","system_id":"levelo_inurba_marseille","lat":43.28614,"lon":5.35106,"is_reserved":false,"is_disabled":false,"rental_uris":{"android":"levelo://app?vid=dc388f0e-5ba4-4401-b2b7-3e59da087469","ios":"levelo://app?vid=dc388f0e-5ba4-4401-b2b7-3e59da087469"},"vehicle_type_id":"4","last_reported":1736838481,"current_range_meters":8800,"station_id":"ce4bhch2rcd13ifvqeug","pricing_plan_id":"cebpf4jnsgd1na2vs0mg"},{"bike_id":"713c1aad-cb90-4a98-9cc1-d6b3486e23b6","system_id":"levelo_inurba_marseille","lat":43.30474,"lon":5.37915,"is_reserved":false,"is_disabled":false,"rental_uris":{"android":"levelo://app?vid=713c1aad-cb90-4a98-9cc1-d6b3486e23b6","ios":"levelo://app?vid=713c1aad-cb90-4a98-9cc1-d6b3486e23b6"},"vehicle_type_id":"4","last_reported":1736838481,"current_range_meters":22800,"station_id":"ce4bgup2rcd13ifvqcn0","pricing_plan_id":"cebpf4jnsgd1na2vs0mg"},{"bike_id":"29eb6f86-bc38-429a-9fa9-74caf2cb596b","system_id":"levelo_inurba_marseille","lat":43.32366,"lon":5.38872,"is_reserved":false,"is_disabled":false,"rental_uris":{"android":"levelo://app?vid=29eb6f86-bc38-429a-9fa9-74caf2cb596b","ios":"levelo://app?vid=29eb6f86-bc38-429a-9fa9-74caf2cb596b"},"vehicle_type_id":"4","last_reported":1736838481,"current_range_meters":14400,"station_id":"ce4bhqp2rcd13ifvqhog","pricing_plan_id":"cebpf4jnsgd1na2vs0mg"},{"bike_id":"c84c60ce-c7f6-42eb-bb3c-f11a697bd396","system_id":"levelo_inurba_marseille","lat":43.299753,"lon":5.385029,"is_reserved":false,"is_disabled":true,"rental_uris":{"android":"levelo://app?vid=c84c60ce-c7f6-42eb-bb3c-f11a697bd396","ios":"levelo://app?vid=c84c60ce-c7f6-42eb-bb3c-f11a697bd396"},"vehicle_type_id":"4","last_reported":1736838481,"current_range_meters":36400,"station_id":"ce4bgj92rcd13ifvqbd0","pricing_plan_id":"cebpf4jnsgd1na2vs0mg"},{"bike_id":"5b6f32ca-27c0-4ddf-ba56-69f237bfef76","system_id":"levelo_inurba_marseille","lat":43.28616,"lon":5.35102,"is_reserved":false,"is_disabled":false,"rental_uris":{"android":"levelo://app?vid=5b6f32ca-27c0-4ddf-ba56-69f237bfef76","ios":"levelo://app?vid=5b6f32ca-27c0-4ddf-ba56-69f237bfef76"},"vehicle_type_id":"4","last_reported":1736838481,"current_range_meters":35200,"station_id":"ce4bhch2rcd13ifvqeug","pricing_plan_id":"cebpf4jnsgd1na2vs0mg"},{"bike_id":"8753109d-a5d3-4946-baad-f045fd58ae79","system_id":"levelo_inurba_marseille","lat":43.27176,"lon":5.40992,"is_reserved":false,"is_disabled":false,"rental_uris":{"android":"levelo://app?vid=8753109d-a5d3-4946-baad-f045fd58ae79","ios":"levelo://app?vid=8753109d-a5d3-4946-baad-f045fd58ae79"},"vehicle_type_id":"4","last_reported":1736838481,"current_range_meters":37600,"station_id":"ce4bhl12rcd13ifvqgf0","pricing_plan_id":"cebpf4jnsgd1na2vs0mg"},{"bike_id":"443c5dde-f0e0-4ba1-b742-bb081179ae11","system_id":"levelo_inurba_marseille","lat":43.30483,"lon":5.37893,"is_reserved":false,"is_disabled":false,"rental_uris":{"android":"levelo://app?vid=443c5dde-f0e0-4ba1-b742-bb081179ae11","ios":"levelo://app?vid=443c5dde-f0e0-4ba1-b742-bb081179ae11"},"vehicle_type_id":"4","last_reported":1736838481,"current_range_meters":36000,"station_id":"ce4bgup2rcd13ifvqcn0","pricing_plan_id":"cebpf4jnsgd1na2vs0mg"},{"bike_id":"56a37990-c381-414a-8c27-59f20eae88ce","system_id":"levelo_inurba_marseille","lat":43.25015,"lon":5.38909,"is_reserved":false,"is_disabled":false,"rental_uris":{"android":"levelo://app?vid=56a37990-c381-414a-8c27-59f20eae88ce","ios":"levelo://app?vid=56a37990-c381-414a-8c27-59f20eae88ce"},"vehicle_type_id":"4","last_reported":1736838481,"current_range_meters":6800,"station_id":"ce4bhgp2rcd13ifvqfd0","pricing_plan_id":"cebpf4jnsgd1na2vs0mg"},{"bike_id":"c1c51f67-6348-4482-a3d4-31704cefaf37","system_id":"levelo_inurba_marseille","lat":43.28615,"lon":5.35104,"is_reserved":false,"is_disabled":false,"rental_uris":{"android":"levelo://app?vid=c1c51f67-6348-4482-a3d4-31704cefaf37","ios":"levelo://app?vid=c1c51f67-6348-4482-a3d4-31704cefaf37"},"vehicle_type_id":"4","last_reported":1736838481,"current_range_meters":30000,"station_id":"ce4bhch2rcd13ifvqeug","pricing_plan_id":"cebpf4jnsgd1na2vs0mg"},{"bike_id":"e114c682-1978-4a27-880c-63e24c43365d","system_id":"levelo_inurba_marseille","lat":43.30891,"lon":5.37176,"is_reserved":false,"is_disabled":false,"rental_uris":{"android":"levelo://app?vid=e114c682-1978-4a27-880c-63e24c43365d","ios":"levelo://app?vid=e114c682-1978-4a27-880c-63e24c43365d"},"vehicle_type_id":"4","last_reported":1736838481,"current_range_meters":14000,"station_id":"ce4bguh2rcd13ifvqckg","pricing_plan_id":"cebpf4jnsgd1na2vs0mg"},{"bike_id":"a56bdef2-14b8-4e02-b3bc-538917283971","system_id":"levelo_inurba_marseille","lat":43.25071,"lon":5.39504,"is_reserved":false,"is_disabled":false,"rental_uris":{"android":"levelo://app?vid=a56bdef2-14b8-4e02-b3bc-538917283971","ios":"levelo://app?vid=a56bdef2-14b8-4e02-b3bc-538917283971"},"vehicle_type_id":"4","last_reported":1736838481,"current_range_meters":9200,"station_id":"ce4bhm12rcd13ifvqgkg","pricing_plan_id":"cebpf4jnsgd1na2vs0mg"},{"bike_id":"0125c28b-780b-4ed9-9399-11893fafb8ed","system_id":"levelo_inurba_marseille","lat":43.3117,"lon":5.38709,"is_reserved":false,"is_disabled":false,"rental_uris":{"android":"levelo://app?vid=0125c28b-780b-4ed9-9399-11893fafb8ed","ios":"levelo://app?vid=0125c28b-780b-4ed9-9399-11893fafb8ed"},"vehicle_type_id":"4","last_reported":1736838481,"current_range_meters":12800,"station_id":"ce4bgv12rcd13ifvqcp0","pricing_plan_id":"cebpf4jnsgd1na2vs0mg"},{"bike_id":"037031b6-39dd-486b-99bb-ebe05f9a77df","system_id":"levelo_inurba_marseille","lat":43.26959,"lon":5.38632,"is_reserved":false,"is_disabled":false,"rental_uris":{"android":"levelo://app?vid=037031b6-39dd-486b-99bb-ebe05f9a77df","ios":"levelo://app?vid=037031b6-39dd-486b-99bb-ebe05f9a77df"},"vehicle_type_id":"4","last_reported":1736838481,"current_range_meters":36800,"station_id":"ce4bhh92rcd13ifvqfh0","pricing_plan_id":"cebpf4jnsgd1na2vs0mg"},{"bike_id":"86241bda-fbbe-4026-924d-d399d3f1efb2","system_id":"levelo_inurba_marseille","lat":43.29607,"lon":5.38108,"is_reserved":false,"is_disabled":false,"rental_uris":{"android":"levelo://app?vid=86241bda-fbbe-4026-924d-d399d3f1efb2","ios":"levelo://app?vid=86241bda-fbbe-4026-924d-d399d3f1efb2"},"vehicle_type_id":"4","last_reported":1736838481,"current_range_meters":39200,"station_id":"ce4bgl12rcd13ifvqbo0","pricing_plan_id":"cebpf4jnsgd1na2vs0mg"},{"bike_id":"00f66595-7f4e-4244-b1a6-40b953d26966","system_id":"levelo_inurba_marseille","lat":43.29186,"lon":5.39338,"is_reserved":false,"is_disabled":false,"rental_uris":{"android":"levelo://app?vid=00f66595-7f4e-4244-b1a6-40b953d26966","ios":"levelo://app?vid=00f66595-7f4e-4244-b1a6-40b953d26966"},"vehicle_type_id":"4","last_reported":1736838481,"current_range_meters":30800,"station_id":"ce4bh192rcd13ifvqdd0","pricing_plan_id":"cebpf4jnsgd1na2vs0mg"},{"bike_id":"a754abf4-87cb-4915-a97f-0b4d0e8971f5","system_id":"levelo_inurba_marseille","lat":43.28626,"lon":5.35106,"is_reserved":false,"is_disabled":false,"rental_uris":{"android":"levelo://app?vid=a754abf4-87cb-4915-a97f-0b4d0e8971f5","ios":"levelo://app?vid=a754abf4-87cb-4915-a97f-0b4d0e8971f5"},"vehicle_type_id":"4","last_reported":1736838481,"current_range_meters":30000,"station_id":"ce4bhch2rcd13ifvqeug","pricing_plan_id":"cebpf4jnsgd1na2vs0mg"},{"bike_id":"b51b8509-c21e-40ac-802b-edd56e55cdd0","system_id":"levelo_inurba_marseille","lat":43.30377,"lon":5.41898,"is_reserved":false,"is_disabled":true,"rental_uris":{"android":"levelo://app?vid=b51b8509-c21e-40ac-802b-edd56e55cdd0","ios":"levelo://app?vid=b51b8509-c21e-40ac-802b-edd56e55cdd0"},"vehicle_type_id":"4","last_reported":1736838481,"current_range_meters":22000,"station_id":"ce4bhop2rcd13ifvqh7g","pricing_plan_id":"cebpf4jnsgd1na2vs0mg"},{"bike_id":"512c7bd5-5643-4f7d-a8c3-5cceff4f5ebd","system_id":"levelo_inurba_marseille","lat":43.273695,"lon":5.362579,"is_reserved":false,"is_disabled":false,"rental_uris":{"android":"levelo://app?vid=512c7bd5-5643-4f7d-a8c3-5cceff4f5ebd","ios":"levelo://app?vid=512c7bd5-5643-4f7d-a8c3-5cceff4f5ebd"},"vehicle_type_id":"4","last_reported":1736838481,"current_range_meters":10000,"station_id":"ce4bhbh2rcd13ifvqeo0","pricing_plan_id":"cebpf4jnsgd1na2vs0mg"},{"bike_id":"1138f3cc-dbca-491b-9549-e9ea48e9d1d3","system_id":"levelo_inurba_marseille","lat":43.28937,"lon":5.3664,"is_reserved":false,"is_disabled":false,"rental_uris":{"android":"levelo://app?vid=1138f3cc-dbca-491b-9549-e9ea48e9d1d3","ios":"levelo://app?vid=1138f3cc-dbca-491b-9549-e9ea48e9d1d3"},"vehicle_type_id":"4","last_reported":1736838481,"current_range_meters":36800,"station_id":"ce4bhap2rcd13ifvqek0","pricing_plan_id":"cebpf4jnsgd1na2vs0mg"},{"bike_id":"78fc2529-851e-44ea-9e17-e5a76c9197b1","system_id":"levelo_inurba_marseille","lat":43.29711,"lon":5.37644,"is_reserved":false,"is_disabled":true,"rental_uris":{"android":"levelo://app?vid=78fc2529-851e-44ea-9e17-e5a76c9197b1","ios":"levelo://app?vid=78fc2529-851e-44ea-9e17-e5a76c9197b1"},"vehicle_type_id":"4","last_reported":1736838481,"current_range_meters":35600,"station_id":"ce4bgkh2rcd13ifvqbl0","pricing_plan_id":"cebpf4jnsgd1na2vs0mg"},{"bike_id":"190501cf-4906-474c-bef9-6ea2b092fabd","system_id":"levelo_inurba_marseille","lat":43.2861,"lon":5.35104,"is_reserved":false,"is_disabled":false,"rental_uris":{"android":"levelo://app?vid=190501cf-4906-474c-bef9-6ea2b092fabd","ios":"levelo://app?vid=190501cf-4906-474c-bef9-6ea2b092fabd"},"vehicle_type_id":"4","last_reported":1736838481,"current_range_meters":21600,"station_id":"ce4bhch2rcd13ifvqeug","pricing_plan_id":"cebpf4jnsgd1na2vs0mg"},{"bike_id":"ef4efe6b-06a4-4a68-b446-27262744bde1","system_id":"levelo_inurba_marseille","lat":43.28864,"lon":5.35874,"is_reserved":false,"is_disabled":false,"rental_uris":{"android":"levelo://app?vid=ef4efe6b-06a4-4a68-b446-27262744bde1","ios":"levelo://app?vid=ef4efe6b-06a4-4a68-b446-27262744bde1"},"vehicle_type_id":"4","last_reported":1736838481,"current_range_meters":39200,"station_id":"ce4bhb12rcd13ifvqem0","pricing_plan_id":"cebpf4jnsgd1na2vs0mg"},{"bike_id":"af310c74-95dd-4c21-9972-8c7689b07797","system_id":"levelo_inurba_marseille","lat":43.26559,"lon":5.37285,"is_reserved":false,"is_disabled":false,"rental_uris":{"android":"levelo://app?vid=af310c74-95dd-4c21-9972-8c7689b07797","ios":"levelo://app?vid=af310c74-95dd-4c21-9972-8c7689b07797"},"vehicle_type_id":"4","last_reported":1736838481,"current_range_meters":5600,"station_id":"ce4bhg12rcd13ifvqf70","pricing_plan_id":"cebpf4jnsgd1na2vs0mg"},{"bike_id":"ef45a171-2d59-4a34-9822-21fd0c7a43cb","system_id":"levelo_inurba_marseille","lat":43.3021,"lon":5.39458,"is_reserved":false,"is_disabled":false,"rental_uris":{"android":"levelo://app?vid=ef45a171-2d59-4a34-9822-21fd0c7a43cb","ios":"levelo://app?vid=ef45a171-2d59-4a34-9822-21fd0c7a43cb"},"vehicle_type_id":"4","last_reported":1736838481,"current_range_meters":23200,"station_id":"ce4bh0p2rcd13ifvqd70","pricing_plan_id":"cebpf4jnsgd1na2vs0mg"},{"bike_id":"bab91d98-571b-4af7-8b79-c1830922d13d","system_id":"levelo_inurba_marseille","lat":43.2877,"lon":5.38211,"is_reserved":false,"is_disabled":true,"rental_uris":{"android":"levelo://app?vid=bab91d98-571b-4af7-8b79-c1830922d13d","ios":"levelo://app?vid=bab91d98-571b-4af7-8b79-c1830922d13d"},"vehicle_type_id":"4","last_reported":1736838481,"current_range_meters":800,"station_id":"","pricing_plan_id":"cebpf4jnsgd1na2vs0mg"},{"bike_id":"712cbdcb-72b5-4076-9167-ce5a7319c52c","system_id":"levelo_inurba_marseille","lat":43.24081,"lon":5.37755,"is_reserved":false,"is_disabled":false,"rental_uris":{"android":"levelo://app?vid=712cbdcb-72b5-4076-9167-ce5a7319c52c","ios":"levelo://app?vid=712cbdcb-72b5-4076-9167-ce5a7319c52c"},"vehicle_type_id":"4","last_reported":1736838481,"current_range_meters":36800,"station_id":"ce4bhnp2rcd13ifvqgvg","pricing_plan_id":"cebpf4jnsgd1na2vs0mg"},{"bike_id":"12d5d50a-2e4e-4e20-ac77-38caf44687f7","system_id":"levelo_inurba_marseille","lat":43.31483,"lon":5.37307,"is_reserved":false,"is_disabled":false,"rental_uris":{"android":"levelo://app?vid=12d5d50a-2e4e-4e20-ac77-38caf44687f7","ios":"levelo://app?vid=12d5d50a-2e4e-4e20-ac77-38caf44687f7"},"vehicle_type_id":"4","last_reported":1736838481,"current_range_meters":23200,"station_id":"ce4bgt12rcd13ifvqcd0","pricing_plan_id":"cebpf4jnsgd1na2vs0mg"},{"bike_id":"45324790-abcf-4a91-8b9e-6b7c17eae013","system_id":"levelo_inurba_marseille","lat":43.273735,"lon":5.3626,"is_reserved":false,"is_disabled":false,"rental_uris":{"android":"levelo://app?vid=45324790-abcf-4a91-8b9e-6b7c17eae013","ios":"levelo://app?vid=45324790-abcf-4a91-8b9e-6b7c17eae013"},"vehicle_type_id":"4","last_reported":1736838481,"current_range_meters":6400,"station_id":"ce4bhbh2rcd13ifvqeo0","pricing_plan_id":"cebpf4jnsgd1na2vs0mg"},{"bike_id":"52b9c89b-59e1-4ffb-8f5b-c4403b64930a","system_id":"levelo_inurba_marseille","lat":43.24392,"lon":5.37066,"is_reserved":false,"is_disabled":false,"rental_uris":{"android":"levelo://app?vid=52b9c89b-59e1-4ffb-8f5b-c4403b64930a","ios":"levelo://app?vid=52b9c89b-59e1-4ffb-8f5b-c4403b64930a"},"vehicle_type_id":"4","last_reported":1736838481,"current_range_meters":8800,"station_id":"ce4bhhh2rcd13ifvqfk0","pricing_plan_id":"cebpf4jnsgd1na2vs0mg"},{"bike_id":"47f63191-6673-4167-8a58-1a164b7d4b7e","system_id":"levelo_inurba_marseille","lat":43.240677,"lon":5.377599,"is_reserved":false,"is_disabled":false,"rental_uris":{"android":"levelo://app?vid=47f63191-6673-4167-8a58-1a164b7d4b7e","ios":"levelo://app?vid=47f63191-6673-4167-8a58-1a164b7d4b7e"},"vehicle_type_id":"4","last_reported":1736838481,"current_range_meters":36000,"station_id":"ce4bhnp2rcd13ifvqgvg","pricing_plan_id":"cebpf4jnsgd1na2vs0mg"},{"bike_id":"eed6b634-12d1-4e79-b3d7-f213d0cd31b0","system_id":"levelo_inurba_marseille","lat":43.30409,"lon":5.41286,"is_reserved":false,"is_disabled":false,"rental_uris":{"android":"levelo://app?vid=eed6b634-12d1-4e79-b3d7-f213d0cd31b0","ios":"levelo://app?vid=eed6b634-12d1-4e79-b3d7-f213d0cd31b0"},"vehicle_type_id":"4","last_reported":1736838481,"current_range_meters":38000,"station_id":"ce4bhop2rcd13ifvqh8g","pricing_plan_id":"cebpf4jnsgd1na2vs0mg"},{"bike_id":"a86fe1f4-7545-4b33-8097-0e91725c0bb3","system_id":"levelo_inurba_marseille","lat":43.31389,"lon":5.37225,"is_reserved":false,"is_disabled":true,"rental_uris":{"android":"levelo://app?vid=a86fe1f4-7545-4b33-8097-0e91725c0bb3","ios":"levelo://app?vid=a86fe1f4-7545-4b33-8097-0e91725c0bb3"},"vehicle_type_id":"4","last_reported":1736838481,"current_range_meters":800,"station_id":"","pricing_plan_id":"cebpf4jnsgd1na2vs0mg"},{"bike_id":"0836979f-0b7c-4fc4-88b1-cf5647bbd727","system_id":"levelo_inurba_marseille","lat":43.30481,"lon":5.37897,"is_reserved":false,"is_disabled":true,"rental_uris":{"android":"levelo://app?vid=0836979f-0b7c-4fc4-88b1-cf5647bbd727","ios":"levelo://app?vid=0836979f-0b7c-4fc4-88b1-cf5647bbd727"},"vehicle_type_id":"4","last_reported":1736838481,"current_range_meters":2000,"station_id":"ce4bgup2rcd13ifvqcn0","pricing_plan_id":"cebpf4jnsgd1na2vs0mg"},{"bike_id":"d3212cff-9568-4752-b2a6-3db9ecfbcc71","system_id":"levelo_inurba_marseille","lat":43.31283,"lon":5.40161,"is_reserved":false,"is_disabled":false,"rental_uris":{"android":"levelo://app?vid=d3212cff-9568-4752-b2a6-3db9ecfbcc71","ios":"levelo://app?vid=d3212cff-9568-4752-b2a6-3db9ecfbcc71"},"vehicle_type_id":"4","last_reported":1736838481,"current_range_meters":25600,"station_id":"ce4bh092rcd13ifvqd30","pricing_plan_id":"cebpf4jnsgd1na2vs0mg"},{"bike_id":"33693f34-84d8-44d0-9295-106803fb09cf","system_id":"levelo_inurba_marseille","lat":43.27495,"lon":5.42458,"is_reserved":false,"is_disabled":false,"rental_uris":{"android":"levelo://app?vid=33693f34-84d8-44d0-9295-106803fb09cf","ios":"levelo://app?vid=33693f34-84d8-44d0-9295-106803fb09cf"},"vehicle_type_id":"4","last_reported":1736838481,"current_range_meters":23200,"station_id":"ce4bhn92rcd13ifvqgrg","pricing_plan_id":"cebpf4jnsgd1na2vs0mg"},{"bike_id":"6bd070a6-a8fa-4fbc-bf16-f74f4ac13e7d","system_id":"levelo_inurba_marseille","lat":43.28933,"lon":5.3663,"is_reserved":false,"is_disabled":true,"rental_uris":{"android":"levelo://app?vid=6bd070a6-a8fa-4fbc-bf16-f74f4ac13e7d","ios":"levelo://app?vid=6bd070a6-a8fa-4fbc-bf16-f74f4ac13e7d"},"vehicle_type_id":"4","last_reported":1736838481,"current_range_meters":1200,"station_id":"ce4bhap2rcd13ifvqek0","pricing_plan_id":"cebpf4jnsgd1na2vs0mg"},{"bike_id":"1ff4d6af-d168-4206-80a1-8f85ab0c0a00","system_id":"levelo_inurba_marseille","lat":43.258688,"lon":5.398989,"is_reserved":false,"is_disabled":false,"rental_uris":{"android":"levelo://app?vid=1ff4d6af-d168-4206-80a1-8f85ab0c0a00","ios":"levelo://app?vid=1ff4d6af-d168-4206-80a1-8f85ab0c0a00"},"vehicle_type_id":"4","last_reported":1736838481,"current_range_meters":38800,"station_id":"ce4bhl92rcd13ifvqghg","pricing_plan_id":"cebpf4jnsgd1na2vs0mg"},{"bike_id":"3b6c8338-06e4-461f-bc7b-56a2216a0fbc","system_id":"levelo_inurba_marseille","lat":43.30474,"lon":5.37905,"is_reserved":false,"is_disabled":false,"rental_uris":{"android":"levelo://app?vid=3b6c8338-06e4-461f-bc7b-56a2216a0fbc","ios":"levelo://app?vid=3b6c8338-06e4-461f-bc7b-56a2216a0fbc"},"vehicle_type_id":"4","last_reported":1736838481,"current_range_meters":26000,"station_id":"ce4bgup2rcd13ifvqcn0","pricing_plan_id":"cebpf4jnsgd1na2vs0mg"},{"bike_id":"0e0f7688-96cc-4a74-92d2-1a9da442c8bc","system_id":"levelo_inurba_marseille","lat":43.28468,"lon":5.38411,"is_reserved":false,"is_disabled":false,"rental_uris":{"android":"levelo://app?vid=0e0f7688-96cc-4a74-92d2-1a9da442c8bc","ios":"levelo://app?vid=0e0f7688-96cc-4a74-92d2-1a9da442c8bc"},"vehicle_type_id":"4","last_reported":1736838481,"current_range_meters":39200,"station_id":"ce4bh512rcd13ifvqe3g","pricing_plan_id":"cebpf4jnsgd1na2vs0mg"},{"bike_id":"a69a91d4-0591-45d8-9d2f-29a26c713a00","system_id":"levelo_inurba_marseille","lat":43.30796,"lon":5.43519,"is_reserved":false,"is_disabled":false,"rental_uris":{"android":"levelo://app?vid=a69a91d4-0591-45d8-9d2f-29a26c713a00","ios":"levelo://app?vid=a69a91d4-0591-45d8-9d2f-29a26c713a00"},"vehicle_type_id":"4","last_reported":1736838481,"current_range_meters":14800,"station_id":"ce4bhph2rcd13ifvqheg","pricing_plan_id":"cebpf4jnsgd1na2vs0mg"},{"bike_id":"4f33525b-ad77-45f3-a5ca-48f52317317a","system_id":"levelo_inurba_marseille","lat":43.29218,"lon":5.36052,"is_reserved":false,"is_disabled":true,"rental_uris":{"android":"levelo://app?vid=4f33525b-ad77-45f3-a5ca-48f52317317a","ios":"levelo://app?vid=4f33525b-ad77-45f3-a5ca-48f52317317a"},"vehicle_type_id":"4","last_reported":1736838481,"current_range_meters":0,"station_id":"ce4bhbh2rcd13ifvqeqg","pricing_plan_id":"cebpf4jnsgd1na2vs0mg"},{"bike_id":"255540e7-4058-4f44-8c33-194a2017cef2","system_id":"levelo_inurba_marseille","lat":43.258622,"lon":5.398909,"is_reserved":false,"is_disabled":false,"rental_uris":{"android":"levelo://app?vid=255540e7-4058-4f44-8c33-194a2017cef2","ios":"levelo://app?vid=255540e7-4058-4f44-8c33-194a2017cef2"},"vehicle_type_id":"4","last_reported":1736838481,"current_range_meters":10800,"station_id":"ce4bhl92rcd13ifvqghg","pricing_plan_id":"cebpf4jnsgd1na2vs0mg"},{"bike_id":"77c125dd-0570-435e-ae36-92a459b4cd7d","system_id":"levelo_inurba_marseille","lat":43.25824,"lon":5.39431,"is_reserved":false,"is_disabled":false,"rental_uris":{"android":"levelo://app?vid=77c125dd-0570-435e-ae36-92a459b4cd7d","ios":"levelo://app?vid=77c125dd-0570-435e-ae36-92a459b4cd7d"},"vehicle_type_id":"4","last_reported":1736838481,"current_range_meters":6800,"station_id":"ce4bhip2rcd13ifvqft0","pricing_plan_id":"cebpf4jnsgd1na2vs0mg"},{"bike_id":"24646cd6-2544-44a2-9431-6fa8170d0f58","system_id":"levelo_inurba_marseille","lat":43.28479,"lon":5.38555,"is_reserved":false,"is_disabled":false,"rental_uris":{"android":"levelo://app?vid=24646cd6-2544-44a2-9431-6fa8170d0f58","ios":"levelo://app?vid=24646cd6-2544-44a2-9431-6fa8170d0f58"},"vehicle_type_id":"4","last_reported":1736838481,"current_range_meters":36800,"station_id":"ce4bh8p2rcd13ifvqeb0","pricing_plan_id":"cebpf4jnsgd1na2vs0mg"},{"bike_id":"624fd665-76a1-4073-91c0-a4db8dfd6228","system_id":"levelo_inurba_marseille","lat":43.313041,"lon":5.368253,"is_reserved":false,"is_disabled":false,"rental_uris":{"android":"levelo://app?vid=624fd665-76a1-4073-91c0-a4db8dfd6228","ios":"levelo://app?vid=624fd665-76a1-4073-91c0-a4db8dfd6228"},"vehicle_type_id":"4","last_reported":1736838481,"current_range_meters":30400,"station_id":"","pricing_plan_id":"cebpf4jnsgd1na2vs0mg"},{"bike_id":"acb789d3-c42d-465c-982b-20d6256e9026","system_id":"levelo_inurba_marseille","lat":43.24355,"lon":5.37082,"is_reserved":false,"is_disabled":false,"rental_uris":{"android":"levelo://app?vid=acb789d3-c42d-465c-982b-20d6256e9026","ios":"levelo://app?vid=acb789d3-c42d-465c-982b-20d6256e9026"},"vehicle_type_id":"4","last_reported":1736838481,"current_range_meters":36800,"station_id":"ce4bhhh2rcd13ifvqfk0","pricing_plan_id":"cebpf4jnsgd1na2vs0mg"},{"bike_id":"c70e7bf1-9544-4168-94a7-5ca54111b6ae","system_id":"levelo_inurba_marseille","lat":43.304291,"lon":5.393199,"is_reserved":false,"is_disabled":false,"rental_uris":{"android":"levelo://app?vid=c70e7bf1-9544-4168-94a7-5ca54111b6ae","ios":"levelo://app?vid=c70e7bf1-9544-4168-94a7-5ca54111b6ae"},"vehicle_type_id":"4","last_reported":1736838481,"current_range_meters":25600,"station_id":"ce4bh0p2rcd13ifvqd80","pricing_plan_id":"cebpf4jnsgd1na2vs0mg"},{"bike_id":"636db4bb-fac7-4c02-854a-f075d90b62d7","system_id":"levelo_inurba_marseille","lat":43.29028,"lon":5.38625,"is_reserved":false,"is_disabled":false,"rental_uris":{"android":"levelo://app?vid=636db4bb-fac7-4c02-854a-f075d90b62d7","ios":"levelo://app?vid=636db4bb-fac7-4c02-854a-f075d90b62d7"},"vehicle_type_id":"4","last_reported":1736838481,"current_range_meters":22800,"station_id":"ce4bh4p2rcd13ifvqe0g","pricing_plan_id":"cebpf4jnsgd1na2vs0mg"},{"bike_id":"c2d5fd29-d5c7-4c17-84cd-2259421931b6","system_id":"levelo_inurba_marseille","lat":43.27494,"lon":5.4246,"is_reserved":false,"is_disabled":true,"rental_uris":{"android":"levelo://app?vid=c2d5fd29-d5c7-4c17-84cd-2259421931b6","ios":"levelo://app?vid=c2d5fd29-d5c7-4c17-84cd-2259421931b6"},"vehicle_type_id":"4","last_reported":1736838481,"current_range_meters":1200,"station_id":"ce4bhn92rcd13ifvqgrg","pricing_plan_id":"cebpf4jnsgd1na2vs0mg"},{"bike_id":"295bd26f-64bb-4f9a-b1ce-9227768f18ec","system_id":"levelo_inurba_marseille","lat":43.29172,"lon":5.37139,"is_reserved":false,"is_disabled":true,"rental_uris":{"android":"levelo://app?vid=295bd26f-64bb-4f9a-b1ce-9227768f18ec","ios":"levelo://app?vid=295bd26f-64bb-4f9a-b1ce-9227768f18ec"},"vehicle_type_id":"4","last_reported":1736838481,"current_range_meters":26800,"station_id":"ce4bha92rcd13ifvqeh0","pricing_plan_id":"cebpf4jnsgd1na2vs0mg"},{"bike_id":"141d4a3e-fa12-4dc0-a05f-91bca5af79b1","system_id":"levelo_inurba_marseille","lat":43.29368,"lon":5.37815,"is_reserved":false,"is_disabled":false,"rental_uris":{"android":"levelo://app?vid=141d4a3e-fa12-4dc0-a05f-91bca5af79b1","ios":"levelo://app?vid=141d4a3e-fa12-4dc0-a05f-91bca5af79b1"},"vehicle_type_id":"4","last_reported":1736838481,"current_range_meters":22400,"station_id":"ce4bgjh2rcd13ifvqbf0","pricing_plan_id":"cebpf4jnsgd1na2vs0mg"},{"bike_id":"d824fb09-131e-4b23-8b17-76aeed25624a","system_id":"levelo_inurba_marseille","lat":43.31173,"lon":5.38713,"is_reserved":false,"is_disabled":false,"rental_uris":{"android":"levelo://app?vid=d824fb09-131e-4b23-8b17-76aeed25624a","ios":"levelo://app?vid=d824fb09-131e-4b23-8b17-76aeed25624a"},"vehicle_type_id":"4","last_reported":1736838481,"current_range_meters":12000,"station_id":"ce4bgv12rcd13ifvqcp0","pricing_plan_id":"cebpf4jnsgd1na2vs0mg"},{"bike_id":"ae29e0de-7b5a-45d6-ace3-313c5e88010a","system_id":"levelo_inurba_marseille","lat":43.27998,"lon":5.41668,"is_reserved":false,"is_disabled":false,"rental_uris":{"android":"levelo://app?vid=ae29e0de-7b5a-45d6-ace3-313c5e88010a","ios":"levelo://app?vid=ae29e0de-7b5a-45d6-ace3-313c5e88010a"},"vehicle_type_id":"4","last_reported":1736838481,"current_range_meters":38000,"station_id":"ce4bho12rcd13ifvqh1g","pricing_plan_id":"cebpf4jnsgd1na2vs0mg"},{"bike_id":"6c8f1a4a-6d49-4354-8fa4-7312da1e1397","system_id":"levelo_inurba_marseille","lat":43.28614,"lon":5.35109,"is_reserved":false,"is_disabled":false,"rental_uris":{"android":"levelo://app?vid=6c8f1a4a-6d49-4354-8fa4-7312da1e1397","ios":"levelo://app?vid=6c8f1a4a-6d49-4354-8fa4-7312da1e1397"},"vehicle_type_id":"4","last_reported":1736838481,"current_range_meters":36000,"station_id":"ce4bhch2rcd13ifvqeug","pricing_plan_id":"cebpf4jnsgd1na2vs0mg"},{"bike_id":"572f0254-11cf-4ef2-b3f9-66737ed8298a","system_id":"levelo_inurba_marseille","lat":43.28421,"lon":5.34987,"is_reserved":false,"is_disabled":true,"rental_uris":{"android":"levelo://app?vid=572f0254-11cf-4ef2-b3f9-66737ed8298a","ios":"levelo://app?vid=572f0254-11cf-4ef2-b3f9-66737ed8298a"},"vehicle_type_id":"4","last_reported":1736838481,"current_range_meters":0,"station_id":"ce4bhbh2rcd13ifvqepg","pricing_plan_id":"cebpf4jnsgd1na2vs0mg"},{"bike_id":"394c7962-e332-44b2-b196-c6959273f825","system_id":"levelo_inurba_marseille","lat":43.28475,"lon":5.35878,"is_reserved":false,"is_disabled":false,"rental_uris":{"android":"levelo://app?vid=394c7962-e332-44b2-b196-c6959273f825","ios":"levelo://app?vid=394c7962-e332-44b2-b196-c6959273f825"},"vehicle_type_id":"4","last_reported":1736838481,"current_range_meters":38000,"station_id":"ce4bhah2rcd13ifvqei0","pricing_plan_id":"cebpf4jnsgd1na2vs0mg"},{"bike_id":"60c48e84-151f-4edd-83cd-789ff87c7f63","system_id":"levelo_inurba_marseille","lat":43.28713,"lon":5.37402,"is_reserved":false,"is_disabled":true,"rental_uris":{"android":"levelo://app?vid=60c48e84-151f-4edd-83cd-789ff87c7f63","ios":"levelo://app?vid=60c48e84-151f-4edd-83cd-789ff87c7f63"},"vehicle_type_id":"4","last_reported":1736838481,"current_range_meters":35200,"station_id":"ce4bh3p2rcd13ifvqdq0","pricing_plan_id":"cebpf4jnsgd1na2vs0mg"},{"bike_id":"65e4bbbc-3a81-48a5-8ddf-1dbbd6fe93d5","system_id":"levelo_inurba_marseille","lat":43.29578,"lon":5.37504,"is_reserved":false,"is_disabled":true,"rental_uris":{"android":"levelo://app?vid=65e4bbbc-3a81-48a5-8ddf-1dbbd6fe93d5","ios":"levelo://app?vid=65e4bbbc-3a81-48a5-8ddf-1dbbd6fe93d5"},"vehicle_type_id":"4","last_reported":1736838481,"current_range_meters":3600,"station_id":"ce4bgh92rcd13ifvqb50","pricing_plan_id":"cebpf4jnsgd1na2vs0mg"},{"bike_id":"d1dc4ad9-186b-444e-9d19-7e7fc8f9a273","system_id":"levelo_inurba_marseille","lat":43.25586,"lon":5.3825,"is_reserved":false,"is_disabled":false,"rental_uris":{"android":"levelo://app?vid=d1dc4ad9-186b-444e-9d19-7e7fc8f9a273","ios":"levelo://app?vid=d1dc4ad9-186b-444e-9d19-7e7fc8f9a273"},"vehicle_type_id":"4","last_reported":1736838481,"current_range_meters":38400,"station_id":"ce4bhih2rcd13ifvqfs0","pricing_plan_id":"cebpf4jnsgd1na2vs0mg"},{"bike_id":"6fcb3384-c9bc-4ab3-9c0b-f62a500684d1","system_id":"levelo_inurba_marseille","lat":43.29523,"lon":5.39019,"is_reserved":false,"is_disabled":true,"rental_uris":{"android":"levelo://app?vid=6fcb3384-c9bc-4ab3-9c0b-f62a500684d1","ios":"levelo://app?vid=6fcb3384-c9bc-4ab3-9c0b-f62a500684d1"},"vehicle_type_id":"4","last_reported":1736838481,"current_range_meters":27200,"station_id":"ce4bh3p2rcd13ifvqdp0","pricing_plan_id":"cebpf4jnsgd1na2vs0mg"},{"bike_id":"de05f028-7450-4792-8d5b-e268410faa9d","system_id":"levelo_inurba_marseille","lat":43.32119,"lon":5.36811,"is_reserved":false,"is_disabled":false,"rental_uris":{"android":"levelo://app?vid=de05f028-7450-4792-8d5b-e268410faa9d","ios":"levelo://app?vid=de05f028-7450-4792-8d5b-e268410faa9d"},"vehicle_type_id":"4","last_reported":1736838481,"current_range_meters":29600,"station_id":"ce4bhrh2rcd13ifvqhug","pricing_plan_id":"cebpf4jnsgd1na2vs0mg"},{"bike_id":"4218abb1-97a1-4e69-a779-b2859c95cf9a","system_id":"levelo_inurba_marseille","lat":43.23958,"lon":5.36629,"is_reserved":false,"is_disabled":false,"rental_uris":{"android":"levelo://app?vid=4218abb1-97a1-4e69-a779-b2859c95cf9a","ios":"levelo://app?vid=4218abb1-97a1-4e69-a779-b2859c95cf9a"},"vehicle_type_id":"4","last_reported":1736838481,"current_range_meters":16000,"station_id":"ce4bhi12rcd13ifvqfp0","pricing_plan_id":"cebpf4jnsgd1na2vs0mg"},{"bike_id":"7da73b08-06e3-43ca-8e0f-9447fe50ccbf","system_id":"levelo_inurba_marseille","lat":43.2749,"lon":5.42468,"is_reserved":false,"is_disabled":true,"rental_uris":{"android":"levelo://app?vid=7da73b08-06e3-43ca-8e0f-9447fe50ccbf","ios":"levelo://app?vid=7da73b08-06e3-43ca-8e0f-9447fe50ccbf"},"vehicle_type_id":"4","last_reported":1736838481,"current_range_meters":0,"station_id":"ce4bhn92rcd13ifvqgrg","pricing_plan_id":"cebpf4jnsgd1na2vs0mg"},{"bike_id":"f2af2ca6-447c-496c-ad3d-731c1377ca61","system_id":"levelo_inurba_marseille","lat":43.30085,"lon":5.37302,"is_reserved":false,"is_disabled":false,"rental_uris":{"android":"levelo://app?vid=f2af2ca6-447c-496c-ad3d-731c1377ca61","ios":"levelo://app?vid=f2af2ca6-447c-496c-ad3d-731c1377ca61"},"vehicle_type_id":"4","last_reported":1736838481,"current_range_meters":11600,"station_id":"","pricing_plan_id":"cebpf4jnsgd1na2vs0mg"},{"bike_id":"85cfe1c0-40e0-4f59-b74d-562bdcdf0cee","system_id":"levelo_inurba_marseille","lat":43.28575,"lon":5.3949,"is_reserved":false,"is_disabled":false,"rental_uris":{"android":"levelo://app?vid=85cfe1c0-40e0-4f59-b74d-562bdcdf0cee","ios":"levelo://app?vid=85cfe1c0-40e0-4f59-b74d-562bdcdf0cee"},"vehicle_type_id":"4","last_reported":1736838481,"current_range_meters":38800,"station_id":"ce4bh292rcd13ifvqdg0","pricing_plan_id":"cebpf4jnsgd1na2vs0mg"},{"bike_id":"4a7664df-a52f-4dc4-96a0-dba04ad8cd44","system_id":"levelo_inurba_marseille","lat":43.26682,"lon":5.38271,"is_reserved":false,"is_disabled":false,"rental_uris":{"android":"levelo://app?vid=4a7664df-a52f-4dc4-96a0-dba04ad8cd44","ios":"levelo://app?vid=4a7664df-a52f-4dc4-96a0-dba04ad8cd44"},"vehicle_type_id":"4","last_reported":1736838481,"current_range_meters":33200,"station_id":"ce4bhg92rcd13ifvqf90","pricing_plan_id":"cebpf4jnsgd1na2vs0mg"},{"bike_id":"34d1187a-0d2f-42da-8bcd-6376169d385a","system_id":"levelo_inurba_marseille","lat":43.25933,"lon":5.4091,"is_reserved":false,"is_disabled":false,"rental_uris":{"android":"levelo://app?vid=34d1187a-0d2f-42da-8bcd-6376169d385a","ios":"levelo://app?vid=34d1187a-0d2f-42da-8bcd-6376169d385a"},"vehicle_type_id":"4","last_reported":1736838481,"current_range_meters":37600,"station_id":"ce4bhm92rcd13ifvqglg","pricing_plan_id":"cebpf4jnsgd1na2vs0mg"},{"bike_id":"8f3d19ca-6788-4fa8-a3b9-31a1f06d17f5","system_id":"levelo_inurba_marseille","lat":43.28033,"lon":5.3694,"is_reserved":false,"is_disabled":true,"rental_uris":{"android":"levelo://app?vid=8f3d19ca-6788-4fa8-a3b9-31a1f06d17f5","ios":"levelo://app?vid=8f3d19ca-6788-4fa8-a3b9-31a1f06d17f5"},"vehicle_type_id":"4","last_reported":1736838481,"current_range_meters":1200,"station_id":"ce4bha12rcd13ifvqef0","pricing_plan_id":"cebpf4jnsgd1na2vs0mg"},{"bike_id":"b704bf42-2bc7-4506-b669-8ca7a3330fef","system_id":"levelo_inurba_marseille","lat":43.28142,"lon":5.42632,"is_reserved":false,"is_disabled":true,"rental_uris":{"android":"levelo://app?vid=b704bf42-2bc7-4506-b669-8ca7a3330fef","ios":"levelo://app?vid=b704bf42-2bc7-4506-b669-8ca7a3330fef"},"vehicle_type_id":"4","last_reported":1736838481,"current_range_meters":22400,"station_id":"ce4bhnh2rcd13ifvqgug","pricing_plan_id":"cebpf4jnsgd1na2vs0mg"},{"bike_id":"99831b3a-0ebc-409e-9166-d7b510de1ec6","system_id":"levelo_inurba_marseille","lat":43.28245,"lon":5.38808,"is_reserved":false,"is_disabled":false,"rental_uris":{"android":"levelo://app?vid=99831b3a-0ebc-409e-9166-d7b510de1ec6","ios":"levelo://app?vid=99831b3a-0ebc-409e-9166-d7b510de1ec6"},"vehicle_type_id":"4","last_reported":1736838481,"current_range_meters":36800,"station_id":"","pricing_plan_id":"cebpf4jnsgd1na2vs0mg"},{"bike_id":"efdf6e72-46a9-4201-b253-5e7a8c8a3bbf","system_id":"levelo_inurba_marseille","lat":43.27168,"lon":5.40983,"is_reserved":false,"is_disabled":false,"rental_uris":{"android":"levelo://app?vid=efdf6e72-46a9-4201-b253-5e7a8c8a3bbf","ios":"levelo://app?vid=efdf6e72-46a9-4201-b253-5e7a8c8a3bbf"},"vehicle_type_id":"4","last_reported":1736838481,"current_range_meters":32000,"station_id":"ce4bhl12rcd13ifvqgf0","pricing_plan_id":"cebpf4jnsgd1na2vs0mg"},{"bike_id":"af387531-ee60-443d-a45e-a1c347f006cc","system_id":"levelo_inurba_marseille","lat":43.28404,"lon":5.40933,"is_reserved":false,"is_disabled":true,"rental_uris":{"android":"levelo://app?vid=af387531-ee60-443d-a45e-a1c347f006cc","ios":"levelo://app?vid=af387531-ee60-443d-a45e-a1c347f006cc"},"vehicle_type_id":"4","last_reported":1736838481,"current_range_meters":0,"station_id":"","pricing_plan_id":"cebpf4jnsgd1na2vs0mg"},{"bike_id":"5fb2bc85-a2e5-417c-a1c2-43f59ad4577d","system_id":"levelo_inurba_marseille","lat":43.30592,"lon":5.39363,"is_reserved":false,"is_disabled":false,"rental_uris":{"android":"levelo://app?vid=5fb2bc85-a2e5-417c-a1c2-43f59ad4577d","ios":"levelo://app?vid=5fb2bc85-a2e5-417c-a1c2-43f59ad4577d"},"vehicle_type_id":"4","last_reported":1736838481,"current_range_meters":24400,"station_id":"ce4bh0p2rcd13ifvqd80","pricing_plan_id":"cebpf4jnsgd1na2vs0mg"},{"bike_id":"f62a7ed4-7c80-4ed8-9568-a4dea62069d1","system_id":"levelo_inurba_marseille","lat":43.280903,"lon":5.396659,"is_reserved":false,"is_disabled":false,"rental_uris":{"android":"levelo://app?vid=f62a7ed4-7c80-4ed8-9568-a4dea62069d1","ios":"levelo://app?vid=f62a7ed4-7c80-4ed8-9568-a4dea62069d1"},"vehicle_type_id":"4","last_reported":1736838481,"current_range_meters":25600,"station_id":"ce4bho12rcd13ifvqh2g","pricing_plan_id":"cebpf4jnsgd1na2vs0mg"},{"bike_id":"f3fc842e-57ba-458d-b6a8-557d1168aac2","system_id":"levelo_inurba_marseille","lat":43.30891,"lon":5.37185,"is_reserved":false,"is_disabled":false,"rental_uris":{"android":"levelo://app?vid=f3fc842e-57ba-458d-b6a8-557d1168aac2","ios":"levelo://app?vid=f3fc842e-57ba-458d-b6a8-557d1168aac2"},"vehicle_type_id":"4","last_reported":1736838481,"current_range_meters":21600,"station_id":"ce4bguh2rcd13ifvqckg","pricing_plan_id":"cebpf4jnsgd1na2vs0mg"},{"bike_id":"6b12ee66-809f-4b5e-9c16-325ceee1f017","system_id":"levelo_inurba_marseille","lat":43.26684,"lon":5.38272,"is_reserved":false,"is_disabled":false,"rental_uris":{"android":"levelo://app?vid=6b12ee66-809f-4b5e-9c16-325ceee1f017","ios":"levelo://app?vid=6b12ee66-809f-4b5e-9c16-325ceee1f017"},"vehicle_type_id":"4","last_reported":1736838481,"current_range_meters":23200,"station_id":"ce4bhg92rcd13ifvqf90","pricing_plan_id":"cebpf4jnsgd1na2vs0mg"},{"bike_id":"e3ce0a6d-84df-4747-bda1-48ca26d77468","system_id":"levelo_inurba_marseille","lat":43.26789,"lon":5.39408,"is_reserved":false,"is_disabled":false,"rental_uris":{"android":"levelo://app?vid=e3ce0a6d-84df-4747-bda1-48ca26d77468","ios":"levelo://app?vid=e3ce0a6d-84df-4747-bda1-48ca26d77468"},"vehicle_type_id":"4","last_reported":1736838481,"current_range_meters":28400,"station_id":"ce4bhh12rcd13ifvqfg0","pricing_plan_id":"cebpf4jnsgd1na2vs0mg"},{"bike_id":"9427535c-b01c-4ee1-aec4-ee298e200bbc","system_id":"levelo_inurba_marseille","lat":43.30485,"lon":5.37889,"is_reserved":false,"is_disabled":false,"rental_uris":{"android":"levelo://app?vid=9427535c-b01c-4ee1-aec4-ee298e200bbc","ios":"levelo://app?vid=9427535c-b01c-4ee1-aec4-ee298e200bbc"},"vehicle_type_id":"4","last_reported":1736838481,"current_range_meters":36000,"station_id":"ce4bgup2rcd13ifvqcn0","pricing_plan_id":"cebpf4jnsgd1na2vs0mg"},{"bike_id":"52b86d23-bb78-4ec5-b77d-73bb1b705963","system_id":"levelo_inurba_marseille","lat":43.27496,"lon":5.42451,"is_reserved":false,"is_disabled":false,"rental_uris":{"android":"levelo://app?vid=52b86d23-bb78-4ec5-b77d-73bb1b705963","ios":"levelo://app?vid=52b86d23-bb78-4ec5-b77d-73bb1b705963"},"vehicle_type_id":"4","last_reported":1736838481,"current_range_meters":8000,"station_id":"ce4bhn92rcd13ifvqgrg","pricing_plan_id":"cebpf4jnsgd1na2vs0mg"},{"bike_id":"69d42309-83fe-4bb9-a6ed-138522d232de","system_id":"levelo_inurba_marseille","lat":43.29559,"lon":5.42284,"is_reserved":false,"is_disabled":false,"rental_uris":{"android":"levelo://app?vid=69d42309-83fe-4bb9-a6ed-138522d232de","ios":"levelo://app?vid=69d42309-83fe-4bb9-a6ed-138522d232de"},"vehicle_type_id":"4","last_reported":1736838481,"current_range_meters":37600,"station_id":"ce4bhph2rcd13ifvqhdg","pricing_plan_id":"cebpf4jnsgd1na2vs0mg"},{"bike_id":"31240ca4-9f64-4406-9c52-14b4354e548c","system_id":"levelo_inurba_marseille","lat":43.28623,"lon":5.35098,"is_reserved":false,"is_disabled":false,"rental_uris":{"android":"levelo://app?vid=31240ca4-9f64-4406-9c52-14b4354e548c","ios":"levelo://app?vid=31240ca4-9f64-4406-9c52-14b4354e548c"},"vehicle_type_id":"4","last_reported":1736838481,"current_range_meters":30000,"station_id":"ce4bhch2rcd13ifvqeug","pricing_plan_id":"cebpf4jnsgd1na2vs0mg"},{"bike_id":"56319cf7-adb1-4f1e-8057-252da0132dc4","system_id":"levelo_inurba_marseille","lat":43.30265,"lon":5.37708,"is_reserved":false,"is_disabled":false,"rental_uris":{"android":"levelo://app?vid=56319cf7-adb1-4f1e-8057-252da0132dc4","ios":"levelo://app?vid=56319cf7-adb1-4f1e-8057-252da0132dc4"},"vehicle_type_id":"4","last_reported":1736838481,"current_range_meters":38800,"station_id":"ce4bguh2rcd13ifvqcj0","pricing_plan_id":"cebpf4jnsgd1na2vs0mg"},{"bike_id":"c57da018-bfbb-4cbc-9a23-aaed6c1fa365","system_id":"levelo_inurba_marseille","lat":43.27617,"lon":5.36103,"is_reserved":false,"is_disabled":false,"rental_uris":{"android":"levelo://app?vid=c57da018-bfbb-4cbc-9a23-aaed6c1fa365","ios":"levelo://app?vid=c57da018-bfbb-4cbc-9a23-aaed6c1fa365"},"vehicle_type_id":"4","last_reported":1736838481,"current_range_meters":34000,"station_id":"ce4bgj92rcd13ifvqbe0","pricing_plan_id":"cebpf4jnsgd1na2vs0mg"},{"bike_id":"a9ec722f-e903-4324-be9b-28a7e19a2e50","system_id":"levelo_inurba_marseille","lat":43.284076,"lon":5.375158,"is_reserved":false,"is_disabled":false,"rental_uris":{"android":"levelo://app?vid=a9ec722f-e903-4324-be9b-28a7e19a2e50","ios":"levelo://app?vid=a9ec722f-e903-4324-be9b-28a7e19a2e50"},"vehicle_type_id":"4","last_reported":1736838481,"current_range_meters":10800,"station_id":"ce4bh412rcd13ifvqds0","pricing_plan_id":"cebpf4jnsgd1na2vs0mg"},{"bike_id":"735ec82c-3ba1-4c1f-99f4-15a352013b3d","system_id":"levelo_inurba_marseille","lat":43.29218,"lon":5.36078,"is_reserved":false,"is_disabled":false,"rental_uris":{"android":"levelo://app?vid=735ec82c-3ba1-4c1f-99f4-15a352013b3d","ios":"levelo://app?vid=735ec82c-3ba1-4c1f-99f4-15a352013b3d"},"vehicle_type_id":"4","last_reported":1736838481,"current_range_meters":38000,"station_id":"ce4bhbh2rcd13ifvqeqg","pricing_plan_id":"cebpf4jnsgd1na2vs0mg"},{"bike_id":"978cf5ba-7ca2-48b0-8fa5-79ef9769d0ae","system_id":"levelo_inurba_marseille","lat":43.2587,"lon":5.399,"is_reserved":false,"is_disabled":false,"rental_uris":{"android":"levelo://app?vid=978cf5ba-7ca2-48b0-8fa5-79ef9769d0ae","ios":"levelo://app?vid=978cf5ba-7ca2-48b0-8fa5-79ef9769d0ae"},"vehicle_type_id":"4","last_reported":1736838481,"current_range_meters":38800,"station_id":"ce4bhl92rcd13ifvqghg","pricing_plan_id":"cebpf4jnsgd1na2vs0mg"},{"bike_id":"9c2f1977-5825-4096-b2bc-4e2843643dc9","system_id":"levelo_inurba_marseille","lat":43.2873,"lon":5.37934,"is_reserved":false,"is_disabled":false,"rental_uris":{"android":"levelo://app?vid=9c2f1977-5825-4096-b2bc-4e2843643dc9","ios":"levelo://app?vid=9c2f1977-5825-4096-b2bc-4e2843643dc9"},"vehicle_type_id":"4","last_reported":1736838481,"current_range_meters":17600,"station_id":"ce4bh9p2rcd13ifvqec0","pricing_plan_id":"cebpf4jnsgd1na2vs0mg"},{"bike_id":"fc8be740-0043-4f9d-b31c-15f19071a736","system_id":"levelo_inurba_marseille","lat":43.25499,"lon":5.3765,"is_reserved":false,"is_disabled":false,"rental_uris":{"android":"levelo://app?vid=fc8be740-0043-4f9d-b31c-15f19071a736","ios":"levelo://app?vid=fc8be740-0043-4f9d-b31c-15f19071a736"},"vehicle_type_id":"4","last_reported":1736838481,"current_range_meters":35600,"station_id":"ce4bhh12rcd13ifvqff0","pricing_plan_id":"cebpf4jnsgd1na2vs0mg"},{"bike_id":"5a5a065c-34b1-42b0-82cf-2c89765994f4","system_id":"levelo_inurba_marseille","lat":43.28468,"lon":5.38399,"is_reserved":false,"is_disabled":false,"rental_uris":{"android":"levelo://app?vid=5a5a065c-34b1-42b0-82cf-2c89765994f4","ios":"levelo://app?vid=5a5a065c-34b1-42b0-82cf-2c89765994f4"},"vehicle_type_id":"4","last_reported":1736838481,"current_range_meters":38800,"station_id":"ce4bh512rcd13ifvqe3g","pricing_plan_id":"cebpf4jnsgd1na2vs0mg"},{"bike_id":"739b9309-56f3-4b21-b61d-ade9ae6cc990","system_id":"levelo_inurba_marseille","lat":43.29257,"lon":5.40128,"is_reserved":false,"is_disabled":true,"rental_uris":{"android":"levelo://app?vid=739b9309-56f3-4b21-b61d-ade9ae6cc990","ios":"levelo://app?vid=739b9309-56f3-4b21-b61d-ade9ae6cc990"},"vehicle_type_id":"4","last_reported":1736838481,"current_range_meters":36400,"station_id":"ce4bh312rcd13ifvqdk0","pricing_plan_id":"cebpf4jnsgd1na2vs0mg"},{"bike_id":"778bfa69-2853-4cfb-bbe9-b2da5ac396e1","system_id":"levelo_inurba_marseille","lat":43.29036,"lon":5.39961,"is_reserved":false,"is_disabled":false,"rental_uris":{"android":"levelo://app?vid=778bfa69-2853-4cfb-bbe9-b2da5ac396e1","ios":"levelo://app?vid=778bfa69-2853-4cfb-bbe9-b2da5ac396e1"},"vehicle_type_id":"4","last_reported":1736838481,"current_range_meters":25200,"station_id":"ce4bh392rcd13ifvqdm0","pricing_plan_id":"cebpf4jnsgd1na2vs0mg"},{"bike_id":"f7e8f7f7-721b-47a0-aeb2-457ccd531561","system_id":"levelo_inurba_marseille","lat":43.323574,"lon":5.388878,"is_reserved":false,"is_disabled":false,"rental_uris":{"android":"levelo://app?vid=f7e8f7f7-721b-47a0-aeb2-457ccd531561","ios":"levelo://app?vid=f7e8f7f7-721b-47a0-aeb2-457ccd531561"},"vehicle_type_id":"4","last_reported":1736838481,"current_range_meters":28400,"station_id":"ce4bhqp2rcd13ifvqhog","pricing_plan_id":"cebpf4jnsgd1na2vs0mg"},{"bike_id":"3c3c287f-e835-4040-bdb7-259026d8f5b9","system_id":"levelo_inurba_marseille","lat":43.29032,"lon":5.38139,"is_reserved":false,"is_disabled":true,"rental_uris":{"android":"levelo://app?vid=3c3c287f-e835-4040-bdb7-259026d8f5b9","ios":"levelo://app?vid=3c3c287f-e835-4040-bdb7-259026d8f5b9"},"vehicle_type_id":"4","last_reported":1736838481,"current_range_meters":0,"station_id":"ce4bh4p2rcd13ifvqe1g","pricing_plan_id":"cebpf4jnsgd1na2vs0mg"},{"bike_id":"01e8c37a-485a-4689-82d6-32555e2cc552","system_id":"levelo_inurba_marseille","lat":43.30536,"lon":5.36525,"is_reserved":false,"is_disabled":false,"rental_uris":{"android":"levelo://app?vid=01e8c37a-485a-4689-82d6-32555e2cc552","ios":"levelo://app?vid=01e8c37a-485a-4689-82d6-32555e2cc552"},"vehicle_type_id":"4","last_reported":1736838481,"current_range_meters":37600,"station_id":"ce4bgs12rcd13ifvqcag","pricing_plan_id":"cebpf4jnsgd1na2vs0mg"},{"bike_id":"5a4b8efb-23c6-4a27-ba10-f7b320fab685","system_id":"levelo_inurba_marseille","lat":43.306,"lon":5.39355,"is_reserved":false,"is_disabled":false,"rental_uris":{"android":"levelo://app?vid=5a4b8efb-23c6-4a27-ba10-f7b320fab685","ios":"levelo://app?vid=5a4b8efb-23c6-4a27-ba10-f7b320fab685"},"vehicle_type_id":"4","last_reported":1736838481,"current_range_meters":28800,"station_id":"ce4bh0p2rcd13ifvqd80","pricing_plan_id":"cebpf4jnsgd1na2vs0mg"},{"bike_id":"f8e22307-a1e3-42d9-85c8-12a8587fea9b","system_id":"levelo_inurba_marseille","lat":43.31599,"lon":5.38955,"is_reserved":false,"is_disabled":false,"rental_uris":{"android":"levelo://app?vid=f8e22307-a1e3-42d9-85c8-12a8587fea9b","ios":"levelo://app?vid=f8e22307-a1e3-42d9-85c8-12a8587fea9b"},"vehicle_type_id":"4","last_reported":1736838481,"current_range_meters":36800,"station_id":"","pricing_plan_id":"cebpf4jnsgd1na2vs0mg"},{"bike_id":"41922604-c7b8-4e93-9da5-3903771d7233","system_id":"levelo_inurba_marseille","lat":43.248073,"lon":5.374668,"is_reserved":false,"is_disabled":false,"rental_uris":{"android":"levelo://app?vid=41922604-c7b8-4e93-9da5-3903771d7233","ios":"levelo://app?vid=41922604-c7b8-4e93-9da5-3903771d7233"},"vehicle_type_id":"4","last_reported":1736838481,"current_range_meters":24000,"station_id":"ce4bhgh2rcd13ifvqfb0","pricing_plan_id":"cebpf4jnsgd1na2vs0mg"},{"bike_id":"3080ca5b-13fd-4859-9a7c-641fe307af16","system_id":"levelo_inurba_marseille","lat":43.2502,"lon":5.38897,"is_reserved":false,"is_disabled":false,"rental_uris":{"android":"levelo://app?vid=3080ca5b-13fd-4859-9a7c-641fe307af16","ios":"levelo://app?vid=3080ca5b-13fd-4859-9a7c-641fe307af16"},"vehicle_type_id":"4","last_reported":1736838481,"current_range_meters":27600,"station_id":"ce4bhgp2rcd13ifvqfd0","pricing_plan_id":"cebpf4jnsgd1na2vs0mg"},{"bike_id":"b3989067-f48e-48e8-9f72-9d04db4132b9","system_id":"levelo_inurba_marseille","lat":43.308093,"lon":5.381499,"is_reserved":false,"is_disabled":true,"rental_uris":{"android":"levelo://app?vid=b3989067-f48e-48e8-9f72-9d04db4132b9","ios":"levelo://app?vid=b3989067-f48e-48e8-9f72-9d04db4132b9"},"vehicle_type_id":"4","last_reported":1736838481,"current_range_meters":30800,"station_id":"ce4bgt12rcd13ifvqce0","pricing_plan_id":"cebpf4jnsgd1na2vs0mg"},{"bike_id":"0f74628b-e47b-4f88-94bd-96f04713947b","system_id":"levelo_inurba_marseille","lat":43.28565,"lon":5.39488,"is_reserved":false,"is_disabled":false,"rental_uris":{"android":"levelo://app?vid=0f74628b-e47b-4f88-94bd-96f04713947b","ios":"levelo://app?vid=0f74628b-e47b-4f88-94bd-96f04713947b"},"vehicle_type_id":"4","last_reported":1736838481,"current_range_meters":34800,"station_id":"ce4bh292rcd13ifvqdg0","pricing_plan_id":"cebpf4jnsgd1na2vs0mg"},{"bike_id":"24343b1d-036f-47e4-89b8-02d4eda95fd3","system_id":"levelo_inurba_marseille","lat":43.28982,"lon":5.37825,"is_reserved":false,"is_disabled":false,"rental_uris":{"android":"levelo://app?vid=24343b1d-036f-47e4-89b8-02d4eda95fd3","ios":"levelo://app?vid=24343b1d-036f-47e4-89b8-02d4eda95fd3"},"vehicle_type_id":"4","last_reported":1736838481,"current_range_meters":27200,"station_id":"ce4bh9p2rcd13ifvqed0","pricing_plan_id":"cebpf4jnsgd1na2vs0mg"},{"bike_id":"de849d82-468f-4c9f-a8d3-e7ba994c7879","system_id":"levelo_inurba_marseille","lat":43.29853,"lon":5.36339,"is_reserved":false,"is_disabled":false,"rental_uris":{"android":"levelo://app?vid=de849d82-468f-4c9f-a8d3-e7ba994c7879","ios":"levelo://app?vid=de849d82-468f-4c9f-a8d3-e7ba994c7879"},"vehicle_type_id":"4","last_reported":1736838481,"current_range_meters":14000,"station_id":"","pricing_plan_id":"cebpf4jnsgd1na2vs0mg"},{"bike_id":"6e4f728f-3b4d-4668-b57a-72588765c74a","system_id":"levelo_inurba_marseille","lat":43.29037,"lon":5.35874,"is_reserved":false,"is_disabled":false,"rental_uris":{"android":"levelo://app?vid=6e4f728f-3b4d-4668-b57a-72588765c74a","ios":"levelo://app?vid=6e4f728f-3b4d-4668-b57a-72588765c74a"},"vehicle_type_id":"4","last_reported":1736838481,"current_range_meters":35200,"station_id":"","pricing_plan_id":"cebpf4jnsgd1na2vs0mg"},{"bike_id":"0e774369-ed14-4d19-a026-9639b170c74a","system_id":"levelo_inurba_marseille","lat":43.30474,"lon":5.37906,"is_reserved":false,"is_disabled":false,"rental_uris":{"android":"levelo://app?vid=0e774369-ed14-4d19-a026-9639b170c74a","ios":"levelo://app?vid=0e774369-ed14-4d19-a026-9639b170c74a"},"vehicle_type_id":"4","last_reported":1736838481,"current_range_meters":19200,"station_id":"ce4bgup2rcd13ifvqcn0","pricing_plan_id":"cebpf4jnsgd1na2vs0mg"},{"bike_id":"8c7af2f1-12e8-47a0-a6ab-f2eea557c83c","system_id":"levelo_inurba_marseille","lat":43.25089,"lon":5.39506,"is_reserved":false,"is_disabled":false,"rental_uris":{"android":"levelo://app?vid=8c7af2f1-12e8-47a0-a6ab-f2eea557c83c","ios":"levelo://app?vid=8c7af2f1-12e8-47a0-a6ab-f2eea557c83c"},"vehicle_type_id":"4","last_reported":1736838481,"current_range_meters":18000,"station_id":"ce4bhm12rcd13ifvqgkg","pricing_plan_id":"cebpf4jnsgd1na2vs0mg"},{"bike_id":"317217f4-252a-4ff2-8a17-cbcec96dc79e","system_id":"levelo_inurba_marseille","lat":43.24081,"lon":5.37728,"is_reserved":false,"is_disabled":true,"rental_uris":{"android":"levelo://app?vid=317217f4-252a-4ff2-8a17-cbcec96dc79e","ios":"levelo://app?vid=317217f4-252a-4ff2-8a17-cbcec96dc79e"},"vehicle_type_id":"4","last_reported":1736838481,"current_range_meters":32800,"station_id":"ce4bhnp2rcd13ifvqgvg","pricing_plan_id":"cebpf4jnsgd1na2vs0mg"},{"bike_id":"0c561563-8d5e-45e1-81c7-9974d4918e5a","system_id":"levelo_inurba_marseille","lat":43.29611,"lon":5.38104,"is_reserved":false,"is_disabled":true,"rental_uris":{"android":"levelo://app?vid=0c561563-8d5e-45e1-81c7-9974d4918e5a","ios":"levelo://app?vid=0c561563-8d5e-45e1-81c7-9974d4918e5a"},"vehicle_type_id":"4","last_reported":1736838481,"current_range_meters":1600,"station_id":"ce4bgl12rcd13ifvqbo0","pricing_plan_id":"cebpf4jnsgd1na2vs0mg"},{"bike_id":"85603f95-286b-4848-8682-ec6ae6094237","system_id":"levelo_inurba_marseille","lat":43.2705,"lon":5.40258,"is_reserved":false,"is_disabled":true,"rental_uris":{"android":"levelo://app?vid=85603f95-286b-4848-8682-ec6ae6094237","ios":"levelo://app?vid=85603f95-286b-4848-8682-ec6ae6094237"},"vehicle_type_id":"4","last_reported":1736838481,"current_range_meters":0,"station_id":"ce4bhk92rcd13ifvqgc0","pricing_plan_id":"cebpf4jnsgd1na2vs0mg"},{"bike_id":"55178c83-e8c1-42d0-85eb-2ae9bbbd47cf","system_id":"levelo_inurba_marseille","lat":43.23202,"lon":5.3555,"is_reserved":false,"is_disabled":false,"rental_uris":{"android":"levelo://app?vid=55178c83-e8c1-42d0-85eb-2ae9bbbd47cf","ios":"levelo://app?vid=55178c83-e8c1-42d0-85eb-2ae9bbbd47cf"},"vehicle_type_id":"4","last_reported":1736838481,"current_range_meters":36400,"station_id":"ce4bhu92rcd13ifvqi70","pricing_plan_id":"cebpf4jnsgd1na2vs0mg"},{"bike_id":"99113558-81bc-4174-895b-14bf1a5d62a1","system_id":"levelo_inurba_marseille","lat":43.26558,"lon":5.37275,"is_reserved":false,"is_disabled":false,"rental_uris":{"android":"levelo://app?vid=99113558-81bc-4174-895b-14bf1a5d62a1","ios":"levelo://app?vid=99113558-81bc-4174-895b-14bf1a5d62a1"},"vehicle_type_id":"4","last_reported":1736838481,"current_range_meters":35600,"station_id":"ce4bhg12rcd13ifvqf70","pricing_plan_id":"cebpf4jnsgd1na2vs0mg"},{"bike_id":"69c47c65-964f-40bd-929d-41de97277039","system_id":"levelo_inurba_marseille","lat":43.33608,"lon":5.4103,"is_reserved":false,"is_disabled":true,"rental_uris":{"android":"levelo://app?vid=69c47c65-964f-40bd-929d-41de97277039","ios":"levelo://app?vid=69c47c65-964f-40bd-929d-41de97277039"},"vehicle_type_id":"4","last_reported":1736838481,"current_range_meters":400,"station_id":"ce4bhqh2rcd13ifvqhmg","pricing_plan_id":"cebpf4jnsgd1na2vs0mg"},{"bike_id":"a40a9829-40b0-4d36-9fb6-c741a62b5805","system_id":"levelo_inurba_marseille","lat":43.29025,"lon":5.38653,"is_reserved":false,"is_disabled":false,"rental_uris":{"android":"levelo://app?vid=a40a9829-40b0-4d36-9fb6-c741a62b5805","ios":"levelo://app?vid=a40a9829-40b0-4d36-9fb6-c741a62b5805"},"vehicle_type_id":"4","last_reported":1736838481,"current_range_meters":22400,"station_id":"ce4bh4p2rcd13ifvqe0g","pricing_plan_id":"cebpf4jnsgd1na2vs0mg"},{"bike_id":"34fbdfbb-3fce-4a0e-b0ab-cce98eace863","system_id":"levelo_inurba_marseille","lat":43.2606,"lon":5.39404,"is_reserved":false,"is_disabled":false,"rental_uris":{"android":"levelo://app?vid=34fbdfbb-3fce-4a0e-b0ab-cce98eace863","ios":"levelo://app?vid=34fbdfbb-3fce-4a0e-b0ab-cce98eace863"},"vehicle_type_id":"4","last_reported":1736838481,"current_range_meters":28400,"station_id":"ce4bhh92rcd13ifvqfj0","pricing_plan_id":"cebpf4jnsgd1na2vs0mg"},{"bike_id":"d2cebf42-36ab-46c1-bebc-8980a518c465","system_id":"levelo_inurba_marseille","lat":43.28706,"lon":5.37927,"is_reserved":false,"is_disabled":false,"rental_uris":{"android":"levelo://app?vid=d2cebf42-36ab-46c1-bebc-8980a518c465","ios":"levelo://app?vid=d2cebf42-36ab-46c1-bebc-8980a518c465"},"vehicle_type_id":"4","last_reported":1736838481,"current_range_meters":19600,"station_id":"ce4bh9p2rcd13ifvqec0","pricing_plan_id":"cebpf4jnsgd1na2vs0mg"},{"bike_id":"db2dde04-593e-48dc-bb26-3aa9ff55b92c","system_id":"levelo_inurba_marseille","lat":43.28937,"lon":5.36637,"is_reserved":false,"is_disabled":false,"rental_uris":{"android":"levelo://app?vid=db2dde04-593e-48dc-bb26-3aa9ff55b92c","ios":"levelo://app?vid=db2dde04-593e-48dc-bb26-3aa9ff55b92c"},"vehicle_type_id":"4","last_reported":1736838481,"current_range_meters":16800,"station_id":"ce4bhap2rcd13ifvqek0","pricing_plan_id":"cebpf4jnsgd1na2vs0mg"},{"bike_id":"90986fc6-6bc5-4863-8279-5443568f163c","system_id":"levelo_inurba_marseille","lat":43.2873,"lon":5.37911,"is_reserved":false,"is_disabled":false,"rental_uris":{"android":"levelo://app?vid=90986fc6-6bc5-4863-8279-5443568f163c","ios":"levelo://app?vid=90986fc6-6bc5-4863-8279-5443568f163c"},"vehicle_type_id":"4","last_reported":1736838481,"current_range_meters":24800,"station_id":"ce4bh9p2rcd13ifvqec0","pricing_plan_id":"cebpf4jnsgd1na2vs0mg"},{"bike_id":"b2ace0f3-7982-4d8e-92fc-b400e742c978","system_id":"levelo_inurba_marseille","lat":43.305408,"lon":5.384329,"is_reserved":false,"is_disabled":true,"rental_uris":{"android":"levelo://app?vid=b2ace0f3-7982-4d8e-92fc-b400e742c978","ios":"levelo://app?vid=b2ace0f3-7982-4d8e-92fc-b400e742c978"},"vehicle_type_id":"4","last_reported":1736838481,"current_range_meters":32000,"station_id":"ce4bgg92rcd13ifvqb30","pricing_plan_id":"cebpf4jnsgd1na2vs0mg"},{"bike_id":"87339157-d961-4cf9-9dd5-00fb3246061f","system_id":"levelo_inurba_marseille","lat":43.25931,"lon":5.409008,"is_reserved":false,"is_disabled":false,"rental_uris":{"android":"levelo://app?vid=87339157-d961-4cf9-9dd5-00fb3246061f","ios":"levelo://app?vid=87339157-d961-4cf9-9dd5-00fb3246061f"},"vehicle_type_id":"4","last_reported":1736838481,"current_range_meters":28400,"station_id":"ce4bhm92rcd13ifvqglg","pricing_plan_id":"cebpf4jnsgd1na2vs0mg"},{"bike_id":"2ad863f2-d589-4019-9b83-ae87d5126173","system_id":"levelo_inurba_marseille","lat":43.26065,"lon":5.39375,"is_reserved":false,"is_disabled":false,"rental_uris":{"android":"levelo://app?vid=2ad863f2-d589-4019-9b83-ae87d5126173","ios":"levelo://app?vid=2ad863f2-d589-4019-9b83-ae87d5126173"},"vehicle_type_id":"4","last_reported":1736838481,"current_range_meters":19200,"station_id":"ce4bhh92rcd13ifvqfj0","pricing_plan_id":"cebpf4jnsgd1na2vs0mg"},{"bike_id":"1dc64d76-fff0-460c-af84-eaea7614f529","system_id":"levelo_inurba_marseille","lat":43.26942,"lon":5.40274,"is_reserved":false,"is_disabled":false,"rental_uris":{"android":"levelo://app?vid=1dc64d76-fff0-460c-af84-eaea7614f529","ios":"levelo://app?vid=1dc64d76-fff0-460c-af84-eaea7614f529"},"vehicle_type_id":"4","last_reported":1736838481,"current_range_meters":38400,"station_id":"cjm6bp8fraef2m0cb0m0","pricing_plan_id":"cebpf4jnsgd1na2vs0mg"},{"bike_id":"8e535b57-d6f4-4d47-8840-a275b9b48d99","system_id":"levelo_inurba_marseille","lat":43.27942,"lon":5.41037,"is_reserved":false,"is_disabled":false,"rental_uris":{"android":"levelo://app?vid=8e535b57-d6f4-4d47-8840-a275b9b48d99","ios":"levelo://app?vid=8e535b57-d6f4-4d47-8840-a275b9b48d99"},"vehicle_type_id":"4","last_reported":1736838481,"current_range_meters":36800,"station_id":"ce4bhnp2rcd13ifvqh0g","pricing_plan_id":"cebpf4jnsgd1na2vs0mg"},