{"last_updated":1753556866,"ttl":60,"version":"2.2","data":{"bikes":[{"bike_id":"05158634-3154-457e-ad8a-129132b1d586","system_id":"levelo_inurba_marseille","lat":43.29253,"lon":5.38435,"is_reserved":false,"is_disabled":false,"rental_uris":{"android":"levelo://app?vid=05158634-3154-457e-ad8a-129132b1d586","ios":"levelo://app?vid=05158634-3154-457e-ad8a-129132b1d586"},"vehicle_type_id":"4","last_reported":1753556866,"current_range_meters":2800,"station_id":"ce4bh692rcd13ifvqea0","pricing_plan_id":"cebpf4jnsgd1na2vs0mg"},{"bike_id":"98c8c6b6-4ccf-4714-a688-3213f94629c4","system_id":"levelo_inurba_marseille","lat":43.30894,"lon":5.39642,"is_reserved":false,"is_disabled":false,"rental_uris":{"android":"levelo://app?vid=98c8c6b6-4ccf-4714-a688-3213f94629c4","ios":"levelo://app?vid=98c8c6b6-4ccf-4714-a688-3213f94629c4"},"vehicle_type_id":"4","last_reported":1753556866,"current_range_meters":2800,"station_id":"ce4bh012rcd13ifvqcv0","pricing_plan_id":"cebpf4jnsgd1na2vs0mg"},{"bike_id":"81c80e2f-e421-4a80-8b12-e9819ec77d42","system_id":"levelo_inurba_marseille","lat":43.27841,"lon":5.39211,"is_reserved":false,"is_disabled":false,"rental_uris":{"android":"levelo://app?vid=81c80e2f-e421-4a80-8b12-e9819ec77d42","ios":"levelo://app?vid=81c80e2f-e421-4a80-8b12-e9819ec77d42"},"vehicle_type_id":"4","last_reported":1753556866,"current_range_meters":2800,"station_id":"ce4bhjp2rcd13ifvqga0","pricing_plan_id":"cebpf4jnsgd1na2vs0mg"},{"bike_id":"58ed0f13-0fc8-4e16-be93-7dab580b8c59","system_id":"levelo_inurba_marseille","lat":43.29294,"lon":5.37458,"is_reserved":false,"is_disabled":true,"rental_uris":{"android":"levelo://app?vid=58ed0f13-0fc8-4e16-be93-7dab580b8c59","ios":"levelo://app?vid=58ed0f13-0fc8-4e16-be93-7dab580b8c59"},"vehicle_type_id":"4","last_reported":1753556866,"current_range_meters":2000,"station_id":"ce4bgi12rcd13ifvqb70","pricing_plan_id":"cebpf4jnsgd1na2vs0mg"},{"bike_id":"e19cd9bd-8f1f-4909-a624-5af678243303","system_id":"levelo_inurba_marseille","lat":43.290764,"lon":5.398786,"is_reserved":false,"is_disabled":false,"rental_uris":{"android":"levelo://app?vid=e19cd9bd-8f1f-4909-a624-5af678243303","ios":"levelo://app?vid=e19cd9bd-8f1f-4909-a624-5af678243303"},"vehicle_type_id":"4","last_reported":1753556866,"current_range_meters":3200,"station_id":"","pricing_plan_id":"cebpf4jnsgd1na2vs0mg"},{"bike_id":"51161c75-7cb8-454e-be33-00afe8af5911","system_id":"levelo_inurba_marseille","lat":43.27058,"lon":5.40254,"is_reserved":false,"is_disabled":false,"rental_uris":{"android":"levelo://app?vid=51161c75-7cb8-454e-be33-00afe8af5911","ios":"levelo://app?vid=51161c75-7cb8-454e-be33-00afe8af5911"},"vehicle_type_id":"4","last_reported":1753556866,"current_range_meters":3200,"station_id":"ce4bhk92rcd13ifvqgc0","pricing_plan_id":"cebpf4jnsgd1na2vs0mg"},{"bike_id":"417800fd-b879-4b67-9224-dc282e1e0836","system_id":"levelo_inurba_marseille","lat":43.27998,"lon":5.41659,"is_reserved":false,"is_disabled":false,"rental_uris":{"android":"levelo://app?vid=417800fd-b879-4b67-9224-dc282e1e0836","ios":"levelo://app?vid=417800fd-b879-4b67-9224-dc282e1e0836"},"vehicle_type_id":"4","last_reported":1753556866,"current_range_meters":3600,"station_id":"ce4bho12rcd13ifvqh1g","pricing_plan_id":"cebpf4jnsgd1na2vs0mg"},{"bike_id":"b08cf08b-8d12-46e4-b5ae-8dced631586e","system_id":"levelo_inurba_marseille","lat":43.26791,"lon":5.39407,"is_reserved":false,"is_disabled":false,"rental_uris":{"android":"levelo://app?vid=b08cf08b-8d12-46e4-b5ae-8dced631586e","ios":"levelo://app?vid=b08cf08b-8d12-46e4-b5ae-8dced631586e"},"vehicle_type_id":"4","last_reported":1753556866,"current_range_meters":3200,"station_id":"ce4bhh12rcd13ifvqfg0","pricing_plan_id":"cebpf4jnsgd1na2vs0mg"},{"bike_id":"bf158499-abf4-4716-ad20-df229fb20126","system_id":"levelo_inurba_marseille","lat":43.225,"lon":5.34778,"is_reserved":false,"is_disabled":true,"rental_uris":{"android":"levelo://app?vid=bf158499-abf4-4716-ad20-df229fb20126","ios":"levelo://app?vid=bf158499-abf4-4716-ad20-df229fb20126"},"vehicle_type_id":"4","last_reported":1753556866,"current_range_meters":3600,"station_id":"","pricing_plan_id":"cebpf4jnsgd1na2vs0mg"},{"bike_id":"115742ae-ccf7-4b73-9a05-e39e759f50ac","system_id":"levelo_inurba_marseille","lat":43.326544,"lon":5.409871,"is_reserved":false,"is_disabled":false,"rental_uris":{"android":"levelo://app?vid=115742ae-ccf7-4b73-9a05-e39e759f50ac","ios":"levelo://app?vid=115742ae-ccf7-4b73-9a05-e39e759f50ac"},"vehicle_type_id":"4","last_reported":1753556866,"current_range_meters":3600,"station_id":"ce4bhpp2rcd13ifvqhgg","pricing_plan_id":"cebpf4jnsgd1na2vs0mg"},{"bike_id":"a9bcff15-70d8-4922-b020-1a5b437dd9fd","system_id":"levelo_inurba_marseille","lat":43.21372,"lon":5.35,"is_reserved":false,"is_disabled":false,"rental_uris":{"android":"levelo://app?vid=a9bcff15-70d8-4922-b020-1a5b437dd9fd","ios":"levelo://app?vid=a9bcff15-70d8-4922-b020-1a5b437dd9fd"},"vehicle_type_id":"4","last_reported":1753556866,"current_range_meters":4000,"station_id":"","pricing_plan_id":"cebpf4jnsgd1na2vs0mg"},{"bike_id":"b586437b-20dc-446a-8c3f-aaadee6edffe","system_id":"levelo_inurba_marseille","lat":43.27067,"lon":5.42287,"is_reserved":false,"is_disabled":true,"rental_uris":{"android":"levelo://app?vid=b586437b-20dc-446a-8c3f-aaadee6edffe","ios":"levelo://app?vid=b586437b-20dc-446a-8c3f-aaadee6edffe"},"vehicle_type_id":"4","last_reported":1753556866,"current_range_meters":4000,"station_id":"ce4bhk92rcd13ifvqgb0","pricing_plan_id":"cebpf4jnsgd1na2vs0mg"},{"bike_id":"f28d2bb9-4217-4196-a573-ba6f4c172497","system_id":"levelo_inurba_marseille","lat":43.2817,"lon":5.36097,"is_reserved":false,"is_disabled":false,"rental_uris":{"android":"levelo://app?vid=f28d2bb9-4217-4196-a573-ba6f4c172497","ios":"levelo://app?vid=f28d2bb9-4217-4196-a573-ba6f4c172497"},"vehicle_type_id":"4","last_reported":1753556866,"current_range_meters":4000,"station_id":"","pricing_plan_id":"cebpf4jnsgd1na2vs0mg"},{"bike_id":"e1988476-3d74-40a8-afa2-f3265973eb32","system_id":"levelo_inurba_marseille","lat":43.26037,"lon":5.37552,"is_reserved":false,"is_disabled":false,"rental_uris":{"android":"levelo://app?vid=e1988476-3d74-40a8-afa2-f3265973eb32","ios":"levelo://app?vid=e1988476-3d74-40a8-afa2-f3265973eb32"},"vehicle_type_id":"4","last_reported":1753556866,"current_range_meters":4000,"station_id":"ce4bhgh2rcd13ifvqfa0","pricing_plan_id":"cebpf4jnsgd1na2vs0mg"},{"bike_id":"02cd9712-9cc8-4fb5-94ea-a6384787299e","system_id":"levelo_inurba_marseille","lat":43.31324,"lon":5.3969,"is_reserved":false,"is_disabled":false,"rental_uris":{"android":"levelo://app?vid=02cd9712-9cc8-4fb5-94ea-a6384787299e","ios":"levelo://app?vid=02cd9712-9cc8-4fb5-94ea-a6384787299e"},"vehicle_type_id":"4","last_reported":1753556866,"current_range_meters":4400,"station_id":"ce4bgvp2rcd13ifvqcu0","pricing_plan_id":"cebpf4jnsgd1na2vs0mg"},{"bike_id":"3e500ad1-a64b-496e-98ac-41b6ac264e17","system_id":"levelo_inurba_marseille","lat":43.29878,"lon":5.39745,"is_reserved":false,"is_disabled":true,"rental_uris":{"android":"levelo://app?vid=3e500ad1-a64b-496e-98ac-41b6ac264e17","ios":"levelo://app?vid=3e500ad1-a64b-496e-98ac-41b6ac264e17"},"vehicle_type_id":"4","last_reported":1753556866,"current_range_meters":4400,"station_id":"ce4bh0h2rcd13ifvqd50","pricing_plan_id":"cebpf4jnsgd1na2vs0mg"},{"bike_id":"a19dbc65-1e39-4c37-a24e-cb453397b877","system_id":"levelo_inurba_marseille","lat":43.27568,"lon":5.384,"is_reserved":false,"is_disabled":false,"rental_uris":{"android":"levelo://app?vid=a19dbc65-1e39-4c37-a24e-cb453397b877","ios":"levelo://app?vid=a19dbc65-1e39-4c37-a24e-cb453397b877"},"vehicle_type_id":"4","last_reported":1753556866,"current_range_meters":4000,"station_id":"ce4bhh92rcd13ifvqfi0","pricing_plan_id":"cebpf4jnsgd1na2vs0mg"},{"bike_id":"5f19d144-5d57-414e-bbd2-f77799874ad2","system_id":"levelo_inurba_marseille","lat":43.32659,"lon":5.40987,"is_reserved":false,"is_disabled":false,"rental_uris":{"android":"levelo://app?vid=5f19d144-5d57-414e-bbd2-f77799874ad2","ios":"levelo://app?vid=5f19d144-5d57-414e-bbd2-f77799874ad2"},"vehicle_type_id":"4","last_reported":1753556866,"current_range_meters":4800,"station_id":"ce4bhpp2rcd13ifvqhgg","pricing_plan_id":"cebpf4jnsgd1na2vs0mg"},{"bike_id":"941a7333-7a7f-46db-98d1-d5b2968b85bb","system_id":"levelo_inurba_marseille","lat":43.22517,"lon":5.34768,"is_reserved":false,"is_disabled":false,"rental_uris":{"android":"levelo://app?vid=941a7333-7a7f-46db-98d1-d5b2968b85bb","ios":"levelo://app?vid=941a7333-7a7f-46db-98d1-d5b2968b85bb"},"vehicle_type_id":"4","last_reported":1753556866,"current_range_meters":4800,"station_id":"st_cvj5dfep6f1abm77gieg","pricing_plan_id":"cebpf4jnsgd1na2vs0mg"},{"bike_id":"c183beb2-678c-4591-8e8f-f6cbd4419d27","system_id":"levelo_inurba_marseille","lat":43.28611,"lon":5.35098,"is_reserved":false,"is_disabled":false,"rental_uris":{"android":"levelo://app?vid=c183beb2-678c-4591-8e8f-f6cbd4419d27","ios":"levelo://app?vid=c183beb2-678c-4591-8e8f-f6cbd4419d27"},"vehicle_type_id":"4","last_reported":1753556866,"current_range_meters":4800,"station_id":"ce4bhch2rcd13ifvqeug","pricing_plan_id":"cebpf4jnsgd1na2vs0mg"},{"bike_id":"996cba84-828c-45ea-8c38-a9397af8d7f2","system_id":"levelo_inurba_marseille","lat":43.28273,"lon":5.35064,"is_reserved":false,"is_disabled":false,"rental_uris":{"android":"levelo://app?vid=996cba84-828c-45ea-8c38-a9397af8d7f2","ios":"levelo://app?vid=996cba84-828c-45ea-8c38-a9397af8d7f2"},"vehicle_type_id":"4","last_reported":1753556866,"current_range_meters":5600,"station_id":"ce4bhbp2rcd13ifvqerg","pricing_plan_id":"cebpf4jnsgd1na2vs0mg"},{"bike_id":"c44c8741-57bd-42cd-add3-6e47d911f47c","system_id":"levelo_inurba_marseille","lat":43.29878,"lon":5.39725,"is_reserved":false,"is_disabled":false,"rental_uris":{"android":"levelo://app?vid=c44c8741-57bd-42cd-add3-6e47d911f47c","ios":"levelo://app?vid=c44c8741-57bd-42cd-add3-6e47d911f47c"},"vehicle_type_id":"4","last_reported":1753556866,"current_range_meters":5600,"station_id":"ce4bh0h2rcd13ifvqd50","pricing_plan_id":"cebpf4jnsgd1na2vs0mg"},{"bike_id":"baebdf6f-83cb-46ac-91b2-b16b79d78ce7","system_id":"levelo_inurba_marseille","lat":43.26211,"lon":5.37437,"is_reserved":false,"is_disabled":false,"rental_uris":{"android":"levelo://app?vid=baebdf6f-83cb-46ac-91b2-b16b79d78ce7","ios":"levelo://app?vid=baebdf6f-83cb-46ac-91b2-b16b79d78ce7"},"vehicle_type_id":"4","last_reported":1753556866,"current_range_meters":5600,"station_id":"ce4bhgp2rcd13ifvqfc0","pricing_plan_id":"cebpf4jnsgd1na2vs0mg"},{"bike_id":"ff30a5ee-0e9d-4bfa-a593-c7beaf9df463","system_id":"levelo_inurba_marseille","lat":43.3354,"lon":5.36198,"is_reserved":false,"is_disabled":false,"rental_uris":{"android":"levelo://app?vid=ff30a5ee-0e9d-4bfa-a593-c7beaf9df463","ios":"levelo://app?vid=ff30a5ee-0e9d-4bfa-a593-c7beaf9df463"},"vehicle_type_id":"4","last_reported":1753556866,"current_range_meters":6000,"station_id":"","pricing_plan_id":"cebpf4jnsgd1na2vs0mg"},{"bike_id":"b072d02b-2324-4023-9f72-6fa4b99fd74e","system_id":"levelo_inurba_marseille","lat":43.29268,"lon":5.38423,"is_reserved":false,"is_disabled":false,"rental_uris":{"android":"levelo://app?vid=b072d02b-2324-4023-9f72-6fa4b99fd74e","ios":"levelo://app?vid=b072d02b-2324-4023-9f72-6fa4b99fd74e"},"vehicle_type_id":"4","last_reported":1753556866,"current_range_meters":6000,"station_id":"ce4bh692rcd13ifvqea0","pricing_plan_id":"cebpf4jnsgd1na2vs0mg"},{"bike_id":"1c31f24b-2b9e-48c3-b103-bffd32b92420","system_id":"levelo_inurba_marseille","lat":43.33518,"lon":5.40862,"is_reserved":false,"is_disabled":false,"rental_uris":{"android":"levelo://app?vid=1c31f24b-2b9e-48c3-b103-bffd32b92420","ios":"levelo://app?vid=1c31f24b-2b9e-48c3-b103-bffd32b92420"},"vehicle_type_id":"4","last_reported":1753556866,"current_range_meters":6000,"station_id":"","pricing_plan_id":"cebpf4jnsgd1na2vs0mg"},{"bike_id":"6af7a72a-189c-4dbc-9282-a956426542ba","system_id":"levelo_inurba_marseille","lat":43.22512,"lon":5.34779,"is_reserved":false,"is_disabled":false,"rental_uris":{"android":"levelo://app?vid=6af7a72a-189c-4dbc-9282-a956426542ba","ios":"levelo://app?vid=6af7a72a-189c-4dbc-9282-a956426542ba"},"vehicle_type_id":"4","last_reported":1753556866,"current_range_meters":6000,"station_id":"","pricing_plan_id":"cebpf4jnsgd1na2vs0mg"},{"bike_id":"89dcea3a-f7f7-44b2-9d2c-a3300861829d","system_id":"levelo_inurba_marseille","lat":43.278698,"lon":5.397081,"is_reserved":false,"is_disabled":false,"rental_uris":{"android":"levelo://app?vid=89dcea3a-f7f7-44b2-9d2c-a3300861829d","ios":"levelo://app?vid=89dcea3a-f7f7-44b2-9d2c-a3300861829d"},"vehicle_type_id":"4","last_reported":1753556866,"current_range_meters":6000,"station_id":"","pricing_plan_id":"cebpf4jnsgd1na2vs0mg"},{"bike_id":"d73ddbc9-6d9c-435a-9052-9cf9ea614505","system_id":"levelo_inurba_marseille","lat":43.29969,"lon":5.38499,"is_reserved":false,"is_disabled":false,"rental_uris":{"android":"levelo://app?vid=d73ddbc9-6d9c-435a-9052-9cf9ea614505","ios":"levelo://app?vid=d73ddbc9-6d9c-435a-9052-9cf9ea614505"},"vehicle_type_id":"4","last_reported":1753556866,"current_range_meters":6000,"station_id":"ce4bgj92rcd13ifvqbd0","pricing_plan_id":"cebpf4jnsgd1na2vs0mg"},{"bike_id":"77166f76-a9bc-446a-881e-3d3d840f5bc9","system_id":"levelo_inurba_marseille","lat":43.31246,"lon":5.38705,"is_reserved":false,"is_disabled":false,"rental_uris":{"android":"levelo://app?vid=77166f76-a9bc-446a-881e-3d3d840f5bc9","ios":"levelo://app?vid=77166f76-a9bc-446a-881e-3d3d840f5bc9"},"vehicle_type_id":"4","last_reported":1753556866,"current_range_meters":6400,"station_id":"","pricing_plan_id":"cebpf4jnsgd1na2vs0mg"},{"bike_id":"3540eb60-52c2-416e-9717-7bef9c01caab","system_id":"levelo_inurba_marseille","lat":43.29526,"lon":5.38577,"is_reserved":false,"is_disabled":false,"rental_uris":{"android":"levelo://app?vid=3540eb60-52c2-416e-9717-7bef9c01caab","ios":"levelo://app?vid=3540eb60-52c2-416e-9717-7bef9c01caab"},"vehicle_type_id":"4","last_reported":1753556866,"current_range_meters":6400,"station_id":"","pricing_plan_id":"cebpf4jnsgd1na2vs0mg"},{"bike_id":"1d9c2034-03eb-412b-8b12-9bcff3522197","system_id":"levelo_inurba_marseille","lat":43.25871,"lon":5.39889,"is_reserved":false,"is_disabled":false,"rental_uris":{"android":"levelo://app?vid=1d9c2034-03eb-412b-8b12-9bcff3522197","ios":"levelo://app?vid=1d9c2034-03eb-412b-8b12-9bcff3522197"},"vehicle_type_id":"4","last_reported":1753556866,"current_range_meters":6400,"station_id":"ce4bhl92rcd13ifvqghg","pricing_plan_id":"cebpf4jnsgd1na2vs0mg"},{"bike_id":"8f8b99e9-759d-48cc-a61e-34be4331ebca","system_id":"levelo_inurba_marseille","lat":43.28419,"lon":5.34985,"is_reserved":false,"is_disabled":false,"rental_uris":{"android":"levelo://app?vid=8f8b99e9-759d-48cc-a61e-34be4331ebca","ios":"levelo://app?vid=8f8b99e9-759d-48cc-a61e-34be4331ebca"},"vehicle_type_id":"4","last_reported":1753556866,"current_range_meters":6400,"station_id":"ce4bhbh2rcd13ifvqepg","pricing_plan_id":"cebpf4jnsgd1na2vs0mg"},{"bike_id":"30ab6eb3-558a-4b73-9917-3f776e3566ea","system_id":"levelo_inurba_marseille","lat":43.21757,"lon":5.34597,"is_reserved":false,"is_disabled":false,"rental_uris":{"android":"levelo://app?vid=30ab6eb3-558a-4b73-9917-3f776e3566ea","ios":"levelo://app?vid=30ab6eb3-558a-4b73-9917-3f776e3566ea"},"vehicle_type_id":"4","last_reported":1753556866,"current_range_meters":6400,"station_id":"st_cvj6r9ubvosntc0bgbag","pricing_plan_id":"cebpf4jnsgd1na2vs0mg"},{"bike_id":"fdb9bf4a-e71e-494e-9e50-714b230c2845","system_id":"levelo_inurba_marseille","lat":43.323868,"lon":5.411754,"is_reserved":false,"is_disabled":false,"rental_uris":{"android":"levelo://app?vid=fdb9bf4a-e71e-494e-9e50-714b230c2845","ios":"levelo://app?vid=fdb9bf4a-e71e-494e-9e50-714b230c2845"},"vehicle_type_id":"4","last_reported":1753556866,"current_range_meters":6800,"station_id":"ce4bhpp2rcd13ifvqhgg","pricing_plan_id":"cebpf4jnsgd1na2vs0mg"},{"bike_id":"410fddd6-cbd5-43f0-9cd8-f289b2dc1997","system_id":"levelo_inurba_marseille","lat":43.29529,"lon":5.37497,"is_reserved":false,"is_disabled":true,"rental_uris":{"android":"levelo://app?vid=410fddd6-cbd5-43f0-9cd8-f289b2dc1997","ios":"levelo://app?vid=410fddd6-cbd5-43f0-9cd8-f289b2dc1997"},"vehicle_type_id":"4","last_reported":1753556866,"current_range_meters":6800,"station_id":"ce4bgkp2rcd13ifvqbmg","pricing_plan_id":"cebpf4jnsgd1na2vs0mg"},{"bike_id":"6ec5136d-9bf1-4a01-8a65-aa8541242f07","system_id":"levelo_inurba_marseille","lat":43.295747,"lon":5.375147,"is_reserved":false,"is_disabled":false,"rental_uris":{"android":"levelo://app?vid=6ec5136d-9bf1-4a01-8a65-aa8541242f07","ios":"levelo://app?vid=6ec5136d-9bf1-4a01-8a65-aa8541242f07"},"vehicle_type_id":"4","last_reported":1753556866,"current_range_meters":6800,"station_id":"ce4bgh92rcd13ifvqb50","pricing_plan_id":"cebpf4jnsgd1na2vs0mg"},{"bike_id":"659696a2-3854-4019-bdd0-5ad56ba4750d","system_id":"levelo_inurba_marseille","lat":43.28155,"lon":5.42633,"is_reserved":false,"is_disabled":true,"rental_uris":{"android":"levelo://app?vid=659696a2-3854-4019-bdd0-5ad56ba4750d","ios":"levelo://app?vid=659696a2-3854-4019-bdd0-5ad56ba4750d"},"vehicle_type_id":"4","last_reported":1753556866,"current_range_meters":7200,"station_id":"ce4bhnh2rcd13ifvqgug","pricing_plan_id":"cebpf4jnsgd1na2vs0mg"},{"bike_id":"f4297774-6ce9-4397-bcda-9a3e5bb9cd76","system_id":"levelo_inurba_marseille","lat":43.225081,"lon":5.347847,"is_reserved":false,"is_disabled":false,"rental_uris":{"android":"levelo://app?vid=f4297774-6ce9-4397-bcda-9a3e5bb9cd76","ios":"levelo://app?vid=f4297774-6ce9-4397-bcda-9a3e5bb9cd76"},"vehicle_type_id":"4","last_reported":1753556866,"current_range_meters":7200,"station_id":"st_cvj5dfep6f1abm77gieg","pricing_plan_id":"cebpf4jnsgd1na2vs0mg"},{"bike_id":"422570c6-8642-4ec5-962c-3539d882f5b3","system_id":"levelo_inurba_marseille","lat":43.2862,"lon":5.35102,"is_reserved":false,"is_disabled":false,"rental_uris":{"android":"levelo://app?vid=422570c6-8642-4ec5-962c-3539d882f5b3","ios":"levelo://app?vid=422570c6-8642-4ec5-962c-3539d882f5b3"},"vehicle_type_id":"4","last_reported":1753556866,"current_range_meters":7200,"station_id":"ce4bhch2rcd13ifvqeug","pricing_plan_id":"cebpf4jnsgd1na2vs0mg"},{"bike_id":"ac3ae55b-c759-4ea4-8abd-298fbeb52638","system_id":"levelo_inurba_marseille","lat":43.3211,"lon":5.36763,"is_reserved":false,"is_disabled":false,"rental_uris":{"android":"levelo://app?vid=ac3ae55b-c759-4ea4-8abd-298fbeb52638","ios":"levelo://app?vid=ac3ae55b-c759-4ea4-8abd-298fbeb52638"},"vehicle_type_id":"4","last_reported":1753556866,"current_range_meters":7200,"station_id":"ce4bhrh2rcd13ifvqhug","pricing_plan_id":"cebpf4jnsgd1na2vs0mg"},{"bike_id":"351b5741-2bbd-4e77-b212-fd11f2db1188","system_id":"levelo_inurba_marseille","lat":43.2482,"lon":5.37449,"is_reserved":false,"is_disabled":false,"rental_uris":{"android":"levelo://app?vid=351b5741-2bbd-4e77-b212-fd11f2db1188","ios":"levelo://app?vid=351b5741-2bbd-4e77-b212-fd11f2db1188"},"vehicle_type_id":"4","last_reported":1753556866,"current_range_meters":7200,"station_id":"ce4bhgh2rcd13ifvqfb0","pricing_plan_id":"cebpf4jnsgd1na2vs0mg"},{"bike_id":"c9c18ee1-ccec-4c87-96bf-2ba3396b1242","system_id":"levelo_inurba_marseille","lat":43.29252,"lon":5.38473,"is_reserved":false,"is_disabled":false,"rental_uris":{"android":"levelo://app?vid=c9c18ee1-ccec-4c87-96bf-2ba3396b1242","ios":"levelo://app?vid=c9c18ee1-ccec-4c87-96bf-2ba3396b1242"},"vehicle_type_id":"4","last_reported":1753556866,"current_range_meters":8000,"station_id":"ce4bh692rcd13ifvqea0","pricing_plan_id":"cebpf4jnsgd1na2vs0mg"},{"bike_id":"4d59e1de-b26d-45e9-93ba-2895a9a1ffbd","system_id":"levelo_inurba_marseille","lat":43.29521,"lon":5.38624,"is_reserved":false,"is_disabled":false,"rental_uris":{"android":"levelo://app?vid=4d59e1de-b26d-45e9-93ba-2895a9a1ffbd","ios":"levelo://app?vid=4d59e1de-b26d-45e9-93ba-2895a9a1ffbd"},"vehicle_type_id":"4","last_reported":1753556866,"current_range_meters":8000,"station_id":"","pricing_plan_id":"cebpf4jnsgd1na2vs0mg"},{"bike_id":"73a3ca56-fcd1-4c9f-bbe7-a130296f68e6","system_id":"levelo_inurba_marseille","lat":43.29512,"lon":5.38652,"is_reserved":false,"is_disabled":false,"rental_uris":{"android":"levelo://app?vid=73a3ca56-fcd1-4c9f-bbe7-a130296f68e6","ios":"levelo://app?vid=73a3ca56-fcd1-4c9f-bbe7-a130296f68e6"},"vehicle_type_id":"4","last_reported":1753556866,"current_range_meters":8000,"station_id":"","pricing_plan_id":"cebpf4jnsgd1na2vs0mg"},{"bike_id":"8d974118-0cdc-4796-b67b-e8b7df44aaec","system_id":"levelo_inurba_marseille","lat":43.33605,"lon":5.41033,"is_reserved":false,"is_disabled":false,"rental_uris":{"android":"levelo://app?vid=8d974118-0cdc-4796-b67b-e8b7df44aaec","ios":"levelo://app?vid=8d974118-0cdc-4796-b67b-e8b7df44aaec"},"vehicle_type_id":"4","last_reported":1753556866,"current_range_meters":7200,"station_id":"ce4bhqh2rcd13ifvqhmg","pricing_plan_id":"cebpf4jnsgd1na2vs0mg"},{"bike_id":"078febbd-6d49-4abf-8b46-d33f87f8da46","system_id":"levelo_inurba_marseille","lat":43.25452,"lon":5.38007,"is_reserved":false,"is_disabled":false,"rental_uris":{"android":"levelo://app?vid=078febbd-6d49-4abf-8b46-d33f87f8da46","ios":"levelo://app?vid=078febbd-6d49-4abf-8b46-d33f87f8da46"},"vehicle_type_id":"4","last_reported":1753556866,"current_range_meters":8000,"station_id":"","pricing_plan_id":"cebpf4jnsgd1na2vs0mg"},{"bike_id":"4177c350-b39d-4243-a455-e13f00e80b0a","system_id":"levelo_inurba_marseille","lat":43.262107,"lon":5.374406,"is_reserved":false,"is_disabled":true,"rental_uris":{"android":"levelo://app?vid=4177c350-b39d-4243-a455-e13f00e80b0a","ios":"levelo://app?vid=4177c350-b39d-4243-a455-e13f00e80b0a"},"vehicle_type_id":"4","last_reported":1753556866,"current_range_meters":8000,"station_id":"ce4bhgp2rcd13ifvqfc0","pricing_plan_id":"cebpf4jnsgd1na2vs0mg"},{"bike_id":"68efc304-0d41-4c98-a023-943580f46380","system_id":"levelo_inurba_marseille","lat":43.22493,"lon":5.34776,"is_reserved":false,"is_disabled":true,"rental_uris":{"android":"levelo://app?vid=68efc304-0d41-4c98-a023-943580f46380","ios":"levelo://app?vid=68efc304-0d41-4c98-a023-943580f46380"},"vehicle_type_id":"4","last_reported":1753556866,"current_range_meters":8000,"station_id":"st_cvj5dfep6f1abm77gieg","pricing_plan_id":"cebpf4jnsgd1na2vs0mg"},{"bike_id":"1451183c-ea73-4638-bb24-f78da01cbc11","system_id":"levelo_inurba_marseille","lat":43.30887,"lon":5.37187,"is_reserved":false,"is_disabled":false,"rental_uris":{"android":"levelo://app?vid=1451183c-ea73-4638-bb24-f78da01cbc11","ios":"levelo://app?vid=1451183c-ea73-4638-bb24-f78da01cbc11"},"vehicle_type_id":"4","last_reported":1753556866,"current_range_meters":8000,"station_id":"ce4bguh2rcd13ifvqckg","pricing_plan_id":"cebpf4jnsgd1na2vs0mg"},{"bike_id":"c1dcf064-7633-4f3e-9c7d-cf25342fb85f","system_id":"levelo_inurba_marseille","lat":43.27211,"lon":5.39175,"is_reserved":false,"is_disabled":true,"rental_uris":{"android":"levelo://app?vid=c1dcf064-7633-4f3e-9c7d-cf25342fb85f","ios":"levelo://app?vid=c1dcf064-7633-4f3e-9c7d-cf25342fb85f"},"vehicle_type_id":"4","last_reported":1753556866,"current_range_meters":8000,"station_id":"ce4bhhp2rcd13ifvqfm0","pricing_plan_id":"cebpf4jnsgd1na2vs0mg"},{"bike_id":"b0f6e766-112e-4db2-97c4-df4585d9b1a7","system_id":"levelo_inurba_marseille","lat":43.29571,"lon":5.37497,"is_reserved":false,"is_disabled":false,"rental_uris":{"android":"levelo://app?vid=b0f6e766-112e-4db2-97c4-df4585d9b1a7","ios":"levelo://app?vid=b0f6e766-112e-4db2-97c4-df4585d9b1a7"},"vehicle_type_id":"4","last_reported":1753556866,"current_range_meters":8000,"station_id":"ce4bgh92rcd13ifvqb50","pricing_plan_id":"cebpf4jnsgd1na2vs0mg"},{"bike_id":"19b3c3d2-3e15-4762-ba0a-a18a50fe4bab","system_id":"levelo_inurba_marseille","lat":43.27909,"lon":5.41063,"is_reserved":false,"is_disabled":false,"rental_uris":{"android":"levelo://app?vid=19b3c3d2-3e15-4762-ba0a-a18a50fe4bab","ios":"levelo://app?vid=19b3c3d2-3e15-4762-ba0a-a18a50fe4bab"},"vehicle_type_id":"4","last_reported":1753556866,"current_range_meters":2800,"station_id":"ce4bhnp2rcd13ifvqh0g","pricing_plan_id":"cebpf4jnsgd1na2vs0mg"},{"bike_id":"c341d94d-db85-4ec6-af38-2b83688aa6a0","system_id":"levelo_inurba_marseille","lat":43.306,"lon":5.39352,"is_reserved":false,"is_disabled":false,"rental_uris":{"android":"levelo://app?vid=c341d94d-db85-4ec6-af38-2b83688aa6a0","ios":"levelo://app?vid=c341d94d-db85-4ec6-af38-2b83688aa6a0"},"vehicle_type_id":"4","last_reported":1753556866,"current_range_meters":8400,"station_id":"ce4bh0p2rcd13ifvqd80","pricing_plan_id":"cebpf4jnsgd1na2vs0mg"},{"bike_id":"0ae38ef6-9bca-48ab-bbb6-a11d05012538","system_id":"levelo_inurba_marseille","lat":43.26942,"lon":5.4025,"is_reserved":false,"is_disabled":false,"rental_uris":{"android":"levelo://app?vid=0ae38ef6-9bca-48ab-bbb6-a11d05012538","ios":"levelo://app?vid=0ae38ef6-9bca-48ab-bbb6-a11d05012538"},"vehicle_type_id":"4","last_reported":1753556866,"current_range_meters":8400,"station_id":"cjm6bp8fraef2m0cb0m0","pricing_plan_id":"cebpf4jnsgd1na2vs0mg"},{"bike_id":"40eaf862-a003-4768-ac75-b4b9be3d43f1","system_id":"levelo_inurba_marseille","lat":43.26203,"lon":5.37443,"is_reserved":false,"is_disabled":false,"rental_uris":{"android":"levelo://app?vid=40eaf862-a003-4768-ac75-b4b9be3d43f1","ios":"levelo://app?vid=40eaf862-a003-4768-ac75-b4b9be3d43f1"},"vehicle_type_id":"4","last_reported":1753556866,"current_range_meters":8400,"station_id":"ce4bhgp2rcd13ifvqfc0","pricing_plan_id":"cebpf4jnsgd1na2vs0mg"},{"bike_id":"16fe2789-22b1-4936-a80e-5bc766f66fff","system_id":"levelo_inurba_marseille","lat":43.29534,"lon":5.38547,"is_reserved":false,"is_disabled":false,"rental_uris":{"android":"levelo://app?vid=16fe2789-22b1-4936-a80e-5bc766f66fff","ios":"levelo://app?vid=16fe2789-22b1-4936-a80e-5bc766f66fff"},"vehicle_type_id":"4","last_reported":1753556866,"current_range_meters":8400,"station_id":"ce4bgih2rcd13ifvqba0","pricing_plan_id":"cebpf4jnsgd1na2vs0mg"},{"bike_id":"dc9e1c82-30cc-40d0-b96b-43aa21b80cfe","system_id":"levelo_inurba_marseille","lat":43.21185,"lon":5.35098,"is_reserved":false,"is_disabled":false,"rental_uris":{"android":"levelo://app?vid=dc9e1c82-30cc-40d0-b96b-43aa21b80cfe","ios":"levelo://app?vid=dc9e1c82-30cc-40d0-b96b-43aa21b80cfe"},"vehicle_type_id":"4","last_reported":1753556866,"current_range_meters":8400,"station_id":"st_cvj6sg6p6f1abm77japg","pricing_plan_id":"cebpf4jnsgd1na2vs0mg"},{"bike_id":"6790bb2c-be71-4a61-9506-0c705c445492","system_id":"levelo_inurba_marseille","lat":43.28419,"lon":5.34983,"is_reserved":false,"is_disabled":false,"rental_uris":{"android":"levelo://app?vid=6790bb2c-be71-4a61-9506-0c705c445492","ios":"levelo://app?vid=6790bb2c-be71-4a61-9506-0c705c445492"},"vehicle_type_id":"4","last_reported":1753556866,"current_range_meters":8800,"station_id":"ce4bhbh2rcd13ifvqepg","pricing_plan_id":"cebpf4jnsgd1na2vs0mg"},{"bike_id":"3017e94e-3b3d-4289-b524-24a99e873b6f","system_id":"levelo_inurba_marseille","lat":43.30147,"lon":5.38758,"is_reserved":false,"is_disabled":false,"rental_uris":{"android":"levelo://app?vid=3017e94e-3b3d-4289-b524-24a99e873b6f","ios":"levelo://app?vid=3017e94e-3b3d-4289-b524-24a99e873b6f"},"vehicle_type_id":"4","last_reported":1753556866,"current_range_meters":8800,"station_id":"ce4bghh2rcd13ifvqb60","pricing_plan_id":"cebpf4jnsgd1na2vs0mg"},{"bike_id":"761ecc18-219a-464d-b7df-09f0894aa8f0","system_id":"levelo_inurba_marseille","lat":43.29536,"lon":5.38537,"is_reserved":false,"is_disabled":false,"rental_uris":{"android":"levelo://app?vid=761ecc18-219a-464d-b7df-09f0894aa8f0","ios":"levelo://app?vid=761ecc18-219a-464d-b7df-09f0894aa8f0"},"vehicle_type_id":"4","last_reported":1753556866,"current_range_meters":8800,"station_id":"ce4bgih2rcd13ifvqba0","pricing_plan_id":"cebpf4jnsgd1na2vs0mg"},{"bike_id":"833b2b7a-d689-4619-a64c-5fbbae9d685b","system_id":"levelo_inurba_marseille","lat":43.31999,"lon":5.3816,"is_reserved":false,"is_disabled":false,"rental_uris":{"android":"levelo://app?vid=833b2b7a-d689-4619-a64c-5fbbae9d685b","ios":"levelo://app?vid=833b2b7a-d689-4619-a64c-5fbbae9d685b"},"vehicle_type_id":"4","last_reported":1753556866,"current_range_meters":8800,"station_id":"ce4bhr12rcd13ifvqhpg","pricing_plan_id":"cebpf4jnsgd1na2vs0mg"},{"bike_id":"7cbadb92-9e38-4e7d-ae9e-a3a1c5f873f2","system_id":"levelo_inurba_marseille","lat":43.29574,"lon":5.37504,"is_reserved":false,"is_disabled":false,"rental_uris":{"android":"levelo://app?vid=7cbadb92-9e38-4e7d-ae9e-a3a1c5f873f2","ios":"levelo://app?vid=7cbadb92-9e38-4e7d-ae9e-a3a1c5f873f2"},"vehicle_type_id":"4","last_reported":1753556866,"current_range_meters":8800,"station_id":"ce4bgh92rcd13ifvqb50","pricing_plan_id":"cebpf4jnsgd1na2vs0mg"},{"bike_id":"c49430b4-18eb-4d6d-ab60-1ad85e196786","system_id":"levelo_inurba_marseille","lat":43.28658,"lon":5.36348,"is_reserved":false,"is_disabled":true,"rental_uris":{"android":"levelo://app?vid=c49430b4-18eb-4d6d-ab60-1ad85e196786","ios":"levelo://app?vid=c49430b4-18eb-4d6d-ab60-1ad85e196786"},"vehicle_type_id":"4","last_reported":1753556866,"current_range_meters":8800,"station_id":"ce4bhah2rcd13ifvqej0","pricing_plan_id":"cebpf4jnsgd1na2vs0mg"},{"bike_id":"13c4991c-3e29-4005-9c0f-381d2d699abf","system_id":"levelo_inurba_marseille","lat":43.28894,"lon":5.36039,"is_reserved":false,"is_disabled":false,"rental_uris":{"android":"levelo://app?vid=13c4991c-3e29-4005-9c0f-381d2d699abf","ios":"levelo://app?vid=13c4991c-3e29-4005-9c0f-381d2d699abf"},"vehicle_type_id":"4","last_reported":1753556866,"current_range_meters":8800,"station_id":"","pricing_plan_id":"cebpf4jnsgd1na2vs0mg"},{"bike_id":"b161eaea-a04c-44e1-b627-3f5a620d8b87","system_id":"levelo_inurba_marseille","lat":43.27942,"lon":5.41046,"is_reserved":false,"is_disabled":false,"rental_uris":{"android":"levelo://app?vid=b161eaea-a04c-44e1-b627-3f5a620d8b87","ios":"levelo://app?vid=b161eaea-a04c-44e1-b627-3f5a620d8b87"},"vehicle_type_id":"4","last_reported":1753556866,"current_range_meters":9200,"station_id":"ce4bhnp2rcd13ifvqh0g","pricing_plan_id":"cebpf4jnsgd1na2vs0mg"},{"bike_id":"636a1f60-6a39-42c8-ae46-fd9c16ca81f9","system_id":"levelo_inurba_marseille","lat":43.25118,"lon":5.40315,"is_reserved":false,"is_disabled":false,"rental_uris":{"android":"levelo://app?vid=636a1f60-6a39-42c8-ae46-fd9c16ca81f9","ios":"levelo://app?vid=636a1f60-6a39-42c8-ae46-fd9c16ca81f9"},"vehicle_type_id":"4","last_reported":1753556866,"current_range_meters":9200,"station_id":"ce4bhlh2rcd13ifvqgig","pricing_plan_id":"cebpf4jnsgd1na2vs0mg"},{"bike_id":"c79d9439-1e65-40b0-aac8-8a7ecbe153a3","system_id":"levelo_inurba_marseille","lat":43.26795,"lon":5.39405,"is_reserved":false,"is_disabled":false,"rental_uris":{"android":"levelo://app?vid=c79d9439-1e65-40b0-aac8-8a7ecbe153a3","ios":"levelo://app?vid=c79d9439-1e65-40b0-aac8-8a7ecbe153a3"},"vehicle_type_id":"4","last_reported":1753556866,"current_range_meters":8800,"station_id":"ce4bhh12rcd13ifvqfg0","pricing_plan_id":"cebpf4jnsgd1na2vs0mg"},{"bike_id":"c2788c1e-7ce2-48fb-a255-de86d03923dd","system_id":"levelo_inurba_marseille","lat":43.29568,"lon":5.37515,"is_reserved":false,"is_disabled":false,"rental_uris":{"android":"levelo://app?vid=c2788c1e-7ce2-48fb-a255-de86d03923dd","ios":"levelo://app?vid=c2788c1e-7ce2-48fb-a255-de86d03923dd"},"vehicle_type_id":"4","last_reported":1753556866,"current_range_meters":9200,"station_id":"ce4bgh92rcd13ifvqb50","pricing_plan_id":"cebpf4jnsgd1na2vs0mg"},{"bike_id":"d79b409f-ca1b-43df-9348-1c6665f1fc25","system_id":"levelo_inurba_marseille","lat":43.22503,"lon":5.3477,"is_reserved":false,"is_disabled":false,"rental_uris":{"android":"levelo://app?vid=d79b409f-ca1b-43df-9348-1c6665f1fc25","ios":"levelo://app?vid=d79b409f-ca1b-43df-9348-1c6665f1fc25"},"vehicle_type_id":"4","last_reported":1753556866,"current_range_meters":9200,"station_id":"st_cvj5dfep6f1abm77gieg","pricing_plan_id":"cebpf4jnsgd1na2vs0mg"},{"bike_id":"cd5561c9-1cf8-4017-b7e0-c99a926bc380","system_id":"levelo_inurba_marseille","lat":43.32289,"lon":5.38273,"is_reserved":false,"is_disabled":false,"rental_uris":{"android":"levelo://app?vid=cd5561c9-1cf8-4017-b7e0-c99a926bc380","ios":"levelo://app?vid=cd5561c9-1cf8-4017-b7e0-c99a926bc380"},"vehicle_type_id":"4","last_reported":1753556866,"current_range_meters":9600,"station_id":"ce4bhr12rcd13ifvqhqg","pricing_plan_id":"cebpf4jnsgd1na2vs0mg"},{"bike_id":"43cf4049-15dd-4e8c-88a8-61cd8dc10bf5","system_id":"levelo_inurba_marseille","lat":43.33235,"lon":5.37874,"is_reserved":false,"is_disabled":false,"rental_uris":{"android":"levelo://app?vid=43cf4049-15dd-4e8c-88a8-61cd8dc10bf5","ios":"levelo://app?vid=43cf4049-15dd-4e8c-88a8-61cd8dc10bf5"},"vehicle_type_id":"4","last_reported":1753556866,"current_range_meters":9200,"station_id":"","pricing_plan_id":"cebpf4jnsgd1na2vs0mg"},{"bike_id":"b5c5fb35-8f51-4883-8cf0-4de24da6c1c7","system_id":"levelo_inurba_marseille","lat":43.2952,"lon":5.3854,"is_reserved":false,"is_disabled":false,"rental_uris":{"android":"levelo://app?vid=b5c5fb35-8f51-4883-8cf0-4de24da6c1c7","ios":"levelo://app?vid=b5c5fb35-8f51-4883-8cf0-4de24da6c1c7"},"vehicle_type_id":"4","last_reported":1753556866,"current_range_meters":9200,"station_id":"ce4bgih2rcd13ifvqba0","pricing_plan_id":"cebpf4jnsgd1na2vs0mg"},{"bike_id":"525284de-a4a7-4957-8c46-99459aec3a28","system_id":"levelo_inurba_marseille","lat":43.27369,"lon":5.36258,"is_reserved":false,"is_disabled":false,"rental_uris":{"android":"levelo://app?vid=525284de-a4a7-4957-8c46-99459aec3a28","ios":"levelo://app?vid=525284de-a4a7-4957-8c46-99459aec3a28"},"vehicle_type_id":"4","last_reported":1753556866,"current_range_meters":9200,"station_id":"ce4bhbh2rcd13ifvqeo0","pricing_plan_id":"cebpf4jnsgd1na2vs0mg"},{"bike_id":"310b2400-dd2e-4320-8ec4-6b74e028c0c7","system_id":"levelo_inurba_marseille","lat":43.225043,"lon":5.347773,"is_reserved":false,"is_disabled":false,"rental_uris":{"android":"levelo://app?vid=310b2400-dd2e-4320-8ec4-6b74e028c0c7","ios":"levelo://app?vid=310b2400-dd2e-4320-8ec4-6b74e028c0c7"},"vehicle_type_id":"4","last_reported":1753556866,"current_range_meters":9200,"station_id":"","pricing_plan_id":"cebpf4jnsgd1na2vs0mg"},{"bike_id":"22c7ad2f-d70a-4b0b-9538-ffd227ecdf90","system_id":"levelo_inurba_marseille","lat":43.28935,"lon":5.38376,"is_reserved":false,"is_disabled":false,"rental_uris":{"android":"levelo://app?vid=22c7ad2f-d70a-4b0b-9538-ffd227ecdf90","ios":"levelo://app?vid=22c7ad2f-d70a-4b0b-9538-ffd227ecdf90"},"vehicle_type_id":"4","last_reported":1753556866,"current_range_meters":8800,"station_id":"ce4bh612rcd13ifvqe6g","pricing_plan_id":"cebpf4jnsgd1na2vs0mg"},{"bike_id":"a0d60e44-246d-4cc0-aef3-dc664879b373","system_id":"levelo_inurba_marseille","lat":43.21717,"lon":5.34636,"is_reserved":false,"is_disabled":true,"rental_uris":{"android":"levelo://app?vid=a0d60e44-246d-4cc0-aef3-dc664879b373","ios":"levelo://app?vid=a0d60e44-246d-4cc0-aef3-dc664879b373"},"vehicle_type_id":"4","last_reported":1753556866,"current_range_meters":9600,"station_id":"st_cvj6r9ubvosntc0bgbag","pricing_plan_id":"cebpf4jnsgd1na2vs0mg"},{"bike_id":"57ce4d2a-f540-4190-9350-7d55e40455e1","system_id":"levelo_inurba_marseille","lat":43.296318,"lon":5.37705,"is_reserved":false,"is_disabled":false,"rental_uris":{"android":"levelo://app?vid=57ce4d2a-f540-4190-9350-7d55e40455e1","ios":"levelo://app?vid=57ce4d2a-f540-4190-9350-7d55e40455e1"},"vehicle_type_id":"4","last_reported":1753556866,"current_range_meters":9600,"station_id":"ce4bgi92rcd13ifvqb90","pricing_plan_id":"cebpf4jnsgd1na2vs0mg"},{"bike_id":"ab991371-506a-411d-b1d8-1efc5ac7cde6","system_id":"levelo_inurba_marseille","lat":43.22782,"lon":5.3518,"is_reserved":false,"is_disabled":false,"rental_uris":{"android":"levelo://app?vid=ab991371-506a-411d-b1d8-1efc5ac7cde6","ios":"levelo://app?vid=ab991371-506a-411d-b1d8-1efc5ac7cde6"},"vehicle_type_id":"4","last_reported":1753556866,"current_range_meters":9600,"station_id":"","pricing_plan_id":"cebpf4jnsgd1na2vs0mg"},{"bike_id":"28766218-f059-418a-a4c6-e3a97e899f6d","system_id":"levelo_inurba_marseille","lat":43.27331,"lon":5.39113,"is_reserved":false,"is_disabled":false,"rental_uris":{"android":"levelo://app?vid=28766218-f059-418a-a4c6-e3a97e899f6d","ios":"levelo://app?vid=28766218-f059-418a-a4c6-e3a97e899f6d"},"vehicle_type_id":"4","last_reported":1753556866,"current_range_meters":9600,"station_id":"ce4bhgp2rcd13ifvqfe0","pricing_plan_id":"cebpf4jnsgd1na2vs0mg"},{"bike_id":"7b5a9890-c727-4b43-a83c-1206087a3908","system_id":"levelo_inurba_marseille","lat":43.28075,"lon":5.39661,"is_reserved":false,"is_disabled":false,"rental_uris":{"android":"levelo://app?vid=7b5a9890-c727-4b43-a83c-1206087a3908","ios":"levelo://app?vid=7b5a9890-c727-4b43-a83c-1206087a3908"},"vehicle_type_id":"4","last_reported":1753556866,"current_range_meters":9600,"station_id":"ce4bho12rcd13ifvqh2g","pricing_plan_id":"cebpf4jnsgd1na2vs0mg"},{"bike_id":"75a52d90-a84e-49e8-9197-7fd3f8d0259a","system_id":"levelo_inurba_marseille","lat":43.26199,"lon":5.37453,"is_reserved":false,"is_disabled":true,"rental_uris":{"android":"levelo://app?vid=75a52d90-a84e-49e8-9197-7fd3f8d0259a","ios":"levelo://app?vid=75a52d90-a84e-49e8-9197-7fd3f8d0259a"},"vehicle_type_id":"4","last_reported":1753556866,"current_range_meters":9600,"station_id":"ce4bhgp2rcd13ifvqfc0","pricing_plan_id":"cebpf4jnsgd1na2vs0mg"},{"bike_id":"d8bcf124-1cf1-42a1-9d7e-bdf07f43a28b","system_id":"levelo_inurba_marseille","lat":43.291,"lon":5.38121,"is_reserved":false,"is_disabled":false,"rental_uris":{"android":"levelo://app?vid=d8bcf124-1cf1-42a1-9d7e-bdf07f43a28b","ios":"levelo://app?vid=d8bcf124-1cf1-42a1-9d7e-bdf07f43a28b"},"vehicle_type_id":"4","last_reported":1753556866,"current_range_meters":9600,"station_id":"ce4bh512rcd13ifvqe2g","pricing_plan_id":"cebpf4jnsgd1na2vs0mg"},{"bike_id":"a3fe9995-2e3e-423b-9540-429a92fa997e","system_id":"levelo_inurba_marseille","lat":43.30155,"lon":5.37154,"is_reserved":false,"is_disabled":false,"rental_uris":{"android":"levelo://app?vid=a3fe9995-2e3e-423b-9540-429a92fa997e","ios":"levelo://app?vid=a3fe9995-2e3e-423b-9540-429a92fa997e"},"vehicle_type_id":"4","last_reported":1753556866,"current_range_meters":9600,"station_id":"","pricing_plan_id":"cebpf4jnsgd1na2vs0mg"},{"bike_id":"7d0072ba-cb32-4467-99d3-487b82eac916","system_id":"levelo_inurba_marseille","lat":43.31495,"lon":5.3731,"is_reserved":false,"is_disabled":false,"rental_uris":{"android":"levelo://app?vid=7d0072ba-cb32-4467-99d3-487b82eac916","ios":"levelo://app?vid=7d0072ba-cb32-4467-99d3-487b82eac916"},"vehicle_type_id":"4","last_reported":1753556866,"current_range_meters":9600,"station_id":"ce4bgt12rcd13ifvqcd0","pricing_plan_id":"cebpf4jnsgd1na2vs0mg"},{"bike_id":"73925dde-7d42-48d8-a0ff-958907b37938","system_id":"levelo_inurba_marseille","lat":43.29591,"lon":5.38098,"is_reserved":false,"is_disabled":false,"rental_uris":{"android":"levelo://app?vid=73925dde-7d42-48d8-a0ff-958907b37938","ios":"levelo://app?vid=73925dde-7d42-48d8-a0ff-958907b37938"},"vehicle_type_id":"4","last_reported":1753556866,"current_range_meters":9600,"station_id":"ce4bgl12rcd13ifvqbo0","pricing_plan_id":"cebpf4jnsgd1na2vs0mg"},{"bike_id":"22dca147-1260-44d8-822d-d9d1d50cce31","system_id":"levelo_inurba_marseille","lat":43.27481,"lon":5.39568,"is_reserved":false,"is_disabled":false,"rental_uris":{"android":"levelo://app?vid=22dca147-1260-44d8-822d-d9d1d50cce31","ios":"levelo://app?vid=22dca147-1260-44d8-822d-d9d1d50cce31"},"vehicle_type_id":"4","last_reported":1753556866,"current_range_meters":10000,"station_id":"","pricing_plan_id":"cebpf4jnsgd1na2vs0mg"},{"bike_id":"e6133a35-e2ba-4d55-a626-b45150e6779a","system_id":"levelo_inurba_marseille","lat":43.28685,"lon":5.38669,"is_reserved":false,"is_disabled":false,"rental_uris":{"android":"levelo://app?vid=e6133a35-e2ba-4d55-a626-b45150e6779a","ios":"levelo://app?vid=e6133a35-e2ba-4d55-a626-b45150e6779a"},"vehicle_type_id":"4","last_reported":1753556866,"current_range_meters":10000,"station_id":"ce4bh492rcd13ifvqdug","pricing_plan_id":"cebpf4jnsgd1na2vs0mg"},{"bike_id":"295de28f-5469-421c-873e-076d2fbd1d95","system_id":"levelo_inurba_marseille","lat":43.28611,"lon":5.37058,"is_reserved":false,"is_disabled":false,"rental_uris":{"android":"levelo://app?vid=295de28f-5469-421c-873e-076d2fbd1d95","ios":"levelo://app?vid=295de28f-5469-421c-873e-076d2fbd1d95"},"vehicle_type_id":"4","last_reported":1753556866,"current_range_meters":10000,"station_id":"ce4bht12rcd13ifvqi60","pricing_plan_id":"cebpf4jnsgd1na2vs0mg"},{"bike_id":"d2cd51d1-4be4-47b8-a777-8c658e075be9","system_id":"levelo_inurba_marseille","lat":43.29968,"lon":5.38491,"is_reserved":false,"is_disabled":false,"rental_uris":{"android":"levelo://app?vid=d2cd51d1-4be4-47b8-a777-8c658e075be9","ios":"levelo://app?vid=d2cd51d1-4be4-47b8-a777-8c658e075be9"},"vehicle_type_id":"4","last_reported":1753556866,"current_range_meters":10000,"station_id":"ce4bgj92rcd13ifvqbd0","pricing_plan_id":"cebpf4jnsgd1na2vs0mg"},{"bike_id":"5c2ea005-0253-4fa9-85d6-8550625c950b","system_id":"levelo_inurba_marseille","lat":43.27999,"lon":5.41659,"is_reserved":false,"is_disabled":false,"rental_uris":{"android":"levelo://app?vid=5c2ea005-0253-4fa9-85d6-8550625c950b","ios":"levelo://app?vid=5c2ea005-0253-4fa9-85d6-8550625c950b"},"vehicle_type_id":"4","last_reported":1753556866,"current_range_meters":10000,"station_id":"ce4bho12rcd13ifvqh1g","pricing_plan_id":"cebpf4jnsgd1na2vs0mg"},{"bike_id":"22c18818-21ba-4c9a-84b8-e03ade2dba42","system_id":"levelo_inurba_marseille","lat":43.29534,"lon":5.38535,"is_reserved":false,"is_disabled":false,"rental_uris":{"android":"levelo://app?vid=22c18818-21ba-4c9a-84b8-e03ade2dba42","ios":"levelo://app?vid=22c18818-21ba-4c9a-84b8-e03ade2dba42"},"vehicle_type_id":"4","last_reported":1753556866,"current_range_meters":11200,"station_id":"ce4bgih2rcd13ifvqba0","pricing_plan_id":"cebpf4jnsgd1na2vs0mg"},{"bike_id":"4f19d206-0d9f-4e82-94c8-f909977df45d","system_id":"levelo_inurba_marseille","lat":43.2602,"lon":5.37553,"is_reserved":false,"is_disabled":false,"rental_uris":{"android":"levelo://app?vid=4f19d206-0d9f-4e82-94c8-f909977df45d","ios":"levelo://app?vid=4f19d206-0d9f-4e82-94c8-f909977df45d"},"vehicle_type_id":"4","last_reported":1753556866,"current_range_meters":10800,"station_id":"ce4bhgh2rcd13ifvqfa0","pricing_plan_id":"cebpf4jnsgd1na2vs0mg"},{"bike_id":"0aeff3f7-8189-41d3-b59f-8d8fda3910ab","system_id":"levelo_inurba_marseille","lat":43.29101,"lon":5.38147,"is_reserved":false,"is_disabled":false,"rental_uris":{"android":"levelo://app?vid=0aeff3f7-8189-41d3-b59f-8d8fda3910ab","ios":"levelo://app?vid=0aeff3f7-8189-41d3-b59f-8d8fda3910ab"},"vehicle_type_id":"4","last_reported":1753556866,"current_range_meters":10800,"station_id":"ce4bh512rcd13ifvqe2g","pricing_plan_id":"cebpf4jnsgd1na2vs0mg"},{"bike_id":"754f55fa-9cec-441a-8b6d-fedcd1f0cfca","system_id":"levelo_inurba_marseille","lat":43.2953,"lon":5.38535,"is_reserved":false,"is_disabled":false,"rental_uris":{"android":"levelo://app?vid=754f55fa-9cec-441a-8b6d-fedcd1f0cfca","ios":"levelo://app?vid=754f55fa-9cec-441a-8b6d-fedcd1f0cfca"},"vehicle_type_id":"4","last_reported":1753556866,"current_range_meters":10800,"station_id":"ce4bgih2rcd13ifvqba0","pricing_plan_id":"cebpf4jnsgd1na2vs0mg"},{"bike_id":"8aec49e9-2a7c-473f-936a-01f180d46c56","system_id":"levelo_inurba_marseille","lat":43.225044,"lon":5.347839,"is_reserved":false,"is_disabled":false,"rental_uris":{"android":"levelo://app?vid=8aec49e9-2a7c-473f-936a-01f180d46c56","ios":"levelo://app?vid=8aec49e9-2a7c-473f-936a-01f180d46c56"},"vehicle_type_id":"4","last_reported":1753556866,"current_range_meters":10800,"station_id":"st_cvj5dfep6f1abm77gieg","pricing_plan_id":"cebpf4jnsgd1na2vs0mg"},{"bike_id":"019933aa-4279-45f3-b842-0fe869814e4f","system_id":"levelo_inurba_marseille","lat":43.30411,"lon":5.41291,"is_reserved":false,"is_disabled":false,"rental_uris":{"android":"levelo://app?vid=019933aa-4279-45f3-b842-0fe869814e4f","ios":"levelo://app?vid=019933aa-4279-45f3-b842-0fe869814e4f"},"vehicle_type_id":"4","last_reported":1753556866,"current_range_meters":10000,"station_id":"ce4bhop2rcd13ifvqh8g","pricing_plan_id":"cebpf4jnsgd1na2vs0mg"},{"bike_id":"6ab0b13c-2ff1-417a-acfd-489d6800d4c9","system_id":"levelo_inurba_marseille","lat":43.2737,"lon":5.36235,"is_reserved":false,"is_disabled":true,"rental_uris":{"android":"levelo://app?vid=6ab0b13c-2ff1-417a-acfd-489d6800d4c9","ios":"levelo://app?vid=6ab0b13c-2ff1-417a-acfd-489d6800d4c9"},"vehicle_type_id":"4","last_reported":1753556866,"current_range_meters":10800,"station_id":"ce4bhbh2rcd13ifvqeo0","pricing_plan_id":"cebpf4jnsgd1na2vs0mg"},{"bike_id":"0479b131-ae61-4de3-985c-432dff3bc48d","system_id":"levelo_inurba_marseille","lat":43.2953,"lon":5.38537,"is_reserved":false,"is_disabled":false,"rental_uris":{"android":"levelo://app?vid=0479b131-ae61-4de3-985c-432dff3bc48d","ios":"levelo://app?vid=0479b131-ae61-4de3-985c-432dff3bc48d"},"vehicle_type_id":"4","last_reported":1753556866,"current_range_meters":11200,"station_id":"ce4bgih2rcd13ifvqba0","pricing_plan_id":"cebpf4jnsgd1na2vs0mg"},{"bike_id":"2590d610-eacc-4543-b26a-0e5915146fe7","system_id":"levelo_inurba_marseille","lat":43.322912,"lon":5.382804,"is_reserved":false,"is_disabled":false,"rental_uris":{"android":"levelo://app?vid=2590d610-eacc-4543-b26a-0e5915146fe7","ios":"levelo://app?vid=2590d610-eacc-4543-b26a-0e5915146fe7"},"vehicle_type_id":"4","last_reported":1753556866,"current_range_meters":11200,"station_id":"ce4bhr12rcd13ifvqhqg","pricing_plan_id":"cebpf4jnsgd1na2vs0mg"},{"bike_id":"de99b14c-9afd-4bdd-bc56-50354c110c3d","system_id":"levelo_inurba_marseille","lat":43.25467,"lon":5.37687,"is_reserved":false,"is_disabled":false,"rental_uris":{"android":"levelo://app?vid=de99b14c-9afd-4bdd-bc56-50354c110c3d","ios":"levelo://app?vid=de99b14c-9afd-4bdd-bc56-50354c110c3d"},"vehicle_type_id":"4","last_reported":1753556866,"current_range_meters":11200,"station_id":"","pricing_plan_id":"cebpf4jnsgd1na2vs0mg"},{"bike_id":"c151f0ea-151e-40ef-85ad-03da6ea95fb7","system_id":"levelo_inurba_marseille","lat":43.29529,"lon":5.38524,"is_reserved":false,"is_disabled":false,"rental_uris":{"android":"levelo://app?vid=c151f0ea-151e-40ef-85ad-03da6ea95fb7","ios":"levelo://app?vid=c151f0ea-151e-40ef-85ad-03da6ea95fb7"},"vehicle_type_id":"4","last_reported":1753556866,"current_range_meters":11200,"station_id":"ce4bgih2rcd13ifvqba0","pricing_plan_id":"cebpf4jnsgd1na2vs0mg"},{"bike_id":"dcd92531-f889-4e78-8114-666d1d5862c0","system_id":"levelo_inurba_marseille","lat":43.29533,"lon":5.38542,"is_reserved":false,"is_disabled":false,"rental_uris":{"android":"levelo://app?vid=dcd92531-f889-4e78-8114-666d1d5862c0","ios":"levelo://app?vid=dcd92531-f889-4e78-8114-666d1d5862c0"},"vehicle_type_id":"4","last_reported":1753556866,"current_range_meters":11200,"station_id":"ce4bgih2rcd13ifvqba0","pricing_plan_id":"cebpf4jnsgd1na2vs0mg"},{"bike_id":"53d26fd7-f298-4c16-be96-0483047ae359","system_id":"levelo_inurba_marseille","lat":43.30422,"lon":5.39729,"is_reserved":false,"is_disabled":false,"rental_uris":{"android":"levelo://app?vid=53d26fd7-f298-4c16-be96-0483047ae359","ios":"levelo://app?vid=53d26fd7-f298-4c16-be96-0483047ae359"},"vehicle_type_id":"4","last_reported":1753556866,"current_range_meters":10800,"station_id":"ce4bh092rcd13ifvqd20","pricing_plan_id":"cebpf4jnsgd1na2vs0mg"},{"bike_id":"1eb69046-1d55-4d5c-82b6-002bd6cd7872","system_id":"levelo_inurba_marseille","lat":43.28483,"lon":5.38416,"is_reserved":false,"is_disabled":false,"rental_uris":{"android":"levelo://app?vid=1eb69046-1d55-4d5c-82b6-002bd6cd7872","ios":"levelo://app?vid=1eb69046-1d55-4d5c-82b6-002bd6cd7872"},"vehicle_type_id":"4","last_reported":1753556866,"current_range_meters":13600,"station_id":"ce4bh512rcd13ifvqe3g","pricing_plan_id":"cebpf4jnsgd1na2vs0mg"},{"bike_id":"57755280-973c-4ff3-9c25-8f15e2c5b510","system_id":"levelo_inurba_marseille","lat":43.31872,"lon":5.37373,"is_reserved":false,"is_disabled":false,"rental_uris":{"android":"levelo://app?vid=57755280-973c-4ff3-9c25-8f15e2c5b510","ios":"levelo://app?vid=57755280-973c-4ff3-9c25-8f15e2c5b510"},"vehicle_type_id":"4","last_reported":1753556866,"current_range_meters":11200,"station_id":"","pricing_plan_id":"cebpf4jnsgd1na2vs0mg"},{"bike_id":"f2c0d178-a474-46a0-b002-379a7a30c411","system_id":"levelo_inurba_marseille","lat":43.29443,"lon":5.37552,"is_reserved":false,"is_disabled":false,"rental_uris":{"android":"levelo://app?vid=f2c0d178-a474-46a0-b002-379a7a30c411","ios":"levelo://app?vid=f2c0d178-a474-46a0-b002-379a7a30c411"},"vehicle_type_id":"4","last_reported":1753556866,"current_range_meters":11600,"station_id":"","pricing_plan_id":"cebpf4jnsgd1na2vs0mg"},{"bike_id":"c4b20afb-bb94-4666-a540-e08142edf4ab","system_id":"levelo_inurba_marseille","lat":43.29264,"lon":5.38433,"is_reserved":false,"is_disabled":false,"rental_uris":{"android":"levelo://app?vid=c4b20afb-bb94-4666-a540-e08142edf4ab","ios":"levelo://app?vid=c4b20afb-bb94-4666-a540-e08142edf4ab"},"vehicle_type_id":"4","last_reported":1753556866,"current_range_meters":11600,"station_id":"ce4bh692rcd13ifvqea0","pricing_plan_id":"cebpf4jnsgd1na2vs0mg"},{"bike_id":"9bff4c30-7d52-4173-88ba-afd3702b54f6","system_id":"levelo_inurba_marseille","lat":43.27954,"lon":5.41654,"is_reserved":false,"is_disabled":false,"rental_uris":{"android":"levelo://app?vid=9bff4c30-7d52-4173-88ba-afd3702b54f6","ios":"levelo://app?vid=9bff4c30-7d52-4173-88ba-afd3702b54f6"},"vehicle_type_id":"4","last_reported":1753556866,"current_range_meters":11600,"station_id":"ce4bho12rcd13ifvqh1g","pricing_plan_id":"cebpf4jnsgd1na2vs0mg"},{"bike_id":"01919711-51c0-4b9e-863e-584f9a31b4ec","system_id":"levelo_inurba_marseille","lat":43.29882,"lon":5.39713,"is_reserved":false,"is_disabled":true,"rental_uris":{"android":"levelo://app?vid=01919711-51c0-4b9e-863e-584f9a31b4ec","ios":"levelo://app?vid=01919711-51c0-4b9e-863e-584f9a31b4ec"},"vehicle_type_id":"4","last_reported":1753556866,"current_range_meters":11600,"station_id":"ce4bh0h2rcd13ifvqd50","pricing_plan_id":"cebpf4jnsgd1na2vs0mg"},{"bike_id":"6a9a3385-f843-42f7-ae11-daf230896d05","system_id":"levelo_inurba_marseille","lat":43.29093,"lon":5.38139,"is_reserved":false,"is_disabled":false,"rental_uris":{"android":"levelo://app?vid=6a9a3385-f843-42f7-ae11-daf230896d05","ios":"levelo://app?vid=6a9a3385-f843-42f7-ae11-daf230896d05"},"vehicle_type_id":"4","last_reported":1753556866,"current_range_meters":11600,"station_id":"ce4bh512rcd13ifvqe2g","pricing_plan_id":"cebpf4jnsgd1na2vs0mg"},{"bike_id":"0c61f584-f6fe-45dd-a7f7-47366e1cc245","system_id":"levelo_inurba_marseille","lat":43.30538,"lon":5.36557,"is_reserved":false,"is_disabled":false,"rental_uris":{"android":"levelo://app?vid=0c61f584-f6fe-45dd-a7f7-47366e1cc245","ios":"levelo://app?vid=0c61f584-f6fe-45dd-a7f7-47366e1cc245"},"vehicle_type_id":"4","last_reported":1753556866,"current_range_meters":11200,"station_id":"ce4bgs12rcd13ifvqcag","pricing_plan_id":"cebpf4jnsgd1na2vs0mg"},{"bike_id":"93702d68-9606-419c-a5fe-eee999288ff0","system_id":"levelo_inurba_marseille","lat":43.29097,"lon":5.3816,"is_reserved":false,"is_disabled":false,"rental_uris":{"android":"levelo://app?vid=93702d68-9606-419c-a5fe-eee999288ff0","ios":"levelo://app?vid=93702d68-9606-419c-a5fe-eee999288ff0"},"vehicle_type_id":"4","last_reported":1753556866,"current_range_meters":11600,"station_id":"ce4bh512rcd13ifvqe2g","pricing_plan_id":"cebpf4jnsgd1na2vs0mg"},{"bike_id":"29b04cad-1697-44bc-b474-255fd056ecfb","system_id":"levelo_inurba_marseille","lat":43.23146,"lon":5.43719,"is_reserved":false,"is_disabled":false,"rental_uris":{"android":"levelo://app?vid=29b04cad-1697-44bc-b474-255fd056ecfb","ios":"levelo://app?vid=29b04cad-1697-44bc-b474-255fd056ecfb"},"vehicle_type_id":"4","last_reported":1753556866,"current_range_meters":11600,"station_id":"ce4bhmp2rcd13ifvqgog","pricing_plan_id":"cebpf4jnsgd1na2vs0mg"},{"bike_id":"8898b3e7-703f-4fe5-933f-f785f37d30f6","system_id":"levelo_inurba_marseille","lat":43.29921,"lon":5.37474,"is_reserved":false,"is_disabled":false,"rental_uris":{"android":"levelo://app?vid=8898b3e7-703f-4fe5-933f-f785f37d30f6","ios":"levelo://app?vid=8898b3e7-703f-4fe5-933f-f785f37d30f6"},"vehicle_type_id":"4","last_reported":1753556866,"current_range_meters":11200,"station_id":"ce4bgjh2rcd13ifvqbg0","pricing_plan_id":"cebpf4jnsgd1na2vs0mg"},{"bike_id":"09447d92-0522-480e-b6b5-24959949ccf9","system_id":"levelo_inurba_marseille","lat":43.32413,"lon":5.36792,"is_reserved":false,"is_disabled":false,"rental_uris":{"android":"levelo://app?vid=09447d92-0522-480e-b6b5-24959949ccf9","ios":"levelo://app?vid=09447d92-0522-480e-b6b5-24959949ccf9"},"vehicle_type_id":"4","last_reported":1753556866,"current_range_meters":12000,"station_id":"","pricing_plan_id":"cebpf4jnsgd1na2vs0mg"},{"bike_id":"b5aab1b5-818a-4dfd-b7ae-70df5639e329","system_id":"levelo_inurba_marseille","lat":43.27059,"lon":5.42286,"is_reserved":false,"is_disabled":false,"rental_uris":{"android":"levelo://app?vid=b5aab1b5-818a-4dfd-b7ae-70df5639e329","ios":"levelo://app?vid=b5aab1b5-818a-4dfd-b7ae-70df5639e329"},"vehicle_type_id":"4","last_reported":1753556866,"current_range_meters":12000,"station_id":"ce4bhk92rcd13ifvqgb0","pricing_plan_id":"cebpf4jnsgd1na2vs0mg"},{"bike_id":"de80e1f8-f338-4fdf-a46a-fb5d0e7700ed","system_id":"levelo_inurba_marseille","lat":43.23969,"lon":5.36617,"is_reserved":false,"is_disabled":false,"rental_uris":{"android":"levelo://app?vid=de80e1f8-f338-4fdf-a46a-fb5d0e7700ed","ios":"levelo://app?vid=de80e1f8-f338-4fdf-a46a-fb5d0e7700ed"},"vehicle_type_id":"4","last_reported":1753556866,"current_range_meters":12000,"station_id":"ce4bhi12rcd13ifvqfp0","pricing_plan_id":"cebpf4jnsgd1na2vs0mg"},{"bike_id":"aea0b2ab-c62e-4648-8a2d-23816e4f36f6","system_id":"levelo_inurba_marseille","lat":43.265,"lon":5.39536,"is_reserved":false,"is_disabled":false,"rental_uris":{"android":"levelo://app?vid=aea0b2ab-c62e-4648-8a2d-23816e4f36f6","ios":"levelo://app?vid=aea0b2ab-c62e-4648-8a2d-23816e4f36f6"},"vehicle_type_id":"4","last_reported":1753556866,"current_range_meters":12400,"station_id":"ce4bhi12rcd13ifvqfq0","pricing_plan_id":"cebpf4jnsgd1na2vs0mg"},{"bike_id":"32efde84-5399-42a0-a137-2c515ddaadff","system_id":"levelo_inurba_marseille","lat":43.29974,"lon":5.38486,"is_reserved":false,"is_disabled":false,"rental_uris":{"android":"levelo://app?vid=32efde84-5399-42a0-a137-2c515ddaadff","ios":"levelo://app?vid=32efde84-5399-42a0-a137-2c515ddaadff"},"vehicle_type_id":"4","last_reported":1753556866,"current_range_meters":12400,"station_id":"ce4bgj92rcd13ifvqbd0","pricing_plan_id":"cebpf4jnsgd1na2vs0mg"},{"bike_id":"af39779b-1c47-4e77-95ee-7415f5a6221e","system_id":"levelo_inurba_marseille","lat":43.29185,"lon":5.39313,"is_reserved":false,"is_disabled":false,"rental_uris":{"android":"levelo://app?vid=af39779b-1c47-4e77-95ee-7415f5a6221e","ios":"levelo://app?vid=af39779b-1c47-4e77-95ee-7415f5a6221e"},"vehicle_type_id":"4","last_reported":1753556866,"current_range_meters":12400,"station_id":"ce4bh192rcd13ifvqdd0","pricing_plan_id":"cebpf4jnsgd1na2vs0mg"},{"bike_id":"cc9ac4f6-acd3-4ca3-8347-8dab40b9622a","system_id":"levelo_inurba_marseille","lat":43.23155,"lon":5.35618,"is_reserved":false,"is_disabled":false,"rental_uris":{"android":"levelo://app?vid=cc9ac4f6-acd3-4ca3-8347-8dab40b9622a","ios":"levelo://app?vid=cc9ac4f6-acd3-4ca3-8347-8dab40b9622a"},"vehicle_type_id":"4","last_reported":1753556866,"current_range_meters":12400,"station_id":"","pricing_plan_id":"cebpf4jnsgd1na2vs0mg"},{"bike_id":"49ed8182-517a-4845-8d39-41a53c0fac10","system_id":"levelo_inurba_marseille","lat":43.30594,"lon":5.39357,"is_reserved":false,"is_disabled":false,"rental_uris":{"android":"levelo://app?vid=49ed8182-517a-4845-8d39-41a53c0fac10","ios":"levelo://app?vid=49ed8182-517a-4845-8d39-41a53c0fac10"},"vehicle_type_id":"4","last_reported":1753556866,"current_range_meters":12400,"station_id":"ce4bh0p2rcd13ifvqd80","pricing_plan_id":"cebpf4jnsgd1na2vs0mg"},{"bike_id":"80cda384-a0de-4854-88d7-81c5eb0a10d1","system_id":"levelo_inurba_marseille","lat":43.28959,"lon":5.36387,"is_reserved":false,"is_disabled":true,"rental_uris":{"android":"levelo://app?vid=80cda384-a0de-4854-88d7-81c5eb0a10d1","ios":"levelo://app?vid=80cda384-a0de-4854-88d7-81c5eb0a10d1"},"vehicle_type_id":"4","last_reported":1753556866,"current_range_meters":12400,"station_id":"ce4bhc92rcd13ifvqetg","pricing_plan_id":"cebpf4jnsgd1na2vs0mg"},{"bike_id":"ee36960f-e3bc-4620-a382-58154b0f0478","system_id":"levelo_inurba_marseille","lat":43.30424,"lon":5.3972,"is_reserved":false,"is_disabled":false,"rental_uris":{"android":"levelo://app?vid=ee36960f-e3bc-4620-a382-58154b0f0478","ios":"levelo://app?vid=ee36960f-e3bc-4620-a382-58154b0f0478"},"vehicle_type_id":"4","last_reported":1753556866,"current_range_meters":12400,"station_id":"ce4bh092rcd13ifvqd20","pricing_plan_id":"cebpf4jnsgd1na2vs0mg"},{"bike_id":"254f0cb4-5954-4a7a-9a26-46206bdf7d90","system_id":"levelo_inurba_marseille","lat":43.26032,"lon":5.37541,"is_reserved":false,"is_disabled":false,"rental_uris":{"android":"levelo://app?vid=254f0cb4-5954-4a7a-9a26-46206bdf7d90","ios":"levelo://app?vid=254f0cb4-5954-4a7a-9a26-46206bdf7d90"},"vehicle_type_id":"4","last_reported":1753556866,"current_range_meters":12400,"station_id":"ce4bhgh2rcd13ifvqfa0","pricing_plan_id":"cebpf4jnsgd1na2vs0mg"},{"bike_id":"8de50e0a-bc44-4b73-b385-88eeeda72527","system_id":"levelo_inurba_marseille","lat":43.29278,"lon":5.36852,"is_reserved":false,"is_disabled":false,"rental_uris":{"android":"levelo://app?vid=8de50e0a-bc44-4b73-b385-88eeeda72527","ios":"levelo://app?vid=8de50e0a-bc44-4b73-b385-88eeeda72527"},"vehicle_type_id":"4","last_reported":1753556866,"current_range_meters":12400,"station_id":"ce4bhbp2rcd13ifvqesg","pricing_plan_id":"cebpf4jnsgd1na2vs0mg"},{"bike_id":"d00b6abc-174d-48a1-8e37-47955a519e3f","system_id":"levelo_inurba_marseille","lat":43.22924,"lon":5.35369,"is_reserved":false,"is_disabled":false,"rental_uris":{"android":"levelo://app?vid=d00b6abc-174d-48a1-8e37-47955a519e3f","ios":"levelo://app?vid=d00b6abc-174d-48a1-8e37-47955a519e3f"},"vehicle_type_id":"4","last_reported":1753556866,"current_range_meters":12800,"station_id":"cpo3532slgdg3j2ikp40","pricing_plan_id":"cebpf4jnsgd1na2vs0mg"},{"bike_id":"e6a3f2e8-ce17-4bf7-873f-2999e70ef752","system_id":"levelo_inurba_marseille","lat":43.28416,"lon":5.35021,"is_reserved":false,"is_disabled":false,"rental_uris":{"android":"levelo://app?vid=e6a3f2e8-ce17-4bf7-873f-2999e70ef752","ios":"levelo://app?vid=e6a3f2e8-ce17-4bf7-873f-2999e70ef752"},"vehicle_type_id":"4","last_reported":1753556866,"current_range_meters":12800,"station_id":"ce4bhbh2rcd13ifvqepg","pricing_plan_id":"cebpf4jnsgd1na2vs0mg"},{"bike_id":"c579ff75-cd9b-45c6-a6dc-35ac53a5f916","system_id":"levelo_inurba_marseille","lat":43.2795,"lon":5.4105,"is_reserved":false,"is_disabled":false,"rental_uris":{"android":"levelo://app?vid=c579ff75-cd9b-45c6-a6dc-35ac53a5f916","ios":"levelo://app?vid=c579ff75-cd9b-45c6-a6dc-35ac53a5f916"},"vehicle_type_id":"4","last_reported":1753556866,"current_range_meters":12800,"station_id":"ce4bhnp2rcd13ifvqh0g","pricing_plan_id":"cebpf4jnsgd1na2vs0mg"},{"bike_id":"3ef72bb7-fe1e-4de0-993a-abe70d469f2a","system_id":"levelo_inurba_marseille","lat":43.28982,"lon":5.37831,"is_reserved":false,"is_disabled":false,"rental_uris":{"android":"levelo://app?vid=3ef72bb7-fe1e-4de0-993a-abe70d469f2a","ios":"levelo://app?vid=3ef72bb7-fe1e-4de0-993a-abe70d469f2a"},"vehicle_type_id":"4","last_reported":1753556866,"current_range_meters":12400,"station_id":"ce4bh9p2rcd13ifvqed0","pricing_plan_id":"cebpf4jnsgd1na2vs0mg"},{"bike_id":"a9bdcccd-5ce2-45ac-bb25-d39a79afd8ef","system_id":"levelo_inurba_marseille","lat":43.3013,"lon":5.39864,"is_reserved":false,"is_disabled":false,"rental_uris":{"android":"levelo://app?vid=a9bdcccd-5ce2-45ac-bb25-d39a79afd8ef","ios":"levelo://app?vid=a9bdcccd-5ce2-45ac-bb25-d39a79afd8ef"},"vehicle_type_id":"4","last_reported":1753556866,"current_range_meters":12800,"station_id":"ce4bh0h2rcd13ifvqd40","pricing_plan_id":"cebpf4jnsgd1na2vs0mg"},{"bike_id":"d560cbe9-cfbd-419e-a2c0-ad5aaa8eb0e6","system_id":"levelo_inurba_marseille","lat":43.27947,"lon":5.41036,"is_reserved":false,"is_disabled":false,"rental_uris":{"android":"levelo://app?vid=d560cbe9-cfbd-419e-a2c0-ad5aaa8eb0e6","ios":"levelo://app?vid=d560cbe9-cfbd-419e-a2c0-ad5aaa8eb0e6"},"vehicle_type_id":"4","last_reported":1753556866,"current_range_meters":13600,"station_id":"ce4bhnp2rcd13ifvqh0g","pricing_plan_id":"cebpf4jnsgd1na2vs0mg"},{"bike_id":"ba93bb28-cf26-4afd-a786-6bc2f811c4cb","system_id":"levelo_inurba_marseille","lat":43.32413,"lon":5.40412,"is_reserved":false,"is_disabled":false,"rental_uris":{"android":"levelo://app?vid=ba93bb28-cf26-4afd-a786-6bc2f811c4cb","ios":"levelo://app?vid=ba93bb28-cf26-4afd-a786-6bc2f811c4cb"},"vehicle_type_id":"4","last_reported":1753556866,"current_range_meters":13600,"station_id":"","pricing_plan_id":"cebpf4jnsgd1na2vs0mg"},{"bike_id":"c3c2652b-f2d7-4ed4-89ec-9559feb01451","system_id":"levelo_inurba_marseille","lat":43.29226,"lon":5.360481,"is_reserved":false,"is_disabled":true,"rental_uris":{"android":"levelo://app?vid=c3c2652b-f2d7-4ed4-89ec-9559feb01451","ios":"levelo://app?vid=c3c2652b-f2d7-4ed4-89ec-9559feb01451"},"vehicle_type_id":"4","last_reported":1753556866,"current_range_meters":13600,"station_id":"ce4bhbh2rcd13ifvqeqg","pricing_plan_id":"cebpf4jnsgd1na2vs0mg"},{"bike_id":"4d833890-f87d-4d24-b14a-94f3e2b819d2","system_id":"levelo_inurba_marseille","lat":43.22492,"lon":5.34781,"is_reserved":false,"is_disabled":false,"rental_uris":{"android":"levelo://app?vid=4d833890-f87d-4d24-b14a-94f3e2b819d2","ios":"levelo://app?vid=4d833890-f87d-4d24-b14a-94f3e2b819d2"},"vehicle_type_id":"4","last_reported":1753556866,"current_range_meters":13600,"station_id":"st_cvj5dfep6f1abm77gieg","pricing_plan_id":"cebpf4jnsgd1na2vs0mg"},{"bike_id":"fd3ca1da-d537-4bbf-983a-f705eb0b9311","system_id":"levelo_inurba_marseille","lat":43.29179,"lon":5.37168,"is_reserved":false,"is_disabled":false,"rental_uris":{"android":"levelo://app?vid=fd3ca1da-d537-4bbf-983a-f705eb0b9311","ios":"levelo://app?vid=fd3ca1da-d537-4bbf-983a-f705eb0b9311"},"vehicle_type_id":"4","last_reported":1753556866,"current_range_meters":12800,"station_id":"ce4bha92rcd13ifvqeh0","pricing_plan_id":"cebpf4jnsgd1na2vs0mg"},{"bike_id":"71397cef-36cc-444e-9e2b-6bc36f32ff9d","system_id":"levelo_inurba_marseille","lat":43.29705,"lon":5.36615,"is_reserved":false,"is_disabled":false,"rental_uris":{"android":"levelo://app?vid=71397cef-36cc-444e-9e2b-6bc36f32ff9d","ios":"levelo://app?vid=71397cef-36cc-444e-9e2b-6bc36f32ff9d"},"vehicle_type_id":"4","last_reported":1753556866,"current_range_meters":13600,"station_id":"ce4bgn12rcd13ifvqbt0","pricing_plan_id":"cebpf4jnsgd1na2vs0mg"},{"bike_id":"0428cb8d-9dbb-49aa-bddf-f3e50aad81da","system_id":"levelo_inurba_marseille","lat":43.29269,"lon":5.36846,"is_reserved":false,"is_disabled":false,"rental_uris":{"android":"levelo://app?vid=0428cb8d-9dbb-49aa-bddf-f3e50aad81da","ios":"levelo://app?vid=0428cb8d-9dbb-49aa-bddf-f3e50aad81da"},"vehicle_type_id":"4","last_reported":1753556866,"current_range_meters":13600,"station_id":"ce4bhbp2rcd13ifvqesg","pricing_plan_id":"cebpf4jnsgd1na2vs0mg"},{"bike_id":"dfaa4d59-b8e4-4752-8b60-0d234120b6c7","system_id":"levelo_inurba_marseille","lat":43.295841,"lon":5.377019,"is_reserved":false,"is_disabled":false,"rental_uris":{"android":"levelo://app?vid=dfaa4d59-b8e4-4752-8b60-0d234120b6c7","ios":"levelo://app?vid=dfaa4d59-b8e4-4752-8b60-0d234120b6c7"},"vehicle_type_id":"4","last_reported":1753556866,"current_range_meters":13600,"station_id":"ce4bgh92rcd13ifvqb50","pricing_plan_id":"cebpf4jnsgd1na2vs0mg"},{"bike_id":"dd5b3db2-62f9-4716-992d-435138b6493d","system_id":"levelo_inurba_marseille","lat":43.30821,"lon":5.38119,"is_reserved":false,"is_disabled":true,"rental_uris":{"android":"levelo://app?vid=dd5b3db2-62f9-4716-992d-435138b6493d","ios":"levelo://app?vid=dd5b3db2-62f9-4716-992d-435138b6493d"},"vehicle_type_id":"4","last_reported":1753556866,"current_range_meters":13600,"station_id":"ce4bgt12rcd13ifvqce0","pricing_plan_id":"cebpf4jnsgd1na2vs0mg"},{"bike_id":"d6ee06f2-fe1c-45b3-a0af-f7e52eb63fbb","system_id":"levelo_inurba_marseille","lat":43.305969,"lon":5.393657,"is_reserved":false,"is_disabled":false,"rental_uris":{"android":"levelo://app?vid=d6ee06f2-fe1c-45b3-a0af-f7e52eb63fbb","ios":"levelo://app?vid=d6ee06f2-fe1c-45b3-a0af-f7e52eb63fbb"},"vehicle_type_id":"4","last_reported":1753556866,"current_range_meters":13600,"station_id":"ce4bh0p2rcd13ifvqd80","pricing_plan_id":"cebpf4jnsgd1na2vs0mg"},{"bike_id":"2fa9dd39-7ea8-42db-9ead-ca5e3675e815","system_id":"levelo_inurba_marseille","lat":43.30215,"lon":5.39449,"is_reserved":false,"is_disabled":true,"rental_uris":{"android":"levelo://app?vid=2fa9dd39-7ea8-42db-9ead-ca5e3675e815","ios":"levelo://app?vid=2fa9dd39-7ea8-42db-9ead-ca5e3675e815"},"vehicle_type_id":"4","last_reported":1753556866,"current_range_meters":13600,"station_id":"ce4bh0p2rcd13ifvqd70","pricing_plan_id":"cebpf4jnsgd1na2vs0mg"},{"bike_id":"b8a3d9ec-177c-4139-89f0-d81eeeb2acc9","system_id":"levelo_inurba_marseille","lat":43.262037,"lon":5.374825,"is_reserved":false,"is_disabled":false,"rental_uris":{"android":"levelo://app?vid=b8a3d9ec-177c-4139-89f0-d81eeeb2acc9","ios":"levelo://app?vid=b8a3d9ec-177c-4139-89f0-d81eeeb2acc9"},"vehicle_type_id":"4","last_reported":1753556866,"current_range_meters":13600,"station_id":"ce4bhgp2rcd13ifvqfc0","pricing_plan_id":"cebpf4jnsgd1na2vs0mg"},{"bike_id":"fe165cbd-2aa7-40d4-b28e-c33848c088c9","system_id":"levelo_inurba_marseille","lat":43.29623,"lon":5.37087,"is_reserved":false,"is_disabled":false,"rental_uris":{"android":"levelo://app?vid=fe165cbd-2aa7-40d4-b28e-c33848c088c9","ios":"levelo://app?vid=fe165cbd-2aa7-40d4-b28e-c33848c088c9"},"vehicle_type_id":"4","last_reported":1753556866,"current_range_meters":13600,"station_id":"","pricing_plan_id":"cebpf4jnsgd1na2vs0mg"},{"bike_id":"3d3f7e5e-5f19-4daf-a8dd-75fa4f45d685","system_id":"levelo_inurba_marseille","lat":43.2898,"lon":5.37844,"is_reserved":false,"is_disabled":false,"rental_uris":{"android":"levelo://app?vid=3d3f7e5e-5f19-4daf-a8dd-75fa4f45d685","ios":"levelo://app?vid=3d3f7e5e-5f19-4daf-a8dd-75fa4f45d685"},"vehicle_type_id":"4","last_reported":1753556866,"current_range_meters":14000,"station_id":"ce4bh9p2rcd13ifvqed0","pricing_plan_id":"cebpf4jnsgd1na2vs0mg"},{"bike_id":"da2dca42-f134-4e4a-82a2-b995476c594c","system_id":"levelo_inurba_marseille","lat":43.29586,"lon":5.37487,"is_reserved":false,"is_disabled":false,"rental_uris":{"android":"levelo://app?vid=da2dca42-f134-4e4a-82a2-b995476c594c","ios":"levelo://app?vid=da2dca42-f134-4e4a-82a2-b995476c594c"},"vehicle_type_id":"4","last_reported":1753556866,"current_range_meters":14000,"station_id":"ce4bgh92rcd13ifvqb50","pricing_plan_id":"cebpf4jnsgd1na2vs0mg"},{"bike_id":"d5a63dee-a415-40f6-88a8-f1d25d6ddaa1","system_id":"levelo_inurba_marseille","lat":43.290311,"lon":5.399895,"is_reserved":false,"is_disabled":true,"rental_uris":{"android":"levelo://app?vid=d5a63dee-a415-40f6-88a8-f1d25d6ddaa1","ios":"levelo://app?vid=d5a63dee-a415-40f6-88a8-f1d25d6ddaa1"},"vehicle_type_id":"4","last_reported":1753556866,"current_range_meters":14000,"station_id":"ce4bh392rcd13ifvqdm0","pricing_plan_id":"cebpf4jnsgd1na2vs0mg"},{"bike_id":"f245f353-3734-4a8f-9235-c0a7fbb32a63","system_id":"levelo_inurba_marseille","lat":43.30134,"lon":5.37412,"is_reserved":false,"is_disabled":false,"rental_uris":{"android":"levelo://app?vid=f245f353-3734-4a8f-9235-c0a7fbb32a63","ios":"levelo://app?vid=f245f353-3734-4a8f-9235-c0a7fbb32a63"},"vehicle_type_id":"4","last_reported":1753556866,"current_range_meters":14000,"station_id":"ce4bgs92rcd13ifvqcc0","pricing_plan_id":"cebpf4jnsgd1na2vs0mg"},{"bike_id":"4f069cb2-e85f-44ab-8659-b3444c19b657","system_id":"levelo_inurba_marseille","lat":43.231967,"lon":5.355407,"is_reserved":false,"is_disabled":false,"rental_uris":{"android":"levelo://app?vid=4f069cb2-e85f-44ab-8659-b3444c19b657","ios":"levelo://app?vid=4f069cb2-e85f-44ab-8659-b3444c19b657"},"vehicle_type_id":"4","last_reported":1753556866,"current_range_meters":14000,"station_id":"ce4bhu92rcd13ifvqi70","pricing_plan_id":"cebpf4jnsgd1na2vs0mg"},{"bike_id":"adc99020-a046-4247-b3bb-abb9aabfb167","system_id":"levelo_inurba_marseille","lat":43.243989,"lon":5.370529,"is_reserved":false,"is_disabled":false,"rental_uris":{"android":"levelo://app?vid=adc99020-a046-4247-b3bb-abb9aabfb167","ios":"levelo://app?vid=adc99020-a046-4247-b3bb-abb9aabfb167"},"vehicle_type_id":"4","last_reported":1753556866,"current_range_meters":14000,"station_id":"ce4bhhh2rcd13ifvqfk0","pricing_plan_id":"cebpf4jnsgd1na2vs0mg"},{"bike_id":"95bd8fd3-8a83-4ee7-85d6-75e6e14086ba","system_id":"levelo_inurba_marseille","lat":43.29563,"lon":5.37517,"is_reserved":false,"is_disabled":false,"rental_uris":{"android":"levelo://app?vid=95bd8fd3-8a83-4ee7-85d6-75e6e14086ba","ios":"levelo://app?vid=95bd8fd3-8a83-4ee7-85d6-75e6e14086ba"},"vehicle_type_id":"4","last_reported":1753556866,"current_range_meters":14000,"station_id":"ce4bgh92rcd13ifvqb50","pricing_plan_id":"cebpf4jnsgd1na2vs0mg"},{"bike_id":"25e07804-327d-451e-af4e-6a6e09b5f052","system_id":"levelo_inurba_marseille","lat":43.26527,"lon":5.37308,"is_reserved":false,"is_disabled":false,"rental_uris":{"android":"levelo://app?vid=25e07804-327d-451e-af4e-6a6e09b5f052","ios":"levelo://app?vid=25e07804-327d-451e-af4e-6a6e09b5f052"},"vehicle_type_id":"4","last_reported":1753556866,"current_range_meters":14000,"station_id":"ce4bhg12rcd13ifvqf70","pricing_plan_id":"cebpf4jnsgd1na2vs0mg"},{"bike_id":"f663b5c6-7bca-4ec6-a067-bfb07a19ac59","system_id":"levelo_inurba_marseille","lat":43.32368,"lon":5.38872,"is_reserved":false,"is_disabled":false,"rental_uris":{"android":"levelo://app?vid=f663b5c6-7bca-4ec6-a067-bfb07a19ac59","ios":"levelo://app?vid=f663b5c6-7bca-4ec6-a067-bfb07a19ac59"},"vehicle_type_id":"4","last_reported":1753556866,"current_range_meters":14000,"station_id":"ce4bhqp2rcd13ifvqhog","pricing_plan_id":"cebpf4jnsgd1na2vs0mg"},{"bike_id":"df0f791d-69db-4d83-b453-7bc2067da214","system_id":"levelo_inurba_marseille","lat":43.23057,"lon":5.3549,"is_reserved":false,"is_disabled":false,"rental_uris":{"android":"levelo://app?vid=df0f791d-69db-4d83-b453-7bc2067da214","ios":"levelo://app?vid=df0f791d-69db-4d83-b453-7bc2067da214"},"vehicle_type_id":"4","last_reported":1753556866,"current_range_meters":14000,"station_id":"cpo3342slgdg3j2ifvpg","pricing_plan_id":"cebpf4jnsgd1na2vs0mg"},{"bike_id":"9377d52d-7c04-4205-81e5-05265b3eabff","system_id":"levelo_inurba_marseille","lat":43.28707,"lon":5.37922,"is_reserved":false,"is_disabled":true,"rental_uris":{"android":"levelo://app?vid=9377d52d-7c04-4205-81e5-05265b3eabff","ios":"levelo://app?vid=9377d52d-7c04-4205-81e5-05265b3eabff"},"vehicle_type_id":"4","last_reported":1753556866,"current_range_meters":14400,"station_id":"ce4bh9p2rcd13ifvqec0","pricing_plan_id":"cebpf4jnsgd1na2vs0mg"},{"bike_id":"242f0461-beac-4dee-bb7f-5141179ea7b4","system_id":"levelo_inurba_marseille","lat":43.28678,"lon":5.38674,"is_reserved":false,"is_disabled":false,"rental_uris":{"android":"levelo://app?vid=242f0461-beac-4dee-bb7f-5141179ea7b4","ios":"levelo://app?vid=242f0461-beac-4dee-bb7f-5141179ea7b4"},"vehicle_type_id":"4","last_reported":1753556866,"current_range_meters":14000,"station_id":"ce4bh492rcd13ifvqdug","pricing_plan_id":"cebpf4jnsgd1na2vs0mg"},{"bike_id":"f3d9f4e3-18e1-46b0-943e-1414afeca2da","system_id":"levelo_inurba_marseille","lat":43.22932,"lon":5.35378,"is_reserved":false,"is_disabled":false,"rental_uris":{"android":"levelo://app?vid=f3d9f4e3-18e1-46b0-943e-1414afeca2da","ios":"levelo://app?vid=f3d9f4e3-18e1-46b0-943e-1414afeca2da"},"vehicle_type_id":"4","last_reported":1753556866,"current_range_meters":14400,"station_id":"cpo3532slgdg3j2ikp40","pricing_plan_id":"cebpf4jnsgd1na2vs0mg"},{"bike_id":"61cd7fe3-237f-4708-afc7-dd8a81b4454c","system_id":"levelo_inurba_marseille","lat":43.2293,"lon":5.35362,"is_reserved":false,"is_disabled":false,"rental_uris":{"android":"levelo://app?vid=61cd7fe3-237f-4708-afc7-dd8a81b4454c","ios":"levelo://app?vid=61cd7fe3-237f-4708-afc7-dd8a81b4454c"},"vehicle_type_id":"4","last_reported":1753556866,"current_range_meters":14400,"station_id":"cpo3532slgdg3j2ikp40","pricing_plan_id":"cebpf4jnsgd1na2vs0mg"},{"bike_id":"c52fda6b-1ffb-47ac-af3f-8372a2a7c52b","system_id":"levelo_inurba_marseille","lat":43.29209,"lon":5.39291,"is_reserved":false,"is_disabled":false,"rental_uris":{"android":"levelo://app?vid=c52fda6b-1ffb-47ac-af3f-8372a2a7c52b","ios":"levelo://app?vid=c52fda6b-1ffb-47ac-af3f-8372a2a7c52b"},"vehicle_type_id":"4","last_reported":1753556866,"current_range_meters":14400,"station_id":"ce4bh192rcd13ifvqdd0","pricing_plan_id":"cebpf4jnsgd1na2vs0mg"},{"bike_id":"ab675060-4f97-48df-89e6-f451aa6dcad5","system_id":"levelo_inurba_marseille","lat":43.2481,"lon":5.37457,"is_reserved":false,"is_disabled":false,"rental_uris":{"android":"levelo://app?vid=ab675060-4f97-48df-89e6-f451aa6dcad5","ios":"levelo://app?vid=ab675060-4f97-48df-89e6-f451aa6dcad5"},"vehicle_type_id":"4","last_reported":1753556866,"current_range_meters":14400,"station_id":"ce4bhgh2rcd13ifvqfb0","pricing_plan_id":"cebpf4jnsgd1na2vs0mg"},{"bike_id":"ccceff92-72aa-4eb3-a467-85a2bd8173fd","system_id":"levelo_inurba_marseille","lat":43.26202,"lon":5.37441,"is_reserved":false,"is_disabled":false,"rental_uris":{"android":"levelo://app?vid=ccceff92-72aa-4eb3-a467-85a2bd8173fd","ios":"levelo://app?vid=ccceff92-72aa-4eb3-a467-85a2bd8173fd"},"vehicle_type_id":"4","last_reported":1753556866,"current_range_meters":14400,"station_id":"ce4bhgp2rcd13ifvqfc0","pricing_plan_id":"cebpf4jnsgd1na2vs0mg"},{"bike_id":"a1d5115b-997f-44a5-8b4b-21cb29757407","system_id":"levelo_inurba_marseille","lat":43.31201,"lon":5.37326,"is_reserved":false,"is_disabled":false,"rental_uris":{"android":"levelo://app?vid=a1d5115b-997f-44a5-8b4b-21cb29757407","ios":"levelo://app?vid=a1d5115b-997f-44a5-8b4b-21cb29757407"},"vehicle_type_id":"4","last_reported":1753556866,"current_range_meters":14400,"station_id":"","pricing_plan_id":"cebpf4jnsgd1na2vs0mg"},{"bike_id":"c34587a8-a019-4b34-8b52-b2a04d65fdd5","system_id":"levelo_inurba_marseille","lat":43.26034,"lon":5.37533,"is_reserved":false,"is_disabled":false,"rental_uris":{"android":"levelo://app?vid=c34587a8-a019-4b34-8b52-b2a04d65fdd5","ios":"levelo://app?vid=c34587a8-a019-4b34-8b52-b2a04d65fdd5"},"vehicle_type_id":"4","last_reported":1753556866,"current_range_meters":14400,"station_id":"ce4bhgh2rcd13ifvqfa0","pricing_plan_id":"cebpf4jnsgd1na2vs0mg"},{"bike_id":"7e65c5ea-0429-45f5-a396-bd32e67f0744","system_id":"levelo_inurba_marseille","lat":43.33477,"lon":5.4003,"is_reserved":false,"is_disabled":false,"rental_uris":{"android":"levelo://app?vid=7e65c5ea-0429-45f5-a396-bd32e67f0744","ios":"levelo://app?vid=7e65c5ea-0429-45f5-a396-bd32e67f0744"},"vehicle_type_id":"4","last_reported":1753556866,"current_range_meters":14400,"station_id":"","pricing_plan_id":"cebpf4jnsgd1na2vs0mg"},{"bike_id":"481ac0fb-00e6-4499-98db-12144824b27f","system_id":"levelo_inurba_marseille","lat":43.26213,"lon":5.37427,"is_reserved":false,"is_disabled":false,"rental_uris":{"android":"levelo://app?vid=481ac0fb-00e6-4499-98db-12144824b27f","ios":"levelo://app?vid=481ac0fb-00e6-4499-98db-12144824b27f"},"vehicle_type_id":"4","last_reported":1753556866,"current_range_meters":14400,"station_id":"ce4bhgp2rcd13ifvqfc0","pricing_plan_id":"cebpf4jnsgd1na2vs0mg"},{"bike_id":"898d1f8e-e261-4f25-9386-a6825028d102","system_id":"levelo_inurba_marseille","lat":43.29075,"lon":5.47397,"is_reserved":false,"is_disabled":false,"rental_uris":{"android":"levelo://app?vid=898d1f8e-e261-4f25-9386-a6825028d102","ios":"levelo://app?vid=898d1f8e-e261-4f25-9386-a6825028d102"},"vehicle_type_id":"4","last_reported":1753556866,"current_range_meters":14800,"station_id":"","pricing_plan_id":"cebpf4jnsgd1na2vs0mg"},{"bike_id":"fba7a19e-504e-4162-94ca-2b5aa76f769a","system_id":"levelo_inurba_marseille","lat":43.29032,"lon":5.38629,"is_reserved":false,"is_disabled":false,"rental_uris":{"android":"levelo://app?vid=fba7a19e-504e-4162-94ca-2b5aa76f769a","ios":"levelo://app?vid=fba7a19e-504e-4162-94ca-2b5aa76f769a"},"vehicle_type_id":"4","last_reported":1753556866,"current_range_meters":14800,"station_id":"ce4bh4p2rcd13ifvqe0g","pricing_plan_id":"cebpf4jnsgd1na2vs0mg"},{"bike_id":"a05343f6-5345-451e-92c9-8d14b4ec04eb","system_id":"levelo_inurba_marseille","lat":43.314919,"lon":5.373082,"is_reserved":false,"is_disabled":false,"rental_uris":{"android":"levelo://app?vid=a05343f6-5345-451e-92c9-8d14b4ec04eb","ios":"levelo://app?vid=a05343f6-5345-451e-92c9-8d14b4ec04eb"},"vehicle_type_id":"4","last_reported":1753556866,"current_range_meters":14800,"station_id":"","pricing_plan_id":"cebpf4jnsgd1na2vs0mg"},{"bike_id":"7254c071-82f3-4351-816b-2a844c6f1784","system_id":"levelo_inurba_marseille","lat":43.29529,"lon":5.38548,"is_reserved":false,"is_disabled":false,"rental_uris":{"android":"levelo://app?vid=7254c071-82f3-4351-816b-2a844c6f1784","ios":"levelo://app?vid=7254c071-82f3-4351-816b-2a844c6f1784"},"vehicle_type_id":"4","last_reported":1753556866,"current_range_meters":14800,"station_id":"ce4bgih2rcd13ifvqba0","pricing_plan_id":"cebpf4jnsgd1na2vs0mg"},{"bike_id":"5b0fd53b-e2e8-4712-8ae1-12dc1280b452","system_id":"levelo_inurba_marseille","lat":43.29533,"lon":5.38536,"is_reserved":false,"is_disabled":false,"rental_uris":{"android":"levelo://app?vid=5b0fd53b-e2e8-4712-8ae1-12dc1280b452","ios":"levelo://app?vid=5b0fd53b-e2e8-4712-8ae1-12dc1280b452"},"vehicle_type_id":"4","last_reported":1753556866,"current_range_meters":14800,"station_id":"ce4bgih2rcd13ifvqba0","pricing_plan_id":"cebpf4jnsgd1na2vs0mg"},{"bike_id":"1e5c96a6-9d0f-4d5f-85ef-5a5f8ac0317a","system_id":"levelo_inurba_marseille","lat":43.33446,"lon":5.39118,"is_reserved":false,"is_disabled":false,"rental_uris":{"android":"levelo://app?vid=1e5c96a6-9d0f-4d5f-85ef-5a5f8ac0317a","ios":"levelo://app?vid=1e5c96a6-9d0f-4d5f-85ef-5a5f8ac0317a"},"vehicle_type_id":"4","last_reported":1753556866,"current_range_meters":14800,"station_id":"","pricing_plan_id":"cebpf4jnsgd1na2vs0mg"},{"bike_id":"d9ce5c0c-a708-4d40-8267-ab1169823bc4","system_id":"levelo_inurba_marseille","lat":43.29706,"lon":5.37264,"is_reserved":false,"is_disabled":false,"rental_uris":{"android":"levelo://app?vid=d9ce5c0c-a708-4d40-8267-ab1169823bc4","ios":"levelo://app?vid=d9ce5c0c-a708-4d40-8267-ab1169823bc4"},"vehicle_type_id":"4","last_reported":1753556866,"current_range_meters":14800,"station_id":"ce4bgk12rcd13ifvqbj0","pricing_plan_id":"cebpf4jnsgd1na2vs0mg"},{"bike_id":"0571734e-a221-4e22-8041-f7d70ae7c260","system_id":"levelo_inurba_marseille","lat":43.29614,"lon":5.37711,"is_reserved":false,"is_disabled":false,"rental_uris":{"android":"levelo://app?vid=0571734e-a221-4e22-8041-f7d70ae7c260","ios":"levelo://app?vid=0571734e-a221-4e22-8041-f7d70ae7c260"},"vehicle_type_id":"4","last_reported":1753556866,"current_range_meters":14800,"station_id":"ce4bgi92rcd13ifvqb90","pricing_plan_id":"cebpf4jnsgd1na2vs0mg"},{"bike_id":"a4eb96aa-257e-4830-a60a-db57240efb07","system_id":"levelo_inurba_marseille","lat":43.31327,"lon":5.39685,"is_reserved":false,"is_disabled":false,"rental_uris":{"android":"levelo://app?vid=a4eb96aa-257e-4830-a60a-db57240efb07","ios":"levelo://app?vid=a4eb96aa-257e-4830-a60a-db57240efb07"},"vehicle_type_id":"4","last_reported":1753556866,"current_range_meters":14400,"station_id":"ce4bgvp2rcd13ifvqcu0","pricing_plan_id":"cebpf4jnsgd1na2vs0mg"},{"bike_id":"b512530e-b6c8-4ed8-867b-0caab0ac2f28","system_id":"levelo_inurba_marseille","lat":43.26494,"lon":5.39537,"is_reserved":false,"is_disabled":false,"rental_uris":{"android":"levelo://app?vid=b512530e-b6c8-4ed8-867b-0caab0ac2f28","ios":"levelo://app?vid=b512530e-b6c8-4ed8-867b-0caab0ac2f28"},"vehicle_type_id":"4","last_reported":1753556866,"current_range_meters":15200,"station_id":"ce4bhi12rcd13ifvqfq0","pricing_plan_id":"cebpf4jnsgd1na2vs0mg"},{"bike_id":"0c11f6c1-8064-42f4-a9d5-3b25c443f052","system_id":"levelo_inurba_marseille","lat":43.2292,"lon":5.35378,"is_reserved":false,"is_disabled":false,"rental_uris":{"android":"levelo://app?vid=0c11f6c1-8064-42f4-a9d5-3b25c443f052","ios":"levelo://app?vid=0c11f6c1-8064-42f4-a9d5-3b25c443f052"},"vehicle_type_id":"4","last_reported":1753556866,"current_range_meters":15200,"station_id":"cpo3532slgdg3j2ikp40","pricing_plan_id":"cebpf4jnsgd1na2vs0mg"},{"bike_id":"d8ede7a6-2370-4585-9b4e-834634539090","system_id":"levelo_inurba_marseille","lat":43.22498,"lon":5.34782,"is_reserved":false,"is_disabled":false,"rental_uris":{"android":"levelo://app?vid=d8ede7a6-2370-4585-9b4e-834634539090","ios":"levelo://app?vid=d8ede7a6-2370-4585-9b4e-834634539090"},"vehicle_type_id":"4","last_reported":1753556866,"current_range_meters":15200,"station_id":"st_cvj5dfep6f1abm77gieg","pricing_plan_id":"cebpf4jnsgd1na2vs0mg"},{"bike_id":"bdc8ef21-146d-46ff-9c91-249dba0037c7","system_id":"levelo_inurba_marseille","lat":43.22942,"lon":5.35357,"is_reserved":false,"is_disabled":false,"rental_uris":{"android":"levelo://app?vid=bdc8ef21-146d-46ff-9c91-249dba0037c7","ios":"levelo://app?vid=bdc8ef21-146d-46ff-9c91-249dba0037c7"},"vehicle_type_id":"4","last_reported":1753556866,"current_range_meters":15200,"station_id":"cpo3532slgdg3j2ikp40","pricing_plan_id":"cebpf4jnsgd1na2vs0mg"},{"bike_id":"b895b54e-07d8-473e-85aa-63378254c806","system_id":"levelo_inurba_marseille","lat":43.22919,"lon":5.35378,"is_reserved":false,"is_disabled":false,"rental_uris":{"android":"levelo://app?vid=b895b54e-07d8-473e-85aa-63378254c806","ios":"levelo://app?vid=b895b54e-07d8-473e-85aa-63378254c806"},"vehicle_type_id":"4","last_reported":1753556866,"current_range_meters":15200,"station_id":"cpo3532slgdg3j2ikp40","pricing_plan_id":"cebpf4jnsgd1na2vs0mg"},{"bike_id":"c4bff6ef-3fad-4ef2-b4b1-cdc258cdb946","system_id":"levelo_inurba_marseille","lat":43.26192,"lon":5.3745,"is_reserved":false,"is_disabled":false,"rental_uris":{"android":"levelo://app?vid=c4bff6ef-3fad-4ef2-b4b1-cdc258cdb946","ios":"levelo://app?vid=c4bff6ef-3fad-4ef2-b4b1-cdc258cdb946"},"vehicle_type_id":"4","last_reported":1753556866,"current_range_meters":15200,"station_id":"ce4bhgp2rcd13ifvqfc0","pricing_plan_id":"cebpf4jnsgd1na2vs0mg"},{"bike_id":"b77c50a4-1ce8-4c1f-8358-251392245270","system_id":"levelo_inurba_marseille","lat":43.27055,"lon":5.42289,"is_reserved":false,"is_disabled":false,"rental_uris":{"android":"levelo://app?vid=b77c50a4-1ce8-4c1f-8358-251392245270","ios":"levelo://app?vid=b77c50a4-1ce8-4c1f-8358-251392245270"},"vehicle_type_id":"4","last_reported":1753556866,"current_range_meters":15200,"station_id":"ce4bhk92rcd13ifvqgb0","pricing_plan_id":"cebpf4jnsgd1na2vs0mg"},{"bike_id":"cf72d26f-c2f4-4555-8bdb-d1b40dea4191","system_id":"levelo_inurba_marseille","lat":43.29697,"lon":5.37292,"is_reserved":false,"is_disabled":false,"rental_uris":{"android":"levelo://app?vid=cf72d26f-c2f4-4555-8bdb-d1b40dea4191","ios":"levelo://app?vid=cf72d26f-c2f4-4555-8bdb-d1b40dea4191"},"vehicle_type_id":"4","last_reported":1753556866,"current_range_meters":15200,"station_id":"ce4bgk12rcd13ifvqbj0","pricing_plan_id":"cebpf4jnsgd1na2vs0mg"},{"bike_id":"8a43fd17-f37d-4efa-9c86-e96e90492052","system_id":"levelo_inurba_marseille","lat":43.24807,"lon":5.37445,"is_reserved":false,"is_disabled":false,"rental_uris":{"android":"levelo://app?vid=8a43fd17-f37d-4efa-9c86-e96e90492052","ios":"levelo://app?vid=8a43fd17-f37d-4efa-9c86-e96e90492052"},"vehicle_type_id":"4","last_reported":1753556866,"current_range_meters":15200,"station_id":"ce4bhgh2rcd13ifvqfb0","pricing_plan_id":"cebpf4jnsgd1na2vs0mg"},{"bike_id":"43dbc09e-d0e4-4ddb-bafe-4f55874d23a9","system_id":"levelo_inurba_marseille","lat":43.30249,"lon":5.38215,"is_reserved":false,"is_disabled":false,"rental_uris":{"android":"levelo://app?vid=43dbc09e-d0e4-4ddb-bafe-4f55874d23a9","ios":"levelo://app?vid=43dbc09e-d0e4-4ddb-bafe-4f55874d23a9"},"vehicle_type_id":"4","last_reported":1753556866,"current_range_meters":15200,"station_id":"","pricing_plan_id":"cebpf4jnsgd1na2vs0mg"},{"bike_id":"c5794c7a-bb35-409f-9175-7d8933c8fd68","system_id":"levelo_inurba_marseille","lat":43.31115,"lon":5.39607,"is_reserved":false,"is_disabled":false,"rental_uris":{"android":"levelo://app?vid=c5794c7a-bb35-409f-9175-7d8933c8fd68","ios":"levelo://app?vid=c5794c7a-bb35-409f-9175-7d8933c8fd68"},"vehicle_type_id":"4","last_reported":1753556866,"current_range_meters":15200,"station_id":"","pricing_plan_id":"cebpf4jnsgd1na2vs0mg"},{"bike_id":"644f67a1-a500-4583-af5c-58e649b8adc3","system_id":"levelo_inurba_marseille","lat":43.26027,"lon":5.37548,"is_reserved":false,"is_disabled":false,"rental_uris":{"android":"levelo://app?vid=644f67a1-a500-4583-af5c-58e649b8adc3","ios":"levelo://app?vid=644f67a1-a500-4583-af5c-58e649b8adc3"},"vehicle_type_id":"4","last_reported":1753556866,"current_range_meters":15200,"station_id":"ce4bhgh2rcd13ifvqfa0","pricing_plan_id":"cebpf4jnsgd1na2vs0mg"},{"bike_id":"15f3c594-4abb-452d-801d-4636525cd85b","system_id":"levelo_inurba_marseille","lat":43.29578,"lon":5.37498,"is_reserved":false,"is_disabled":false,"rental_uris":{"android":"levelo://app?vid=15f3c594-4abb-452d-801d-4636525cd85b","ios":"levelo://app?vid=15f3c594-4abb-452d-801d-4636525cd85b"},"vehicle_type_id":"4","last_reported":1753556866,"current_range_meters":15200,"station_id":"ce4bgh92rcd13ifvqb50","pricing_plan_id":"cebpf4jnsgd1na2vs0mg"},{"bike_id":"76874c93-4196-48c1-b4ce-9dc79e3034f2","system_id":"levelo_inurba_marseille","lat":43.31757,"lon":5.39017,"is_reserved":false,"is_disabled":false,"rental_uris":{"android":"levelo://app?vid=76874c93-4196-48c1-b4ce-9dc79e3034f2","ios":"levelo://app?vid=76874c93-4196-48c1-b4ce-9dc79e3034f2"},"vehicle_type_id":"4","last_reported":1753556866,"current_range_meters":16000,"station_id":"ce4bhqp2rcd13ifvqhng","pricing_plan_id":"cebpf4jnsgd1na2vs0mg"},{"bike_id":"a7d896f9-ed90-400f-b521-60f094bf2ab7","system_id":"levelo_inurba_marseille","lat":43.21185,"lon":5.35037,"is_reserved":false,"is_disabled":false,"rental_uris":{"android":"levelo://app?vid=a7d896f9-ed90-400f-b521-60f094bf2ab7","ios":"levelo://app?vid=a7d896f9-ed90-400f-b521-60f094bf2ab7"},"vehicle_type_id":"4","last_reported":1753556866,"current_range_meters":16000,"station_id":"st_cvj6sg6p6f1abm77japg","pricing_plan_id":"cebpf4jnsgd1na2vs0mg"},{"bike_id":"aba58f33-bf28-4448-8af1-021d8e5460f0","system_id":"levelo_inurba_marseille","lat":43.29609,"lon":5.37713,"is_reserved":false,"is_disabled":false,"rental_uris":{"android":"levelo://app?vid=aba58f33-bf28-4448-8af1-021d8e5460f0","ios":"levelo://app?vid=aba58f33-bf28-4448-8af1-021d8e5460f0"},"vehicle_type_id":"4","last_reported":1753556866,"current_range_meters":16000,"station_id":"ce4bgi92rcd13ifvqb90","pricing_plan_id":"cebpf4jnsgd1na2vs0mg"},{"bike_id":"9dfdeb8a-ee13-4931-94b4-ad2b5f23aa4b","system_id":"levelo_inurba_marseille","lat":43.23192,"lon":5.39993,"is_reserved":false,"is_disabled":true,"rental_uris":{"android":"levelo://app?vid=9dfdeb8a-ee13-4931-94b4-ad2b5f23aa4b","ios":"levelo://app?vid=9dfdeb8a-ee13-4931-94b4-ad2b5f23aa4b"},"vehicle_type_id":"4","last_reported":1753556866,"current_range_meters":16000,"station_id":"ce4bhn12rcd13ifvqgqg","pricing_plan_id":"cebpf4jnsgd1na2vs0mg"},{"bike_id":"16a73455-ebbb-4fff-ba01-acddba94b02c","system_id":"levelo_inurba_marseille","lat":43.28037,"lon":5.36944,"is_reserved":false,"is_disabled":false,"rental_uris":{"android":"levelo://app?vid=16a73455-ebbb-4fff-ba01-acddba94b02c","ios":"levelo://app?vid=16a73455-ebbb-4fff-ba01-acddba94b02c"},"vehicle_type_id":"4","last_reported":1753556866,"current_range_meters":16000,"station_id":"ce4bha12rcd13ifvqef0","pricing_plan_id":"cebpf4jnsgd1na2vs0mg"},{"bike_id":"c0bb5d73-ab82-4534-b6b3-a4263bb68a6b","system_id":"levelo_inurba_marseille","lat":43.2917,"lon":5.37153,"is_reserved":false,"is_disabled":false,"rental_uris":{"android":"levelo://app?vid=c0bb5d73-ab82-4534-b6b3-a4263bb68a6b","ios":"levelo://app?vid=c0bb5d73-ab82-4534-b6b3-a4263bb68a6b"},"vehicle_type_id":"4","last_reported":1753556866,"current_range_meters":16000,"station_id":"ce4bha92rcd13ifvqeh0","pricing_plan_id":"cebpf4jnsgd1na2vs0mg"},{"bike_id":"02cab979-ccb2-40ce-bd89-cd624415fc04","system_id":"levelo_inurba_marseille","lat":43.27781,"lon":5.39936,"is_reserved":false,"is_disabled":false,"rental_uris":{"android":"levelo://app?vid=02cab979-ccb2-40ce-bd89-cd624415fc04","ios":"levelo://app?vid=02cab979-ccb2-40ce-bd89-cd624415fc04"},"vehicle_type_id":"4","last_reported":1753556866,"current_range_meters":16000,"station_id":"","pricing_plan_id":"cebpf4jnsgd1na2vs0mg"},{"bike_id":"957e7b45-0490-4fcf-af4e-ef2a5915bf5e","system_id":"levelo_inurba_marseille","lat":43.26208,"lon":5.374405,"is_reserved":false,"is_disabled":false,"rental_uris":{"android":"levelo://app?vid=957e7b45-0490-4fcf-af4e-ef2a5915bf5e","ios":"levelo://app?vid=957e7b45-0490-4fcf-af4e-ef2a5915bf5e"},"vehicle_type_id":"4","last_reported":1753556866,"current_range_meters":16000,"station_id":"ce4bhgp2rcd13ifvqfc0","pricing_plan_id":"cebpf4jnsgd1na2vs0mg"},{"bike_id":"1533361c-c8b0-46c4-bb07-47847e110ffc","system_id":"levelo_inurba_marseille","lat":43.28147,"lon":5.42635,"is_reserved":false,"is_disabled":false,"rental_uris":{"android":"levelo://app?vid=1533361c-c8b0-46c4-bb07-47847e110ffc","ios":"levelo://app?vid=1533361c-c8b0-46c4-bb07-47847e110ffc"},"vehicle_type_id":"4","last_reported":1753556866,"current_range_meters":16000,"station_id":"ce4bhnh2rcd13ifvqgug","pricing_plan_id":"cebpf4jnsgd1na2vs0mg"},{"bike_id":"831a3cf2-acf1-4d34-a389-e78eddcf9ddd","system_id":"levelo_inurba_marseille","lat":43.295428,"lon":5.385356,"is_reserved":false,"is_disabled":false,"rental_uris":{"android":"levelo://app?vid=831a3cf2-acf1-4d34-a389-e78eddcf9ddd","ios":"levelo://app?vid=831a3cf2-acf1-4d34-a389-e78eddcf9ddd"},"vehicle_type_id":"4","last_reported":1753556866,"current_range_meters":16000,"station_id":"ce4bgih2rcd13ifvqba0","pricing_plan_id":"cebpf4jnsgd1na2vs0mg"},{"bike_id":"0cbf75cf-ca0f-428c-adaa-2b0c3e87944b","system_id":"levelo_inurba_marseille","lat":43.25393,"lon":5.37529,"is_reserved":false,"is_disabled":false,"rental_uris":{"android":"levelo://app?vid=0cbf75cf-ca0f-428c-adaa-2b0c3e87944b","ios":"levelo://app?vid=0cbf75cf-ca0f-428c-adaa-2b0c3e87944b"},"vehicle_type_id":"4","last_reported":1753556866,"current_range_meters":16400,"station_id":"","pricing_plan_id":"cebpf4jnsgd1na2vs0mg"},{"bike_id":"3373b990-855a-4413-88e1-982f325228bc","system_id":"levelo_inurba_marseille","lat":43.2962,"lon":5.37087,"is_reserved":false,"is_disabled":false,"rental_uris":{"android":"levelo://app?vid=3373b990-855a-4413-88e1-982f325228bc","ios":"levelo://app?vid=3373b990-855a-4413-88e1-982f325228bc"},"vehicle_type_id":"4","last_reported":1753556866,"current_range_meters":16000,"station_id":"","pricing_plan_id":"cebpf4jnsgd1na2vs0mg"},{"bike_id":"21a817be-f7fd-4bec-9bae-7b7445353a68","system_id":"levelo_inurba_marseille","lat":43.29296,"lon":5.37451,"is_reserved":false,"is_disabled":false,"rental_uris":{"android":"levelo://app?vid=21a817be-f7fd-4bec-9bae-7b7445353a68","ios":"levelo://app?vid=21a817be-f7fd-4bec-9bae-7b7445353a68"},"vehicle_type_id":"4","last_reported":1753556866,"current_range_meters":16000,"station_id":"ce4bgi12rcd13ifvqb70","pricing_plan_id":"cebpf4jnsgd1na2vs0mg"},{"bike_id":"d1e9c7dd-91b8-4bbe-bf19-375f97a76459","system_id":"levelo_inurba_marseille","lat":43.28742,"lon":5.38294,"is_reserved":false,"is_disabled":false,"rental_uris":{"android":"levelo://app?vid=d1e9c7dd-91b8-4bbe-bf19-375f97a76459","ios":"levelo://app?vid=d1e9c7dd-91b8-4bbe-bf19-375f97a76459"},"vehicle_type_id":"4","last_reported":1753556866,"current_range_meters":16400,"station_id":"","pricing_plan_id":"cebpf4jnsgd1na2vs0mg"},{"bike_id":"54405b04-0f04-4c64-af8f-9ccbb34ae9ba","system_id":"levelo_inurba_marseille","lat":43.28035,"lon":5.3694,"is_reserved":false,"is_disabled":false,"rental_uris":{"android":"levelo://app?vid=54405b04-0f04-4c64-af8f-9ccbb34ae9ba","ios":"levelo://app?vid=54405b04-0f04-4c64-af8f-9ccbb34ae9ba"},"vehicle_type_id":"4","last_reported":1753556866,"current_range_meters":16400,"station_id":"ce4bha12rcd13ifvqef0","pricing_plan_id":"cebpf4jnsgd1na2vs0mg"},{"bike_id":"a4cac7a4-4dad-424b-b262-9dc16dc19926","system_id":"levelo_inurba_marseille","lat":43.292664,"lon":5.368034,"is_reserved":false,"is_disabled":false,"rental_uris":{"android":"levelo://app?vid=a4cac7a4-4dad-424b-b262-9dc16dc19926","ios":"levelo://app?vid=a4cac7a4-4dad-424b-b262-9dc16dc19926"},"vehicle_type_id":"4","last_reported":1753556866,"current_range_meters":16400,"station_id":"ce4bhih2rcd13ifvqfs0","pricing_plan_id":"cebpf4jnsgd1na2vs0mg"},{"bike_id":"35d8e9f0-1a6b-4e05-a20c-e80a74a09e8c","system_id":"levelo_inurba_marseille","lat":43.29266,"lon":5.38431,"is_reserved":false,"is_disabled":false,"rental_uris":{"android":"levelo://app?vid=35d8e9f0-1a6b-4e05-a20c-e80a74a09e8c","ios":"levelo://app?vid=35d8e9f0-1a6b-4e05-a20c-e80a74a09e8c"},"vehicle_type_id":"4","last_reported":1753556866,"current_range_meters":16400,"station_id":"ce4bh692rcd13ifvqea0","pricing_plan_id":"cebpf4jnsgd1na2vs0mg"},{"bike_id":"7cfeff2f-ed6e-4fc9-bb13-d0033ccdaffa","system_id":"levelo_inurba_marseille","lat":43.30304,"lon":5.369,"is_reserved":false,"is_disabled":false,"rental_uris":{"android":"levelo://app?vid=7cfeff2f-ed6e-4fc9-bb13-d0033ccdaffa","ios":"levelo://app?vid=7cfeff2f-ed6e-4fc9-bb13-d0033ccdaffa"},"vehicle_type_id":"4","last_reported":1753556866,"current_range_meters":16400,"station_id":"ce4bgqh2rcd13ifvqc5g","pricing_plan_id":"cebpf4jnsgd1na2vs0mg"},{"bike_id":"b8aea2ae-160e-4ab6-9b9a-294fc70f2ec8","system_id":"levelo_inurba_marseille","lat":43.29719,"lon":5.3661,"is_reserved":false,"is_disabled":false,"rental_uris":{"android":"levelo://app?vid=b8aea2ae-160e-4ab6-9b9a-294fc70f2ec8","ios":"levelo://app?vid=b8aea2ae-160e-4ab6-9b9a-294fc70f2ec8"},"vehicle_type_id":"4","last_reported":1753556866,"current_range_meters":16400,"station_id":"ce4bgn12rcd13ifvqbt0","pricing_plan_id":"cebpf4jnsgd1na2vs0mg"},{"bike_id":"34a06ca1-6ed0-4d6c-b5e5-b429f450161e","system_id":"levelo_inurba_marseille","lat":43.29603,"lon":5.37717,"is_reserved":false,"is_disabled":false,"rental_uris":{"android":"levelo://app?vid=34a06ca1-6ed0-4d6c-b5e5-b429f450161e","ios":"levelo://app?vid=34a06ca1-6ed0-4d6c-b5e5-b429f450161e"},"vehicle_type_id":"4","last_reported":1753556866,"current_range_meters":16400,"station_id":"ce4bgi92rcd13ifvqb90","pricing_plan_id":"cebpf4jnsgd1na2vs0mg"},{"bike_id":"953c0756-f385-4926-b3b2-5e848746a37c","system_id":"levelo_inurba_marseille","lat":43.28853,"lon":5.35836,"is_reserved":false,"is_disabled":false,"rental_uris":{"android":"levelo://app?vid=953c0756-f385-4926-b3b2-5e848746a37c","ios":"levelo://app?vid=953c0756-f385-4926-b3b2-5e848746a37c"},"vehicle_type_id":"4","last_reported":1753556866,"current_range_meters":16000,"station_id":"ce4bhb12rcd13ifvqem0","pricing_plan_id":"cebpf4jnsgd1na2vs0mg"},{"bike_id":"6c38f903-98fc-43f2-b709-3b1e9132591a","system_id":"levelo_inurba_marseille","lat":43.29579,"lon":5.37491,"is_reserved":false,"is_disabled":false,"rental_uris":{"android":"levelo://app?vid=6c38f903-98fc-43f2-b709-3b1e9132591a","ios":"levelo://app?vid=6c38f903-98fc-43f2-b709-3b1e9132591a"},"vehicle_type_id":"4","last_reported":1753556866,"current_range_meters":16400,"station_id":"ce4bgh92rcd13ifvqb50","pricing_plan_id":"cebpf4jnsgd1na2vs0mg"},{"bike_id":"c3f920a0-181a-4f3b-8bbe-5050b7e98056","system_id":"levelo_inurba_marseille","lat":43.29261,"lon":5.38442,"is_reserved":false,"is_disabled":false,"rental_uris":{"android":"levelo://app?vid=c3f920a0-181a-4f3b-8bbe-5050b7e98056","ios":"levelo://app?vid=c3f920a0-181a-4f3b-8bbe-5050b7e98056"},"vehicle_type_id":"4","last_reported":1753556866,"current_range_meters":16400,"station_id":"ce4bh692rcd13ifvqea0","pricing_plan_id":"cebpf4jnsgd1na2vs0mg"},{"bike_id":"4e18c676-3072-42a7-b0dc-a224c48f4c81","system_id":"levelo_inurba_marseille","lat":43.28157,"lon":5.42661,"is_reserved":false,"is_disabled":false,"rental_uris":{"android":"levelo://app?vid=4e18c676-3072-42a7-b0dc-a224c48f4c81","ios":"levelo://app?vid=4e18c676-3072-42a7-b0dc-a224c48f4c81"},"vehicle_type_id":"4","last_reported":1753556866,"current_range_meters":16400,"station_id":"ce4bhnh2rcd13ifvqgug","pricing_plan_id":"cebpf4jnsgd1na2vs0mg"},{"bike_id":"37562319-1ab7-4052-84cd-19474c696578","system_id":"levelo_inurba_marseille","lat":43.27614,"lon":5.36105,"is_reserved":false,"is_disabled":false,"rental_uris":{"android":"levelo://app?vid=37562319-1ab7-4052-84cd-19474c696578","ios":"levelo://app?vid=37562319-1ab7-4052-84cd-19474c696578"},"vehicle_type_id":"4","last_reported":1753556866,"current_range_meters":16800,"station_id":"ce4bgj92rcd13ifvqbe0","pricing_plan_id":"cebpf4jnsgd1na2vs0mg"},{"bike_id":"b511478d-3b18-4a1d-bb49-e6321c2d7c1a","system_id":"levelo_inurba_marseille","lat":43.29709,"lon":5.36613,"is_reserved":false,"is_disabled":false,"rental_uris":{"android":"levelo://app?vid=b511478d-3b18-4a1d-bb49-e6321c2d7c1a","ios":"levelo://app?vid=b511478d-3b18-4a1d-bb49-e6321c2d7c1a"},"vehicle_type_id":"4","last_reported":1753556866,"current_range_meters":16800,"station_id":"ce4bgn12rcd13ifvqbt0","pricing_plan_id":"cebpf4jnsgd1na2vs0mg"},{"bike_id":"69ea2022-2516-487e-ae52-3d7a3342e253","system_id":"levelo_inurba_marseille","lat":43.29618,"lon":5.37722,"is_reserved":false,"is_disabled":false,"rental_uris":{"android":"levelo://app?vid=69ea2022-2516-487e-ae52-3d7a3342e253","ios":"levelo://app?vid=69ea2022-2516-487e-ae52-3d7a3342e253"},"vehicle_type_id":"4","last_reported":1753556866,"current_range_meters":16800,"station_id":"ce4bgi92rcd13ifvqb90","pricing_plan_id":"cebpf4jnsgd1na2vs0mg"},{"bike_id":"9bb9e880-d878-48ac-8dc3-f2b972e9cce6","system_id":"levelo_inurba_marseille","lat":43.28598,"lon":5.39472,"is_reserved":false,"is_disabled":false,"rental_uris":{"android":"levelo://app?vid=9bb9e880-d878-48ac-8dc3-f2b972e9cce6","ios":"levelo://app?vid=9bb9e880-d878-48ac-8dc3-f2b972e9cce6"},"vehicle_type_id":"4","last_reported":1753556866,"current_range_meters":16800,"station_id":"","pricing_plan_id":"cebpf4jnsgd1na2vs0mg"},{"bike_id":"adbc006e-c51d-4434-863c-610344ea30cd","system_id":"levelo_inurba_marseille","lat":43.21713,"lon":5.3461,"is_reserved":false,"is_disabled":true,"rental_uris":{"android":"levelo://app?vid=adbc006e-c51d-4434-863c-610344ea30cd","ios":"levelo://app?vid=adbc006e-c51d-4434-863c-610344ea30cd"},"vehicle_type_id":"4","last_reported":1753556866,"current_range_meters":17200,"station_id":"st_cvj6r9ubvosntc0bgbag","pricing_plan_id":"cebpf4jnsgd1na2vs0mg"},{"bike_id":"c3a5a1a9-8e4c-4154-abb5-5d047b7c1ce8","system_id":"levelo_inurba_marseille","lat":43.29572,"lon":5.37517,"is_reserved":false,"is_disabled":false,"rental_uris":{"android":"levelo://app?vid=c3a5a1a9-8e4c-4154-abb5-5d047b7c1ce8","ios":"levelo://app?vid=c3a5a1a9-8e4c-4154-abb5-5d047b7c1ce8"},"vehicle_type_id":"4","last_reported":1753556866,"current_range_meters":16800,"station_id":"ce4bgh92rcd13ifvqb50","pricing_plan_id":"cebpf4jnsgd1na2vs0mg"},{"bike_id":"07bdf7f4-31e3-4166-8507-4452a98400cb","system_id":"levelo_inurba_marseille","lat":43.26214,"lon":5.37444,"is_reserved":false,"is_disabled":false,"rental_uris":{"android":"levelo://app?vid=07bdf7f4-31e3-4166-8507-4452a98400cb","ios":"levelo://app?vid=07bdf7f4-31e3-4166-8507-4452a98400cb"},"vehicle_type_id":"4","last_reported":1753556866,"current_range_meters":16800,"station_id":"ce4bhgp2rcd13ifvqfc0","pricing_plan_id":"cebpf4jnsgd1na2vs0mg"},{"bike_id":"81b531a8-7d30-43ee-b381-958e13e02531","system_id":"levelo_inurba_marseille","lat":43.29681,"lon":5.3729,"is_reserved":false,"is_disabled":false,"rental_uris":{"android":"levelo://app?vid=81b531a8-7d30-43ee-b381-958e13e02531","ios":"levelo://app?vid=81b531a8-7d30-43ee-b381-958e13e02531"},"vehicle_type_id":"4","last_reported":1753556866,"current_range_meters":16400,"station_id":"ce4bgk12rcd13ifvqbj0","pricing_plan_id":"cebpf4jnsgd1na2vs0mg"},