{"last_updated":1723759729,"ttl":30,"version":"2.2","data":{"bikes":[{"bike_id":"831c5406-ee3f-498a-9455-05262e445942","system_id":"levelo_inurba_marseille","lat":43.312239,"lon":5.368562,"is_reserved":false,"is_disabled":false,"rental_uris":{"android":"levelo://app?vid=831c5406-ee3f-498a-9455-05262e445942","ios":"levelo://app?vid=831c5406-ee3f-498a-9455-05262e445942"},"vehicle_type_id":"4","last_reported":1723759729,"current_range_meters":6400,"station_id":"ce4bgl92rcd13ifvqbq0","pricing_plan_id":"cebpf4jnsgd1na2vs0mg"},{"bike_id":"d112b498-833e-4023-bf93-6ac7cddb2868","system_id":"levelo_inurba_marseille","lat":43.312239,"lon":5.368562,"is_reserved":false,"is_disabled":false,"rental_uris":{"android":"levelo://app?vid=d112b498-833e-4023-bf93-6ac7cddb2868","ios":"levelo://app?vid=d112b498-833e-4023-bf93-6ac7cddb2868"},"vehicle_type_id":"4","last_reported":1723759729,"current_range_meters":25600,"station_id":"ce4bgl92rcd13ifvqbq0","pricing_plan_id":"cebpf4jnsgd1na2vs0mg"},{"bike_id":"bcc6db45-c29d-4aa9-9505-bc6562d2df84","system_id":"levelo_inurba_marseille","lat":43.312473,"lon":5.368765,"is_reserved":false,"is_disabled":false,"rental_uris":{"android":"levelo://app?vid=bcc6db45-c29d-4aa9-9505-bc6562d2df84","ios":"levelo://app?vid=bcc6db45-c29d-4aa9-9505-bc6562d2df84"},"vehicle_type_id":"4","last_reported":1723759729,"current_range_meters":0,"station_id":"ce4bgjh2rcd13ifvqbg0","pricing_plan_id":"cebpf4jnsgd1na2vs0mg"},{"bike_id":"03a76876-9701-467e-9b4e-e51f3aae276c","system_id":"levelo_inurba_marseille","lat":43.30921,"lon":5.36837,"is_reserved":false,"is_disabled":false,"rental_uris":{"android":"levelo://app?vid=03a76876-9701-467e-9b4e-e51f3aae276c","ios":"levelo://app?vid=03a76876-9701-467e-9b4e-e51f3aae276c"},"vehicle_type_id":"4","last_reported":1723759729,"current_range_meters":19200,"station_id":"ce4bgn92rcd13ifvqbvg","pricing_plan_id":"cebpf4jnsgd1na2vs0mg"},{"bike_id":"7a9b3e30-4341-4ecc-8272-9c4ee263c0b1","system_id":"levelo_inurba_marseille","lat":43.312239,"lon":5.368562,"is_reserved":false,"is_disabled":false,"rental_uris":{"android":"levelo://app?vid=7a9b3e30-4341-4ecc-8272-9c4ee263c0b1","ios":"levelo://app?vid=7a9b3e30-4341-4ecc-8272-9c4ee263c0b1"},"vehicle_type_id":"4","last_reported":1723759729,"current_range_meters":30800,"station_id":"ce4bgl92rcd13ifvqbq0","pricing_plan_id":"cebpf4jnsgd1na2vs0mg"},{"bike_id":"abad6ea8-6ba5-449b-9293-0d8227a8919d","system_id":"levelo_inurba_marseille","lat":43.309076,"lon":5.368465,"is_reserved":false,"is_disabled":false,"rental_uris":{"android":"levelo://app?vid=abad6ea8-6ba5-449b-9293-0d8227a8919d","ios":"levelo://app?vid=abad6ea8-6ba5-449b-9293-0d8227a8919d"},"vehicle_type_id":"4","last_reported":1723759729,"current_range_meters":10800,"station_id":"ce4bgn92rcd13ifvqbvg","pricing_plan_id":"cebpf4jnsgd1na2vs0mg"},{"bike_id":"d21e2ea3-68aa-422d-824a-f78794b9cd73","system_id":"levelo_inurba_marseille","lat":43.314811,"lon":5.373103,"is_reserved":false,"is_disabled":false,"rental_uris":{"android":"levelo://app?vid=d21e2ea3-68aa-422d-824a-f78794b9cd73","ios":"levelo://app?vid=d21e2ea3-68aa-422d-824a-f78794b9cd73"},"vehicle_type_id":"4","last_reported":1723759729,"current_range_meters":23200,"station_id":"ce4bgt12rcd13ifvqcd0","pricing_plan_id":"cebpf4jnsgd1na2vs0mg"},{"bike_id":"c928a068-876e-4224-843e-80a3075f92ca","system_id":"levelo_inurba_marseille","lat":43.314811,"lon":5.373103,"is_reserved":false,"is_disabled":false,"rental_uris":{"android":"levelo://app?vid=c928a068-876e-4224-843e-80a3075f92ca","ios":"levelo://app?vid=c928a068-876e-4224-843e-80a3075f92ca"},"vehicle_type_id":"4","last_reported":1723759729,"current_range_meters":9200,"station_id":"ce4bgt12rcd13ifvqcd0","pricing_plan_id":"cebpf4jnsgd1na2vs0mg"},{"bike_id":"9b3590af-e4e1-4565-8c4c-40e0abdc0a93","system_id":"levelo_inurba_marseille","lat":43.314811,"lon":5.373103,"is_reserved":false,"is_disabled":false,"rental_uris":{"android":"levelo://app?vid=9b3590af-e4e1-4565-8c4c-40e0abdc0a93","ios":"levelo://app?vid=9b3590af-e4e1-4565-8c4c-40e0abdc0a93"},"vehicle_type_id":"4","last_reported":1723759729,"current_range_meters":16400,"station_id":"ce4bgt12rcd13ifvqcd0","pricing_plan_id":"cebpf4jnsgd1na2vs0mg"},{"bike_id":"8709ade4-9da6-4c99-81be-66eaea676b20","system_id":"levelo_inurba_marseille","lat":43.309034,"lon":5.371783,"is_reserved":false,"is_disabled":false,"rental_uris":{"android":"levelo://app?vid=8709ade4-9da6-4c99-81be-66eaea676b20","ios":"levelo://app?vid=8709ade4-9da6-4c99-81be-66eaea676b20"},"vehicle_type_id":"4","last_reported":1723759729,"current_range_meters":18800,"station_id":"ce4bguh2rcd13ifvqckg","pricing_plan_id":"cebpf4jnsgd1na2vs0mg"},{"bike_id":"b4ae4fcc-61bf-441a-8b78-571438463d78","system_id":"levelo_inurba_marseille","lat":43.309034,"lon":5.371783,"is_reserved":false,"is_disabled":false,"rental_uris":{"android":"levelo://app?vid=b4ae4fcc-61bf-441a-8b78-571438463d78","ios":"levelo://app?vid=b4ae4fcc-61bf-441a-8b78-571438463d78"},"vehicle_type_id":"4","last_reported":1723759729,"current_range_meters":20400,"station_id":"ce4bguh2rcd13ifvqckg","pricing_plan_id":"cebpf4jnsgd1na2vs0mg"},{"bike_id":"268f557a-7cf3-4173-a768-e5260e791471","system_id":"levelo_inurba_marseille","lat":43.309034,"lon":5.371783,"is_reserved":false,"is_disabled":false,"rental_uris":{"android":"levelo://app?vid=268f557a-7cf3-4173-a768-e5260e791471","ios":"levelo://app?vid=268f557a-7cf3-4173-a768-e5260e791471"},"vehicle_type_id":"4","last_reported":1723759729,"current_range_meters":27600,"station_id":"ce4bguh2rcd13ifvqckg","pricing_plan_id":"cebpf4jnsgd1na2vs0mg"},{"bike_id":"d976560c-5099-48cd-978e-5f2bad451901","system_id":"levelo_inurba_marseille","lat":43.31475,"lon":5.37375,"is_reserved":false,"is_disabled":false,"rental_uris":{"android":"levelo://app?vid=d976560c-5099-48cd-978e-5f2bad451901","ios":"levelo://app?vid=d976560c-5099-48cd-978e-5f2bad451901"},"vehicle_type_id":"4","last_reported":1723759729,"current_range_meters":24000,"station_id":"","pricing_plan_id":"cebpf4jnsgd1na2vs0mg"},{"bike_id":"6688bfc7-d63f-471f-af02-fbfdf203bacd","system_id":"levelo_inurba_marseille","lat":43.312754,"lon":5.375964,"is_reserved":false,"is_disabled":false,"rental_uris":{"android":"levelo://app?vid=6688bfc7-d63f-471f-af02-fbfdf203bacd","ios":"levelo://app?vid=6688bfc7-d63f-471f-af02-fbfdf203bacd"},"vehicle_type_id":"4","last_reported":1723759729,"current_range_meters":24000,"station_id":"","pricing_plan_id":"cebpf4jnsgd1na2vs0mg"},{"bike_id":"b23090c7-31e8-4e7c-a750-67f91b935dfc","system_id":"levelo_inurba_marseille","lat":43.30561,"lon":5.3658,"is_reserved":false,"is_disabled":false,"rental_uris":{"android":"levelo://app?vid=b23090c7-31e8-4e7c-a750-67f91b935dfc","ios":"levelo://app?vid=b23090c7-31e8-4e7c-a750-67f91b935dfc"},"vehicle_type_id":"4","last_reported":1723759729,"current_range_meters":22400,"station_id":"ce4bgs12rcd13ifvqcag","pricing_plan_id":"cebpf4jnsgd1na2vs0mg"},{"bike_id":"d4e2312c-483f-44b2-aa30-e45db1e20c94","system_id":"levelo_inurba_marseille","lat":43.305989,"lon":5.37225,"is_reserved":false,"is_disabled":false,"rental_uris":{"android":"levelo://app?vid=d4e2312c-483f-44b2-aa30-e45db1e20c94","ios":"levelo://app?vid=d4e2312c-483f-44b2-aa30-e45db1e20c94"},"vehicle_type_id":"4","last_reported":1723759729,"current_range_meters":14800,"station_id":"ce4bgqh2rcd13ifvqc4g","pricing_plan_id":"cebpf4jnsgd1na2vs0mg"},{"bike_id":"fba978b8-fb9b-46d1-a665-60336185dc1d","system_id":"levelo_inurba_marseille","lat":43.305989,"lon":5.37225,"is_reserved":false,"is_disabled":false,"rental_uris":{"android":"levelo://app?vid=fba978b8-fb9b-46d1-a665-60336185dc1d","ios":"levelo://app?vid=fba978b8-fb9b-46d1-a665-60336185dc1d"},"vehicle_type_id":"4","last_reported":1723759729,"current_range_meters":10400,"station_id":"ce4bgqh2rcd13ifvqc4g","pricing_plan_id":"cebpf4jnsgd1na2vs0mg"},{"bike_id":"55e94d65-cf41-4371-b9c4-7b7b35f5e8c9","system_id":"levelo_inurba_marseille","lat":43.31129,"lon":5.377583,"is_reserved":false,"is_disabled":false,"rental_uris":{"android":"levelo://app?vid=55e94d65-cf41-4371-b9c4-7b7b35f5e8c9","ios":"levelo://app?vid=55e94d65-cf41-4371-b9c4-7b7b35f5e8c9"},"vehicle_type_id":"4","last_reported":1723759729,"current_range_meters":6000,"station_id":"ce4bgt92rcd13ifvqcg0","pricing_plan_id":"cebpf4jnsgd1na2vs0mg"},{"bike_id":"24ed87c5-f25e-49ac-8b1a-aa98eefb8ce8","system_id":"levelo_inurba_marseille","lat":43.311125,"lon":5.377624,"is_reserved":false,"is_disabled":false,"rental_uris":{"android":"levelo://app?vid=24ed87c5-f25e-49ac-8b1a-aa98eefb8ce8","ios":"levelo://app?vid=24ed87c5-f25e-49ac-8b1a-aa98eefb8ce8"},"vehicle_type_id":"4","last_reported":1723759729,"current_range_meters":26400,"station_id":"ce4bgt92rcd13ifvqcg0","pricing_plan_id":"cebpf4jnsgd1na2vs0mg"},{"bike_id":"1fb59c03-c25c-4275-9fcd-04111ae594ef","system_id":"levelo_inurba_marseille","lat":43.311131,"lon":5.377651,"is_reserved":false,"is_disabled":false,"rental_uris":{"android":"levelo://app?vid=1fb59c03-c25c-4275-9fcd-04111ae594ef","ios":"levelo://app?vid=1fb59c03-c25c-4275-9fcd-04111ae594ef"},"vehicle_type_id":"4","last_reported":1723759729,"current_range_meters":12400,"station_id":"ce4bgt92rcd13ifvqcg0","pricing_plan_id":"cebpf4jnsgd1na2vs0mg"},{"bike_id":"d0804f19-9e42-4178-bce6-b9cd61543870","system_id":"levelo_inurba_marseille","lat":43.311125,"lon":5.377624,"is_reserved":false,"is_disabled":false,"rental_uris":{"android":"levelo://app?vid=d0804f19-9e42-4178-bce6-b9cd61543870","ios":"levelo://app?vid=d0804f19-9e42-4178-bce6-b9cd61543870"},"vehicle_type_id":"4","last_reported":1723759729,"current_range_meters":4000,"station_id":"ce4bgt92rcd13ifvqcg0","pricing_plan_id":"cebpf4jnsgd1na2vs0mg"},{"bike_id":"018196b3-d947-441b-864e-f4d8c0d526df","system_id":"levelo_inurba_marseille","lat":43.311125,"lon":5.377624,"is_reserved":false,"is_disabled":false,"rental_uris":{"android":"levelo://app?vid=018196b3-d947-441b-864e-f4d8c0d526df","ios":"levelo://app?vid=018196b3-d947-441b-864e-f4d8c0d526df"},"vehicle_type_id":"4","last_reported":1723759729,"current_range_meters":27600,"station_id":"ce4bgt92rcd13ifvqcg0","pricing_plan_id":"cebpf4jnsgd1na2vs0mg"},{"bike_id":"c0170b3e-1c96-45f5-8caf-1fd92ce51544","system_id":"levelo_inurba_marseille","lat":43.311131,"lon":5.377651,"is_reserved":false,"is_disabled":false,"rental_uris":{"android":"levelo://app?vid=c0170b3e-1c96-45f5-8caf-1fd92ce51544","ios":"levelo://app?vid=c0170b3e-1c96-45f5-8caf-1fd92ce51544"},"vehicle_type_id":"4","last_reported":1723759729,"current_range_meters":16000,"station_id":"ce4bgt92rcd13ifvqcg0","pricing_plan_id":"cebpf4jnsgd1na2vs0mg"},{"bike_id":"222fb747-8f65-4d3d-b705-4cd336b3eb21","system_id":"levelo_inurba_marseille","lat":43.307945,"lon":5.376487,"is_reserved":false,"is_disabled":false,"rental_uris":{"android":"levelo://app?vid=222fb747-8f65-4d3d-b705-4cd336b3eb21","ios":"levelo://app?vid=222fb747-8f65-4d3d-b705-4cd336b3eb21"},"vehicle_type_id":"4","last_reported":1723759729,"current_range_meters":29200,"station_id":"ce4bgv92rcd13ifvqcq0","pricing_plan_id":"cebpf4jnsgd1na2vs0mg"},{"bike_id":"652f9b9f-3f0c-4b28-a28d-4ffb94200d8d","system_id":"levelo_inurba_marseille","lat":43.307945,"lon":5.376487,"is_reserved":false,"is_disabled":false,"rental_uris":{"android":"levelo://app?vid=652f9b9f-3f0c-4b28-a28d-4ffb94200d8d","ios":"levelo://app?vid=652f9b9f-3f0c-4b28-a28d-4ffb94200d8d"},"vehicle_type_id":"4","last_reported":1723759729,"current_range_meters":14400,"station_id":"ce4bgv92rcd13ifvqcq0","pricing_plan_id":"cebpf4jnsgd1na2vs0mg"},{"bike_id":"dea379b6-2f6d-4ecf-8103-26bd603cdc2b","system_id":"levelo_inurba_marseille","lat":43.30304,"lon":5.368987,"is_reserved":false,"is_disabled":false,"rental_uris":{"android":"levelo://app?vid=dea379b6-2f6d-4ecf-8103-26bd603cdc2b","ios":"levelo://app?vid=dea379b6-2f6d-4ecf-8103-26bd603cdc2b"},"vehicle_type_id":"4","last_reported":1723759729,"current_range_meters":10000,"station_id":"ce4bgqh2rcd13ifvqc5g","pricing_plan_id":"cebpf4jnsgd1na2vs0mg"},{"bike_id":"464b933f-b4c3-4ae1-b98e-53c9d3444ee3","system_id":"levelo_inurba_marseille","lat":43.303046,"lon":5.368981,"is_reserved":false,"is_disabled":false,"rental_uris":{"android":"levelo://app?vid=464b933f-b4c3-4ae1-b98e-53c9d3444ee3","ios":"levelo://app?vid=464b933f-b4c3-4ae1-b98e-53c9d3444ee3"},"vehicle_type_id":"4","last_reported":1723759729,"current_range_meters":29600,"station_id":"ce4bgqh2rcd13ifvqc5g","pricing_plan_id":"cebpf4jnsgd1na2vs0mg"},{"bike_id":"1805568c-9aec-44c8-9ca9-f1536fe89dae","system_id":"levelo_inurba_marseille","lat":43.30304,"lon":5.368987,"is_reserved":false,"is_disabled":false,"rental_uris":{"android":"levelo://app?vid=1805568c-9aec-44c8-9ca9-f1536fe89dae","ios":"levelo://app?vid=1805568c-9aec-44c8-9ca9-f1536fe89dae"},"vehicle_type_id":"4","last_reported":1723759729,"current_range_meters":19200,"station_id":"ce4bgqh2rcd13ifvqc5g","pricing_plan_id":"cebpf4jnsgd1na2vs0mg"},{"bike_id":"03e53526-afe4-40b4-8ffa-eb96f994a777","system_id":"levelo_inurba_marseille","lat":43.301939,"lon":5.366286,"is_reserved":false,"is_disabled":false,"rental_uris":{"android":"levelo://app?vid=03e53526-afe4-40b4-8ffa-eb96f994a777","ios":"levelo://app?vid=03e53526-afe4-40b4-8ffa-eb96f994a777"},"vehicle_type_id":"4","last_reported":1723759729,"current_range_meters":28800,"station_id":"ce4bgrh2rcd13ifvqc8g","pricing_plan_id":"cebpf4jnsgd1na2vs0mg"},{"bike_id":"5797a3cb-2806-4df3-a0ab-805c340c8ff4","system_id":"levelo_inurba_marseille","lat":43.303046,"lon":5.368981,"is_reserved":false,"is_disabled":false,"rental_uris":{"android":"levelo://app?vid=5797a3cb-2806-4df3-a0ab-805c340c8ff4","ios":"levelo://app?vid=5797a3cb-2806-4df3-a0ab-805c340c8ff4"},"vehicle_type_id":"4","last_reported":1723759729,"current_range_meters":7600,"station_id":"ce4bgqh2rcd13ifvqc5g","pricing_plan_id":"cebpf4jnsgd1na2vs0mg"},{"bike_id":"7682af56-6477-4d7d-a538-10955ad2807f","system_id":"levelo_inurba_marseille","lat":43.303046,"lon":5.368981,"is_reserved":false,"is_disabled":false,"rental_uris":{"android":"levelo://app?vid=7682af56-6477-4d7d-a538-10955ad2807f","ios":"levelo://app?vid=7682af56-6477-4d7d-a538-10955ad2807f"},"vehicle_type_id":"4","last_reported":1723759729,"current_range_meters":24400,"station_id":"ce4bgqh2rcd13ifvqc5g","pricing_plan_id":"cebpf4jnsgd1na2vs0mg"},{"bike_id":"e9e07284-6284-475c-83ae-768d8c4ed41d","system_id":"levelo_inurba_marseille","lat":43.303046,"lon":5.368981,"is_reserved":false,"is_disabled":false,"rental_uris":{"android":"levelo://app?vid=e9e07284-6284-475c-83ae-768d8c4ed41d","ios":"levelo://app?vid=e9e07284-6284-475c-83ae-768d8c4ed41d"},"vehicle_type_id":"4","last_reported":1723759729,"current_range_meters":27200,"station_id":"ce4bgqh2rcd13ifvqc5g","pricing_plan_id":"cebpf4jnsgd1na2vs0mg"},{"bike_id":"92182bdb-363f-4e50-aafe-85e4b32ec026","system_id":"levelo_inurba_marseille","lat":43.303046,"lon":5.368981,"is_reserved":false,"is_disabled":false,"rental_uris":{"android":"levelo://app?vid=92182bdb-363f-4e50-aafe-85e4b32ec026","ios":"levelo://app?vid=92182bdb-363f-4e50-aafe-85e4b32ec026"},"vehicle_type_id":"4","last_reported":1723759729,"current_range_meters":31200,"station_id":"ce4bgqh2rcd13ifvqc5g","pricing_plan_id":"cebpf4jnsgd1na2vs0mg"},{"bike_id":"9c7655d5-a2ac-4bd2-975d-f5c037f7c8ad","system_id":"levelo_inurba_marseille","lat":43.30304,"lon":5.368987,"is_reserved":false,"is_disabled":false,"rental_uris":{"android":"levelo://app?vid=9c7655d5-a2ac-4bd2-975d-f5c037f7c8ad","ios":"levelo://app?vid=9c7655d5-a2ac-4bd2-975d-f5c037f7c8ad"},"vehicle_type_id":"4","last_reported":1723759729,"current_range_meters":22800,"station_id":"ce4bgqh2rcd13ifvqc5g","pricing_plan_id":"cebpf4jnsgd1na2vs0mg"},{"bike_id":"dedbc7d0-c96a-4d48-a165-08965dc6667d","system_id":"levelo_inurba_marseille","lat":43.303046,"lon":5.368981,"is_reserved":false,"is_disabled":false,"rental_uris":{"android":"levelo://app?vid=dedbc7d0-c96a-4d48-a165-08965dc6667d","ios":"levelo://app?vid=dedbc7d0-c96a-4d48-a165-08965dc6667d"},"vehicle_type_id":"4","last_reported":1723759729,"current_range_meters":29200,"station_id":"ce4bgqh2rcd13ifvqc5g","pricing_plan_id":"cebpf4jnsgd1na2vs0mg"},{"bike_id":"507eada9-be27-4ef8-9a8e-825854a9dc4e","system_id":"levelo_inurba_marseille","lat":43.30309,"lon":5.36905,"is_reserved":false,"is_disabled":false,"rental_uris":{"android":"levelo://app?vid=507eada9-be27-4ef8-9a8e-825854a9dc4e","ios":"levelo://app?vid=507eada9-be27-4ef8-9a8e-825854a9dc4e"},"vehicle_type_id":"4","last_reported":1723759729,"current_range_meters":29600,"station_id":"ce4bgqh2rcd13ifvqc5g","pricing_plan_id":"cebpf4jnsgd1na2vs0mg"},{"bike_id":"f119f568-d0a7-44ba-9c86-b5b2dc1fbe46","system_id":"levelo_inurba_marseille","lat":43.30304,"lon":5.368987,"is_reserved":false,"is_disabled":false,"rental_uris":{"android":"levelo://app?vid=f119f568-d0a7-44ba-9c86-b5b2dc1fbe46","ios":"levelo://app?vid=f119f568-d0a7-44ba-9c86-b5b2dc1fbe46"},"vehicle_type_id":"4","last_reported":1723759729,"current_range_meters":15600,"station_id":"ce4bgqh2rcd13ifvqc5g","pricing_plan_id":"cebpf4jnsgd1na2vs0mg"},{"bike_id":"d9646b81-af69-4bed-a415-e774f2825299","system_id":"levelo_inurba_marseille","lat":43.315289,"lon":5.380349,"is_reserved":false,"is_disabled":false,"rental_uris":{"android":"levelo://app?vid=d9646b81-af69-4bed-a415-e774f2825299","ios":"levelo://app?vid=d9646b81-af69-4bed-a415-e774f2825299"},"vehicle_type_id":"4","last_reported":1723759729,"current_range_meters":27600,"station_id":"ce4bhsp2rcd13ifvqi50","pricing_plan_id":"cebpf4jnsgd1na2vs0mg"},{"bike_id":"51319782-1af8-493e-be9e-de050a1b139a","system_id":"levelo_inurba_marseille","lat":43.301939,"lon":5.366286,"is_reserved":false,"is_disabled":false,"rental_uris":{"android":"levelo://app?vid=51319782-1af8-493e-be9e-de050a1b139a","ios":"levelo://app?vid=51319782-1af8-493e-be9e-de050a1b139a"},"vehicle_type_id":"4","last_reported":1723759729,"current_range_meters":31200,"station_id":"ce4bgrh2rcd13ifvqc8g","pricing_plan_id":"cebpf4jnsgd1na2vs0mg"},{"bike_id":"ccaa83ec-b559-4241-a6fc-7530d19e4d72","system_id":"levelo_inurba_marseille","lat":43.301939,"lon":5.366286,"is_reserved":false,"is_disabled":false,"rental_uris":{"android":"levelo://app?vid=ccaa83ec-b559-4241-a6fc-7530d19e4d72","ios":"levelo://app?vid=ccaa83ec-b559-4241-a6fc-7530d19e4d72"},"vehicle_type_id":"4","last_reported":1723759729,"current_range_meters":30400,"station_id":"ce4bgrh2rcd13ifvqc8g","pricing_plan_id":"cebpf4jnsgd1na2vs0mg"},{"bike_id":"36645872-4a1c-40ae-8a5e-322c115ae647","system_id":"levelo_inurba_marseille","lat":43.301939,"lon":5.366286,"is_reserved":false,"is_disabled":false,"rental_uris":{"android":"levelo://app?vid=36645872-4a1c-40ae-8a5e-322c115ae647","ios":"levelo://app?vid=36645872-4a1c-40ae-8a5e-322c115ae647"},"vehicle_type_id":"4","last_reported":1723759729,"current_range_meters":26800,"station_id":"ce4bgrh2rcd13ifvqc8g","pricing_plan_id":"cebpf4jnsgd1na2vs0mg"},{"bike_id":"8475362c-a30a-41ba-b47f-fc1a6f22455c","system_id":"levelo_inurba_marseille","lat":43.301939,"lon":5.366286,"is_reserved":false,"is_disabled":false,"rental_uris":{"android":"levelo://app?vid=8475362c-a30a-41ba-b47f-fc1a6f22455c","ios":"levelo://app?vid=8475362c-a30a-41ba-b47f-fc1a6f22455c"},"vehicle_type_id":"4","last_reported":1723759729,"current_range_meters":31200,"station_id":"ce4bgrh2rcd13ifvqc8g","pricing_plan_id":"cebpf4jnsgd1na2vs0mg"},{"bike_id":"bd1126e1-91e6-49ce-8672-39c8e0d42d93","system_id":"levelo_inurba_marseille","lat":43.308012,"lon":5.381511,"is_reserved":false,"is_disabled":false,"rental_uris":{"android":"levelo://app?vid=bd1126e1-91e6-49ce-8672-39c8e0d42d93","ios":"levelo://app?vid=bd1126e1-91e6-49ce-8672-39c8e0d42d93"},"vehicle_type_id":"4","last_reported":1723759729,"current_range_meters":25200,"station_id":"ce4bgt12rcd13ifvqce0","pricing_plan_id":"cebpf4jnsgd1na2vs0mg"},{"bike_id":"50c8c3dc-3a97-4188-8ebd-1a1ddbef9cf9","system_id":"levelo_inurba_marseille","lat":43.301241,"lon":5.365599,"is_reserved":false,"is_disabled":false,"rental_uris":{"android":"levelo://app?vid=50c8c3dc-3a97-4188-8ebd-1a1ddbef9cf9","ios":"levelo://app?vid=50c8c3dc-3a97-4188-8ebd-1a1ddbef9cf9"},"vehicle_type_id":"4","last_reported":1723759729,"current_range_meters":0,"station_id":"","pricing_plan_id":"cebpf4jnsgd1na2vs0mg"},{"bike_id":"62918e95-2465-42c2-b03c-127963b80725","system_id":"levelo_inurba_marseille","lat":43.308012,"lon":5.381511,"is_reserved":false,"is_disabled":false,"rental_uris":{"android":"levelo://app?vid=62918e95-2465-42c2-b03c-127963b80725","ios":"levelo://app?vid=62918e95-2465-42c2-b03c-127963b80725"},"vehicle_type_id":"4","last_reported":1723759729,"current_range_meters":16400,"station_id":"ce4bgt12rcd13ifvqce0","pricing_plan_id":"cebpf4jnsgd1na2vs0mg"},{"bike_id":"853c651c-7641-4088-86f9-9c9b73507bdc","system_id":"levelo_inurba_marseille","lat":43.308012,"lon":5.381511,"is_reserved":false,"is_disabled":false,"rental_uris":{"android":"levelo://app?vid=853c651c-7641-4088-86f9-9c9b73507bdc","ios":"levelo://app?vid=853c651c-7641-4088-86f9-9c9b73507bdc"},"vehicle_type_id":"4","last_reported":1723759729,"current_range_meters":6400,"station_id":"ce4bgt12rcd13ifvqce0","pricing_plan_id":"cebpf4jnsgd1na2vs0mg"},{"bike_id":"7ccd631a-e090-494d-a388-9482f09e461e","system_id":"levelo_inurba_marseille","lat":43.308012,"lon":5.381511,"is_reserved":false,"is_disabled":false,"rental_uris":{"android":"levelo://app?vid=7ccd631a-e090-494d-a388-9482f09e461e","ios":"levelo://app?vid=7ccd631a-e090-494d-a388-9482f09e461e"},"vehicle_type_id":"4","last_reported":1723759729,"current_range_meters":28800,"station_id":"ce4bgt12rcd13ifvqce0","pricing_plan_id":"cebpf4jnsgd1na2vs0mg"},{"bike_id":"53db40b2-3886-4fb2-97c5-ad3bd6a7067b","system_id":"levelo_inurba_marseille","lat":43.308012,"lon":5.381511,"is_reserved":false,"is_disabled":false,"rental_uris":{"android":"levelo://app?vid=53db40b2-3886-4fb2-97c5-ad3bd6a7067b","ios":"levelo://app?vid=53db40b2-3886-4fb2-97c5-ad3bd6a7067b"},"vehicle_type_id":"4","last_reported":1723759729,"current_range_meters":6800,"station_id":"ce4bgt12rcd13ifvqce0","pricing_plan_id":"cebpf4jnsgd1na2vs0mg"},{"bike_id":"100a9006-ace3-4145-9aec-4663b92fa44d","system_id":"levelo_inurba_marseille","lat":43.308012,"lon":5.381511,"is_reserved":false,"is_disabled":false,"rental_uris":{"android":"levelo://app?vid=100a9006-ace3-4145-9aec-4663b92fa44d","ios":"levelo://app?vid=100a9006-ace3-4145-9aec-4663b92fa44d"},"vehicle_type_id":"4","last_reported":1723759729,"current_range_meters":9600,"station_id":"ce4bgt12rcd13ifvqce0","pricing_plan_id":"cebpf4jnsgd1na2vs0mg"},{"bike_id":"4ac7730d-b561-4bdd-bacb-eb51ab59892d","system_id":"levelo_inurba_marseille","lat":43.308012,"lon":5.381511,"is_reserved":false,"is_disabled":false,"rental_uris":{"android":"levelo://app?vid=4ac7730d-b561-4bdd-bacb-eb51ab59892d","ios":"levelo://app?vid=4ac7730d-b561-4bdd-bacb-eb51ab59892d"},"vehicle_type_id":"4","last_reported":1723759729,"current_range_meters":26000,"station_id":"ce4bgt12rcd13ifvqce0","pricing_plan_id":"cebpf4jnsgd1na2vs0mg"},{"bike_id":"e63d43b7-a68b-4092-96f9-8c4f5c6a5290","system_id":"levelo_inurba_marseille","lat":43.308012,"lon":5.381511,"is_reserved":false,"is_disabled":false,"rental_uris":{"android":"levelo://app?vid=e63d43b7-a68b-4092-96f9-8c4f5c6a5290","ios":"levelo://app?vid=e63d43b7-a68b-4092-96f9-8c4f5c6a5290"},"vehicle_type_id":"4","last_reported":1723759729,"current_range_meters":28400,"station_id":"ce4bgt12rcd13ifvqce0","pricing_plan_id":"cebpf4jnsgd1na2vs0mg"},{"bike_id":"f9ad0309-7f53-4d9b-9ddf-f24ce78ffb0d","system_id":"levelo_inurba_marseille","lat":43.324771,"lon":5.36557,"is_reserved":false,"is_disabled":false,"rental_uris":{"android":"levelo://app?vid=f9ad0309-7f53-4d9b-9ddf-f24ce78ffb0d","ios":"levelo://app?vid=f9ad0309-7f53-4d9b-9ddf-f24ce78ffb0d"},"vehicle_type_id":"4","last_reported":1723759729,"current_range_meters":5200,"station_id":"ce4bhs12rcd13ifvqhvg","pricing_plan_id":"cebpf4jnsgd1na2vs0mg"},{"bike_id":"e0db9e20-c00b-4152-9cc3-ec9856a09a94","system_id":"levelo_inurba_marseille","lat":43.324771,"lon":5.36557,"is_reserved":false,"is_disabled":false,"rental_uris":{"android":"levelo://app?vid=e0db9e20-c00b-4152-9cc3-ec9856a09a94","ios":"levelo://app?vid=e0db9e20-c00b-4152-9cc3-ec9856a09a94"},"vehicle_type_id":"4","last_reported":1723759729,"current_range_meters":15600,"station_id":"ce4bhs12rcd13ifvqhvg","pricing_plan_id":"cebpf4jnsgd1na2vs0mg"},{"bike_id":"48e49614-b03f-48b3-9ae6-ccb190d5dac8","system_id":"levelo_inurba_marseille","lat":43.324771,"lon":5.36557,"is_reserved":false,"is_disabled":false,"rental_uris":{"android":"levelo://app?vid=48e49614-b03f-48b3-9ae6-ccb190d5dac8","ios":"levelo://app?vid=48e49614-b03f-48b3-9ae6-ccb190d5dac8"},"vehicle_type_id":"4","last_reported":1723759729,"current_range_meters":4400,"station_id":"ce4bhs12rcd13ifvqhvg","pricing_plan_id":"cebpf4jnsgd1na2vs0mg"},{"bike_id":"cd44ab9c-572d-4594-85f5-5de343853929","system_id":"levelo_inurba_marseille","lat":43.324771,"lon":5.36557,"is_reserved":false,"is_disabled":false,"rental_uris":{"android":"levelo://app?vid=cd44ab9c-572d-4594-85f5-5de343853929","ios":"levelo://app?vid=cd44ab9c-572d-4594-85f5-5de343853929"},"vehicle_type_id":"4","last_reported":1723759729,"current_range_meters":31200,"station_id":"ce4bhs12rcd13ifvqhvg","pricing_plan_id":"cebpf4jnsgd1na2vs0mg"},{"bike_id":"bec959f1-c7e6-464c-9f7c-46e9561fff6c","system_id":"levelo_inurba_marseille","lat":43.32493,"lon":5.36578,"is_reserved":false,"is_disabled":false,"rental_uris":{"android":"levelo://app?vid=bec959f1-c7e6-464c-9f7c-46e9561fff6c","ios":"levelo://app?vid=bec959f1-c7e6-464c-9f7c-46e9561fff6c"},"vehicle_type_id":"4","last_reported":1723759729,"current_range_meters":26800,"station_id":"ce4bhs12rcd13ifvqhvg","pricing_plan_id":"cebpf4jnsgd1na2vs0mg"},{"bike_id":"6b82c31c-f5fa-4b1e-b716-f121cf7fc12b","system_id":"levelo_inurba_marseille","lat":43.310804,"lon":5.38359,"is_reserved":false,"is_disabled":false,"rental_uris":{"android":"levelo://app?vid=6b82c31c-f5fa-4b1e-b716-f121cf7fc12b","ios":"levelo://app?vid=6b82c31c-f5fa-4b1e-b716-f121cf7fc12b"},"vehicle_type_id":"4","last_reported":1723759729,"current_range_meters":0,"station_id":"ce4bgv92rcd13ifvqcr0","pricing_plan_id":"cebpf4jnsgd1na2vs0mg"},{"bike_id":"2a0481dc-9b2b-4b3c-a770-3ed234f995a1","system_id":"levelo_inurba_marseille","lat":43.319935,"lon":5.381699,"is_reserved":false,"is_disabled":false,"rental_uris":{"android":"levelo://app?vid=2a0481dc-9b2b-4b3c-a770-3ed234f995a1","ios":"levelo://app?vid=2a0481dc-9b2b-4b3c-a770-3ed234f995a1"},"vehicle_type_id":"4","last_reported":1723759729,"current_range_meters":24800,"station_id":"ce4bhr12rcd13ifvqhpg","pricing_plan_id":"cebpf4jnsgd1na2vs0mg"},{"bike_id":"5b7511a3-e350-49eb-b303-6a6517490594","system_id":"levelo_inurba_marseille","lat":43.310804,"lon":5.38359,"is_reserved":false,"is_disabled":false,"rental_uris":{"android":"levelo://app?vid=5b7511a3-e350-49eb-b303-6a6517490594","ios":"levelo://app?vid=5b7511a3-e350-49eb-b303-6a6517490594"},"vehicle_type_id":"4","last_reported":1723759729,"current_range_meters":4800,"station_id":"ce4bgv92rcd13ifvqcr0","pricing_plan_id":"cebpf4jnsgd1na2vs0mg"},{"bike_id":"2ec8021f-565e-460f-87db-b260b5fcf5da","system_id":"levelo_inurba_marseille","lat":43.32495,"lon":5.3658,"is_reserved":false,"is_disabled":false,"rental_uris":{"android":"levelo://app?vid=2ec8021f-565e-460f-87db-b260b5fcf5da","ios":"levelo://app?vid=2ec8021f-565e-460f-87db-b260b5fcf5da"},"vehicle_type_id":"4","last_reported":1723759729,"current_range_meters":6000,"station_id":"ce4bhs12rcd13ifvqhvg","pricing_plan_id":"cebpf4jnsgd1na2vs0mg"},{"bike_id":"5a0d3023-b042-43f1-94f3-c93aa8b29130","system_id":"levelo_inurba_marseille","lat":43.324771,"lon":5.36557,"is_reserved":false,"is_disabled":false,"rental_uris":{"android":"levelo://app?vid=5a0d3023-b042-43f1-94f3-c93aa8b29130","ios":"levelo://app?vid=5a0d3023-b042-43f1-94f3-c93aa8b29130"},"vehicle_type_id":"4","last_reported":1723759729,"current_range_meters":800,"station_id":"ce4bhs12rcd13ifvqhvg","pricing_plan_id":"cebpf4jnsgd1na2vs0mg"},{"bike_id":"2988d394-d2c1-4eeb-833e-665d056eec1f","system_id":"levelo_inurba_marseille","lat":43.310804,"lon":5.38359,"is_reserved":false,"is_disabled":false,"rental_uris":{"android":"levelo://app?vid=2988d394-d2c1-4eeb-833e-665d056eec1f","ios":"levelo://app?vid=2988d394-d2c1-4eeb-833e-665d056eec1f"},"vehicle_type_id":"4","last_reported":1723759729,"current_range_meters":23600,"station_id":"ce4bgv92rcd13ifvqcr0","pricing_plan_id":"cebpf4jnsgd1na2vs0mg"},{"bike_id":"62e4b5bf-f60d-4a00-a4cf-52b889a083b0","system_id":"levelo_inurba_marseille","lat":43.310804,"lon":5.38359,"is_reserved":false,"is_disabled":false,"rental_uris":{"android":"levelo://app?vid=62e4b5bf-f60d-4a00-a4cf-52b889a083b0","ios":"levelo://app?vid=62e4b5bf-f60d-4a00-a4cf-52b889a083b0"},"vehicle_type_id":"4","last_reported":1723759729,"current_range_meters":0,"station_id":"ce4bgv92rcd13ifvqcr0","pricing_plan_id":"cebpf4jnsgd1na2vs0mg"},{"bike_id":"992ac6a6-0ae4-43ba-8101-fe5e973e7426","system_id":"levelo_inurba_marseille","lat":43.310804,"lon":5.38359,"is_reserved":false,"is_disabled":false,"rental_uris":{"android":"levelo://app?vid=992ac6a6-0ae4-43ba-8101-fe5e973e7426","ios":"levelo://app?vid=992ac6a6-0ae4-43ba-8101-fe5e973e7426"},"vehicle_type_id":"4","last_reported":1723759729,"current_range_meters":3600,"station_id":"ce4bgv92rcd13ifvqcr0","pricing_plan_id":"cebpf4jnsgd1na2vs0mg"},{"bike_id":"17c06962-f8fd-41ae-8f74-b29b8a85bff2","system_id":"levelo_inurba_marseille","lat":43.310804,"lon":5.38359,"is_reserved":false,"is_disabled":false,"rental_uris":{"android":"levelo://app?vid=17c06962-f8fd-41ae-8f74-b29b8a85bff2","ios":"levelo://app?vid=17c06962-f8fd-41ae-8f74-b29b8a85bff2"},"vehicle_type_id":"4","last_reported":1723759729,"current_range_meters":0,"station_id":"ce4bgv92rcd13ifvqcr0","pricing_plan_id":"cebpf4jnsgd1na2vs0mg"},{"bike_id":"bdcd1bbb-a7ca-49d9-b904-5586917b4ca7","system_id":"levelo_inurba_marseille","lat":43.302784,"lon":5.377158,"is_reserved":false,"is_disabled":false,"rental_uris":{"android":"levelo://app?vid=bdcd1bbb-a7ca-49d9-b904-5586917b4ca7","ios":"levelo://app?vid=bdcd1bbb-a7ca-49d9-b904-5586917b4ca7"},"vehicle_type_id":"4","last_reported":1723759729,"current_range_meters":29600,"station_id":"ce4bguh2rcd13ifvqcj0","pricing_plan_id":"cebpf4jnsgd1na2vs0mg"},{"bike_id":"e5a3ed2e-a89a-4d03-a6e7-72a986f38d2a","system_id":"levelo_inurba_marseille","lat":43.302784,"lon":5.377158,"is_reserved":false,"is_disabled":false,"rental_uris":{"android":"levelo://app?vid=e5a3ed2e-a89a-4d03-a6e7-72a986f38d2a","ios":"levelo://app?vid=e5a3ed2e-a89a-4d03-a6e7-72a986f38d2a"},"vehicle_type_id":"4","last_reported":1723759729,"current_range_meters":27600,"station_id":"ce4bguh2rcd13ifvqcj0","pricing_plan_id":"cebpf4jnsgd1na2vs0mg"},{"bike_id":"f2cfe0a4-0fe6-46da-a82f-d03c9b38b9fd","system_id":"levelo_inurba_marseille","lat":43.319935,"lon":5.381699,"is_reserved":false,"is_disabled":false,"rental_uris":{"android":"levelo://app?vid=f2cfe0a4-0fe6-46da-a82f-d03c9b38b9fd","ios":"levelo://app?vid=f2cfe0a4-0fe6-46da-a82f-d03c9b38b9fd"},"vehicle_type_id":"4","last_reported":1723759729,"current_range_meters":31600,"station_id":"ce4bhr12rcd13ifvqhpg","pricing_plan_id":"cebpf4jnsgd1na2vs0mg"},{"bike_id":"b46b1b62-4cf9-40c6-8920-ce4555f4ccf3","system_id":"levelo_inurba_marseille","lat":43.30589,"lon":5.38179,"is_reserved":false,"is_disabled":false,"rental_uris":{"android":"levelo://app?vid=b46b1b62-4cf9-40c6-8920-ce4555f4ccf3","ios":"levelo://app?vid=b46b1b62-4cf9-40c6-8920-ce4555f4ccf3"},"vehicle_type_id":"4","last_reported":1723759729,"current_range_meters":23200,"station_id":"","pricing_plan_id":"cebpf4jnsgd1na2vs0mg"},{"bike_id":"0552c5bf-52b1-4aa0-8f79-9c0ffcf0f7cf","system_id":"levelo_inurba_marseille","lat":43.319935,"lon":5.381699,"is_reserved":false,"is_disabled":false,"rental_uris":{"android":"levelo://app?vid=0552c5bf-52b1-4aa0-8f79-9c0ffcf0f7cf","ios":"levelo://app?vid=0552c5bf-52b1-4aa0-8f79-9c0ffcf0f7cf"},"vehicle_type_id":"4","last_reported":1723759729,"current_range_meters":23200,"station_id":"ce4bhr12rcd13ifvqhpg","pricing_plan_id":"cebpf4jnsgd1na2vs0mg"},{"bike_id":"d9ec11ed-a620-4c6a-aa8f-da2c8e0d3ef8","system_id":"levelo_inurba_marseille","lat":43.319935,"lon":5.381699,"is_reserved":false,"is_disabled":false,"rental_uris":{"android":"levelo://app?vid=d9ec11ed-a620-4c6a-aa8f-da2c8e0d3ef8","ios":"levelo://app?vid=d9ec11ed-a620-4c6a-aa8f-da2c8e0d3ef8"},"vehicle_type_id":"4","last_reported":1723759729,"current_range_meters":19600,"station_id":"ce4bhr12rcd13ifvqhpg","pricing_plan_id":"cebpf4jnsgd1na2vs0mg"},{"bike_id":"71d86793-ebf4-45c8-8e4e-880805ac80ca","system_id":"levelo_inurba_marseille","lat":43.319935,"lon":5.381699,"is_reserved":false,"is_disabled":false,"rental_uris":{"android":"levelo://app?vid=71d86793-ebf4-45c8-8e4e-880805ac80ca","ios":"levelo://app?vid=71d86793-ebf4-45c8-8e4e-880805ac80ca"},"vehicle_type_id":"4","last_reported":1723759729,"current_range_meters":30000,"station_id":"ce4bhr12rcd13ifvqhpg","pricing_plan_id":"cebpf4jnsgd1na2vs0mg"},{"bike_id":"05a06412-04c5-4ce3-a2cd-976c65aa5b06","system_id":"levelo_inurba_marseille","lat":43.319935,"lon":5.381699,"is_reserved":false,"is_disabled":false,"rental_uris":{"android":"levelo://app?vid=05a06412-04c5-4ce3-a2cd-976c65aa5b06","ios":"levelo://app?vid=05a06412-04c5-4ce3-a2cd-976c65aa5b06"},"vehicle_type_id":"4","last_reported":1723759729,"current_range_meters":23200,"station_id":"ce4bhr12rcd13ifvqhpg","pricing_plan_id":"cebpf4jnsgd1na2vs0mg"},{"bike_id":"63248464-ad02-4d92-af69-a033600432b0","system_id":"levelo_inurba_marseille","lat":43.313571,"lon":5.384829,"is_reserved":false,"is_disabled":false,"rental_uris":{"android":"levelo://app?vid=63248464-ad02-4d92-af69-a033600432b0","ios":"levelo://app?vid=63248464-ad02-4d92-af69-a033600432b0"},"vehicle_type_id":"4","last_reported":1723759729,"current_range_meters":7200,"station_id":"ce4bgt92rcd13ifvqcf0","pricing_plan_id":"cebpf4jnsgd1na2vs0mg"},{"bike_id":"468d4b90-2058-48bb-a931-04827b3cb8f3","system_id":"levelo_inurba_marseille","lat":43.31362,"lon":5.3849,"is_reserved":false,"is_disabled":false,"rental_uris":{"android":"levelo://app?vid=468d4b90-2058-48bb-a931-04827b3cb8f3","ios":"levelo://app?vid=468d4b90-2058-48bb-a931-04827b3cb8f3"},"vehicle_type_id":"4","last_reported":1723759729,"current_range_meters":30000,"station_id":"","pricing_plan_id":"cebpf4jnsgd1na2vs0mg"},{"bike_id":"7798c701-35bb-4be6-944c-5d798feda269","system_id":"levelo_inurba_marseille","lat":43.313571,"lon":5.384829,"is_reserved":false,"is_disabled":false,"rental_uris":{"android":"levelo://app?vid=7798c701-35bb-4be6-944c-5d798feda269","ios":"levelo://app?vid=7798c701-35bb-4be6-944c-5d798feda269"},"vehicle_type_id":"4","last_reported":1723759729,"current_range_meters":31200,"station_id":"ce4bgt92rcd13ifvqcf0","pricing_plan_id":"cebpf4jnsgd1na2vs0mg"},{"bike_id":"82e0ddb9-142f-4330-baad-a7e601e644e6","system_id":"levelo_inurba_marseille","lat":43.313571,"lon":5.384829,"is_reserved":false,"is_disabled":false,"rental_uris":{"android":"levelo://app?vid=82e0ddb9-142f-4330-baad-a7e601e644e6","ios":"levelo://app?vid=82e0ddb9-142f-4330-baad-a7e601e644e6"},"vehicle_type_id":"4","last_reported":1723759729,"current_range_meters":10000,"station_id":"ce4bgt92rcd13ifvqcf0","pricing_plan_id":"cebpf4jnsgd1na2vs0mg"},{"bike_id":"b3e07509-791d-4bfe-895c-fe64dcddf5b3","system_id":"levelo_inurba_marseille","lat":43.313571,"lon":5.384829,"is_reserved":false,"is_disabled":false,"rental_uris":{"android":"levelo://app?vid=b3e07509-791d-4bfe-895c-fe64dcddf5b3","ios":"levelo://app?vid=b3e07509-791d-4bfe-895c-fe64dcddf5b3"},"vehicle_type_id":"4","last_reported":1723759729,"current_range_meters":23600,"station_id":"ce4bgt92rcd13ifvqcf0","pricing_plan_id":"cebpf4jnsgd1na2vs0mg"},{"bike_id":"607becba-7c63-480f-b7d5-a151c7b8ebb0","system_id":"levelo_inurba_marseille","lat":43.313571,"lon":5.384829,"is_reserved":false,"is_disabled":false,"rental_uris":{"android":"levelo://app?vid=607becba-7c63-480f-b7d5-a151c7b8ebb0","ios":"levelo://app?vid=607becba-7c63-480f-b7d5-a151c7b8ebb0"},"vehicle_type_id":"4","last_reported":1723759729,"current_range_meters":8400,"station_id":"ce4bgt92rcd13ifvqcf0","pricing_plan_id":"cebpf4jnsgd1na2vs0mg"},{"bike_id":"d9914c9a-4acf-4bf7-95c4-c6f57fbb7a67","system_id":"levelo_inurba_marseille","lat":43.313571,"lon":5.384829,"is_reserved":false,"is_disabled":false,"rental_uris":{"android":"levelo://app?vid=d9914c9a-4acf-4bf7-95c4-c6f57fbb7a67","ios":"levelo://app?vid=d9914c9a-4acf-4bf7-95c4-c6f57fbb7a67"},"vehicle_type_id":"4","last_reported":1723759729,"current_range_meters":31600,"station_id":"ce4bgt92rcd13ifvqcf0","pricing_plan_id":"cebpf4jnsgd1na2vs0mg"},{"bike_id":"d980176f-762f-4f98-b598-b00b530e2b66","system_id":"levelo_inurba_marseille","lat":43.313571,"lon":5.384829,"is_reserved":false,"is_disabled":false,"rental_uris":{"android":"levelo://app?vid=d980176f-762f-4f98-b598-b00b530e2b66","ios":"levelo://app?vid=d980176f-762f-4f98-b598-b00b530e2b66"},"vehicle_type_id":"4","last_reported":1723759729,"current_range_meters":24400,"station_id":"ce4bgt92rcd13ifvqcf0","pricing_plan_id":"cebpf4jnsgd1na2vs0mg"},{"bike_id":"3ace914d-2fc0-4781-809e-bb1a9a725f4f","system_id":"levelo_inurba_marseille","lat":43.313571,"lon":5.384829,"is_reserved":false,"is_disabled":false,"rental_uris":{"android":"levelo://app?vid=3ace914d-2fc0-4781-809e-bb1a9a725f4f","ios":"levelo://app?vid=3ace914d-2fc0-4781-809e-bb1a9a725f4f"},"vehicle_type_id":"4","last_reported":1723759729,"current_range_meters":7600,"station_id":"ce4bgt92rcd13ifvqcf0","pricing_plan_id":"cebpf4jnsgd1na2vs0mg"},{"bike_id":"2e2f1cac-08d8-4e27-8ef6-f11f72b835b4","system_id":"levelo_inurba_marseille","lat":43.31376,"lon":5.38515,"is_reserved":false,"is_disabled":false,"rental_uris":{"android":"levelo://app?vid=2e2f1cac-08d8-4e27-8ef6-f11f72b835b4","ios":"levelo://app?vid=2e2f1cac-08d8-4e27-8ef6-f11f72b835b4"},"vehicle_type_id":"4","last_reported":1723759729,"current_range_meters":31200,"station_id":"ce4bgt92rcd13ifvqcf0","pricing_plan_id":"cebpf4jnsgd1na2vs0mg"},{"bike_id":"95b985ff-ac91-48b7-971f-fa6ddb97459c","system_id":"levelo_inurba_marseille","lat":43.299222,"lon":5.365554,"is_reserved":false,"is_disabled":false,"rental_uris":{"android":"levelo://app?vid=95b985ff-ac91-48b7-971f-fa6ddb97459c","ios":"levelo://app?vid=95b985ff-ac91-48b7-971f-fa6ddb97459c"},"vehicle_type_id":"4","last_reported":1723759729,"current_range_meters":17200,"station_id":"ce4bgm92rcd13ifvqbr0","pricing_plan_id":"cebpf4jnsgd1na2vs0mg"},{"bike_id":"28089b55-0699-4d96-97ab-7ff01bbb57c7","system_id":"levelo_inurba_marseille","lat":43.299222,"lon":5.365554,"is_reserved":false,"is_disabled":false,"rental_uris":{"android":"levelo://app?vid=28089b55-0699-4d96-97ab-7ff01bbb57c7","ios":"levelo://app?vid=28089b55-0699-4d96-97ab-7ff01bbb57c7"},"vehicle_type_id":"4","last_reported":1723759729,"current_range_meters":30000,"station_id":"ce4bgm92rcd13ifvqbr0","pricing_plan_id":"cebpf4jnsgd1na2vs0mg"},{"bike_id":"0b069025-d39b-4673-a8f9-af5f1ff5ea20","system_id":"levelo_inurba_marseille","lat":43.299222,"lon":5.365554,"is_reserved":false,"is_disabled":false,"rental_uris":{"android":"levelo://app?vid=0b069025-d39b-4673-a8f9-af5f1ff5ea20","ios":"levelo://app?vid=0b069025-d39b-4673-a8f9-af5f1ff5ea20"},"vehicle_type_id":"4","last_reported":1723759729,"current_range_meters":20400,"station_id":"ce4bgm92rcd13ifvqbr0","pricing_plan_id":"cebpf4jnsgd1na2vs0mg"},{"bike_id":"202e26fc-9c88-4edf-8285-2f18ed3f163e","system_id":"levelo_inurba_marseille","lat":43.299222,"lon":5.365554,"is_reserved":false,"is_disabled":false,"rental_uris":{"android":"levelo://app?vid=202e26fc-9c88-4edf-8285-2f18ed3f163e","ios":"levelo://app?vid=202e26fc-9c88-4edf-8285-2f18ed3f163e"},"vehicle_type_id":"4","last_reported":1723759729,"current_range_meters":14400,"station_id":"ce4bgm92rcd13ifvqbr0","pricing_plan_id":"cebpf4jnsgd1na2vs0mg"},{"bike_id":"1296624b-75bd-4afd-bb8c-33ebc0b75451","system_id":"levelo_inurba_marseille","lat":43.299222,"lon":5.365554,"is_reserved":false,"is_disabled":false,"rental_uris":{"android":"levelo://app?vid=1296624b-75bd-4afd-bb8c-33ebc0b75451","ios":"levelo://app?vid=1296624b-75bd-4afd-bb8c-33ebc0b75451"},"vehicle_type_id":"4","last_reported":1723759729,"current_range_meters":19600,"station_id":"ce4bgm92rcd13ifvqbr0","pricing_plan_id":"cebpf4jnsgd1na2vs0mg"},{"bike_id":"b2dcff1a-648e-41f3-8c3a-2d59ec3e3003","system_id":"levelo_inurba_marseille","lat":43.305364,"lon":5.384119,"is_reserved":false,"is_disabled":false,"rental_uris":{"android":"levelo://app?vid=b2dcff1a-648e-41f3-8c3a-2d59ec3e3003","ios":"levelo://app?vid=b2dcff1a-648e-41f3-8c3a-2d59ec3e3003"},"vehicle_type_id":"4","last_reported":1723759729,"current_range_meters":29600,"station_id":"ce4bgg92rcd13ifvqb30","pricing_plan_id":"cebpf4jnsgd1na2vs0mg"},{"bike_id":"6b12ce8e-8c34-4ef3-a97d-59bf42f4664a","system_id":"levelo_inurba_marseille","lat":43.305364,"lon":5.384119,"is_reserved":false,"is_disabled":false,"rental_uris":{"android":"levelo://app?vid=6b12ce8e-8c34-4ef3-a97d-59bf42f4664a","ios":"levelo://app?vid=6b12ce8e-8c34-4ef3-a97d-59bf42f4664a"},"vehicle_type_id":"4","last_reported":1723759729,"current_range_meters":13200,"station_id":"ce4bgg92rcd13ifvqb30","pricing_plan_id":"cebpf4jnsgd1na2vs0mg"},{"bike_id":"3230e538-3c4d-4741-bead-cb828d52c68e","system_id":"levelo_inurba_marseille","lat":43.305364,"lon":5.384119,"is_reserved":false,"is_disabled":false,"rental_uris":{"android":"levelo://app?vid=3230e538-3c4d-4741-bead-cb828d52c68e","ios":"levelo://app?vid=3230e538-3c4d-4741-bead-cb828d52c68e"},"vehicle_type_id":"4","last_reported":1723759729,"current_range_meters":19600,"station_id":"ce4bgg92rcd13ifvqb30","pricing_plan_id":"cebpf4jnsgd1na2vs0mg"},{"bike_id":"a8e97d18-b4e5-4d59-a8b5-fa475d4f551e","system_id":"levelo_inurba_marseille","lat":43.305364,"lon":5.384119,"is_reserved":false,"is_disabled":false,"rental_uris":{"android":"levelo://app?vid=a8e97d18-b4e5-4d59-a8b5-fa475d4f551e","ios":"levelo://app?vid=a8e97d18-b4e5-4d59-a8b5-fa475d4f551e"},"vehicle_type_id":"4","last_reported":1723759729,"current_range_meters":24400,"station_id":"ce4bgg92rcd13ifvqb30","pricing_plan_id":"cebpf4jnsgd1na2vs0mg"},{"bike_id":"ad4c2aee-9403-46f9-9a40-47566024834d","system_id":"levelo_inurba_marseille","lat":43.31188,"lon":5.38706,"is_reserved":false,"is_disabled":false,"rental_uris":{"android":"levelo://app?vid=ad4c2aee-9403-46f9-9a40-47566024834d","ios":"levelo://app?vid=ad4c2aee-9403-46f9-9a40-47566024834d"},"vehicle_type_id":"4","last_reported":1723759729,"current_range_meters":8000,"station_id":"ce4bgv12rcd13ifvqcp0","pricing_plan_id":"cebpf4jnsgd1na2vs0mg"},{"bike_id":"a1d0a1be-d849-4756-a9f6-1cc0c2070d64","system_id":"levelo_inurba_marseille","lat":43.311722,"lon":5.387247,"is_reserved":false,"is_disabled":false,"rental_uris":{"android":"levelo://app?vid=a1d0a1be-d849-4756-a9f6-1cc0c2070d64","ios":"levelo://app?vid=a1d0a1be-d849-4756-a9f6-1cc0c2070d64"},"vehicle_type_id":"4","last_reported":1723759729,"current_range_meters":8000,"station_id":"ce4bgv12rcd13ifvqcp0","pricing_plan_id":"cebpf4jnsgd1na2vs0mg"},{"bike_id":"7082c62a-a73d-4616-9d82-89435be1f9ed","system_id":"levelo_inurba_marseille","lat":43.311722,"lon":5.387247,"is_reserved":false,"is_disabled":false,"rental_uris":{"android":"levelo://app?vid=7082c62a-a73d-4616-9d82-89435be1f9ed","ios":"levelo://app?vid=7082c62a-a73d-4616-9d82-89435be1f9ed"},"vehicle_type_id":"4","last_reported":1723759729,"current_range_meters":16400,"station_id":"ce4bgv12rcd13ifvqcp0","pricing_plan_id":"cebpf4jnsgd1na2vs0mg"},{"bike_id":"7a9bc744-6bb8-4720-bed4-416a5491ecfd","system_id":"levelo_inurba_marseille","lat":43.311722,"lon":5.387247,"is_reserved":false,"is_disabled":false,"rental_uris":{"android":"levelo://app?vid=7a9bc744-6bb8-4720-bed4-416a5491ecfd","ios":"levelo://app?vid=7a9bc744-6bb8-4720-bed4-416a5491ecfd"},"vehicle_type_id":"4","last_reported":1723759729,"current_range_meters":29200,"station_id":"ce4bgv12rcd13ifvqcp0","pricing_plan_id":"cebpf4jnsgd1na2vs0mg"},{"bike_id":"d29c5f42-1dde-4981-9be2-90d730ced0e7","system_id":"levelo_inurba_marseille","lat":43.311722,"lon":5.387247,"is_reserved":false,"is_disabled":false,"rental_uris":{"android":"levelo://app?vid=d29c5f42-1dde-4981-9be2-90d730ced0e7","ios":"levelo://app?vid=d29c5f42-1dde-4981-9be2-90d730ced0e7"},"vehicle_type_id":"4","last_reported":1723759729,"current_range_meters":18400,"station_id":"ce4bgv12rcd13ifvqcp0","pricing_plan_id":"cebpf4jnsgd1na2vs0mg"},{"bike_id":"7747e136-3eaf-4898-bd2d-9083b21e1c1f","system_id":"levelo_inurba_marseille","lat":43.311722,"lon":5.387247,"is_reserved":false,"is_disabled":false,"rental_uris":{"android":"levelo://app?vid=7747e136-3eaf-4898-bd2d-9083b21e1c1f","ios":"levelo://app?vid=7747e136-3eaf-4898-bd2d-9083b21e1c1f"},"vehicle_type_id":"4","last_reported":1723759729,"current_range_meters":18000,"station_id":"ce4bgv12rcd13ifvqcp0","pricing_plan_id":"cebpf4jnsgd1na2vs0mg"},{"bike_id":"62b01dbf-e6d4-4f73-a2c3-77766665aa91","system_id":"levelo_inurba_marseille","lat":43.311722,"lon":5.387247,"is_reserved":false,"is_disabled":false,"rental_uris":{"android":"levelo://app?vid=62b01dbf-e6d4-4f73-a2c3-77766665aa91","ios":"levelo://app?vid=62b01dbf-e6d4-4f73-a2c3-77766665aa91"},"vehicle_type_id":"4","last_reported":1723759729,"current_range_meters":24400,"station_id":"ce4bgv12rcd13ifvqcp0","pricing_plan_id":"cebpf4jnsgd1na2vs0mg"},{"bike_id":"f517cda3-9a9d-4386-b486-203a29a77fab","system_id":"levelo_inurba_marseille","lat":43.311722,"lon":5.387247,"is_reserved":false,"is_disabled":false,"rental_uris":{"android":"levelo://app?vid=f517cda3-9a9d-4386-b486-203a29a77fab","ios":"levelo://app?vid=f517cda3-9a9d-4386-b486-203a29a77fab"},"vehicle_type_id":"4","last_reported":1723759729,"current_range_meters":12000,"station_id":"ce4bgv12rcd13ifvqcp0","pricing_plan_id":"cebpf4jnsgd1na2vs0mg"},{"bike_id":"5e04cc06-00a5-4db2-a215-7a366fb31071","system_id":"levelo_inurba_marseille","lat":43.311722,"lon":5.387247,"is_reserved":false,"is_disabled":false,"rental_uris":{"android":"levelo://app?vid=5e04cc06-00a5-4db2-a215-7a366fb31071","ios":"levelo://app?vid=5e04cc06-00a5-4db2-a215-7a366fb31071"},"vehicle_type_id":"4","last_reported":1723759729,"current_range_meters":30400,"station_id":"ce4bgv12rcd13ifvqcp0","pricing_plan_id":"cebpf4jnsgd1na2vs0mg"},{"bike_id":"dbc888ad-1120-4c6d-b37a-76c7f6c47c3a","system_id":"levelo_inurba_marseille","lat":43.311722,"lon":5.387247,"is_reserved":false,"is_disabled":false,"rental_uris":{"android":"levelo://app?vid=dbc888ad-1120-4c6d-b37a-76c7f6c47c3a","ios":"levelo://app?vid=dbc888ad-1120-4c6d-b37a-76c7f6c47c3a"},"vehicle_type_id":"4","last_reported":1723759729,"current_range_meters":24000,"station_id":"ce4bgv12rcd13ifvqcp0","pricing_plan_id":"cebpf4jnsgd1na2vs0mg"},{"bike_id":"1eea4f7b-b21f-45bc-882d-d4433ffd89ba","system_id":"levelo_inurba_marseille","lat":43.301537,"lon":5.380773,"is_reserved":false,"is_disabled":false,"rental_uris":{"android":"levelo://app?vid=1eea4f7b-b21f-45bc-882d-d4433ffd89ba","ios":"levelo://app?vid=1eea4f7b-b21f-45bc-882d-d4433ffd89ba"},"vehicle_type_id":"4","last_reported":1723759729,"current_range_meters":15200,"station_id":"","pricing_plan_id":"cebpf4jnsgd1na2vs0mg"},{"bike_id":"06802c2e-e7b2-42be-a4a1-674a6f3706d6","system_id":"levelo_inurba_marseille","lat":43.3015,"lon":5.38075,"is_reserved":false,"is_disabled":false,"rental_uris":{"android":"levelo://app?vid=06802c2e-e7b2-42be-a4a1-674a6f3706d6","ios":"levelo://app?vid=06802c2e-e7b2-42be-a4a1-674a6f3706d6"},"vehicle_type_id":"4","last_reported":1723759729,"current_range_meters":28400,"station_id":"","pricing_plan_id":"cebpf4jnsgd1na2vs0mg"},{"bike_id":"a8327544-4028-4b83-8a77-4fbdf7c3d810","system_id":"levelo_inurba_marseille","lat":43.30156,"lon":5.38089,"is_reserved":false,"is_disabled":false,"rental_uris":{"android":"levelo://app?vid=a8327544-4028-4b83-8a77-4fbdf7c3d810","ios":"levelo://app?vid=a8327544-4028-4b83-8a77-4fbdf7c3d810"},"vehicle_type_id":"4","last_reported":1723759729,"current_range_meters":11600,"station_id":"","pricing_plan_id":"cebpf4jnsgd1na2vs0mg"},{"bike_id":"6495c5a1-e0df-43d7-b844-9c5d09c7365e","system_id":"levelo_inurba_marseille","lat":43.297774,"lon":5.370875,"is_reserved":false,"is_disabled":false,"rental_uris":{"android":"levelo://app?vid=6495c5a1-e0df-43d7-b844-9c5d09c7365e","ios":"levelo://app?vid=6495c5a1-e0df-43d7-b844-9c5d09c7365e"},"vehicle_type_id":"4","last_reported":1723759729,"current_range_meters":30000,"station_id":"ce4bgop2rcd13ifvqc1g","pricing_plan_id":"cebpf4jnsgd1na2vs0mg"},{"bike_id":"1899b9a9-2917-4623-ad8d-ac9c1179a318","system_id":"levelo_inurba_marseille","lat":43.322955,"lon":5.382577,"is_reserved":false,"is_disabled":false,"rental_uris":{"android":"levelo://app?vid=1899b9a9-2917-4623-ad8d-ac9c1179a318","ios":"levelo://app?vid=1899b9a9-2917-4623-ad8d-ac9c1179a318"},"vehicle_type_id":"4","last_reported":1723759729,"current_range_meters":27200,"station_id":"ce4bhr12rcd13ifvqhqg","pricing_plan_id":"cebpf4jnsgd1na2vs0mg"},{"bike_id":"44d96423-30dd-4255-a6c3-8fdfacd6616a","system_id":"levelo_inurba_marseille","lat":43.297163,"lon":5.365866,"is_reserved":false,"is_disabled":false,"rental_uris":{"android":"levelo://app?vid=44d96423-30dd-4255-a6c3-8fdfacd6616a","ios":"levelo://app?vid=44d96423-30dd-4255-a6c3-8fdfacd6616a"},"vehicle_type_id":"4","last_reported":1723759729,"current_range_meters":20800,"station_id":"ce4bgn12rcd13ifvqbt0","pricing_plan_id":"cebpf4jnsgd1na2vs0mg"},{"bike_id":"76566de3-0cba-48a7-aec1-5e9d905c3180","system_id":"levelo_inurba_marseille","lat":43.297163,"lon":5.365866,"is_reserved":false,"is_disabled":false,"rental_uris":{"android":"levelo://app?vid=76566de3-0cba-48a7-aec1-5e9d905c3180","ios":"levelo://app?vid=76566de3-0cba-48a7-aec1-5e9d905c3180"},"vehicle_type_id":"4","last_reported":1723759729,"current_range_meters":30400,"station_id":"ce4bgn12rcd13ifvqbt0","pricing_plan_id":"cebpf4jnsgd1na2vs0mg"},{"bike_id":"fde84fb1-d988-473c-8e62-2c2228d19c90","system_id":"levelo_inurba_marseille","lat":43.297163,"lon":5.365866,"is_reserved":false,"is_disabled":false,"rental_uris":{"android":"levelo://app?vid=fde84fb1-d988-473c-8e62-2c2228d19c90","ios":"levelo://app?vid=fde84fb1-d988-473c-8e62-2c2228d19c90"},"vehicle_type_id":"4","last_reported":1723759729,"current_range_meters":12400,"station_id":"ce4bgn12rcd13ifvqbt0","pricing_plan_id":"cebpf4jnsgd1na2vs0mg"},{"bike_id":"74c0cb5a-9951-4661-8039-5cf861ae0704","system_id":"levelo_inurba_marseille","lat":43.297173,"lon":5.368766,"is_reserved":false,"is_disabled":false,"rental_uris":{"android":"levelo://app?vid=74c0cb5a-9951-4661-8039-5cf861ae0704","ios":"levelo://app?vid=74c0cb5a-9951-4661-8039-5cf861ae0704"},"vehicle_type_id":"4","last_reported":1723759729,"current_range_meters":30400,"station_id":"","pricing_plan_id":"cebpf4jnsgd1na2vs0mg"},{"bike_id":"ba534199-60e8-4041-844e-9fd4d30b3eb3","system_id":"levelo_inurba_marseille","lat":43.29715,"lon":5.368793,"is_reserved":false,"is_disabled":false,"rental_uris":{"android":"levelo://app?vid=ba534199-60e8-4041-844e-9fd4d30b3eb3","ios":"levelo://app?vid=ba534199-60e8-4041-844e-9fd4d30b3eb3"},"vehicle_type_id":"4","last_reported":1723759729,"current_range_meters":23200,"station_id":"","pricing_plan_id":"cebpf4jnsgd1na2vs0mg"},{"bike_id":"659fa651-a295-4ad1-bb8b-062ad6465557","system_id":"levelo_inurba_marseille","lat":43.29573,"lon":5.367355,"is_reserved":false,"is_disabled":false,"rental_uris":{"android":"levelo://app?vid=659fa651-a295-4ad1-bb8b-062ad6465557","ios":"levelo://app?vid=659fa651-a295-4ad1-bb8b-062ad6465557"},"vehicle_type_id":"4","last_reported":1723759729,"current_range_meters":14000,"station_id":"ce4bgph2rcd13ifvqc2g","pricing_plan_id":"cebpf4jnsgd1na2vs0mg"},{"bike_id":"0254a452-7b39-42f9-b9d8-1aaf12ac430b","system_id":"levelo_inurba_marseille","lat":43.29585,"lon":5.3674,"is_reserved":false,"is_disabled":false,"rental_uris":{"android":"levelo://app?vid=0254a452-7b39-42f9-b9d8-1aaf12ac430b","ios":"levelo://app?vid=0254a452-7b39-42f9-b9d8-1aaf12ac430b"},"vehicle_type_id":"4","last_reported":1723759729,"current_range_meters":12400,"station_id":"ce4bgph2rcd13ifvqc2g","pricing_plan_id":"cebpf4jnsgd1na2vs0mg"},{"bike_id":"c0604c18-a45e-4392-a9cc-cf0707d73627","system_id":"levelo_inurba_marseille","lat":43.296921,"lon":5.376579,"is_reserved":false,"is_disabled":false,"rental_uris":{"android":"levelo://app?vid=c0604c18-a45e-4392-a9cc-cf0707d73627","ios":"levelo://app?vid=c0604c18-a45e-4392-a9cc-cf0707d73627"},"vehicle_type_id":"4","last_reported":1723759729,"current_range_meters":31200,"station_id":"ce4bgkh2rcd13ifvqbl0","pricing_plan_id":"cebpf4jnsgd1na2vs0mg"},{"bike_id":"ede50aee-f63e-41a7-9d7f-99c5952ffd07","system_id":"levelo_inurba_marseille","lat":43.296921,"lon":5.376579,"is_reserved":false,"is_disabled":false,"rental_uris":{"android":"levelo://app?vid=ede50aee-f63e-41a7-9d7f-99c5952ffd07","ios":"levelo://app?vid=ede50aee-f63e-41a7-9d7f-99c5952ffd07"},"vehicle_type_id":"4","last_reported":1723759729,"current_range_meters":12000,"station_id":"ce4bgkh2rcd13ifvqbl0","pricing_plan_id":"cebpf4jnsgd1na2vs0mg"},{"bike_id":"4861d65a-6b84-4f10-a1ae-a4e2c24323fb","system_id":"levelo_inurba_marseille","lat":43.32321,"lon":5.385552,"is_reserved":false,"is_disabled":false,"rental_uris":{"android":"levelo://app?vid=4861d65a-6b84-4f10-a1ae-a4e2c24323fb","ios":"levelo://app?vid=4861d65a-6b84-4f10-a1ae-a4e2c24323fb"},"vehicle_type_id":"4","last_reported":1723759729,"current_range_meters":23600,"station_id":"","pricing_plan_id":"cebpf4jnsgd1na2vs0mg"},{"bike_id":"4cb24487-7340-4695-8a58-bab9c12f1a75","system_id":"levelo_inurba_marseille","lat":43.296921,"lon":5.376579,"is_reserved":false,"is_disabled":false,"rental_uris":{"android":"levelo://app?vid=4cb24487-7340-4695-8a58-bab9c12f1a75","ios":"levelo://app?vid=4cb24487-7340-4695-8a58-bab9c12f1a75"},"vehicle_type_id":"4","last_reported":1723759729,"current_range_meters":22000,"station_id":"ce4bgkh2rcd13ifvqbl0","pricing_plan_id":"cebpf4jnsgd1na2vs0mg"},{"bike_id":"ecfe2ff0-52d7-4d8e-a9f2-aa0dc3dd7c89","system_id":"levelo_inurba_marseille","lat":43.299028,"lon":5.381509,"is_reserved":false,"is_disabled":false,"rental_uris":{"android":"levelo://app?vid=ecfe2ff0-52d7-4d8e-a9f2-aa0dc3dd7c89","ios":"levelo://app?vid=ecfe2ff0-52d7-4d8e-a9f2-aa0dc3dd7c89"},"vehicle_type_id":"4","last_reported":1723759729,"current_range_meters":6800,"station_id":"ce4bgj12rcd13ifvqbc0","pricing_plan_id":"cebpf4jnsgd1na2vs0mg"},{"bike_id":"b9b9c2c7-e826-4cf9-976c-457034d584ac","system_id":"levelo_inurba_marseille","lat":43.296921,"lon":5.376579,"is_reserved":false,"is_disabled":false,"rental_uris":{"android":"levelo://app?vid=b9b9c2c7-e826-4cf9-976c-457034d584ac","ios":"levelo://app?vid=b9b9c2c7-e826-4cf9-976c-457034d584ac"},"vehicle_type_id":"4","last_reported":1723759729,"current_range_meters":20000,"station_id":"ce4bgkh2rcd13ifvqbl0","pricing_plan_id":"cebpf4jnsgd1na2vs0mg"},{"bike_id":"549fcdb5-444a-4bc9-aeca-be6da404b280","system_id":"levelo_inurba_marseille","lat":43.296921,"lon":5.376579,"is_reserved":false,"is_disabled":false,"rental_uris":{"android":"levelo://app?vid=549fcdb5-444a-4bc9-aeca-be6da404b280","ios":"levelo://app?vid=549fcdb5-444a-4bc9-aeca-be6da404b280"},"vehicle_type_id":"4","last_reported":1723759729,"current_range_meters":30800,"station_id":"ce4bgkh2rcd13ifvqbl0","pricing_plan_id":"cebpf4jnsgd1na2vs0mg"},{"bike_id":"6383e3d5-56e3-40d4-a1f8-f7d44c6575fa","system_id":"levelo_inurba_marseille","lat":43.296935,"lon":5.376544,"is_reserved":false,"is_disabled":false,"rental_uris":{"android":"levelo://app?vid=6383e3d5-56e3-40d4-a1f8-f7d44c6575fa","ios":"levelo://app?vid=6383e3d5-56e3-40d4-a1f8-f7d44c6575fa"},"vehicle_type_id":"4","last_reported":1723759729,"current_range_meters":28000,"station_id":"ce4bgkh2rcd13ifvqbl0","pricing_plan_id":"cebpf4jnsgd1na2vs0mg"},{"bike_id":"c9c7aebd-9c3c-4a90-9586-d7d0c610a372","system_id":"levelo_inurba_marseille","lat":43.296935,"lon":5.376544,"is_reserved":false,"is_disabled":false,"rental_uris":{"android":"levelo://app?vid=c9c7aebd-9c3c-4a90-9586-d7d0c610a372","ios":"levelo://app?vid=c9c7aebd-9c3c-4a90-9586-d7d0c610a372"},"vehicle_type_id":"4","last_reported":1723759729,"current_range_meters":29200,"station_id":"ce4bgkh2rcd13ifvqbl0","pricing_plan_id":"cebpf4jnsgd1na2vs0mg"},{"bike_id":"9fccf30e-435a-44fb-9d6b-c2f825eaa3d3","system_id":"levelo_inurba_marseille","lat":43.309589,"lon":5.390258,"is_reserved":false,"is_disabled":false,"rental_uris":{"android":"levelo://app?vid=9fccf30e-435a-44fb-9d6b-c2f825eaa3d3","ios":"levelo://app?vid=9fccf30e-435a-44fb-9d6b-c2f825eaa3d3"},"vehicle_type_id":"4","last_reported":1723759729,"current_range_meters":31200,"station_id":"ce4bgup2rcd13ifvqco0","pricing_plan_id":"cebpf4jnsgd1na2vs0mg"},{"bike_id":"7d51333f-0d8b-42bf-9738-0f932442a0c2","system_id":"levelo_inurba_marseille","lat":43.309589,"lon":5.390258,"is_reserved":false,"is_disabled":false,"rental_uris":{"android":"levelo://app?vid=7d51333f-0d8b-42bf-9738-0f932442a0c2","ios":"levelo://app?vid=7d51333f-0d8b-42bf-9738-0f932442a0c2"},"vehicle_type_id":"4","last_reported":1723759729,"current_range_meters":20000,"station_id":"ce4bgup2rcd13ifvqco0","pricing_plan_id":"cebpf4jnsgd1na2vs0mg"},{"bike_id":"9115c9a7-e6cb-4f98-bd67-56a287ffa961","system_id":"levelo_inurba_marseille","lat":43.299028,"lon":5.381509,"is_reserved":false,"is_disabled":false,"rental_uris":{"android":"levelo://app?vid=9115c9a7-e6cb-4f98-bd67-56a287ffa961","ios":"levelo://app?vid=9115c9a7-e6cb-4f98-bd67-56a287ffa961"},"vehicle_type_id":"4","last_reported":1723759729,"current_range_meters":28800,"station_id":"ce4bgj12rcd13ifvqbc0","pricing_plan_id":"cebpf4jnsgd1na2vs0mg"},{"bike_id":"ccd54cc6-cfff-44b2-909e-79bc02e70d7d","system_id":"levelo_inurba_marseille","lat":43.309589,"lon":5.390258,"is_reserved":false,"is_disabled":false,"rental_uris":{"android":"levelo://app?vid=ccd54cc6-cfff-44b2-909e-79bc02e70d7d","ios":"levelo://app?vid=ccd54cc6-cfff-44b2-909e-79bc02e70d7d"},"vehicle_type_id":"4","last_reported":1723759729,"current_range_meters":11600,"station_id":"ce4bgup2rcd13ifvqco0","pricing_plan_id":"cebpf4jnsgd1na2vs0mg"},{"bike_id":"d6d0e415-7479-4f3e-9149-137c8c6c635d","system_id":"levelo_inurba_marseille","lat":43.309589,"lon":5.390258,"is_reserved":false,"is_disabled":false,"rental_uris":{"android":"levelo://app?vid=d6d0e415-7479-4f3e-9149-137c8c6c635d","ios":"levelo://app?vid=d6d0e415-7479-4f3e-9149-137c8c6c635d"},"vehicle_type_id":"4","last_reported":1723759729,"current_range_meters":13200,"station_id":"ce4bgup2rcd13ifvqco0","pricing_plan_id":"cebpf4jnsgd1na2vs0mg"},{"bike_id":"acedf2c4-b773-48b2-863d-b87ced20dc96","system_id":"levelo_inurba_marseille","lat":43.309589,"lon":5.390258,"is_reserved":false,"is_disabled":false,"rental_uris":{"android":"levelo://app?vid=acedf2c4-b773-48b2-863d-b87ced20dc96","ios":"levelo://app?vid=acedf2c4-b773-48b2-863d-b87ced20dc96"},"vehicle_type_id":"4","last_reported":1723759729,"current_range_meters":13600,"station_id":"ce4bgup2rcd13ifvqco0","pricing_plan_id":"cebpf4jnsgd1na2vs0mg"},{"bike_id":"173c19a6-104c-4332-b448-79abd05e1443","system_id":"levelo_inurba_marseille","lat":43.309589,"lon":5.390258,"is_reserved":false,"is_disabled":false,"rental_uris":{"android":"levelo://app?vid=173c19a6-104c-4332-b448-79abd05e1443","ios":"levelo://app?vid=173c19a6-104c-4332-b448-79abd05e1443"},"vehicle_type_id":"4","last_reported":1723759729,"current_range_meters":3200,"station_id":"ce4bgup2rcd13ifvqco0","pricing_plan_id":"cebpf4jnsgd1na2vs0mg"},{"bike_id":"f77bfa04-377f-4ea4-bb44-4f67c8a228cf","system_id":"levelo_inurba_marseille","lat":43.309589,"lon":5.390258,"is_reserved":false,"is_disabled":false,"rental_uris":{"android":"levelo://app?vid=f77bfa04-377f-4ea4-bb44-4f67c8a228cf","ios":"levelo://app?vid=f77bfa04-377f-4ea4-bb44-4f67c8a228cf"},"vehicle_type_id":"4","last_reported":1723759729,"current_range_meters":29200,"station_id":"ce4bgup2rcd13ifvqco0","pricing_plan_id":"cebpf4jnsgd1na2vs0mg"},{"bike_id":"8deb223b-0888-4e76-809d-b630cc62d3bb","system_id":"levelo_inurba_marseille","lat":43.309589,"lon":5.390258,"is_reserved":false,"is_disabled":false,"rental_uris":{"android":"levelo://app?vid=8deb223b-0888-4e76-809d-b630cc62d3bb","ios":"levelo://app?vid=8deb223b-0888-4e76-809d-b630cc62d3bb"},"vehicle_type_id":"4","last_reported":1723759729,"current_range_meters":19200,"station_id":"ce4bgup2rcd13ifvqco0","pricing_plan_id":"cebpf4jnsgd1na2vs0mg"},{"bike_id":"a2df2ae7-57be-46e5-aed6-4f5f173e86d0","system_id":"levelo_inurba_marseille","lat":43.309589,"lon":5.390258,"is_reserved":false,"is_disabled":false,"rental_uris":{"android":"levelo://app?vid=a2df2ae7-57be-46e5-aed6-4f5f173e86d0","ios":"levelo://app?vid=a2df2ae7-57be-46e5-aed6-4f5f173e86d0"},"vehicle_type_id":"4","last_reported":1723759729,"current_range_meters":8800,"station_id":"ce4bgup2rcd13ifvqco0","pricing_plan_id":"cebpf4jnsgd1na2vs0mg"},{"bike_id":"496f8df3-a86d-4b9b-846f-f13204935786","system_id":"levelo_inurba_marseille","lat":43.309589,"lon":5.390258,"is_reserved":false,"is_disabled":false,"rental_uris":{"android":"levelo://app?vid=496f8df3-a86d-4b9b-846f-f13204935786","ios":"levelo://app?vid=496f8df3-a86d-4b9b-846f-f13204935786"},"vehicle_type_id":"4","last_reported":1723759729,"current_range_meters":6000,"station_id":"ce4bgup2rcd13ifvqco0","pricing_plan_id":"cebpf4jnsgd1na2vs0mg"},{"bike_id":"5b1e5fce-8550-409c-bdee-ebab382e3428","system_id":"levelo_inurba_marseille","lat":43.309589,"lon":5.390258,"is_reserved":false,"is_disabled":false,"rental_uris":{"android":"levelo://app?vid=5b1e5fce-8550-409c-bdee-ebab382e3428","ios":"levelo://app?vid=5b1e5fce-8550-409c-bdee-ebab382e3428"},"vehicle_type_id":"4","last_reported":1723759729,"current_range_meters":23200,"station_id":"ce4bgup2rcd13ifvqco0","pricing_plan_id":"cebpf4jnsgd1na2vs0mg"},{"bike_id":"3fd75c90-c39c-4ac2-96b2-d62369bbc6dd","system_id":"levelo_inurba_marseille","lat":43.31754,"lon":5.39014,"is_reserved":false,"is_disabled":false,"rental_uris":{"android":"levelo://app?vid=3fd75c90-c39c-4ac2-96b2-d62369bbc6dd","ios":"levelo://app?vid=3fd75c90-c39c-4ac2-96b2-d62369bbc6dd"},"vehicle_type_id":"4","last_reported":1723759729,"current_range_meters":21600,"station_id":"ce4bhqp2rcd13ifvqhng","pricing_plan_id":"cebpf4jnsgd1na2vs0mg"},{"bike_id":"81b5c8ce-fcbd-4016-ab55-5e79800820c0","system_id":"levelo_inurba_marseille","lat":43.317557,"lon":5.390173,"is_reserved":false,"is_disabled":false,"rental_uris":{"android":"levelo://app?vid=81b5c8ce-fcbd-4016-ab55-5e79800820c0","ios":"levelo://app?vid=81b5c8ce-fcbd-4016-ab55-5e79800820c0"},"vehicle_type_id":"4","last_reported":1723759729,"current_range_meters":12000,"station_id":"ce4bhqp2rcd13ifvqhng","pricing_plan_id":"cebpf4jnsgd1na2vs0mg"},{"bike_id":"4ab5d0b2-c8a0-4186-874f-be740f17dddd","system_id":"levelo_inurba_marseille","lat":43.317557,"lon":5.390173,"is_reserved":false,"is_disabled":false,"rental_uris":{"android":"levelo://app?vid=4ab5d0b2-c8a0-4186-874f-be740f17dddd","ios":"levelo://app?vid=4ab5d0b2-c8a0-4186-874f-be740f17dddd"},"vehicle_type_id":"4","last_reported":1723759729,"current_range_meters":30000,"station_id":"ce4bhqp2rcd13ifvqhng","pricing_plan_id":"cebpf4jnsgd1na2vs0mg"},{"bike_id":"789b9e91-112d-46e6-a948-6e66a619928e","system_id":"levelo_inurba_marseille","lat":43.31755,"lon":5.3902,"is_reserved":false,"is_disabled":false,"rental_uris":{"android":"levelo://app?vid=789b9e91-112d-46e6-a948-6e66a619928e","ios":"levelo://app?vid=789b9e91-112d-46e6-a948-6e66a619928e"},"vehicle_type_id":"4","last_reported":1723759729,"current_range_meters":23200,"station_id":"ce4bhqp2rcd13ifvqhng","pricing_plan_id":"cebpf4jnsgd1na2vs0mg"},{"bike_id":"52a925d5-5a9d-4980-a6db-6571c7774ae5","system_id":"levelo_inurba_marseille","lat":43.31755,"lon":5.3902,"is_reserved":false,"is_disabled":false,"rental_uris":{"android":"levelo://app?vid=52a925d5-5a9d-4980-a6db-6571c7774ae5","ios":"levelo://app?vid=52a925d5-5a9d-4980-a6db-6571c7774ae5"},"vehicle_type_id":"4","last_reported":1723759729,"current_range_meters":26400,"station_id":"ce4bhqp2rcd13ifvqhng","pricing_plan_id":"cebpf4jnsgd1na2vs0mg"},{"bike_id":"4a59045a-8312-465b-9df4-615a040473f9","system_id":"levelo_inurba_marseille","lat":43.31757,"lon":5.39022,"is_reserved":false,"is_disabled":false,"rental_uris":{"android":"levelo://app?vid=4a59045a-8312-465b-9df4-615a040473f9","ios":"levelo://app?vid=4a59045a-8312-465b-9df4-615a040473f9"},"vehicle_type_id":"4","last_reported":1723759729,"current_range_meters":15600,"station_id":"ce4bhqp2rcd13ifvqhng","pricing_plan_id":"cebpf4jnsgd1na2vs0mg"},{"bike_id":"17051b0d-e844-42ce-8d09-91aa8b916288","system_id":"levelo_inurba_marseille","lat":43.317557,"lon":5.390173,"is_reserved":false,"is_disabled":false,"rental_uris":{"android":"levelo://app?vid=17051b0d-e844-42ce-8d09-91aa8b916288","ios":"levelo://app?vid=17051b0d-e844-42ce-8d09-91aa8b916288"},"vehicle_type_id":"4","last_reported":1723759729,"current_range_meters":31600,"station_id":"ce4bhqp2rcd13ifvqhng","pricing_plan_id":"cebpf4jnsgd1na2vs0mg"},{"bike_id":"ab9303dc-368c-499d-976e-16e9d5f3d132","system_id":"levelo_inurba_marseille","lat":43.31766,"lon":5.39021,"is_reserved":false,"is_disabled":false,"rental_uris":{"android":"levelo://app?vid=ab9303dc-368c-499d-976e-16e9d5f3d132","ios":"levelo://app?vid=ab9303dc-368c-499d-976e-16e9d5f3d132"},"vehicle_type_id":"4","last_reported":1723759729,"current_range_meters":4000,"station_id":"ce4bhqp2rcd13ifvqhng","pricing_plan_id":"cebpf4jnsgd1na2vs0mg"},{"bike_id":"3eadd705-ee72-4764-b78a-dbf0c491cb26","system_id":"levelo_inurba_marseille","lat":43.317567,"lon":5.390252,"is_reserved":false,"is_disabled":false,"rental_uris":{"android":"levelo://app?vid=3eadd705-ee72-4764-b78a-dbf0c491cb26","ios":"levelo://app?vid=3eadd705-ee72-4764-b78a-dbf0c491cb26"},"vehicle_type_id":"4","last_reported":1723759729,"current_range_meters":20000,"station_id":"ce4bhqp2rcd13ifvqhng","pricing_plan_id":"cebpf4jnsgd1na2vs0mg"},{"bike_id":"a2b6b1f7-2e79-4b0b-b728-70232a4c5656","system_id":"levelo_inurba_marseille","lat":43.317695,"lon":5.390215,"is_reserved":false,"is_disabled":false,"rental_uris":{"android":"levelo://app?vid=a2b6b1f7-2e79-4b0b-b728-70232a4c5656","ios":"levelo://app?vid=a2b6b1f7-2e79-4b0b-b728-70232a4c5656"},"vehicle_type_id":"4","last_reported":1723759729,"current_range_meters":28000,"station_id":"ce4bhqp2rcd13ifvqhng","pricing_plan_id":"cebpf4jnsgd1na2vs0mg"},{"bike_id":"db019ba9-1d63-40a3-8077-d61cef282848","system_id":"levelo_inurba_marseille","lat":43.317557,"lon":5.390173,"is_reserved":false,"is_disabled":false,"rental_uris":{"android":"levelo://app?vid=db019ba9-1d63-40a3-8077-d61cef282848","ios":"levelo://app?vid=db019ba9-1d63-40a3-8077-d61cef282848"},"vehicle_type_id":"4","last_reported":1723759729,"current_range_meters":16800,"station_id":"ce4bhqp2rcd13ifvqhng","pricing_plan_id":"cebpf4jnsgd1na2vs0mg"},{"bike_id":"864dbf84-46a8-4a39-9e14-a484ee7bed9e","system_id":"levelo_inurba_marseille","lat":43.29747,"lon":5.37937,"is_reserved":false,"is_disabled":false,"rental_uris":{"android":"levelo://app?vid=864dbf84-46a8-4a39-9e14-a484ee7bed9e","ios":"levelo://app?vid=864dbf84-46a8-4a39-9e14-a484ee7bed9e"},"vehicle_type_id":"4","last_reported":1723759729,"current_range_meters":22800,"station_id":"","pricing_plan_id":"cebpf4jnsgd1na2vs0mg"},{"bike_id":"d6a0a5ce-fd8f-4b99-92b4-9bc201c9fffa","system_id":"levelo_inurba_marseille","lat":43.29806,"lon":5.38091,"is_reserved":false,"is_disabled":false,"rental_uris":{"android":"levelo://app?vid=d6a0a5ce-fd8f-4b99-92b4-9bc201c9fffa","ios":"levelo://app?vid=d6a0a5ce-fd8f-4b99-92b4-9bc201c9fffa"},"vehicle_type_id":"4","last_reported":1723759729,"current_range_meters":16000,"station_id":"ce4bgip2rcd13ifvqbb0","pricing_plan_id":"cebpf4jnsgd1na2vs0mg"},{"bike_id":"f21df959-5b81-412e-95c9-c39d722bda8a","system_id":"levelo_inurba_marseille","lat":43.29808,"lon":5.38099,"is_reserved":false,"is_disabled":false,"rental_uris":{"android":"levelo://app?vid=f21df959-5b81-412e-95c9-c39d722bda8a","ios":"levelo://app?vid=f21df959-5b81-412e-95c9-c39d722bda8a"},"vehicle_type_id":"4","last_reported":1723759729,"current_range_meters":18800,"station_id":"ce4bgip2rcd13ifvqbb0","pricing_plan_id":"cebpf4jnsgd1na2vs0mg"},{"bike_id":"c648dcea-97ef-44f2-8fa5-278860cd562f","system_id":"levelo_inurba_marseille","lat":43.298037,"lon":5.381066,"is_reserved":false,"is_disabled":false,"rental_uris":{"android":"levelo://app?vid=c648dcea-97ef-44f2-8fa5-278860cd562f","ios":"levelo://app?vid=c648dcea-97ef-44f2-8fa5-278860cd562f"},"vehicle_type_id":"4","last_reported":1723759729,"current_range_meters":29200,"station_id":"ce4bgip2rcd13ifvqbb0","pricing_plan_id":"cebpf4jnsgd1na2vs0mg"},{"bike_id":"889ad595-632c-4704-9fe8-d5eaeea27474","system_id":"levelo_inurba_marseille","lat":43.29805,"lon":5.38099,"is_reserved":false,"is_disabled":false,"rental_uris":{"android":"levelo://app?vid=889ad595-632c-4704-9fe8-d5eaeea27474","ios":"levelo://app?vid=889ad595-632c-4704-9fe8-d5eaeea27474"},"vehicle_type_id":"4","last_reported":1723759729,"current_range_meters":15600,"station_id":"ce4bgip2rcd13ifvqbb0","pricing_plan_id":"cebpf4jnsgd1na2vs0mg"},{"bike_id":"d5e30337-eac8-469c-ad4c-6b9a8484f1db","system_id":"levelo_inurba_marseille","lat":43.29803,"lon":5.38097,"is_reserved":false,"is_disabled":false,"rental_uris":{"android":"levelo://app?vid=d5e30337-eac8-469c-ad4c-6b9a8484f1db","ios":"levelo://app?vid=d5e30337-eac8-469c-ad4c-6b9a8484f1db"},"vehicle_type_id":"4","last_reported":1723759729,"current_range_meters":29200,"station_id":"ce4bgip2rcd13ifvqbb0","pricing_plan_id":"cebpf4jnsgd1na2vs0mg"},{"bike_id":"c7e98b77-f8d1-429f-acb9-d200f22a3475","system_id":"levelo_inurba_marseille","lat":43.304274,"lon":5.388873,"is_reserved":false,"is_disabled":false,"rental_uris":{"android":"levelo://app?vid=c7e98b77-f8d1-429f-acb9-d200f22a3475","ios":"levelo://app?vid=c7e98b77-f8d1-429f-acb9-d200f22a3475"},"vehicle_type_id":"4","last_reported":1723759729,"current_range_meters":31200,"station_id":"ce4bgk12rcd13ifvqbi0","pricing_plan_id":"cebpf4jnsgd1na2vs0mg"},{"bike_id":"ed1f6438-ed2a-4639-a8d0-b3a50738d942","system_id":"levelo_inurba_marseille","lat":43.296277,"lon":5.377108,"is_reserved":false,"is_disabled":false,"rental_uris":{"android":"levelo://app?vid=ed1f6438-ed2a-4639-a8d0-b3a50738d942","ios":"levelo://app?vid=ed1f6438-ed2a-4639-a8d0-b3a50738d942"},"vehicle_type_id":"4","last_reported":1723759729,"current_range_meters":5600,"station_id":"ce4bgi92rcd13ifvqb90","pricing_plan_id":"cebpf4jnsgd1na2vs0mg"},{"bike_id":"ba01a37f-86fb-4ad0-8b8a-750d04176f9a","system_id":"levelo_inurba_marseille","lat":43.304278,"lon":5.388868,"is_reserved":false,"is_disabled":false,"rental_uris":{"android":"levelo://app?vid=ba01a37f-86fb-4ad0-8b8a-750d04176f9a","ios":"levelo://app?vid=ba01a37f-86fb-4ad0-8b8a-750d04176f9a"},"vehicle_type_id":"4","last_reported":1723759729,"current_range_meters":31600,"station_id":"ce4bgk12rcd13ifvqbi0","pricing_plan_id":"cebpf4jnsgd1na2vs0mg"},{"bike_id":"65e07f50-df5e-4c2b-8d1c-8f374c4d53f3","system_id":"levelo_inurba_marseille","lat":43.304274,"lon":5.388873,"is_reserved":false,"is_disabled":false,"rental_uris":{"android":"levelo://app?vid=65e07f50-df5e-4c2b-8d1c-8f374c4d53f3","ios":"levelo://app?vid=65e07f50-df5e-4c2b-8d1c-8f374c4d53f3"},"vehicle_type_id":"4","last_reported":1723759729,"current_range_meters":28400,"station_id":"ce4bgk12rcd13ifvqbi0","pricing_plan_id":"cebpf4jnsgd1na2vs0mg"},{"bike_id":"a3bed14a-a27b-410e-b6da-2728e5f6979f","system_id":"levelo_inurba_marseille","lat":43.304274,"lon":5.388873,"is_reserved":false,"is_disabled":false,"rental_uris":{"android":"levelo://app?vid=a3bed14a-a27b-410e-b6da-2728e5f6979f","ios":"levelo://app?vid=a3bed14a-a27b-410e-b6da-2728e5f6979f"},"vehicle_type_id":"4","last_reported":1723759729,"current_range_meters":31200,"station_id":"ce4bgk12rcd13ifvqbi0","pricing_plan_id":"cebpf4jnsgd1na2vs0mg"},{"bike_id":"8875135f-ab58-4145-8858-6374db1d4e76","system_id":"levelo_inurba_marseille","lat":43.29619,"lon":5.37702,"is_reserved":false,"is_disabled":false,"rental_uris":{"android":"levelo://app?vid=8875135f-ab58-4145-8858-6374db1d4e76","ios":"levelo://app?vid=8875135f-ab58-4145-8858-6374db1d4e76"},"vehicle_type_id":"4","last_reported":1723759729,"current_range_meters":16800,"station_id":"ce4bgi92rcd13ifvqb90","pricing_plan_id":"cebpf4jnsgd1na2vs0mg"},{"bike_id":"11eec499-0b06-428b-a3a2-fd35cb2e0d45","system_id":"levelo_inurba_marseille","lat":43.304278,"lon":5.388868,"is_reserved":false,"is_disabled":false,"rental_uris":{"android":"levelo://app?vid=11eec499-0b06-428b-a3a2-fd35cb2e0d45","ios":"levelo://app?vid=11eec499-0b06-428b-a3a2-fd35cb2e0d45"},"vehicle_type_id":"4","last_reported":1723759729,"current_range_meters":23200,"station_id":"ce4bgk12rcd13ifvqbi0","pricing_plan_id":"cebpf4jnsgd1na2vs0mg"},{"bike_id":"fbd8c3c6-ed3d-468f-9b28-b35d960abfa3","system_id":"levelo_inurba_marseille","lat":43.296277,"lon":5.377108,"is_reserved":false,"is_disabled":false,"rental_uris":{"android":"levelo://app?vid=fbd8c3c6-ed3d-468f-9b28-b35d960abfa3","ios":"levelo://app?vid=fbd8c3c6-ed3d-468f-9b28-b35d960abfa3"},"vehicle_type_id":"4","last_reported":1723759729,"current_range_meters":30000,"station_id":"ce4bgi92rcd13ifvqb90","pricing_plan_id":"cebpf4jnsgd1na2vs0mg"},{"bike_id":"d5539008-09c7-4313-b0fc-a8d2f150587f","system_id":"levelo_inurba_marseille","lat":43.296277,"lon":5.377108,"is_reserved":false,"is_disabled":false,"rental_uris":{"android":"levelo://app?vid=d5539008-09c7-4313-b0fc-a8d2f150587f","ios":"levelo://app?vid=d5539008-09c7-4313-b0fc-a8d2f150587f"},"vehicle_type_id":"4","last_reported":1723759729,"current_range_meters":31600,"station_id":"ce4bgi92rcd13ifvqb90","pricing_plan_id":"cebpf4jnsgd1na2vs0mg"},{"bike_id":"1b4f7731-0576-4dce-8974-272695cdea71","system_id":"levelo_inurba_marseille","lat":43.295279,"lon":5.375048,"is_reserved":false,"is_disabled":false,"rental_uris":{"android":"levelo://app?vid=1b4f7731-0576-4dce-8974-272695cdea71","ios":"levelo://app?vid=1b4f7731-0576-4dce-8974-272695cdea71"},"vehicle_type_id":"4","last_reported":1723759729,"current_range_meters":10800,"station_id":"ce4bgkp2rcd13ifvqbmg","pricing_plan_id":"cebpf4jnsgd1na2vs0mg"},{"bike_id":"8698d5db-77a2-4771-aad0-c2e4f43a54bf","system_id":"levelo_inurba_marseille","lat":43.296277,"lon":5.377108,"is_reserved":false,"is_disabled":false,"rental_uris":{"android":"levelo://app?vid=8698d5db-77a2-4771-aad0-c2e4f43a54bf","ios":"levelo://app?vid=8698d5db-77a2-4771-aad0-c2e4f43a54bf"},"vehicle_type_id":"4","last_reported":1723759729,"current_range_meters":23200,"station_id":"ce4bgi92rcd13ifvqb90","pricing_plan_id":"cebpf4jnsgd1na2vs0mg"},{"bike_id":"21d0e592-4321-4674-acc5-e7875e452c0d","system_id":"levelo_inurba_marseille","lat":43.299717,"lon":5.384845,"is_reserved":false,"is_disabled":false,"rental_uris":{"android":"levelo://app?vid=21d0e592-4321-4674-acc5-e7875e452c0d","ios":"levelo://app?vid=21d0e592-4321-4674-acc5-e7875e452c0d"},"vehicle_type_id":"4","last_reported":1723759729,"current_range_meters":30800,"station_id":"ce4bgj92rcd13ifvqbd0","pricing_plan_id":"cebpf4jnsgd1na2vs0mg"},{"bike_id":"c8ca4b1a-cd9b-4825-b44b-14ca6ffde01a","system_id":"levelo_inurba_marseille","lat":43.29979,"lon":5.38481,"is_reserved":false,"is_disabled":false,"rental_uris":{"android":"levelo://app?vid=c8ca4b1a-cd9b-4825-b44b-14ca6ffde01a","ios":"levelo://app?vid=c8ca4b1a-cd9b-4825-b44b-14ca6ffde01a"},"vehicle_type_id":"4","last_reported":1723759729,"current_range_meters":31200,"station_id":"ce4bgj92rcd13ifvqbd0","pricing_plan_id":"cebpf4jnsgd1na2vs0mg"},{"bike_id":"a6e7d0d1-4472-487c-b484-cc60aa3d7943","system_id":"levelo_inurba_marseille","lat":43.295279,"lon":5.375048,"is_reserved":false,"is_disabled":false,"rental_uris":{"android":"levelo://app?vid=a6e7d0d1-4472-487c-b484-cc60aa3d7943","ios":"levelo://app?vid=a6e7d0d1-4472-487c-b484-cc60aa3d7943"},"vehicle_type_id":"4","last_reported":1723759729,"current_range_meters":20400,"station_id":"ce4bgkp2rcd13ifvqbmg","pricing_plan_id":"cebpf4jnsgd1na2vs0mg"},{"bike_id":"038f2c50-46a6-43b0-b668-1faec322a8d1","system_id":"levelo_inurba_marseille","lat":43.299791,"lon":5.384864,"is_reserved":false,"is_disabled":false,"rental_uris":{"android":"levelo://app?vid=038f2c50-46a6-43b0-b668-1faec322a8d1","ios":"levelo://app?vid=038f2c50-46a6-43b0-b668-1faec322a8d1"},"vehicle_type_id":"4","last_reported":1723759729,"current_range_meters":9200,"station_id":"ce4bgj92rcd13ifvqbd0","pricing_plan_id":"cebpf4jnsgd1na2vs0mg"},{"bike_id":"43cbd206-f888-4af4-8d60-316bb76f52a5","system_id":"levelo_inurba_marseille","lat":43.299717,"lon":5.384845,"is_reserved":false,"is_disabled":false,"rental_uris":{"android":"levelo://app?vid=43cbd206-f888-4af4-8d60-316bb76f52a5","ios":"levelo://app?vid=43cbd206-f888-4af4-8d60-316bb76f52a5"},"vehicle_type_id":"4","last_reported":1723759729,"current_range_meters":16800,"station_id":"ce4bgj92rcd13ifvqbd0","pricing_plan_id":"cebpf4jnsgd1na2vs0mg"},{"bike_id":"c10f6568-dd9f-4ada-b686-ebc682f37579","system_id":"levelo_inurba_marseille","lat":43.295279,"lon":5.375048,"is_reserved":false,"is_disabled":false,"rental_uris":{"android":"levelo://app?vid=c10f6568-dd9f-4ada-b686-ebc682f37579","ios":"levelo://app?vid=c10f6568-dd9f-4ada-b686-ebc682f37579"},"vehicle_type_id":"4","last_reported":1723759729,"current_range_meters":16800,"station_id":"ce4bgkp2rcd13ifvqbmg","pricing_plan_id":"cebpf4jnsgd1na2vs0mg"},{"bike_id":"0bd520a7-feda-4891-8cab-7fbde8c05eb7","system_id":"levelo_inurba_marseille","lat":43.299735,"lon":5.384883,"is_reserved":false,"is_disabled":false,"rental_uris":{"android":"levelo://app?vid=0bd520a7-feda-4891-8cab-7fbde8c05eb7","ios":"levelo://app?vid=0bd520a7-feda-4891-8cab-7fbde8c05eb7"},"vehicle_type_id":"4","last_reported":1723759729,"current_range_meters":23200,"station_id":"ce4bgj92rcd13ifvqbd0","pricing_plan_id":"cebpf4jnsgd1na2vs0mg"},{"bike_id":"1c2b11fc-4a36-444d-9152-77f29ca20ebb","system_id":"levelo_inurba_marseille","lat":43.295279,"lon":5.375048,"is_reserved":false,"is_disabled":false,"rental_uris":{"android":"levelo://app?vid=1c2b11fc-4a36-444d-9152-77f29ca20ebb","ios":"levelo://app?vid=1c2b11fc-4a36-444d-9152-77f29ca20ebb"},"vehicle_type_id":"4","last_reported":1723759729,"current_range_meters":22800,"station_id":"ce4bgkp2rcd13ifvqbmg","pricing_plan_id":"cebpf4jnsgd1na2vs0mg"},{"bike_id":"a7ed06d3-5000-4efd-b807-9d0039a2e324","system_id":"levelo_inurba_marseille","lat":43.295279,"lon":5.375048,"is_reserved":false,"is_disabled":false,"rental_uris":{"android":"levelo://app?vid=a7ed06d3-5000-4efd-b807-9d0039a2e324","ios":"levelo://app?vid=a7ed06d3-5000-4efd-b807-9d0039a2e324"},"vehicle_type_id":"4","last_reported":1723759729,"current_range_meters":31600,"station_id":"ce4bgkp2rcd13ifvqbmg","pricing_plan_id":"cebpf4jnsgd1na2vs0mg"},{"bike_id":"43fea45d-cf29-4471-a37c-35d0f5e0c6e7","system_id":"levelo_inurba_marseille","lat":43.299707,"lon":5.384859,"is_reserved":false,"is_disabled":false,"rental_uris":{"android":"levelo://app?vid=43fea45d-cf29-4471-a37c-35d0f5e0c6e7","ios":"levelo://app?vid=43fea45d-cf29-4471-a37c-35d0f5e0c6e7"},"vehicle_type_id":"4","last_reported":1723759729,"current_range_meters":30800,"station_id":"ce4bgj92rcd13ifvqbd0","pricing_plan_id":"cebpf4jnsgd1na2vs0mg"},{"bike_id":"d435bdd9-fc64-47ae-a983-9108844077ec","system_id":"levelo_inurba_marseille","lat":43.29973,"lon":5.38494,"is_reserved":false,"is_disabled":false,"rental_uris":{"android":"levelo://app?vid=d435bdd9-fc64-47ae-a983-9108844077ec","ios":"levelo://app?vid=d435bdd9-fc64-47ae-a983-9108844077ec"},"vehicle_type_id":"4","last_reported":1723759729,"current_range_meters":24800,"station_id":"ce4bgj92rcd13ifvqbd0","pricing_plan_id":"cebpf4jnsgd1na2vs0mg"},{"bike_id":"2d583bf6-f12c-43d1-99e0-e933380ee72c","system_id":"levelo_inurba_marseille","lat":43.299707,"lon":5.384859,"is_reserved":false,"is_disabled":false,"rental_uris":{"android":"levelo://app?vid=2d583bf6-f12c-43d1-99e0-e933380ee72c","ios":"levelo://app?vid=2d583bf6-f12c-43d1-99e0-e933380ee72c"},"vehicle_type_id":"4","last_reported":1723759729,"current_range_meters":31200,"station_id":"ce4bgj92rcd13ifvqbd0","pricing_plan_id":"cebpf4jnsgd1na2vs0mg"},{"bike_id":"f13aff0c-7eeb-4c09-9267-bf72315253cc","system_id":"levelo_inurba_marseille","lat":43.299717,"lon":5.384845,"is_reserved":false,"is_disabled":false,"rental_uris":{"android":"levelo://app?vid=f13aff0c-7eeb-4c09-9267-bf72315253cc","ios":"levelo://app?vid=f13aff0c-7eeb-4c09-9267-bf72315253cc"},"vehicle_type_id":"4","last_reported":1723759729,"current_range_meters":31200,"station_id":"ce4bgj92rcd13ifvqbd0","pricing_plan_id":"cebpf4jnsgd1na2vs0mg"},{"bike_id":"516cae56-515b-4a12-917c-1073545f600a","system_id":"levelo_inurba_marseille","lat":43.299717,"lon":5.384845,"is_reserved":false,"is_disabled":false,"rental_uris":{"android":"levelo://app?vid=516cae56-515b-4a12-917c-1073545f600a","ios":"levelo://app?vid=516cae56-515b-4a12-917c-1073545f600a"},"vehicle_type_id":"4","last_reported":1723759729,"current_range_meters":27200,"station_id":"ce4bgj92rcd13ifvqbd0","pricing_plan_id":"cebpf4jnsgd1na2vs0mg"},{"bike_id":"9424e3a5-541c-4537-98ea-6a2f5af7daf5","system_id":"levelo_inurba_marseille","lat":43.29658,"lon":5.37942,"is_reserved":false,"is_disabled":false,"rental_uris":{"android":"levelo://app?vid=9424e3a5-541c-4537-98ea-6a2f5af7daf5","ios":"levelo://app?vid=9424e3a5-541c-4537-98ea-6a2f5af7daf5"},"vehicle_type_id":"4","last_reported":1723759729,"current_range_meters":15200,"station_id":"","pricing_plan_id":"cebpf4jnsgd1na2vs0mg"},{"bike_id":"b4472f53-e776-4d56-9613-2ee8aa9b4843","system_id":"levelo_inurba_marseille","lat":43.299724,"lon":5.384848,"is_reserved":false,"is_disabled":false,"rental_uris":{"android":"levelo://app?vid=b4472f53-e776-4d56-9613-2ee8aa9b4843","ios":"levelo://app?vid=b4472f53-e776-4d56-9613-2ee8aa9b4843"},"vehicle_type_id":"4","last_reported":1723759729,"current_range_meters":8400,"station_id":"ce4bgj92rcd13ifvqbd0","pricing_plan_id":"cebpf4jnsgd1na2vs0mg"},{"bike_id":"83f49b58-cd33-4829-aa7b-ce0d14a586da","system_id":"levelo_inurba_marseille","lat":43.299724,"lon":5.384848,"is_reserved":false,"is_disabled":false,"rental_uris":{"android":"levelo://app?vid=83f49b58-cd33-4829-aa7b-ce0d14a586da","ios":"levelo://app?vid=83f49b58-cd33-4829-aa7b-ce0d14a586da"},"vehicle_type_id":"4","last_reported":1723759729,"current_range_meters":31600,"station_id":"ce4bgj92rcd13ifvqbd0","pricing_plan_id":"cebpf4jnsgd1na2vs0mg"},{"bike_id":"6a20b0ad-0c02-45ad-b01b-193e53c4d628","system_id":"levelo_inurba_marseille","lat":43.299724,"lon":5.384848,"is_reserved":false,"is_disabled":false,"rental_uris":{"android":"levelo://app?vid=6a20b0ad-0c02-45ad-b01b-193e53c4d628","ios":"levelo://app?vid=6a20b0ad-0c02-45ad-b01b-193e53c4d628"},"vehicle_type_id":"4","last_reported":1723759729,"current_range_meters":17600,"station_id":"ce4bgj92rcd13ifvqbd0","pricing_plan_id":"cebpf4jnsgd1na2vs0mg"},{"bike_id":"041eedcc-61e8-4a94-a965-8697a73c81a4","system_id":"levelo_inurba_marseille","lat":43.299724,"lon":5.384848,"is_reserved":false,"is_disabled":false,"rental_uris":{"android":"levelo://app?vid=041eedcc-61e8-4a94-a965-8697a73c81a4","ios":"levelo://app?vid=041eedcc-61e8-4a94-a965-8697a73c81a4"},"vehicle_type_id":"4","last_reported":1723759729,"current_range_meters":24000,"station_id":"ce4bgj92rcd13ifvqbd0","pricing_plan_id":"cebpf4jnsgd1na2vs0mg"},{"bike_id":"57182817-297f-43fc-8751-14c2796f30a5","system_id":"levelo_inurba_marseille","lat":43.301396,"lon":5.387812,"is_reserved":false,"is_disabled":false,"rental_uris":{"android":"levelo://app?vid=57182817-297f-43fc-8751-14c2796f30a5","ios":"levelo://app?vid=57182817-297f-43fc-8751-14c2796f30a5"},"vehicle_type_id":"4","last_reported":1723759729,"current_range_meters":31200,"station_id":"ce4bghh2rcd13ifvqb60","pricing_plan_id":"cebpf4jnsgd1na2vs0mg"},{"bike_id":"362f5c23-d5fa-4bca-bf46-a6fadca572aa","system_id":"levelo_inurba_marseille","lat":43.301396,"lon":5.387812,"is_reserved":false,"is_disabled":false,"rental_uris":{"android":"levelo://app?vid=362f5c23-d5fa-4bca-bf46-a6fadca572aa","ios":"levelo://app?vid=362f5c23-d5fa-4bca-bf46-a6fadca572aa"},"vehicle_type_id":"4","last_reported":1723759729,"current_range_meters":16000,"station_id":"ce4bghh2rcd13ifvqb60","pricing_plan_id":"cebpf4jnsgd1na2vs0mg"},{"bike_id":"9c781eb3-142e-4642-b06a-8dde1c26ac3d","system_id":"levelo_inurba_marseille","lat":43.32367,"lon":5.388836,"is_reserved":false,"is_disabled":false,"rental_uris":{"android":"levelo://app?vid=9c781eb3-142e-4642-b06a-8dde1c26ac3d","ios":"levelo://app?vid=9c781eb3-142e-4642-b06a-8dde1c26ac3d"},"vehicle_type_id":"4","last_reported":1723759729,"current_range_meters":4400,"station_id":"ce4bhqp2rcd13ifvqhog","pricing_plan_id":"cebpf4jnsgd1na2vs0mg"},{"bike_id":"8f401e04-4a4d-4a89-89e8-753119c4158e","system_id":"levelo_inurba_marseille","lat":43.32366,"lon":5.38886,"is_reserved":false,"is_disabled":false,"rental_uris":{"android":"levelo://app?vid=8f401e04-4a4d-4a89-89e8-753119c4158e","ios":"levelo://app?vid=8f401e04-4a4d-4a89-89e8-753119c4158e"},"vehicle_type_id":"4","last_reported":1723759729,"current_range_meters":31200,"station_id":"ce4bhqp2rcd13ifvqhog","pricing_plan_id":"cebpf4jnsgd1na2vs0mg"},{"bike_id":"80d03ceb-5aaa-42c4-89fa-e7704230b5bc","system_id":"levelo_inurba_marseille","lat":43.323693,"lon":5.388877,"is_reserved":false,"is_disabled":false,"rental_uris":{"android":"levelo://app?vid=80d03ceb-5aaa-42c4-89fa-e7704230b5bc","ios":"levelo://app?vid=80d03ceb-5aaa-42c4-89fa-e7704230b5bc"},"vehicle_type_id":"4","last_reported":1723759729,"current_range_meters":2800,"station_id":"ce4bhqp2rcd13ifvqhog","pricing_plan_id":"cebpf4jnsgd1na2vs0mg"},{"bike_id":"67dbdda0-5113-4fa6-9495-43583e6c1497","system_id":"levelo_inurba_marseille","lat":43.32367,"lon":5.3889,"is_reserved":false,"is_disabled":false,"rental_uris":{"android":"levelo://app?vid=67dbdda0-5113-4fa6-9495-43583e6c1497","ios":"levelo://app?vid=67dbdda0-5113-4fa6-9495-43583e6c1497"},"vehicle_type_id":"4","last_reported":1723759729,"current_range_meters":20000,"station_id":"ce4bhqp2rcd13ifvqhog","pricing_plan_id":"cebpf4jnsgd1na2vs0mg"},{"bike_id":"0d595970-cc1d-441f-85df-eab93e02d00d","system_id":"levelo_inurba_marseille","lat":43.32372,"lon":5.38889,"is_reserved":false,"is_disabled":false,"rental_uris":{"android":"levelo://app?vid=0d595970-cc1d-441f-85df-eab93e02d00d","ios":"levelo://app?vid=0d595970-cc1d-441f-85df-eab93e02d00d"},"vehicle_type_id":"4","last_reported":1723759729,"current_range_meters":22000,"station_id":"ce4bhqp2rcd13ifvqhog","pricing_plan_id":"cebpf4jnsgd1na2vs0mg"},{"bike_id":"91194db9-be2b-414f-b355-ba8ed74f883a","system_id":"levelo_inurba_marseille","lat":43.293298,"lon":5.370964,"is_reserved":false,"is_disabled":false,"rental_uris":{"android":"levelo://app?vid=91194db9-be2b-414f-b355-ba8ed74f883a","ios":"levelo://app?vid=91194db9-be2b-414f-b355-ba8ed74f883a"},"vehicle_type_id":"4","last_reported":1723759729,"current_range_meters":6000,"station_id":"","pricing_plan_id":"cebpf4jnsgd1na2vs0mg"},{"bike_id":"81cab3d9-e6ad-4ef7-b2bd-42d0473475a7","system_id":"levelo_inurba_marseille","lat":43.293249,"lon":5.371578,"is_reserved":false,"is_disabled":false,"rental_uris":{"android":"levelo://app?vid=81cab3d9-e6ad-4ef7-b2bd-42d0473475a7","ios":"levelo://app?vid=81cab3d9-e6ad-4ef7-b2bd-42d0473475a7"},"vehicle_type_id":"4","last_reported":1723759729,"current_range_meters":30400,"station_id":"ce4bgh92rcd13ifvqb40","pricing_plan_id":"cebpf4jnsgd1na2vs0mg"},{"bike_id":"9f7faeec-4405-4d62-82c0-cfc344ab4ede","system_id":"levelo_inurba_marseille","lat":43.292749,"lon":5.368402,"is_reserved":false,"is_disabled":false,"rental_uris":{"android":"levelo://app?vid=9f7faeec-4405-4d62-82c0-cfc344ab4ede","ios":"levelo://app?vid=9f7faeec-4405-4d62-82c0-cfc344ab4ede"},"vehicle_type_id":"4","last_reported":1723759729,"current_range_meters":20800,"station_id":"ce4bhbp2rcd13ifvqesg","pricing_plan_id":"cebpf4jnsgd1na2vs0mg"},{"bike_id":"667cbe0e-54dc-4263-b9d2-292bdbc42e7f","system_id":"levelo_inurba_marseille","lat":43.292749,"lon":5.368402,"is_reserved":false,"is_disabled":false,"rental_uris":{"android":"levelo://app?vid=667cbe0e-54dc-4263-b9d2-292bdbc42e7f","ios":"levelo://app?vid=667cbe0e-54dc-4263-b9d2-292bdbc42e7f"},"vehicle_type_id":"4","last_reported":1723759729,"current_range_meters":19600,"station_id":"ce4bhbp2rcd13ifvqesg","pricing_plan_id":"cebpf4jnsgd1na2vs0mg"},{"bike_id":"c38abd92-e099-4955-a67c-a5945b3493ec","system_id":"levelo_inurba_marseille","lat":43.292749,"lon":5.368402,"is_reserved":false,"is_disabled":false,"rental_uris":{"android":"levelo://app?vid=c38abd92-e099-4955-a67c-a5945b3493ec","ios":"levelo://app?vid=c38abd92-e099-4955-a67c-a5945b3493ec"},"vehicle_type_id":"4","last_reported":1723759729,"current_range_meters":4400,"station_id":"ce4bhbp2rcd13ifvqesg","pricing_plan_id":"cebpf4jnsgd1na2vs0mg"},{"bike_id":"a22eb7cd-0fe4-4bbf-afa0-8c28edfc994b","system_id":"levelo_inurba_marseille","lat":43.293259,"lon":5.371586,"is_reserved":false,"is_disabled":false,"rental_uris":{"android":"levelo://app?vid=a22eb7cd-0fe4-4bbf-afa0-8c28edfc994b","ios":"levelo://app?vid=a22eb7cd-0fe4-4bbf-afa0-8c28edfc994b"},"vehicle_type_id":"4","last_reported":1723759729,"current_range_meters":15600,"station_id":"ce4bgh92rcd13ifvqb40","pricing_plan_id":"cebpf4jnsgd1na2vs0mg"},{"bike_id":"b937844f-528d-493c-8857-7c17209a7b44","system_id":"levelo_inurba_marseille","lat":43.293259,"lon":5.371586,"is_reserved":false,"is_disabled":false,"rental_uris":{"android":"levelo://app?vid=b937844f-528d-493c-8857-7c17209a7b44","ios":"levelo://app?vid=b937844f-528d-493c-8857-7c17209a7b44"},"vehicle_type_id":"4","last_reported":1723759729,"current_range_meters":20800,"station_id":"ce4bgh92rcd13ifvqb40","pricing_plan_id":"cebpf4jnsgd1na2vs0mg"},{"bike_id":"1b98ca71-2360-44ab-9e51-185146262b20","system_id":"levelo_inurba_marseille","lat":43.293259,"lon":5.371586,"is_reserved":false,"is_disabled":false,"rental_uris":{"android":"levelo://app?vid=1b98ca71-2360-44ab-9e51-185146262b20","ios":"levelo://app?vid=1b98ca71-2360-44ab-9e51-185146262b20"},"vehicle_type_id":"4","last_reported":1723759729,"current_range_meters":10800,"station_id":"ce4bgh92rcd13ifvqb40","pricing_plan_id":"cebpf4jnsgd1na2vs0mg"},{"bike_id":"6a836cee-c2d7-47ad-848b-09313926110e","system_id":"levelo_inurba_marseille","lat":43.29272,"lon":5.36839,"is_reserved":false,"is_disabled":false,"rental_uris":{"android":"levelo://app?vid=6a836cee-c2d7-47ad-848b-09313926110e","ios":"levelo://app?vid=6a836cee-c2d7-47ad-848b-09313926110e"},"vehicle_type_id":"4","last_reported":1723759729,"current_range_meters":31200,"station_id":"ce4bhbp2rcd13ifvqesg","pricing_plan_id":"cebpf4jnsgd1na2vs0mg"},{"bike_id":"6918f3c4-82eb-47c9-bea6-52c455e9bc0a","system_id":"levelo_inurba_marseille","lat":43.29394,"lon":5.376543,"is_reserved":false,"is_disabled":false,"rental_uris":{"android":"levelo://app?vid=6918f3c4-82eb-47c9-bea6-52c455e9bc0a","ios":"levelo://app?vid=6918f3c4-82eb-47c9-bea6-52c455e9bc0a"},"vehicle_type_id":"4","last_reported":1723759729,"current_range_meters":12000,"station_id":"","pricing_plan_id":"cebpf4jnsgd1na2vs0mg"},{"bike_id":"56b8bd45-c76d-49d1-9e1a-02e2d0495149","system_id":"levelo_inurba_marseille","lat":43.293259,"lon":5.371586,"is_reserved":false,"is_disabled":false,"rental_uris":{"android":"levelo://app?vid=56b8bd45-c76d-49d1-9e1a-02e2d0495149","ios":"levelo://app?vid=56b8bd45-c76d-49d1-9e1a-02e2d0495149"},"vehicle_type_id":"4","last_reported":1723759729,"current_range_meters":2400,"station_id":"ce4bgh92rcd13ifvqb40","pricing_plan_id":"cebpf4jnsgd1na2vs0mg"},{"bike_id":"8c176601-fe09-40c7-aa1e-45e0efc2d8ae","system_id":"levelo_inurba_marseille","lat":43.292749,"lon":5.368402,"is_reserved":false,"is_disabled":false,"rental_uris":{"android":"levelo://app?vid=8c176601-fe09-40c7-aa1e-45e0efc2d8ae","ios":"levelo://app?vid=8c176601-fe09-40c7-aa1e-45e0efc2d8ae"},"vehicle_type_id":"4","last_reported":1723759729,"current_range_meters":25600,"station_id":"ce4bhbp2rcd13ifvqesg","pricing_plan_id":"cebpf4jnsgd1na2vs0mg"},{"bike_id":"986b68ee-6c01-4b04-bf82-f0322008c958","system_id":"levelo_inurba_marseille","lat":43.29268,"lon":5.36858,"is_reserved":false,"is_disabled":false,"rental_uris":{"android":"levelo://app?vid=986b68ee-6c01-4b04-bf82-f0322008c958","ios":"levelo://app?vid=986b68ee-6c01-4b04-bf82-f0322008c958"},"vehicle_type_id":"4","last_reported":1723759729,"current_range_meters":31200,"station_id":"ce4bhbp2rcd13ifvqesg","pricing_plan_id":"cebpf4jnsgd1na2vs0mg"},{"bike_id":"43106ef3-03dc-496f-838f-c1361e681889","system_id":"levelo_inurba_marseille","lat":43.293009,"lon":5.374584,"is_reserved":false,"is_disabled":false,"rental_uris":{"android":"levelo://app?vid=43106ef3-03dc-496f-838f-c1361e681889","ios":"levelo://app?vid=43106ef3-03dc-496f-838f-c1361e681889"},"vehicle_type_id":"4","last_reported":1723759729,"current_range_meters":2400,"station_id":"ce4bgi12rcd13ifvqb70","pricing_plan_id":"cebpf4jnsgd1na2vs0mg"},{"bike_id":"72ef3434-355b-4294-a57b-9ca89520ddaf","system_id":"levelo_inurba_marseille","lat":43.293009,"lon":5.374584,"is_reserved":false,"is_disabled":false,"rental_uris":{"android":"levelo://app?vid=72ef3434-355b-4294-a57b-9ca89520ddaf","ios":"levelo://app?vid=72ef3434-355b-4294-a57b-9ca89520ddaf"},"vehicle_type_id":"4","last_reported":1723759729,"current_range_meters":10800,"station_id":"ce4bgi12rcd13ifvqb70","pricing_plan_id":"cebpf4jnsgd1na2vs0mg"},{"bike_id":"2fd9b777-1c7a-4168-af24-eb020a911e2c","system_id":"levelo_inurba_marseille","lat":43.305994,"lon":5.393687,"is_reserved":false,"is_disabled":false,"rental_uris":{"android":"levelo://app?vid=2fd9b777-1c7a-4168-af24-eb020a911e2c","ios":"levelo://app?vid=2fd9b777-1c7a-4168-af24-eb020a911e2c"},"vehicle_type_id":"4","last_reported":1723759729,"current_range_meters":19200,"station_id":"ce4bh0p2rcd13ifvqd80","pricing_plan_id":"cebpf4jnsgd1na2vs0mg"},{"bike_id":"c09ec4aa-1bf5-4ab4-bee1-f70c016ccea1","system_id":"levelo_inurba_marseille","lat":43.305994,"lon":5.393687,"is_reserved":false,"is_disabled":false,"rental_uris":{"android":"levelo://app?vid=c09ec4aa-1bf5-4ab4-bee1-f70c016ccea1","ios":"levelo://app?vid=c09ec4aa-1bf5-4ab4-bee1-f70c016ccea1"},"vehicle_type_id":"4","last_reported":1723759729,"current_range_meters":28400,"station_id":"ce4bh0p2rcd13ifvqd80","pricing_plan_id":"cebpf4jnsgd1na2vs0mg"},{"bike_id":"2579c30d-b8bc-42d8-aa9c-01de87f88bd5","system_id":"levelo_inurba_marseille","lat":43.305994,"lon":5.393687,"is_reserved":false,"is_disabled":false,"rental_uris":{"android":"levelo://app?vid=2579c30d-b8bc-42d8-aa9c-01de87f88bd5","ios":"levelo://app?vid=2579c30d-b8bc-42d8-aa9c-01de87f88bd5"},"vehicle_type_id":"4","last_reported":1723759729,"current_range_meters":22800,"station_id":"ce4bh0p2rcd13ifvqd80","pricing_plan_id":"cebpf4jnsgd1na2vs0mg"},{"bike_id":"3c2425af-52d3-435b-8e26-f433412aa64c","system_id":"levelo_inurba_marseille","lat":43.305994,"lon":5.393687,"is_reserved":false,"is_disabled":false,"rental_uris":{"android":"levelo://app?vid=3c2425af-52d3-435b-8e26-f433412aa64c","ios":"levelo://app?vid=3c2425af-52d3-435b-8e26-f433412aa64c"},"vehicle_type_id":"4","last_reported":1723759729,"current_range_meters":6800,"station_id":"ce4bh0p2rcd13ifvqd80","pricing_plan_id":"cebpf4jnsgd1na2vs0mg"},{"bike_id":"d9392a93-8a16-4220-b6d9-735e020b86de","system_id":"levelo_inurba_marseille","lat":43.305994,"lon":5.393687,"is_reserved":false,"is_disabled":false,"rental_uris":{"android":"levelo://app?vid=d9392a93-8a16-4220-b6d9-735e020b86de","ios":"levelo://app?vid=d9392a93-8a16-4220-b6d9-735e020b86de"},"vehicle_type_id":"4","last_reported":1723759729,"current_range_meters":28800,"station_id":"ce4bh0p2rcd13ifvqd80","pricing_plan_id":"cebpf4jnsgd1na2vs0mg"},{"bike_id":"338bdf19-f45e-4f25-8222-c78a47e67bd4","system_id":"levelo_inurba_marseille","lat":43.305994,"lon":5.393687,"is_reserved":false,"is_disabled":false,"rental_uris":{"android":"levelo://app?vid=338bdf19-f45e-4f25-8222-c78a47e67bd4","ios":"levelo://app?vid=338bdf19-f45e-4f25-8222-c78a47e67bd4"},"vehicle_type_id":"4","last_reported":1723759729,"current_range_meters":14800,"station_id":"ce4bh0p2rcd13ifvqd80","pricing_plan_id":"cebpf4jnsgd1na2vs0mg"},{"bike_id":"e76737e5-1433-478e-9ce6-c2c08c6f9df9","system_id":"levelo_inurba_marseille","lat":43.305994,"lon":5.393687,"is_reserved":false,"is_disabled":false,"rental_uris":{"android":"levelo://app?vid=e76737e5-1433-478e-9ce6-c2c08c6f9df9","ios":"levelo://app?vid=e76737e5-1433-478e-9ce6-c2c08c6f9df9"},"vehicle_type_id":"4","last_reported":1723759729,"current_range_meters":23200,"station_id":"ce4bh0p2rcd13ifvqd80","pricing_plan_id":"cebpf4jnsgd1na2vs0mg"},{"bike_id":"5a630f57-3854-474e-8dd9-69b867179203","system_id":"levelo_inurba_marseille","lat":43.305994,"lon":5.393687,"is_reserved":false,"is_disabled":false,"rental_uris":{"android":"levelo://app?vid=5a630f57-3854-474e-8dd9-69b867179203","ios":"levelo://app?vid=5a630f57-3854-474e-8dd9-69b867179203"},"vehicle_type_id":"4","last_reported":1723759729,"current_range_meters":31600,"station_id":"ce4bh0p2rcd13ifvqd80","pricing_plan_id":"cebpf4jnsgd1na2vs0mg"},{"bike_id":"6c31d5ae-b073-4581-acae-ba9368a91a75","system_id":"levelo_inurba_marseille","lat":43.305994,"lon":5.393687,"is_reserved":false,"is_disabled":false,"rental_uris":{"android":"levelo://app?vid=6c31d5ae-b073-4581-acae-ba9368a91a75","ios":"levelo://app?vid=6c31d5ae-b073-4581-acae-ba9368a91a75"},"vehicle_type_id":"4","last_reported":1723759729,"current_range_meters":25200,"station_id":"ce4bh0p2rcd13ifvqd80","pricing_plan_id":"cebpf4jnsgd1na2vs0mg"},{"bike_id":"4d781b09-9010-4f4e-bd79-74a43a115ad3","system_id":"levelo_inurba_marseille","lat":43.303002,"lon":5.392142,"is_reserved":false,"is_disabled":false,"rental_uris":{"android":"levelo://app?vid=4d781b09-9010-4f4e-bd79-74a43a115ad3","ios":"levelo://app?vid=4d781b09-9010-4f4e-bd79-74a43a115ad3"},"vehicle_type_id":"4","last_reported":1723759729,"current_range_meters":0,"station_id":"ce4bgkh2rcd13ifvqbk0","pricing_plan_id":"cebpf4jnsgd1na2vs0mg"},{"bike_id":"e4e7f95f-352f-4bc3-9215-1f4a7f59b881","system_id":"levelo_inurba_marseille","lat":43.302992,"lon":5.392136,"is_reserved":false,"is_disabled":false,"rental_uris":{"android":"levelo://app?vid=e4e7f95f-352f-4bc3-9215-1f4a7f59b881","ios":"levelo://app?vid=e4e7f95f-352f-4bc3-9215-1f4a7f59b881"},"vehicle_type_id":"4","last_reported":1723759729,"current_range_meters":28800,"station_id":"ce4bgkh2rcd13ifvqbk0","pricing_plan_id":"cebpf4jnsgd1na2vs0mg"},{"bike_id":"175f1686-5fe9-4d0a-a051-442feea2642b","system_id":"levelo_inurba_marseille","lat":43.303002,"lon":5.392142,"is_reserved":false,"is_disabled":false,"rental_uris":{"android":"levelo://app?vid=175f1686-5fe9-4d0a-a051-442feea2642b","ios":"levelo://app?vid=175f1686-5fe9-4d0a-a051-442feea2642b"},"vehicle_type_id":"4","last_reported":1723759729,"current_range_meters":1200,"station_id":"ce4bgkh2rcd13ifvqbk0","pricing_plan_id":"cebpf4jnsgd1na2vs0mg"},{"bike_id":"12a69f2c-6c9a-4413-92d5-0a20722dd10d","system_id":"levelo_inurba_marseille","lat":43.30101,"lon":5.39058,"is_reserved":false,"is_disabled":false,"rental_uris":{"android":"levelo://app?vid=12a69f2c-6c9a-4413-92d5-0a20722dd10d","ios":"levelo://app?vid=12a69f2c-6c9a-4413-92d5-0a20722dd10d"},"vehicle_type_id":"4","last_reported":1723759729,"current_range_meters":10400,"station_id":"ce4bh192rcd13ifvqdb0","pricing_plan_id":"cebpf4jnsgd1na2vs0mg"},{"bike_id":"bbf3623d-78ab-47f7-89d8-e88bfafe7b5f","system_id":"levelo_inurba_marseille","lat":43.29368,"lon":5.37849,"is_reserved":false,"is_disabled":false,"rental_uris":{"android":"levelo://app?vid=bbf3623d-78ab-47f7-89d8-e88bfafe7b5f","ios":"levelo://app?vid=bbf3623d-78ab-47f7-89d8-e88bfafe7b5f"},"vehicle_type_id":"4","last_reported":1723759729,"current_range_meters":27200,"station_id":"ce4bgjh2rcd13ifvqbf0","pricing_plan_id":"cebpf4jnsgd1na2vs0mg"},{"bike_id":"0773fa97-fdd2-4084-bad4-591b74a5c06d","system_id":"levelo_inurba_marseille","lat":43.2936,"lon":5.37835,"is_reserved":false,"is_disabled":false,"rental_uris":{"android":"levelo://app?vid=0773fa97-fdd2-4084-bad4-591b74a5c06d","ios":"levelo://app?vid=0773fa97-fdd2-4084-bad4-591b74a5c06d"},