{"last_updated":1713305237,"ttl":30,"version":"2.2","data":{"bikes":[{"bike_id":"a58f6297-1de4-4593-aa4b-c537ea678b22","system_id":"levelo_inurba_marseille","lat":43.309076,"lon":5.368465,"is_reserved":false,"is_disabled":false,"rental_uris":{"android":"levelo://app?vid=a58f6297-1de4-4593-aa4b-c537ea678b22","ios":"levelo://app?vid=a58f6297-1de4-4593-aa4b-c537ea678b22"},"vehicle_type_id":"4","last_reported":1713305237,"current_range_meters":31200,"station_id":"ce4bgn92rcd13ifvqbvg","pricing_plan_id":"cebpf4jnsgd1na2vs0mg"},{"bike_id":"93aaf658-762d-4485-b724-3eafc10f7858","system_id":"levelo_inurba_marseille","lat":43.314811,"lon":5.373103,"is_reserved":false,"is_disabled":false,"rental_uris":{"android":"levelo://app?vid=93aaf658-762d-4485-b724-3eafc10f7858","ios":"levelo://app?vid=93aaf658-762d-4485-b724-3eafc10f7858"},"vehicle_type_id":"4","last_reported":1713305237,"current_range_meters":2400,"station_id":"ce4bgt12rcd13ifvqcd0","pricing_plan_id":"cebpf4jnsgd1na2vs0mg"},{"bike_id":"91f3936a-7aca-4e4e-8b99-77704800448c","system_id":"levelo_inurba_marseille","lat":43.314811,"lon":5.373103,"is_reserved":false,"is_disabled":false,"rental_uris":{"android":"levelo://app?vid=91f3936a-7aca-4e4e-8b99-77704800448c","ios":"levelo://app?vid=91f3936a-7aca-4e4e-8b99-77704800448c"},"vehicle_type_id":"4","last_reported":1713305237,"current_range_meters":16800,"station_id":"ce4bgt12rcd13ifvqcd0","pricing_plan_id":"cebpf4jnsgd1na2vs0mg"},{"bike_id":"7a27ee51-51ad-4e32-97e8-fcf240a234e6","system_id":"levelo_inurba_marseille","lat":43.314811,"lon":5.373103,"is_reserved":false,"is_disabled":false,"rental_uris":{"android":"levelo://app?vid=7a27ee51-51ad-4e32-97e8-fcf240a234e6","ios":"levelo://app?vid=7a27ee51-51ad-4e32-97e8-fcf240a234e6"},"vehicle_type_id":"4","last_reported":1713305237,"current_range_meters":5600,"station_id":"ce4bgt12rcd13ifvqcd0","pricing_plan_id":"cebpf4jnsgd1na2vs0mg"},{"bike_id":"34e17031-4fab-4c81-9465-f4bb32ce7b88","system_id":"levelo_inurba_marseille","lat":43.310804,"lon":5.38359,"is_reserved":false,"is_disabled":false,"rental_uris":{"android":"levelo://app?vid=34e17031-4fab-4c81-9465-f4bb32ce7b88","ios":"levelo://app?vid=34e17031-4fab-4c81-9465-f4bb32ce7b88"},"vehicle_type_id":"4","last_reported":1713305237,"current_range_meters":4000,"station_id":"ce4bgv92rcd13ifvqcr0","pricing_plan_id":"cebpf4jnsgd1na2vs0mg"},{"bike_id":"31a0f42d-34f3-41a9-98c8-ab10e702da30","system_id":"levelo_inurba_marseille","lat":43.315,"lon":5.37305,"is_reserved":false,"is_disabled":false,"rental_uris":{"android":"levelo://app?vid=31a0f42d-34f3-41a9-98c8-ab10e702da30","ios":"levelo://app?vid=31a0f42d-34f3-41a9-98c8-ab10e702da30"},"vehicle_type_id":"4","last_reported":1713305237,"current_range_meters":22400,"station_id":"","pricing_plan_id":"cebpf4jnsgd1na2vs0mg"},{"bike_id":"fd45cdde-86f9-46a4-9470-99b866655d14","system_id":"levelo_inurba_marseille","lat":43.314811,"lon":5.373103,"is_reserved":false,"is_disabled":false,"rental_uris":{"android":"levelo://app?vid=fd45cdde-86f9-46a4-9470-99b866655d14","ios":"levelo://app?vid=fd45cdde-86f9-46a4-9470-99b866655d14"},"vehicle_type_id":"4","last_reported":1713305237,"current_range_meters":400,"station_id":"ce4bgt12rcd13ifvqcd0","pricing_plan_id":"cebpf4jnsgd1na2vs0mg"},{"bike_id":"0cb32614-d917-4989-8263-f91f6f319610","system_id":"levelo_inurba_marseille","lat":43.305712,"lon":5.365641,"is_reserved":false,"is_disabled":false,"rental_uris":{"android":"levelo://app?vid=0cb32614-d917-4989-8263-f91f6f319610","ios":"levelo://app?vid=0cb32614-d917-4989-8263-f91f6f319610"},"vehicle_type_id":"4","last_reported":1713305237,"current_range_meters":24000,"station_id":"ce4bgs12rcd13ifvqcag","pricing_plan_id":"cebpf4jnsgd1na2vs0mg"},{"bike_id":"52f22b5a-486d-4c62-a4ac-137bfb2f235e","system_id":"levelo_inurba_marseille","lat":43.30554,"lon":5.36534,"is_reserved":false,"is_disabled":false,"rental_uris":{"android":"levelo://app?vid=52f22b5a-486d-4c62-a4ac-137bfb2f235e","ios":"levelo://app?vid=52f22b5a-486d-4c62-a4ac-137bfb2f235e"},"vehicle_type_id":"4","last_reported":1713305237,"current_range_meters":20000,"station_id":"","pricing_plan_id":"cebpf4jnsgd1na2vs0mg"},{"bike_id":"9e814bad-a7f6-44f0-8f4b-33791bd66d6b","system_id":"levelo_inurba_marseille","lat":43.305989,"lon":5.37225,"is_reserved":false,"is_disabled":false,"rental_uris":{"android":"levelo://app?vid=9e814bad-a7f6-44f0-8f4b-33791bd66d6b","ios":"levelo://app?vid=9e814bad-a7f6-44f0-8f4b-33791bd66d6b"},"vehicle_type_id":"4","last_reported":1713305237,"current_range_meters":31200,"station_id":"ce4bgqh2rcd13ifvqc4g","pricing_plan_id":"cebpf4jnsgd1na2vs0mg"},{"bike_id":"a1070d04-2e51-4fef-95fc-85cf2f20978b","system_id":"levelo_inurba_marseille","lat":43.305989,"lon":5.37225,"is_reserved":false,"is_disabled":false,"rental_uris":{"android":"levelo://app?vid=a1070d04-2e51-4fef-95fc-85cf2f20978b","ios":"levelo://app?vid=a1070d04-2e51-4fef-95fc-85cf2f20978b"},"vehicle_type_id":"4","last_reported":1713305237,"current_range_meters":22800,"station_id":"ce4bgqh2rcd13ifvqc4g","pricing_plan_id":"cebpf4jnsgd1na2vs0mg"},{"bike_id":"0cf48f0a-22c3-4e4f-b45b-6e7861a258a6","system_id":"levelo_inurba_marseille","lat":43.305989,"lon":5.37225,"is_reserved":false,"is_disabled":false,"rental_uris":{"android":"levelo://app?vid=0cf48f0a-22c3-4e4f-b45b-6e7861a258a6","ios":"levelo://app?vid=0cf48f0a-22c3-4e4f-b45b-6e7861a258a6"},"vehicle_type_id":"4","last_reported":1713305237,"current_range_meters":31200,"station_id":"ce4bgqh2rcd13ifvqc4g","pricing_plan_id":"cebpf4jnsgd1na2vs0mg"},{"bike_id":"c402aacd-df60-4fb5-a402-0a4a428eab7a","system_id":"levelo_inurba_marseille","lat":43.305989,"lon":5.37225,"is_reserved":false,"is_disabled":false,"rental_uris":{"android":"levelo://app?vid=c402aacd-df60-4fb5-a402-0a4a428eab7a","ios":"levelo://app?vid=c402aacd-df60-4fb5-a402-0a4a428eab7a"},"vehicle_type_id":"4","last_reported":1713305237,"current_range_meters":31200,"station_id":"ce4bgqh2rcd13ifvqc4g","pricing_plan_id":"cebpf4jnsgd1na2vs0mg"},{"bike_id":"d40e2d51-55fd-4bb7-b25b-12d085ab9865","system_id":"levelo_inurba_marseille","lat":43.311156,"lon":5.377636,"is_reserved":false,"is_disabled":false,"rental_uris":{"android":"levelo://app?vid=d40e2d51-55fd-4bb7-b25b-12d085ab9865","ios":"levelo://app?vid=d40e2d51-55fd-4bb7-b25b-12d085ab9865"},"vehicle_type_id":"4","last_reported":1713305237,"current_range_meters":0,"station_id":"ce4bgt92rcd13ifvqcg0","pricing_plan_id":"cebpf4jnsgd1na2vs0mg"},{"bike_id":"662d0f15-bc14-4fba-8ffb-3e1ade9fe039","system_id":"levelo_inurba_marseille","lat":43.311121,"lon":5.377663,"is_reserved":false,"is_disabled":false,"rental_uris":{"android":"levelo://app?vid=662d0f15-bc14-4fba-8ffb-3e1ade9fe039","ios":"levelo://app?vid=662d0f15-bc14-4fba-8ffb-3e1ade9fe039"},"vehicle_type_id":"4","last_reported":1713305237,"current_range_meters":24400,"station_id":"ce4bgt92rcd13ifvqcg0","pricing_plan_id":"cebpf4jnsgd1na2vs0mg"},{"bike_id":"d487d454-c37f-45ac-99ec-37be6db76d63","system_id":"levelo_inurba_marseille","lat":43.31113,"lon":5.37768,"is_reserved":false,"is_disabled":false,"rental_uris":{"android":"levelo://app?vid=d487d454-c37f-45ac-99ec-37be6db76d63","ios":"levelo://app?vid=d487d454-c37f-45ac-99ec-37be6db76d63"},"vehicle_type_id":"4","last_reported":1713305237,"current_range_meters":23600,"station_id":"ce4bgt92rcd13ifvqcg0","pricing_plan_id":"cebpf4jnsgd1na2vs0mg"},{"bike_id":"cfa79926-a734-46e2-bf5e-97c4634666a1","system_id":"levelo_inurba_marseille","lat":43.31113,"lon":5.37768,"is_reserved":false,"is_disabled":false,"rental_uris":{"android":"levelo://app?vid=cfa79926-a734-46e2-bf5e-97c4634666a1","ios":"levelo://app?vid=cfa79926-a734-46e2-bf5e-97c4634666a1"},"vehicle_type_id":"4","last_reported":1713305237,"current_range_meters":7200,"station_id":"ce4bgt92rcd13ifvqcg0","pricing_plan_id":"cebpf4jnsgd1na2vs0mg"},{"bike_id":"90eba4e2-235d-4253-8a64-81078b46b406","system_id":"levelo_inurba_marseille","lat":43.311131,"lon":5.377651,"is_reserved":false,"is_disabled":false,"rental_uris":{"android":"levelo://app?vid=90eba4e2-235d-4253-8a64-81078b46b406","ios":"levelo://app?vid=90eba4e2-235d-4253-8a64-81078b46b406"},"vehicle_type_id":"4","last_reported":1713305237,"current_range_meters":4800,"station_id":"ce4bgt92rcd13ifvqcg0","pricing_plan_id":"cebpf4jnsgd1na2vs0mg"},{"bike_id":"da55d19a-71ac-446f-9432-3cbcd247199b","system_id":"levelo_inurba_marseille","lat":43.307945,"lon":5.376487,"is_reserved":false,"is_disabled":false,"rental_uris":{"android":"levelo://app?vid=da55d19a-71ac-446f-9432-3cbcd247199b","ios":"levelo://app?vid=da55d19a-71ac-446f-9432-3cbcd247199b"},"vehicle_type_id":"4","last_reported":1713305237,"current_range_meters":16800,"station_id":"ce4bgv92rcd13ifvqcq0","pricing_plan_id":"cebpf4jnsgd1na2vs0mg"},{"bike_id":"1519d763-2fbc-4ba2-8b3e-94e4a4224244","system_id":"levelo_inurba_marseille","lat":43.307945,"lon":5.376487,"is_reserved":false,"is_disabled":false,"rental_uris":{"android":"levelo://app?vid=1519d763-2fbc-4ba2-8b3e-94e4a4224244","ios":"levelo://app?vid=1519d763-2fbc-4ba2-8b3e-94e4a4224244"},"vehicle_type_id":"4","last_reported":1713305237,"current_range_meters":7600,"station_id":"ce4bgv92rcd13ifvqcq0","pricing_plan_id":"cebpf4jnsgd1na2vs0mg"},{"bike_id":"69c23fa1-2fc4-4deb-a0a5-ae6da94a78c1","system_id":"levelo_inurba_marseille","lat":43.307945,"lon":5.376487,"is_reserved":false,"is_disabled":false,"rental_uris":{"android":"levelo://app?vid=69c23fa1-2fc4-4deb-a0a5-ae6da94a78c1","ios":"levelo://app?vid=69c23fa1-2fc4-4deb-a0a5-ae6da94a78c1"},"vehicle_type_id":"4","last_reported":1713305237,"current_range_meters":0,"station_id":"ce4bgv92rcd13ifvqcq0","pricing_plan_id":"cebpf4jnsgd1na2vs0mg"},{"bike_id":"ceb2e7a0-07eb-4018-b658-bc6268cc5ad0","system_id":"levelo_inurba_marseille","lat":43.32254,"lon":5.36763,"is_reserved":false,"is_disabled":false,"rental_uris":{"android":"levelo://app?vid=ceb2e7a0-07eb-4018-b658-bc6268cc5ad0","ios":"levelo://app?vid=ceb2e7a0-07eb-4018-b658-bc6268cc5ad0"},"vehicle_type_id":"4","last_reported":1713305237,"current_range_meters":7600,"station_id":"","pricing_plan_id":"cebpf4jnsgd1na2vs0mg"},{"bike_id":"8076fc1a-aff8-4e5b-bc27-96271f93921a","system_id":"levelo_inurba_marseille","lat":43.303046,"lon":5.368981,"is_reserved":false,"is_disabled":false,"rental_uris":{"android":"levelo://app?vid=8076fc1a-aff8-4e5b-bc27-96271f93921a","ios":"levelo://app?vid=8076fc1a-aff8-4e5b-bc27-96271f93921a"},"vehicle_type_id":"4","last_reported":1713305237,"current_range_meters":30000,"station_id":"ce4bgqh2rcd13ifvqc5g","pricing_plan_id":"cebpf4jnsgd1na2vs0mg"},{"bike_id":"0eacfaa4-7996-4fec-a272-e5e4735987f1","system_id":"levelo_inurba_marseille","lat":43.303046,"lon":5.368981,"is_reserved":false,"is_disabled":false,"rental_uris":{"android":"levelo://app?vid=0eacfaa4-7996-4fec-a272-e5e4735987f1","ios":"levelo://app?vid=0eacfaa4-7996-4fec-a272-e5e4735987f1"},"vehicle_type_id":"4","last_reported":1713305237,"current_range_meters":29200,"station_id":"ce4bgqh2rcd13ifvqc5g","pricing_plan_id":"cebpf4jnsgd1na2vs0mg"},{"bike_id":"ecdcae9d-59ab-4dee-8634-ce1ef12345f1","system_id":"levelo_inurba_marseille","lat":43.315289,"lon":5.380349,"is_reserved":false,"is_disabled":false,"rental_uris":{"android":"levelo://app?vid=ecdcae9d-59ab-4dee-8634-ce1ef12345f1","ios":"levelo://app?vid=ecdcae9d-59ab-4dee-8634-ce1ef12345f1"},"vehicle_type_id":"4","last_reported":1713305237,"current_range_meters":19200,"station_id":"ce4bhsp2rcd13ifvqi50","pricing_plan_id":"cebpf4jnsgd1na2vs0mg"},{"bike_id":"806fa707-1138-4e83-b092-0cd3020e26c8","system_id":"levelo_inurba_marseille","lat":43.315289,"lon":5.380349,"is_reserved":false,"is_disabled":false,"rental_uris":{"android":"levelo://app?vid=806fa707-1138-4e83-b092-0cd3020e26c8","ios":"levelo://app?vid=806fa707-1138-4e83-b092-0cd3020e26c8"},"vehicle_type_id":"4","last_reported":1713305237,"current_range_meters":27600,"station_id":"ce4bhsp2rcd13ifvqi50","pricing_plan_id":"cebpf4jnsgd1na2vs0mg"},{"bike_id":"4701c7da-a317-4178-99d0-028169e96b9a","system_id":"levelo_inurba_marseille","lat":43.301939,"lon":5.366286,"is_reserved":false,"is_disabled":false,"rental_uris":{"android":"levelo://app?vid=4701c7da-a317-4178-99d0-028169e96b9a","ios":"levelo://app?vid=4701c7da-a317-4178-99d0-028169e96b9a"},"vehicle_type_id":"4","last_reported":1713305237,"current_range_meters":13600,"station_id":"ce4bgrh2rcd13ifvqc8g","pricing_plan_id":"cebpf4jnsgd1na2vs0mg"},{"bike_id":"475b02b7-f2f2-40ce-82fb-e537c468e819","system_id":"levelo_inurba_marseille","lat":43.301939,"lon":5.366286,"is_reserved":false,"is_disabled":false,"rental_uris":{"android":"levelo://app?vid=475b02b7-f2f2-40ce-82fb-e537c468e819","ios":"levelo://app?vid=475b02b7-f2f2-40ce-82fb-e537c468e819"},"vehicle_type_id":"4","last_reported":1713305237,"current_range_meters":13200,"station_id":"ce4bgrh2rcd13ifvqc8g","pricing_plan_id":"cebpf4jnsgd1na2vs0mg"},{"bike_id":"06f897f4-7d6c-4a04-9006-ad6726c3bd18","system_id":"levelo_inurba_marseille","lat":43.308012,"lon":5.381511,"is_reserved":false,"is_disabled":false,"rental_uris":{"android":"levelo://app?vid=06f897f4-7d6c-4a04-9006-ad6726c3bd18","ios":"levelo://app?vid=06f897f4-7d6c-4a04-9006-ad6726c3bd18"},"vehicle_type_id":"4","last_reported":1713305237,"current_range_meters":13600,"station_id":"ce4bgt12rcd13ifvqce0","pricing_plan_id":"cebpf4jnsgd1na2vs0mg"},{"bike_id":"03de7c8e-13f6-4bde-a82e-e907e04fb193","system_id":"levelo_inurba_marseille","lat":43.308012,"lon":5.381511,"is_reserved":false,"is_disabled":false,"rental_uris":{"android":"levelo://app?vid=03de7c8e-13f6-4bde-a82e-e907e04fb193","ios":"levelo://app?vid=03de7c8e-13f6-4bde-a82e-e907e04fb193"},"vehicle_type_id":"4","last_reported":1713305237,"current_range_meters":1600,"station_id":"ce4bgt12rcd13ifvqce0","pricing_plan_id":"cebpf4jnsgd1na2vs0mg"},{"bike_id":"544ac794-bc75-42e5-a023-d57e4f650986","system_id":"levelo_inurba_marseille","lat":43.308038,"lon":5.38148,"is_reserved":false,"is_disabled":false,"rental_uris":{"android":"levelo://app?vid=544ac794-bc75-42e5-a023-d57e4f650986","ios":"levelo://app?vid=544ac794-bc75-42e5-a023-d57e4f650986"},"vehicle_type_id":"4","last_reported":1713305237,"current_range_meters":0,"station_id":"ce4bgt12rcd13ifvqce0","pricing_plan_id":"cebpf4jnsgd1na2vs0mg"},{"bike_id":"7c3e2f32-9d13-44f1-b112-370fbe49a113","system_id":"levelo_inurba_marseille","lat":43.308012,"lon":5.381511,"is_reserved":false,"is_disabled":false,"rental_uris":{"android":"levelo://app?vid=7c3e2f32-9d13-44f1-b112-370fbe49a113","ios":"levelo://app?vid=7c3e2f32-9d13-44f1-b112-370fbe49a113"},"vehicle_type_id":"4","last_reported":1713305237,"current_range_meters":7600,"station_id":"ce4bgt12rcd13ifvqce0","pricing_plan_id":"cebpf4jnsgd1na2vs0mg"},{"bike_id":"9401addd-3099-4098-948e-81f0aa3768bc","system_id":"levelo_inurba_marseille","lat":43.30802,"lon":5.38163,"is_reserved":false,"is_disabled":false,"rental_uris":{"android":"levelo://app?vid=9401addd-3099-4098-948e-81f0aa3768bc","ios":"levelo://app?vid=9401addd-3099-4098-948e-81f0aa3768bc"},"vehicle_type_id":"4","last_reported":1713305237,"current_range_meters":0,"station_id":"ce4bgt12rcd13ifvqce0","pricing_plan_id":"cebpf4jnsgd1na2vs0mg"},{"bike_id":"dd134f3d-acd1-45d6-b230-f2d4563df49c","system_id":"levelo_inurba_marseille","lat":43.308012,"lon":5.381511,"is_reserved":false,"is_disabled":false,"rental_uris":{"android":"levelo://app?vid=dd134f3d-acd1-45d6-b230-f2d4563df49c","ios":"levelo://app?vid=dd134f3d-acd1-45d6-b230-f2d4563df49c"},"vehicle_type_id":"4","last_reported":1713305237,"current_range_meters":23600,"station_id":"ce4bgt12rcd13ifvqce0","pricing_plan_id":"cebpf4jnsgd1na2vs0mg"},{"bike_id":"92f4b063-325f-4195-95b4-1377e6f863b0","system_id":"levelo_inurba_marseille","lat":43.308012,"lon":5.381511,"is_reserved":false,"is_disabled":false,"rental_uris":{"android":"levelo://app?vid=92f4b063-325f-4195-95b4-1377e6f863b0","ios":"levelo://app?vid=92f4b063-325f-4195-95b4-1377e6f863b0"},"vehicle_type_id":"4","last_reported":1713305237,"current_range_meters":13600,"station_id":"ce4bgt12rcd13ifvqce0","pricing_plan_id":"cebpf4jnsgd1na2vs0mg"},{"bike_id":"e4ac2eeb-9126-4b0e-bfeb-cf8f6c1823c1","system_id":"levelo_inurba_marseille","lat":43.308012,"lon":5.381511,"is_reserved":false,"is_disabled":false,"rental_uris":{"android":"levelo://app?vid=e4ac2eeb-9126-4b0e-bfeb-cf8f6c1823c1","ios":"levelo://app?vid=e4ac2eeb-9126-4b0e-bfeb-cf8f6c1823c1"},"vehicle_type_id":"4","last_reported":1713305237,"current_range_meters":26400,"station_id":"ce4bgt12rcd13ifvqce0","pricing_plan_id":"cebpf4jnsgd1na2vs0mg"},{"bike_id":"dc81c0a4-0857-42ec-9724-9b7208fbadf6","system_id":"levelo_inurba_marseille","lat":43.308012,"lon":5.381511,"is_reserved":false,"is_disabled":false,"rental_uris":{"android":"levelo://app?vid=dc81c0a4-0857-42ec-9724-9b7208fbadf6","ios":"levelo://app?vid=dc81c0a4-0857-42ec-9724-9b7208fbadf6"},"vehicle_type_id":"4","last_reported":1713305237,"current_range_meters":12400,"station_id":"ce4bgt12rcd13ifvqce0","pricing_plan_id":"cebpf4jnsgd1na2vs0mg"},{"bike_id":"6850d3ac-6118-46b8-87a3-283cb8f13775","system_id":"levelo_inurba_marseille","lat":43.324771,"lon":5.36557,"is_reserved":false,"is_disabled":false,"rental_uris":{"android":"levelo://app?vid=6850d3ac-6118-46b8-87a3-283cb8f13775","ios":"levelo://app?vid=6850d3ac-6118-46b8-87a3-283cb8f13775"},"vehicle_type_id":"4","last_reported":1713305237,"current_range_meters":14000,"station_id":"ce4bhs12rcd13ifvqhvg","pricing_plan_id":"cebpf4jnsgd1na2vs0mg"},{"bike_id":"732115dd-fc36-4cea-9cd6-0e4cc350a9d7","system_id":"levelo_inurba_marseille","lat":43.324771,"lon":5.36557,"is_reserved":false,"is_disabled":false,"rental_uris":{"android":"levelo://app?vid=732115dd-fc36-4cea-9cd6-0e4cc350a9d7","ios":"levelo://app?vid=732115dd-fc36-4cea-9cd6-0e4cc350a9d7"},"vehicle_type_id":"4","last_reported":1713305237,"current_range_meters":7200,"station_id":"ce4bhs12rcd13ifvqhvg","pricing_plan_id":"cebpf4jnsgd1na2vs0mg"},{"bike_id":"3bf0dbf7-1a46-4454-85d4-d6199fac68a8","system_id":"levelo_inurba_marseille","lat":43.324771,"lon":5.36557,"is_reserved":false,"is_disabled":false,"rental_uris":{"android":"levelo://app?vid=3bf0dbf7-1a46-4454-85d4-d6199fac68a8","ios":"levelo://app?vid=3bf0dbf7-1a46-4454-85d4-d6199fac68a8"},"vehicle_type_id":"4","last_reported":1713305237,"current_range_meters":8400,"station_id":"ce4bhs12rcd13ifvqhvg","pricing_plan_id":"cebpf4jnsgd1na2vs0mg"},{"bike_id":"e8b24879-9d3c-40ae-bed9-97af92151430","system_id":"levelo_inurba_marseille","lat":43.310804,"lon":5.38359,"is_reserved":false,"is_disabled":false,"rental_uris":{"android":"levelo://app?vid=e8b24879-9d3c-40ae-bed9-97af92151430","ios":"levelo://app?vid=e8b24879-9d3c-40ae-bed9-97af92151430"},"vehicle_type_id":"4","last_reported":1713305237,"current_range_meters":0,"station_id":"ce4bgv92rcd13ifvqcr0","pricing_plan_id":"cebpf4jnsgd1na2vs0mg"},{"bike_id":"fb961c54-d86e-4c51-9812-a80fd53cb14f","system_id":"levelo_inurba_marseille","lat":43.310715,"lon":5.383531,"is_reserved":false,"is_disabled":false,"rental_uris":{"android":"levelo://app?vid=fb961c54-d86e-4c51-9812-a80fd53cb14f","ios":"levelo://app?vid=fb961c54-d86e-4c51-9812-a80fd53cb14f"},"vehicle_type_id":"4","last_reported":1713305237,"current_range_meters":0,"station_id":"ce4bgv92rcd13ifvqcr0","pricing_plan_id":"cebpf4jnsgd1na2vs0mg"},{"bike_id":"038704b8-6826-4922-99c4-9978268fb7cf","system_id":"levelo_inurba_marseille","lat":43.310804,"lon":5.38359,"is_reserved":false,"is_disabled":false,"rental_uris":{"android":"levelo://app?vid=038704b8-6826-4922-99c4-9978268fb7cf","ios":"levelo://app?vid=038704b8-6826-4922-99c4-9978268fb7cf"},"vehicle_type_id":"4","last_reported":1713305237,"current_range_meters":4800,"station_id":"ce4bgv92rcd13ifvqcr0","pricing_plan_id":"cebpf4jnsgd1na2vs0mg"},{"bike_id":"c2543992-d7d8-46db-bd5f-01d94c2abff7","system_id":"levelo_inurba_marseille","lat":43.310804,"lon":5.38359,"is_reserved":false,"is_disabled":false,"rental_uris":{"android":"levelo://app?vid=c2543992-d7d8-46db-bd5f-01d94c2abff7","ios":"levelo://app?vid=c2543992-d7d8-46db-bd5f-01d94c2abff7"},"vehicle_type_id":"4","last_reported":1713305237,"current_range_meters":28000,"station_id":"ce4bgv92rcd13ifvqcr0","pricing_plan_id":"cebpf4jnsgd1na2vs0mg"},{"bike_id":"06256dd7-e96b-4729-832f-a17fe2e3e1a8","system_id":"levelo_inurba_marseille","lat":43.310804,"lon":5.38359,"is_reserved":false,"is_disabled":false,"rental_uris":{"android":"levelo://app?vid=06256dd7-e96b-4729-832f-a17fe2e3e1a8","ios":"levelo://app?vid=06256dd7-e96b-4729-832f-a17fe2e3e1a8"},"vehicle_type_id":"4","last_reported":1713305237,"current_range_meters":26000,"station_id":"ce4bgv92rcd13ifvqcr0","pricing_plan_id":"cebpf4jnsgd1na2vs0mg"},{"bike_id":"e67152fe-28df-43ad-a7af-4d27057439ca","system_id":"levelo_inurba_marseille","lat":43.310804,"lon":5.38359,"is_reserved":false,"is_disabled":false,"rental_uris":{"android":"levelo://app?vid=e67152fe-28df-43ad-a7af-4d27057439ca","ios":"levelo://app?vid=e67152fe-28df-43ad-a7af-4d27057439ca"},"vehicle_type_id":"4","last_reported":1713305237,"current_range_meters":5600,"station_id":"ce4bgv92rcd13ifvqcr0","pricing_plan_id":"cebpf4jnsgd1na2vs0mg"},{"bike_id":"2be588d5-b9ca-4c8d-ae84-5cd3edac54aa","system_id":"levelo_inurba_marseille","lat":43.310804,"lon":5.38359,"is_reserved":false,"is_disabled":false,"rental_uris":{"android":"levelo://app?vid=2be588d5-b9ca-4c8d-ae84-5cd3edac54aa","ios":"levelo://app?vid=2be588d5-b9ca-4c8d-ae84-5cd3edac54aa"},"vehicle_type_id":"4","last_reported":1713305237,"current_range_meters":14000,"station_id":"ce4bgv92rcd13ifvqcr0","pricing_plan_id":"cebpf4jnsgd1na2vs0mg"},{"bike_id":"215fc47b-2eca-42c5-8431-b9309fadfbd5","system_id":"levelo_inurba_marseille","lat":43.310804,"lon":5.38359,"is_reserved":false,"is_disabled":false,"rental_uris":{"android":"levelo://app?vid=215fc47b-2eca-42c5-8431-b9309fadfbd5","ios":"levelo://app?vid=215fc47b-2eca-42c5-8431-b9309fadfbd5"},"vehicle_type_id":"4","last_reported":1713305237,"current_range_meters":2800,"station_id":"ce4bgv92rcd13ifvqcr0","pricing_plan_id":"cebpf4jnsgd1na2vs0mg"},{"bike_id":"708f6842-b10a-4929-8f4b-449ae476dcbc","system_id":"levelo_inurba_marseille","lat":43.290345,"lon":5.38646,"is_reserved":false,"is_disabled":false,"rental_uris":{"android":"levelo://app?vid=708f6842-b10a-4929-8f4b-449ae476dcbc","ios":"levelo://app?vid=708f6842-b10a-4929-8f4b-449ae476dcbc"},"vehicle_type_id":"4","last_reported":1713305237,"current_range_meters":16800,"station_id":"ce4bh4p2rcd13ifvqe0g","pricing_plan_id":"cebpf4jnsgd1na2vs0mg"},{"bike_id":"662ca664-8f95-4f6a-8557-3df01aa92869","system_id":"levelo_inurba_marseille","lat":43.301429,"lon":5.37413,"is_reserved":false,"is_disabled":false,"rental_uris":{"android":"levelo://app?vid=662ca664-8f95-4f6a-8557-3df01aa92869","ios":"levelo://app?vid=662ca664-8f95-4f6a-8557-3df01aa92869"},"vehicle_type_id":"4","last_reported":1713305237,"current_range_meters":11600,"station_id":"ce4bgs92rcd13ifvqcc0","pricing_plan_id":"cebpf4jnsgd1na2vs0mg"},{"bike_id":"4609c9ca-6455-465b-a4d6-4ab695479837","system_id":"levelo_inurba_marseille","lat":43.289468,"lon":5.363719,"is_reserved":false,"is_disabled":false,"rental_uris":{"android":"levelo://app?vid=4609c9ca-6455-465b-a4d6-4ab695479837","ios":"levelo://app?vid=4609c9ca-6455-465b-a4d6-4ab695479837"},"vehicle_type_id":"4","last_reported":1713305237,"current_range_meters":16400,"station_id":"ce4bhc92rcd13ifvqetg","pricing_plan_id":"cebpf4jnsgd1na2vs0mg"},{"bike_id":"5e0422c4-4db2-4cd5-8ec6-f1a5f73617e2","system_id":"levelo_inurba_marseille","lat":43.305675,"lon":5.381313,"is_reserved":false,"is_disabled":false,"rental_uris":{"android":"levelo://app?vid=5e0422c4-4db2-4cd5-8ec6-f1a5f73617e2","ios":"levelo://app?vid=5e0422c4-4db2-4cd5-8ec6-f1a5f73617e2"},"vehicle_type_id":"4","last_reported":1713305237,"current_range_meters":22000,"station_id":"","pricing_plan_id":"cebpf4jnsgd1na2vs0mg"},{"bike_id":"c63dc825-06b9-402d-8174-3b17e34f8d5c","system_id":"levelo_inurba_marseille","lat":43.319935,"lon":5.381699,"is_reserved":false,"is_disabled":false,"rental_uris":{"android":"levelo://app?vid=c63dc825-06b9-402d-8174-3b17e34f8d5c","ios":"levelo://app?vid=c63dc825-06b9-402d-8174-3b17e34f8d5c"},"vehicle_type_id":"4","last_reported":1713305237,"current_range_meters":10800,"station_id":"ce4bhr12rcd13ifvqhpg","pricing_plan_id":"cebpf4jnsgd1na2vs0mg"},{"bike_id":"d022893b-5ec7-430d-a3e4-e8108bbd57b3","system_id":"levelo_inurba_marseille","lat":43.31997,"lon":5.38146,"is_reserved":false,"is_disabled":false,"rental_uris":{"android":"levelo://app?vid=d022893b-5ec7-430d-a3e4-e8108bbd57b3","ios":"levelo://app?vid=d022893b-5ec7-430d-a3e4-e8108bbd57b3"},"vehicle_type_id":"4","last_reported":1713305237,"current_range_meters":2000,"station_id":"ce4bhr12rcd13ifvqhpg","pricing_plan_id":"cebpf4jnsgd1na2vs0mg"},{"bike_id":"f00613ec-f56b-4110-b7f4-e096c4497746","system_id":"levelo_inurba_marseille","lat":43.319935,"lon":5.381699,"is_reserved":false,"is_disabled":false,"rental_uris":{"android":"levelo://app?vid=f00613ec-f56b-4110-b7f4-e096c4497746","ios":"levelo://app?vid=f00613ec-f56b-4110-b7f4-e096c4497746"},"vehicle_type_id":"4","last_reported":1713305237,"current_range_meters":26000,"station_id":"ce4bhr12rcd13ifvqhpg","pricing_plan_id":"cebpf4jnsgd1na2vs0mg"},{"bike_id":"425f6628-b6f6-493e-90a9-d0a9dadab5d7","system_id":"levelo_inurba_marseille","lat":43.319935,"lon":5.381699,"is_reserved":false,"is_disabled":false,"rental_uris":{"android":"levelo://app?vid=425f6628-b6f6-493e-90a9-d0a9dadab5d7","ios":"levelo://app?vid=425f6628-b6f6-493e-90a9-d0a9dadab5d7"},"vehicle_type_id":"4","last_reported":1713305237,"current_range_meters":11600,"station_id":"ce4bhr12rcd13ifvqhpg","pricing_plan_id":"cebpf4jnsgd1na2vs0mg"},{"bike_id":"334e3407-4f9b-4b57-a5ef-39033f25d948","system_id":"levelo_inurba_marseille","lat":43.319935,"lon":5.381699,"is_reserved":false,"is_disabled":false,"rental_uris":{"android":"levelo://app?vid=334e3407-4f9b-4b57-a5ef-39033f25d948","ios":"levelo://app?vid=334e3407-4f9b-4b57-a5ef-39033f25d948"},"vehicle_type_id":"4","last_reported":1713305237,"current_range_meters":0,"station_id":"ce4bhr12rcd13ifvqhpg","pricing_plan_id":"cebpf4jnsgd1na2vs0mg"},{"bike_id":"d1928dcd-a1e5-4342-9479-8b973099efc0","system_id":"levelo_inurba_marseille","lat":43.319935,"lon":5.381699,"is_reserved":false,"is_disabled":false,"rental_uris":{"android":"levelo://app?vid=d1928dcd-a1e5-4342-9479-8b973099efc0","ios":"levelo://app?vid=d1928dcd-a1e5-4342-9479-8b973099efc0"},"vehicle_type_id":"4","last_reported":1713305237,"current_range_meters":1600,"station_id":"ce4bhr12rcd13ifvqhpg","pricing_plan_id":"cebpf4jnsgd1na2vs0mg"},{"bike_id":"252b1aad-2087-4bec-b4ef-898ffb9e27a1","system_id":"levelo_inurba_marseille","lat":43.319935,"lon":5.381699,"is_reserved":false,"is_disabled":false,"rental_uris":{"android":"levelo://app?vid=252b1aad-2087-4bec-b4ef-898ffb9e27a1","ios":"levelo://app?vid=252b1aad-2087-4bec-b4ef-898ffb9e27a1"},"vehicle_type_id":"4","last_reported":1713305237,"current_range_meters":10000,"station_id":"ce4bhr12rcd13ifvqhpg","pricing_plan_id":"cebpf4jnsgd1na2vs0mg"},{"bike_id":"421a1cfb-93e0-4e6b-9822-b334fc47623d","system_id":"levelo_inurba_marseille","lat":43.319998,"lon":5.381578,"is_reserved":false,"is_disabled":false,"rental_uris":{"android":"levelo://app?vid=421a1cfb-93e0-4e6b-9822-b334fc47623d","ios":"levelo://app?vid=421a1cfb-93e0-4e6b-9822-b334fc47623d"},"vehicle_type_id":"4","last_reported":1713305237,"current_range_meters":1200,"station_id":"ce4bhr12rcd13ifvqhpg","pricing_plan_id":"cebpf4jnsgd1na2vs0mg"},{"bike_id":"82cbbd9b-fccb-4f3a-afab-6019d13cedda","system_id":"levelo_inurba_marseille","lat":43.32002,"lon":5.38156,"is_reserved":false,"is_disabled":false,"rental_uris":{"android":"levelo://app?vid=82cbbd9b-fccb-4f3a-afab-6019d13cedda","ios":"levelo://app?vid=82cbbd9b-fccb-4f3a-afab-6019d13cedda"},"vehicle_type_id":"4","last_reported":1713305237,"current_range_meters":0,"station_id":"ce4bhr12rcd13ifvqhpg","pricing_plan_id":"cebpf4jnsgd1na2vs0mg"},{"bike_id":"e1f7d822-fe48-4bf9-9742-df93193855f8","system_id":"levelo_inurba_marseille","lat":43.313571,"lon":5.384829,"is_reserved":false,"is_disabled":false,"rental_uris":{"android":"levelo://app?vid=e1f7d822-fe48-4bf9-9742-df93193855f8","ios":"levelo://app?vid=e1f7d822-fe48-4bf9-9742-df93193855f8"},"vehicle_type_id":"4","last_reported":1713305237,"current_range_meters":17200,"station_id":"ce4bgt92rcd13ifvqcf0","pricing_plan_id":"cebpf4jnsgd1na2vs0mg"},{"bike_id":"9695e607-deaa-4630-b7f2-1fba142afb19","system_id":"levelo_inurba_marseille","lat":43.313571,"lon":5.384829,"is_reserved":false,"is_disabled":false,"rental_uris":{"android":"levelo://app?vid=9695e607-deaa-4630-b7f2-1fba142afb19","ios":"levelo://app?vid=9695e607-deaa-4630-b7f2-1fba142afb19"},"vehicle_type_id":"4","last_reported":1713305237,"current_range_meters":11600,"station_id":"ce4bgt92rcd13ifvqcf0","pricing_plan_id":"cebpf4jnsgd1na2vs0mg"},{"bike_id":"23f536b2-fb58-4961-a4b4-90ef444ca78f","system_id":"levelo_inurba_marseille","lat":43.313571,"lon":5.384829,"is_reserved":false,"is_disabled":false,"rental_uris":{"android":"levelo://app?vid=23f536b2-fb58-4961-a4b4-90ef444ca78f","ios":"levelo://app?vid=23f536b2-fb58-4961-a4b4-90ef444ca78f"},"vehicle_type_id":"4","last_reported":1713305237,"current_range_meters":12800,"station_id":"ce4bgt92rcd13ifvqcf0","pricing_plan_id":"cebpf4jnsgd1na2vs0mg"},{"bike_id":"8e0d8bcd-7d53-471e-b101-b8bd0dce0d73","system_id":"levelo_inurba_marseille","lat":43.313571,"lon":5.384829,"is_reserved":false,"is_disabled":false,"rental_uris":{"android":"levelo://app?vid=8e0d8bcd-7d53-471e-b101-b8bd0dce0d73","ios":"levelo://app?vid=8e0d8bcd-7d53-471e-b101-b8bd0dce0d73"},"vehicle_type_id":"4","last_reported":1713305237,"current_range_meters":15200,"station_id":"ce4bgt92rcd13ifvqcf0","pricing_plan_id":"cebpf4jnsgd1na2vs0mg"},{"bike_id":"d83bb215-5636-4d15-9bb7-0e7a35087f67","system_id":"levelo_inurba_marseille","lat":43.313571,"lon":5.384829,"is_reserved":false,"is_disabled":false,"rental_uris":{"android":"levelo://app?vid=d83bb215-5636-4d15-9bb7-0e7a35087f67","ios":"levelo://app?vid=d83bb215-5636-4d15-9bb7-0e7a35087f67"},"vehicle_type_id":"4","last_reported":1713305237,"current_range_meters":23200,"station_id":"ce4bgt92rcd13ifvqcf0","pricing_plan_id":"cebpf4jnsgd1na2vs0mg"},{"bike_id":"9eecbfa3-b413-45b2-86e3-22a3bc187001","system_id":"levelo_inurba_marseille","lat":43.299387,"lon":5.36538,"is_reserved":false,"is_disabled":false,"rental_uris":{"android":"levelo://app?vid=9eecbfa3-b413-45b2-86e3-22a3bc187001","ios":"levelo://app?vid=9eecbfa3-b413-45b2-86e3-22a3bc187001"},"vehicle_type_id":"4","last_reported":1713305237,"current_range_meters":0,"station_id":"ce4bgm92rcd13ifvqbr0","pricing_plan_id":"cebpf4jnsgd1na2vs0mg"},{"bike_id":"53bf1d83-da50-4bbe-ab1a-302535e02269","system_id":"levelo_inurba_marseille","lat":43.311131,"lon":5.377651,"is_reserved":false,"is_disabled":false,"rental_uris":{"android":"levelo://app?vid=53bf1d83-da50-4bbe-ab1a-302535e02269","ios":"levelo://app?vid=53bf1d83-da50-4bbe-ab1a-302535e02269"},"vehicle_type_id":"4","last_reported":1713305237,"current_range_meters":10000,"station_id":"ce4bgt92rcd13ifvqcg0","pricing_plan_id":"cebpf4jnsgd1na2vs0mg"},{"bike_id":"d786d042-8604-475f-aec6-34364130efa6","system_id":"levelo_inurba_marseille","lat":43.299724,"lon":5.371829,"is_reserved":false,"is_disabled":false,"rental_uris":{"android":"levelo://app?vid=d786d042-8604-475f-aec6-34364130efa6","ios":"levelo://app?vid=d786d042-8604-475f-aec6-34364130efa6"},"vehicle_type_id":"4","last_reported":1713305237,"current_range_meters":21200,"station_id":"ce4bgr92rcd13ifvqc7g","pricing_plan_id":"cebpf4jnsgd1na2vs0mg"},{"bike_id":"5aef1b8b-6cd3-4dba-a25c-3087e1ce0118","system_id":"levelo_inurba_marseille","lat":43.299724,"lon":5.371829,"is_reserved":false,"is_disabled":false,"rental_uris":{"android":"levelo://app?vid=5aef1b8b-6cd3-4dba-a25c-3087e1ce0118","ios":"levelo://app?vid=5aef1b8b-6cd3-4dba-a25c-3087e1ce0118"},"vehicle_type_id":"4","last_reported":1713305237,"current_range_meters":1600,"station_id":"ce4bgr92rcd13ifvqc7g","pricing_plan_id":"cebpf4jnsgd1na2vs0mg"},{"bike_id":"b521b9d8-11ea-41c3-b392-ef85bb081606","system_id":"levelo_inurba_marseille","lat":43.299724,"lon":5.371829,"is_reserved":false,"is_disabled":false,"rental_uris":{"android":"levelo://app?vid=b521b9d8-11ea-41c3-b392-ef85bb081606","ios":"levelo://app?vid=b521b9d8-11ea-41c3-b392-ef85bb081606"},"vehicle_type_id":"4","last_reported":1713305237,"current_range_meters":13200,"station_id":"ce4bgr92rcd13ifvqc7g","pricing_plan_id":"cebpf4jnsgd1na2vs0mg"},{"bike_id":"79b1484c-7ca2-4a8d-b15b-2987062d3cb2","system_id":"levelo_inurba_marseille","lat":43.30017,"lon":5.376523,"is_reserved":false,"is_disabled":false,"rental_uris":{"android":"levelo://app?vid=79b1484c-7ca2-4a8d-b15b-2987062d3cb2","ios":"levelo://app?vid=79b1484c-7ca2-4a8d-b15b-2987062d3cb2"},"vehicle_type_id":"4","last_reported":1713305237,"current_range_meters":28000,"station_id":"","pricing_plan_id":"cebpf4jnsgd1na2vs0mg"},{"bike_id":"c3b2eb74-e241-47dc-8d54-c6db2e00029d","system_id":"levelo_inurba_marseille","lat":43.298433,"lon":5.362774,"is_reserved":false,"is_disabled":false,"rental_uris":{"android":"levelo://app?vid=c3b2eb74-e241-47dc-8d54-c6db2e00029d","ios":"levelo://app?vid=c3b2eb74-e241-47dc-8d54-c6db2e00029d"},"vehicle_type_id":"4","last_reported":1713305237,"current_range_meters":28800,"station_id":"ce4bgpp2rcd13ifvqc3g","pricing_plan_id":"cebpf4jnsgd1na2vs0mg"},{"bike_id":"0085efae-a1ca-48bd-bf3f-22a431df72e3","system_id":"levelo_inurba_marseille","lat":43.298433,"lon":5.362774,"is_reserved":false,"is_disabled":false,"rental_uris":{"android":"levelo://app?vid=0085efae-a1ca-48bd-bf3f-22a431df72e3","ios":"levelo://app?vid=0085efae-a1ca-48bd-bf3f-22a431df72e3"},"vehicle_type_id":"4","last_reported":1713305237,"current_range_meters":10800,"station_id":"ce4bgpp2rcd13ifvqc3g","pricing_plan_id":"cebpf4jnsgd1na2vs0mg"},{"bike_id":"3c6cb9bf-f329-4e81-8501-c1ce6b0643c1","system_id":"levelo_inurba_marseille","lat":43.305364,"lon":5.384119,"is_reserved":false,"is_disabled":false,"rental_uris":{"android":"levelo://app?vid=3c6cb9bf-f329-4e81-8501-c1ce6b0643c1","ios":"levelo://app?vid=3c6cb9bf-f329-4e81-8501-c1ce6b0643c1"},"vehicle_type_id":"4","last_reported":1713305237,"current_range_meters":26400,"station_id":"ce4bgg92rcd13ifvqb30","pricing_plan_id":"cebpf4jnsgd1na2vs0mg"},{"bike_id":"53332bc6-3e9c-4734-ab27-22e6d18009c3","system_id":"levelo_inurba_marseille","lat":43.311722,"lon":5.387247,"is_reserved":false,"is_disabled":false,"rental_uris":{"android":"levelo://app?vid=53332bc6-3e9c-4734-ab27-22e6d18009c3","ios":"levelo://app?vid=53332bc6-3e9c-4734-ab27-22e6d18009c3"},"vehicle_type_id":"4","last_reported":1713305237,"current_range_meters":12400,"station_id":"ce4bgv12rcd13ifvqcp0","pricing_plan_id":"cebpf4jnsgd1na2vs0mg"},{"bike_id":"1e45cd76-aace-4eb6-81db-3c88211a4173","system_id":"levelo_inurba_marseille","lat":43.311722,"lon":5.387247,"is_reserved":false,"is_disabled":false,"rental_uris":{"android":"levelo://app?vid=1e45cd76-aace-4eb6-81db-3c88211a4173","ios":"levelo://app?vid=1e45cd76-aace-4eb6-81db-3c88211a4173"},"vehicle_type_id":"4","last_reported":1713305237,"current_range_meters":23600,"station_id":"ce4bgv12rcd13ifvqcp0","pricing_plan_id":"cebpf4jnsgd1na2vs0mg"},{"bike_id":"8c32e936-b809-44d4-806c-d8e75a9aebfb","system_id":"levelo_inurba_marseille","lat":43.299243,"lon":5.37481,"is_reserved":false,"is_disabled":false,"rental_uris":{"android":"levelo://app?vid=8c32e936-b809-44d4-806c-d8e75a9aebfb","ios":"levelo://app?vid=8c32e936-b809-44d4-806c-d8e75a9aebfb"},"vehicle_type_id":"4","last_reported":1713305237,"current_range_meters":19600,"station_id":"ce4bgjh2rcd13ifvqbg0","pricing_plan_id":"cebpf4jnsgd1na2vs0mg"},{"bike_id":"2f66c199-ba48-4358-b392-f6600ea97a56","system_id":"levelo_inurba_marseille","lat":43.311722,"lon":5.387247,"is_reserved":false,"is_disabled":false,"rental_uris":{"android":"levelo://app?vid=2f66c199-ba48-4358-b392-f6600ea97a56","ios":"levelo://app?vid=2f66c199-ba48-4358-b392-f6600ea97a56"},"vehicle_type_id":"4","last_reported":1713305237,"current_range_meters":30000,"station_id":"ce4bgv12rcd13ifvqcp0","pricing_plan_id":"cebpf4jnsgd1na2vs0mg"},{"bike_id":"30c029e8-b10c-4033-b533-f6ed91250e37","system_id":"levelo_inurba_marseille","lat":43.299243,"lon":5.374807,"is_reserved":false,"is_disabled":false,"rental_uris":{"android":"levelo://app?vid=30c029e8-b10c-4033-b533-f6ed91250e37","ios":"levelo://app?vid=30c029e8-b10c-4033-b533-f6ed91250e37"},"vehicle_type_id":"4","last_reported":1713305237,"current_range_meters":19600,"station_id":"ce4bgjh2rcd13ifvqbg0","pricing_plan_id":"cebpf4jnsgd1na2vs0mg"},{"bike_id":"1d60b6ca-8026-4935-b072-3ac064af196c","system_id":"levelo_inurba_marseille","lat":43.311722,"lon":5.387247,"is_reserved":false,"is_disabled":false,"rental_uris":{"android":"levelo://app?vid=1d60b6ca-8026-4935-b072-3ac064af196c","ios":"levelo://app?vid=1d60b6ca-8026-4935-b072-3ac064af196c"},"vehicle_type_id":"4","last_reported":1713305237,"current_range_meters":17200,"station_id":"ce4bgv12rcd13ifvqcp0","pricing_plan_id":"cebpf4jnsgd1na2vs0mg"},{"bike_id":"7a259925-409b-4583-8471-59205c5ce857","system_id":"levelo_inurba_marseille","lat":43.311722,"lon":5.387247,"is_reserved":false,"is_disabled":false,"rental_uris":{"android":"levelo://app?vid=7a259925-409b-4583-8471-59205c5ce857","ios":"levelo://app?vid=7a259925-409b-4583-8471-59205c5ce857"},"vehicle_type_id":"4","last_reported":1713305237,"current_range_meters":3200,"station_id":"ce4bgv12rcd13ifvqcp0","pricing_plan_id":"cebpf4jnsgd1na2vs0mg"},{"bike_id":"b1a3a71e-2f4f-48a3-a709-47344eb53b00","system_id":"levelo_inurba_marseille","lat":43.311722,"lon":5.387247,"is_reserved":false,"is_disabled":false,"rental_uris":{"android":"levelo://app?vid=b1a3a71e-2f4f-48a3-a709-47344eb53b00","ios":"levelo://app?vid=b1a3a71e-2f4f-48a3-a709-47344eb53b00"},"vehicle_type_id":"4","last_reported":1713305237,"current_range_meters":24000,"station_id":"ce4bgv12rcd13ifvqcp0","pricing_plan_id":"cebpf4jnsgd1na2vs0mg"},{"bike_id":"4fc868a1-d2ca-415b-8f36-db9a2c0944bd","system_id":"levelo_inurba_marseille","lat":43.32288,"lon":5.38266,"is_reserved":false,"is_disabled":false,"rental_uris":{"android":"levelo://app?vid=4fc868a1-d2ca-415b-8f36-db9a2c0944bd","ios":"levelo://app?vid=4fc868a1-d2ca-415b-8f36-db9a2c0944bd"},"vehicle_type_id":"4","last_reported":1713305237,"current_range_meters":0,"station_id":"ce4bhr12rcd13ifvqhqg","pricing_plan_id":"cebpf4jnsgd1na2vs0mg"},{"bike_id":"68d61b33-8e0d-45ae-a4ca-21d1e19dcd45","system_id":"levelo_inurba_marseille","lat":43.322872,"lon":5.382756,"is_reserved":false,"is_disabled":false,"rental_uris":{"android":"levelo://app?vid=68d61b33-8e0d-45ae-a4ca-21d1e19dcd45","ios":"levelo://app?vid=68d61b33-8e0d-45ae-a4ca-21d1e19dcd45"},"vehicle_type_id":"4","last_reported":1713305237,"current_range_meters":10000,"station_id":"ce4bhr12rcd13ifvqhqg","pricing_plan_id":"cebpf4jnsgd1na2vs0mg"},{"bike_id":"5442c3f7-4cf1-4b6e-99cd-8eef7dd431a2","system_id":"levelo_inurba_marseille","lat":43.322872,"lon":5.382756,"is_reserved":false,"is_disabled":false,"rental_uris":{"android":"levelo://app?vid=5442c3f7-4cf1-4b6e-99cd-8eef7dd431a2","ios":"levelo://app?vid=5442c3f7-4cf1-4b6e-99cd-8eef7dd431a2"},"vehicle_type_id":"4","last_reported":1713305237,"current_range_meters":27600,"station_id":"ce4bhr12rcd13ifvqhqg","pricing_plan_id":"cebpf4jnsgd1na2vs0mg"},{"bike_id":"ef255d38-5859-4d91-b98f-edc1282dd85c","system_id":"levelo_inurba_marseille","lat":43.322872,"lon":5.382756,"is_reserved":false,"is_disabled":false,"rental_uris":{"android":"levelo://app?vid=ef255d38-5859-4d91-b98f-edc1282dd85c","ios":"levelo://app?vid=ef255d38-5859-4d91-b98f-edc1282dd85c"},"vehicle_type_id":"4","last_reported":1713305237,"current_range_meters":31200,"station_id":"ce4bhr12rcd13ifvqhqg","pricing_plan_id":"cebpf4jnsgd1na2vs0mg"},{"bike_id":"1467ba8f-1611-4058-9082-0136b27110b7","system_id":"levelo_inurba_marseille","lat":43.322872,"lon":5.382756,"is_reserved":false,"is_disabled":false,"rental_uris":{"android":"levelo://app?vid=1467ba8f-1611-4058-9082-0136b27110b7","ios":"levelo://app?vid=1467ba8f-1611-4058-9082-0136b27110b7"},"vehicle_type_id":"4","last_reported":1713305237,"current_range_meters":20000,"station_id":"ce4bhr12rcd13ifvqhqg","pricing_plan_id":"cebpf4jnsgd1na2vs0mg"},{"bike_id":"bfa13ddf-8ba7-402b-86b8-f80987482f16","system_id":"levelo_inurba_marseille","lat":43.297163,"lon":5.365866,"is_reserved":false,"is_disabled":false,"rental_uris":{"android":"levelo://app?vid=bfa13ddf-8ba7-402b-86b8-f80987482f16","ios":"levelo://app?vid=bfa13ddf-8ba7-402b-86b8-f80987482f16"},"vehicle_type_id":"4","last_reported":1713305237,"current_range_meters":6800,"station_id":"ce4bgn12rcd13ifvqbt0","pricing_plan_id":"cebpf4jnsgd1na2vs0mg"},{"bike_id":"4fc4dd2e-9b9b-4e8e-963a-96f555b94c48","system_id":"levelo_inurba_marseille","lat":43.297163,"lon":5.365866,"is_reserved":false,"is_disabled":false,"rental_uris":{"android":"levelo://app?vid=4fc4dd2e-9b9b-4e8e-963a-96f555b94c48","ios":"levelo://app?vid=4fc4dd2e-9b9b-4e8e-963a-96f555b94c48"},"vehicle_type_id":"4","last_reported":1713305237,"current_range_meters":30000,"station_id":"ce4bgn12rcd13ifvqbt0","pricing_plan_id":"cebpf4jnsgd1na2vs0mg"},{"bike_id":"3c1a1530-5ab9-4802-9e74-7a5817146419","system_id":"levelo_inurba_marseille","lat":43.297163,"lon":5.365866,"is_reserved":false,"is_disabled":false,"rental_uris":{"android":"levelo://app?vid=3c1a1530-5ab9-4802-9e74-7a5817146419","ios":"levelo://app?vid=3c1a1530-5ab9-4802-9e74-7a5817146419"},"vehicle_type_id":"4","last_reported":1713305237,"current_range_meters":17600,"station_id":"ce4bgn12rcd13ifvqbt0","pricing_plan_id":"cebpf4jnsgd1na2vs0mg"},{"bike_id":"7fab1e62-b689-4420-9f28-d932b29908f2","system_id":"levelo_inurba_marseille","lat":43.297163,"lon":5.365866,"is_reserved":false,"is_disabled":false,"rental_uris":{"android":"levelo://app?vid=7fab1e62-b689-4420-9f28-d932b29908f2","ios":"levelo://app?vid=7fab1e62-b689-4420-9f28-d932b29908f2"},"vehicle_type_id":"4","last_reported":1713305237,"current_range_meters":1200,"station_id":"ce4bgn12rcd13ifvqbt0","pricing_plan_id":"cebpf4jnsgd1na2vs0mg"},{"bike_id":"e55fda42-46da-4f9c-9e83-c63387550ce8","system_id":"levelo_inurba_marseille","lat":43.297163,"lon":5.365866,"is_reserved":false,"is_disabled":false,"rental_uris":{"android":"levelo://app?vid=e55fda42-46da-4f9c-9e83-c63387550ce8","ios":"levelo://app?vid=e55fda42-46da-4f9c-9e83-c63387550ce8"},"vehicle_type_id":"4","last_reported":1713305237,"current_range_meters":8400,"station_id":"ce4bgn12rcd13ifvqbt0","pricing_plan_id":"cebpf4jnsgd1na2vs0mg"},{"bike_id":"d327421d-0b5b-4265-bf6e-10f3aae9537b","system_id":"levelo_inurba_marseille","lat":43.297163,"lon":5.365866,"is_reserved":false,"is_disabled":false,"rental_uris":{"android":"levelo://app?vid=d327421d-0b5b-4265-bf6e-10f3aae9537b","ios":"levelo://app?vid=d327421d-0b5b-4265-bf6e-10f3aae9537b"},"vehicle_type_id":"4","last_reported":1713305237,"current_range_meters":18800,"station_id":"ce4bgn12rcd13ifvqbt0","pricing_plan_id":"cebpf4jnsgd1na2vs0mg"},{"bike_id":"7f7404c7-c5d3-4a90-8d62-3db105e68670","system_id":"levelo_inurba_marseille","lat":43.297163,"lon":5.365866,"is_reserved":false,"is_disabled":false,"rental_uris":{"android":"levelo://app?vid=7f7404c7-c5d3-4a90-8d62-3db105e68670","ios":"levelo://app?vid=7f7404c7-c5d3-4a90-8d62-3db105e68670"},"vehicle_type_id":"4","last_reported":1713305237,"current_range_meters":4800,"station_id":"ce4bgn12rcd13ifvqbt0","pricing_plan_id":"cebpf4jnsgd1na2vs0mg"},{"bike_id":"1753c6c6-7e76-4865-a32b-9b8064fc9416","system_id":"levelo_inurba_marseille","lat":43.297163,"lon":5.365866,"is_reserved":false,"is_disabled":false,"rental_uris":{"android":"levelo://app?vid=1753c6c6-7e76-4865-a32b-9b8064fc9416","ios":"levelo://app?vid=1753c6c6-7e76-4865-a32b-9b8064fc9416"},"vehicle_type_id":"4","last_reported":1713305237,"current_range_meters":12800,"station_id":"ce4bgn12rcd13ifvqbt0","pricing_plan_id":"cebpf4jnsgd1na2vs0mg"},{"bike_id":"26c06353-8d8f-4227-8408-4a41017321fd","system_id":"levelo_inurba_marseille","lat":43.297163,"lon":5.365866,"is_reserved":false,"is_disabled":false,"rental_uris":{"android":"levelo://app?vid=26c06353-8d8f-4227-8408-4a41017321fd","ios":"levelo://app?vid=26c06353-8d8f-4227-8408-4a41017321fd"},"vehicle_type_id":"4","last_reported":1713305237,"current_range_meters":1200,"station_id":"ce4bgn12rcd13ifvqbt0","pricing_plan_id":"cebpf4jnsgd1na2vs0mg"},{"bike_id":"2533a949-a6a1-4694-aded-e51c63cf1fc8","system_id":"levelo_inurba_marseille","lat":43.2968,"lon":5.37291,"is_reserved":false,"is_disabled":false,"rental_uris":{"android":"levelo://app?vid=2533a949-a6a1-4694-aded-e51c63cf1fc8","ios":"levelo://app?vid=2533a949-a6a1-4694-aded-e51c63cf1fc8"},"vehicle_type_id":"4","last_reported":1713305237,"current_range_meters":10400,"station_id":"ce4bgk12rcd13ifvqbj0","pricing_plan_id":"cebpf4jnsgd1na2vs0mg"},{"bike_id":"edb43358-8118-4363-a73b-528eb80b41e2","system_id":"levelo_inurba_marseille","lat":43.295912,"lon":5.367333,"is_reserved":false,"is_disabled":false,"rental_uris":{"android":"levelo://app?vid=edb43358-8118-4363-a73b-528eb80b41e2","ios":"levelo://app?vid=edb43358-8118-4363-a73b-528eb80b41e2"},"vehicle_type_id":"4","last_reported":1713305237,"current_range_meters":0,"station_id":"ce4bgph2rcd13ifvqc2g","pricing_plan_id":"cebpf4jnsgd1na2vs0mg"},{"bike_id":"a85b95a5-c2f9-49e4-acf6-b603ef02494e","system_id":"levelo_inurba_marseille","lat":43.29573,"lon":5.367355,"is_reserved":false,"is_disabled":false,"rental_uris":{"android":"levelo://app?vid=a85b95a5-c2f9-49e4-acf6-b603ef02494e","ios":"levelo://app?vid=a85b95a5-c2f9-49e4-acf6-b603ef02494e"},"vehicle_type_id":"4","last_reported":1713305237,"current_range_meters":0,"station_id":"ce4bgph2rcd13ifvqc2g","pricing_plan_id":"cebpf4jnsgd1na2vs0mg"},{"bike_id":"fee8d8c8-0f8d-41cc-9eae-30b8d11ce3e8","system_id":"levelo_inurba_marseille","lat":43.309589,"lon":5.390258,"is_reserved":false,"is_disabled":false,"rental_uris":{"android":"levelo://app?vid=fee8d8c8-0f8d-41cc-9eae-30b8d11ce3e8","ios":"levelo://app?vid=fee8d8c8-0f8d-41cc-9eae-30b8d11ce3e8"},"vehicle_type_id":"4","last_reported":1713305237,"current_range_meters":16400,"station_id":"ce4bgup2rcd13ifvqco0","pricing_plan_id":"cebpf4jnsgd1na2vs0mg"},{"bike_id":"0b4ea251-7aac-4f83-b1c9-3da51fa6657f","system_id":"levelo_inurba_marseille","lat":43.299028,"lon":5.381509,"is_reserved":false,"is_disabled":false,"rental_uris":{"android":"levelo://app?vid=0b4ea251-7aac-4f83-b1c9-3da51fa6657f","ios":"levelo://app?vid=0b4ea251-7aac-4f83-b1c9-3da51fa6657f"},"vehicle_type_id":"4","last_reported":1713305237,"current_range_meters":0,"station_id":"ce4bgj12rcd13ifvqbc0","pricing_plan_id":"cebpf4jnsgd1na2vs0mg"},{"bike_id":"ba9e2df5-d074-4fba-8cd4-139498954d51","system_id":"levelo_inurba_marseille","lat":43.309589,"lon":5.390258,"is_reserved":false,"is_disabled":false,"rental_uris":{"android":"levelo://app?vid=ba9e2df5-d074-4fba-8cd4-139498954d51","ios":"levelo://app?vid=ba9e2df5-d074-4fba-8cd4-139498954d51"},"vehicle_type_id":"4","last_reported":1713305237,"current_range_meters":5200,"station_id":"ce4bgup2rcd13ifvqco0","pricing_plan_id":"cebpf4jnsgd1na2vs0mg"},{"bike_id":"28e2ea5f-b7d2-4e78-8675-7dd0b5e34928","system_id":"levelo_inurba_marseille","lat":43.309589,"lon":5.390258,"is_reserved":false,"is_disabled":false,"rental_uris":{"android":"levelo://app?vid=28e2ea5f-b7d2-4e78-8675-7dd0b5e34928","ios":"levelo://app?vid=28e2ea5f-b7d2-4e78-8675-7dd0b5e34928"},"vehicle_type_id":"4","last_reported":1713305237,"current_range_meters":1600,"station_id":"ce4bgup2rcd13ifvqco0","pricing_plan_id":"cebpf4jnsgd1na2vs0mg"},{"bike_id":"0be653b8-c1d8-4fdc-8344-70e44b76290c","system_id":"levelo_inurba_marseille","lat":43.31754,"lon":5.3901,"is_reserved":false,"is_disabled":false,"rental_uris":{"android":"levelo://app?vid=0be653b8-c1d8-4fdc-8344-70e44b76290c","ios":"levelo://app?vid=0be653b8-c1d8-4fdc-8344-70e44b76290c"},"vehicle_type_id":"4","last_reported":1713305237,"current_range_meters":14800,"station_id":"ce4bhqp2rcd13ifvqhng","pricing_plan_id":"cebpf4jnsgd1na2vs0mg"},{"bike_id":"afd389c0-7a1f-4448-8f6a-70ecd567a42f","system_id":"levelo_inurba_marseille","lat":43.317624,"lon":5.390147,"is_reserved":false,"is_disabled":false,"rental_uris":{"android":"levelo://app?vid=afd389c0-7a1f-4448-8f6a-70ecd567a42f","ios":"levelo://app?vid=afd389c0-7a1f-4448-8f6a-70ecd567a42f"},"vehicle_type_id":"4","last_reported":1713305237,"current_range_meters":18000,"station_id":"ce4bhqp2rcd13ifvqhng","pricing_plan_id":"cebpf4jnsgd1na2vs0mg"},{"bike_id":"90f153bd-2190-4088-b137-9ad520e813ac","system_id":"levelo_inurba_marseille","lat":43.31757,"lon":5.390178,"is_reserved":false,"is_disabled":false,"rental_uris":{"android":"levelo://app?vid=90f153bd-2190-4088-b137-9ad520e813ac","ios":"levelo://app?vid=90f153bd-2190-4088-b137-9ad520e813ac"},"vehicle_type_id":"4","last_reported":1713305237,"current_range_meters":17200,"station_id":"ce4bhqp2rcd13ifvqhng","pricing_plan_id":"cebpf4jnsgd1na2vs0mg"},{"bike_id":"ed8d703c-c8f5-4e25-9e80-5e5a9265951c","system_id":"levelo_inurba_marseille","lat":43.31758,"lon":5.39018,"is_reserved":false,"is_disabled":false,"rental_uris":{"android":"levelo://app?vid=ed8d703c-c8f5-4e25-9e80-5e5a9265951c","ios":"levelo://app?vid=ed8d703c-c8f5-4e25-9e80-5e5a9265951c"},"vehicle_type_id":"4","last_reported":1713305237,"current_range_meters":20800,"station_id":"ce4bhqp2rcd13ifvqhng","pricing_plan_id":"cebpf4jnsgd1na2vs0mg"},{"bike_id":"78269ca7-602f-46d4-8d85-b94199ba6512","system_id":"levelo_inurba_marseille","lat":43.31757,"lon":5.39019,"is_reserved":false,"is_disabled":false,"rental_uris":{"android":"levelo://app?vid=78269ca7-602f-46d4-8d85-b94199ba6512","ios":"levelo://app?vid=78269ca7-602f-46d4-8d85-b94199ba6512"},"vehicle_type_id":"4","last_reported":1713305237,"current_range_meters":7600,"station_id":"ce4bhqp2rcd13ifvqhng","pricing_plan_id":"cebpf4jnsgd1na2vs0mg"},{"bike_id":"ccd2462f-125d-446a-889c-ad0b0c1315bc","system_id":"levelo_inurba_marseille","lat":43.317564,"lon":5.390203,"is_reserved":false,"is_disabled":false,"rental_uris":{"android":"levelo://app?vid=ccd2462f-125d-446a-889c-ad0b0c1315bc","ios":"levelo://app?vid=ccd2462f-125d-446a-889c-ad0b0c1315bc"},"vehicle_type_id":"4","last_reported":1713305237,"current_range_meters":2400,"station_id":"ce4bhqp2rcd13ifvqhng","pricing_plan_id":"cebpf4jnsgd1na2vs0mg"},{"bike_id":"c1f9238c-c066-42fa-881a-71ff39872ee5","system_id":"levelo_inurba_marseille","lat":43.317559,"lon":5.390208,"is_reserved":false,"is_disabled":false,"rental_uris":{"android":"levelo://app?vid=c1f9238c-c066-42fa-881a-71ff39872ee5","ios":"levelo://app?vid=c1f9238c-c066-42fa-881a-71ff39872ee5"},"vehicle_type_id":"4","last_reported":1713305237,"current_range_meters":9200,"station_id":"ce4bhqp2rcd13ifvqhng","pricing_plan_id":"cebpf4jnsgd1na2vs0mg"},{"bike_id":"d700fe8c-f0ca-46cf-89ef-dc19397dd4b1","system_id":"levelo_inurba_marseille","lat":43.317572,"lon":5.390205,"is_reserved":false,"is_disabled":false,"rental_uris":{"android":"levelo://app?vid=d700fe8c-f0ca-46cf-89ef-dc19397dd4b1","ios":"levelo://app?vid=d700fe8c-f0ca-46cf-89ef-dc19397dd4b1"},"vehicle_type_id":"4","last_reported":1713305237,"current_range_meters":16800,"station_id":"ce4bhqp2rcd13ifvqhng","pricing_plan_id":"cebpf4jnsgd1na2vs0mg"},{"bike_id":"e15f70e1-47c6-4a92-bef6-e0dd5000227e","system_id":"levelo_inurba_marseille","lat":43.31753,"lon":5.39023,"is_reserved":false,"is_disabled":false,"rental_uris":{"android":"levelo://app?vid=e15f70e1-47c6-4a92-bef6-e0dd5000227e","ios":"levelo://app?vid=e15f70e1-47c6-4a92-bef6-e0dd5000227e"},"vehicle_type_id":"4","last_reported":1713305237,"current_range_meters":3600,"station_id":"ce4bhqp2rcd13ifvqhng","pricing_plan_id":"cebpf4jnsgd1na2vs0mg"},{"bike_id":"64e79c7c-35ca-4ed5-b140-a7eb9aa5d972","system_id":"levelo_inurba_marseille","lat":43.31759,"lon":5.39022,"is_reserved":false,"is_disabled":false,"rental_uris":{"android":"levelo://app?vid=64e79c7c-35ca-4ed5-b140-a7eb9aa5d972","ios":"levelo://app?vid=64e79c7c-35ca-4ed5-b140-a7eb9aa5d972"},"vehicle_type_id":"4","last_reported":1713305237,"current_range_meters":2800,"station_id":"ce4bhqp2rcd13ifvqhng","pricing_plan_id":"cebpf4jnsgd1na2vs0mg"},{"bike_id":"427afb0d-4139-4aeb-8ed2-57d22a6dc413","system_id":"levelo_inurba_marseille","lat":43.317553,"lon":5.39026,"is_reserved":false,"is_disabled":false,"rental_uris":{"android":"levelo://app?vid=427afb0d-4139-4aeb-8ed2-57d22a6dc413","ios":"levelo://app?vid=427afb0d-4139-4aeb-8ed2-57d22a6dc413"},"vehicle_type_id":"4","last_reported":1713305237,"current_range_meters":1200,"station_id":"ce4bhqp2rcd13ifvqhng","pricing_plan_id":"cebpf4jnsgd1na2vs0mg"},{"bike_id":"c1f73a24-8788-475f-97f8-a0920c069a92","system_id":"levelo_inurba_marseille","lat":43.304274,"lon":5.388873,"is_reserved":false,"is_disabled":false,"rental_uris":{"android":"levelo://app?vid=c1f73a24-8788-475f-97f8-a0920c069a92","ios":"levelo://app?vid=c1f73a24-8788-475f-97f8-a0920c069a92"},"vehicle_type_id":"4","last_reported":1713305237,"current_range_meters":28400,"station_id":"ce4bgk12rcd13ifvqbi0","pricing_plan_id":"cebpf4jnsgd1na2vs0mg"},{"bike_id":"b2045a61-de2c-46d1-820c-072b45134f1d","system_id":"levelo_inurba_marseille","lat":43.304274,"lon":5.388873,"is_reserved":false,"is_disabled":false,"rental_uris":{"android":"levelo://app?vid=b2045a61-de2c-46d1-820c-072b45134f1d","ios":"levelo://app?vid=b2045a61-de2c-46d1-820c-072b45134f1d"},"vehicle_type_id":"4","last_reported":1713305237,"current_range_meters":28000,"station_id":"ce4bgk12rcd13ifvqbi0","pricing_plan_id":"cebpf4jnsgd1na2vs0mg"},{"bike_id":"32ea885a-8f02-4301-b185-cdfd993e0dc3","system_id":"levelo_inurba_marseille","lat":43.304274,"lon":5.388873,"is_reserved":false,"is_disabled":false,"rental_uris":{"android":"levelo://app?vid=32ea885a-8f02-4301-b185-cdfd993e0dc3","ios":"levelo://app?vid=32ea885a-8f02-4301-b185-cdfd993e0dc3"},"vehicle_type_id":"4","last_reported":1713305237,"current_range_meters":400,"station_id":"ce4bgk12rcd13ifvqbi0","pricing_plan_id":"cebpf4jnsgd1na2vs0mg"},{"bike_id":"2d6cb6b2-df00-45fd-85f3-7fd4830e72e5","system_id":"levelo_inurba_marseille","lat":43.304274,"lon":5.388873,"is_reserved":false,"is_disabled":false,"rental_uris":{"android":"levelo://app?vid=2d6cb6b2-df00-45fd-85f3-7fd4830e72e5","ios":"levelo://app?vid=2d6cb6b2-df00-45fd-85f3-7fd4830e72e5"},"vehicle_type_id":"4","last_reported":1713305237,"current_range_meters":12000,"station_id":"ce4bgk12rcd13ifvqbi0","pricing_plan_id":"cebpf4jnsgd1na2vs0mg"},{"bike_id":"5e7f68a6-9562-4b15-b732-3af6b67d7e04","system_id":"levelo_inurba_marseille","lat":43.296277,"lon":5.377108,"is_reserved":false,"is_disabled":false,"rental_uris":{"android":"levelo://app?vid=5e7f68a6-9562-4b15-b732-3af6b67d7e04","ios":"levelo://app?vid=5e7f68a6-9562-4b15-b732-3af6b67d7e04"},"vehicle_type_id":"4","last_reported":1713305237,"current_range_meters":27200,"station_id":"ce4bgi92rcd13ifvqb90","pricing_plan_id":"cebpf4jnsgd1na2vs0mg"},{"bike_id":"9a1c6045-8134-41e3-96b3-0a23f7a1b8d9","system_id":"levelo_inurba_marseille","lat":43.296263,"lon":5.377094,"is_reserved":false,"is_disabled":false,"rental_uris":{"android":"levelo://app?vid=9a1c6045-8134-41e3-96b3-0a23f7a1b8d9","ios":"levelo://app?vid=9a1c6045-8134-41e3-96b3-0a23f7a1b8d9"},"vehicle_type_id":"4","last_reported":1713305237,"current_range_meters":28400,"station_id":"ce4bgi92rcd13ifvqb90","pricing_plan_id":"cebpf4jnsgd1na2vs0mg"},{"bike_id":"45b48293-cfe6-400c-bc21-917af1939e8f","system_id":"levelo_inurba_marseille","lat":43.299717,"lon":5.384845,"is_reserved":false,"is_disabled":false,"rental_uris":{"android":"levelo://app?vid=45b48293-cfe6-400c-bc21-917af1939e8f","ios":"levelo://app?vid=45b48293-cfe6-400c-bc21-917af1939e8f"},"vehicle_type_id":"4","last_reported":1713305237,"current_range_meters":5600,"station_id":"ce4bgj92rcd13ifvqbd0","pricing_plan_id":"cebpf4jnsgd1na2vs0mg"},{"bike_id":"19ffa942-2d3c-425d-8ab2-6a23f5078cf0","system_id":"levelo_inurba_marseille","lat":43.295279,"lon":5.375048,"is_reserved":false,"is_disabled":false,"rental_uris":{"android":"levelo://app?vid=19ffa942-2d3c-425d-8ab2-6a23f5078cf0","ios":"levelo://app?vid=19ffa942-2d3c-425d-8ab2-6a23f5078cf0"},"vehicle_type_id":"4","last_reported":1713305237,"current_range_meters":10400,"station_id":"ce4bgkp2rcd13ifvqbmg","pricing_plan_id":"cebpf4jnsgd1na2vs0mg"},{"bike_id":"cf2d5b98-8821-4f1f-b505-84f9c06a7f7c","system_id":"levelo_inurba_marseille","lat":43.299707,"lon":5.384859,"is_reserved":false,"is_disabled":false,"rental_uris":{"android":"levelo://app?vid=cf2d5b98-8821-4f1f-b505-84f9c06a7f7c","ios":"levelo://app?vid=cf2d5b98-8821-4f1f-b505-84f9c06a7f7c"},"vehicle_type_id":"4","last_reported":1713305237,"current_range_meters":0,"station_id":"ce4bgj92rcd13ifvqbd0","pricing_plan_id":"cebpf4jnsgd1na2vs0mg"},{"bike_id":"316fc5de-5224-47af-aaf3-8437e60246c2","system_id":"levelo_inurba_marseille","lat":43.279087,"lon":5.380114,"is_reserved":false,"is_disabled":false,"rental_uris":{"android":"levelo://app?vid=316fc5de-5224-47af-aaf3-8437e60246c2","ios":"levelo://app?vid=316fc5de-5224-47af-aaf3-8437e60246c2"},"vehicle_type_id":"4","last_reported":1713305237,"current_range_meters":19200,"station_id":"ce4bhf92rcd13ifvqf50","pricing_plan_id":"cebpf4jnsgd1na2vs0mg"},{"bike_id":"0dab05fa-557e-4710-95c3-150886a97a03","system_id":"levelo_inurba_marseille","lat":43.299724,"lon":5.384848,"is_reserved":false,"is_disabled":false,"rental_uris":{"android":"levelo://app?vid=0dab05fa-557e-4710-95c3-150886a97a03","ios":"levelo://app?vid=0dab05fa-557e-4710-95c3-150886a97a03"},"vehicle_type_id":"4","last_reported":1713305237,"current_range_meters":0,"station_id":"ce4bgj92rcd13ifvqbd0","pricing_plan_id":"cebpf4jnsgd1na2vs0mg"},{"bike_id":"7ecc5270-337d-45ba-b0ee-c8d1f81a9a8c","system_id":"levelo_inurba_marseille","lat":43.30031,"lon":5.38591,"is_reserved":false,"is_disabled":false,"rental_uris":{"android":"levelo://app?vid=7ecc5270-337d-45ba-b0ee-c8d1f81a9a8c","ios":"levelo://app?vid=7ecc5270-337d-45ba-b0ee-c8d1f81a9a8c"},"vehicle_type_id":"4","last_reported":1713305237,"current_range_meters":0,"station_id":"","pricing_plan_id":"cebpf4jnsgd1na2vs0mg"},{"bike_id":"3c722733-05f4-4714-9cb1-3ed8b82e3eb7","system_id":"levelo_inurba_marseille","lat":43.32364,"lon":5.38883,"is_reserved":false,"is_disabled":false,"rental_uris":{"android":"levelo://app?vid=3c722733-05f4-4714-9cb1-3ed8b82e3eb7","ios":"levelo://app?vid=3c722733-05f4-4714-9cb1-3ed8b82e3eb7"},"vehicle_type_id":"4","last_reported":1713305237,"current_range_meters":5200,"station_id":"ce4bhqp2rcd13ifvqhog","pricing_plan_id":"cebpf4jnsgd1na2vs0mg"},{"bike_id":"eccc45d1-4228-4d4f-b5b6-6d20197350c2","system_id":"levelo_inurba_marseille","lat":43.32367,"lon":5.388836,"is_reserved":false,"is_disabled":false,"rental_uris":{"android":"levelo://app?vid=eccc45d1-4228-4d4f-b5b6-6d20197350c2","ios":"levelo://app?vid=eccc45d1-4228-4d4f-b5b6-6d20197350c2"},"vehicle_type_id":"4","last_reported":1713305237,"current_range_meters":14400,"station_id":"ce4bhqp2rcd13ifvqhog","pricing_plan_id":"cebpf4jnsgd1na2vs0mg"},{"bike_id":"426c9628-f34b-41bc-8c6f-7f869f5292be","system_id":"levelo_inurba_marseille","lat":43.32372,"lon":5.38882,"is_reserved":false,"is_disabled":false,"rental_uris":{"android":"levelo://app?vid=426c9628-f34b-41bc-8c6f-7f869f5292be","ios":"levelo://app?vid=426c9628-f34b-41bc-8c6f-7f869f5292be"},"vehicle_type_id":"4","last_reported":1713305237,"current_range_meters":2400,"station_id":"ce4bhqp2rcd13ifvqhog","pricing_plan_id":"cebpf4jnsgd1na2vs0mg"},{"bike_id":"c2c80858-6471-44a7-a10e-6bab49267680","system_id":"levelo_inurba_marseille","lat":43.32367,"lon":5.388836,"is_reserved":false,"is_disabled":false,"rental_uris":{"android":"levelo://app?vid=c2c80858-6471-44a7-a10e-6bab49267680","ios":"levelo://app?vid=c2c80858-6471-44a7-a10e-6bab49267680"},"vehicle_type_id":"4","last_reported":1713305237,"current_range_meters":18400,"station_id":"ce4bhqp2rcd13ifvqhog","pricing_plan_id":"cebpf4jnsgd1na2vs0mg"},{"bike_id":"ce23a27f-7b8e-4c39-a78f-ae8f3857897f","system_id":"levelo_inurba_marseille","lat":43.32367,"lon":5.388836,"is_reserved":false,"is_disabled":false,"rental_uris":{"android":"levelo://app?vid=ce23a27f-7b8e-4c39-a78f-ae8f3857897f","ios":"levelo://app?vid=ce23a27f-7b8e-4c39-a78f-ae8f3857897f"},"vehicle_type_id":"4","last_reported":1713305237,"current_range_meters":0,"station_id":"ce4bhqp2rcd13ifvqhog","pricing_plan_id":"cebpf4jnsgd1na2vs0mg"},{"bike_id":"b28dad6a-1e4b-458f-932a-d274310376e0","system_id":"levelo_inurba_marseille","lat":43.32367,"lon":5.388836,"is_reserved":false,"is_disabled":false,"rental_uris":{"android":"levelo://app?vid=b28dad6a-1e4b-458f-932a-d274310376e0","ios":"levelo://app?vid=b28dad6a-1e4b-458f-932a-d274310376e0"},"vehicle_type_id":"4","last_reported":1713305237,"current_range_meters":0,"station_id":"ce4bhqp2rcd13ifvqhog","pricing_plan_id":"cebpf4jnsgd1na2vs0mg"},{"bike_id":"47a0dc67-d91d-45c6-9d7b-b95c2bdf2283","system_id":"levelo_inurba_marseille","lat":43.32367,"lon":5.38895,"is_reserved":false,"is_disabled":false,"rental_uris":{"android":"levelo://app?vid=47a0dc67-d91d-45c6-9d7b-b95c2bdf2283","ios":"levelo://app?vid=47a0dc67-d91d-45c6-9d7b-b95c2bdf2283"},"vehicle_type_id":"4","last_reported":1713305237,"current_range_meters":4000,"station_id":"ce4bhqp2rcd13ifvqhog","pricing_plan_id":"cebpf4jnsgd1na2vs0mg"},{"bike_id":"f9e57575-7204-4888-8aac-a61f9350419e","system_id":"levelo_inurba_marseille","lat":43.29593,"lon":5.38106,"is_reserved":false,"is_disabled":false,"rental_uris":{"android":"levelo://app?vid=f9e57575-7204-4888-8aac-a61f9350419e","ios":"levelo://app?vid=f9e57575-7204-4888-8aac-a61f9350419e"},"vehicle_type_id":"4","last_reported":1713305237,"current_range_meters":0,"station_id":"ce4bgl12rcd13ifvqbo0","pricing_plan_id":"cebpf4jnsgd1na2vs0mg"},{"bike_id":"9bddc2f7-bede-4fa6-ae19-8b2e2658d938","system_id":"levelo_inurba_marseille","lat":43.292985,"lon":5.368385,"is_reserved":false,"is_disabled":false,"rental_uris":{"android":"levelo://app?vid=9bddc2f7-bede-4fa6-ae19-8b2e2658d938","ios":"levelo://app?vid=9bddc2f7-bede-4fa6-ae19-8b2e2658d938"},"vehicle_type_id":"4","last_reported":1713305237,"current_range_meters":30800,"station_id":"ce4bhbp2rcd13ifvqesg","pricing_plan_id":"cebpf4jnsgd1na2vs0mg"},{"bike_id":"c709297a-02f3-4914-bcbc-0cccc30ef86b","system_id":"levelo_inurba_marseille","lat":43.32551,"lon":5.38796,"is_reserved":false,"is_disabled":false,"rental_uris":{"android":"levelo://app?vid=c709297a-02f3-4914-bcbc-0cccc30ef86b","ios":"levelo://app?vid=c709297a-02f3-4914-bcbc-0cccc30ef86b"},"vehicle_type_id":"4","last_reported":1713305237,"current_range_meters":7200,"station_id":"","pricing_plan_id":"cebpf4jnsgd1na2vs0mg"},{"bike_id":"6b3a9f50-a914-4a37-ba65-05bbaa64847d","system_id":"levelo_inurba_marseille","lat":43.292749,"lon":5.368402,"is_reserved":false,"is_disabled":false,"rental_uris":{"android":"levelo://app?vid=6b3a9f50-a914-4a37-ba65-05bbaa64847d","ios":"levelo://app?vid=6b3a9f50-a914-4a37-ba65-05bbaa64847d"},"vehicle_type_id":"4","last_reported":1713305237,"current_range_meters":31200,"station_id":"ce4bhbp2rcd13ifvqesg","pricing_plan_id":"cebpf4jnsgd1na2vs0mg"},{"bike_id":"19dc7d33-2404-42a9-ae77-187b5fc619ac","system_id":"levelo_inurba_marseille","lat":43.293259,"lon":5.371586,"is_reserved":false,"is_disabled":false,"rental_uris":{"android":"levelo://app?vid=19dc7d33-2404-42a9-ae77-187b5fc619ac","ios":"levelo://app?vid=19dc7d33-2404-42a9-ae77-187b5fc619ac"},"vehicle_type_id":"4","last_reported":1713305237,"current_range_meters":30000,"station_id":"ce4bgh92rcd13ifvqb40","pricing_plan_id":"cebpf4jnsgd1na2vs0mg"},{"bike_id":"e537c0b8-d3cd-4503-b8a6-036c01c78081","system_id":"levelo_inurba_marseille","lat":43.29278,"lon":5.36847,"is_reserved":false,"is_disabled":false,"rental_uris":{"android":"levelo://app?vid=e537c0b8-d3cd-4503-b8a6-036c01c78081","ios":"levelo://app?vid=e537c0b8-d3cd-4503-b8a6-036c01c78081"},"vehicle_type_id":"4","last_reported":1713305237,"current_range_meters":12000,"station_id":"ce4bhbp2rcd13ifvqesg","pricing_plan_id":"cebpf4jnsgd1na2vs0mg"},{"bike_id":"fe0cebcd-2f1e-4b21-939c-78556ec3619a","system_id":"levelo_inurba_marseille","lat":43.292749,"lon":5.368402,"is_reserved":false,"is_disabled":false,"rental_uris":{"android":"levelo://app?vid=fe0cebcd-2f1e-4b21-939c-78556ec3619a","ios":"levelo://app?vid=fe0cebcd-2f1e-4b21-939c-78556ec3619a"},"vehicle_type_id":"4","last_reported":1713305237,"current_range_meters":26800,"station_id":"ce4bhbp2rcd13ifvqesg","pricing_plan_id":"cebpf4jnsgd1na2vs0mg"},{"bike_id":"7139f5ac-7e50-4844-8c52-b81bf7864655","system_id":"levelo_inurba_marseille","lat":43.29306,"lon":5.37442,"is_reserved":false,"is_disabled":false,"rental_uris":{"android":"levelo://app?vid=7139f5ac-7e50-4844-8c52-b81bf7864655","ios":"levelo://app?vid=7139f5ac-7e50-4844-8c52-b81bf7864655"},"vehicle_type_id":"4","last_reported":1713305237,"current_range_meters":21600,"station_id":"ce4bgi12rcd13ifvqb70","pricing_plan_id":"cebpf4jnsgd1na2vs0mg"},{"bike_id":"994089b1-52d4-43a2-8e57-270d12745d41","system_id":"levelo_inurba_marseille","lat":43.305994,"lon":5.393687,"is_reserved":false,"is_disabled":false,"rental_uris":{"android":"levelo://app?vid=994089b1-52d4-43a2-8e57-270d12745d41","ios":"levelo://app?vid=994089b1-52d4-43a2-8e57-270d12745d41"},"vehicle_type_id":"4","last_reported":1713305237,"current_range_meters":28800,"station_id":"ce4bh0p2rcd13ifvqd80","pricing_plan_id":"cebpf4jnsgd1na2vs0mg"},{"bike_id":"23e5dc20-9c09-48f2-94e2-9b79ee17d4cb","system_id":"levelo_inurba_marseille","lat":43.305994,"lon":5.393687,"is_reserved":false,"is_disabled":false,"rental_uris":{"android":"levelo://app?vid=23e5dc20-9c09-48f2-94e2-9b79ee17d4cb","ios":"levelo://app?vid=23e5dc20-9c09-48f2-94e2-9b79ee17d4cb"},"vehicle_type_id":"4","last_reported":1713305237,"current_range_meters":31200,"station_id":"ce4bh0p2rcd13ifvqd80","pricing_plan_id":"cebpf4jnsgd1na2vs0mg"},{"bike_id":"44861cd2-18b3-42d0-b950-7125977808b3","system_id":"levelo_inurba_marseille","lat":43.305994,"lon":5.393687,"is_reserved":false,"is_disabled":false,"rental_uris":{"android":"levelo://app?vid=44861cd2-18b3-42d0-b950-7125977808b3","ios":"levelo://app?vid=44861cd2-18b3-42d0-b950-7125977808b3"},"vehicle_type_id":"4","last_reported":1713305237,"current_range_meters":31200,"station_id":"ce4bh0p2rcd13ifvqd80","pricing_plan_id":"cebpf4jnsgd1na2vs0mg"},{"bike_id":"a8ccdf6e-f0d5-4771-a049-d80eff0cec97","system_id":"levelo_inurba_marseille","lat":43.305994,"lon":5.393687,"is_reserved":false,"is_disabled":false,"rental_uris":{"android":"levelo://app?vid=a8ccdf6e-f0d5-4771-a049-d80eff0cec97","ios":"levelo://app?vid=a8ccdf6e-f0d5-4771-a049-d80eff0cec97"},"vehicle_type_id":"4","last_reported":1713305237,"current_range_meters":0,"station_id":"ce4bh0p2rcd13ifvqd80","pricing_plan_id":"cebpf4jnsgd1na2vs0mg"},{"bike_id":"558da042-8417-4a8c-bbd8-9614df836386","system_id":"levelo_inurba_marseille","lat":43.313571,"lon":5.384829,"is_reserved":false,"is_disabled":false,"rental_uris":{"android":"levelo://app?vid=558da042-8417-4a8c-bbd8-9614df836386","ios":"levelo://app?vid=558da042-8417-4a8c-bbd8-9614df836386"},"vehicle_type_id":"4","last_reported":1713305237,"current_range_meters":13600,"station_id":"ce4bgt92rcd13ifvqcf0","pricing_plan_id":"cebpf4jnsgd1na2vs0mg"},{"bike_id":"87a04f2d-65a7-4976-8fd5-c1cd3f8fd047","system_id":"levelo_inurba_marseille","lat":43.303002,"lon":5.392142,"is_reserved":false,"is_disabled":false,"rental_uris":{"android":"levelo://app?vid=87a04f2d-65a7-4976-8fd5-c1cd3f8fd047","ios":"levelo://app?vid=87a04f2d-65a7-4976-8fd5-c1cd3f8fd047"},"vehicle_type_id":"4","last_reported":1713305237,"current_range_meters":0,"station_id":"ce4bgkh2rcd13ifvqbk0","pricing_plan_id":"cebpf4jnsgd1na2vs0mg"},{"bike_id":"eb12d088-dc08-45c6-9264-bece1666a81c","system_id":"levelo_inurba_marseille","lat":43.302992,"lon":5.392136,"is_reserved":false,"is_disabled":false,"rental_uris":{"android":"levelo://app?vid=eb12d088-dc08-45c6-9264-bece1666a81c","ios":"levelo://app?vid=eb12d088-dc08-45c6-9264-bece1666a81c"},"vehicle_type_id":"4","last_reported":1713305237,"current_range_meters":0,"station_id":"ce4bgkh2rcd13ifvqbk0","pricing_plan_id":"cebpf4jnsgd1na2vs0mg"},{"bike_id":"a2179fdf-efa1-4a54-bbd4-9c7bacdf8e21","system_id":"levelo_inurba_marseille","lat":43.284534,"lon":5.358662,"is_reserved":false,"is_disabled":false,"rental_uris":{"android":"levelo://app?vid=a2179fdf-efa1-4a54-bbd4-9c7bacdf8e21","ios":"levelo://app?vid=a2179fdf-efa1-4a54-bbd4-9c7bacdf8e21"},"vehicle_type_id":"4","last_reported":1713305237,"current_range_meters":5200,"station_id":"ce4bhah2rcd13ifvqei0","pricing_plan_id":"cebpf4jnsgd1na2vs0mg"},{"bike_id":"5c136aa4-9346-4e47-905b-2d99afe07867","system_id":"levelo_inurba_marseille","lat":43.300852,"lon":5.390859,"is_reserved":false,"is_disabled":false,"rental_uris":{"android":"levelo://app?vid=5c136aa4-9346-4e47-905b-2d99afe07867","ios":"levelo://app?vid=5c136aa4-9346-4e47-905b-2d99afe07867"},"vehicle_type_id":"4","last_reported":1713305237,"current_range_meters":23200,"station_id":"ce4bh192rcd13ifvqdb0","pricing_plan_id":"cebpf4jnsgd1na2vs0mg"},{"bike_id":"21bea1fb-b3f1-4428-bdec-6413713315e4","system_id":"levelo_inurba_marseille","lat":43.292311,"lon":5.360731,"is_reserved":false,"is_disabled":false,"rental_uris":{"android":"levelo://app?vid=21bea1fb-b3f1-4428-bdec-6413713315e4","ios":"levelo://app?vid=21bea1fb-b3f1-4428-bdec-6413713315e4"},"vehicle_type_id":"4","last_reported":1713305237,"current_range_meters":26400,"station_id":"ce4bhbh2rcd13ifvqeqg","pricing_plan_id":"cebpf4jnsgd1na2vs0mg"},{"bike_id":"751cbd26-86bf-433f-91ac-e8ab0fd94771","system_id":"levelo_inurba_marseille","lat":43.293307,"lon":5.378537,"is_reserved":false,"is_disabled":false,"rental_uris":{"android":"levelo://app?vid=751cbd26-86bf-433f-91ac-e8ab0fd94771","ios":"levelo://app?vid=751cbd26-86bf-433f-91ac-e8ab0fd94771"},"vehicle_type_id":"4","last_reported":1713305237,"current_range_meters":30400,"station_id":"","pricing_plan_id":"cebpf4jnsgd1na2vs0mg"},{"bike_id":"2962ef01-664d-4f36-aea2-406be644e25f","system_id":"levelo_inurba_marseille","lat":43.291671,"lon":5.371575,"is_reserved":false,"is_disabled":false,"rental_uris":{"android":"levelo://app?vid=2962ef01-664d-4f36-aea2-406be644e25f","ios":"levelo://app?vid=2962ef01-664d-4f36-aea2-406be644e25f"},"vehicle_type_id":"4","last_reported":1713305237,"current_range_meters":31200,"station_id":"ce4bha92rcd13ifvqeh0","pricing_plan_id":"cebpf4jnsgd1na2vs0mg"},{"bike_id":"3f184927-61d9-4597-91ab-42178c223a5d","system_id":"levelo_inurba_marseille","lat":43.29152,"lon":5.37175,"is_reserved":false,"is_disabled":false,"rental_uris":{"android":"levelo://app?vid=3f184927-61d9-4597-91ab-42178c223a5d","ios":"levelo://app?vid=3f184927-61d9-4597-91ab-42178c223a5d"},"vehicle_type_id":"4","last_reported":1713305237,"current_range_meters":26000,"station_id":"ce4bha92rcd13ifvqeh0","pricing_plan_id":"cebpf4jnsgd1na2vs0mg"},{"bike_id":"cc8b728e-47b8-4d8d-8e5f-e55f4b1f7c57","system_id":"levelo_inurba_marseille","lat":43.30892,"lon":5.39628,"is_reserved":false,"is_disabled":false,"rental_uris":{"android":"levelo://app?vid=cc8b728e-47b8-4d8d-8e5f-e55f4b1f7c57","ios":"levelo://app?vid=cc8b728e-47b8-4d8d-8e5f-e55f4b1f7c57"},"vehicle_type_id":"4","last_reported":1713305237,"current_range_meters":0,"station_id":"ce4bh012rcd13ifvqcv0","pricing_plan_id":"cebpf4jnsgd1na2vs0mg"},{"bike_id":"9c0973b3-808a-4ce9-9403-10a9a638e2ab","system_id":"levelo_inurba_marseille","lat":43.30889,"lon":5.39628,"is_reserved":false,"is_disabled":false,"rental_uris":{"android":"levelo://app?vid=9c0973b3-808a-4ce9-9403-10a9a638e2ab","ios":"levelo://app?vid=9c0973b3-808a-4ce9-9403-10a9a638e2ab"},"vehicle_type_id":"4","last_reported":1713305237,"current_range_meters":6000,"station_id":"ce4bh012rcd13ifvqcv0","pricing_plan_id":"cebpf4jnsgd1na2vs0mg"},{"bike_id":"2bf749a6-8863-4bc4-ba85-5f6df26e66d9","system_id":"levelo_inurba_marseille","lat":43.309038,"lon":5.396546,"is_reserved":false,"is_disabled":false,"rental_uris":{"android":"levelo://app?vid=2bf749a6-8863-4bc4-ba85-5f6df26e66d9","ios":"levelo://app?vid=2bf749a6-8863-4bc4-ba85-5f6df26e66d9"},"vehicle_type_id":"4","last_reported":1713305237,"current_range_meters":0,"station_id":"ce4bh012rcd13ifvqcv0","pricing_plan_id":"cebpf4jnsgd1na2vs0mg"},{"bike_id":"1d915586-e3cf-4947-ad1f-6d208b3d1aaf","system_id":"levelo_inurba_marseille","lat":43.292005,"lon":5.357875,"is_reserved":false,"is_disabled":false,"rental_uris":{"android":"levelo://app?vid=1d915586-e3cf-4947-ad1f-6d208b3d1aaf","ios":"levelo://app?vid=1d915586-e3cf-4947-ad1f-6d208b3d1aaf"},"vehicle_type_id":"4","last_reported":1713305237,"current_range_meters":22800,"station_id":"ce4bhb12rcd13ifvqel0","pricing_plan_id":"cebpf4jnsgd1na2vs0mg"},{"bike_id":"16df8f79-fe35-4fb6-bd9d-912e4f7d809f","system_id":"levelo_inurba_marseille","lat":43.292005,"lon":5.357875,"is_reserved":false,"is_disabled":false,"rental_uris":{"android":"levelo://app?vid=16df8f79-fe35-4fb6-bd9d-912e4f7d809f","ios":"levelo://app?vid=16df8f79-fe35-4fb6-bd9d-912e4f7d809f"},"vehicle_type_id":"4","last_reported":1713305237,"current_range_meters":31200,"station_id":"ce4bhb12rcd13ifvqel0","pricing_plan_id":"cebpf4jnsgd1na2vs0mg"},{"bike_id":"21203241-0750-4d56-b01b-325793d5590e","system_id":"levelo_inurba_marseille","lat":43.30886,"lon":5.396366,"is_reserved":false,"is_disabled":false,"rental_uris":{"android":"levelo://app?vid=21203241-0750-4d56-b01b-325793d5590e","ios":"levelo://app?vid=21203241-0750-4d56-b01b-325793d5590e"},"vehicle_type_id":"4","last_reported":1713305237,"current_range_meters":31200,"station_id":"ce4bh012rcd13ifvqcv0","pricing_plan_id":"cebpf4jnsgd1na2vs0mg"},{"bike_id":"79ea102b-51c4-4ad9-8593-04068fc9f439","system_id":"levelo_inurba_marseille","lat":43.308881,"lon":5.396405,"is_reserved":false,"is_disabled":false,"rental_uris":{"android":"levelo://app?vid=79ea102b-51c4-4ad9-8593-04068fc9f439","ios":"levelo://app?vid=79ea102b-51c4-4ad9-8593-04068fc9f439"},"vehicle_type_id":"4","last_reported":1713305237,"current_range_meters":31200,"station_id":"ce4bh012rcd13ifvqcv0","pricing_plan_id":"cebpf4jnsgd1na2vs0mg"},{"bike_id":"82b2f9b4-2307-4a6e-b425-df72fed23079","system_id":"levelo_inurba_marseille","lat":43.30889,"lon":5.39641,"is_reserved":false,"is_disabled":false,"rental_uris":{"android":"levelo://app?vid=82b2f9b4-2307-4a6e-b425-df72fed23079","ios":"levelo://app?vid=82b2f9b4-2307-4a6e-b425-df72fed23079"},"vehicle_type_id":"4","last_reported":1713305237,"current_range_meters":30800,"station_id":"ce4bh012rcd13ifvqcv0","pricing_plan_id":"cebpf4jnsgd1na2vs0mg"},{"bike_id":"4a55112f-7f17-4bcb-97d5-1ec80d9de8ec","system_id":"levelo_inurba_marseille","lat":43.30889,"lon":5.39641,"is_reserved":false,"is_disabled":false,"rental_uris":{"android":"levelo://app?vid=4a55112f-7f17-4bcb-97d5-1ec80d9de8ec","ios":"levelo://app?vid=4a55112f-7f17-4bcb-97d5-1ec80d9de8ec"},"vehicle_type_id":"4","last_reported":1713305237,"current_range_meters":15200,"station_id":"ce4bh012rcd13ifvqcv0","pricing_plan_id":"cebpf4jnsgd1na2vs0mg"},{"bike_id":"588b4296-1c26-4c29-9621-0bd56a418966","system_id":"levelo_inurba_marseille","lat":43.313291,"lon":5.396838,"is_reserved":false,"is_disabled":false,"rental_uris":{"android":"levelo://app?vid=588b4296-1c26-4c29-9621-0bd56a418966","ios":"levelo://app?vid=588b4296-1c26-4c29-9621-0bd56a418966"},"vehicle_type_id":"4","last_reported":1713305237,"current_range_meters":12800,"station_id":"ce4bgvp2rcd13ifvqcu0","pricing_plan_id":"cebpf4jnsgd1na2vs0mg"},{"bike_id":"7a9e99b8-8fbc-486f-9101-bb428699d0c5","system_id":"levelo_inurba_marseille","lat":43.309047,"lon":5.396551,"is_reserved":false,"is_disabled":false,"rental_uris":{"android":"levelo://app?vid=7a9e99b8-8fbc-486f-9101-bb428699d0c5","ios":"levelo://app?vid=7a9e99b8-8fbc-486f-9101-bb428699d0c5"},"vehicle_type_id":"4","last_reported":1713305237,"current_range_meters":31200,"station_id":"ce4bh012rcd13ifvqcv0","pricing_plan_id":"cebpf4jnsgd1na2vs0mg"},{"bike_id":"10de1db6-c334-4abb-85e8-1840a1d7f3ee","system_id":"levelo_inurba_marseille","lat":43.308821,"lon":5.396409,"is_reserved":false,"is_disabled":false,"rental_uris":{"android":"levelo://app?vid=10de1db6-c334-4abb-85e8-1840a1d7f3ee","ios":"levelo://app?vid=10de1db6-c334-4abb-85e8-1840a1d7f3ee"},"vehicle_type_id":"4","last_reported":1713305237,"current_range_meters":17200,"station_id":"ce4bh012rcd13ifvqcv0","pricing_plan_id":"cebpf4jnsgd1na2vs0mg"},{"bike_id":"c973c7fd-92f8-4ae2-8194-f2a45fe802b2","system_id":"levelo_inurba_marseille","lat":43.313291,"lon":5.396838,"is_reserved":false,"is_disabled":false,"rental_uris":{"android":"levelo://app?vid=c973c7fd-92f8-4ae2-8194-f2a45fe802b2","ios":"levelo://app?vid=c973c7fd-92f8-4ae2-8194-f2a45fe802b2"},"vehicle_type_id":"4","last_reported":1713305237,"current_range_meters":10000,"station_id":"ce4bgvp2rcd13ifvqcu0","pricing_plan_id":"cebpf4jnsgd1na2vs0mg"},{"bike_id":"3480276b-cb29-483d-8361-c5f8967b17cd","system_id":"levelo_inurba_marseille","lat":43.308872,"lon":5.396423,"is_reserved":false,"is_disabled":false,"rental_uris":{"android":"levelo://app?vid=3480276b-cb29-483d-8361-c5f8967b17cd","ios":"levelo://app?vid=3480276b-cb29-483d-8361-c5f8967b17cd"},"vehicle_type_id":"4","last_reported":1713305237,"current_range_meters":21600,"station_id":"ce4bh012rcd13ifvqcv0","pricing_plan_id":"cebpf4jnsgd1na2vs0mg"},{"bike_id":"2e021c31-cee2-442e-bccc-7ca205e87a39","system_id":"levelo_inurba_marseille","lat":43.30881,"lon":5.39642,"is_reserved":false,"is_disabled":false,"rental_uris":{"android":"levelo://app?vid=2e021c31-cee2-442e-bccc-7ca205e87a39","ios":"levelo://app?vid=2e021c31-cee2-442e-bccc-7ca205e87a39"},"vehicle_type_id":"4","last_reported":1713305237,"current_range_meters":19200,"station_id":"ce4bh012rcd13ifvqcv0","pricing_plan_id":"cebpf4jnsgd1na2vs0mg"},{"bike_id":"526bd114-1afe-43fd-94d8-88378818bf4a","system_id":"levelo_inurba_marseille","lat":43.309047,"lon":5.396551,"is_reserved":false,"is_disabled":false,"rental_uris":{"android":"levelo://app?vid=526bd114-1afe-43fd-94d8-88378818bf4a","ios":"levelo://app?vid=526bd114-1afe-43fd-94d8-88378818bf4a"},"vehicle_type_id":"4","last_reported":1713305237,"current_range_meters":22800,"station_id":"ce4bh012rcd13ifvqcv0","pricing_plan_id":"cebpf4jnsgd1na2vs0mg"},{"bike_id":"13883a3d-1734-43cf-a126-625db304a2e7","system_id":"levelo_inurba_marseille","lat":43.313291,"lon":5.396838,"is_reserved":false,"is_disabled":false,"rental_uris":{"android":"levelo://app?vid=13883a3d-1734-43cf-a126-625db304a2e7","ios":"levelo://app?vid=13883a3d-1734-43cf-a126-625db304a2e7"},"vehicle_type_id":"4","last_reported":1713305237,"current_range_meters":20400,"station_id":"ce4bgvp2rcd13ifvqcu0","pricing_plan_id":"cebpf4jnsgd1na2vs0mg"},{"bike_id":"4335df12-a355-4cc5-9887-a15e53995467","system_id":"levelo_inurba_marseille","lat":43.313251,"lon":5.396922,"is_reserved":false,"is_disabled":false,"rental_uris":{"android":"levelo://app?vid=4335df12-a355-4cc5-9887-a15e53995467","ios":"levelo://app?vid=4335df12-a355-4cc5-9887-a15e53995467"},"vehicle_type_id":"4","last_reported":1713305237,"current_range_meters":5200,"station_id":"ce4bgvp2rcd13ifvqcu0","pricing_plan_id":"cebpf4jnsgd1na2vs0mg"},{"bike_id":"31174619-56d9-4ad5-ae86-df885e76f661","system_id":"levelo_inurba_marseille","lat":43.309047,"lon":5.396551,"is_reserved":false,"is_disabled":false,"rental_uris":{"android":"levelo://app?vid=31174619-56d9-4ad5-ae86-df885e76f661","ios":"levelo://app?vid=31174619-56d9-4ad5-ae86-df885e76f661"},"vehicle_type_id":"4","last_reported":1713305237,"current_range_meters":31600,"station_id":"ce4bh012rcd13ifvqcv0","pricing_plan_id":"cebpf4jnsgd1na2vs0mg"},{"bike_id":"703c458b-7e66-4fa0-a317-e740b77ad2d8","system_id":"levelo_inurba_marseille","lat":43.30888,"lon":5.39646,"is_reserved":false,"is_disabled":false,"rental_uris":{"android":"levelo://app?vid=703c458b-7e66-4fa0-a317-e740b77ad2d8","ios":"levelo://app?vid=703c458b-7e66-4fa0-a317-e740b77ad2d8"},"vehicle_type_id":"4","last_reported":1713305237,"current_range_meters":9200,"station_id":"ce4bh012rcd13ifvqcv0","pricing_plan_id":"cebpf4jnsgd1na2vs0mg"},{"bike_id":"f03a9a57-6e85-4131-8d64-321137bbaa9b","system_id":"levelo_inurba_marseille","lat":43.3133,"lon":5.39693,"is_reserved":false,"is_disabled":false,"rental_uris":{"android":"levelo://app?vid=f03a9a57-6e85-4131-8d64-321137bbaa9b","ios":"levelo://app?vid=f03a9a57-6e85-4131-8d64-321137bbaa9b"},"vehicle_type_id":"4","last_reported":1713305237,"current_range_meters":0,"station_id":"ce4bgvp2rcd13ifvqcu0","pricing_plan_id":"cebpf4jnsgd1na2vs0mg"},{"bike_id":"30e6d694-e6fe-4703-b927-5c7a693e2151","system_id":"levelo_inurba_marseille","lat":43.30886,"lon":5.39648,"is_reserved":false,"is_disabled":false,"rental_uris":{"android":"levelo://app?vid=30e6d694-e6fe-4703-b927-5c7a693e2151","ios":"levelo://app?vid=30e6d694-e6fe-4703-b927-5c7a693e2151"},"vehicle_type_id":"4","last_reported":1713305237,"current_range_meters":12400,"station_id":"ce4bh012rcd13ifvqcv0","pricing_plan_id":"cebpf4jnsgd1na2vs0mg"},{"bike_id":"12a4047b-deb3-4847-9c91-b8fba96e60d6","system_id":"levelo_inurba_marseille","lat":43.313291,"lon":5.396838,"is_reserved":false,"is_disabled":false,"rental_uris":{"android":"levelo://app?vid=12a4047b-deb3-4847-9c91-b8fba96e60d6","ios":"levelo://app?vid=12a4047b-deb3-4847-9c91-b8fba96e60d6"},"vehicle_type_id":"4","last_reported":1713305237,"current_range_meters":3200,"station_id":"ce4bgvp2rcd13ifvqcu0","pricing_plan_id":"cebpf4jnsgd1na2vs0mg"},{"bike_id":"3a1bdf01-f175-4991-907a-84dc224d9a63","system_id":"levelo_inurba_marseille","lat":43.30877,"lon":5.39646,"is_reserved":false,"is_disabled":false,"rental_uris":{"android":"levelo://app?vid=3a1bdf01-f175-4991-907a-84dc224d9a63","ios":"levelo://app?vid=3a1bdf01-f175-4991-907a-84dc224d9a63"},"vehicle_type_id":"4","last_reported":1713305237,"current_range_meters":11200,"station_id":"ce4bh012rcd13ifvqcv0","pricing_plan_id":"cebpf4jnsgd1na2vs0mg"},{"bike_id":"2b281f50-c8e7-4baa-87da-2e977e52e31d","system_id":"levelo_inurba_marseille","lat":43.313291,"lon":5.396838,"is_reserved":false,"is_disabled":false,"rental_uris":{"android":"levelo://app?vid=2b281f50-c8e7-4baa-87da-2e977e52e31d","ios":"levelo://app?vid=2b281f50-c8e7-4baa-87da-2e977e52e31d"},"vehicle_type_id":"4","last_reported":1713305237,"current_range_meters":4400,"station_id":"ce4bgvp2rcd13ifvqcu0","pricing_plan_id":"cebpf4jnsgd1na2vs0mg"},{"bike_id":"53425ced-b14c-41a4-9f12-c9f57ef1a98e","system_id":"levelo_inurba_marseille","lat":43.313291,"lon":5.396838,"is_reserved":false,"is_disabled":false,"rental_uris":{"android":"levelo://app?vid=53425ced-b14c-41a4-9f12-c9f57ef1a98e","ios":"levelo://app?vid=53425ced-b14c-41a4-9f12-c9f57ef1a98e"},"vehicle_type_id":"4","last_reported":1713305237,"current_range_meters":800,"station_id":"ce4bgvp2rcd13ifvqcu0","pricing_plan_id":"cebpf4jnsgd1na2vs0mg"},{"bike_id":"e791efec-d8b2-4c21-9419-2877fc764d24","system_id":"levelo_inurba_marseille","lat":43.30889,"lon":5.39651,"is_reserved":false,"is_disabled":false,"rental_uris":{"android":"levelo://app?vid=e791efec-d8b2-4c21-9419-2877fc764d24","ios":"levelo://app?vid=e791efec-d8b2-4c21-9419-2877fc764d24"},"vehicle_type_id":"4","last_reported":1713305237,"current_range_meters":15600,"station_id":"ce4bh012rcd13ifvqcv0","pricing_plan_id":"cebpf4jnsgd1na2vs0mg"},{"bike_id":"a680442e-8028-4fc1-b687-e24fcbdc99fe","system_id":"levelo_inurba_marseille","lat":43.30883,"lon":5.3965,"is_reserved":false,"is_disabled":false,"rental_uris":{"android":"levelo://app?vid=a680442e-8028-4fc1-b687-e24fcbdc99fe","ios":"levelo://app?vid=a680442e-8028-4fc1-b687-e24fcbdc99fe"},"vehicle_type_id":"4","last_reported":1713305237,"current_range_meters":31200,"station_id":"ce4bh012rcd13ifvqcv0","pricing_plan_id":"cebpf4jnsgd1na2vs0mg"},{"bike_id":"d8c06d14-bb8d-46bb-b3f1-a0b9bf0f9fe2","system_id":"levelo_inurba_marseille","lat":43.313291,"lon":5.396838,"is_reserved":false,"is_disabled":false,"rental_uris":{"android":"levelo://app?vid=d8c06d14-bb8d-46bb-b3f1-a0b9bf0f9fe2","ios":"levelo://app?vid=d8c06d14-bb8d-46bb-b3f1-a0b9bf0f9fe2"},"vehicle_type_id":"4","last_reported":1713305237,"current_range_meters":20400,"station_id":"ce4bgvp2rcd13ifvqcu0","pricing_plan_id":"cebpf4jnsgd1na2vs0mg"},{"bike_id":"b89e57e0-d4e8-4593-b016-d6ddfbe91604","system_id":"levelo_inurba_marseille","lat":43.313291,"lon":5.396838,"is_reserved":false,"is_disabled":false,"rental_uris":{"android":"levelo://app?vid=b89e57e0-d4e8-4593-b016-d6ddfbe91604","ios":"levelo://app?vid=b89e57e0-d4e8-4593-b016-d6ddfbe91604"},"vehicle_type_id":"4","last_reported":1713305237,"current_range_meters":26400,"station_id":"ce4bgvp2rcd13ifvqcu0","pricing_plan_id":"cebpf4jnsgd1na2vs0mg"},{"bike_id":"6e9ac3bf-2884-46f2-815a-5b77bd404333","system_id":"levelo_inurba_marseille","lat":43.30886,"lon":5.39652,"is_reserved":false,"is_disabled":false,"rental_uris":{"android":"levelo://app?vid=6e9ac3bf-2884-46f2-815a-5b77bd404333","ios":"levelo://app?vid=6e9ac3bf-2884-46f2-815a-5b77bd404333"},"vehicle_type_id":"4","last_reported":1713305237,"current_range_meters":7200,"station_id":"ce4bh012rcd13ifvqcv0","pricing_plan_id":"cebpf4jnsgd1na2vs0mg"},{"bike_id":"82c9724f-5be6-430a-bed4-94d6d9c0cd1c","system_id":"levelo_inurba_marseille","lat":43.313291,"lon":5.396838,"is_reserved":false,"is_disabled":false,"rental_uris":{"android":"levelo://app?vid=82c9724f-5be6-430a-bed4-94d6d9c0cd1c","ios":"levelo://app?vid=82c9724f-5be6-430a-bed4-94d6d9c0cd1c"},"vehicle_type_id":"4","last_reported":1713305237,"current_range_meters":29600,"station_id":"ce4bgvp2rcd13ifvqcu0","pricing_plan_id":"cebpf4jnsgd1na2vs0mg"},{"bike_id":"c527a466-0f32-4e6b-8b1a-efcb1c1e807f","system_id":"levelo_inurba_marseille","lat":43.308919,"lon":5.39654,"is_reserved":false,"is_disabled":false,"rental_uris":{"android":"levelo://app?vid=c527a466-0f32-4e6b-8b1a-efcb1c1e807f","ios":"levelo://app?vid=c527a466-0f32-4e6b-8b1a-efcb1c1e807f"},"vehicle_type_id":"4","last_reported":1713305237,"current_range_meters":31200,"station_id":"ce4bh012rcd13ifvqcv0","pricing_plan_id":"cebpf4jnsgd1na2vs0mg"},{"bike_id":"836b0e45-7d9f-43f2-8f7e-2ee5170cc957","system_id":"levelo_inurba_marseille","lat":43.309038,"lon":5.396546,"is_reserved":false,"is_disabled":false,"rental_uris":{"android":"levelo://app?vid=836b0e45-7d9f-43f2-8f7e-2ee5170cc957","ios":"levelo://app?vid=836b0e45-7d9f-43f2-8f7e-2ee5170cc957"},"vehicle_type_id":"4","last_reported":1713305237,"current_range_meters":30400,"station_id":"ce4bh012rcd13ifvqcv0","pricing_plan_id":"cebpf4jnsgd1na2vs0mg"},{"bike_id":"0e094063-62c6-49a4-9d8f-35e044b3a48f","system_id":"levelo_inurba_marseille","lat":43.3133,"lon":5.39701,"is_reserved":false,"is_disabled":false,"rental_uris":{"android":"levelo://app?vid=0e094063-62c6-49a4-9d8f-35e044b3a48f","ios":"levelo://app?vid=0e094063-62c6-49a4-9d8f-35e044b3a48f"},"vehicle_type_id":"4","last_reported":1713305237,"current_range_meters":17600,"station_id":"ce4bgvp2rcd13ifvqcu0","pricing_plan_id":"cebpf4jnsgd1na2vs0mg"},{"bike_id":"418212aa-ed41-427f-8be3-7f7f07d226ea","system_id":"levelo_inurba_marseille","lat":43.30892,"lon":5.39657,"is_reserved":false,"is_disabled":false,"rental_uris":{"android":"levelo://app?vid=418212aa-ed41-427f-8be3-7f7f07d226ea","ios":"levelo://app?vid=418212aa-ed41-427f-8be3-7f7f07d226ea"},"vehicle_type_id":"4","last_reported":1713305237,"current_range_meters":30400,"station_id":"ce4bh012rcd13ifvqcv0","pricing_plan_id":"cebpf4jnsgd1na2vs0mg"},{"bike_id":"c491ee7e-8dc0-460b-beba-0594b547e041","system_id":"levelo_inurba_marseille","lat":43.309038,"lon":5.396546,"is_reserved":false,"is_disabled":false,"rental_uris":{"android":"levelo://app?vid=c491ee7e-8dc0-460b-beba-0594b547e041","ios":"levelo://app?vid=c491ee7e-8dc0-460b-beba-0594b547e041"},"vehicle_type_id":"4","last_reported":1713305237,"current_range_meters":8400,"station_id":"ce4bh012rcd13ifvqcv0","pricing_plan_id":"cebpf4jnsgd1na2vs0mg"},{"bike_id":"242c17f0-f41b-475d-9c75-a8b103566052","system_id":"levelo_inurba_marseille","lat":43.3088,"lon":5.39658,"is_reserved":false,"is_disabled":false,"rental_uris":{"android":"levelo://app?vid=242c17f0-f41b-475d-9c75-a8b103566052","ios":"levelo://app?vid=242c17f0-f41b-475d-9c75-a8b103566052"},"vehicle_type_id":"4","last_reported":1713305237,"current_range_meters":27200,"station_id":"ce4bh012rcd13ifvqcv0","pricing_plan_id":"cebpf4jnsgd1na2vs0mg"},{"bike_id":"ccac7258-4fa3-4583-bc3a-f7988b2c71eb","system_id":"levelo_inurba_marseille","lat":43.30891,"lon":5.39661,"is_reserved":false,"is_disabled":false,"rental_uris":{"android":"levelo://app?vid=ccac7258-4fa3-4583-bc3a-f7988b2c71eb","ios":"levelo://app?vid=ccac7258-4fa3-4583-bc3a-f7988b2c71eb"},"vehicle_type_id":"4","last_reported":1713305237,"current_range_meters":9200,"station_id":"ce4bh012rcd13ifvqcv0","pricing_plan_id":"cebpf4jnsgd1na2vs0mg"},{"bike_id":"926b5fca-d41c-445d-99b2-ac44ab483bfc","system_id":"levelo_inurba_marseille","lat":43.30887,"lon":5.39662,"is_reserved":false,"is_disabled":false,"rental_uris":{"android":"levelo://app?vid=926b5fca-d41c-445d-99b2-ac44ab483bfc","ios":"levelo://app?vid=926b5fca-d41c-445d-99b2-ac44ab483bfc"},"vehicle_type_id":"4","last_reported":1713305237,"current_range_meters":27600,"station_id":"ce4bh012rcd13ifvqcv0","pricing_plan_id":"cebpf4jnsgd1na2vs0mg"},{"bike_id":"c4ff56a4-d99e-4871-ae3e-8390b60fdaa4","system_id":"levelo_inurba_marseille","lat":43.290631,"lon":5.359244,"is_reserved":false,"is_disabled":false,"rental_uris":{"android":"levelo://app?vid=c4ff56a4-d99e-4871-ae3e-8390b60fdaa4","ios":"levelo://app?vid=c4ff56a4-d99e-4871-ae3e-8390b60fdaa4"},"vehicle_type_id":"4","last_reported":1713305237,"current_range_meters":7600,"station_id":"ce4bha92rcd13ifvqeg0","pricing_plan_id":"cebpf4jnsgd1na2vs0mg"},{"bike_id":"1f9ceb20-ae42-4c29-a362-fb8a15b40302","system_id":"levelo_inurba_marseille","lat":43.290624,"lon":5.359245,"is_reserved":false,"is_disabled":false,"rental_uris":{"android":"levelo://app?vid=1f9ceb20-ae42-4c29-a362-fb8a15b40302","ios":"levelo://app?vid=1f9ceb20-ae42-4c29-a362-fb8a15b40302"},"vehicle_type_id":"4","last_reported":1713305237,"current_range_meters":24000,"station_id":"ce4bha92rcd13ifvqeg0","pricing_plan_id":"cebpf4jnsgd1na2vs0mg"},{"bike_id":"f606aa12-384d-4a39-a65d-8fd7aff7a7af","system_id":"levelo_inurba_marseille","lat":43.290631,"lon":5.359244,"is_reserved":false,"is_disabled":false,"rental_uris":{"android":"levelo://app?vid=f606aa12-384d-4a39-a65d-8fd7aff7a7af","ios":"levelo://app?vid=f606aa12-384d-4a39-a65d-8fd7aff7a7af"},"vehicle_type_id":"4","last_reported":1713305237,"current_range_meters":30000,"station_id":"ce4bha92rcd13ifvqeg0","pricing_plan_id":"cebpf4jnsgd1na2vs0mg"},{"bike_id":"d43811ac-af96-484f-b311-1d94ad3b75d2","system_id":"levelo_inurba_marseille","lat":43.290631,"lon":5.359244,"is_reserved":false,"is_disabled":false,"rental_uris":{"android":"levelo://app?vid=d43811ac-af96-484f-b311-1d94ad3b75d2","ios":"levelo://app?vid=d43811ac-af96-484f-b311-1d94ad3b75d2"},"vehicle_type_id":"4","last_reported":1713305237,"current_range_meters":30000,"station_id":"ce4bha92rcd13ifvqeg0","pricing_plan_id":"cebpf4jnsgd1na2vs0mg"},{"bike_id":"1fae45b9-f70c-4458-ab34-45624d20490f","system_id":"levelo_inurba_marseille","lat":43.290624,"lon":5.359245,"is_reserved":false,"is_disabled":false,"rental_uris":{"android":"levelo://app?vid=1fae45b9-f70c-4458-ab34-45624d20490f","ios":"levelo://app?vid=1fae45b9-f70c-4458-ab34-45624d20490f"},"vehicle_type_id":"4","last_reported":1713305237,"current_range_meters":26800,"station_id":"ce4bha92rcd13ifvqeg0","pricing_plan_id":"cebpf4jnsgd1na2vs0mg"},{"bike_id":"f1397ddc-f40f-4db3-8496-a1f897e27f27","system_id":"levelo_inurba_marseille","lat":43.289184,"lon":5.366408,"is_reserved":false,"is_disabled":false,"rental_uris":{"android":"levelo://app?vid=f1397ddc-f40f-4db3-8496-a1f897e27f27","ios":"levelo://app?vid=f1397ddc-f40f-4db3-8496-a1f897e27f27"},"vehicle_type_id":"4","last_reported":1713305237,"current_range_meters":28400,"station_id":"ce4bhap2rcd13ifvqek0","pricing_plan_id":"cebpf4jnsgd1na2vs0mg"},{"bike_id":"955df32c-023d-4ef9-ad78-51c6920a0960","system_id":"levelo_inurba_marseille","lat":43.314811,"lon":5.373103,"is_reserved":false,"is_disabled":false,"rental_uris":{"android":"levelo://app?vid=955df32c-023d-4ef9-ad78-51c6920a0960","ios":"levelo://app?vid=955df32c-023d-4ef9-ad78-51c6920a0960"},"vehicle_type_id":"4","last_reported":1713305237,"current_range_meters":5200,"station_id":"ce4bgt12rcd13ifvqcd0","pricing_plan_id":"cebpf4jnsgd1na2vs0mg"},{"bike_id":"8eae2969-2883-4b6a-b0fb-708daaf72f82","system_id":"levelo_inurba_marseille","lat":43.289184,"lon":5.366408,"is_reserved":false,"is_disabled":false,"rental_uris":{"android":"levelo://app?vid=8eae2969-2883-4b6a-b0fb-708daaf72f82","ios":"levelo://app?vid=8eae2969-2883-4b6a-b0fb-708daaf72f82"},"vehicle_type_id":"4","last_reported":1713305237,"current_range_meters":18800,"station_id":"ce4bhap2rcd13ifvqek0","pricing_plan_id":"cebpf4jnsgd1na2vs0mg"},{"bike_id":"c3234ff3-7475-4aeb-a960-1baa2654a440","system_id":"levelo_inurba_marseille","lat":43.289468,"lon":5.363719,"is_reserved":false,"is_disabled":false,"rental_uris":{"android":"levelo://app?vid=c3234ff3-7475-4aeb-a960-1baa2654a440","ios":"levelo://app?vid=c3234ff3-7475-4aeb-a960-1baa2654a440"},"vehicle_type_id":"4","last_reported":1713305237,"current_range_meters":2800,"station_id":"ce4bhc92rcd13ifvqetg","pricing_plan_id":"cebpf4jnsgd1na2vs0mg"},{"bike_id":"ee9bae51-ed99-4743-ac22-1f75c1a51394","system_id":"levelo_inurba_marseille","lat":43.289468,"lon":5.363719,"is_reserved":false,"is_disabled":false,"rental_uris":{"android":"levelo://app?vid=ee9bae51-ed99-4743-ac22-1f75c1a51394","ios":"levelo://app?vid=ee9bae51-ed99-4743-ac22-1f75c1a51394"},"vehicle_type_id":"4","last_reported":1713305237,"current_range_meters":24800,"station_id":"ce4bhc92rcd13ifvqetg","pricing_plan_id":"cebpf4jnsgd1na2vs0mg"},{"bike_id":"0147c2f9-1aa4-4795-a433-f200e02c2927","system_id":"levelo_inurba_marseille","lat":43.289184,"lon":5.366408,"is_reserved":false,"is_disabled":false,"rental_uris":{"android":"levelo://app?vid=0147c2f9-1aa4-4795-a433-f200e02c2927","ios":"levelo://app?vid=0147c2f9-1aa4-4795-a433-f200e02c2927"},"vehicle_type_id":"4","last_reported":1713305237,"current_range_meters":31200,"station_id":"ce4bhap2rcd13ifvqek0","pricing_plan_id":"cebpf4jnsgd1na2vs0mg"},{"bike_id":"ff2eb203-129d-4323-92b2-a5de74f8e48d","system_id":"levelo_inurba_marseille","lat":43.289468,"lon":5.363719,"is_reserved":false,"is_disabled":false,"rental_uris":{"android":"levelo://app?vid=ff2eb203-129d-4323-92b2-a5de74f8e48d","ios":"levelo://app?vid=ff2eb203-129d-4323-92b2-a5de74f8e48d"},"vehicle_type_id":"4","last_reported":1713305237,"current_range_meters":15600,"station_id":"ce4bhc92rcd13ifvqetg","pricing_plan_id":"cebpf4jnsgd1na2vs0mg"},{"bike_id":"c5f165b7-eb90-4418-9769-a0bb60a4aad3","system_id":"levelo_inurba_marseille","lat":43.289468,"lon":5.363719,"is_reserved":false,"is_disabled":false,"rental_uris":{"android":"levelo://app?vid=c5f165b7-eb90-4418-9769-a0bb60a4aad3","ios":"levelo://app?vid=c5f165b7-eb90-4418-9769-a0bb60a4aad3"},"vehicle_type_id":"4","last_reported":1713305237,"current_range_meters":28800,"station_id":"ce4bhc92rcd13ifvqetg","pricing_plan_id":"cebpf4jnsgd1na2vs0mg"},{"bike_id":"09b143c7-708e-440a-bac9-8e7b0daae564","system_id":"levelo_inurba_marseille","lat":43.289468,"lon":5.363719,"is_reserved":false,"is_disabled":false,"rental_uris":{"android":"levelo://app?vid=09b143c7-708e-440a-bac9-8e7b0daae564","ios":"levelo://app?vid=09b143c7-708e-440a-bac9-8e7b0daae564"},"vehicle_type_id":"4","last_reported":1713305237,"current_range_meters":5600,"station_id":"ce4bhc92rcd13ifvqetg","pricing_plan_id":"cebpf4jnsgd1na2vs0mg"},{"bike_id":"5ea0982d-0ae3-476e-81f1-f30b4e390b4e","system_id":"levelo_inurba_marseille","lat":43.304274,"lon":5.397513,"is_reserved":false,"is_disabled":false,"rental_uris":{"android":"levelo://app?vid=5ea0982d-0ae3-476e-81f1-f30b4e390b4e","ios":"levelo://app?vid=5ea0982d-0ae3-476e-81f1-f30b4e390b4e"},"vehicle_type_id":"4","last_reported":1713305237,"current_range_meters":16000,"station_id":"ce4bh092rcd13ifvqd20","pricing_plan_id":"cebpf4jnsgd1na2vs0mg"},{"bike_id":"4a38adb5-ad91-47da-ab58-c540c026e888","system_id":"levelo_inurba_marseille","lat":43.304296,"lon":5.397513,"is_reserved":false,"is_disabled":false,"rental_uris":{"android":"levelo://app?vid=4a38adb5-ad91-47da-ab58-c540c026e888","ios":"levelo://app?vid=4a38adb5-ad91-47da-ab58-c540c026e888"},"vehicle_type_id":"4","last_reported":1713305237,"current_range_meters":26800,"station_id":"ce4bh092rcd13ifvqd20","pricing_plan_id":"cebpf4jnsgd1na2vs0mg"},{"bike_id":"49a18de1-93c6-48da-b534-00811de1f0f8","system_id":"levelo_inurba_marseille","lat":43.304274,"lon":5.397513,"is_reserved":false,"is_disabled":false,"rental_uris":{"android":"levelo://app?vid=49a18de1-93c6-48da-b534-00811de1f0f8","ios":"levelo://app?vid=49a18de1-93c6-48da-b534-00811de1f0f8"},"vehicle_type_id":"4","last_reported":1713305237,"current_range_meters":26000,"station_id":"ce4bh092rcd13ifvqd20","pricing_plan_id":"cebpf4jnsgd1na2vs0mg"},{"bike_id":"4426ab50-9c45-49b1-aa65-284667d66d7f","system_id":"levelo_inurba_marseille","lat":43.304296,"lon":5.397513,"is_reserved":false,"is_disabled":false,"rental_uris":{"android":"levelo://app?vid=4426ab50-9c45-49b1-aa65-284667d66d7f","ios":"levelo://app?vid=4426ab50-9c45-49b1-aa65-284667d66d7f"},"vehicle_type_id":"4","last_reported":1713305237,"current_range_meters":0,"station_id":"ce4bh092rcd13ifvqd20","pricing_plan_id":"cebpf4jnsgd1na2vs0mg"},{"bike_id":"6aeb056c-8299-45bf-9bb2-add873044e1b","system_id":"levelo_inurba_marseille","lat":43.290104,"lon":5.356111,"is_reserved":false,"is_disabled":false,"rental_uris":{"android":"levelo://app?vid=6aeb056c-8299-45bf-9bb2-add873044e1b","ios":"levelo://app?vid=6aeb056c-8299-45bf-9bb2-add873044e1b"},"vehicle_type_id":"4","last_reported":1713305237,"current_range_meters":30400,"station_id":"ce4bhb92rcd13ifvqen0","pricing_plan_id":"cebpf4jnsgd1na2vs0mg"},{"bike_id":"31939fbc-6f81-44f7-9c5f-15f2a6af8a3e","system_id":"levelo_inurba_marseille","lat":43.290103,"lon":5.356114,"is_reserved":false,"is_disabled":false,"rental_uris":{"android":"levelo://app?vid=31939fbc-6f81-44f7-9c5f-15f2a6af8a3e","ios":"levelo://app?vid=31939fbc-6f81-44f7-9c5f-15f2a6af8a3e"},"vehicle_type_id":"4","last_reported":1713305237,"current_range_meters":10800,"station_id":"ce4bhb92rcd13ifvqen0","pricing_plan_id":"cebpf4jnsgd1na2vs0mg"},{"bike_id":"dbc2e51e-9d8b-4c35-a2a1-ed1ed3f3e568","system_id":"levelo_inurba_marseille","lat":43.297899,"lon":5.393439,"is_reserved":false,"is_disabled":false,"rental_uris":{"android":"levelo://app?vid=dbc2e51e-9d8b-4c35-a2a1-ed1ed3f3e568","ios":"levelo://app?vid=dbc2e51e-9d8b-4c35-a2a1-ed1ed3f3e568"},"vehicle_type_id":"4","last_reported":1713305237,"current_range_meters":0,"station_id":"chh1huq6cuj3fo74tm60","pricing_plan_id":"cebpf4jnsgd1na2vs0mg"},{"bike_id":"10c89a57-ee71-4c70-b3ff-8f0f8cc00096","system_id":"levelo_inurba_marseille","lat":43.297815,"lon":5.393548,"is_reserved":false,"is_disabled":false,"rental_uris":{"android":"levelo://app?vid=10c89a57-ee71-4c70-b3ff-8f0f8cc00096","ios":"levelo://app?vid=10c89a57-ee71-4c70-b3ff-8f0f8cc00096"},"vehicle_type_id":"4","last_reported":1713305237,"current_range_meters":31600,"station_id":"chh1huq6cuj3fo74tm60","pricing_plan_id":"cebpf4jnsgd1na2vs0mg"},{"bike_id":"50c16693-7360-446c-842b-f48e765ee928","system_id":"levelo_inurba_marseille","lat":43.297897,"lon":5.393484,"is_reserved":false,"is_disabled":false,"rental_uris":{"android":"levelo://app?vid=50c16693-7360-446c-842b-f48e765ee928","ios":"levelo://app?vid=50c16693-7360-446c-842b-f48e765ee928"},"vehicle_type_id":"4","last_reported":1713305237,"current_range_meters":22000,"station_id":"chh1huq6cuj3fo74tm60","pricing_plan_id":"cebpf4jnsgd1na2vs0mg"},{"bike_id":"c5e4c957-f807-4073-8d4b-6d4172fcefe5","system_id":"levelo_inurba_marseille","lat":43.29789,"lon":5.39349,"is_reserved":false,"is_disabled":false,"rental_uris":{"android":"levelo://app?vid=c5e4c957-f807-4073-8d4b-6d4172fcefe5","ios":"levelo://app?vid=c5e4c957-f807-4073-8d4b-6d4172fcefe5"},