{"last_updated":1685199955,"ttl":30,"version":"2.2","data":{"bikes":[{"bike_id":"091b8c5f-4b58-4d84-a576-291769d465d6","system_id":"levelo_inurba_marseille","lat":43.312239,"lon":5.368562,"is_reserved":false,"is_disabled":false,"rental_uris":{"android":"levelo://app?vid=091b8c5f-4b58-4d84-a576-291769d465d6","ios":"levelo://app?vid=091b8c5f-4b58-4d84-a576-291769d465d6"},"vehicle_type_id":"4","last_reported":1685199956,"current_range_meters":18000,"station_id":"ce4bgl92rcd13ifvqbq0","pricing_plan_id":"free"},{"bike_id":"afd8cda5-38ab-4373-a4fc-d1f1d33fa23e","system_id":"levelo_inurba_marseille","lat":43.312239,"lon":5.368562,"is_reserved":false,"is_disabled":false,"rental_uris":{"android":"levelo://app?vid=afd8cda5-38ab-4373-a4fc-d1f1d33fa23e","ios":"levelo://app?vid=afd8cda5-38ab-4373-a4fc-d1f1d33fa23e"},"vehicle_type_id":"4","last_reported":1685199956,"current_range_meters":17200,"station_id":"ce4bgl92rcd13ifvqbq0","pricing_plan_id":"free"},{"bike_id":"97d5c600-9a19-4d32-843b-ccb634c7e21f","system_id":"levelo_inurba_marseille","lat":43.309076,"lon":5.368465,"is_reserved":false,"is_disabled":false,"rental_uris":{"android":"levelo://app?vid=97d5c600-9a19-4d32-843b-ccb634c7e21f","ios":"levelo://app?vid=97d5c600-9a19-4d32-843b-ccb634c7e21f"},"vehicle_type_id":"4","last_reported":1685199956,"current_range_meters":0,"station_id":"ce4bgn92rcd13ifvqbvg","pricing_plan_id":"free"},{"bike_id":"3b07cc09-c795-45a1-8711-e2e32a7947a1","system_id":"levelo_inurba_marseille","lat":43.305424,"lon":5.367348,"is_reserved":false,"is_disabled":false,"rental_uris":{"android":"levelo://app?vid=3b07cc09-c795-45a1-8711-e2e32a7947a1","ios":"levelo://app?vid=3b07cc09-c795-45a1-8711-e2e32a7947a1"},"vehicle_type_id":"4","last_reported":1685199956,"current_range_meters":400,"station_id":"","pricing_plan_id":"free"},{"bike_id":"698fe8e2-0dd9-47be-b511-72b281780d36","system_id":"levelo_inurba_marseille","lat":43.304606,"lon":5.379026,"is_reserved":false,"is_disabled":false,"rental_uris":{"android":"levelo://app?vid=698fe8e2-0dd9-47be-b511-72b281780d36","ios":"levelo://app?vid=698fe8e2-0dd9-47be-b511-72b281780d36"},"vehicle_type_id":"4","last_reported":1685199956,"current_range_meters":22000,"station_id":"ce4bgup2rcd13ifvqcn0","pricing_plan_id":"free"},{"bike_id":"5e638371-5c30-4ed5-8462-b255cdd63e8e","system_id":"levelo_inurba_marseille","lat":43.30147,"lon":5.37405,"is_reserved":false,"is_disabled":false,"rental_uris":{"android":"levelo://app?vid=5e638371-5c30-4ed5-8462-b255cdd63e8e","ios":"levelo://app?vid=5e638371-5c30-4ed5-8462-b255cdd63e8e"},"vehicle_type_id":"4","last_reported":1685199956,"current_range_meters":27200,"station_id":"","pricing_plan_id":"free"},{"bike_id":"54716154-8db0-4266-ab8e-a58a594b5020","system_id":"levelo_inurba_marseille","lat":43.32526,"lon":5.36699,"is_reserved":false,"is_disabled":false,"rental_uris":{"android":"levelo://app?vid=54716154-8db0-4266-ab8e-a58a594b5020","ios":"levelo://app?vid=54716154-8db0-4266-ab8e-a58a594b5020"},"vehicle_type_id":"4","last_reported":1685199956,"current_range_meters":0,"station_id":"","pricing_plan_id":"free"},{"bike_id":"1beaf7c6-f4d8-4e3f-aa10-100a28190bf4","system_id":"levelo_inurba_marseille","lat":43.313571,"lon":5.384829,"is_reserved":false,"is_disabled":false,"rental_uris":{"android":"levelo://app?vid=1beaf7c6-f4d8-4e3f-aa10-100a28190bf4","ios":"levelo://app?vid=1beaf7c6-f4d8-4e3f-aa10-100a28190bf4"},"vehicle_type_id":"4","last_reported":1685199956,"current_range_meters":16800,"station_id":"ce4bgt92rcd13ifvqcf0","pricing_plan_id":"free"},{"bike_id":"edc96815-b3ab-4c58-b65b-672be6b50dea","system_id":"levelo_inurba_marseille","lat":43.31364,"lon":5.38516,"is_reserved":false,"is_disabled":false,"rental_uris":{"android":"levelo://app?vid=edc96815-b3ab-4c58-b65b-672be6b50dea","ios":"levelo://app?vid=edc96815-b3ab-4c58-b65b-672be6b50dea"},"vehicle_type_id":"4","last_reported":1685199956,"current_range_meters":19200,"station_id":"","pricing_plan_id":"free"},{"bike_id":"781745c9-ed8f-4366-9231-a78b8305fce5","system_id":"levelo_inurba_marseille","lat":43.298433,"lon":5.362774,"is_reserved":false,"is_disabled":false,"rental_uris":{"android":"levelo://app?vid=781745c9-ed8f-4366-9231-a78b8305fce5","ios":"levelo://app?vid=781745c9-ed8f-4366-9231-a78b8305fce5"},"vehicle_type_id":"4","last_reported":1685199956,"current_range_meters":30000,"station_id":"ce4bgpp2rcd13ifvqc3g","pricing_plan_id":"free"},{"bike_id":"6b3f1c69-2b43-4655-8ff4-b50bba6694c1","system_id":"levelo_inurba_marseille","lat":43.298433,"lon":5.362774,"is_reserved":false,"is_disabled":false,"rental_uris":{"android":"levelo://app?vid=6b3f1c69-2b43-4655-8ff4-b50bba6694c1","ios":"levelo://app?vid=6b3f1c69-2b43-4655-8ff4-b50bba6694c1"},"vehicle_type_id":"4","last_reported":1685199956,"current_range_meters":28400,"station_id":"ce4bgpp2rcd13ifvqc3g","pricing_plan_id":"free"},{"bike_id":"58e1d11e-39ce-4970-a775-4c5926f9f2b1","system_id":"levelo_inurba_marseille","lat":43.311671,"lon":5.387261,"is_reserved":false,"is_disabled":false,"rental_uris":{"android":"levelo://app?vid=58e1d11e-39ce-4970-a775-4c5926f9f2b1","ios":"levelo://app?vid=58e1d11e-39ce-4970-a775-4c5926f9f2b1"},"vehicle_type_id":"4","last_reported":1685199956,"current_range_meters":15600,"station_id":"","pricing_plan_id":"free"},{"bike_id":"7ce3d098-4510-412f-8173-acef5f3caaab","system_id":"levelo_inurba_marseille","lat":43.3283,"lon":5.36679,"is_reserved":false,"is_disabled":false,"rental_uris":{"android":"levelo://app?vid=7ce3d098-4510-412f-8173-acef5f3caaab","ios":"levelo://app?vid=7ce3d098-4510-412f-8173-acef5f3caaab"},"vehicle_type_id":"4","last_reported":1685199956,"current_range_meters":0,"station_id":"ce4bhs92rcd13ifvqi0g","pricing_plan_id":"free"},{"bike_id":"6aadd20f-ee22-42f7-9c69-f3066c5dfcf1","system_id":"levelo_inurba_marseille","lat":43.328371,"lon":5.366909,"is_reserved":false,"is_disabled":false,"rental_uris":{"android":"levelo://app?vid=6aadd20f-ee22-42f7-9c69-f3066c5dfcf1","ios":"levelo://app?vid=6aadd20f-ee22-42f7-9c69-f3066c5dfcf1"},"vehicle_type_id":"4","last_reported":1685199956,"current_range_meters":15200,"station_id":"ce4bhs92rcd13ifvqi0g","pricing_plan_id":"free"},{"bike_id":"89ad5305-4c24-4f01-8075-7b6879ffa606","system_id":"levelo_inurba_marseille","lat":43.296131,"lon":5.370773,"is_reserved":false,"is_disabled":false,"rental_uris":{"android":"levelo://app?vid=89ad5305-4c24-4f01-8075-7b6879ffa606","ios":"levelo://app?vid=89ad5305-4c24-4f01-8075-7b6879ffa606"},"vehicle_type_id":"4","last_reported":1685199956,"current_range_meters":28400,"station_id":"ce4bgnh2rcd13ifvqc0g","pricing_plan_id":"free"},{"bike_id":"df9fe1c4-a157-4915-bbad-1eb6ebd0a287","system_id":"levelo_inurba_marseille","lat":43.29573,"lon":5.367355,"is_reserved":false,"is_disabled":false,"rental_uris":{"android":"levelo://app?vid=df9fe1c4-a157-4915-bbad-1eb6ebd0a287","ios":"levelo://app?vid=df9fe1c4-a157-4915-bbad-1eb6ebd0a287"},"vehicle_type_id":"4","last_reported":1685199956,"current_range_meters":6000,"station_id":"ce4bgph2rcd13ifvqc2g","pricing_plan_id":"free"},{"bike_id":"4369aabb-bd73-45f6-8e85-4ff613e9fdba","system_id":"levelo_inurba_marseille","lat":43.29573,"lon":5.367355,"is_reserved":false,"is_disabled":false,"rental_uris":{"android":"levelo://app?vid=4369aabb-bd73-45f6-8e85-4ff613e9fdba","ios":"levelo://app?vid=4369aabb-bd73-45f6-8e85-4ff613e9fdba"},"vehicle_type_id":"4","last_reported":1685199956,"current_range_meters":7600,"station_id":"ce4bgph2rcd13ifvqc2g","pricing_plan_id":"free"},{"bike_id":"1a1a512b-4059-430a-8fce-76964035bd8f","system_id":"levelo_inurba_marseille","lat":43.296921,"lon":5.376579,"is_reserved":false,"is_disabled":false,"rental_uris":{"android":"levelo://app?vid=1a1a512b-4059-430a-8fce-76964035bd8f","ios":"levelo://app?vid=1a1a512b-4059-430a-8fce-76964035bd8f"},"vehicle_type_id":"4","last_reported":1685199956,"current_range_meters":15200,"station_id":"ce4bgkh2rcd13ifvqbl0","pricing_plan_id":"free"},{"bike_id":"cfea19c1-3351-4aeb-aec8-c4621d335961","system_id":"levelo_inurba_marseille","lat":43.309589,"lon":5.390258,"is_reserved":false,"is_disabled":false,"rental_uris":{"android":"levelo://app?vid=cfea19c1-3351-4aeb-aec8-c4621d335961","ios":"levelo://app?vid=cfea19c1-3351-4aeb-aec8-c4621d335961"},"vehicle_type_id":"4","last_reported":1685199956,"current_range_meters":1200,"station_id":"ce4bgup2rcd13ifvqco0","pricing_plan_id":"free"},{"bike_id":"f777e894-2b16-4284-a959-3a94e251b88a","system_id":"levelo_inurba_marseille","lat":43.309589,"lon":5.390258,"is_reserved":false,"is_disabled":false,"rental_uris":{"android":"levelo://app?vid=f777e894-2b16-4284-a959-3a94e251b88a","ios":"levelo://app?vid=f777e894-2b16-4284-a959-3a94e251b88a"},"vehicle_type_id":"4","last_reported":1685199956,"current_range_meters":13600,"station_id":"ce4bgup2rcd13ifvqco0","pricing_plan_id":"free"},{"bike_id":"873cf925-db4e-4019-9491-b2bdfc9b9444","system_id":"levelo_inurba_marseille","lat":43.309589,"lon":5.390258,"is_reserved":false,"is_disabled":false,"rental_uris":{"android":"levelo://app?vid=873cf925-db4e-4019-9491-b2bdfc9b9444","ios":"levelo://app?vid=873cf925-db4e-4019-9491-b2bdfc9b9444"},"vehicle_type_id":"4","last_reported":1685199956,"current_range_meters":17600,"station_id":"ce4bgup2rcd13ifvqco0","pricing_plan_id":"free"},{"bike_id":"14454fba-7979-42bd-8e57-7b3ca73746e4","system_id":"levelo_inurba_marseille","lat":43.309589,"lon":5.390258,"is_reserved":false,"is_disabled":false,"rental_uris":{"android":"levelo://app?vid=14454fba-7979-42bd-8e57-7b3ca73746e4","ios":"levelo://app?vid=14454fba-7979-42bd-8e57-7b3ca73746e4"},"vehicle_type_id":"4","last_reported":1685199956,"current_range_meters":15600,"station_id":"ce4bgup2rcd13ifvqco0","pricing_plan_id":"free"},{"bike_id":"f040f20b-8baa-4798-9860-2d0062cf3703","system_id":"levelo_inurba_marseille","lat":43.317557,"lon":5.390173,"is_reserved":false,"is_disabled":false,"rental_uris":{"android":"levelo://app?vid=f040f20b-8baa-4798-9860-2d0062cf3703","ios":"levelo://app?vid=f040f20b-8baa-4798-9860-2d0062cf3703"},"vehicle_type_id":"4","last_reported":1685199956,"current_range_meters":1200,"station_id":"ce4bhqp2rcd13ifvqhng","pricing_plan_id":"free"},{"bike_id":"8dffc3c1-1ba9-408f-a10a-648b306be62b","system_id":"levelo_inurba_marseille","lat":43.317557,"lon":5.390173,"is_reserved":false,"is_disabled":false,"rental_uris":{"android":"levelo://app?vid=8dffc3c1-1ba9-408f-a10a-648b306be62b","ios":"levelo://app?vid=8dffc3c1-1ba9-408f-a10a-648b306be62b"},"vehicle_type_id":"4","last_reported":1685199956,"current_range_meters":13600,"station_id":"ce4bhqp2rcd13ifvqhng","pricing_plan_id":"free"},{"bike_id":"0a0b3eac-4511-4887-9f3a-20f804b4925e","system_id":"levelo_inurba_marseille","lat":43.29565,"lon":5.37384,"is_reserved":false,"is_disabled":false,"rental_uris":{"android":"levelo://app?vid=0a0b3eac-4511-4887-9f3a-20f804b4925e","ios":"levelo://app?vid=0a0b3eac-4511-4887-9f3a-20f804b4925e"},"vehicle_type_id":"4","last_reported":1685199956,"current_range_meters":18800,"station_id":"","pricing_plan_id":"free"},{"bike_id":"485085f0-9d28-4a6b-8869-166060a51f92","system_id":"levelo_inurba_marseille","lat":43.29787,"lon":5.38166,"is_reserved":false,"is_disabled":false,"rental_uris":{"android":"levelo://app?vid=485085f0-9d28-4a6b-8869-166060a51f92","ios":"levelo://app?vid=485085f0-9d28-4a6b-8869-166060a51f92"},"vehicle_type_id":"4","last_reported":1685199956,"current_range_meters":1200,"station_id":"","pricing_plan_id":"free"},{"bike_id":"047ac6dc-4ea6-4c87-be44-e6bf19ed64c8","system_id":"levelo_inurba_marseille","lat":43.299717,"lon":5.384845,"is_reserved":false,"is_disabled":false,"rental_uris":{"android":"levelo://app?vid=047ac6dc-4ea6-4c87-be44-e6bf19ed64c8","ios":"levelo://app?vid=047ac6dc-4ea6-4c87-be44-e6bf19ed64c8"},"vehicle_type_id":"4","last_reported":1685199956,"current_range_meters":28000,"station_id":"ce4bgj92rcd13ifvqbd0","pricing_plan_id":"free"},{"bike_id":"3289b7bc-6138-4ebb-8d82-2b0e69f1f911","system_id":"levelo_inurba_marseille","lat":43.296556,"lon":5.381226,"is_reserved":false,"is_disabled":false,"rental_uris":{"android":"levelo://app?vid=3289b7bc-6138-4ebb-8d82-2b0e69f1f911","ios":"levelo://app?vid=3289b7bc-6138-4ebb-8d82-2b0e69f1f911"},"vehicle_type_id":"4","last_reported":1685199956,"current_range_meters":0,"station_id":"","pricing_plan_id":"free"},{"bike_id":"7c5fc090-a84a-41b7-a8bb-2c093fb2cc68","system_id":"levelo_inurba_marseille","lat":43.294162,"lon":5.386292,"is_reserved":false,"is_disabled":false,"rental_uris":{"android":"levelo://app?vid=7c5fc090-a84a-41b7-a8bb-2c093fb2cc68","ios":"levelo://app?vid=7c5fc090-a84a-41b7-a8bb-2c093fb2cc68"},"vehicle_type_id":"4","last_reported":1685199956,"current_range_meters":10000,"station_id":"ce4bh2h2rcd13ifvqdh0","pricing_plan_id":"free"},{"bike_id":"5579720e-97a3-4b25-874b-ef4697becb38","system_id":"levelo_inurba_marseille","lat":43.29224,"lon":5.36073,"is_reserved":false,"is_disabled":false,"rental_uris":{"android":"levelo://app?vid=5579720e-97a3-4b25-874b-ef4697becb38","ios":"levelo://app?vid=5579720e-97a3-4b25-874b-ef4697becb38"},"vehicle_type_id":"4","last_reported":1685199956,"current_range_meters":29200,"station_id":"","pricing_plan_id":"free"},{"bike_id":"4c4f4474-be5d-4960-b438-58466f96583c","system_id":"levelo_inurba_marseille","lat":43.300852,"lon":5.390859,"is_reserved":false,"is_disabled":false,"rental_uris":{"android":"levelo://app?vid=4c4f4474-be5d-4960-b438-58466f96583c","ios":"levelo://app?vid=4c4f4474-be5d-4960-b438-58466f96583c"},"vehicle_type_id":"4","last_reported":1685199956,"current_range_meters":28000,"station_id":"ce4bh192rcd13ifvqdb0","pricing_plan_id":"free"},{"bike_id":"c380a64a-6600-49a2-a6f9-a3b9b083eeaa","system_id":"levelo_inurba_marseille","lat":43.291994,"lon":5.357886,"is_reserved":false,"is_disabled":false,"rental_uris":{"android":"levelo://app?vid=c380a64a-6600-49a2-a6f9-a3b9b083eeaa","ios":"levelo://app?vid=c380a64a-6600-49a2-a6f9-a3b9b083eeaa"},"vehicle_type_id":"4","last_reported":1685199956,"current_range_meters":30800,"station_id":"ce4bhb12rcd13ifvqel0","pricing_plan_id":"free"},{"bike_id":"bf997b5e-8264-4354-99f4-0df25bb8b70d","system_id":"levelo_inurba_marseille","lat":43.291994,"lon":5.357886,"is_reserved":false,"is_disabled":false,"rental_uris":{"android":"levelo://app?vid=bf997b5e-8264-4354-99f4-0df25bb8b70d","ios":"levelo://app?vid=bf997b5e-8264-4354-99f4-0df25bb8b70d"},"vehicle_type_id":"4","last_reported":1685199956,"current_range_meters":19600,"station_id":"ce4bhb12rcd13ifvqel0","pricing_plan_id":"free"},{"bike_id":"71bfa690-4f9b-4f76-ba9c-5fb9ec558481","system_id":"levelo_inurba_marseille","lat":43.309038,"lon":5.396546,"is_reserved":false,"is_disabled":false,"rental_uris":{"android":"levelo://app?vid=71bfa690-4f9b-4f76-ba9c-5fb9ec558481","ios":"levelo://app?vid=71bfa690-4f9b-4f76-ba9c-5fb9ec558481"},"vehicle_type_id":"4","last_reported":1685199956,"current_range_meters":17600,"station_id":"ce4bh012rcd13ifvqcv0","pricing_plan_id":"free"},{"bike_id":"0cd6c110-d58c-483a-b2a0-7862789ab340","system_id":"levelo_inurba_marseille","lat":43.29039,"lon":5.35906,"is_reserved":false,"is_disabled":false,"rental_uris":{"android":"levelo://app?vid=0cd6c110-d58c-483a-b2a0-7862789ab340","ios":"levelo://app?vid=0cd6c110-d58c-483a-b2a0-7862789ab340"},"vehicle_type_id":"4","last_reported":1685199956,"current_range_meters":6800,"station_id":"","pricing_plan_id":"free"},{"bike_id":"d7a20c30-0be1-49b1-867d-0234a7289bd1","system_id":"levelo_inurba_marseille","lat":43.294162,"lon":5.386292,"is_reserved":false,"is_disabled":false,"rental_uris":{"android":"levelo://app?vid=d7a20c30-0be1-49b1-867d-0234a7289bd1","ios":"levelo://app?vid=d7a20c30-0be1-49b1-867d-0234a7289bd1"},"vehicle_type_id":"4","last_reported":1685199956,"current_range_meters":5600,"station_id":"ce4bh2h2rcd13ifvqdh0","pricing_plan_id":"free"},{"bike_id":"c5a0e6b9-3e12-48da-967e-94447c61f5d3","system_id":"levelo_inurba_marseille","lat":43.295169,"lon":5.390426,"is_reserved":false,"is_disabled":false,"rental_uris":{"android":"levelo://app?vid=c5a0e6b9-3e12-48da-967e-94447c61f5d3","ios":"levelo://app?vid=c5a0e6b9-3e12-48da-967e-94447c61f5d3"},"vehicle_type_id":"4","last_reported":1685199956,"current_range_meters":7600,"station_id":"ce4bh3p2rcd13ifvqdp0","pricing_plan_id":"free"},{"bike_id":"3ae53d60-6d0e-49c3-ab95-6e429484caa4","system_id":"levelo_inurba_marseille","lat":43.29027,"lon":5.38132,"is_reserved":false,"is_disabled":false,"rental_uris":{"android":"levelo://app?vid=3ae53d60-6d0e-49c3-ab95-6e429484caa4","ios":"levelo://app?vid=3ae53d60-6d0e-49c3-ab95-6e429484caa4"},"vehicle_type_id":"4","last_reported":1685199956,"current_range_meters":23600,"station_id":"ce4bh4p2rcd13ifvqe1g","pricing_plan_id":"free"},{"bike_id":"d0b75161-c4ec-4b0c-a449-64d37578947f","system_id":"levelo_inurba_marseille","lat":43.28856,"lon":5.358371,"is_reserved":false,"is_disabled":false,"rental_uris":{"android":"levelo://app?vid=d0b75161-c4ec-4b0c-a449-64d37578947f","ios":"levelo://app?vid=d0b75161-c4ec-4b0c-a449-64d37578947f"},"vehicle_type_id":"4","last_reported":1685199956,"current_range_meters":800,"station_id":"ce4bhb12rcd13ifvqem0","pricing_plan_id":"free"},{"bike_id":"c67b547c-3fcb-4384-8614-e15f558fec55","system_id":"levelo_inurba_marseille","lat":43.33744,"lon":5.37451,"is_reserved":false,"is_disabled":false,"rental_uris":{"android":"levelo://app?vid=c67b547c-3fcb-4384-8614-e15f558fec55","ios":"levelo://app?vid=c67b547c-3fcb-4384-8614-e15f558fec55"},"vehicle_type_id":"4","last_reported":1685199956,"current_range_meters":30800,"station_id":"","pricing_plan_id":"free"},{"bike_id":"556c6db1-2600-4c2b-9521-aae8453517c1","system_id":"levelo_inurba_marseille","lat":43.33754,"lon":5.37438,"is_reserved":false,"is_disabled":false,"rental_uris":{"android":"levelo://app?vid=556c6db1-2600-4c2b-9521-aae8453517c1","ios":"levelo://app?vid=556c6db1-2600-4c2b-9521-aae8453517c1"},"vehicle_type_id":"4","last_reported":1685199956,"current_range_meters":17600,"station_id":"","pricing_plan_id":"free"},{"bike_id":"141c14ea-594b-43ee-894e-8c44af1dcd73","system_id":"levelo_inurba_marseille","lat":43.33754,"lon":5.37439,"is_reserved":false,"is_disabled":false,"rental_uris":{"android":"levelo://app?vid=141c14ea-594b-43ee-894e-8c44af1dcd73","ios":"levelo://app?vid=141c14ea-594b-43ee-894e-8c44af1dcd73"},"vehicle_type_id":"4","last_reported":1685199956,"current_range_meters":11600,"station_id":"","pricing_plan_id":"free"},{"bike_id":"4a9be2f7-5d74-4d13-b74a-62d2aef957fc","system_id":"levelo_inurba_marseille","lat":43.337564,"lon":5.374517,"is_reserved":false,"is_disabled":false,"rental_uris":{"android":"levelo://app?vid=4a9be2f7-5d74-4d13-b74a-62d2aef957fc","ios":"levelo://app?vid=4a9be2f7-5d74-4d13-b74a-62d2aef957fc"},"vehicle_type_id":"4","last_reported":1685199956,"current_range_meters":30400,"station_id":"","pricing_plan_id":"free"},{"bike_id":"21bebb90-bd37-4351-9ead-f26273aea005","system_id":"levelo_inurba_marseille","lat":43.33764,"lon":5.37434,"is_reserved":false,"is_disabled":false,"rental_uris":{"android":"levelo://app?vid=21bebb90-bd37-4351-9ead-f26273aea005","ios":"levelo://app?vid=21bebb90-bd37-4351-9ead-f26273aea005"},"vehicle_type_id":"4","last_reported":1685199956,"current_range_meters":15600,"station_id":"","pricing_plan_id":"free"},{"bike_id":"5aaf445f-f097-4041-99e9-0b2edc8a39b1","system_id":"levelo_inurba_marseille","lat":43.33763,"lon":5.37444,"is_reserved":false,"is_disabled":false,"rental_uris":{"android":"levelo://app?vid=5aaf445f-f097-4041-99e9-0b2edc8a39b1","ios":"levelo://app?vid=5aaf445f-f097-4041-99e9-0b2edc8a39b1"},"vehicle_type_id":"4","last_reported":1685199956,"current_range_meters":24400,"station_id":"","pricing_plan_id":"free"},{"bike_id":"9e8ba907-b276-46b3-a0d4-643791b8cf62","system_id":"levelo_inurba_marseille","lat":43.33763,"lon":5.37446,"is_reserved":false,"is_disabled":false,"rental_uris":{"android":"levelo://app?vid=9e8ba907-b276-46b3-a0d4-643791b8cf62","ios":"levelo://app?vid=9e8ba907-b276-46b3-a0d4-643791b8cf62"},"vehicle_type_id":"4","last_reported":1685199956,"current_range_meters":30400,"station_id":"","pricing_plan_id":"free"},{"bike_id":"582209f6-16d7-4851-9900-1836279060e2","system_id":"levelo_inurba_marseille","lat":43.28672,"lon":5.36356,"is_reserved":false,"is_disabled":false,"rental_uris":{"android":"levelo://app?vid=582209f6-16d7-4851-9900-1836279060e2","ios":"levelo://app?vid=582209f6-16d7-4851-9900-1836279060e2"},"vehicle_type_id":"4","last_reported":1685199956,"current_range_meters":0,"station_id":"ce4bhah2rcd13ifvqej0","pricing_plan_id":"free"},{"bike_id":"8b8a0d28-bc87-4a37-b87f-5a7b83f687bb","system_id":"levelo_inurba_marseille","lat":43.286039,"lon":5.370681,"is_reserved":false,"is_disabled":false,"rental_uris":{"android":"levelo://app?vid=8b8a0d28-bc87-4a37-b87f-5a7b83f687bb","ios":"levelo://app?vid=8b8a0d28-bc87-4a37-b87f-5a7b83f687bb"},"vehicle_type_id":"4","last_reported":1685199956,"current_range_meters":400,"station_id":"ce4bht12rcd13ifvqi60","pricing_plan_id":"free"},{"bike_id":"58f32c36-4055-435f-b5e3-6eefb2dbfc82","system_id":"levelo_inurba_marseille","lat":43.287184,"lon":5.37937,"is_reserved":false,"is_disabled":false,"rental_uris":{"android":"levelo://app?vid=58f32c36-4055-435f-b5e3-6eefb2dbfc82","ios":"levelo://app?vid=58f32c36-4055-435f-b5e3-6eefb2dbfc82"},"vehicle_type_id":"4","last_reported":1685199956,"current_range_meters":22800,"station_id":"ce4bh9p2rcd13ifvqec0","pricing_plan_id":"free"},{"bike_id":"807cd98a-e9b6-4d53-a0db-16bc0835c7af","system_id":"levelo_inurba_marseille","lat":43.3165,"lon":5.40437,"is_reserved":false,"is_disabled":false,"rental_uris":{"android":"levelo://app?vid=807cd98a-e9b6-4d53-a0db-16bc0835c7af","ios":"levelo://app?vid=807cd98a-e9b6-4d53-a0db-16bc0835c7af"},"vehicle_type_id":"4","last_reported":1685199956,"current_range_meters":9200,"station_id":"ce4bh012rcd13ifvqd00","pricing_plan_id":"free"},{"bike_id":"4ebe09ea-bbd9-477a-ad27-805daef49ec1","system_id":"levelo_inurba_marseille","lat":43.3164,"lon":5.40439,"is_reserved":false,"is_disabled":false,"rental_uris":{"android":"levelo://app?vid=4ebe09ea-bbd9-477a-ad27-805daef49ec1","ios":"levelo://app?vid=4ebe09ea-bbd9-477a-ad27-805daef49ec1"},"vehicle_type_id":"4","last_reported":1685199956,"current_range_meters":0,"station_id":"ce4bh012rcd13ifvqd00","pricing_plan_id":"free"},{"bike_id":"6ed3e2fa-b945-4b6d-aaca-93df5e08e1f1","system_id":"levelo_inurba_marseille","lat":43.291994,"lon":5.392907,"is_reserved":false,"is_disabled":false,"rental_uris":{"android":"levelo://app?vid=6ed3e2fa-b945-4b6d-aaca-93df5e08e1f1","ios":"levelo://app?vid=6ed3e2fa-b945-4b6d-aaca-93df5e08e1f1"},"vehicle_type_id":"4","last_reported":1685199956,"current_range_meters":10800,"station_id":"ce4bh192rcd13ifvqdd0","pricing_plan_id":"free"},{"bike_id":"89be1ba2-ddab-4132-8fb4-7feaf264fb05","system_id":"levelo_inurba_marseille","lat":43.284534,"lon":5.358662,"is_reserved":false,"is_disabled":false,"rental_uris":{"android":"levelo://app?vid=89be1ba2-ddab-4132-8fb4-7feaf264fb05","ios":"levelo://app?vid=89be1ba2-ddab-4132-8fb4-7feaf264fb05"},"vehicle_type_id":"4","last_reported":1685199956,"current_range_meters":3200,"station_id":"ce4bhah2rcd13ifvqei0","pricing_plan_id":"free"},{"bike_id":"51949f4f-7af1-4a36-ad59-3b1a959bc2f5","system_id":"levelo_inurba_marseille","lat":43.285856,"lon":5.350771,"is_reserved":false,"is_disabled":false,"rental_uris":{"android":"levelo://app?vid=51949f4f-7af1-4a36-ad59-3b1a959bc2f5","ios":"levelo://app?vid=51949f4f-7af1-4a36-ad59-3b1a959bc2f5"},"vehicle_type_id":"4","last_reported":1685199956,"current_range_meters":4800,"station_id":"ce4bhch2rcd13ifvqeug","pricing_plan_id":"free"},{"bike_id":"6a6f933c-156f-4fea-8dd2-53b2598366e2","system_id":"levelo_inurba_marseille","lat":43.286595,"lon":5.386795,"is_reserved":false,"is_disabled":false,"rental_uris":{"android":"levelo://app?vid=6a6f933c-156f-4fea-8dd2-53b2598366e2","ios":"levelo://app?vid=6a6f933c-156f-4fea-8dd2-53b2598366e2"},"vehicle_type_id":"4","last_reported":1685199956,"current_range_meters":0,"station_id":"ce4bh492rcd13ifvqdug","pricing_plan_id":"free"},{"bike_id":"313049e2-232c-4f54-9b26-81086cea8884","system_id":"levelo_inurba_marseille","lat":43.33724,"lon":5.39183,"is_reserved":false,"is_disabled":false,"rental_uris":{"android":"levelo://app?vid=313049e2-232c-4f54-9b26-81086cea8884","ios":"levelo://app?vid=313049e2-232c-4f54-9b26-81086cea8884"},"vehicle_type_id":"4","last_reported":1685199956,"current_range_meters":8400,"station_id":"","pricing_plan_id":"free"},{"bike_id":"e8d17731-68f3-44b5-9065-c07996775097","system_id":"levelo_inurba_marseille","lat":43.323464,"lon":5.406297,"is_reserved":false,"is_disabled":false,"rental_uris":{"android":"levelo://app?vid=e8d17731-68f3-44b5-9065-c07996775097","ios":"levelo://app?vid=e8d17731-68f3-44b5-9065-c07996775097"},"vehicle_type_id":"4","last_reported":1685199956,"current_range_meters":22800,"station_id":"ce4bhq92rcd13ifvqhjg","pricing_plan_id":"free"},{"bike_id":"24d91daf-b85d-413a-943f-4f0c96bd97b9","system_id":"levelo_inurba_marseille","lat":43.28421,"lon":5.34982,"is_reserved":false,"is_disabled":false,"rental_uris":{"android":"levelo://app?vid=24d91daf-b85d-413a-943f-4f0c96bd97b9","ios":"levelo://app?vid=24d91daf-b85d-413a-943f-4f0c96bd97b9"},"vehicle_type_id":"4","last_reported":1685199956,"current_range_meters":24400,"station_id":"ce4bhbh2rcd13ifvqepg","pricing_plan_id":"free"},{"bike_id":"6f67daa0-9692-4f37-9dbd-79934456601c","system_id":"levelo_inurba_marseille","lat":43.284217,"lon":5.349697,"is_reserved":false,"is_disabled":false,"rental_uris":{"android":"levelo://app?vid=6f67daa0-9692-4f37-9dbd-79934456601c","ios":"levelo://app?vid=6f67daa0-9692-4f37-9dbd-79934456601c"},"vehicle_type_id":"4","last_reported":1685199956,"current_range_meters":2800,"station_id":"ce4bhbh2rcd13ifvqepg","pricing_plan_id":"free"},{"bike_id":"8424e3dc-7f1f-4c18-a24d-d9ec17d150ac","system_id":"levelo_inurba_marseille","lat":43.28347,"lon":5.35037,"is_reserved":false,"is_disabled":false,"rental_uris":{"android":"levelo://app?vid=8424e3dc-7f1f-4c18-a24d-d9ec17d150ac","ios":"levelo://app?vid=8424e3dc-7f1f-4c18-a24d-d9ec17d150ac"},"vehicle_type_id":"4","last_reported":1685199956,"current_range_meters":31200,"station_id":"","pricing_plan_id":"free"},{"bike_id":"f707bbef-e380-40cd-9415-1b2ca48a969a","system_id":"levelo_inurba_marseille","lat":43.28271,"lon":5.35069,"is_reserved":false,"is_disabled":false,"rental_uris":{"android":"levelo://app?vid=f707bbef-e380-40cd-9415-1b2ca48a969a","ios":"levelo://app?vid=f707bbef-e380-40cd-9415-1b2ca48a969a"},"vehicle_type_id":"4","last_reported":1685199956,"current_range_meters":22800,"station_id":"ce4bhbp2rcd13ifvqerg","pricing_plan_id":"free"},{"bike_id":"0e76380e-1b7e-462c-8992-fbacf887884a","system_id":"levelo_inurba_marseille","lat":43.28271,"lon":5.35065,"is_reserved":false,"is_disabled":false,"rental_uris":{"android":"levelo://app?vid=0e76380e-1b7e-462c-8992-fbacf887884a","ios":"levelo://app?vid=0e76380e-1b7e-462c-8992-fbacf887884a"},"vehicle_type_id":"4","last_reported":1685199956,"current_range_meters":26800,"station_id":"ce4bhbp2rcd13ifvqerg","pricing_plan_id":"free"},{"bike_id":"53c91a9f-cd29-4b1e-889c-f391301d4ec1","system_id":"levelo_inurba_marseille","lat":43.282744,"lon":5.350533,"is_reserved":false,"is_disabled":false,"rental_uris":{"android":"levelo://app?vid=53c91a9f-cd29-4b1e-889c-f391301d4ec1","ios":"levelo://app?vid=53c91a9f-cd29-4b1e-889c-f391301d4ec1"},"vehicle_type_id":"4","last_reported":1685199956,"current_range_meters":7600,"station_id":"ce4bhbp2rcd13ifvqerg","pricing_plan_id":"free"},{"bike_id":"b81a7f33-b886-4afb-a338-637469704296","system_id":"levelo_inurba_marseille","lat":43.282744,"lon":5.350533,"is_reserved":false,"is_disabled":false,"rental_uris":{"android":"levelo://app?vid=b81a7f33-b886-4afb-a338-637469704296","ios":"levelo://app?vid=b81a7f33-b886-4afb-a338-637469704296"},"vehicle_type_id":"4","last_reported":1685199956,"current_range_meters":28400,"station_id":"ce4bhbp2rcd13ifvqerg","pricing_plan_id":"free"},{"bike_id":"a20e8331-f48f-490c-b87e-d32a284d2659","system_id":"levelo_inurba_marseille","lat":43.282744,"lon":5.350533,"is_reserved":false,"is_disabled":false,"rental_uris":{"android":"levelo://app?vid=a20e8331-f48f-490c-b87e-d32a284d2659","ios":"levelo://app?vid=a20e8331-f48f-490c-b87e-d32a284d2659"},"vehicle_type_id":"4","last_reported":1685199956,"current_range_meters":26800,"station_id":"ce4bhbp2rcd13ifvqerg","pricing_plan_id":"free"},{"bike_id":"2b840ec7-1aca-41c9-bbe6-25301a969da9","system_id":"levelo_inurba_marseille","lat":43.28039,"lon":5.369297,"is_reserved":false,"is_disabled":false,"rental_uris":{"android":"levelo://app?vid=2b840ec7-1aca-41c9-bbe6-25301a969da9","ios":"levelo://app?vid=2b840ec7-1aca-41c9-bbe6-25301a969da9"},"vehicle_type_id":"4","last_reported":1685199956,"current_range_meters":27200,"station_id":"ce4bha12rcd13ifvqef0","pricing_plan_id":"free"},{"bike_id":"4d86ce40-e406-44d0-9e2e-59dcfae65e59","system_id":"levelo_inurba_marseille","lat":43.29041,"lon":5.39947,"is_reserved":false,"is_disabled":false,"rental_uris":{"android":"levelo://app?vid=4d86ce40-e406-44d0-9e2e-59dcfae65e59","ios":"levelo://app?vid=4d86ce40-e406-44d0-9e2e-59dcfae65e59"},"vehicle_type_id":"4","last_reported":1685199956,"current_range_meters":0,"station_id":"ce4bh392rcd13ifvqdm0","pricing_plan_id":"free"},{"bike_id":"6baf0eb0-f20f-401f-af0a-8a0a48ab209f","system_id":"levelo_inurba_marseille","lat":43.287154,"lon":5.399979,"is_reserved":false,"is_disabled":false,"rental_uris":{"android":"levelo://app?vid=6baf0eb0-f20f-401f-af0a-8a0a48ab209f","ios":"levelo://app?vid=6baf0eb0-f20f-401f-af0a-8a0a48ab209f"},"vehicle_type_id":"4","last_reported":1685199956,"current_range_meters":13600,"station_id":"ce4bho92rcd13ifvqh3g","pricing_plan_id":"free"},{"bike_id":"ba4bc1e4-c7c7-4158-a67d-8a88eaa9e9c0","system_id":"levelo_inurba_marseille","lat":43.287061,"lon":5.399911,"is_reserved":false,"is_disabled":false,"rental_uris":{"android":"levelo://app?vid=ba4bc1e4-c7c7-4158-a67d-8a88eaa9e9c0","ios":"levelo://app?vid=ba4bc1e4-c7c7-4158-a67d-8a88eaa9e9c0"},"vehicle_type_id":"4","last_reported":1685199956,"current_range_meters":800,"station_id":"","pricing_plan_id":"free"},{"bike_id":"a3c67084-f723-4b87-8f3d-1beafa6103e4","system_id":"levelo_inurba_marseille","lat":43.287154,"lon":5.399979,"is_reserved":false,"is_disabled":false,"rental_uris":{"android":"levelo://app?vid=a3c67084-f723-4b87-8f3d-1beafa6103e4","ios":"levelo://app?vid=a3c67084-f723-4b87-8f3d-1beafa6103e4"},"vehicle_type_id":"4","last_reported":1685199956,"current_range_meters":10400,"station_id":"ce4bho92rcd13ifvqh3g","pricing_plan_id":"free"},{"bike_id":"eff47657-300c-4e3e-bdc3-45dc56ac072b","system_id":"levelo_inurba_marseille","lat":43.292569,"lon":5.409107,"is_reserved":false,"is_disabled":false,"rental_uris":{"android":"levelo://app?vid=eff47657-300c-4e3e-bdc3-45dc56ac072b","ios":"levelo://app?vid=eff47657-300c-4e3e-bdc3-45dc56ac072b"},"vehicle_type_id":"4","last_reported":1685199956,"current_range_meters":18800,"station_id":"ce4bh192rcd13ifvqdc0","pricing_plan_id":"free"},{"bike_id":"678eda71-0f53-4cb0-9b3c-98463b65b60b","system_id":"levelo_inurba_marseille","lat":43.292569,"lon":5.409107,"is_reserved":false,"is_disabled":false,"rental_uris":{"android":"levelo://app?vid=678eda71-0f53-4cb0-9b3c-98463b65b60b","ios":"levelo://app?vid=678eda71-0f53-4cb0-9b3c-98463b65b60b"},"vehicle_type_id":"4","last_reported":1685199956,"current_range_meters":26400,"station_id":"ce4bh192rcd13ifvqdc0","pricing_plan_id":"free"},{"bike_id":"bb0f08f9-614e-4eb6-8929-65b50933c619","system_id":"levelo_inurba_marseille","lat":43.27625,"lon":5.36113,"is_reserved":false,"is_disabled":false,"rental_uris":{"android":"levelo://app?vid=bb0f08f9-614e-4eb6-8929-65b50933c619","ios":"levelo://app?vid=bb0f08f9-614e-4eb6-8929-65b50933c619"},"vehicle_type_id":"4","last_reported":1685199956,"current_range_meters":17600,"station_id":"ce4bgj92rcd13ifvqbe0","pricing_plan_id":"free"},{"bike_id":"585d87b2-13eb-4ebb-882a-24e7d7c507b8","system_id":"levelo_inurba_marseille","lat":43.27621,"lon":5.36117,"is_reserved":false,"is_disabled":false,"rental_uris":{"android":"levelo://app?vid=585d87b2-13eb-4ebb-882a-24e7d7c507b8","ios":"levelo://app?vid=585d87b2-13eb-4ebb-882a-24e7d7c507b8"},"vehicle_type_id":"4","last_reported":1685199956,"current_range_meters":2000,"station_id":"ce4bgj92rcd13ifvqbe0","pricing_plan_id":"free"},{"bike_id":"c5c38cc6-5160-486c-a0bb-b1d6abff2b8e","system_id":"levelo_inurba_marseille","lat":43.27621,"lon":5.36109,"is_reserved":false,"is_disabled":false,"rental_uris":{"android":"levelo://app?vid=c5c38cc6-5160-486c-a0bb-b1d6abff2b8e","ios":"levelo://app?vid=c5c38cc6-5160-486c-a0bb-b1d6abff2b8e"},"vehicle_type_id":"4","last_reported":1685199956,"current_range_meters":4800,"station_id":"ce4bgj92rcd13ifvqbe0","pricing_plan_id":"free"},{"bike_id":"29f0a3bf-4d58-421d-88da-065a42cf8a0d","system_id":"levelo_inurba_marseille","lat":43.32538,"lon":5.41444,"is_reserved":false,"is_disabled":false,"rental_uris":{"android":"levelo://app?vid=29f0a3bf-4d58-421d-88da-065a42cf8a0d","ios":"levelo://app?vid=29f0a3bf-4d58-421d-88da-065a42cf8a0d"},"vehicle_type_id":"4","last_reported":1685199956,"current_range_meters":20000,"station_id":"","pricing_plan_id":"free"},{"bike_id":"030686b0-ad6c-4213-a61b-df2f2c473531","system_id":"levelo_inurba_marseille","lat":43.27617,"lon":5.36116,"is_reserved":false,"is_disabled":false,"rental_uris":{"android":"levelo://app?vid=030686b0-ad6c-4213-a61b-df2f2c473531","ios":"levelo://app?vid=030686b0-ad6c-4213-a61b-df2f2c473531"},"vehicle_type_id":"4","last_reported":1685199956,"current_range_meters":6400,"station_id":"ce4bgj92rcd13ifvqbe0","pricing_plan_id":"free"},{"bike_id":"432f9806-f612-4daf-8448-bb7e79894b7c","system_id":"levelo_inurba_marseille","lat":43.27617,"lon":5.36109,"is_reserved":false,"is_disabled":false,"rental_uris":{"android":"levelo://app?vid=432f9806-f612-4daf-8448-bb7e79894b7c","ios":"levelo://app?vid=432f9806-f612-4daf-8448-bb7e79894b7c"},"vehicle_type_id":"4","last_reported":1685199956,"current_range_meters":23600,"station_id":"ce4bgj92rcd13ifvqbe0","pricing_plan_id":"free"},{"bike_id":"7661bca5-e0b2-41fd-9c7e-8f1cb9507ce0","system_id":"levelo_inurba_marseille","lat":43.27468,"lon":5.36028,"is_reserved":false,"is_disabled":false,"rental_uris":{"android":"levelo://app?vid=7661bca5-e0b2-41fd-9c7e-8f1cb9507ce0","ios":"levelo://app?vid=7661bca5-e0b2-41fd-9c7e-8f1cb9507ce0"},"vehicle_type_id":"4","last_reported":1685199956,"current_range_meters":20400,"station_id":"","pricing_plan_id":"free"},{"bike_id":"8cd0731a-1b0b-4565-a78d-7dcb6b62e018","system_id":"levelo_inurba_marseille","lat":43.273613,"lon":5.362705,"is_reserved":false,"is_disabled":false,"rental_uris":{"android":"levelo://app?vid=8cd0731a-1b0b-4565-a78d-7dcb6b62e018","ios":"levelo://app?vid=8cd0731a-1b0b-4565-a78d-7dcb6b62e018"},"vehicle_type_id":"4","last_reported":1685199956,"current_range_meters":15600,"station_id":"ce4bhbh2rcd13ifvqeo0","pricing_plan_id":"free"},{"bike_id":"c64178c6-3bec-407d-bdd6-653db11a143a","system_id":"levelo_inurba_marseille","lat":43.27382,"lon":5.36251,"is_reserved":false,"is_disabled":false,"rental_uris":{"android":"levelo://app?vid=c64178c6-3bec-407d-bdd6-653db11a143a","ios":"levelo://app?vid=c64178c6-3bec-407d-bdd6-653db11a143a"},"vehicle_type_id":"4","last_reported":1685199956,"current_range_meters":31200,"station_id":"","pricing_plan_id":"free"},{"bike_id":"2b353646-c277-488e-b088-37e212d061d0","system_id":"levelo_inurba_marseille","lat":43.273613,"lon":5.362705,"is_reserved":false,"is_disabled":false,"rental_uris":{"android":"levelo://app?vid=2b353646-c277-488e-b088-37e212d061d0","ios":"levelo://app?vid=2b353646-c277-488e-b088-37e212d061d0"},"vehicle_type_id":"4","last_reported":1685199956,"current_range_meters":30400,"station_id":"ce4bhbh2rcd13ifvqeo0","pricing_plan_id":"free"},{"bike_id":"64266a8a-0d79-438f-ba89-19693eb83af6","system_id":"levelo_inurba_marseille","lat":43.273613,"lon":5.362705,"is_reserved":false,"is_disabled":false,"rental_uris":{"android":"levelo://app?vid=64266a8a-0d79-438f-ba89-19693eb83af6","ios":"levelo://app?vid=64266a8a-0d79-438f-ba89-19693eb83af6"},"vehicle_type_id":"4","last_reported":1685199956,"current_range_meters":31200,"station_id":"ce4bhbh2rcd13ifvqeo0","pricing_plan_id":"free"},{"bike_id":"2323cbba-c89c-4612-803c-520f9cd92387","system_id":"levelo_inurba_marseille","lat":43.27379,"lon":5.36257,"is_reserved":false,"is_disabled":false,"rental_uris":{"android":"levelo://app?vid=2323cbba-c89c-4612-803c-520f9cd92387","ios":"levelo://app?vid=2323cbba-c89c-4612-803c-520f9cd92387"},"vehicle_type_id":"4","last_reported":1685199956,"current_range_meters":3600,"station_id":"ce4bhbh2rcd13ifvqeo0","pricing_plan_id":"free"},{"bike_id":"04aa8ae9-c4f6-4876-a363-445a08b8d7ab","system_id":"levelo_inurba_marseille","lat":43.273609,"lon":5.362708,"is_reserved":false,"is_disabled":false,"rental_uris":{"android":"levelo://app?vid=04aa8ae9-c4f6-4876-a363-445a08b8d7ab","ios":"levelo://app?vid=04aa8ae9-c4f6-4876-a363-445a08b8d7ab"},"vehicle_type_id":"4","last_reported":1685199956,"current_range_meters":31200,"station_id":"ce4bhbh2rcd13ifvqeo0","pricing_plan_id":"free"},{"bike_id":"b858e505-67d4-4faf-933e-10a991e7d6bf","system_id":"levelo_inurba_marseille","lat":43.273613,"lon":5.362705,"is_reserved":false,"is_disabled":false,"rental_uris":{"android":"levelo://app?vid=b858e505-67d4-4faf-933e-10a991e7d6bf","ios":"levelo://app?vid=b858e505-67d4-4faf-933e-10a991e7d6bf"},"vehicle_type_id":"4","last_reported":1685199956,"current_range_meters":31200,"station_id":"ce4bhbh2rcd13ifvqeo0","pricing_plan_id":"free"},{"bike_id":"0a3dfa48-b8b7-40d2-8eef-1bc352909a6f","system_id":"levelo_inurba_marseille","lat":43.273613,"lon":5.362705,"is_reserved":false,"is_disabled":false,"rental_uris":{"android":"levelo://app?vid=0a3dfa48-b8b7-40d2-8eef-1bc352909a6f","ios":"levelo://app?vid=0a3dfa48-b8b7-40d2-8eef-1bc352909a6f"},"vehicle_type_id":"4","last_reported":1685199956,"current_range_meters":30000,"station_id":"ce4bhbh2rcd13ifvqeo0","pricing_plan_id":"free"},{"bike_id":"2028d74c-b028-4d02-81ec-89d1f0c47a19","system_id":"levelo_inurba_marseille","lat":43.273613,"lon":5.362705,"is_reserved":false,"is_disabled":false,"rental_uris":{"android":"levelo://app?vid=2028d74c-b028-4d02-81ec-89d1f0c47a19","ios":"levelo://app?vid=2028d74c-b028-4d02-81ec-89d1f0c47a19"},"vehicle_type_id":"4","last_reported":1685199956,"current_range_meters":31200,"station_id":"ce4bhbh2rcd13ifvqeo0","pricing_plan_id":"free"},{"bike_id":"cd18e5cd-0880-4fe7-a6d1-fb38556b3866","system_id":"levelo_inurba_marseille","lat":43.273613,"lon":5.362705,"is_reserved":false,"is_disabled":false,"rental_uris":{"android":"levelo://app?vid=cd18e5cd-0880-4fe7-a6d1-fb38556b3866","ios":"levelo://app?vid=cd18e5cd-0880-4fe7-a6d1-fb38556b3866"},"vehicle_type_id":"4","last_reported":1685199956,"current_range_meters":22000,"station_id":"ce4bhbh2rcd13ifvqeo0","pricing_plan_id":"free"},{"bike_id":"0d09d882-57a4-419a-806a-daaade0fb2ac","system_id":"levelo_inurba_marseille","lat":43.273613,"lon":5.362705,"is_reserved":false,"is_disabled":false,"rental_uris":{"android":"levelo://app?vid=0d09d882-57a4-419a-806a-daaade0fb2ac","ios":"levelo://app?vid=0d09d882-57a4-419a-806a-daaade0fb2ac"},"vehicle_type_id":"4","last_reported":1685199956,"current_range_meters":26000,"station_id":"ce4bhbh2rcd13ifvqeo0","pricing_plan_id":"free"},{"bike_id":"fc586ce6-49db-4250-aac2-a50a23d224cc","system_id":"levelo_inurba_marseille","lat":43.273613,"lon":5.362705,"is_reserved":false,"is_disabled":false,"rental_uris":{"android":"levelo://app?vid=fc586ce6-49db-4250-aac2-a50a23d224cc","ios":"levelo://app?vid=fc586ce6-49db-4250-aac2-a50a23d224cc"},"vehicle_type_id":"4","last_reported":1685199956,"current_range_meters":31600,"station_id":"ce4bhbh2rcd13ifvqeo0","pricing_plan_id":"free"},{"bike_id":"5bf64b73-5bf4-4b7e-bb39-2d4efa71d17c","system_id":"levelo_inurba_marseille","lat":43.273613,"lon":5.362705,"is_reserved":false,"is_disabled":false,"rental_uris":{"android":"levelo://app?vid=5bf64b73-5bf4-4b7e-bb39-2d4efa71d17c","ios":"levelo://app?vid=5bf64b73-5bf4-4b7e-bb39-2d4efa71d17c"},"vehicle_type_id":"4","last_reported":1685199956,"current_range_meters":31200,"station_id":"ce4bhbh2rcd13ifvqeo0","pricing_plan_id":"free"},{"bike_id":"ac1a4ed9-4de7-4750-b01f-d401de909c55","system_id":"levelo_inurba_marseille","lat":43.273609,"lon":5.362708,"is_reserved":false,"is_disabled":false,"rental_uris":{"android":"levelo://app?vid=ac1a4ed9-4de7-4750-b01f-d401de909c55","ios":"levelo://app?vid=ac1a4ed9-4de7-4750-b01f-d401de909c55"},"vehicle_type_id":"4","last_reported":1685199956,"current_range_meters":23600,"station_id":"ce4bhbh2rcd13ifvqeo0","pricing_plan_id":"free"},{"bike_id":"93a42f9c-2731-44bd-842d-905e8f2865cf","system_id":"levelo_inurba_marseille","lat":43.273609,"lon":5.362708,"is_reserved":false,"is_disabled":false,"rental_uris":{"android":"levelo://app?vid=93a42f9c-2731-44bd-842d-905e8f2865cf","ios":"levelo://app?vid=93a42f9c-2731-44bd-842d-905e8f2865cf"},"vehicle_type_id":"4","last_reported":1685199956,"current_range_meters":20400,"station_id":"ce4bhbh2rcd13ifvqeo0","pricing_plan_id":"free"},{"bike_id":"bc298bfe-7533-44d4-b4e5-9a5265c8549d","system_id":"levelo_inurba_marseille","lat":43.273609,"lon":5.362708,"is_reserved":false,"is_disabled":false,"rental_uris":{"android":"levelo://app?vid=bc298bfe-7533-44d4-b4e5-9a5265c8549d","ios":"levelo://app?vid=bc298bfe-7533-44d4-b4e5-9a5265c8549d"},"vehicle_type_id":"4","last_reported":1685199956,"current_range_meters":12000,"station_id":"ce4bhbh2rcd13ifvqeo0","pricing_plan_id":"free"},{"bike_id":"9b4d6139-c440-4dbf-a376-1f35bc74391a","system_id":"levelo_inurba_marseille","lat":43.273613,"lon":5.362705,"is_reserved":false,"is_disabled":false,"rental_uris":{"android":"levelo://app?vid=9b4d6139-c440-4dbf-a376-1f35bc74391a","ios":"levelo://app?vid=9b4d6139-c440-4dbf-a376-1f35bc74391a"},"vehicle_type_id":"4","last_reported":1685199956,"current_range_meters":31200,"station_id":"ce4bhbh2rcd13ifvqeo0","pricing_plan_id":"free"},{"bike_id":"8852d9be-9ee0-44ae-b2b8-754c0559ce7f","system_id":"levelo_inurba_marseille","lat":43.273613,"lon":5.362705,"is_reserved":false,"is_disabled":false,"rental_uris":{"android":"levelo://app?vid=8852d9be-9ee0-44ae-b2b8-754c0559ce7f","ios":"levelo://app?vid=8852d9be-9ee0-44ae-b2b8-754c0559ce7f"},"vehicle_type_id":"4","last_reported":1685199956,"current_range_meters":28400,"station_id":"ce4bhbh2rcd13ifvqeo0","pricing_plan_id":"free"},{"bike_id":"bab4cb6e-ec8a-4a5d-9bda-de635dc33d39","system_id":"levelo_inurba_marseille","lat":43.273613,"lon":5.362705,"is_reserved":false,"is_disabled":false,"rental_uris":{"android":"levelo://app?vid=bab4cb6e-ec8a-4a5d-9bda-de635dc33d39","ios":"levelo://app?vid=bab4cb6e-ec8a-4a5d-9bda-de635dc33d39"},"vehicle_type_id":"4","last_reported":1685199956,"current_range_meters":30000,"station_id":"ce4bhbh2rcd13ifvqeo0","pricing_plan_id":"free"},{"bike_id":"34073aea-789f-49ad-ba35-56789ebe3734","system_id":"levelo_inurba_marseille","lat":43.27375,"lon":5.36255,"is_reserved":false,"is_disabled":false,"rental_uris":{"android":"levelo://app?vid=34073aea-789f-49ad-ba35-56789ebe3734","ios":"levelo://app?vid=34073aea-789f-49ad-ba35-56789ebe3734"},"vehicle_type_id":"4","last_reported":1685199956,"current_range_meters":19600,"station_id":"ce4bhbh2rcd13ifvqeo0","pricing_plan_id":"free"},{"bike_id":"9f81a7f7-af0b-4ce1-bfe5-6c69ada152d7","system_id":"levelo_inurba_marseille","lat":43.27374,"lon":5.36249,"is_reserved":false,"is_disabled":false,"rental_uris":{"android":"levelo://app?vid=9f81a7f7-af0b-4ce1-bfe5-6c69ada152d7","ios":"levelo://app?vid=9f81a7f7-af0b-4ce1-bfe5-6c69ada152d7"},"vehicle_type_id":"4","last_reported":1685199956,"current_range_meters":31200,"station_id":"ce4bhbh2rcd13ifvqeo0","pricing_plan_id":"free"},{"bike_id":"d5522b58-18f5-43a4-92d1-6928c14f5ac0","system_id":"levelo_inurba_marseille","lat":43.273609,"lon":5.362708,"is_reserved":false,"is_disabled":false,"rental_uris":{"android":"levelo://app?vid=d5522b58-18f5-43a4-92d1-6928c14f5ac0","ios":"levelo://app?vid=d5522b58-18f5-43a4-92d1-6928c14f5ac0"},"vehicle_type_id":"4","last_reported":1685199956,"current_range_meters":27600,"station_id":"ce4bhbh2rcd13ifvqeo0","pricing_plan_id":"free"},{"bike_id":"738eaf80-3d78-4b66-b3c4-e4645223176b","system_id":"levelo_inurba_marseille","lat":43.273609,"lon":5.362708,"is_reserved":false,"is_disabled":false,"rental_uris":{"android":"levelo://app?vid=738eaf80-3d78-4b66-b3c4-e4645223176b","ios":"levelo://app?vid=738eaf80-3d78-4b66-b3c4-e4645223176b"},"vehicle_type_id":"4","last_reported":1685199956,"current_range_meters":31200,"station_id":"ce4bhbh2rcd13ifvqeo0","pricing_plan_id":"free"},{"bike_id":"60a161ad-252d-42d6-bc5c-775469cc9fcb","system_id":"levelo_inurba_marseille","lat":43.273609,"lon":5.362708,"is_reserved":false,"is_disabled":false,"rental_uris":{"android":"levelo://app?vid=60a161ad-252d-42d6-bc5c-775469cc9fcb","ios":"levelo://app?vid=60a161ad-252d-42d6-bc5c-775469cc9fcb"},"vehicle_type_id":"4","last_reported":1685199956,"current_range_meters":28400,"station_id":"ce4bhbh2rcd13ifvqeo0","pricing_plan_id":"free"},{"bike_id":"701ff1a6-ec9f-4638-b84a-287aa4bdec3e","system_id":"levelo_inurba_marseille","lat":43.273609,"lon":5.362708,"is_reserved":false,"is_disabled":false,"rental_uris":{"android":"levelo://app?vid=701ff1a6-ec9f-4638-b84a-287aa4bdec3e","ios":"levelo://app?vid=701ff1a6-ec9f-4638-b84a-287aa4bdec3e"},"vehicle_type_id":"4","last_reported":1685199956,"current_range_meters":31200,"station_id":"ce4bhbh2rcd13ifvqeo0","pricing_plan_id":"free"},{"bike_id":"e68ff55f-3b52-4c37-bc6c-a79a0c2ce2b3","system_id":"levelo_inurba_marseille","lat":43.273609,"lon":5.362708,"is_reserved":false,"is_disabled":false,"rental_uris":{"android":"levelo://app?vid=e68ff55f-3b52-4c37-bc6c-a79a0c2ce2b3","ios":"levelo://app?vid=e68ff55f-3b52-4c37-bc6c-a79a0c2ce2b3"},"vehicle_type_id":"4","last_reported":1685199956,"current_range_meters":31200,"station_id":"ce4bhbh2rcd13ifvqeo0","pricing_plan_id":"free"},{"bike_id":"40aa8bba-6aa2-465c-85b1-060c78154bc6","system_id":"levelo_inurba_marseille","lat":43.273609,"lon":5.362708,"is_reserved":false,"is_disabled":false,"rental_uris":{"android":"levelo://app?vid=40aa8bba-6aa2-465c-85b1-060c78154bc6","ios":"levelo://app?vid=40aa8bba-6aa2-465c-85b1-060c78154bc6"},"vehicle_type_id":"4","last_reported":1685199956,"current_range_meters":31200,"station_id":"ce4bhbh2rcd13ifvqeo0","pricing_plan_id":"free"},{"bike_id":"1d3c2b50-9a9d-4667-94a8-aaf5d39d9886","system_id":"levelo_inurba_marseille","lat":43.273609,"lon":5.362708,"is_reserved":false,"is_disabled":false,"rental_uris":{"android":"levelo://app?vid=1d3c2b50-9a9d-4667-94a8-aaf5d39d9886","ios":"levelo://app?vid=1d3c2b50-9a9d-4667-94a8-aaf5d39d9886"},"vehicle_type_id":"4","last_reported":1685199956,"current_range_meters":31200,"station_id":"ce4bhbh2rcd13ifvqeo0","pricing_plan_id":"free"},{"bike_id":"e72fd538-7d92-4d14-b050-461ba0e7677f","system_id":"levelo_inurba_marseille","lat":43.273609,"lon":5.362708,"is_reserved":false,"is_disabled":false,"rental_uris":{"android":"levelo://app?vid=e72fd538-7d92-4d14-b050-461ba0e7677f","ios":"levelo://app?vid=e72fd538-7d92-4d14-b050-461ba0e7677f"},"vehicle_type_id":"4","last_reported":1685199956,"current_range_meters":31200,"station_id":"ce4bhbh2rcd13ifvqeo0","pricing_plan_id":"free"},{"bike_id":"f45d15af-0c1c-4737-acff-675c5a3a347e","system_id":"levelo_inurba_marseille","lat":43.273129,"lon":5.390725,"is_reserved":false,"is_disabled":false,"rental_uris":{"android":"levelo://app?vid=f45d15af-0c1c-4737-acff-675c5a3a347e","ios":"levelo://app?vid=f45d15af-0c1c-4737-acff-675c5a3a347e"},"vehicle_type_id":"4","last_reported":1685199956,"current_range_meters":1600,"station_id":"ce4bhgp2rcd13ifvqfe0","pricing_plan_id":"free"},{"bike_id":"d24cacbc-72ad-4eb6-9817-3106d7376191","system_id":"levelo_inurba_marseille","lat":43.27316,"lon":5.39085,"is_reserved":false,"is_disabled":false,"rental_uris":{"android":"levelo://app?vid=d24cacbc-72ad-4eb6-9817-3106d7376191","ios":"levelo://app?vid=d24cacbc-72ad-4eb6-9817-3106d7376191"},"vehicle_type_id":"4","last_reported":1685199956,"current_range_meters":2400,"station_id":"ce4bhgp2rcd13ifvqfe0","pricing_plan_id":"free"},{"bike_id":"6c0b08ce-aa1a-44c4-a3c7-3d2673836a71","system_id":"levelo_inurba_marseille","lat":43.273125,"lon":5.390731,"is_reserved":false,"is_disabled":false,"rental_uris":{"android":"levelo://app?vid=6c0b08ce-aa1a-44c4-a3c7-3d2673836a71","ios":"levelo://app?vid=6c0b08ce-aa1a-44c4-a3c7-3d2673836a71"},"vehicle_type_id":"4","last_reported":1685199956,"current_range_meters":26800,"station_id":"ce4bhgp2rcd13ifvqfe0","pricing_plan_id":"free"},{"bike_id":"a33711ef-8503-4d17-9de8-f39e88ac8577","system_id":"levelo_inurba_marseille","lat":43.304096,"lon":5.425385,"is_reserved":false,"is_disabled":false,"rental_uris":{"android":"levelo://app?vid=a33711ef-8503-4d17-9de8-f39e88ac8577","ios":"levelo://app?vid=a33711ef-8503-4d17-9de8-f39e88ac8577"},"vehicle_type_id":"4","last_reported":1685199956,"current_range_meters":21600,"station_id":"ce4bhoh2rcd13ifvqh6g","pricing_plan_id":"free"},{"bike_id":"5b200729-22e5-406e-8f03-12124314a49d","system_id":"levelo_inurba_marseille","lat":43.304096,"lon":5.425385,"is_reserved":false,"is_disabled":false,"rental_uris":{"android":"levelo://app?vid=5b200729-22e5-406e-8f03-12124314a49d","ios":"levelo://app?vid=5b200729-22e5-406e-8f03-12124314a49d"},"vehicle_type_id":"4","last_reported":1685199956,"current_range_meters":16400,"station_id":"ce4bhoh2rcd13ifvqh6g","pricing_plan_id":"free"},{"bike_id":"194d0731-9c3d-4111-875b-99cf3e7c97aa","system_id":"levelo_inurba_marseille","lat":43.304096,"lon":5.425385,"is_reserved":false,"is_disabled":false,"rental_uris":{"android":"levelo://app?vid=194d0731-9c3d-4111-875b-99cf3e7c97aa","ios":"levelo://app?vid=194d0731-9c3d-4111-875b-99cf3e7c97aa"},"vehicle_type_id":"4","last_reported":1685199956,"current_range_meters":26800,"station_id":"ce4bhoh2rcd13ifvqh6g","pricing_plan_id":"free"},{"bike_id":"70a9fc64-8f3c-4414-87e6-f2c51b05cba6","system_id":"levelo_inurba_marseille","lat":43.304096,"lon":5.425385,"is_reserved":false,"is_disabled":false,"rental_uris":{"android":"levelo://app?vid=70a9fc64-8f3c-4414-87e6-f2c51b05cba6","ios":"levelo://app?vid=70a9fc64-8f3c-4414-87e6-f2c51b05cba6"},"vehicle_type_id":"4","last_reported":1685199956,"current_range_meters":5200,"station_id":"ce4bhoh2rcd13ifvqh6g","pricing_plan_id":"free"},{"bike_id":"b558783a-8417-44f2-9e5b-1d6497e05a0f","system_id":"levelo_inurba_marseille","lat":43.304096,"lon":5.425385,"is_reserved":false,"is_disabled":false,"rental_uris":{"android":"levelo://app?vid=b558783a-8417-44f2-9e5b-1d6497e05a0f","ios":"levelo://app?vid=b558783a-8417-44f2-9e5b-1d6497e05a0f"},"vehicle_type_id":"4","last_reported":1685199956,"current_range_meters":30000,"station_id":"ce4bhoh2rcd13ifvqh6g","pricing_plan_id":"free"},{"bike_id":"cf0ee14a-d6ea-497e-ab85-2b04d14ce82e","system_id":"levelo_inurba_marseille","lat":43.304088,"lon":5.425388,"is_reserved":false,"is_disabled":false,"rental_uris":{"android":"levelo://app?vid=cf0ee14a-d6ea-497e-ab85-2b04d14ce82e","ios":"levelo://app?vid=cf0ee14a-d6ea-497e-ab85-2b04d14ce82e"},"vehicle_type_id":"4","last_reported":1685199956,"current_range_meters":26800,"station_id":"ce4bhoh2rcd13ifvqh6g","pricing_plan_id":"free"},{"bike_id":"e71b8795-042d-4d35-8215-dd82bec1a496","system_id":"levelo_inurba_marseille","lat":43.278128,"lon":5.407195,"is_reserved":false,"is_disabled":false,"rental_uris":{"android":"levelo://app?vid=e71b8795-042d-4d35-8215-dd82bec1a496","ios":"levelo://app?vid=e71b8795-042d-4d35-8215-dd82bec1a496"},"vehicle_type_id":"4","last_reported":1685199956,"current_range_meters":12800,"station_id":"ce4bhnh2rcd13ifvqgtg","pricing_plan_id":"free"},{"bike_id":"978cacd2-84b9-4d90-9533-78b194e5c2f3","system_id":"levelo_inurba_marseille","lat":43.278128,"lon":5.407195,"is_reserved":false,"is_disabled":false,"rental_uris":{"android":"levelo://app?vid=978cacd2-84b9-4d90-9533-78b194e5c2f3","ios":"levelo://app?vid=978cacd2-84b9-4d90-9533-78b194e5c2f3"},"vehicle_type_id":"4","last_reported":1685199956,"current_range_meters":14000,"station_id":"ce4bhnh2rcd13ifvqgtg","pricing_plan_id":"free"},{"bike_id":"586bf2e3-bb84-49b3-8474-4fd7fa5dd80a","system_id":"levelo_inurba_marseille","lat":43.269467,"lon":5.386439,"is_reserved":false,"is_disabled":false,"rental_uris":{"android":"levelo://app?vid=586bf2e3-bb84-49b3-8474-4fd7fa5dd80a","ios":"levelo://app?vid=586bf2e3-bb84-49b3-8474-4fd7fa5dd80a"},"vehicle_type_id":"4","last_reported":1685199956,"current_range_meters":7600,"station_id":"ce4bhh92rcd13ifvqfh0","pricing_plan_id":"free"},{"bike_id":"91b49189-18df-431a-bbbf-f0b2350181de","system_id":"levelo_inurba_marseille","lat":43.28366,"lon":5.41525,"is_reserved":false,"is_disabled":false,"rental_uris":{"android":"levelo://app?vid=91b49189-18df-431a-bbbf-f0b2350181de","ios":"levelo://app?vid=91b49189-18df-431a-bbbf-f0b2350181de"},"vehicle_type_id":"4","last_reported":1685199956,"current_range_meters":16400,"station_id":"","pricing_plan_id":"free"},{"bike_id":"aecc272a-1eea-4993-9a69-5a60f1d21a96","system_id":"levelo_inurba_marseille","lat":43.26563,"lon":5.37285,"is_reserved":false,"is_disabled":false,"rental_uris":{"android":"levelo://app?vid=aecc272a-1eea-4993-9a69-5a60f1d21a96","ios":"levelo://app?vid=aecc272a-1eea-4993-9a69-5a60f1d21a96"},"vehicle_type_id":"4","last_reported":1685199956,"current_range_meters":14000,"station_id":"ce4bhg12rcd13ifvqf70","pricing_plan_id":"free"},{"bike_id":"51108fdf-4606-46aa-8700-73b08bb7c2ae","system_id":"levelo_inurba_marseille","lat":43.2656,"lon":5.37279,"is_reserved":false,"is_disabled":false,"rental_uris":{"android":"levelo://app?vid=51108fdf-4606-46aa-8700-73b08bb7c2ae","ios":"levelo://app?vid=51108fdf-4606-46aa-8700-73b08bb7c2ae"},"vehicle_type_id":"4","last_reported":1685199956,"current_range_meters":2400,"station_id":"ce4bhg12rcd13ifvqf70","pricing_plan_id":"free"},{"bike_id":"6ae505a4-2cb1-4426-8c02-5e0462e2a030","system_id":"levelo_inurba_marseille","lat":43.26557,"lon":5.37285,"is_reserved":false,"is_disabled":false,"rental_uris":{"android":"levelo://app?vid=6ae505a4-2cb1-4426-8c02-5e0462e2a030","ios":"levelo://app?vid=6ae505a4-2cb1-4426-8c02-5e0462e2a030"},"vehicle_type_id":"4","last_reported":1685199956,"current_range_meters":9200,"station_id":"ce4bhg12rcd13ifvqf70","pricing_plan_id":"free"},{"bike_id":"e853d6d3-182e-4484-8618-5bc2a617a8ec","system_id":"levelo_inurba_marseille","lat":43.26556,"lon":5.37282,"is_reserved":false,"is_disabled":false,"rental_uris":{"android":"levelo://app?vid=e853d6d3-182e-4484-8618-5bc2a617a8ec","ios":"levelo://app?vid=e853d6d3-182e-4484-8618-5bc2a617a8ec"},"vehicle_type_id":"4","last_reported":1685199956,"current_range_meters":14400,"station_id":"ce4bhg12rcd13ifvqf70","pricing_plan_id":"free"},{"bike_id":"ef395311-31be-4f9b-ae30-84fdc7f1345a","system_id":"levelo_inurba_marseille","lat":43.26556,"lon":5.37293,"is_reserved":false,"is_disabled":false,"rental_uris":{"android":"levelo://app?vid=ef395311-31be-4f9b-ae30-84fdc7f1345a","ios":"levelo://app?vid=ef395311-31be-4f9b-ae30-84fdc7f1345a"},"vehicle_type_id":"4","last_reported":1685199956,"current_range_meters":29200,"station_id":"ce4bhg12rcd13ifvqf70","pricing_plan_id":"free"},{"bike_id":"21a31154-ec33-47f8-86df-928af99f26fd","system_id":"levelo_inurba_marseille","lat":43.26556,"lon":5.37293,"is_reserved":false,"is_disabled":false,"rental_uris":{"android":"levelo://app?vid=21a31154-ec33-47f8-86df-928af99f26fd","ios":"levelo://app?vid=21a31154-ec33-47f8-86df-928af99f26fd"},"vehicle_type_id":"4","last_reported":1685199956,"current_range_meters":28800,"station_id":"ce4bhg12rcd13ifvqf70","pricing_plan_id":"free"},{"bike_id":"e673226a-f594-432c-91d8-a6184fc8c0a2","system_id":"levelo_inurba_marseille","lat":43.265714,"lon":5.372891,"is_reserved":false,"is_disabled":false,"rental_uris":{"android":"levelo://app?vid=e673226a-f594-432c-91d8-a6184fc8c0a2","ios":"levelo://app?vid=e673226a-f594-432c-91d8-a6184fc8c0a2"},"vehicle_type_id":"4","last_reported":1685199956,"current_range_meters":14000,"station_id":"ce4bhg12rcd13ifvqf70","pricing_plan_id":"free"},{"bike_id":"f1af5359-90d5-47c5-82c4-d0068d72e72e","system_id":"levelo_inurba_marseille","lat":43.26555,"lon":5.372851,"is_reserved":false,"is_disabled":false,"rental_uris":{"android":"levelo://app?vid=f1af5359-90d5-47c5-82c4-d0068d72e72e","ios":"levelo://app?vid=f1af5359-90d5-47c5-82c4-d0068d72e72e"},"vehicle_type_id":"4","last_reported":1685199956,"current_range_meters":28400,"station_id":"","pricing_plan_id":"free"},{"bike_id":"6c3ac612-9e1e-4a79-9cf7-b65fbdf5aad2","system_id":"levelo_inurba_marseille","lat":43.26554,"lon":5.37279,"is_reserved":false,"is_disabled":false,"rental_uris":{"android":"levelo://app?vid=6c3ac612-9e1e-4a79-9cf7-b65fbdf5aad2","ios":"levelo://app?vid=6c3ac612-9e1e-4a79-9cf7-b65fbdf5aad2"},"vehicle_type_id":"4","last_reported":1685199956,"current_range_meters":0,"station_id":"ce4bhg12rcd13ifvqf70","pricing_plan_id":"free"},{"bike_id":"026cc139-9c1b-4e67-ab12-65fce239dcab","system_id":"levelo_inurba_marseille","lat":43.265714,"lon":5.372891,"is_reserved":false,"is_disabled":false,"rental_uris":{"android":"levelo://app?vid=026cc139-9c1b-4e67-ab12-65fce239dcab","ios":"levelo://app?vid=026cc139-9c1b-4e67-ab12-65fce239dcab"},"vehicle_type_id":"4","last_reported":1685199956,"current_range_meters":30800,"station_id":"ce4bhg12rcd13ifvqf70","pricing_plan_id":"free"},{"bike_id":"83b6a026-c227-40fa-b523-ced722008769","system_id":"levelo_inurba_marseille","lat":43.27996,"lon":5.416624,"is_reserved":false,"is_disabled":false,"rental_uris":{"android":"levelo://app?vid=83b6a026-c227-40fa-b523-ced722008769","ios":"levelo://app?vid=83b6a026-c227-40fa-b523-ced722008769"},"vehicle_type_id":"4","last_reported":1685199956,"current_range_meters":18400,"station_id":"ce4bho12rcd13ifvqh1g","pricing_plan_id":"free"},{"bike_id":"6c99c10b-f97b-4ca0-b80d-e20ed79ef72c","system_id":"levelo_inurba_marseille","lat":43.27996,"lon":5.416624,"is_reserved":false,"is_disabled":false,"rental_uris":{"android":"levelo://app?vid=6c99c10b-f97b-4ca0-b80d-e20ed79ef72c","ios":"levelo://app?vid=6c99c10b-f97b-4ca0-b80d-e20ed79ef72c"},"vehicle_type_id":"4","last_reported":1685199956,"current_range_meters":23200,"station_id":"ce4bho12rcd13ifvqh1g","pricing_plan_id":"free"},{"bike_id":"6426bda0-2b41-4b1a-8616-2419d6ad33e3","system_id":"levelo_inurba_marseille","lat":43.267966,"lon":5.393976,"is_reserved":false,"is_disabled":false,"rental_uris":{"android":"levelo://app?vid=6426bda0-2b41-4b1a-8616-2419d6ad33e3","ios":"levelo://app?vid=6426bda0-2b41-4b1a-8616-2419d6ad33e3"},"vehicle_type_id":"4","last_reported":1685199956,"current_range_meters":30400,"station_id":"ce4bhh12rcd13ifvqfg0","pricing_plan_id":"free"},{"bike_id":"168f1962-5ddb-4f2f-9f15-e19186376e0d","system_id":"levelo_inurba_marseille","lat":43.267966,"lon":5.393976,"is_reserved":false,"is_disabled":false,"rental_uris":{"android":"levelo://app?vid=168f1962-5ddb-4f2f-9f15-e19186376e0d","ios":"levelo://app?vid=168f1962-5ddb-4f2f-9f15-e19186376e0d"},"vehicle_type_id":"4","last_reported":1685199956,"current_range_meters":21600,"station_id":"ce4bhh12rcd13ifvqfg0","pricing_plan_id":"free"},{"bike_id":"ae1dff9e-e4e4-47d5-8d41-361995eb6ad3","system_id":"levelo_inurba_marseille","lat":43.26193,"lon":5.37437,"is_reserved":false,"is_disabled":false,"rental_uris":{"android":"levelo://app?vid=ae1dff9e-e4e4-47d5-8d41-361995eb6ad3","ios":"levelo://app?vid=ae1dff9e-e4e4-47d5-8d41-361995eb6ad3"},"vehicle_type_id":"4","last_reported":1685199956,"current_range_meters":8400,"station_id":"ce4bhgp2rcd13ifvqfc0","pricing_plan_id":"free"},{"bike_id":"4975be2d-3f24-4235-af26-62cab7e35402","system_id":"levelo_inurba_marseille","lat":43.261782,"lon":5.374515,"is_reserved":false,"is_disabled":false,"rental_uris":{"android":"levelo://app?vid=4975be2d-3f24-4235-af26-62cab7e35402","ios":"levelo://app?vid=4975be2d-3f24-4235-af26-62cab7e35402"},"vehicle_type_id":"4","last_reported":1685199956,"current_range_meters":0,"station_id":"ce4bhgp2rcd13ifvqfc0","pricing_plan_id":"free"},{"bike_id":"13386135-a2a1-42f3-8d9d-ab5263c92445","system_id":"levelo_inurba_marseille","lat":43.26186,"lon":5.37439,"is_reserved":false,"is_disabled":false,"rental_uris":{"android":"levelo://app?vid=13386135-a2a1-42f3-8d9d-ab5263c92445","ios":"levelo://app?vid=13386135-a2a1-42f3-8d9d-ab5263c92445"},"vehicle_type_id":"4","last_reported":1685199956,"current_range_meters":22800,"station_id":"ce4bhgp2rcd13ifvqfc0","pricing_plan_id":"free"},{"bike_id":"2a103623-d123-4e86-910b-5cd2cd28d6bc","system_id":"levelo_inurba_marseille","lat":43.261782,"lon":5.374515,"is_reserved":false,"is_disabled":false,"rental_uris":{"android":"levelo://app?vid=2a103623-d123-4e86-910b-5cd2cd28d6bc","ios":"levelo://app?vid=2a103623-d123-4e86-910b-5cd2cd28d6bc"},"vehicle_type_id":"4","last_reported":1685199956,"current_range_meters":19200,"station_id":"ce4bhgp2rcd13ifvqfc0","pricing_plan_id":"free"},{"bike_id":"cee00825-ce78-41a2-8f71-afd3688cd850","system_id":"levelo_inurba_marseille","lat":43.26186,"lon":5.37444,"is_reserved":false,"is_disabled":false,"rental_uris":{"android":"levelo://app?vid=cee00825-ce78-41a2-8f71-afd3688cd850","ios":"levelo://app?vid=cee00825-ce78-41a2-8f71-afd3688cd850"},"vehicle_type_id":"4","last_reported":1685199956,"current_range_meters":24000,"station_id":"ce4bhgp2rcd13ifvqfc0","pricing_plan_id":"free"},{"bike_id":"8bc28b31-74ae-4ca4-9360-d12b1d53f1b6","system_id":"levelo_inurba_marseille","lat":43.26185,"lon":5.37437,"is_reserved":false,"is_disabled":false,"rental_uris":{"android":"levelo://app?vid=8bc28b31-74ae-4ca4-9360-d12b1d53f1b6","ios":"levelo://app?vid=8bc28b31-74ae-4ca4-9360-d12b1d53f1b6"},"vehicle_type_id":"4","last_reported":1685199956,"current_range_meters":0,"station_id":"ce4bhgp2rcd13ifvqfc0","pricing_plan_id":"free"},{"bike_id":"97f92444-dc7f-4ac8-885e-43ac50454dc0","system_id":"levelo_inurba_marseille","lat":43.31712,"lon":5.43702,"is_reserved":false,"is_disabled":false,"rental_uris":{"android":"levelo://app?vid=97f92444-dc7f-4ac8-885e-43ac50454dc0","ios":"levelo://app?vid=97f92444-dc7f-4ac8-885e-43ac50454dc0"},"vehicle_type_id":"4","last_reported":1685199956,"current_range_meters":0,"station_id":"ce4bhp92rcd13ifvqhcg","pricing_plan_id":"free"},{"bike_id":"071b3226-63ef-4b1c-919e-3738d44a0394","system_id":"levelo_inurba_marseille","lat":43.26184,"lon":5.37444,"is_reserved":false,"is_disabled":false,"rental_uris":{"android":"levelo://app?vid=071b3226-63ef-4b1c-919e-3738d44a0394","ios":"levelo://app?vid=071b3226-63ef-4b1c-919e-3738d44a0394"},"vehicle_type_id":"4","last_reported":1685199956,"current_range_meters":18800,"station_id":"ce4bhgp2rcd13ifvqfc0","pricing_plan_id":"free"},{"bike_id":"c5920628-ed58-4747-aaac-2659c03d6875","system_id":"levelo_inurba_marseille","lat":43.26184,"lon":5.37444,"is_reserved":false,"is_disabled":false,"rental_uris":{"android":"levelo://app?vid=c5920628-ed58-4747-aaac-2659c03d6875","ios":"levelo://app?vid=c5920628-ed58-4747-aaac-2659c03d6875"},"vehicle_type_id":"4","last_reported":1685199956,"current_range_meters":0,"station_id":"ce4bhgp2rcd13ifvqfc0","pricing_plan_id":"free"},{"bike_id":"997fbca5-8dd6-4985-8f12-98f562376a79","system_id":"levelo_inurba_marseille","lat":43.317104,"lon":5.436818,"is_reserved":false,"is_disabled":false,"rental_uris":{"android":"levelo://app?vid=997fbca5-8dd6-4985-8f12-98f562376a79","ios":"levelo://app?vid=997fbca5-8dd6-4985-8f12-98f562376a79"},"vehicle_type_id":"4","last_reported":1685199956,"current_range_meters":28800,"station_id":"ce4bhp92rcd13ifvqhcg","pricing_plan_id":"free"},{"bike_id":"3ba9708f-bff7-41c1-9340-bfea0f3467ce","system_id":"levelo_inurba_marseille","lat":43.317104,"lon":5.436818,"is_reserved":false,"is_disabled":false,"rental_uris":{"android":"levelo://app?vid=3ba9708f-bff7-41c1-9340-bfea0f3467ce","ios":"levelo://app?vid=3ba9708f-bff7-41c1-9340-bfea0f3467ce"},"vehicle_type_id":"4","last_reported":1685199956,"current_range_meters":28000,"station_id":"ce4bhp92rcd13ifvqhcg","pricing_plan_id":"free"},{"bike_id":"108bd8c6-8ebc-4f70-99ac-edec113e00ad","system_id":"levelo_inurba_marseille","lat":43.271368,"lon":5.40928,"is_reserved":false,"is_disabled":false,"rental_uris":{"android":"levelo://app?vid=108bd8c6-8ebc-4f70-99ac-edec113e00ad","ios":"levelo://app?vid=108bd8c6-8ebc-4f70-99ac-edec113e00ad"},"vehicle_type_id":"4","last_reported":1685199956,"current_range_meters":30400,"station_id":"ce4bhl12rcd13ifvqgf0","pricing_plan_id":"free"},{"bike_id":"0817be7b-bbae-4b64-a5f0-aa42f64864f1","system_id":"levelo_inurba_marseille","lat":43.267959,"lon":5.402687,"is_reserved":false,"is_disabled":false,"rental_uris":{"android":"levelo://app?vid=0817be7b-bbae-4b64-a5f0-aa42f64864f1","ios":"levelo://app?vid=0817be7b-bbae-4b64-a5f0-aa42f64864f1"},"vehicle_type_id":"4","last_reported":1685199956,"current_range_meters":23200,"station_id":"ce501612rcd8frsf0b60","pricing_plan_id":"free"},{"bike_id":"6b404443-757b-4b8d-9a78-a03ca59013fb","system_id":"levelo_inurba_marseille","lat":43.26114,"lon":5.37353,"is_reserved":false,"is_disabled":false,"rental_uris":{"android":"levelo://app?vid=6b404443-757b-4b8d-9a78-a03ca59013fb","ios":"levelo://app?vid=6b404443-757b-4b8d-9a78-a03ca59013fb"},"vehicle_type_id":"4","last_reported":1685199956,"current_range_meters":13600,"station_id":"ce4bhgp2rcd13ifvqfc0","pricing_plan_id":"free"},{"bike_id":"db925b50-ad8a-4820-a61d-8ab7c8e7db97","system_id":"levelo_inurba_marseille","lat":43.298768,"lon":5.43643,"is_reserved":false,"is_disabled":false,"rental_uris":{"android":"levelo://app?vid=db925b50-ad8a-4820-a61d-8ab7c8e7db97","ios":"levelo://app?vid=db925b50-ad8a-4820-a61d-8ab7c8e7db97"},"vehicle_type_id":"4","last_reported":1685199956,"current_range_meters":23600,"station_id":"ce4bhpp2rcd13ifvqhfg","pricing_plan_id":"free"},{"bike_id":"393fb8d7-9c3a-4c26-adde-9c67bba0a82d","system_id":"levelo_inurba_marseille","lat":43.298768,"lon":5.43643,"is_reserved":false,"is_disabled":false,"rental_uris":{"android":"levelo://app?vid=393fb8d7-9c3a-4c26-adde-9c67bba0a82d","ios":"levelo://app?vid=393fb8d7-9c3a-4c26-adde-9c67bba0a82d"},"vehicle_type_id":"4","last_reported":1685199956,"current_range_meters":17600,"station_id":"ce4bhpp2rcd13ifvqhfg","pricing_plan_id":"free"},{"bike_id":"4e1b86b6-b12c-441f-b5c1-ba0a90fca197","system_id":"levelo_inurba_marseille","lat":43.298768,"lon":5.43643,"is_reserved":false,"is_disabled":false,"rental_uris":{"android":"levelo://app?vid=4e1b86b6-b12c-441f-b5c1-ba0a90fca197","ios":"levelo://app?vid=4e1b86b6-b12c-441f-b5c1-ba0a90fca197"},"vehicle_type_id":"4","last_reported":1685199956,"current_range_meters":31200,"station_id":"ce4bhpp2rcd13ifvqhfg","pricing_plan_id":"free"},{"bike_id":"57572c88-3708-4036-891a-204b9f884608","system_id":"levelo_inurba_marseille","lat":43.298768,"lon":5.43643,"is_reserved":false,"is_disabled":false,"rental_uris":{"android":"levelo://app?vid=57572c88-3708-4036-891a-204b9f884608","ios":"levelo://app?vid=57572c88-3708-4036-891a-204b9f884608"},"vehicle_type_id":"4","last_reported":1685199956,"current_range_meters":10000,"station_id":"ce4bhpp2rcd13ifvqhfg","pricing_plan_id":"free"},{"bike_id":"625cf51e-ab1a-4754-ae5a-a72655adf3ff","system_id":"levelo_inurba_marseille","lat":43.298768,"lon":5.43643,"is_reserved":false,"is_disabled":false,"rental_uris":{"android":"levelo://app?vid=625cf51e-ab1a-4754-ae5a-a72655adf3ff","ios":"levelo://app?vid=625cf51e-ab1a-4754-ae5a-a72655adf3ff"},"vehicle_type_id":"4","last_reported":1685199956,"current_range_meters":7600,"station_id":"ce4bhpp2rcd13ifvqhfg","pricing_plan_id":"free"},{"bike_id":"a01b8269-cd6f-432a-9c44-37513ea96cd0","system_id":"levelo_inurba_marseille","lat":43.298768,"lon":5.43643,"is_reserved":false,"is_disabled":false,"rental_uris":{"android":"levelo://app?vid=a01b8269-cd6f-432a-9c44-37513ea96cd0","ios":"levelo://app?vid=a01b8269-cd6f-432a-9c44-37513ea96cd0"},"vehicle_type_id":"4","last_reported":1685199956,"current_range_meters":29600,"station_id":"ce4bhpp2rcd13ifvqhfg","pricing_plan_id":"free"},{"bike_id":"1522e6fe-e66c-4a0c-a606-391cd3d5a93b","system_id":"levelo_inurba_marseille","lat":43.298768,"lon":5.43643,"is_reserved":false,"is_disabled":false,"rental_uris":{"android":"levelo://app?vid=1522e6fe-e66c-4a0c-a606-391cd3d5a93b","ios":"levelo://app?vid=1522e6fe-e66c-4a0c-a606-391cd3d5a93b"},"vehicle_type_id":"4","last_reported":1685199956,"current_range_meters":31200,"station_id":"ce4bhpp2rcd13ifvqhfg","pricing_plan_id":"free"},{"bike_id":"11b4d9eb-009c-4c91-b4b0-2fc0ba613277","system_id":"levelo_inurba_marseille","lat":43.2607,"lon":5.393983,"is_reserved":false,"is_disabled":false,"rental_uris":{"android":"levelo://app?vid=11b4d9eb-009c-4c91-b4b0-2fc0ba613277","ios":"levelo://app?vid=11b4d9eb-009c-4c91-b4b0-2fc0ba613277"},"vehicle_type_id":"4","last_reported":1685199956,"current_range_meters":22800,"station_id":"ce4bhh92rcd13ifvqfj0","pricing_plan_id":"free"},{"bike_id":"1eb41fd1-cfec-47f2-9a88-066b97a9008f","system_id":"levelo_inurba_marseille","lat":43.2608,"lon":5.39763,"is_reserved":false,"is_disabled":false,"rental_uris":{"android":"levelo://app?vid=1eb41fd1-cfec-47f2-9a88-066b97a9008f","ios":"levelo://app?vid=1eb41fd1-cfec-47f2-9a88-066b97a9008f"},"vehicle_type_id":"4","last_reported":1685199956,"current_range_meters":14400,"station_id":"ce4bhi12rcd13ifvqfq0","pricing_plan_id":"free"},{"bike_id":"abe55c59-026e-4759-a75a-e98680210e12","system_id":"levelo_inurba_marseille","lat":43.255756,"lon":5.382303,"is_reserved":false,"is_disabled":false,"rental_uris":{"android":"levelo://app?vid=abe55c59-026e-4759-a75a-e98680210e12","ios":"levelo://app?vid=abe55c59-026e-4759-a75a-e98680210e12"},"vehicle_type_id":"4","last_reported":1685199956,"current_range_meters":9600,"station_id":"ce4bhih2rcd13ifvqfs0","pricing_plan_id":"free"},{"bike_id":"5e5d6fda-3c4b-449c-af6d-601e44690069","system_id":"levelo_inurba_marseille","lat":43.255756,"lon":5.382303,"is_reserved":false,"is_disabled":false,"rental_uris":{"android":"levelo://app?vid=5e5d6fda-3c4b-449c-af6d-601e44690069","ios":"levelo://app?vid=5e5d6fda-3c4b-449c-af6d-601e44690069"},"vehicle_type_id":"4","last_reported":1685199956,"current_range_meters":10800,"station_id":"ce4bhih2rcd13ifvqfs0","pricing_plan_id":"free"},{"bike_id":"343af358-2791-4189-ad25-da76d43dadff","system_id":"levelo_inurba_marseille","lat":43.255756,"lon":5.382303,"is_reserved":false,"is_disabled":false,"rental_uris":{"android":"levelo://app?vid=343af358-2791-4189-ad25-da76d43dadff","ios":"levelo://app?vid=343af358-2791-4189-ad25-da76d43dadff"},"vehicle_type_id":"4","last_reported":1685199956,"current_range_meters":27200,"station_id":"ce4bhih2rcd13ifvqfs0","pricing_plan_id":"free"},{"bike_id":"74981f42-c84b-44b8-936e-637f88ade636","system_id":"levelo_inurba_marseille","lat":43.254945,"lon":5.376454,"is_reserved":false,"is_disabled":false,"rental_uris":{"android":"levelo://app?vid=74981f42-c84b-44b8-936e-637f88ade636","ios":"levelo://app?vid=74981f42-c84b-44b8-936e-637f88ade636"},"vehicle_type_id":"4","last_reported":1685199956,"current_range_meters":21600,"station_id":"ce4bhh12rcd13ifvqff0","pricing_plan_id":"free"},{"bike_id":"5f781404-0e7c-4c8f-a522-ccc1739e93b5","system_id":"levelo_inurba_marseille","lat":43.254945,"lon":5.376454,"is_reserved":false,"is_disabled":false,"rental_uris":{"android":"levelo://app?vid=5f781404-0e7c-4c8f-a522-ccc1739e93b5","ios":"levelo://app?vid=5f781404-0e7c-4c8f-a522-ccc1739e93b5"},"vehicle_type_id":"4","last_reported":1685199956,"current_range_meters":9600,"station_id":"ce4bhh12rcd13ifvqff0","pricing_plan_id":"free"},{"bike_id":"3190b7f3-2672-49b6-9b03-2438a61a93f0","system_id":"levelo_inurba_marseille","lat":43.254945,"lon":5.376454,"is_reserved":false,"is_disabled":false,"rental_uris":{"android":"levelo://app?vid=3190b7f3-2672-49b6-9b03-2438a61a93f0","ios":"levelo://app?vid=3190b7f3-2672-49b6-9b03-2438a61a93f0"},"vehicle_type_id":"4","last_reported":1685199956,"current_range_meters":2000,"station_id":"ce4bhh12rcd13ifvqff0","pricing_plan_id":"free"},{"bike_id":"495edce5-06e8-4d32-b6dc-a5e89edb9bd9","system_id":"levelo_inurba_marseille","lat":43.254945,"lon":5.376454,"is_reserved":false,"is_disabled":false,"rental_uris":{"android":"levelo://app?vid=495edce5-06e8-4d32-b6dc-a5e89edb9bd9","ios":"levelo://app?vid=495edce5-06e8-4d32-b6dc-a5e89edb9bd9"},"vehicle_type_id":"4","last_reported":1685199956,"current_range_meters":20800,"station_id":"ce4bhh12rcd13ifvqff0","pricing_plan_id":"free"},{"bike_id":"105e876a-82e3-494c-9c86-f6c812727366","system_id":"levelo_inurba_marseille","lat":43.254947,"lon":5.376454,"is_reserved":false,"is_disabled":false,"rental_uris":{"android":"levelo://app?vid=105e876a-82e3-494c-9c86-f6c812727366","ios":"levelo://app?vid=105e876a-82e3-494c-9c86-f6c812727366"},"vehicle_type_id":"4","last_reported":1685199956,"current_range_meters":22400,"station_id":"ce4bhh12rcd13ifvqff0","pricing_plan_id":"free"},{"bike_id":"1d3e94b9-2269-4bce-a5d5-7fdee215ef6a","system_id":"levelo_inurba_marseille","lat":43.254947,"lon":5.376454,"is_reserved":false,"is_disabled":false,"rental_uris":{"android":"levelo://app?vid=1d3e94b9-2269-4bce-a5d5-7fdee215ef6a","ios":"levelo://app?vid=1d3e94b9-2269-4bce-a5d5-7fdee215ef6a"},"vehicle_type_id":"4","last_reported":1685199956,"current_range_meters":7600,"station_id":"ce4bhh12rcd13ifvqff0","pricing_plan_id":"free"},{"bike_id":"21a94e83-2bcf-4902-8a6a-85407ac0d3c9","system_id":"levelo_inurba_marseille","lat":43.254952,"lon":5.376471,"is_reserved":false,"is_disabled":false,"rental_uris":{"android":"levelo://app?vid=21a94e83-2bcf-4902-8a6a-85407ac0d3c9","ios":"levelo://app?vid=21a94e83-2bcf-4902-8a6a-85407ac0d3c9"},"vehicle_type_id":"4","last_reported":1685199956,"current_range_meters":4400,"station_id":"","pricing_plan_id":"free"},{"bike_id":"6dbcddb5-d45c-47a0-894a-18e443258de2","system_id":"levelo_inurba_marseille","lat":43.254947,"lon":5.376454,"is_reserved":false,"is_disabled":false,"rental_uris":{"android":"levelo://app?vid=6dbcddb5-d45c-47a0-894a-18e443258de2","ios":"levelo://app?vid=6dbcddb5-d45c-47a0-894a-18e443258de2"},"vehicle_type_id":"4","last_reported":1685199956,"current_range_meters":10000,"station_id":"ce4bhh12rcd13ifvqff0","pricing_plan_id":"free"},{"bike_id":"4f4aa002-922a-4657-a6a1-63abb2bce368","system_id":"levelo_inurba_marseille","lat":43.258658,"lon":5.398935,"is_reserved":false,"is_disabled":false,"rental_uris":{"android":"levelo://app?vid=4f4aa002-922a-4657-a6a1-63abb2bce368","ios":"levelo://app?vid=4f4aa002-922a-4657-a6a1-63abb2bce368"},"vehicle_type_id":"4","last_reported":1685199956,"current_range_meters":6400,"station_id":"ce4bhl92rcd13ifvqghg","pricing_plan_id":"free"},{"bike_id":"3583dbe0-433b-4cf5-8a78-02a3550f1dd8","system_id":"levelo_inurba_marseille","lat":43.27443,"lon":5.42944,"is_reserved":false,"is_disabled":false,"rental_uris":{"android":"levelo://app?vid=3583dbe0-433b-4cf5-8a78-02a3550f1dd8","ios":"levelo://app?vid=3583dbe0-433b-4cf5-8a78-02a3550f1dd8"},"vehicle_type_id":"4","last_reported":1685199956,"current_range_meters":0,"station_id":"","pricing_plan_id":"free"},{"bike_id":"e78bfc5f-3bff-4698-9708-e2c5d683f1ea","system_id":"levelo_inurba_marseille","lat":43.258658,"lon":5.398935,"is_reserved":false,"is_disabled":false,"rental_uris":{"android":"levelo://app?vid=e78bfc5f-3bff-4698-9708-e2c5d683f1ea","ios":"levelo://app?vid=e78bfc5f-3bff-4698-9708-e2c5d683f1ea"},"vehicle_type_id":"4","last_reported":1685199956,"current_range_meters":15200,"station_id":"ce4bhl92rcd13ifvqghg","pricing_plan_id":"free"},{"bike_id":"b27943a0-7fd8-48fb-ba59-74f0b8360512","system_id":"levelo_inurba_marseille","lat":43.250009,"lon":5.389195,"is_reserved":false,"is_disabled":false,"rental_uris":{"android":"levelo://app?vid=b27943a0-7fd8-48fb-ba59-74f0b8360512","ios":"levelo://app?vid=b27943a0-7fd8-48fb-ba59-74f0b8360512"},"vehicle_type_id":"4","last_reported":1685199956,"current_range_meters":800,"station_id":"ce4bhgp2rcd13ifvqfd0","pricing_plan_id":"free"},{"bike_id":"5c0c564d-5cf4-4e21-bc0e-ee39fb0ff7ad","system_id":"levelo_inurba_marseille","lat":43.250023,"lon":5.38919,"is_reserved":false,"is_disabled":false,"rental_uris":{"android":"levelo://app?vid=5c0c564d-5cf4-4e21-bc0e-ee39fb0ff7ad","ios":"levelo://app?vid=5c0c564d-5cf4-4e21-bc0e-ee39fb0ff7ad"},"vehicle_type_id":"4","last_reported":1685199956,"current_range_meters":12800,"station_id":"ce4bhgp2rcd13ifvqfd0","pricing_plan_id":"free"},{"bike_id":"b667ceb6-01a7-4a4d-8886-901a0090c0a5","system_id":"levelo_inurba_marseille","lat":43.2481,"lon":5.37463,"is_reserved":false,"is_disabled":false,"rental_uris":{"android":"levelo://app?vid=b667ceb6-01a7-4a4d-8886-901a0090c0a5","ios":"levelo://app?vid=b667ceb6-01a7-4a4d-8886-901a0090c0a5"},"vehicle_type_id":"4","last_reported":1685199956,"current_range_meters":16000,"station_id":"ce4bhgh2rcd13ifvqfb0","pricing_plan_id":"free"},{"bike_id":"20a0d741-f506-49c9-912a-d292ccc7e4b1","system_id":"levelo_inurba_marseille","lat":43.24808,"lon":5.37455,"is_reserved":false,"is_disabled":false,"rental_uris":{"android":"levelo://app?vid=20a0d741-f506-49c9-912a-d292ccc7e4b1","ios":"levelo://app?vid=20a0d741-f506-49c9-912a-d292ccc7e4b1"},"vehicle_type_id":"4","last_reported":1685199956,"current_range_meters":28400,"station_id":"ce4bhgh2rcd13ifvqfb0","pricing_plan_id":"free"},{"bike_id":"4286948d-e1b0-47fb-87fe-bcb0e51c37a2","system_id":"levelo_inurba_marseille","lat":43.2479,"lon":5.374457,"is_reserved":false,"is_disabled":false,"rental_uris":{"android":"levelo://app?vid=4286948d-e1b0-47fb-87fe-bcb0e51c37a2","ios":"levelo://app?vid=4286948d-e1b0-47fb-87fe-bcb0e51c37a2"},"vehicle_type_id":"4","last_reported":1685199956,"current_range_meters":18800,"station_id":"ce4bhgh2rcd13ifvqfb0","pricing_plan_id":"free"},{"bike_id":"022d3c1e-ab82-4137-8866-ef64f3163c04","system_id":"levelo_inurba_marseille","lat":43.24805,"lon":5.37457,"is_reserved":false,"is_disabled":false,"rental_uris":{"android":"levelo://app?vid=022d3c1e-ab82-4137-8866-ef64f3163c04","ios":"levelo://app?vid=022d3c1e-ab82-4137-8866-ef64f3163c04"},"vehicle_type_id":"4","last_reported":1685199956,"current_range_meters":29600,"station_id":"ce4bhgh2rcd13ifvqfb0","pricing_plan_id":"free"},{"bike_id":"f913716d-c453-4ee1-af1b-703c040b75bd","system_id":"levelo_inurba_marseille","lat":43.2479,"lon":5.374457,"is_reserved":false,"is_disabled":false,"rental_uris":{"android":"levelo://app?vid=f913716d-c453-4ee1-af1b-703c040b75bd","ios":"levelo://app?vid=f913716d-c453-4ee1-af1b-703c040b75bd"},"vehicle_type_id":"4","last_reported":1685199956,"current_range_meters":18000,"station_id":"ce4bhgh2rcd13ifvqfb0","pricing_plan_id":"free"},{"bike_id":"90f15d8c-8579-40ee-be37-1d77d42bcf11","system_id":"levelo_inurba_marseille","lat":43.250966,"lon":5.395186,"is_reserved":false,"is_disabled":false,"rental_uris":{"android":"levelo://app?vid=90f15d8c-8579-40ee-be37-1d77d42bcf11","ios":"levelo://app?vid=90f15d8c-8579-40ee-be37-1d77d42bcf11"},"vehicle_type_id":"4","last_reported":1685199956,"current_range_meters":6000,"station_id":"ce4bhm12rcd13ifvqgkg","pricing_plan_id":"free"},{"bike_id":"315f5e0a-a652-486f-858a-3e20bcad95c9","system_id":"levelo_inurba_marseille","lat":43.25085,"lon":5.39512,"is_reserved":false,"is_disabled":false,"rental_uris":{"android":"levelo://app?vid=315f5e0a-a652-486f-858a-3e20bcad95c9","ios":"levelo://app?vid=315f5e0a-a652-486f-858a-3e20bcad95c9"},"vehicle_type_id":"4","last_reported":1685199956,"current_range_meters":0,"station_id":"ce4bhm12rcd13ifvqgkg","pricing_plan_id":"free"},{"bike_id":"42fa27b7-dcca-4371-82ca-806917481198","system_id":"levelo_inurba_marseille","lat":43.250966,"lon":5.395186,"is_reserved":false,"is_disabled":false,"rental_uris":{"android":"levelo://app?vid=42fa27b7-dcca-4371-82ca-806917481198","ios":"levelo://app?vid=42fa27b7-dcca-4371-82ca-806917481198"},"vehicle_type_id":"4","last_reported":1685199956,"current_range_meters":3600,"station_id":"ce4bhm12rcd13ifvqgkg","pricing_plan_id":"free"},{"bike_id":"0f321c7d-9664-48d5-8e81-b32ee7ce2a97","system_id":"levelo_inurba_marseille","lat":43.246629,"lon":5.381738,"is_reserved":false,"is_disabled":false,"rental_uris":{"android":"levelo://app?vid=0f321c7d-9664-48d5-8e81-b32ee7ce2a97","ios":"levelo://app?vid=0f321c7d-9664-48d5-8e81-b32ee7ce2a97"},"vehicle_type_id":"4","last_reported":1685199956,"current_range_meters":19200,"station_id":"ce4bhih2rcd13ifvqfr0","pricing_plan_id":"free"},{"bike_id":"34103d0b-11e6-4d74-b915-7fe1e9934579","system_id":"levelo_inurba_marseille","lat":43.25102,"lon":5.403214,"is_reserved":false,"is_disabled":false,"rental_uris":{"android":"levelo://app?vid=34103d0b-11e6-4d74-b915-7fe1e9934579","ios":"levelo://app?vid=34103d0b-11e6-4d74-b915-7fe1e9934579"},"vehicle_type_id":"4","last_reported":1685199956,"current_range_meters":16400,"station_id":"ce4bhlh2rcd13ifvqgig","pricing_plan_id":"free"},{"bike_id":"61f89740-5938-4d53-bce9-b16656d4e6f7","system_id":"levelo_inurba_marseille","lat":43.25102,"lon":5.403214,"is_reserved":false,"is_disabled":false,"rental_uris":{"android":"levelo://app?vid=61f89740-5938-4d53-bce9-b16656d4e6f7","ios":"levelo://app?vid=61f89740-5938-4d53-bce9-b16656d4e6f7"},"vehicle_type_id":"4","last_reported":1685199956,"current_range_meters":25600,"station_id":"ce4bhlh2rcd13ifvqgig","pricing_plan_id":"free"},{"bike_id":"df6ed138-15f1-4293-a9f6-260650001f58","system_id":"levelo_inurba_marseille","lat":43.24648,"lon":5.38895,"is_reserved":false,"is_disabled":false,"rental_uris":{"android":"levelo://app?vid=df6ed138-15f1-4293-a9f6-260650001f58","ios":"levelo://app?vid=df6ed138-15f1-4293-a9f6-260650001f58"},"vehicle_type_id":"4","last_reported":1685199956,"current_range_meters":19600,"station_id":"ce4bhg12rcd13ifvqf60","pricing_plan_id":"free"},{"bike_id":"423c6de4-ba9d-4c60-baff-d0e12e191625","system_id":"levelo_inurba_marseille","lat":43.24394,"lon":5.37056,"is_reserved":false,"is_disabled":false,"rental_uris":{"android":"levelo://app?vid=423c6de4-ba9d-4c60-baff-d0e12e191625","ios":"levelo://app?vid=423c6de4-ba9d-4c60-baff-d0e12e191625"},"vehicle_type_id":"4","last_reported":1685199956,"current_range_meters":27200,"station_id":"ce4bhhh2rcd13ifvqfk0","pricing_plan_id":"free"},{"bike_id":"53f95432-bb4d-4bad-97c3-7f805f4ec51e","system_id":"levelo_inurba_marseille","lat":43.24394,"lon":5.37057,"is_reserved":false,"is_disabled":false,"rental_uris":{"android":"levelo://app?vid=53f95432-bb4d-4bad-97c3-7f805f4ec51e","ios":"levelo://app?vid=53f95432-bb4d-4bad-97c3-7f805f4ec51e"},"vehicle_type_id":"4","last_reported":1685199956,"current_range_meters":1600,"station_id":"ce4bhhh2rcd13ifvqfk0","pricing_plan_id":"free"},{"bike_id":"a8199bd1-afca-465b-ad97-c08d0379d6ab","system_id":"levelo_inurba_marseille","lat":43.24394,"lon":5.37066,"is_reserved":false,"is_disabled":false,"rental_uris":{"android":"levelo://app?vid=a8199bd1-afca-465b-ad97-c08d0379d6ab","ios":"levelo://app?vid=a8199bd1-afca-465b-ad97-c08d0379d6ab"},"vehicle_type_id":"4","last_reported":1685199956,"current_range_meters":11200,"station_id":"ce4bhhh2rcd13ifvqfk0","pricing_plan_id":"free"},{"bike_id":"f9a537a3-78f9-4729-9b78-7e8bd2e4f0b8","system_id":"levelo_inurba_marseille","lat":43.24392,"lon":5.37064,"is_reserved":false,"is_disabled":false,"rental_uris":{"android":"levelo://app?vid=f9a537a3-78f9-4729-9b78-7e8bd2e4f0b8","ios":"levelo://app?vid=f9a537a3-78f9-4729-9b78-7e8bd2e4f0b8"},"vehicle_type_id":"4","last_reported":1685199956,"current_range_meters":13600,"station_id":"ce4bhhh2rcd13ifvqfk0","pricing_plan_id":"free"},{"bike_id":"51e7d951-f5c6-410b-a80d-f01687908228","system_id":"levelo_inurba_marseille","lat":43.24388,"lon":5.37061,"is_reserved":false,"is_disabled":false,"rental_uris":{"android":"levelo://app?vid=51e7d951-f5c6-410b-a80d-f01687908228","ios":"levelo://app?vid=51e7d951-f5c6-410b-a80d-f01687908228"},"vehicle_type_id":"4","last_reported":1685199956,"current_range_meters":24400,"station_id":"ce4bhhh2rcd13ifvqfk0","pricing_plan_id":"free"},{"bike_id":"cd6599be-dea1-4858-a126-959e2788a385","system_id":"levelo_inurba_marseille","lat":43.24386,"lon":5.37056,"is_reserved":false,"is_disabled":false,"rental_uris":{"android":"levelo://app?vid=cd6599be-dea1-4858-a126-959e2788a385","ios":"levelo://app?vid=cd6599be-dea1-4858-a126-959e2788a385"},"vehicle_type_id":"4","last_reported":1685199956,"current_range_meters":31200,"station_id":"ce4bhhh2rcd13ifvqfk0","pricing_plan_id":"free"},{"bike_id":"bc231acf-4e1f-42a5-9e94-c7405517798f","system_id":"levelo_inurba_marseille","lat":43.24074,"lon":5.37749,"is_reserved":false,"is_disabled":false,"rental_uris":{"android":"levelo://app?vid=bc231acf-4e1f-42a5-9e94-c7405517798f","ios":"levelo://app?vid=bc231acf-4e1f-42a5-9e94-c7405517798f"},"vehicle_type_id":"4","last_reported":1685199956,"current_range_meters":31200,"station_id":"","pricing_plan_id":"free"},{"bike_id":"47b7aae0-e7c8-4523-be00-b6d76f47252f","system_id":"levelo_inurba_marseille","lat":43.239588,"lon":5.366238,"is_reserved":false,"is_disabled":false,"rental_uris":{"android":"levelo://app?vid=47b7aae0-e7c8-4523-be00-b6d76f47252f","ios":"levelo://app?vid=47b7aae0-e7c8-4523-be00-b6d76f47252f"},"vehicle_type_id":"4","last_reported":1685199956,"current_range_meters":18000,"station_id":"ce4bhi12rcd13ifvqfp0","pricing_plan_id":"free"},{"bike_id":"6f61113d-e9f1-42e4-8bfa-266a82d3f994","system_id":"levelo_inurba_marseille","lat":43.239588,"lon":5.366238,"is_reserved":false,"is_disabled":false,"rental_uris":{"android":"levelo://app?vid=6f61113d-e9f1-42e4-8bfa-266a82d3f994","ios":"levelo://app?vid=6f61113d-e9f1-42e4-8bfa-266a82d3f994"},"vehicle_type_id":"4","last_reported":1685199956,"current_range_meters":30800,"station_id":"ce4bhi12rcd13ifvqfp0","pricing_plan_id":"free"},{"bike_id":"35da574f-2b24-41e6-bebe-9cc8ffb5a38f","system_id":"levelo_inurba_marseille","lat":43.23968,"lon":5.36634,"is_reserved":false,"is_disabled":false,"rental_uris":{"android":"levelo://app?vid=35da574f-2b24-41e6-bebe-9cc8ffb5a38f","ios":"levelo://app?vid=35da574f-2b24-41e6-bebe-9cc8ffb5a38f"},"vehicle_type_id":"4","last_reported":1685199956,"current_range_meters":5200,"station_id":"ce4bhi12rcd13ifvqfp0","pricing_plan_id":"free"},{"bike_id":"55a22204-2560-48b5-8c42-44c7c6f348d5","system_id":"levelo_inurba_marseille","lat":43.239588,"lon":5.366238,"is_reserved":false,"is_disabled":false,"rental_uris":{"android":"levelo://app?vid=55a22204-2560-48b5-8c42-44c7c6f348d5","ios":"levelo://app?vid=55a22204-2560-48b5-8c42-44c7c6f348d5"},"vehicle_type_id":"4","last_reported":1685199956,"current_range_meters":20800,"station_id":"ce4bhi12rcd13ifvqfp0","pricing_plan_id":"free"},{"bike_id":"0b7c3480-026b-4731-82e8-31288cb4073e","system_id":"levelo_inurba_marseille","lat":43.239588,"lon":5.366238,"is_reserved":false,"is_disabled":false,"rental_uris":{"android":"levelo://app?vid=0b7c3480-026b-4731-82e8-31288cb4073e","ios":"levelo://app?vid=0b7c3480-026b-4731-82e8-31288cb4073e"},"vehicle_type_id":"4","last_reported":1685199956,"current_range_meters":31200,"station_id":"ce4bhi12rcd13ifvqfp0","pricing_plan_id":"free"},{"bike_id":"30b47aa1-6eb8-4963-b891-c7196e1d4eb5","system_id":"levelo_inurba_marseille","lat":43.239588,"lon":5.366238,"is_reserved":false,"is_disabled":false,"rental_uris":{"android":"levelo://app?vid=30b47aa1-6eb8-4963-b891-c7196e1d4eb5","ios":"levelo://app?vid=30b47aa1-6eb8-4963-b891-c7196e1d4eb5"},"vehicle_type_id":"4","last_reported":1685199956,"current_range_meters":31200,"station_id":"ce4bhi12rcd13ifvqfp0","pricing_plan_id":"free"},{"bike_id":"43822b56-340f-4085-99cc-18ca7f687258","system_id":"levelo_inurba_marseille","lat":43.23965,"lon":5.36623,"is_reserved":false,"is_disabled":false,"rental_uris":{"android":"levelo://app?vid=43822b56-340f-4085-99cc-18ca7f687258","ios":"levelo://app?vid=43822b56-340f-4085-99cc-18ca7f687258"},"vehicle_type_id":"4","last_reported":1685199956,"current_range_meters":8800,"station_id":"ce4bhi12rcd13ifvqfp0","pricing_plan_id":"free"},{"bike_id":"c4d283be-d5e7-41ec-be6d-cdbf217d5ca2","system_id":"levelo_inurba_marseille","lat":43.239588,"lon":5.366238,"is_reserved":false,"is_disabled":false,"rental_uris":{"android":"levelo://app?vid=c4d283be-d5e7-41ec-be6d-cdbf217d5ca2","ios":"levelo://app?vid=c4d283be-d5e7-41ec-be6d-cdbf217d5ca2"},"vehicle_type_id":"4","last_reported":1685199956,"current_range_meters":24800,"station_id":"ce4bhi12rcd13ifvqfp0","pricing_plan_id":"free"},{"bike_id":"72a461d1-ca57-47f2-96ae-9951a05d55c7","system_id":"levelo_inurba_marseille","lat":43.239588,"lon":5.366238,"is_reserved":false,"is_disabled":false,"rental_uris":{"android":"levelo://app?vid=72a461d1-ca57-47f2-96ae-9951a05d55c7","ios":"levelo://app?vid=72a461d1-ca57-47f2-96ae-9951a05d55c7"},"vehicle_type_id":"4","last_reported":1685199956,"current_range_meters":9600,"station_id":"ce4bhi12rcd13ifvqfp0","pricing_plan_id":"free"},{"bike_id":"0530bda9-a283-4f69-bd6e-9b3eefb52eaa","system_id":"levelo_inurba_marseille","lat":43.23964,"lon":5.36624,"is_reserved":false,"is_disabled":false,"rental_uris":{"android":"levelo://app?vid=0530bda9-a283-4f69-bd6e-9b3eefb52eaa","ios":"levelo://app?vid=0530bda9-a283-4f69-bd6e-9b3eefb52eaa"},"vehicle_type_id":"4","last_reported":1685199956,"current_range_meters":12800,"station_id":"ce4bhi12rcd13ifvqfp0","pricing_plan_id":"free"},{"bike_id":"fef684a6-a4dd-4d37-8ff2-03b0c64cedcf","system_id":"levelo_inurba_marseille","lat":43.239588,"lon":5.366238,"is_reserved":false,"is_disabled":false,"rental_uris":{"android":"levelo://app?vid=fef684a6-a4dd-4d37-8ff2-03b0c64cedcf","ios":"levelo://app?vid=fef684a6-a4dd-4d37-8ff2-03b0c64cedcf"},"vehicle_type_id":"4","last_reported":1685199956,"current_range_meters":30400,"station_id":"ce4bhi12rcd13ifvqfp0","pricing_plan_id":"free"},{"bike_id":"dff56395-cce6-4bf8-951e-5774ac982dff","system_id":"levelo_inurba_marseille","lat":43.23962,"lon":5.36632,"is_reserved":false,"is_disabled":false,"rental_uris":{"android":"levelo://app?vid=dff56395-cce6-4bf8-951e-5774ac982dff","ios":"levelo://app?vid=dff56395-cce6-4bf8-951e-5774ac982dff"},"vehicle_type_id":"4","last_reported":1685199956,"current_range_meters":1200,"station_id":"ce4bhi12rcd13ifvqfp0","pricing_plan_id":"free"},{"bike_id":"c604f5f1-6669-4c7b-ba48-fd6f89aee699","system_id":"levelo_inurba_marseille","lat":43.239588,"lon":5.366238,"is_reserved":false,"is_disabled":false,"rental_uris":{"android":"levelo://app?vid=c604f5f1-6669-4c7b-ba48-fd6f89aee699","ios":"levelo://app?vid=c604f5f1-6669-4c7b-ba48-fd6f89aee699"},"vehicle_type_id":"4","last_reported":1685199956,"current_range_meters":400,"station_id":"ce4bhi12rcd13ifvqfp0","pricing_plan_id":"free"},{"bike_id":"8afab085-c18a-4129-8111-d3c2dcaea021","system_id":"levelo_inurba_marseille","lat":43.239588,"lon":5.366238,"is_reserved":false,"is_disabled":false,"rental_uris":{"android":"levelo://app?vid=8afab085-c18a-4129-8111-d3c2dcaea021","ios":"levelo://app?vid=8afab085-c18a-4129-8111-d3c2dcaea021"},"vehicle_type_id":"4","last_reported":1685199956,"current_range_meters":20800,"station_id":"ce4bhi12rcd13ifvqfp0","pricing_plan_id":"free"},{"bike_id":"da86b974-223a-448b-8edb-875dab1f3dd4","system_id":"levelo_inurba_marseille","lat":43.23961,"lon":5.36632,"is_reserved":false,"is_disabled":false,"rental_uris":{"android":"levelo://app?vid=da86b974-223a-448b-8edb-875dab1f3dd4","ios":"levelo://app?vid=da86b974-223a-448b-8edb-875dab1f3dd4"},"vehicle_type_id":"4","last_reported":1685199956,"current_range_meters":4000,"station_id":"ce4bhi12rcd13ifvqfp0","pricing_plan_id":"free"},{"bike_id":"7d95665a-c3dd-410c-8d0a-323710c9f67f","system_id":"levelo_inurba_marseille","lat":43.239588,"lon":5.366238,"is_reserved":false,"is_disabled":false,"rental_uris":{"android":"levelo://app?vid=7d95665a-c3dd-410c-8d0a-323710c9f67f","ios":"levelo://app?vid=7d95665a-c3dd-410c-8d0a-323710c9f67f"},"vehicle_type_id":"4","last_reported":1685199956,"current_range_meters":20800,"station_id":"ce4bhi12rcd13ifvqfp0","pricing_plan_id":"free"},{"bike_id":"dfd83992-1965-421d-b3c1-54fe61aad787","system_id":"levelo_inurba_marseille","lat":43.2396,"lon":5.36636,"is_reserved":false,"is_disabled":false,"rental_uris":{"android":"levelo://app?vid=dfd83992-1965-421d-b3c1-54fe61aad787","ios":"levelo://app?vid=dfd83992-1965-421d-b3c1-54fe61aad787"},"vehicle_type_id":"4","last_reported":1685199956,"current_range_meters":4800,"station_id":"ce4bhi12rcd13ifvqfp0","pricing_plan_id":"free"},{"bike_id":"3230a00d-d373-4a77-bc34-56cb7bdf58c1","system_id":"levelo_inurba_marseille","lat":43.239588,"lon":5.366238,"is_reserved":false,"is_disabled":false,"rental_uris":{"android":"levelo://app?vid=3230a00d-d373-4a77-bc34-56cb7bdf58c1","ios":"levelo://app?vid=3230a00d-d373-4a77-bc34-56cb7bdf58c1"},"vehicle_type_id":"4","last_reported":1685199956,"current_range_meters":25200,"station_id":"ce4bhi12rcd13ifvqfp0","pricing_plan_id":"free"},{"bike_id":"d159ffde-77f6-4f5a-8808-fffb931d819a","system_id":"levelo_inurba_marseille","lat":43.23957,"lon":5.36624,"is_reserved":false,"is_disabled":false,"rental_uris":{"android":"levelo://app?vid=d159ffde-77f6-4f5a-8808-fffb931d819a","ios":"levelo://app?vid=d159ffde-77f6-4f5a-8808-fffb931d819a"},"vehicle_type_id":"4","last_reported":1685199956,"current_range_meters":27200,"station_id":"ce4bhi12rcd13ifvqfp0","pricing_plan_id":"free"},{"bike_id":"017cbb90-9d16-469d-ab9b-008c01d90208","system_id":"levelo_inurba_marseille","lat":43.23986,"lon":5.38363,"is_reserved":false,"is_disabled":false,"rental_uris":{"android":"levelo://app?vid=017cbb90-9d16-469d-ab9b-008c01d90208","ios":"levelo://app?vid=017cbb90-9d16-469d-ab9b-008c01d90208"},"vehicle_type_id":"4","last_reported":1685199956,"current_range_meters":4400,"station_id":"","pricing_plan_id":"free"},{"bike_id":"326309e4-27a1-4f1b-ad34-65e33a71ca20","system_id":"levelo_inurba_marseille","lat":43.241782,"lon":5.397261,"is_reserved":false,"is_disabled":false,"rental_uris":{"android":"levelo://app?vid=326309e4-27a1-4f1b-ad34-65e33a71ca20","ios":"levelo://app?vid=326309e4-27a1-4f1b-ad34-65e33a71ca20"},"vehicle_type_id":"4","last_reported":1685199956,"current_range_meters":15200,"station_id":"ce4bhn12rcd13ifvqgpg","pricing_plan_id":"free"},{"bike_id":"2ba8040e-3e84-4d1c-8e8b-bb67e4c779d0","system_id":"levelo_inurba_marseille","lat":43.241782,"lon":5.397261,"is_reserved":false,"is_disabled":false,"rental_uris":{"android":"levelo://app?vid=2ba8040e-3e84-4d1c-8e8b-bb67e4c779d0","ios":"levelo://app?vid=2ba8040e-3e84-4d1c-8e8b-bb67e4c779d0"},"vehicle_type_id":"4","last_reported":1685199956,"current_range_meters":2000,"station_id":"ce4bhn12rcd13ifvqgpg","pricing_plan_id":"free"},{"bike_id":"81eeadbd-9829-41dd-82d5-66dfbf91b7db","system_id":"levelo_inurba_marseille","lat":43.241782,"lon":5.397261,"is_reserved":false,"is_disabled":false,"rental_uris":{"android":"levelo://app?vid=81eeadbd-9829-41dd-82d5-66dfbf91b7db","ios":"levelo://app?vid=81eeadbd-9829-41dd-82d5-66dfbf91b7db"},"vehicle_type_id":"4","last_reported":1685199956,"current_range_meters":25600,"station_id":"ce4bhn12rcd13ifvqgpg","pricing_plan_id":"free"},{"bike_id":"a9f13bc9-9514-47ac-b121-abd600b74ea6","system_id":"levelo_inurba_marseille","lat":43.23541,"lon":5.36239,"is_reserved":false,"is_disabled":false,"rental_uris":{"android":"levelo://app?vid=a9f13bc9-9514-47ac-b121-abd600b74ea6","ios":"levelo://app?vid=a9f13bc9-9514-47ac-b121-abd600b74ea6"},"vehicle_type_id":"4","last_reported":1685199956,"current_range_meters":11200,"station_id":"ce4bhi12rcd13ifvqfp0","pricing_plan_id":"free"},{"bike_id":"fa87f35f-cebd-4ee1-a7ad-8cd1dfb219b2","system_id":"levelo_inurba_marseille","lat":43.23201,"lon":5.35549,"is_reserved":false,"is_disabled":false,"rental_uris":{"android":"levelo://app?vid=fa87f35f-cebd-4ee1-a7ad-8cd1dfb219b2","ios":"levelo://app?vid=fa87f35f-cebd-4ee1-a7ad-8cd1dfb219b2"},"vehicle_type_id":"4","last_reported":1685199956,"current_range_meters":0,"station_id":"ce4bhu92rcd13ifvqi70","pricing_plan_id":"free"},{"bike_id":"8710f1b3-ad67-45f1-907d-249933530984","system_id":"levelo_inurba_marseille","lat":43.232,"lon":5.35554,"is_reserved":false,"is_disabled":false,"rental_uris":{"android":"levelo://app?vid=8710f1b3-ad67-45f1-907d-249933530984","ios":"levelo://app?vid=8710f1b3-ad67-45f1-907d-249933530984"},"vehicle_type_id":"4","last_reported":1685199956,"current_range_meters":0,"station_id":"ce4bhu92rcd13ifvqi70","pricing_plan_id":"free"},{"bike_id":"dd0d3bbe-c8a5-425f-8248-9fc8cf606134","system_id":"levelo_inurba_marseille","lat":43.23199,"lon":5.35559,"is_reserved":false,"is_disabled":false,"rental_uris":{"android":"levelo://app?vid=dd0d3bbe-c8a5-425f-8248-9fc8cf606134","ios":"levelo://app?vid=dd0d3bbe-c8a5-425f-8248-9fc8cf606134"},"vehicle_type_id":"4","last_reported":1685199956,"current_range_meters":6800,"station_id":"ce4bhu92rcd13ifvqi70","pricing_plan_id":"free"},{"bike_id":"1a9c2f89-7963-49cd-9ec4-a9a912023e6b","system_id":"levelo_inurba_marseille","lat":43.23199,"lon":5.35556,"is_reserved":false,"is_disabled":false,"rental_uris":{"android":"levelo://app?vid=1a9c2f89-7963-49cd-9ec4-a9a912023e6b","ios":"levelo://app?vid=1a9c2f89-7963-49cd-9ec4-a9a912023e6b"},"vehicle_type_id":"4","last_reported":1685199956,"current_range_meters":16800,"station_id":"ce4bhu92rcd13ifvqi70","pricing_plan_id":"free"},{"bike_id":"85ffa6bd-162c-41b9-b6c9-e9b64f995c20","system_id":"levelo_inurba_marseille","lat":43.23199,"lon":5.35555,"is_reserved":false,"is_disabled":false,"rental_uris":{"android":"levelo://app?vid=85ffa6bd-162c-41b9-b6c9-e9b64f995c20","ios":"levelo://app?vid=85ffa6bd-162c-41b9-b6c9-e9b64f995c20"},"vehicle_type_id":"4","last_reported":1685199956,"current_range_meters":22400,"station_id":"ce4bhu92rcd13ifvqi70","pricing_plan_id":"free"},{"bike_id":"32c1acc0-fc7a-4556-aeed-50f2c5d1a04e","system_id":"levelo_inurba_marseille","lat":43.23199,"lon":5.35553,"is_reserved":false,"is_disabled":false,"rental_uris":{"android":"levelo://app?vid=32c1acc0-fc7a-4556-aeed-50f2c5d1a04e","ios":"levelo://app?vid=32c1acc0-fc7a-4556-aeed-50f2c5d1a04e"},"vehicle_type_id":"4","last_reported":1685199956,"current_range_meters":10800,"station_id":"ce4bhu92rcd13ifvqi70","pricing_plan_id":"free"},{"bike_id":"81d4dcc7-3fc7-449d-ab1e-2ea2b47e5952","system_id":"levelo_inurba_marseille","lat":43.23197,"lon":5.35553,"is_reserved":false,"is_disabled":false,"rental_uris":{"android":"levelo://app?vid=81d4dcc7-3fc7-449d-ab1e-2ea2b47e5952","ios":"levelo://app?vid=81d4dcc7-3fc7-449d-ab1e-2ea2b47e5952"},"vehicle_type_id":"4","last_reported":1685199956,"current_range_meters":14000,"station_id":"ce4bhu92rcd13ifvqi70","pricing_plan_id":"free"},{"bike_id":"916351c7-55c2-4a8a-8fa5-a8d4e76cef7e","system_id":"levelo_inurba_marseille","lat":43.23197,"lon":5.3555,"is_reserved":false,"is_disabled":false,"rental_uris":{"android":"levelo://app?vid=916351c7-55c2-4a8a-8fa5-a8d4e76cef7e","ios":"levelo://app?vid=916351c7-55c2-4a8a-8fa5-a8d4e76cef7e"},"vehicle_type_id":"4","last_reported":1685199956,"current_range_meters":15200,"station_id":"ce4bhu92rcd13ifvqi70","pricing_plan_id":"free"},{"bike_id":"40782b5c-2472-4eb6-a0b3-cb8fbd7a5f7c","system_id":"levelo_inurba_marseille","lat":43.23197,"lon":5.35548,"is_reserved":false,"is_disabled":false,"rental_uris":{"android":"levelo://app?vid=40782b5c-2472-4eb6-a0b3-cb8fbd7a5f7c","ios":"levelo://app?vid=40782b5c-2472-4eb6-a0b3-cb8fbd7a5f7c"},"vehicle_type_id":"4","last_reported":1685199956,"current_range_meters":18800,"station_id":"ce4bhu92rcd13ifvqi70","pricing_plan_id":"free"},{"bike_id":"b7aefa64-ec3d-4858-aacd-1d52c88ba0a2","system_id":"levelo_inurba_marseille","lat":43.23197,"lon":5.35548,"is_reserved":false,"is_disabled":false,"rental_uris":{"android":"levelo://app?vid=b7aefa64-ec3d-4858-aacd-1d52c88ba0a2","ios":"levelo://app?vid=b7aefa64-ec3d-4858-aacd-1d52c88ba0a2"},"vehicle_type_id":"4","last_reported":1685199956,"current_range_meters":6800,"station_id":"ce4bhu92rcd13ifvqi70","pricing_plan_id":"free"},