{"last_updated":1685650017,"ttl":30,"version":"2.2","data":{"bikes":[{"bike_id":"acdfce9c-c44a-44e5-a08c-4ed3cf1e51fa","system_id":"levelo_inurba_marseille","lat":43.31341,"lon":5.367098,"is_reserved":false,"is_disabled":false,"rental_uris":{"android":"levelo://app?vid=acdfce9c-c44a-44e5-a08c-4ed3cf1e51fa","ios":"levelo://app?vid=acdfce9c-c44a-44e5-a08c-4ed3cf1e51fa"},"vehicle_type_id":"4","last_reported":1685650017,"current_range_meters":23600,"station_id":"ce4bgr92rcd13ifvqc6g","pricing_plan_id":"free"},{"bike_id":"206c7cdb-9047-48c2-bd6c-b07d6f113ae0","system_id":"levelo_inurba_marseille","lat":43.31341,"lon":5.367098,"is_reserved":false,"is_disabled":false,"rental_uris":{"android":"levelo://app?vid=206c7cdb-9047-48c2-bd6c-b07d6f113ae0","ios":"levelo://app?vid=206c7cdb-9047-48c2-bd6c-b07d6f113ae0"},"vehicle_type_id":"4","last_reported":1685650017,"current_range_meters":26800,"station_id":"ce4bgr92rcd13ifvqc6g","pricing_plan_id":"free"},{"bike_id":"a9091c3a-a543-45d5-8a3a-7d7054c74a2f","system_id":"levelo_inurba_marseille","lat":43.31328,"lon":5.36722,"is_reserved":false,"is_disabled":false,"rental_uris":{"android":"levelo://app?vid=a9091c3a-a543-45d5-8a3a-7d7054c74a2f","ios":"levelo://app?vid=a9091c3a-a543-45d5-8a3a-7d7054c74a2f"},"vehicle_type_id":"4","last_reported":1685650017,"current_range_meters":31200,"station_id":"ce4bgr92rcd13ifvqc6g","pricing_plan_id":"free"},{"bike_id":"4a2c4d1c-7798-4c91-a07f-b53831b35068","system_id":"levelo_inurba_marseille","lat":43.31341,"lon":5.367098,"is_reserved":false,"is_disabled":false,"rental_uris":{"android":"levelo://app?vid=4a2c4d1c-7798-4c91-a07f-b53831b35068","ios":"levelo://app?vid=4a2c4d1c-7798-4c91-a07f-b53831b35068"},"vehicle_type_id":"4","last_reported":1685650017,"current_range_meters":27200,"station_id":"ce4bgr92rcd13ifvqc6g","pricing_plan_id":"free"},{"bike_id":"3e8f0699-d53e-499c-b629-e2aabeb4df2b","system_id":"levelo_inurba_marseille","lat":43.313391,"lon":5.36706,"is_reserved":false,"is_disabled":false,"rental_uris":{"android":"levelo://app?vid=3e8f0699-d53e-499c-b629-e2aabeb4df2b","ios":"levelo://app?vid=3e8f0699-d53e-499c-b629-e2aabeb4df2b"},"vehicle_type_id":"4","last_reported":1685650017,"current_range_meters":14800,"station_id":"ce4bgr92rcd13ifvqc6g","pricing_plan_id":"free"},{"bike_id":"f274e656-84f5-4350-a33b-99b1130a9b57","system_id":"levelo_inurba_marseille","lat":43.313391,"lon":5.36706,"is_reserved":false,"is_disabled":false,"rental_uris":{"android":"levelo://app?vid=f274e656-84f5-4350-a33b-99b1130a9b57","ios":"levelo://app?vid=f274e656-84f5-4350-a33b-99b1130a9b57"},"vehicle_type_id":"4","last_reported":1685650017,"current_range_meters":30000,"station_id":"ce4bgr92rcd13ifvqc6g","pricing_plan_id":"free"},{"bike_id":"380b5f6d-58f0-4b03-aa0b-b13371583b94","system_id":"levelo_inurba_marseille","lat":43.31341,"lon":5.367098,"is_reserved":false,"is_disabled":false,"rental_uris":{"android":"levelo://app?vid=380b5f6d-58f0-4b03-aa0b-b13371583b94","ios":"levelo://app?vid=380b5f6d-58f0-4b03-aa0b-b13371583b94"},"vehicle_type_id":"4","last_reported":1685650017,"current_range_meters":22000,"station_id":"ce4bgr92rcd13ifvqc6g","pricing_plan_id":"free"},{"bike_id":"70449bc2-11af-4ddf-8aa8-0dee631c8b7b","system_id":"levelo_inurba_marseille","lat":43.313391,"lon":5.36706,"is_reserved":false,"is_disabled":false,"rental_uris":{"android":"levelo://app?vid=70449bc2-11af-4ddf-8aa8-0dee631c8b7b","ios":"levelo://app?vid=70449bc2-11af-4ddf-8aa8-0dee631c8b7b"},"vehicle_type_id":"4","last_reported":1685650017,"current_range_meters":24800,"station_id":"ce4bgr92rcd13ifvqc6g","pricing_plan_id":"free"},{"bike_id":"608c5d66-9863-47b6-bcfa-26548aefb25d","system_id":"levelo_inurba_marseille","lat":43.31341,"lon":5.367098,"is_reserved":false,"is_disabled":false,"rental_uris":{"android":"levelo://app?vid=608c5d66-9863-47b6-bcfa-26548aefb25d","ios":"levelo://app?vid=608c5d66-9863-47b6-bcfa-26548aefb25d"},"vehicle_type_id":"4","last_reported":1685650017,"current_range_meters":26800,"station_id":"ce4bgr92rcd13ifvqc6g","pricing_plan_id":"free"},{"bike_id":"86efc2d4-0f51-4430-8a90-f5f18c8694d7","system_id":"levelo_inurba_marseille","lat":43.31341,"lon":5.367098,"is_reserved":false,"is_disabled":false,"rental_uris":{"android":"levelo://app?vid=86efc2d4-0f51-4430-8a90-f5f18c8694d7","ios":"levelo://app?vid=86efc2d4-0f51-4430-8a90-f5f18c8694d7"},"vehicle_type_id":"4","last_reported":1685650017,"current_range_meters":28800,"station_id":"ce4bgr92rcd13ifvqc6g","pricing_plan_id":"free"},{"bike_id":"4565556b-6672-4ac3-b4fb-9271dbf94926","system_id":"levelo_inurba_marseille","lat":43.31341,"lon":5.367098,"is_reserved":false,"is_disabled":false,"rental_uris":{"android":"levelo://app?vid=4565556b-6672-4ac3-b4fb-9271dbf94926","ios":"levelo://app?vid=4565556b-6672-4ac3-b4fb-9271dbf94926"},"vehicle_type_id":"4","last_reported":1685650017,"current_range_meters":31200,"station_id":"ce4bgr92rcd13ifvqc6g","pricing_plan_id":"free"},{"bike_id":"9806c50b-2795-4aaa-a8bd-d1f7ee7a093b","system_id":"levelo_inurba_marseille","lat":43.31341,"lon":5.367098,"is_reserved":false,"is_disabled":false,"rental_uris":{"android":"levelo://app?vid=9806c50b-2795-4aaa-a8bd-d1f7ee7a093b","ios":"levelo://app?vid=9806c50b-2795-4aaa-a8bd-d1f7ee7a093b"},"vehicle_type_id":"4","last_reported":1685650017,"current_range_meters":30800,"station_id":"ce4bgr92rcd13ifvqc6g","pricing_plan_id":"free"},{"bike_id":"a7f49332-048e-4641-85b2-479be30cf272","system_id":"levelo_inurba_marseille","lat":43.31341,"lon":5.367098,"is_reserved":false,"is_disabled":false,"rental_uris":{"android":"levelo://app?vid=a7f49332-048e-4641-85b2-479be30cf272","ios":"levelo://app?vid=a7f49332-048e-4641-85b2-479be30cf272"},"vehicle_type_id":"4","last_reported":1685650017,"current_range_meters":28000,"station_id":"ce4bgr92rcd13ifvqc6g","pricing_plan_id":"free"},{"bike_id":"f876f6a7-7580-4a13-bd89-09591147c079","system_id":"levelo_inurba_marseille","lat":43.31341,"lon":5.367098,"is_reserved":false,"is_disabled":false,"rental_uris":{"android":"levelo://app?vid=f876f6a7-7580-4a13-bd89-09591147c079","ios":"levelo://app?vid=f876f6a7-7580-4a13-bd89-09591147c079"},"vehicle_type_id":"4","last_reported":1685650017,"current_range_meters":30000,"station_id":"ce4bgr92rcd13ifvqc6g","pricing_plan_id":"free"},{"bike_id":"f0d9f911-1300-4abc-ae73-bdeadb366ec8","system_id":"levelo_inurba_marseille","lat":43.314811,"lon":5.373103,"is_reserved":false,"is_disabled":false,"rental_uris":{"android":"levelo://app?vid=f0d9f911-1300-4abc-ae73-bdeadb366ec8","ios":"levelo://app?vid=f0d9f911-1300-4abc-ae73-bdeadb366ec8"},"vehicle_type_id":"4","last_reported":1685650017,"current_range_meters":29600,"station_id":"ce4bgt12rcd13ifvqcd0","pricing_plan_id":"free"},{"bike_id":"565fdc60-a9fc-4d59-a67d-f27aff90f713","system_id":"levelo_inurba_marseille","lat":43.314811,"lon":5.373103,"is_reserved":false,"is_disabled":false,"rental_uris":{"android":"levelo://app?vid=565fdc60-a9fc-4d59-a67d-f27aff90f713","ios":"levelo://app?vid=565fdc60-a9fc-4d59-a67d-f27aff90f713"},"vehicle_type_id":"4","last_reported":1685650017,"current_range_meters":27200,"station_id":"ce4bgt12rcd13ifvqcd0","pricing_plan_id":"free"},{"bike_id":"64a95447-f32f-48d5-aa00-696d7ffea0fa","system_id":"levelo_inurba_marseille","lat":43.314811,"lon":5.373103,"is_reserved":false,"is_disabled":false,"rental_uris":{"android":"levelo://app?vid=64a95447-f32f-48d5-aa00-696d7ffea0fa","ios":"levelo://app?vid=64a95447-f32f-48d5-aa00-696d7ffea0fa"},"vehicle_type_id":"4","last_reported":1685650017,"current_range_meters":24000,"station_id":"ce4bgt12rcd13ifvqcd0","pricing_plan_id":"free"},{"bike_id":"c1adb4a6-9f2c-46ea-b149-2dfc34f67a93","system_id":"levelo_inurba_marseille","lat":43.314811,"lon":5.373103,"is_reserved":false,"is_disabled":false,"rental_uris":{"android":"levelo://app?vid=c1adb4a6-9f2c-46ea-b149-2dfc34f67a93","ios":"levelo://app?vid=c1adb4a6-9f2c-46ea-b149-2dfc34f67a93"},"vehicle_type_id":"4","last_reported":1685650017,"current_range_meters":9200,"station_id":"ce4bgt12rcd13ifvqcd0","pricing_plan_id":"free"},{"bike_id":"c4f1ff24-9457-4a0e-9363-ddb8b4ac2975","system_id":"levelo_inurba_marseille","lat":43.314811,"lon":5.373103,"is_reserved":false,"is_disabled":false,"rental_uris":{"android":"levelo://app?vid=c4f1ff24-9457-4a0e-9363-ddb8b4ac2975","ios":"levelo://app?vid=c4f1ff24-9457-4a0e-9363-ddb8b4ac2975"},"vehicle_type_id":"4","last_reported":1685650017,"current_range_meters":28000,"station_id":"ce4bgt12rcd13ifvqcd0","pricing_plan_id":"free"},{"bike_id":"d431f849-9b07-47e1-8424-e93d548828fc","system_id":"levelo_inurba_marseille","lat":43.314811,"lon":5.373103,"is_reserved":false,"is_disabled":false,"rental_uris":{"android":"levelo://app?vid=d431f849-9b07-47e1-8424-e93d548828fc","ios":"levelo://app?vid=d431f849-9b07-47e1-8424-e93d548828fc"},"vehicle_type_id":"4","last_reported":1685650017,"current_range_meters":28800,"station_id":"ce4bgt12rcd13ifvqcd0","pricing_plan_id":"free"},{"bike_id":"0d45b4ae-8558-4b1c-801a-20638d5463ce","system_id":"levelo_inurba_marseille","lat":43.314811,"lon":5.373103,"is_reserved":false,"is_disabled":false,"rental_uris":{"android":"levelo://app?vid=0d45b4ae-8558-4b1c-801a-20638d5463ce","ios":"levelo://app?vid=0d45b4ae-8558-4b1c-801a-20638d5463ce"},"vehicle_type_id":"4","last_reported":1685650017,"current_range_meters":29200,"station_id":"ce4bgt12rcd13ifvqcd0","pricing_plan_id":"free"},{"bike_id":"9ca3ae96-5e6c-490e-91a0-9148c2c9f5d3","system_id":"levelo_inurba_marseille","lat":43.314811,"lon":5.373103,"is_reserved":false,"is_disabled":false,"rental_uris":{"android":"levelo://app?vid=9ca3ae96-5e6c-490e-91a0-9148c2c9f5d3","ios":"levelo://app?vid=9ca3ae96-5e6c-490e-91a0-9148c2c9f5d3"},"vehicle_type_id":"4","last_reported":1685650017,"current_range_meters":29200,"station_id":"ce4bgt12rcd13ifvqcd0","pricing_plan_id":"free"},{"bike_id":"b86e03bb-7658-4646-b631-8a1ee7425eb1","system_id":"levelo_inurba_marseille","lat":43.314811,"lon":5.373104,"is_reserved":false,"is_disabled":false,"rental_uris":{"android":"levelo://app?vid=b86e03bb-7658-4646-b631-8a1ee7425eb1","ios":"levelo://app?vid=b86e03bb-7658-4646-b631-8a1ee7425eb1"},"vehicle_type_id":"4","last_reported":1685650017,"current_range_meters":4800,"station_id":"ce4bgt12rcd13ifvqcd0","pricing_plan_id":"free"},{"bike_id":"0361b7fe-59aa-43a3-b11d-57220931870e","system_id":"levelo_inurba_marseille","lat":43.314811,"lon":5.373103,"is_reserved":false,"is_disabled":false,"rental_uris":{"android":"levelo://app?vid=0361b7fe-59aa-43a3-b11d-57220931870e","ios":"levelo://app?vid=0361b7fe-59aa-43a3-b11d-57220931870e"},"vehicle_type_id":"4","last_reported":1685650017,"current_range_meters":30400,"station_id":"ce4bgt12rcd13ifvqcd0","pricing_plan_id":"free"},{"bike_id":"3c9cd58d-ef63-4e73-871c-704c7bcba0de","system_id":"levelo_inurba_marseille","lat":43.314811,"lon":5.373103,"is_reserved":false,"is_disabled":false,"rental_uris":{"android":"levelo://app?vid=3c9cd58d-ef63-4e73-871c-704c7bcba0de","ios":"levelo://app?vid=3c9cd58d-ef63-4e73-871c-704c7bcba0de"},"vehicle_type_id":"4","last_reported":1685650017,"current_range_meters":27200,"station_id":"ce4bgt12rcd13ifvqcd0","pricing_plan_id":"free"},{"bike_id":"b9ec6313-acc9-4014-af82-617f52cca01a","system_id":"levelo_inurba_marseille","lat":43.314811,"lon":5.373103,"is_reserved":false,"is_disabled":false,"rental_uris":{"android":"levelo://app?vid=b9ec6313-acc9-4014-af82-617f52cca01a","ios":"levelo://app?vid=b9ec6313-acc9-4014-af82-617f52cca01a"},"vehicle_type_id":"4","last_reported":1685650017,"current_range_meters":28000,"station_id":"ce4bgt12rcd13ifvqcd0","pricing_plan_id":"free"},{"bike_id":"b2ef43d1-b511-4d35-b0fa-b5efee0616ee","system_id":"levelo_inurba_marseille","lat":43.314811,"lon":5.373103,"is_reserved":false,"is_disabled":false,"rental_uris":{"android":"levelo://app?vid=b2ef43d1-b511-4d35-b0fa-b5efee0616ee","ios":"levelo://app?vid=b2ef43d1-b511-4d35-b0fa-b5efee0616ee"},"vehicle_type_id":"4","last_reported":1685650017,"current_range_meters":31600,"station_id":"ce4bgt12rcd13ifvqcd0","pricing_plan_id":"free"},{"bike_id":"954a1d51-355b-41a9-bd3a-22109cade1c0","system_id":"levelo_inurba_marseille","lat":43.314811,"lon":5.373103,"is_reserved":false,"is_disabled":false,"rental_uris":{"android":"levelo://app?vid=954a1d51-355b-41a9-bd3a-22109cade1c0","ios":"levelo://app?vid=954a1d51-355b-41a9-bd3a-22109cade1c0"},"vehicle_type_id":"4","last_reported":1685650017,"current_range_meters":28800,"station_id":"ce4bgt12rcd13ifvqcd0","pricing_plan_id":"free"},{"bike_id":"e2a88203-2715-465c-a250-37bdfb7df465","system_id":"levelo_inurba_marseille","lat":43.314811,"lon":5.373103,"is_reserved":false,"is_disabled":false,"rental_uris":{"android":"levelo://app?vid=e2a88203-2715-465c-a250-37bdfb7df465","ios":"levelo://app?vid=e2a88203-2715-465c-a250-37bdfb7df465"},"vehicle_type_id":"4","last_reported":1685650017,"current_range_meters":30800,"station_id":"ce4bgt12rcd13ifvqcd0","pricing_plan_id":"free"},{"bike_id":"36333f77-1e07-40b2-88e3-ca870c3f436e","system_id":"levelo_inurba_marseille","lat":43.314811,"lon":5.373103,"is_reserved":false,"is_disabled":false,"rental_uris":{"android":"levelo://app?vid=36333f77-1e07-40b2-88e3-ca870c3f436e","ios":"levelo://app?vid=36333f77-1e07-40b2-88e3-ca870c3f436e"},"vehicle_type_id":"4","last_reported":1685650017,"current_range_meters":30800,"station_id":"ce4bgt12rcd13ifvqcd0","pricing_plan_id":"free"},{"bike_id":"4d43e892-ec90-4fce-8475-f727fed3851f","system_id":"levelo_inurba_marseille","lat":43.31724,"lon":5.37092,"is_reserved":false,"is_disabled":false,"rental_uris":{"android":"levelo://app?vid=4d43e892-ec90-4fce-8475-f727fed3851f","ios":"levelo://app?vid=4d43e892-ec90-4fce-8475-f727fed3851f"},"vehicle_type_id":"4","last_reported":1685650017,"current_range_meters":12000,"station_id":"","pricing_plan_id":"free"},{"bike_id":"5390fbec-c133-43a8-a679-f8cf60a27660","system_id":"levelo_inurba_marseille","lat":43.305989,"lon":5.37225,"is_reserved":false,"is_disabled":false,"rental_uris":{"android":"levelo://app?vid=5390fbec-c133-43a8-a679-f8cf60a27660","ios":"levelo://app?vid=5390fbec-c133-43a8-a679-f8cf60a27660"},"vehicle_type_id":"4","last_reported":1685650017,"current_range_meters":31200,"station_id":"ce4bgqh2rcd13ifvqc4g","pricing_plan_id":"free"},{"bike_id":"02acd43f-cf52-4546-adc7-1e61a8305b6e","system_id":"levelo_inurba_marseille","lat":43.317075,"lon":5.377367,"is_reserved":false,"is_disabled":false,"rental_uris":{"android":"levelo://app?vid=02acd43f-cf52-4546-adc7-1e61a8305b6e","ios":"levelo://app?vid=02acd43f-cf52-4546-adc7-1e61a8305b6e"},"vehicle_type_id":"4","last_reported":1685650017,"current_range_meters":26000,"station_id":"ce4bgth2rcd13ifvqch0","pricing_plan_id":"free"},{"bike_id":"0438951a-b484-47dd-bbb6-22e04f0ed0cd","system_id":"levelo_inurba_marseille","lat":43.317075,"lon":5.377367,"is_reserved":false,"is_disabled":false,"rental_uris":{"android":"levelo://app?vid=0438951a-b484-47dd-bbb6-22e04f0ed0cd","ios":"levelo://app?vid=0438951a-b484-47dd-bbb6-22e04f0ed0cd"},"vehicle_type_id":"4","last_reported":1685650017,"current_range_meters":27600,"station_id":"ce4bgth2rcd13ifvqch0","pricing_plan_id":"free"},{"bike_id":"64668d62-2c56-40da-9e4a-cb84a2c2ea4d","system_id":"levelo_inurba_marseille","lat":43.31002,"lon":5.38021,"is_reserved":false,"is_disabled":false,"rental_uris":{"android":"levelo://app?vid=64668d62-2c56-40da-9e4a-cb84a2c2ea4d","ios":"levelo://app?vid=64668d62-2c56-40da-9e4a-cb84a2c2ea4d"},"vehicle_type_id":"4","last_reported":1685650017,"current_range_meters":3600,"station_id":"","pricing_plan_id":"free"},{"bike_id":"91f99a49-5b76-4e77-9bd3-51797f2fd3cc","system_id":"levelo_inurba_marseille","lat":43.315293,"lon":5.380349,"is_reserved":false,"is_disabled":false,"rental_uris":{"android":"levelo://app?vid=91f99a49-5b76-4e77-9bd3-51797f2fd3cc","ios":"levelo://app?vid=91f99a49-5b76-4e77-9bd3-51797f2fd3cc"},"vehicle_type_id":"4","last_reported":1685650017,"current_range_meters":1600,"station_id":"ce4bhsp2rcd13ifvqi50","pricing_plan_id":"free"},{"bike_id":"f8309795-c2f1-4ec5-b69d-7b015ef6d142","system_id":"levelo_inurba_marseille","lat":43.32381,"lon":5.36996,"is_reserved":false,"is_disabled":false,"rental_uris":{"android":"levelo://app?vid=f8309795-c2f1-4ec5-b69d-7b015ef6d142","ios":"levelo://app?vid=f8309795-c2f1-4ec5-b69d-7b015ef6d142"},"vehicle_type_id":"4","last_reported":1685650017,"current_range_meters":17600,"station_id":"","pricing_plan_id":"free"},{"bike_id":"c69bffa5-b76b-4a39-aef7-3705630e4f6c","system_id":"levelo_inurba_marseille","lat":43.308012,"lon":5.381511,"is_reserved":false,"is_disabled":false,"rental_uris":{"android":"levelo://app?vid=c69bffa5-b76b-4a39-aef7-3705630e4f6c","ios":"levelo://app?vid=c69bffa5-b76b-4a39-aef7-3705630e4f6c"},"vehicle_type_id":"4","last_reported":1685650017,"current_range_meters":0,"station_id":"ce4bgt12rcd13ifvqce0","pricing_plan_id":"free"},{"bike_id":"034d2124-84ca-45bd-9c3b-e298b1903d22","system_id":"levelo_inurba_marseille","lat":43.30795,"lon":5.38154,"is_reserved":false,"is_disabled":false,"rental_uris":{"android":"levelo://app?vid=034d2124-84ca-45bd-9c3b-e298b1903d22","ios":"levelo://app?vid=034d2124-84ca-45bd-9c3b-e298b1903d22"},"vehicle_type_id":"4","last_reported":1685650017,"current_range_meters":27200,"station_id":"ce4bgt12rcd13ifvqce0","pricing_plan_id":"free"},{"bike_id":"82b24728-faec-40d1-85ac-443904960ed9","system_id":"levelo_inurba_marseille","lat":43.30466,"lon":5.379,"is_reserved":false,"is_disabled":false,"rental_uris":{"android":"levelo://app?vid=82b24728-faec-40d1-85ac-443904960ed9","ios":"levelo://app?vid=82b24728-faec-40d1-85ac-443904960ed9"},"vehicle_type_id":"4","last_reported":1685650017,"current_range_meters":20000,"station_id":"ce4bgup2rcd13ifvqcn0","pricing_plan_id":"free"},{"bike_id":"6e670c91-5839-46c3-92c5-436912eeec54","system_id":"levelo_inurba_marseille","lat":43.30462,"lon":5.37903,"is_reserved":false,"is_disabled":false,"rental_uris":{"android":"levelo://app?vid=6e670c91-5839-46c3-92c5-436912eeec54","ios":"levelo://app?vid=6e670c91-5839-46c3-92c5-436912eeec54"},"vehicle_type_id":"4","last_reported":1685650017,"current_range_meters":20400,"station_id":"ce4bgup2rcd13ifvqcn0","pricing_plan_id":"free"},{"bike_id":"3bf2d790-7cfc-49c2-8720-aef171699d02","system_id":"levelo_inurba_marseille","lat":43.3046,"lon":5.37903,"is_reserved":false,"is_disabled":false,"rental_uris":{"android":"levelo://app?vid=3bf2d790-7cfc-49c2-8720-aef171699d02","ios":"levelo://app?vid=3bf2d790-7cfc-49c2-8720-aef171699d02"},"vehicle_type_id":"4","last_reported":1685650017,"current_range_meters":27600,"station_id":"ce4bgup2rcd13ifvqcn0","pricing_plan_id":"free"},{"bike_id":"a243ce1a-9b8e-44b3-b576-f133339bc316","system_id":"levelo_inurba_marseille","lat":43.31818,"lon":5.38162,"is_reserved":false,"is_disabled":false,"rental_uris":{"android":"levelo://app?vid=a243ce1a-9b8e-44b3-b576-f133339bc316","ios":"levelo://app?vid=a243ce1a-9b8e-44b3-b576-f133339bc316"},"vehicle_type_id":"4","last_reported":1685650017,"current_range_meters":0,"station_id":"","pricing_plan_id":"free"},{"bike_id":"b7a28efd-bc25-41ba-814b-ea8712831193","system_id":"levelo_inurba_marseille","lat":43.319935,"lon":5.381699,"is_reserved":false,"is_disabled":false,"rental_uris":{"android":"levelo://app?vid=b7a28efd-bc25-41ba-814b-ea8712831193","ios":"levelo://app?vid=b7a28efd-bc25-41ba-814b-ea8712831193"},"vehicle_type_id":"4","last_reported":1685650017,"current_range_meters":18800,"station_id":"ce4bhr12rcd13ifvqhpg","pricing_plan_id":"free"},{"bike_id":"58f3a404-9681-4638-bfe8-edf5be892e6e","system_id":"levelo_inurba_marseille","lat":43.313571,"lon":5.384829,"is_reserved":false,"is_disabled":false,"rental_uris":{"android":"levelo://app?vid=58f3a404-9681-4638-bfe8-edf5be892e6e","ios":"levelo://app?vid=58f3a404-9681-4638-bfe8-edf5be892e6e"},"vehicle_type_id":"4","last_reported":1685650017,"current_range_meters":8400,"station_id":"ce4bgt92rcd13ifvqcf0","pricing_plan_id":"free"},{"bike_id":"9cf0e4fa-ca01-4241-b72d-d72912742d4a","system_id":"levelo_inurba_marseille","lat":43.305364,"lon":5.384119,"is_reserved":false,"is_disabled":false,"rental_uris":{"android":"levelo://app?vid=9cf0e4fa-ca01-4241-b72d-d72912742d4a","ios":"levelo://app?vid=9cf0e4fa-ca01-4241-b72d-d72912742d4a"},"vehicle_type_id":"4","last_reported":1685650017,"current_range_meters":2400,"station_id":"ce4bgg92rcd13ifvqb30","pricing_plan_id":"free"},{"bike_id":"56b5f854-a22d-4ff5-a7d5-0cedad7de84c","system_id":"levelo_inurba_marseille","lat":43.298433,"lon":5.362774,"is_reserved":false,"is_disabled":false,"rental_uris":{"android":"levelo://app?vid=56b5f854-a22d-4ff5-a7d5-0cedad7de84c","ios":"levelo://app?vid=56b5f854-a22d-4ff5-a7d5-0cedad7de84c"},"vehicle_type_id":"4","last_reported":1685650017,"current_range_meters":24400,"station_id":"ce4bgpp2rcd13ifvqc3g","pricing_plan_id":"free"},{"bike_id":"c57cfb25-7f72-44eb-9f09-c61ab9476880","system_id":"levelo_inurba_marseille","lat":43.299243,"lon":5.37481,"is_reserved":false,"is_disabled":false,"rental_uris":{"android":"levelo://app?vid=c57cfb25-7f72-44eb-9f09-c61ab9476880","ios":"levelo://app?vid=c57cfb25-7f72-44eb-9f09-c61ab9476880"},"vehicle_type_id":"4","last_reported":1685650017,"current_range_meters":0,"station_id":"ce4bgjh2rcd13ifvqbg0","pricing_plan_id":"free"},{"bike_id":"95c77e70-6a0c-4421-9e70-3561b62fd6df","system_id":"levelo_inurba_marseille","lat":43.29888,"lon":5.37412,"is_reserved":false,"is_disabled":false,"rental_uris":{"android":"levelo://app?vid=95c77e70-6a0c-4421-9e70-3561b62fd6df","ios":"levelo://app?vid=95c77e70-6a0c-4421-9e70-3561b62fd6df"},"vehicle_type_id":"4","last_reported":1685650017,"current_range_meters":4800,"station_id":"","pricing_plan_id":"free"},{"bike_id":"aacdfffe-1c0e-4ddd-9387-9007e5fbf370","system_id":"levelo_inurba_marseille","lat":43.311722,"lon":5.387247,"is_reserved":false,"is_disabled":false,"rental_uris":{"android":"levelo://app?vid=aacdfffe-1c0e-4ddd-9387-9007e5fbf370","ios":"levelo://app?vid=aacdfffe-1c0e-4ddd-9387-9007e5fbf370"},"vehicle_type_id":"4","last_reported":1685650017,"current_range_meters":21200,"station_id":"ce4bgv12rcd13ifvqcp0","pricing_plan_id":"free"},{"bike_id":"fe91c682-40dd-4122-9331-dcd7c355855f","system_id":"levelo_inurba_marseille","lat":43.297774,"lon":5.370875,"is_reserved":false,"is_disabled":false,"rental_uris":{"android":"levelo://app?vid=fe91c682-40dd-4122-9331-dcd7c355855f","ios":"levelo://app?vid=fe91c682-40dd-4122-9331-dcd7c355855f"},"vehicle_type_id":"4","last_reported":1685650017,"current_range_meters":19200,"station_id":"ce4bgop2rcd13ifvqc1g","pricing_plan_id":"free"},{"bike_id":"0302bb7a-e2fc-4d8f-85c3-b73695e12268","system_id":"levelo_inurba_marseille","lat":43.29758,"lon":5.37119,"is_reserved":false,"is_disabled":false,"rental_uris":{"android":"levelo://app?vid=0302bb7a-e2fc-4d8f-85c3-b73695e12268","ios":"levelo://app?vid=0302bb7a-e2fc-4d8f-85c3-b73695e12268"},"vehicle_type_id":"4","last_reported":1685650017,"current_range_meters":30000,"station_id":"ce4bgop2rcd13ifvqc1g","pricing_plan_id":"free"},{"bike_id":"0b0d3d39-ad77-4452-a1cc-60bfdf58c9d3","system_id":"levelo_inurba_marseille","lat":43.328371,"lon":5.366909,"is_reserved":false,"is_disabled":false,"rental_uris":{"android":"levelo://app?vid=0b0d3d39-ad77-4452-a1cc-60bfdf58c9d3","ios":"levelo://app?vid=0b0d3d39-ad77-4452-a1cc-60bfdf58c9d3"},"vehicle_type_id":"4","last_reported":1685650017,"current_range_meters":24400,"station_id":"ce4bhs92rcd13ifvqi0g","pricing_plan_id":"free"},{"bike_id":"7de22db2-3ad1-4d39-9f99-94cd81d8cdc9","system_id":"levelo_inurba_marseille","lat":43.29712,"lon":5.36609,"is_reserved":false,"is_disabled":false,"rental_uris":{"android":"levelo://app?vid=7de22db2-3ad1-4d39-9f99-94cd81d8cdc9","ios":"levelo://app?vid=7de22db2-3ad1-4d39-9f99-94cd81d8cdc9"},"vehicle_type_id":"4","last_reported":1685650017,"current_range_meters":10000,"station_id":"","pricing_plan_id":"free"},{"bike_id":"20727c43-7945-4fbb-b222-45e2d3f0f712","system_id":"levelo_inurba_marseille","lat":43.29708,"lon":5.3662,"is_reserved":false,"is_disabled":false,"rental_uris":{"android":"levelo://app?vid=20727c43-7945-4fbb-b222-45e2d3f0f712","ios":"levelo://app?vid=20727c43-7945-4fbb-b222-45e2d3f0f712"},"vehicle_type_id":"4","last_reported":1685650017,"current_range_meters":6800,"station_id":"","pricing_plan_id":"free"},{"bike_id":"507699b5-903f-474a-a1d7-a6e1d0b5cb88","system_id":"levelo_inurba_marseille","lat":43.29573,"lon":5.367355,"is_reserved":false,"is_disabled":false,"rental_uris":{"android":"levelo://app?vid=507699b5-903f-474a-a1d7-a6e1d0b5cb88","ios":"levelo://app?vid=507699b5-903f-474a-a1d7-a6e1d0b5cb88"},"vehicle_type_id":"4","last_reported":1685650017,"current_range_meters":30000,"station_id":"ce4bgph2rcd13ifvqc2g","pricing_plan_id":"free"},{"bike_id":"d6e8436b-aac3-4de3-bc4b-0bb4af527068","system_id":"levelo_inurba_marseille","lat":43.29573,"lon":5.367355,"is_reserved":false,"is_disabled":false,"rental_uris":{"android":"levelo://app?vid=d6e8436b-aac3-4de3-bc4b-0bb4af527068","ios":"levelo://app?vid=d6e8436b-aac3-4de3-bc4b-0bb4af527068"},"vehicle_type_id":"4","last_reported":1685650017,"current_range_meters":31200,"station_id":"ce4bgph2rcd13ifvqc2g","pricing_plan_id":"free"},{"bike_id":"e4cd92f6-8ed0-4fe1-8024-89201c5c4dda","system_id":"levelo_inurba_marseille","lat":43.317557,"lon":5.390173,"is_reserved":false,"is_disabled":false,"rental_uris":{"android":"levelo://app?vid=e4cd92f6-8ed0-4fe1-8024-89201c5c4dda","ios":"levelo://app?vid=e4cd92f6-8ed0-4fe1-8024-89201c5c4dda"},"vehicle_type_id":"4","last_reported":1685650017,"current_range_meters":23200,"station_id":"ce4bhqp2rcd13ifvqhng","pricing_plan_id":"free"},{"bike_id":"29418387-0b15-4fad-9d82-1fa2fc83ff7b","system_id":"levelo_inurba_marseille","lat":43.317557,"lon":5.390173,"is_reserved":false,"is_disabled":false,"rental_uris":{"android":"levelo://app?vid=29418387-0b15-4fad-9d82-1fa2fc83ff7b","ios":"levelo://app?vid=29418387-0b15-4fad-9d82-1fa2fc83ff7b"},"vehicle_type_id":"4","last_reported":1685650017,"current_range_meters":22400,"station_id":"ce4bhqp2rcd13ifvqhng","pricing_plan_id":"free"},{"bike_id":"62b2baba-62bb-449e-bb47-41a20d273dcc","system_id":"levelo_inurba_marseille","lat":43.298037,"lon":5.381066,"is_reserved":false,"is_disabled":false,"rental_uris":{"android":"levelo://app?vid=62b2baba-62bb-449e-bb47-41a20d273dcc","ios":"levelo://app?vid=62b2baba-62bb-449e-bb47-41a20d273dcc"},"vehicle_type_id":"4","last_reported":1685650017,"current_range_meters":8400,"station_id":"ce4bgip2rcd13ifvqbb0","pricing_plan_id":"free"},{"bike_id":"a0ed62f7-44db-444f-917d-d313ee2befb9","system_id":"levelo_inurba_marseille","lat":43.304278,"lon":5.388868,"is_reserved":false,"is_disabled":false,"rental_uris":{"android":"levelo://app?vid=a0ed62f7-44db-444f-917d-d313ee2befb9","ios":"levelo://app?vid=a0ed62f7-44db-444f-917d-d313ee2befb9"},"vehicle_type_id":"4","last_reported":1685650017,"current_range_meters":5600,"station_id":"ce4bgk12rcd13ifvqbi0","pricing_plan_id":"free"},{"bike_id":"18f1c9d7-e1e0-472e-b97e-94267886ab84","system_id":"levelo_inurba_marseille","lat":43.299717,"lon":5.384845,"is_reserved":false,"is_disabled":false,"rental_uris":{"android":"levelo://app?vid=18f1c9d7-e1e0-472e-b97e-94267886ab84","ios":"levelo://app?vid=18f1c9d7-e1e0-472e-b97e-94267886ab84"},"vehicle_type_id":"4","last_reported":1685650017,"current_range_meters":4800,"station_id":"ce4bgj92rcd13ifvqbd0","pricing_plan_id":"free"},{"bike_id":"7dfe5321-8d74-41e0-acb2-f10dfddb8dcb","system_id":"levelo_inurba_marseille","lat":43.32367,"lon":5.388836,"is_reserved":false,"is_disabled":false,"rental_uris":{"android":"levelo://app?vid=7dfe5321-8d74-41e0-acb2-f10dfddb8dcb","ios":"levelo://app?vid=7dfe5321-8d74-41e0-acb2-f10dfddb8dcb"},"vehicle_type_id":"4","last_reported":1685650017,"current_range_meters":12000,"station_id":"ce4bhqp2rcd13ifvqhog","pricing_plan_id":"free"},{"bike_id":"639af06e-3134-4c59-9c80-86cff18b9f58","system_id":"levelo_inurba_marseille","lat":43.32367,"lon":5.388836,"is_reserved":false,"is_disabled":false,"rental_uris":{"android":"levelo://app?vid=639af06e-3134-4c59-9c80-86cff18b9f58","ios":"levelo://app?vid=639af06e-3134-4c59-9c80-86cff18b9f58"},"vehicle_type_id":"4","last_reported":1685650017,"current_range_meters":18400,"station_id":"ce4bhqp2rcd13ifvqhog","pricing_plan_id":"free"},{"bike_id":"062fe851-9cfd-4b70-87ad-cda6fe3b3595","system_id":"levelo_inurba_marseille","lat":43.32367,"lon":5.388836,"is_reserved":false,"is_disabled":false,"rental_uris":{"android":"levelo://app?vid=062fe851-9cfd-4b70-87ad-cda6fe3b3595","ios":"levelo://app?vid=062fe851-9cfd-4b70-87ad-cda6fe3b3595"},"vehicle_type_id":"4","last_reported":1685650017,"current_range_meters":15600,"station_id":"ce4bhqp2rcd13ifvqhog","pricing_plan_id":"free"},{"bike_id":"df852c57-a0a9-46cf-97c2-91523cf66fd1","system_id":"levelo_inurba_marseille","lat":43.29305,"lon":5.37127,"is_reserved":false,"is_disabled":false,"rental_uris":{"android":"levelo://app?vid=df852c57-a0a9-46cf-97c2-91523cf66fd1","ios":"levelo://app?vid=df852c57-a0a9-46cf-97c2-91523cf66fd1"},"vehicle_type_id":"4","last_reported":1685650017,"current_range_meters":11200,"station_id":"","pricing_plan_id":"free"},{"bike_id":"99455052-5246-40ba-aa35-1e272bcb9ef5","system_id":"levelo_inurba_marseille","lat":43.292749,"lon":5.368402,"is_reserved":false,"is_disabled":false,"rental_uris":{"android":"levelo://app?vid=99455052-5246-40ba-aa35-1e272bcb9ef5","ios":"levelo://app?vid=99455052-5246-40ba-aa35-1e272bcb9ef5"},"vehicle_type_id":"4","last_reported":1685650017,"current_range_meters":4800,"station_id":"ce4bhbp2rcd13ifvqesg","pricing_plan_id":"free"},{"bike_id":"c9058939-6568-496f-a69b-ea60d171582b","system_id":"levelo_inurba_marseille","lat":43.29258,"lon":5.37214,"is_reserved":false,"is_disabled":false,"rental_uris":{"android":"levelo://app?vid=c9058939-6568-496f-a69b-ea60d171582b","ios":"levelo://app?vid=c9058939-6568-496f-a69b-ea60d171582b"},"vehicle_type_id":"4","last_reported":1685650017,"current_range_meters":17200,"station_id":"","pricing_plan_id":"free"},{"bike_id":"0dc022b9-65ad-4ab5-9a3f-1967f431f859","system_id":"levelo_inurba_marseille","lat":43.303,"lon":5.39216,"is_reserved":false,"is_disabled":false,"rental_uris":{"android":"levelo://app?vid=0dc022b9-65ad-4ab5-9a3f-1967f431f859","ios":"levelo://app?vid=0dc022b9-65ad-4ab5-9a3f-1967f431f859"},"vehicle_type_id":"4","last_reported":1685650017,"current_range_meters":22400,"station_id":"ce4bgkh2rcd13ifvqbk0","pricing_plan_id":"free"},{"bike_id":"fabffe9b-ec0f-4bca-afb2-e16910ce9d11","system_id":"levelo_inurba_marseille","lat":43.293589,"lon":5.378466,"is_reserved":false,"is_disabled":false,"rental_uris":{"android":"levelo://app?vid=fabffe9b-ec0f-4bca-afb2-e16910ce9d11","ios":"levelo://app?vid=fabffe9b-ec0f-4bca-afb2-e16910ce9d11"},"vehicle_type_id":"4","last_reported":1685650017,"current_range_meters":7200,"station_id":"ce4bh092rcd13ifvqd20","pricing_plan_id":"free"},{"bike_id":"30fb98a2-1c71-4706-8ea1-d53466c839b2","system_id":"levelo_inurba_marseille","lat":43.300852,"lon":5.390859,"is_reserved":false,"is_disabled":false,"rental_uris":{"android":"levelo://app?vid=30fb98a2-1c71-4706-8ea1-d53466c839b2","ios":"levelo://app?vid=30fb98a2-1c71-4706-8ea1-d53466c839b2"},"vehicle_type_id":"4","last_reported":1685650017,"current_range_meters":24400,"station_id":"ce4bh192rcd13ifvqdb0","pricing_plan_id":"free"},{"bike_id":"cf35f392-1feb-4c42-836e-2a5c6ff6cd18","system_id":"levelo_inurba_marseille","lat":43.29222,"lon":5.36049,"is_reserved":false,"is_disabled":false,"rental_uris":{"android":"levelo://app?vid=cf35f392-1feb-4c42-836e-2a5c6ff6cd18","ios":"levelo://app?vid=cf35f392-1feb-4c42-836e-2a5c6ff6cd18"},"vehicle_type_id":"4","last_reported":1685650017,"current_range_meters":28400,"station_id":"ce4bhbh2rcd13ifvqeqg","pricing_plan_id":"free"},{"bike_id":"dbdd6926-99d5-48a3-8286-5658159016ea","system_id":"levelo_inurba_marseille","lat":43.298764,"lon":5.388973,"is_reserved":false,"is_disabled":false,"rental_uris":{"android":"levelo://app?vid=dbdd6926-99d5-48a3-8286-5658159016ea","ios":"levelo://app?vid=dbdd6926-99d5-48a3-8286-5658159016ea"},"vehicle_type_id":"4","last_reported":1685650017,"current_range_meters":18000,"station_id":"ce4bh392rcd13ifvqdl0","pricing_plan_id":"free"},{"bike_id":"f622bcbb-7392-450d-85d6-30e34556838a","system_id":"levelo_inurba_marseille","lat":43.298764,"lon":5.388973,"is_reserved":false,"is_disabled":false,"rental_uris":{"android":"levelo://app?vid=f622bcbb-7392-450d-85d6-30e34556838a","ios":"levelo://app?vid=f622bcbb-7392-450d-85d6-30e34556838a"},"vehicle_type_id":"4","last_reported":1685650017,"current_range_meters":22000,"station_id":"ce4bh392rcd13ifvqdl0","pricing_plan_id":"free"},{"bike_id":"ec2aa013-9f18-464d-898f-eb7f5ce571d5","system_id":"levelo_inurba_marseille","lat":43.291675,"lon":5.371583,"is_reserved":false,"is_disabled":false,"rental_uris":{"android":"levelo://app?vid=ec2aa013-9f18-464d-898f-eb7f5ce571d5","ios":"levelo://app?vid=ec2aa013-9f18-464d-898f-eb7f5ce571d5"},"vehicle_type_id":"4","last_reported":1685650017,"current_range_meters":1200,"station_id":"ce4bha92rcd13ifvqeh0","pricing_plan_id":"free"},{"bike_id":"0fcd42a2-5616-459a-82b6-7aed2a787b18","system_id":"levelo_inurba_marseille","lat":43.291675,"lon":5.371583,"is_reserved":false,"is_disabled":false,"rental_uris":{"android":"levelo://app?vid=0fcd42a2-5616-459a-82b6-7aed2a787b18","ios":"levelo://app?vid=0fcd42a2-5616-459a-82b6-7aed2a787b18"},"vehicle_type_id":"4","last_reported":1685650017,"current_range_meters":0,"station_id":"ce4bha92rcd13ifvqeh0","pricing_plan_id":"free"},{"bike_id":"ae294d5f-0d32-4da8-9af7-da6fb50d5212","system_id":"levelo_inurba_marseille","lat":43.31326,"lon":5.39687,"is_reserved":false,"is_disabled":false,"rental_uris":{"android":"levelo://app?vid=ae294d5f-0d32-4da8-9af7-da6fb50d5212","ios":"levelo://app?vid=ae294d5f-0d32-4da8-9af7-da6fb50d5212"},"vehicle_type_id":"4","last_reported":1685650017,"current_range_meters":22400,"station_id":"ce4bgvp2rcd13ifvqcu0","pricing_plan_id":"free"},{"bike_id":"465a2b15-e875-473a-b0a1-300e34872236","system_id":"levelo_inurba_marseille","lat":43.31332,"lon":5.39689,"is_reserved":false,"is_disabled":false,"rental_uris":{"android":"levelo://app?vid=465a2b15-e875-473a-b0a1-300e34872236","ios":"levelo://app?vid=465a2b15-e875-473a-b0a1-300e34872236"},"vehicle_type_id":"4","last_reported":1685650017,"current_range_meters":2800,"station_id":"ce4bgvp2rcd13ifvqcu0","pricing_plan_id":"free"},{"bike_id":"54c35c09-8117-48de-a2cb-b1bab30ec19e","system_id":"levelo_inurba_marseille","lat":43.31333,"lon":5.39692,"is_reserved":false,"is_disabled":false,"rental_uris":{"android":"levelo://app?vid=54c35c09-8117-48de-a2cb-b1bab30ec19e","ios":"levelo://app?vid=54c35c09-8117-48de-a2cb-b1bab30ec19e"},"vehicle_type_id":"4","last_reported":1685650017,"current_range_meters":6800,"station_id":"ce4bgvp2rcd13ifvqcu0","pricing_plan_id":"free"},{"bike_id":"0c8361ef-eca7-4b2d-be1b-f5d7589cd90c","system_id":"levelo_inurba_marseille","lat":43.31323,"lon":5.39695,"is_reserved":false,"is_disabled":false,"rental_uris":{"android":"levelo://app?vid=0c8361ef-eca7-4b2d-be1b-f5d7589cd90c","ios":"levelo://app?vid=0c8361ef-eca7-4b2d-be1b-f5d7589cd90c"},"vehicle_type_id":"4","last_reported":1685650017,"current_range_meters":7200,"station_id":"ce4bgvp2rcd13ifvqcu0","pricing_plan_id":"free"},{"bike_id":"869ca85c-098e-499b-8978-4b1e0ef991e1","system_id":"levelo_inurba_marseille","lat":43.31328,"lon":5.39696,"is_reserved":false,"is_disabled":false,"rental_uris":{"android":"levelo://app?vid=869ca85c-098e-499b-8978-4b1e0ef991e1","ios":"levelo://app?vid=869ca85c-098e-499b-8978-4b1e0ef991e1"},"vehicle_type_id":"4","last_reported":1685650017,"current_range_meters":9600,"station_id":"ce4bgvp2rcd13ifvqcu0","pricing_plan_id":"free"},{"bike_id":"168be0c8-f75b-4c5c-8dc3-70c6c785c00e","system_id":"levelo_inurba_marseille","lat":43.31327,"lon":5.39697,"is_reserved":false,"is_disabled":false,"rental_uris":{"android":"levelo://app?vid=168be0c8-f75b-4c5c-8dc3-70c6c785c00e","ios":"levelo://app?vid=168be0c8-f75b-4c5c-8dc3-70c6c785c00e"},"vehicle_type_id":"4","last_reported":1685650017,"current_range_meters":16000,"station_id":"ce4bgvp2rcd13ifvqcu0","pricing_plan_id":"free"},{"bike_id":"37713633-0c35-4f86-af32-61b58117d3c3","system_id":"levelo_inurba_marseille","lat":43.31327,"lon":5.39698,"is_reserved":false,"is_disabled":false,"rental_uris":{"android":"levelo://app?vid=37713633-0c35-4f86-af32-61b58117d3c3","ios":"levelo://app?vid=37713633-0c35-4f86-af32-61b58117d3c3"},"vehicle_type_id":"4","last_reported":1685650017,"current_range_meters":0,"station_id":"ce4bgvp2rcd13ifvqcu0","pricing_plan_id":"free"},{"bike_id":"5a660338-3281-43aa-affc-986af7b1f5e7","system_id":"levelo_inurba_marseille","lat":43.31925,"lon":5.39563,"is_reserved":false,"is_disabled":false,"rental_uris":{"android":"levelo://app?vid=5a660338-3281-43aa-affc-986af7b1f5e7","ios":"levelo://app?vid=5a660338-3281-43aa-affc-986af7b1f5e7"},"vehicle_type_id":"4","last_reported":1685650017,"current_range_meters":6400,"station_id":"","pricing_plan_id":"free"},{"bike_id":"9253cc9e-ade2-4c54-a2f2-8c3e0262d8bd","system_id":"levelo_inurba_marseille","lat":43.309038,"lon":5.396546,"is_reserved":false,"is_disabled":false,"rental_uris":{"android":"levelo://app?vid=9253cc9e-ade2-4c54-a2f2-8c3e0262d8bd","ios":"levelo://app?vid=9253cc9e-ade2-4c54-a2f2-8c3e0262d8bd"},"vehicle_type_id":"4","last_reported":1685650017,"current_range_meters":6400,"station_id":"ce4bh012rcd13ifvqcv0","pricing_plan_id":"free"},{"bike_id":"ee6226ea-b25d-42ba-8383-298b20e2cf44","system_id":"levelo_inurba_marseille","lat":43.29529,"lon":5.385581,"is_reserved":false,"is_disabled":false,"rental_uris":{"android":"levelo://app?vid=ee6226ea-b25d-42ba-8383-298b20e2cf44","ios":"levelo://app?vid=ee6226ea-b25d-42ba-8383-298b20e2cf44"},"vehicle_type_id":"4","last_reported":1685650017,"current_range_meters":24400,"station_id":"ce4bgih2rcd13ifvqba0","pricing_plan_id":"free"},{"bike_id":"324de8ea-06f4-4ec4-a029-ab0fec695a5e","system_id":"levelo_inurba_marseille","lat":43.29529,"lon":5.385581,"is_reserved":false,"is_disabled":false,"rental_uris":{"android":"levelo://app?vid=324de8ea-06f4-4ec4-a029-ab0fec695a5e","ios":"levelo://app?vid=324de8ea-06f4-4ec4-a029-ab0fec695a5e"},"vehicle_type_id":"4","last_reported":1685650017,"current_range_meters":14000,"station_id":"ce4bgih2rcd13ifvqba0","pricing_plan_id":"free"},{"bike_id":"2a571036-16a9-4301-84f3-04e6a59f3e91","system_id":"levelo_inurba_marseille","lat":43.29529,"lon":5.385581,"is_reserved":false,"is_disabled":false,"rental_uris":{"android":"levelo://app?vid=2a571036-16a9-4301-84f3-04e6a59f3e91","ios":"levelo://app?vid=2a571036-16a9-4301-84f3-04e6a59f3e91"},"vehicle_type_id":"4","last_reported":1685650017,"current_range_meters":4400,"station_id":"ce4bgih2rcd13ifvqba0","pricing_plan_id":"free"},{"bike_id":"dabeca62-9e90-4c5c-aeb5-2e4806b27ec1","system_id":"levelo_inurba_marseille","lat":43.29529,"lon":5.385581,"is_reserved":false,"is_disabled":false,"rental_uris":{"android":"levelo://app?vid=dabeca62-9e90-4c5c-aeb5-2e4806b27ec1","ios":"levelo://app?vid=dabeca62-9e90-4c5c-aeb5-2e4806b27ec1"},"vehicle_type_id":"4","last_reported":1685650017,"current_range_meters":22000,"station_id":"ce4bgih2rcd13ifvqba0","pricing_plan_id":"free"},{"bike_id":"2a527ff0-c7a1-4af8-80f2-d8151682a5df","system_id":"levelo_inurba_marseille","lat":43.290624,"lon":5.359245,"is_reserved":false,"is_disabled":false,"rental_uris":{"android":"levelo://app?vid=2a527ff0-c7a1-4af8-80f2-d8151682a5df","ios":"levelo://app?vid=2a527ff0-c7a1-4af8-80f2-d8151682a5df"},"vehicle_type_id":"4","last_reported":1685650017,"current_range_meters":12800,"station_id":"ce4bha92rcd13ifvqeg0","pricing_plan_id":"free"},{"bike_id":"951f0509-cc8a-435a-b3ac-7810940a03b8","system_id":"levelo_inurba_marseille","lat":43.290631,"lon":5.359244,"is_reserved":false,"is_disabled":false,"rental_uris":{"android":"levelo://app?vid=951f0509-cc8a-435a-b3ac-7810940a03b8","ios":"levelo://app?vid=951f0509-cc8a-435a-b3ac-7810940a03b8"},"vehicle_type_id":"4","last_reported":1685650017,"current_range_meters":24800,"station_id":"ce4bha92rcd13ifvqeg0","pricing_plan_id":"free"},{"bike_id":"ff83d54f-a5aa-4930-ab0d-1ecfae6ce441","system_id":"levelo_inurba_marseille","lat":43.290624,"lon":5.359245,"is_reserved":false,"is_disabled":false,"rental_uris":{"android":"levelo://app?vid=ff83d54f-a5aa-4930-ab0d-1ecfae6ce441","ios":"levelo://app?vid=ff83d54f-a5aa-4930-ab0d-1ecfae6ce441"},"vehicle_type_id":"4","last_reported":1685650017,"current_range_meters":8800,"station_id":"ce4bha92rcd13ifvqeg0","pricing_plan_id":"free"},{"bike_id":"6454ce26-d204-401a-b274-9aaa8837da98","system_id":"levelo_inurba_marseille","lat":43.290624,"lon":5.359245,"is_reserved":false,"is_disabled":false,"rental_uris":{"android":"levelo://app?vid=6454ce26-d204-401a-b274-9aaa8837da98","ios":"levelo://app?vid=6454ce26-d204-401a-b274-9aaa8837da98"},"vehicle_type_id":"4","last_reported":1685650017,"current_range_meters":24800,"station_id":"ce4bha92rcd13ifvqeg0","pricing_plan_id":"free"},{"bike_id":"8fc557c2-b120-4d32-bdd8-0dcf55bf74e0","system_id":"levelo_inurba_marseille","lat":43.29418,"lon":5.38623,"is_reserved":false,"is_disabled":false,"rental_uris":{"android":"levelo://app?vid=8fc557c2-b120-4d32-bdd8-0dcf55bf74e0","ios":"levelo://app?vid=8fc557c2-b120-4d32-bdd8-0dcf55bf74e0"},"vehicle_type_id":"4","last_reported":1685650017,"current_range_meters":22800,"station_id":"ce4bh2h2rcd13ifvqdh0","pricing_plan_id":"free"},{"bike_id":"7da8329c-e2a2-4fae-8a15-7d9ca1465913","system_id":"levelo_inurba_marseille","lat":43.289184,"lon":5.366408,"is_reserved":false,"is_disabled":false,"rental_uris":{"android":"levelo://app?vid=7da8329c-e2a2-4fae-8a15-7d9ca1465913","ios":"levelo://app?vid=7da8329c-e2a2-4fae-8a15-7d9ca1465913"},"vehicle_type_id":"4","last_reported":1685650017,"current_range_meters":19600,"station_id":"ce4bhap2rcd13ifvqek0","pricing_plan_id":"free"},{"bike_id":"d484ee58-17c9-4fc0-b9e7-72c19bcd771b","system_id":"levelo_inurba_marseille","lat":43.289184,"lon":5.366408,"is_reserved":false,"is_disabled":false,"rental_uris":{"android":"levelo://app?vid=d484ee58-17c9-4fc0-b9e7-72c19bcd771b","ios":"levelo://app?vid=d484ee58-17c9-4fc0-b9e7-72c19bcd771b"},"vehicle_type_id":"4","last_reported":1685650017,"current_range_meters":13200,"station_id":"ce4bhap2rcd13ifvqek0","pricing_plan_id":"free"},{"bike_id":"1bd6baa0-2eb4-49e9-b34d-a04bd17761bc","system_id":"levelo_inurba_marseille","lat":43.289184,"lon":5.366408,"is_reserved":false,"is_disabled":false,"rental_uris":{"android":"levelo://app?vid=1bd6baa0-2eb4-49e9-b34d-a04bd17761bc","ios":"levelo://app?vid=1bd6baa0-2eb4-49e9-b34d-a04bd17761bc"},"vehicle_type_id":"4","last_reported":1685650017,"current_range_meters":800,"station_id":"ce4bhap2rcd13ifvqek0","pricing_plan_id":"free"},{"bike_id":"d05cf145-6c7a-439f-a5d8-cb83f9c21342","system_id":"levelo_inurba_marseille","lat":43.289184,"lon":5.366408,"is_reserved":false,"is_disabled":false,"rental_uris":{"android":"levelo://app?vid=d05cf145-6c7a-439f-a5d8-cb83f9c21342","ios":"levelo://app?vid=d05cf145-6c7a-439f-a5d8-cb83f9c21342"},"vehicle_type_id":"4","last_reported":1685650017,"current_range_meters":19200,"station_id":"ce4bhap2rcd13ifvqek0","pricing_plan_id":"free"},{"bike_id":"9353e892-72c2-45f8-b7ab-bcb153694b53","system_id":"levelo_inurba_marseille","lat":43.289468,"lon":5.363719,"is_reserved":false,"is_disabled":false,"rental_uris":{"android":"levelo://app?vid=9353e892-72c2-45f8-b7ab-bcb153694b53","ios":"levelo://app?vid=9353e892-72c2-45f8-b7ab-bcb153694b53"},"vehicle_type_id":"4","last_reported":1685650017,"current_range_meters":7200,"station_id":"ce4bhc92rcd13ifvqetg","pricing_plan_id":"free"},{"bike_id":"a177d134-4d6a-4862-bcf6-eb7101970483","system_id":"levelo_inurba_marseille","lat":43.292632,"lon":5.384197,"is_reserved":false,"is_disabled":false,"rental_uris":{"android":"levelo://app?vid=a177d134-4d6a-4862-bcf6-eb7101970483","ios":"levelo://app?vid=a177d134-4d6a-4862-bcf6-eb7101970483"},"vehicle_type_id":"4","last_reported":1685650017,"current_range_meters":3200,"station_id":"ce4bh692rcd13ifvqea0","pricing_plan_id":"free"},{"bike_id":"d738f849-5670-4716-9e85-71dcfe0a2bf5","system_id":"levelo_inurba_marseille","lat":43.29269,"lon":5.38435,"is_reserved":false,"is_disabled":false,"rental_uris":{"android":"levelo://app?vid=d738f849-5670-4716-9e85-71dcfe0a2bf5","ios":"levelo://app?vid=d738f849-5670-4716-9e85-71dcfe0a2bf5"},"vehicle_type_id":"4","last_reported":1685650017,"current_range_meters":19200,"station_id":"ce4bh692rcd13ifvqea0","pricing_plan_id":"free"},{"bike_id":"cb085583-f95d-418f-9505-ae179ebdf4fe","system_id":"levelo_inurba_marseille","lat":43.29274,"lon":5.3845,"is_reserved":false,"is_disabled":false,"rental_uris":{"android":"levelo://app?vid=cb085583-f95d-418f-9505-ae179ebdf4fe","ios":"levelo://app?vid=cb085583-f95d-418f-9505-ae179ebdf4fe"},"vehicle_type_id":"4","last_reported":1685650017,"current_range_meters":24400,"station_id":"ce4bh692rcd13ifvqea0","pricing_plan_id":"free"},{"bike_id":"27266ec9-59a1-44b4-b87d-130e24f7733b","system_id":"levelo_inurba_marseille","lat":43.292644,"lon":5.384257,"is_reserved":false,"is_disabled":false,"rental_uris":{"android":"levelo://app?vid=27266ec9-59a1-44b4-b87d-130e24f7733b","ios":"levelo://app?vid=27266ec9-59a1-44b4-b87d-130e24f7733b"},"vehicle_type_id":"4","last_reported":1685650017,"current_range_meters":20000,"station_id":"ce4bh692rcd13ifvqea0","pricing_plan_id":"free"},{"bike_id":"661dee04-4dcd-4b44-a5e7-c8ed6a506887","system_id":"levelo_inurba_marseille","lat":43.292644,"lon":5.384257,"is_reserved":false,"is_disabled":false,"rental_uris":{"android":"levelo://app?vid=661dee04-4dcd-4b44-a5e7-c8ed6a506887","ios":"levelo://app?vid=661dee04-4dcd-4b44-a5e7-c8ed6a506887"},"vehicle_type_id":"4","last_reported":1685650017,"current_range_meters":10800,"station_id":"ce4bh692rcd13ifvqea0","pricing_plan_id":"free"},{"bike_id":"1c2f35fc-b3bf-42fc-9038-fdd66d09fc78","system_id":"levelo_inurba_marseille","lat":43.292644,"lon":5.384257,"is_reserved":false,"is_disabled":false,"rental_uris":{"android":"levelo://app?vid=1c2f35fc-b3bf-42fc-9038-fdd66d09fc78","ios":"levelo://app?vid=1c2f35fc-b3bf-42fc-9038-fdd66d09fc78"},"vehicle_type_id":"4","last_reported":1685650017,"current_range_meters":17200,"station_id":"ce4bh692rcd13ifvqea0","pricing_plan_id":"free"},{"bike_id":"69763f5b-22dd-45d8-9fd1-27f2bde2f985","system_id":"levelo_inurba_marseille","lat":43.29262,"lon":5.38445,"is_reserved":false,"is_disabled":false,"rental_uris":{"android":"levelo://app?vid=69763f5b-22dd-45d8-9fd1-27f2bde2f985","ios":"levelo://app?vid=69763f5b-22dd-45d8-9fd1-27f2bde2f985"},"vehicle_type_id":"4","last_reported":1685650017,"current_range_meters":0,"station_id":"ce4bh692rcd13ifvqea0","pricing_plan_id":"free"},{"bike_id":"0f9f3946-36f7-4463-8b9c-f709239ccd65","system_id":"levelo_inurba_marseille","lat":43.29261,"lon":5.38444,"is_reserved":false,"is_disabled":false,"rental_uris":{"android":"levelo://app?vid=0f9f3946-36f7-4463-8b9c-f709239ccd65","ios":"levelo://app?vid=0f9f3946-36f7-4463-8b9c-f709239ccd65"},"vehicle_type_id":"4","last_reported":1685650017,"current_range_meters":8400,"station_id":"ce4bh692rcd13ifvqea0","pricing_plan_id":"free"},{"bike_id":"23f89c34-b72c-46d9-88ca-cc3cc66c2925","system_id":"levelo_inurba_marseille","lat":43.29261,"lon":5.38444,"is_reserved":false,"is_disabled":false,"rental_uris":{"android":"levelo://app?vid=23f89c34-b72c-46d9-88ca-cc3cc66c2925","ios":"levelo://app?vid=23f89c34-b72c-46d9-88ca-cc3cc66c2925"},"vehicle_type_id":"4","last_reported":1685650017,"current_range_meters":12000,"station_id":"ce4bh692rcd13ifvqea0","pricing_plan_id":"free"},{"bike_id":"ae6c2522-cc48-4438-9e0f-045ea030aaa8","system_id":"levelo_inurba_marseille","lat":43.292642,"lon":5.384254,"is_reserved":false,"is_disabled":false,"rental_uris":{"android":"levelo://app?vid=ae6c2522-cc48-4438-9e0f-045ea030aaa8","ios":"levelo://app?vid=ae6c2522-cc48-4438-9e0f-045ea030aaa8"},"vehicle_type_id":"4","last_reported":1685650017,"current_range_meters":13200,"station_id":"ce4bh692rcd13ifvqea0","pricing_plan_id":"free"},{"bike_id":"71d6021b-47da-4f43-85e7-627c9cabd0b1","system_id":"levelo_inurba_marseille","lat":43.292642,"lon":5.384254,"is_reserved":false,"is_disabled":false,"rental_uris":{"android":"levelo://app?vid=71d6021b-47da-4f43-85e7-627c9cabd0b1","ios":"levelo://app?vid=71d6021b-47da-4f43-85e7-627c9cabd0b1"},"vehicle_type_id":"4","last_reported":1685650017,"current_range_meters":15200,"station_id":"ce4bh692rcd13ifvqea0","pricing_plan_id":"free"},{"bike_id":"1a369122-8b6c-4ac5-828c-fa2ae1ced8ac","system_id":"levelo_inurba_marseille","lat":43.292644,"lon":5.384257,"is_reserved":false,"is_disabled":false,"rental_uris":{"android":"levelo://app?vid=1a369122-8b6c-4ac5-828c-fa2ae1ced8ac","ios":"levelo://app?vid=1a369122-8b6c-4ac5-828c-fa2ae1ced8ac"},"vehicle_type_id":"4","last_reported":1685650017,"current_range_meters":4400,"station_id":"ce4bh692rcd13ifvqea0","pricing_plan_id":"free"},{"bike_id":"ead7bdc9-66ea-44f5-8b0f-f153f18efb44","system_id":"levelo_inurba_marseille","lat":43.292642,"lon":5.384254,"is_reserved":false,"is_disabled":false,"rental_uris":{"android":"levelo://app?vid=ead7bdc9-66ea-44f5-8b0f-f153f18efb44","ios":"levelo://app?vid=ead7bdc9-66ea-44f5-8b0f-f153f18efb44"},"vehicle_type_id":"4","last_reported":1685650017,"current_range_meters":24400,"station_id":"ce4bh692rcd13ifvqea0","pricing_plan_id":"free"},{"bike_id":"8b292615-4173-4b57-a678-eebdf839cc50","system_id":"levelo_inurba_marseille","lat":43.292642,"lon":5.384254,"is_reserved":false,"is_disabled":false,"rental_uris":{"android":"levelo://app?vid=8b292615-4173-4b57-a678-eebdf839cc50","ios":"levelo://app?vid=8b292615-4173-4b57-a678-eebdf839cc50"},"vehicle_type_id":"4","last_reported":1685650017,"current_range_meters":12800,"station_id":"ce4bh692rcd13ifvqea0","pricing_plan_id":"free"},{"bike_id":"d12f5d70-72bb-4ace-b79e-30402b1b062d","system_id":"levelo_inurba_marseille","lat":43.292642,"lon":5.384254,"is_reserved":false,"is_disabled":false,"rental_uris":{"android":"levelo://app?vid=d12f5d70-72bb-4ace-b79e-30402b1b062d","ios":"levelo://app?vid=d12f5d70-72bb-4ace-b79e-30402b1b062d"},"vehicle_type_id":"4","last_reported":1685650017,"current_range_meters":12000,"station_id":"ce4bh692rcd13ifvqea0","pricing_plan_id":"free"},{"bike_id":"149cdada-c0c6-45ee-979b-6cc38b3f3ecd","system_id":"levelo_inurba_marseille","lat":43.292642,"lon":5.384254,"is_reserved":false,"is_disabled":false,"rental_uris":{"android":"levelo://app?vid=149cdada-c0c6-45ee-979b-6cc38b3f3ecd","ios":"levelo://app?vid=149cdada-c0c6-45ee-979b-6cc38b3f3ecd"},"vehicle_type_id":"4","last_reported":1685650017,"current_range_meters":12800,"station_id":"ce4bh692rcd13ifvqea0","pricing_plan_id":"free"},{"bike_id":"e9ee4d99-550c-4b63-857f-346264c080af","system_id":"levelo_inurba_marseille","lat":43.292644,"lon":5.384257,"is_reserved":false,"is_disabled":false,"rental_uris":{"android":"levelo://app?vid=e9ee4d99-550c-4b63-857f-346264c080af","ios":"levelo://app?vid=e9ee4d99-550c-4b63-857f-346264c080af"},"vehicle_type_id":"4","last_reported":1685650017,"current_range_meters":19600,"station_id":"ce4bh692rcd13ifvqea0","pricing_plan_id":"free"},{"bike_id":"28c97719-0466-4d01-b4fb-73e1983f7773","system_id":"levelo_inurba_marseille","lat":43.292642,"lon":5.384254,"is_reserved":false,"is_disabled":false,"rental_uris":{"android":"levelo://app?vid=28c97719-0466-4d01-b4fb-73e1983f7773","ios":"levelo://app?vid=28c97719-0466-4d01-b4fb-73e1983f7773"},"vehicle_type_id":"4","last_reported":1685650017,"current_range_meters":18000,"station_id":"ce4bh692rcd13ifvqea0","pricing_plan_id":"free"},{"bike_id":"1c0a30af-e138-4c7c-9dfb-19339f914cde","system_id":"levelo_inurba_marseille","lat":43.292644,"lon":5.384257,"is_reserved":false,"is_disabled":false,"rental_uris":{"android":"levelo://app?vid=1c0a30af-e138-4c7c-9dfb-19339f914cde","ios":"levelo://app?vid=1c0a30af-e138-4c7c-9dfb-19339f914cde"},"vehicle_type_id":"4","last_reported":1685650017,"current_range_meters":2800,"station_id":"ce4bh692rcd13ifvqea0","pricing_plan_id":"free"},{"bike_id":"33e26c99-157b-479b-8a0d-59dc8df8dc85","system_id":"levelo_inurba_marseille","lat":43.292642,"lon":5.384254,"is_reserved":false,"is_disabled":false,"rental_uris":{"android":"levelo://app?vid=33e26c99-157b-479b-8a0d-59dc8df8dc85","ios":"levelo://app?vid=33e26c99-157b-479b-8a0d-59dc8df8dc85"},"vehicle_type_id":"4","last_reported":1685650017,"current_range_meters":6800,"station_id":"ce4bh692rcd13ifvqea0","pricing_plan_id":"free"},{"bike_id":"676aeba8-ccce-4af1-a762-1eb49b6c907c","system_id":"levelo_inurba_marseille","lat":43.292642,"lon":5.384254,"is_reserved":false,"is_disabled":false,"rental_uris":{"android":"levelo://app?vid=676aeba8-ccce-4af1-a762-1eb49b6c907c","ios":"levelo://app?vid=676aeba8-ccce-4af1-a762-1eb49b6c907c"},"vehicle_type_id":"4","last_reported":1685650017,"current_range_meters":17600,"station_id":"ce4bh692rcd13ifvqea0","pricing_plan_id":"free"},{"bike_id":"cc2233ca-8e28-4502-89ac-b43bbc57d0fd","system_id":"levelo_inurba_marseille","lat":43.292644,"lon":5.384257,"is_reserved":false,"is_disabled":false,"rental_uris":{"android":"levelo://app?vid=cc2233ca-8e28-4502-89ac-b43bbc57d0fd","ios":"levelo://app?vid=cc2233ca-8e28-4502-89ac-b43bbc57d0fd"},"vehicle_type_id":"4","last_reported":1685650017,"current_range_meters":2400,"station_id":"ce4bh692rcd13ifvqea0","pricing_plan_id":"free"},{"bike_id":"38f05105-6999-4f25-8a21-8e60e3df5adb","system_id":"levelo_inurba_marseille","lat":43.29254,"lon":5.38453,"is_reserved":false,"is_disabled":false,"rental_uris":{"android":"levelo://app?vid=38f05105-6999-4f25-8a21-8e60e3df5adb","ios":"levelo://app?vid=38f05105-6999-4f25-8a21-8e60e3df5adb"},"vehicle_type_id":"4","last_reported":1685650017,"current_range_meters":0,"station_id":"ce4bh692rcd13ifvqea0","pricing_plan_id":"free"},{"bike_id":"e6d525be-266d-470f-a031-9c387e7a6e93","system_id":"levelo_inurba_marseille","lat":43.29251,"lon":5.38455,"is_reserved":false,"is_disabled":false,"rental_uris":{"android":"levelo://app?vid=e6d525be-266d-470f-a031-9c387e7a6e93","ios":"levelo://app?vid=e6d525be-266d-470f-a031-9c387e7a6e93"},"vehicle_type_id":"4","last_reported":1685650017,"current_range_meters":2800,"station_id":"ce4bh692rcd13ifvqea0","pricing_plan_id":"free"},{"bike_id":"24da243a-47ff-4871-8e64-6b530aef82ac","system_id":"levelo_inurba_marseille","lat":43.292644,"lon":5.384257,"is_reserved":false,"is_disabled":false,"rental_uris":{"android":"levelo://app?vid=24da243a-47ff-4871-8e64-6b530aef82ac","ios":"levelo://app?vid=24da243a-47ff-4871-8e64-6b530aef82ac"},"vehicle_type_id":"4","last_reported":1685650017,"current_range_meters":20400,"station_id":"ce4bh692rcd13ifvqea0","pricing_plan_id":"free"},{"bike_id":"32657eae-fe77-40bb-99df-5caf6a4cb53e","system_id":"levelo_inurba_marseille","lat":43.290104,"lon":5.356111,"is_reserved":false,"is_disabled":false,"rental_uris":{"android":"levelo://app?vid=32657eae-fe77-40bb-99df-5caf6a4cb53e","ios":"levelo://app?vid=32657eae-fe77-40bb-99df-5caf6a4cb53e"},"vehicle_type_id":"4","last_reported":1685650017,"current_range_meters":1200,"station_id":"ce4bhb92rcd13ifvqen0","pricing_plan_id":"free"},{"bike_id":"197cdebb-3f92-48d2-988e-e7218fd89b3e","system_id":"levelo_inurba_marseille","lat":43.295169,"lon":5.390426,"is_reserved":false,"is_disabled":false,"rental_uris":{"android":"levelo://app?vid=197cdebb-3f92-48d2-988e-e7218fd89b3e","ios":"levelo://app?vid=197cdebb-3f92-48d2-988e-e7218fd89b3e"},"vehicle_type_id":"4","last_reported":1685650017,"current_range_meters":9200,"station_id":"ce4bh3p2rcd13ifvqdp0","pricing_plan_id":"free"},{"bike_id":"092ba2c9-8de9-4c8a-8c96-cba202d5016b","system_id":"levelo_inurba_marseille","lat":43.297814,"lon":5.393513,"is_reserved":false,"is_disabled":false,"rental_uris":{"android":"levelo://app?vid=092ba2c9-8de9-4c8a-8c96-cba202d5016b","ios":"levelo://app?vid=092ba2c9-8de9-4c8a-8c96-cba202d5016b"},"vehicle_type_id":"4","last_reported":1685650017,"current_range_meters":22800,"station_id":"chh1huq6cuj3fo74tm60","pricing_plan_id":"free"},{"bike_id":"b74e0881-672b-449b-bcf6-7d42ba972ee1","system_id":"levelo_inurba_marseille","lat":43.295169,"lon":5.390426,"is_reserved":false,"is_disabled":false,"rental_uris":{"android":"levelo://app?vid=b74e0881-672b-449b-bcf6-7d42ba972ee1","ios":"levelo://app?vid=b74e0881-672b-449b-bcf6-7d42ba972ee1"},"vehicle_type_id":"4","last_reported":1685650017,"current_range_meters":24000,"station_id":"ce4bh3p2rcd13ifvqdp0","pricing_plan_id":"free"},{"bike_id":"681b3f56-1123-4f30-a3a1-f95416c60075","system_id":"levelo_inurba_marseille","lat":43.297814,"lon":5.393513,"is_reserved":false,"is_disabled":false,"rental_uris":{"android":"levelo://app?vid=681b3f56-1123-4f30-a3a1-f95416c60075","ios":"levelo://app?vid=681b3f56-1123-4f30-a3a1-f95416c60075"},"vehicle_type_id":"4","last_reported":1685650017,"current_range_meters":2800,"station_id":"chh1huq6cuj3fo74tm60","pricing_plan_id":"free"},{"bike_id":"a74a92f2-9b86-4d26-8200-02781cb351ba","system_id":"levelo_inurba_marseille","lat":43.289832,"lon":5.37828,"is_reserved":false,"is_disabled":false,"rental_uris":{"android":"levelo://app?vid=a74a92f2-9b86-4d26-8200-02781cb351ba","ios":"levelo://app?vid=a74a92f2-9b86-4d26-8200-02781cb351ba"},"vehicle_type_id":"4","last_reported":1685650017,"current_range_meters":26800,"station_id":"ce4bh4p2rcd13ifvqe1g","pricing_plan_id":"free"},{"bike_id":"87758425-4f32-4815-b69c-ff82ecf72e9e","system_id":"levelo_inurba_marseille","lat":43.29782,"lon":5.39346,"is_reserved":false,"is_disabled":false,"rental_uris":{"android":"levelo://app?vid=87758425-4f32-4815-b69c-ff82ecf72e9e","ios":"levelo://app?vid=87758425-4f32-4815-b69c-ff82ecf72e9e"},"vehicle_type_id":"4","last_reported":1685650017,"current_range_meters":0,"station_id":"chh1huq6cuj3fo74tm60","pricing_plan_id":"free"},{"bike_id":"429ea6f0-961a-4f21-827c-c3b2ac303925","system_id":"levelo_inurba_marseille","lat":43.295169,"lon":5.390426,"is_reserved":false,"is_disabled":false,"rental_uris":{"android":"levelo://app?vid=429ea6f0-961a-4f21-827c-c3b2ac303925","ios":"levelo://app?vid=429ea6f0-961a-4f21-827c-c3b2ac303925"},"vehicle_type_id":"4","last_reported":1685650017,"current_range_meters":15600,"station_id":"ce4bh3p2rcd13ifvqdp0","pricing_plan_id":"free"},{"bike_id":"d8eb4c26-04df-4679-a27b-0a08a70f7666","system_id":"levelo_inurba_marseille","lat":43.295169,"lon":5.390426,"is_reserved":false,"is_disabled":false,"rental_uris":{"android":"levelo://app?vid=d8eb4c26-04df-4679-a27b-0a08a70f7666","ios":"levelo://app?vid=d8eb4c26-04df-4679-a27b-0a08a70f7666"},"vehicle_type_id":"4","last_reported":1685650017,"current_range_meters":12800,"station_id":"ce4bh3p2rcd13ifvqdp0","pricing_plan_id":"free"},{"bike_id":"26a567c5-728e-41b1-b81f-579a62278d28","system_id":"levelo_inurba_marseille","lat":43.295169,"lon":5.390426,"is_reserved":false,"is_disabled":false,"rental_uris":{"android":"levelo://app?vid=26a567c5-728e-41b1-b81f-579a62278d28","ios":"levelo://app?vid=26a567c5-728e-41b1-b81f-579a62278d28"},"vehicle_type_id":"4","last_reported":1685650017,"current_range_meters":21600,"station_id":"ce4bh3p2rcd13ifvqdp0","pricing_plan_id":"free"},{"bike_id":"28713c63-bd21-4c7a-9c16-3335c7e9f7db","system_id":"levelo_inurba_marseille","lat":43.295169,"lon":5.390426,"is_reserved":false,"is_disabled":false,"rental_uris":{"android":"levelo://app?vid=28713c63-bd21-4c7a-9c16-3335c7e9f7db","ios":"levelo://app?vid=28713c63-bd21-4c7a-9c16-3335c7e9f7db"},"vehicle_type_id":"4","last_reported":1685650017,"current_range_meters":13200,"station_id":"ce4bh3p2rcd13ifvqdp0","pricing_plan_id":"free"},{"bike_id":"7e98aabc-f83a-4349-96d9-af3d6f43c9f6","system_id":"levelo_inurba_marseille","lat":43.295169,"lon":5.390426,"is_reserved":false,"is_disabled":false,"rental_uris":{"android":"levelo://app?vid=7e98aabc-f83a-4349-96d9-af3d6f43c9f6","ios":"levelo://app?vid=7e98aabc-f83a-4349-96d9-af3d6f43c9f6"},"vehicle_type_id":"4","last_reported":1685650017,"current_range_meters":28800,"station_id":"ce4bh3p2rcd13ifvqdp0","pricing_plan_id":"free"},{"bike_id":"178c8f48-bd41-4e96-a8d8-8f6b997a2dd2","system_id":"levelo_inurba_marseille","lat":43.298681,"lon":5.397225,"is_reserved":false,"is_disabled":false,"rental_uris":{"android":"levelo://app?vid=178c8f48-bd41-4e96-a8d8-8f6b997a2dd2","ios":"levelo://app?vid=178c8f48-bd41-4e96-a8d8-8f6b997a2dd2"},"vehicle_type_id":"4","last_reported":1685650017,"current_range_meters":23600,"station_id":"ce4bh0h2rcd13ifvqd50","pricing_plan_id":"free"},{"bike_id":"09f1ab06-3619-430a-abe2-b008c917d8e8","system_id":"levelo_inurba_marseille","lat":43.30642,"lon":5.401031,"is_reserved":false,"is_disabled":false,"rental_uris":{"android":"levelo://app?vid=09f1ab06-3619-430a-abe2-b008c917d8e8","ios":"levelo://app?vid=09f1ab06-3619-430a-abe2-b008c917d8e8"},"vehicle_type_id":"4","last_reported":1685650017,"current_range_meters":30800,"station_id":"ce4bh112rcd13ifvqda0","pricing_plan_id":"free"},{"bike_id":"29d069c6-7c8f-49f9-b6d0-df88411d461d","system_id":"levelo_inurba_marseille","lat":43.301117,"lon":5.398795,"is_reserved":false,"is_disabled":false,"rental_uris":{"android":"levelo://app?vid=29d069c6-7c8f-49f9-b6d0-df88411d461d","ios":"levelo://app?vid=29d069c6-7c8f-49f9-b6d0-df88411d461d"},"vehicle_type_id":"4","last_reported":1685650017,"current_range_meters":16400,"station_id":"ce4bh0h2rcd13ifvqd40","pricing_plan_id":"free"},{"bike_id":"09af8647-4300-497b-9ae7-5cf5c2da8d5b","system_id":"levelo_inurba_marseille","lat":43.301117,"lon":5.398795,"is_reserved":false,"is_disabled":false,"rental_uris":{"android":"levelo://app?vid=09af8647-4300-497b-9ae7-5cf5c2da8d5b","ios":"levelo://app?vid=09af8647-4300-497b-9ae7-5cf5c2da8d5b"},"vehicle_type_id":"4","last_reported":1685650017,"current_range_meters":23600,"station_id":"ce4bh0h2rcd13ifvqd40","pricing_plan_id":"free"},{"bike_id":"1b5b61a4-301c-436e-a009-924c21386426","system_id":"levelo_inurba_marseille","lat":43.286591,"lon":5.363346,"is_reserved":false,"is_disabled":false,"rental_uris":{"android":"levelo://app?vid=1b5b61a4-301c-436e-a009-924c21386426","ios":"levelo://app?vid=1b5b61a4-301c-436e-a009-924c21386426"},"vehicle_type_id":"4","last_reported":1685650017,"current_range_meters":17600,"station_id":"ce4bhah2rcd13ifvqej0","pricing_plan_id":"free"},{"bike_id":"c4651d45-6ff3-4c5d-b230-480dcd017449","system_id":"levelo_inurba_marseille","lat":43.286591,"lon":5.363346,"is_reserved":false,"is_disabled":false,"rental_uris":{"android":"levelo://app?vid=c4651d45-6ff3-4c5d-b230-480dcd017449","ios":"levelo://app?vid=c4651d45-6ff3-4c5d-b230-480dcd017449"},"vehicle_type_id":"4","last_reported":1685650017,"current_range_meters":24000,"station_id":"ce4bhah2rcd13ifvqej0","pricing_plan_id":"free"},{"bike_id":"cc3ed620-46a7-4d27-b33c-7884d409f252","system_id":"levelo_inurba_marseille","lat":43.30421,"lon":5.401,"is_reserved":false,"is_disabled":false,"rental_uris":{"android":"levelo://app?vid=cc3ed620-46a7-4d27-b33c-7884d409f252","ios":"levelo://app?vid=cc3ed620-46a7-4d27-b33c-7884d409f252"},"vehicle_type_id":"4","last_reported":1685650017,"current_range_meters":3200,"station_id":"","pricing_plan_id":"free"},{"bike_id":"e4e075ed-be92-489f-8a0b-6d8a9b9b1d2e","system_id":"levelo_inurba_marseille","lat":43.28689,"lon":5.37395,"is_reserved":false,"is_disabled":false,"rental_uris":{"android":"levelo://app?vid=e4e075ed-be92-489f-8a0b-6d8a9b9b1d2e","ios":"levelo://app?vid=e4e075ed-be92-489f-8a0b-6d8a9b9b1d2e"},"vehicle_type_id":"4","last_reported":1685650017,"current_range_meters":16400,"station_id":"","pricing_plan_id":"free"},{"bike_id":"e335ce68-acea-4359-8225-ec6bf390aa13","system_id":"levelo_inurba_marseille","lat":43.290345,"lon":5.38646,"is_reserved":false,"is_disabled":false,"rental_uris":{"android":"levelo://app?vid=e335ce68-acea-4359-8225-ec6bf390aa13","ios":"levelo://app?vid=e335ce68-acea-4359-8225-ec6bf390aa13"},"vehicle_type_id":"4","last_reported":1685650017,"current_range_meters":7600,"station_id":"ce4bh4p2rcd13ifvqe0g","pricing_plan_id":"free"},{"bike_id":"1e11bdbd-0350-44b3-bb5b-160439442b95","system_id":"levelo_inurba_marseille","lat":43.295194,"lon":5.39397,"is_reserved":false,"is_disabled":false,"rental_uris":{"android":"levelo://app?vid=1e11bdbd-0350-44b3-bb5b-160439442b95","ios":"levelo://app?vid=1e11bdbd-0350-44b3-bb5b-160439442b95"},"vehicle_type_id":"4","last_reported":1685650017,"current_range_meters":21600,"station_id":"ce4bh292rcd13ifvqdf0","pricing_plan_id":"free"},{"bike_id":"2ae7ef79-5b39-4007-937b-5c1359f8a2cd","system_id":"levelo_inurba_marseille","lat":43.295194,"lon":5.39397,"is_reserved":false,"is_disabled":false,"rental_uris":{"android":"levelo://app?vid=2ae7ef79-5b39-4007-937b-5c1359f8a2cd","ios":"levelo://app?vid=2ae7ef79-5b39-4007-937b-5c1359f8a2cd"},"vehicle_type_id":"4","last_reported":1685650017,"current_range_meters":22400,"station_id":"ce4bh292rcd13ifvqdf0","pricing_plan_id":"free"},{"bike_id":"cc2b191d-c886-4600-b843-4750d4a3911e","system_id":"levelo_inurba_marseille","lat":43.290336,"lon":5.386425,"is_reserved":false,"is_disabled":false,"rental_uris":{"android":"levelo://app?vid=cc2b191d-c886-4600-b843-4750d4a3911e","ios":"levelo://app?vid=cc2b191d-c886-4600-b843-4750d4a3911e"},"vehicle_type_id":"4","last_reported":1685650017,"current_range_meters":15200,"station_id":"ce4bh4p2rcd13ifvqe0g","pricing_plan_id":"free"},{"bike_id":"af31de88-d7b5-486c-a1f7-12c3e82e670c","system_id":"levelo_inurba_marseille","lat":43.290345,"lon":5.38646,"is_reserved":false,"is_disabled":false,"rental_uris":{"android":"levelo://app?vid=af31de88-d7b5-486c-a1f7-12c3e82e670c","ios":"levelo://app?vid=af31de88-d7b5-486c-a1f7-12c3e82e670c"},"vehicle_type_id":"4","last_reported":1685650017,"current_range_meters":19200,"station_id":"ce4bh4p2rcd13ifvqe0g","pricing_plan_id":"free"},{"bike_id":"1b9666c9-0a30-476a-965e-2e3b96e77318","system_id":"levelo_inurba_marseille","lat":43.290336,"lon":5.386425,"is_reserved":false,"is_disabled":false,"rental_uris":{"android":"levelo://app?vid=1b9666c9-0a30-476a-965e-2e3b96e77318","ios":"levelo://app?vid=1b9666c9-0a30-476a-965e-2e3b96e77318"},"vehicle_type_id":"4","last_reported":1685650017,"current_range_meters":19200,"station_id":"ce4bh4p2rcd13ifvqe0g","pricing_plan_id":"free"},{"bike_id":"659fb273-752c-4168-88c8-b4ee71c5000b","system_id":"levelo_inurba_marseille","lat":43.286039,"lon":5.370679,"is_reserved":false,"is_disabled":false,"rental_uris":{"android":"levelo://app?vid=659fb273-752c-4168-88c8-b4ee71c5000b","ios":"levelo://app?vid=659fb273-752c-4168-88c8-b4ee71c5000b"},"vehicle_type_id":"4","last_reported":1685650017,"current_range_meters":19600,"station_id":"ce4bht12rcd13ifvqi60","pricing_plan_id":"free"},{"bike_id":"fc7a587c-a07f-404c-b162-abbf09de806a","system_id":"levelo_inurba_marseille","lat":43.286039,"lon":5.370679,"is_reserved":false,"is_disabled":false,"rental_uris":{"android":"levelo://app?vid=fc7a587c-a07f-404c-b162-abbf09de806a","ios":"levelo://app?vid=fc7a587c-a07f-404c-b162-abbf09de806a"},"vehicle_type_id":"4","last_reported":1685650017,"current_range_meters":12400,"station_id":"ce4bht12rcd13ifvqi60","pricing_plan_id":"free"},{"bike_id":"a424f68d-af1e-4afa-b1a1-85a6c7b8d04c","system_id":"levelo_inurba_marseille","lat":43.286039,"lon":5.370679,"is_reserved":false,"is_disabled":false,"rental_uris":{"android":"levelo://app?vid=a424f68d-af1e-4afa-b1a1-85a6c7b8d04c","ios":"levelo://app?vid=a424f68d-af1e-4afa-b1a1-85a6c7b8d04c"},"vehicle_type_id":"4","last_reported":1685650017,"current_range_meters":0,"station_id":"ce4bht12rcd13ifvqi60","pricing_plan_id":"free"},{"bike_id":"91479459-2415-43d1-8aa3-4879f652dd3c","system_id":"levelo_inurba_marseille","lat":43.286039,"lon":5.370679,"is_reserved":false,"is_disabled":false,"rental_uris":{"android":"levelo://app?vid=91479459-2415-43d1-8aa3-4879f652dd3c","ios":"levelo://app?vid=91479459-2415-43d1-8aa3-4879f652dd3c"},"vehicle_type_id":"4","last_reported":1685650017,"current_range_meters":31200,"station_id":"ce4bht12rcd13ifvqi60","pricing_plan_id":"free"},{"bike_id":"0710212f-8fdb-4bb0-a17f-46a5d96b1e0c","system_id":"levelo_inurba_marseille","lat":43.287184,"lon":5.37937,"is_reserved":false,"is_disabled":false,"rental_uris":{"android":"levelo://app?vid=0710212f-8fdb-4bb0-a17f-46a5d96b1e0c","ios":"levelo://app?vid=0710212f-8fdb-4bb0-a17f-46a5d96b1e0c"},"vehicle_type_id":"4","last_reported":1685650017,"current_range_meters":10000,"station_id":"ce4bh9p2rcd13ifvqec0","pricing_plan_id":"free"},{"bike_id":"3634956d-52f9-416e-84ab-fec687bc693d","system_id":"levelo_inurba_marseille","lat":43.291994,"lon":5.392907,"is_reserved":false,"is_disabled":false,"rental_uris":{"android":"levelo://app?vid=3634956d-52f9-416e-84ab-fec687bc693d","ios":"levelo://app?vid=3634956d-52f9-416e-84ab-fec687bc693d"},"vehicle_type_id":"4","last_reported":1685650017,"current_range_meters":21600,"station_id":"ce4bh192rcd13ifvqdd0","pricing_plan_id":"free"},{"bike_id":"18bf04e9-d7b1-498b-baf6-c6ea112a6f80","system_id":"levelo_inurba_marseille","lat":43.291994,"lon":5.392907,"is_reserved":false,"is_disabled":false,"rental_uris":{"android":"levelo://app?vid=18bf04e9-d7b1-498b-baf6-c6ea112a6f80","ios":"levelo://app?vid=18bf04e9-d7b1-498b-baf6-c6ea112a6f80"},"vehicle_type_id":"4","last_reported":1685650017,"current_range_meters":18000,"station_id":"ce4bh192rcd13ifvqdd0","pricing_plan_id":"free"},{"bike_id":"cec8201a-4211-4e38-a85b-afab81d602c7","system_id":"levelo_inurba_marseille","lat":43.284534,"lon":5.358662,"is_reserved":false,"is_disabled":false,"rental_uris":{"android":"levelo://app?vid=cec8201a-4211-4e38-a85b-afab81d602c7","ios":"levelo://app?vid=cec8201a-4211-4e38-a85b-afab81d602c7"},"vehicle_type_id":"4","last_reported":1685650017,"current_range_meters":5200,"station_id":"ce4bhah2rcd13ifvqei0","pricing_plan_id":"free"},{"bike_id":"398a9799-253b-4553-abf5-89c78ef43890","system_id":"levelo_inurba_marseille","lat":43.28616,"lon":5.35096,"is_reserved":false,"is_disabled":false,"rental_uris":{"android":"levelo://app?vid=398a9799-253b-4553-abf5-89c78ef43890","ios":"levelo://app?vid=398a9799-253b-4553-abf5-89c78ef43890"},"vehicle_type_id":"4","last_reported":1685650017,"current_range_meters":14000,"station_id":"","pricing_plan_id":"free"},{"bike_id":"a6af4066-0fff-4011-aa3a-2351ea9b3364","system_id":"levelo_inurba_marseille","lat":43.285856,"lon":5.350771,"is_reserved":false,"is_disabled":false,"rental_uris":{"android":"levelo://app?vid=a6af4066-0fff-4011-aa3a-2351ea9b3364","ios":"levelo://app?vid=a6af4066-0fff-4011-aa3a-2351ea9b3364"},"vehicle_type_id":"4","last_reported":1685650017,"current_range_meters":26400,"station_id":"ce4bhch2rcd13ifvqeug","pricing_plan_id":"free"},{"bike_id":"1b9c1d67-85f2-4030-ba01-6f4d6b59c565","system_id":"levelo_inurba_marseille","lat":43.28672,"lon":5.38658,"is_reserved":false,"is_disabled":false,"rental_uris":{"android":"levelo://app?vid=1b9c1d67-85f2-4030-ba01-6f4d6b59c565","ios":"levelo://app?vid=1b9c1d67-85f2-4030-ba01-6f4d6b59c565"},"vehicle_type_id":"4","last_reported":1685650017,"current_range_meters":2000,"station_id":"ce4bh492rcd13ifvqdug","pricing_plan_id":"free"},{"bike_id":"b205e703-9cc6-479d-b47b-dcec15459f4d","system_id":"levelo_inurba_marseille","lat":43.32705,"lon":5.40367,"is_reserved":false,"is_disabled":false,"rental_uris":{"android":"levelo://app?vid=b205e703-9cc6-479d-b47b-dcec15459f4d","ios":"levelo://app?vid=b205e703-9cc6-479d-b47b-dcec15459f4d"},"vehicle_type_id":"4","last_reported":1685650017,"current_range_meters":24800,"station_id":"","pricing_plan_id":"free"},{"bike_id":"ad3b4fc5-d39b-480f-b7a2-35fd52f0f794","system_id":"levelo_inurba_marseille","lat":43.323464,"lon":5.406297,"is_reserved":false,"is_disabled":false,"rental_uris":{"android":"levelo://app?vid=ad3b4fc5-d39b-480f-b7a2-35fd52f0f794","ios":"levelo://app?vid=ad3b4fc5-d39b-480f-b7a2-35fd52f0f794"},"vehicle_type_id":"4","last_reported":1685650017,"current_range_meters":17600,"station_id":"ce4bhq92rcd13ifvqhjg","pricing_plan_id":"free"},{"bike_id":"6b6e6550-a570-4017-8c87-39e899e1fe64","system_id":"levelo_inurba_marseille","lat":43.33729,"lon":5.39192,"is_reserved":false,"is_disabled":false,"rental_uris":{"android":"levelo://app?vid=6b6e6550-a570-4017-8c87-39e899e1fe64","ios":"levelo://app?vid=6b6e6550-a570-4017-8c87-39e899e1fe64"},"vehicle_type_id":"4","last_reported":1685650017,"current_range_meters":4000,"station_id":"","pricing_plan_id":"free"},{"bike_id":"11e24285-9fee-4666-bf30-bbcc6d1fd00b","system_id":"levelo_inurba_marseille","lat":43.32347,"lon":5.40628,"is_reserved":false,"is_disabled":false,"rental_uris":{"android":"levelo://app?vid=11e24285-9fee-4666-bf30-bbcc6d1fd00b","ios":"levelo://app?vid=11e24285-9fee-4666-bf30-bbcc6d1fd00b"},"vehicle_type_id":"4","last_reported":1685650017,"current_range_meters":27600,"station_id":"ce4bhq92rcd13ifvqhjg","pricing_plan_id":"free"},{"bike_id":"4bf6aed0-4c90-4f9d-be72-ac9bf88b18a7","system_id":"levelo_inurba_marseille","lat":43.284219,"lon":5.3497,"is_reserved":false,"is_disabled":false,"rental_uris":{"android":"levelo://app?vid=4bf6aed0-4c90-4f9d-be72-ac9bf88b18a7","ios":"levelo://app?vid=4bf6aed0-4c90-4f9d-be72-ac9bf88b18a7"},"vehicle_type_id":"4","last_reported":1685650017,"current_range_meters":2000,"station_id":"ce4bhbh2rcd13ifvqepg","pricing_plan_id":"free"},{"bike_id":"cf71f1b1-b3d1-4dd5-a913-5ad31d3c392d","system_id":"levelo_inurba_marseille","lat":43.284219,"lon":5.3497,"is_reserved":false,"is_disabled":false,"rental_uris":{"android":"levelo://app?vid=cf71f1b1-b3d1-4dd5-a913-5ad31d3c392d","ios":"levelo://app?vid=cf71f1b1-b3d1-4dd5-a913-5ad31d3c392d"},"vehicle_type_id":"4","last_reported":1685650017,"current_range_meters":7200,"station_id":"ce4bhbh2rcd13ifvqepg","pricing_plan_id":"free"},{"bike_id":"2d2e4aa8-c68c-40d8-96eb-a651c29879e1","system_id":"levelo_inurba_marseille","lat":43.2842,"lon":5.34987,"is_reserved":false,"is_disabled":false,"rental_uris":{"android":"levelo://app?vid=2d2e4aa8-c68c-40d8-96eb-a651c29879e1","ios":"levelo://app?vid=2d2e4aa8-c68c-40d8-96eb-a651c29879e1"},"vehicle_type_id":"4","last_reported":1685650017,"current_range_meters":30000,"station_id":"ce4bhbh2rcd13ifvqepg","pricing_plan_id":"free"},{"bike_id":"733a7182-88cb-4e72-a838-6d5e64acb37f","system_id":"levelo_inurba_marseille","lat":43.28418,"lon":5.3499,"is_reserved":false,"is_disabled":false,"rental_uris":{"android":"levelo://app?vid=733a7182-88cb-4e72-a838-6d5e64acb37f","ios":"levelo://app?vid=733a7182-88cb-4e72-a838-6d5e64acb37f"},"vehicle_type_id":"4","last_reported":1685650017,"current_range_meters":25600,"station_id":"ce4bhbh2rcd13ifvqepg","pricing_plan_id":"free"},{"bike_id":"5a033f97-d1a3-42c5-8e1c-f63472b3c334","system_id":"levelo_inurba_marseille","lat":43.284217,"lon":5.349697,"is_reserved":false,"is_disabled":false,"rental_uris":{"android":"levelo://app?vid=5a033f97-d1a3-42c5-8e1c-f63472b3c334","ios":"levelo://app?vid=5a033f97-d1a3-42c5-8e1c-f63472b3c334"},"vehicle_type_id":"4","last_reported":1685650017,"current_range_meters":26000,"station_id":"ce4bhbh2rcd13ifvqepg","pricing_plan_id":"free"},{"bike_id":"3c2eb3ff-5214-4108-b049-06084eae045f","system_id":"levelo_inurba_marseille","lat":43.284218,"lon":5.349744,"is_reserved":false,"is_disabled":false,"rental_uris":{"android":"levelo://app?vid=3c2eb3ff-5214-4108-b049-06084eae045f","ios":"levelo://app?vid=3c2eb3ff-5214-4108-b049-06084eae045f"},"vehicle_type_id":"4","last_reported":1685650017,"current_range_meters":23600,"station_id":"ce4bhbh2rcd13ifvqepg","pricing_plan_id":"free"},{"bike_id":"2527ffec-43ef-454c-8697-ebfbe75b4955","system_id":"levelo_inurba_marseille","lat":43.284219,"lon":5.3497,"is_reserved":false,"is_disabled":false,"rental_uris":{"android":"levelo://app?vid=2527ffec-43ef-454c-8697-ebfbe75b4955","ios":"levelo://app?vid=2527ffec-43ef-454c-8697-ebfbe75b4955"},"vehicle_type_id":"4","last_reported":1685650017,"current_range_meters":17600,"station_id":"ce4bhbh2rcd13ifvqepg","pricing_plan_id":"free"},{"bike_id":"e1de40da-863a-4501-bcf4-ea8de0c3a98a","system_id":"levelo_inurba_marseille","lat":43.284219,"lon":5.3497,"is_reserved":false,"is_disabled":false,"rental_uris":{"android":"levelo://app?vid=e1de40da-863a-4501-bcf4-ea8de0c3a98a","ios":"levelo://app?vid=e1de40da-863a-4501-bcf4-ea8de0c3a98a"},"vehicle_type_id":"4","last_reported":1685650017,"current_range_meters":12000,"station_id":"ce4bhbh2rcd13ifvqepg","pricing_plan_id":"free"},{"bike_id":"689f523e-9830-4402-b848-45fa157d3035","system_id":"levelo_inurba_marseille","lat":43.292724,"lon":5.401131,"is_reserved":false,"is_disabled":false,"rental_uris":{"android":"levelo://app?vid=689f523e-9830-4402-b848-45fa157d3035","ios":"levelo://app?vid=689f523e-9830-4402-b848-45fa157d3035"},"vehicle_type_id":"4","last_reported":1685650017,"current_range_meters":8400,"station_id":"ce4bh312rcd13ifvqdk0","pricing_plan_id":"free"},{"bike_id":"b3804271-6b6f-48e6-9f7a-1151186ea9fb","system_id":"levelo_inurba_marseille","lat":43.292724,"lon":5.401131,"is_reserved":false,"is_disabled":false,"rental_uris":{"android":"levelo://app?vid=b3804271-6b6f-48e6-9f7a-1151186ea9fb","ios":"levelo://app?vid=b3804271-6b6f-48e6-9f7a-1151186ea9fb"},"vehicle_type_id":"4","last_reported":1685650017,"current_range_meters":0,"station_id":"ce4bh312rcd13ifvqdk0","pricing_plan_id":"free"},{"bike_id":"b97224c9-ed88-4acd-8d03-36a3ff7d6ec0","system_id":"levelo_inurba_marseille","lat":43.282754,"lon":5.350519,"is_reserved":false,"is_disabled":false,"rental_uris":{"android":"levelo://app?vid=b97224c9-ed88-4acd-8d03-36a3ff7d6ec0","ios":"levelo://app?vid=b97224c9-ed88-4acd-8d03-36a3ff7d6ec0"},"vehicle_type_id":"4","last_reported":1685650017,"current_range_meters":18000,"station_id":"ce4bhbp2rcd13ifvqerg","pricing_plan_id":"free"},{"bike_id":"6068cea7-9916-402c-8f46-a793711889c2","system_id":"levelo_inurba_marseille","lat":43.28278,"lon":5.3507,"is_reserved":false,"is_disabled":false,"rental_uris":{"android":"levelo://app?vid=6068cea7-9916-402c-8f46-a793711889c2","ios":"levelo://app?vid=6068cea7-9916-402c-8f46-a793711889c2"},"vehicle_type_id":"4","last_reported":1685650017,"current_range_meters":400,"station_id":"ce4bhbp2rcd13ifvqerg","pricing_plan_id":"free"},{"bike_id":"67110973-ba87-4beb-bda1-67d9f356db89","system_id":"levelo_inurba_marseille","lat":43.282744,"lon":5.350533,"is_reserved":false,"is_disabled":false,"rental_uris":{"android":"levelo://app?vid=67110973-ba87-4beb-bda1-67d9f356db89","ios":"levelo://app?vid=67110973-ba87-4beb-bda1-67d9f356db89"},"vehicle_type_id":"4","last_reported":1685650017,"current_range_meters":4800,"station_id":"ce4bhbp2rcd13ifvqerg","pricing_plan_id":"free"},{"bike_id":"3a1d6f49-f937-4b60-81ef-4f1d25d044d5","system_id":"levelo_inurba_marseille","lat":43.282744,"lon":5.350533,"is_reserved":false,"is_disabled":false,"rental_uris":{"android":"levelo://app?vid=3a1d6f49-f937-4b60-81ef-4f1d25d044d5","ios":"levelo://app?vid=3a1d6f49-f937-4b60-81ef-4f1d25d044d5"},"vehicle_type_id":"4","last_reported":1685650017,"current_range_meters":31600,"station_id":"ce4bhbp2rcd13ifvqerg","pricing_plan_id":"free"},{"bike_id":"a840c439-acf6-4520-8f5b-5a91aea94484","system_id":"levelo_inurba_marseille","lat":43.282754,"lon":5.350519,"is_reserved":false,"is_disabled":false,"rental_uris":{"android":"levelo://app?vid=a840c439-acf6-4520-8f5b-5a91aea94484","ios":"levelo://app?vid=a840c439-acf6-4520-8f5b-5a91aea94484"},"vehicle_type_id":"4","last_reported":1685650017,"current_range_meters":31200,"station_id":"ce4bhbp2rcd13ifvqerg","pricing_plan_id":"free"},{"bike_id":"3bf71212-f8cd-41ef-afb0-040bbac5b934","system_id":"levelo_inurba_marseille","lat":43.282744,"lon":5.350533,"is_reserved":false,"is_disabled":false,"rental_uris":{"android":"levelo://app?vid=3bf71212-f8cd-41ef-afb0-040bbac5b934","ios":"levelo://app?vid=3bf71212-f8cd-41ef-afb0-040bbac5b934"},"vehicle_type_id":"4","last_reported":1685650017,"current_range_meters":1200,"station_id":"ce4bhbp2rcd13ifvqerg","pricing_plan_id":"free"},{"bike_id":"31ca69fb-313b-4a9c-aaa4-188a28f60ae8","system_id":"levelo_inurba_marseille","lat":43.282744,"lon":5.350533,"is_reserved":false,"is_disabled":false,"rental_uris":{"android":"levelo://app?vid=31ca69fb-313b-4a9c-aaa4-188a28f60ae8","ios":"levelo://app?vid=31ca69fb-313b-4a9c-aaa4-188a28f60ae8"},"vehicle_type_id":"4","last_reported":1685650017,"current_range_meters":14800,"station_id":"ce4bhbp2rcd13ifvqerg","pricing_plan_id":"free"},{"bike_id":"87cc2990-a0ac-42e0-a3de-b53473147b59","system_id":"levelo_inurba_marseille","lat":43.28268,"lon":5.3506,"is_reserved":false,"is_disabled":false,"rental_uris":{"android":"levelo://app?vid=87cc2990-a0ac-42e0-a3de-b53473147b59","ios":"levelo://app?vid=87cc2990-a0ac-42e0-a3de-b53473147b59"},"vehicle_type_id":"4","last_reported":1685650017,"current_range_meters":0,"station_id":"ce4bhbp2rcd13ifvqerg","pricing_plan_id":"free"},{"bike_id":"d7eb3147-06fe-4427-b210-6a3fe055b2e9","system_id":"levelo_inurba_marseille","lat":43.29573,"lon":5.367355,"is_reserved":false,"is_disabled":false,"rental_uris":{"android":"levelo://app?vid=d7eb3147-06fe-4427-b210-6a3fe055b2e9","ios":"levelo://app?vid=d7eb3147-06fe-4427-b210-6a3fe055b2e9"},"vehicle_type_id":"4","last_reported":1685650017,"current_range_meters":19600,"station_id":"ce4bgph2rcd13ifvqc2g","pricing_plan_id":"free"},{"bike_id":"6fdbe50e-dc44-4a02-98d0-3fab4dc2dd80","system_id":"levelo_inurba_marseille","lat":43.28039,"lon":5.369297,"is_reserved":false,"is_disabled":false,"rental_uris":{"android":"levelo://app?vid=6fdbe50e-dc44-4a02-98d0-3fab4dc2dd80","ios":"levelo://app?vid=6fdbe50e-dc44-4a02-98d0-3fab4dc2dd80"},"vehicle_type_id":"4","last_reported":1685650017,"current_range_meters":11600,"station_id":"ce4bha12rcd13ifvqef0","pricing_plan_id":"free"},{"bike_id":"0b795b6d-d075-4b92-abff-41d6068fe33d","system_id":"levelo_inurba_marseille","lat":43.28039,"lon":5.369297,"is_reserved":false,"is_disabled":false,"rental_uris":{"android":"levelo://app?vid=0b795b6d-d075-4b92-abff-41d6068fe33d","ios":"levelo://app?vid=0b795b6d-d075-4b92-abff-41d6068fe33d"},"vehicle_type_id":"4","last_reported":1685650017,"current_range_meters":9200,"station_id":"ce4bha12rcd13ifvqef0","pricing_plan_id":"free"},{"bike_id":"5624a150-1c3a-4259-a725-290d2e7d5b2c","system_id":"levelo_inurba_marseille","lat":43.28039,"lon":5.369297,"is_reserved":false,"is_disabled":false,"rental_uris":{"android":"levelo://app?vid=5624a150-1c3a-4259-a725-290d2e7d5b2c","ios":"levelo://app?vid=5624a150-1c3a-4259-a725-290d2e7d5b2c"},"vehicle_type_id":"4","last_reported":1685650017,"current_range_meters":9200,"station_id":"ce4bha12rcd13ifvqef0","pricing_plan_id":"free"},{"bike_id":"f0f9257e-4280-487e-91e3-63573b4bc2ce","system_id":"levelo_inurba_marseille","lat":43.28039,"lon":5.369297,"is_reserved":false,"is_disabled":false,"rental_uris":{"android":"levelo://app?vid=f0f9257e-4280-487e-91e3-63573b4bc2ce","ios":"levelo://app?vid=f0f9257e-4280-487e-91e3-63573b4bc2ce"},"vehicle_type_id":"4","last_reported":1685650017,"current_range_meters":30400,"station_id":"ce4bha12rcd13ifvqef0","pricing_plan_id":"free"},{"bike_id":"79a6599a-a540-42d4-b494-15b4baa94a32","system_id":"levelo_inurba_marseille","lat":43.280382,"lon":5.369291,"is_reserved":false,"is_disabled":false,"rental_uris":{"android":"levelo://app?vid=79a6599a-a540-42d4-b494-15b4baa94a32","ios":"levelo://app?vid=79a6599a-a540-42d4-b494-15b4baa94a32"},"vehicle_type_id":"4","last_reported":1685650017,"current_range_meters":3600,"station_id":"ce4bha12rcd13ifvqef0","pricing_plan_id":"free"},{"bike_id":"dab1a37c-14c0-4c1c-a543-b587c8481f2b","system_id":"levelo_inurba_marseille","lat":43.280382,"lon":5.369291,"is_reserved":false,"is_disabled":false,"rental_uris":{"android":"levelo://app?vid=dab1a37c-14c0-4c1c-a543-b587c8481f2b","ios":"levelo://app?vid=dab1a37c-14c0-4c1c-a543-b587c8481f2b"},"vehicle_type_id":"4","last_reported":1685650017,"current_range_meters":24800,"station_id":"ce4bha12rcd13ifvqef0","pricing_plan_id":"free"},{"bike_id":"c5e554c4-9473-4e20-9a87-6fc3eb03ba5d","system_id":"levelo_inurba_marseille","lat":43.28039,"lon":5.369297,"is_reserved":false,"is_disabled":false,"rental_uris":{"android":"levelo://app?vid=c5e554c4-9473-4e20-9a87-6fc3eb03ba5d","ios":"levelo://app?vid=c5e554c4-9473-4e20-9a87-6fc3eb03ba5d"},"vehicle_type_id":"4","last_reported":1685650017,"current_range_meters":13600,"station_id":"ce4bha12rcd13ifvqef0","pricing_plan_id":"free"},{"bike_id":"1869b417-76c7-4c84-b40d-64625b4dcf30","system_id":"levelo_inurba_marseille","lat":43.28039,"lon":5.369297,"is_reserved":false,"is_disabled":false,"rental_uris":{"android":"levelo://app?vid=1869b417-76c7-4c84-b40d-64625b4dcf30","ios":"levelo://app?vid=1869b417-76c7-4c84-b40d-64625b4dcf30"},"vehicle_type_id":"4","last_reported":1685650017,"current_range_meters":31200,"station_id":"ce4bha12rcd13ifvqef0","pricing_plan_id":"free"},{"bike_id":"81bcf252-1173-4e4b-ba80-442a6328f057","system_id":"levelo_inurba_marseille","lat":43.29041,"lon":5.399634,"is_reserved":false,"is_disabled":false,"rental_uris":{"android":"levelo://app?vid=81bcf252-1173-4e4b-ba80-442a6328f057","ios":"levelo://app?vid=81bcf252-1173-4e4b-ba80-442a6328f057"},"vehicle_type_id":"4","last_reported":1685650017,"current_range_meters":25600,"station_id":"ce4bh392rcd13ifvqdm0","pricing_plan_id":"free"},{"bike_id":"0e4a6de2-51f3-4d0b-b1a3-0b15b5be70d7","system_id":"levelo_inurba_marseille","lat":43.292642,"lon":5.384254,"is_reserved":false,"is_disabled":false,"rental_uris":{"android":"levelo://app?vid=0e4a6de2-51f3-4d0b-b1a3-0b15b5be70d7","ios":"levelo://app?vid=0e4a6de2-51f3-4d0b-b1a3-0b15b5be70d7"},"vehicle_type_id":"4","last_reported":1685650017,"current_range_meters":27200,"station_id":"ce4bh692rcd13ifvqea0","pricing_plan_id":"free"},{"bike_id":"d4425df7-962b-4ea9-8c41-9a26dad44d5f","system_id":"levelo_inurba_marseille","lat":43.284462,"lon":5.392121,"is_reserved":false,"is_disabled":false,"rental_uris":{"android":"levelo://app?vid=d4425df7-962b-4ea9-8c41-9a26dad44d5f","ios":"levelo://app?vid=d4425df7-962b-4ea9-8c41-9a26dad44d5f"},"vehicle_type_id":"4","last_reported":1685650017,"current_range_meters":9600,"station_id":"ce4bhoh2rcd13ifvqh5g","pricing_plan_id":"free"},{"bike_id":"f201aaa8-2284-45b1-bfb3-71d06ffaba90","system_id":"levelo_inurba_marseille","lat":43.27899,"lon":5.38013,"is_reserved":false,"is_disabled":false,"rental_uris":{"android":"levelo://app?vid=f201aaa8-2284-45b1-bfb3-71d06ffaba90","ios":"levelo://app?vid=f201aaa8-2284-45b1-bfb3-71d06ffaba90"},"vehicle_type_id":"4","last_reported":1685650017,"current_range_meters":0,"station_id":"","pricing_plan_id":"free"},{"bike_id":"7faca00a-db47-4522-85ed-ef99936acccc","system_id":"levelo_inurba_marseille","lat":43.28699,"lon":5.39981,"is_reserved":false,"is_disabled":false,"rental_uris":{"android":"levelo://app?vid=7faca00a-db47-4522-85ed-ef99936acccc","ios":"levelo://app?vid=7faca00a-db47-4522-85ed-ef99936acccc"},"vehicle_type_id":"4","last_reported":1685650017,"current_range_meters":9200,"station_id":"ce4bho92rcd13ifvqh3g","pricing_plan_id":"free"},{"bike_id":"9d58d211-55df-47e0-a5bc-653ad4aa47c5","system_id":"levelo_inurba_marseille","lat":43.320045,"lon":5.415046,"is_reserved":false,"is_disabled":false,"rental_uris":{"android":"levelo://app?vid=9d58d211-55df-47e0-a5bc-653ad4aa47c5","ios":"levelo://app?vid=9d58d211-55df-47e0-a5bc-653ad4aa47c5"},"vehicle_type_id":"4","last_reported":1685650017,"current_range_meters":6000,"station_id":"ce4bhq92rcd13ifvqhkg","pricing_plan_id":"free"},{"bike_id":"5f2c3917-f893-403e-915a-0347679082b5","system_id":"levelo_inurba_marseille","lat":43.292569,"lon":5.409107,"is_reserved":false,"is_disabled":false,"rental_uris":{"android":"levelo://app?vid=5f2c3917-f893-403e-915a-0347679082b5","ios":"levelo://app?vid=5f2c3917-f893-403e-915a-0347679082b5"},"vehicle_type_id":"4","last_reported":1685650017,"current_range_meters":19200,"station_id":"ce4bh192rcd13ifvqdc0","pricing_plan_id":"free"},{"bike_id":"64a04445-9070-49d3-b533-416db62729f7","system_id":"levelo_inurba_marseille","lat":43.27618,"lon":5.361009,"is_reserved":false,"is_disabled":false,"rental_uris":{"android":"levelo://app?vid=64a04445-9070-49d3-b533-416db62729f7","ios":"levelo://app?vid=64a04445-9070-49d3-b533-416db62729f7"},"vehicle_type_id":"4","last_reported":1685650017,"current_range_meters":18400,"station_id":"ce4bgj92rcd13ifvqbe0","pricing_plan_id":"free"},{"bike_id":"35291467-6ced-40de-a294-245fd54c10d1","system_id":"levelo_inurba_marseille","lat":43.27618,"lon":5.361009,"is_reserved":false,"is_disabled":false,"rental_uris":{"android":"levelo://app?vid=35291467-6ced-40de-a294-245fd54c10d1","ios":"levelo://app?vid=35291467-6ced-40de-a294-245fd54c10d1"},"vehicle_type_id":"4","last_reported":1685650017,"current_range_meters":14800,"station_id":"ce4bgj92rcd13ifvqbe0","pricing_plan_id":"free"},{"bike_id":"8982aa94-e983-45c3-b672-35ed1b9b2713","system_id":"levelo_inurba_marseille","lat":43.276179,"lon":5.361009,"is_reserved":false,"is_disabled":false,"rental_uris":{"android":"levelo://app?vid=8982aa94-e983-45c3-b672-35ed1b9b2713","ios":"levelo://app?vid=8982aa94-e983-45c3-b672-35ed1b9b2713"},"vehicle_type_id":"4","last_reported":1685650017,"current_range_meters":19200,"station_id":"ce4bgj92rcd13ifvqbe0","pricing_plan_id":"free"},{"bike_id":"5ff57a70-624d-4ca0-af36-39aaa9c3c5b0","system_id":"levelo_inurba_marseille","lat":43.27618,"lon":5.361009,"is_reserved":false,"is_disabled":false,"rental_uris":{"android":"levelo://app?vid=5ff57a70-624d-4ca0-af36-39aaa9c3c5b0","ios":"levelo://app?vid=5ff57a70-624d-4ca0-af36-39aaa9c3c5b0"},"vehicle_type_id":"4","last_reported":1685650017,"current_range_meters":2800,"station_id":"ce4bgj92rcd13ifvqbe0","pricing_plan_id":"free"},{"bike_id":"32fbd8b1-c421-44d2-9ba2-afff43c61df7","system_id":"levelo_inurba_marseille","lat":43.325243,"lon":5.414326,"is_reserved":false,"is_disabled":false,"rental_uris":{"android":"levelo://app?vid=32fbd8b1-c421-44d2-9ba2-afff43c61df7","ios":"levelo://app?vid=32fbd8b1-c421-44d2-9ba2-afff43c61df7"},"vehicle_type_id":"4","last_reported":1685650017,"current_range_meters":15600,"station_id":"ce4bhq12rcd13ifvqhhg","pricing_plan_id":"free"},{"bike_id":"a3a133a6-ae98-4b08-855e-fad1e41dfc17","system_id":"levelo_inurba_marseille","lat":43.27612,"lon":5.36108,"is_reserved":false,"is_disabled":false,"rental_uris":{"android":"levelo://app?vid=a3a133a6-ae98-4b08-855e-fad1e41dfc17","ios":"levelo://app?vid=a3a133a6-ae98-4b08-855e-fad1e41dfc17"},"vehicle_type_id":"4","last_reported":1685650017,"current_range_meters":21200,"station_id":"ce4bgj92rcd13ifvqbe0","pricing_plan_id":"free"},{"bike_id":"5bf4d281-b30a-4430-93cf-89889e473ce6","system_id":"levelo_inurba_marseille","lat":43.33612,"lon":5.410321,"is_reserved":false,"is_disabled":false,"rental_uris":{"android":"levelo://app?vid=5bf4d281-b30a-4430-93cf-89889e473ce6","ios":"levelo://app?vid=5bf4d281-b30a-4430-93cf-89889e473ce6"},"vehicle_type_id":"4","last_reported":1685650017,"current_range_meters":20000,"station_id":"ce4bhqh2rcd13ifvqhmg","pricing_plan_id":"free"},{"bike_id":"2a8a4726-81fe-4f12-a6e5-89c0519a1423","system_id":"levelo_inurba_marseille","lat":43.278401,"lon":5.392152,"is_reserved":false,"is_disabled":false,"rental_uris":{"android":"levelo://app?vid=2a8a4726-81fe-4f12-a6e5-89c0519a1423","ios":"levelo://app?vid=2a8a4726-81fe-4f12-a6e5-89c0519a1423"},"vehicle_type_id":"4","last_reported":1685650017,"current_range_meters":5200,"station_id":"ce4bhjp2rcd13ifvqga0","pricing_plan_id":"free"},{"bike_id":"7fb27749-1b6b-4f92-a727-8dfc4d8ee5e6","system_id":"levelo_inurba_marseille","lat":43.278399,"lon":5.392139,"is_reserved":false,"is_disabled":false,"rental_uris":{"android":"levelo://app?vid=7fb27749-1b6b-4f92-a727-8dfc4d8ee5e6","ios":"levelo://app?vid=7fb27749-1b6b-4f92-a727-8dfc4d8ee5e6"},"vehicle_type_id":"4","last_reported":1685650017,"current_range_meters":30400,"station_id":"ce4bhjp2rcd13ifvqga0","pricing_plan_id":"free"},{"bike_id":"5ba957c0-3735-40bd-96ad-a1809bb8a1a7","system_id":"levelo_inurba_marseille","lat":43.27837,"lon":5.39218,"is_reserved":false,"is_disabled":false,"rental_uris":{"android":"levelo://app?vid=5ba957c0-3735-40bd-96ad-a1809bb8a1a7","ios":"levelo://app?vid=5ba957c0-3735-40bd-96ad-a1809bb8a1a7"},"vehicle_type_id":"4","last_reported":1685650017,"current_range_meters":5200,"station_id":"ce4bhjp2rcd13ifvqga0","pricing_plan_id":"free"},{"bike_id":"11681796-f35b-4a13-bc8c-58f2672b04bb","system_id":"levelo_inurba_marseille","lat":43.278401,"lon":5.392152,"is_reserved":false,"is_disabled":false,"rental_uris":{"android":"levelo://app?vid=11681796-f35b-4a13-bc8c-58f2672b04bb","ios":"levelo://app?vid=11681796-f35b-4a13-bc8c-58f2672b04bb"},"vehicle_type_id":"4","last_reported":1685650017,"current_range_meters":31600,"station_id":"ce4bhjp2rcd13ifvqga0","pricing_plan_id":"free"},{"bike_id":"50f0d979-4054-445c-91d1-652c06bfcecb","system_id":"levelo_inurba_marseille","lat":43.278399,"lon":5.392139,"is_reserved":false,"is_disabled":false,"rental_uris":{"android":"levelo://app?vid=50f0d979-4054-445c-91d1-652c06bfcecb","ios":"levelo://app?vid=50f0d979-4054-445c-91d1-652c06bfcecb"},"vehicle_type_id":"4","last_reported":1685650017,"current_range_meters":3600,"station_id":"ce4bhjp2rcd13ifvqga0","pricing_plan_id":"free"},{"bike_id":"cea323e7-227d-422a-a684-aa9827c13417","system_id":"levelo_inurba_marseille","lat":43.278399,"lon":5.392139,"is_reserved":false,"is_disabled":false,"rental_uris":{"android":"levelo://app?vid=cea323e7-227d-422a-a684-aa9827c13417","ios":"levelo://app?vid=cea323e7-227d-422a-a684-aa9827c13417"},"vehicle_type_id":"4","last_reported":1685650017,"current_range_meters":0,"station_id":"ce4bhjp2rcd13ifvqga0","pricing_plan_id":"free"},{"bike_id":"90a2b37a-cb29-42ec-acf4-4ec28f01172c","system_id":"levelo_inurba_marseille","lat":43.29436,"lon":5.41439,"is_reserved":false,"is_disabled":false,"rental_uris":{"android":"levelo://app?vid=90a2b37a-cb29-42ec-acf4-4ec28f01172c","ios":"levelo://app?vid=90a2b37a-cb29-42ec-acf4-4ec28f01172c"},"vehicle_type_id":"4","last_reported":1685650017,"current_range_meters":12800,"station_id":"ce4bhph2rcd13ifvqhdg","pricing_plan_id":"free"},{"bike_id":"82c583c2-189f-4ef2-9455-f2aa6245d502","system_id":"levelo_inurba_marseille","lat":43.33603,"lon":5.41034,"is_reserved":false,"is_disabled":false,"rental_uris":{"android":"levelo://app?vid=82c583c2-189f-4ef2-9455-f2aa6245d502","ios":"levelo://app?vid=82c583c2-189f-4ef2-9455-f2aa6245d502"},"vehicle_type_id":"4","last_reported":1685650017,"current_range_meters":16000,"station_id":"ce4bhqh2rcd13ifvqhmg","pricing_plan_id":"free"},{"bike_id":"f2d327a5-28e7-4da4-90fd-530084b1cda8","system_id":"levelo_inurba_marseille","lat":43.33612,"lon":5.410321,"is_reserved":false,"is_disabled":false,"rental_uris":{"android":"levelo://app?vid=f2d327a5-28e7-4da4-90fd-530084b1cda8","ios":"levelo://app?vid=f2d327a5-28e7-4da4-90fd-530084b1cda8"},"vehicle_type_id":"4","last_reported":1685650017,"current_range_meters":18000,"station_id":"ce4bhqh2rcd13ifvqhmg","pricing_plan_id":"free"},{"bike_id":"51a5e434-4066-45d2-a0a3-c91a61e8da6a","system_id":"levelo_inurba_marseille","lat":43.276771,"lon":5.388799,"is_reserved":false,"is_disabled":false,"rental_uris":{"android":"levelo://app?vid=51a5e434-4066-45d2-a0a3-c91a61e8da6a","ios":"levelo://app?vid=51a5e434-4066-45d2-a0a3-c91a61e8da6a"},"vehicle_type_id":"4","last_reported":1685650017,"current_range_meters":6800,"station_id":"ce4bhi12rcd13ifvqfo0","pricing_plan_id":"free"},{"bike_id":"3d0488de-20c1-46f5-99ae-36f57d6e5a49","system_id":"levelo_inurba_marseille","lat":43.292642,"lon":5.384254,"is_reserved":false,"is_disabled":false,"rental_uris":{"android":"levelo://app?vid=3d0488de-20c1-46f5-99ae-36f57d6e5a49","ios":"levelo://app?vid=3d0488de-20c1-46f5-99ae-36f57d6e5a49"},"vehicle_type_id":"4","last_reported":1685650017,"current_range_meters":18400,"station_id":"ce4bh692rcd13ifvqea0","pricing_plan_id":"free"},{"bike_id":"b95ec563-9311-4532-b1d3-064d3a2c66e5","system_id":"levelo_inurba_marseille","lat":43.317121,"lon":5.423936,"is_reserved":false,"is_disabled":false,"rental_uris":{"android":"levelo://app?vid=b95ec563-9311-4532-b1d3-064d3a2c66e5","ios":"levelo://app?vid=b95ec563-9311-4532-b1d3-064d3a2c66e5"},"vehicle_type_id":"4","last_reported":1685650017,"current_range_meters":12800,"station_id":"ce4bhp92rcd13ifvqhbg","pricing_plan_id":"free"},{"bike_id":"e983f764-91b5-48d2-9b2f-05b897d8f6e7","system_id":"levelo_inurba_marseille","lat":43.317121,"lon":5.423936,"is_reserved":false,"is_disabled":false,"rental_uris":{"android":"levelo://app?vid=e983f764-91b5-48d2-9b2f-05b897d8f6e7","ios":"levelo://app?vid=e983f764-91b5-48d2-9b2f-05b897d8f6e7"},"vehicle_type_id":"4","last_reported":1685650017,"current_range_meters":29600,"station_id":"ce4bhp92rcd13ifvqhbg","pricing_plan_id":"free"},{"bike_id":"99a41045-ee60-42b4-aca0-348ab09a4f25","system_id":"levelo_inurba_marseille","lat":43.317121,"lon":5.423936,"is_reserved":false,"is_disabled":false,"rental_uris":{"android":"levelo://app?vid=99a41045-ee60-42b4-aca0-348ab09a4f25","ios":"levelo://app?vid=99a41045-ee60-42b4-aca0-348ab09a4f25"},"vehicle_type_id":"4","last_reported":1685650017,"current_range_meters":9600,"station_id":"ce4bhp92rcd13ifvqhbg","pricing_plan_id":"free"},{"bike_id":"71e0db48-ab33-4b44-b64b-90ade95b76a3","system_id":"levelo_inurba_marseille","lat":43.273129,"lon":5.390725,"is_reserved":false,"is_disabled":false,"rental_uris":{"android":"levelo://app?vid=71e0db48-ab33-4b44-b64b-90ade95b76a3","ios":"levelo://app?vid=71e0db48-ab33-4b44-b64b-90ade95b76a3"},"vehicle_type_id":"4","last_reported":1685650017,"current_range_meters":14000,"station_id":"ce4bhgp2rcd13ifvqfe0","pricing_plan_id":"free"},{"bike_id":"b7e3519c-aac6-4944-bfb6-cf08cb910e16","system_id":"levelo_inurba_marseille","lat":43.27423,"lon":5.39407,"is_reserved":false,"is_disabled":false,"rental_uris":{"android":"levelo://app?vid=b7e3519c-aac6-4944-bfb6-cf08cb910e16","ios":"levelo://app?vid=b7e3519c-aac6-4944-bfb6-cf08cb910e16"},"vehicle_type_id":"4","last_reported":1685650017,"current_range_meters":2400,"station_id":"","pricing_plan_id":"free"},{"bike_id":"c265a28b-eafb-42e1-867e-a9bcc5c9ea7e","system_id":"levelo_inurba_marseille","lat":43.295523,"lon":5.422926,"is_reserved":false,"is_disabled":false,"rental_uris":{"android":"levelo://app?vid=c265a28b-eafb-42e1-867e-a9bcc5c9ea7e","ios":"levelo://app?vid=c265a28b-eafb-42e1-867e-a9bcc5c9ea7e"},"vehicle_type_id":"4","last_reported":1685650017,"current_range_meters":28400,"station_id":"ce4bhph2rcd13ifvqhdg","pricing_plan_id":"free"},{"bike_id":"e82122c6-b642-478a-a64a-3adae6c0bd95","system_id":"levelo_inurba_marseille","lat":43.295523,"lon":5.422926,"is_reserved":false,"is_disabled":false,"rental_uris":{"android":"levelo://app?vid=e82122c6-b642-478a-a64a-3adae6c0bd95","ios":"levelo://app?vid=e82122c6-b642-478a-a64a-3adae6c0bd95"},"vehicle_type_id":"4","last_reported":1685650017,"current_range_meters":31200,"station_id":"ce4bhph2rcd13ifvqhdg","pricing_plan_id":"free"},{"bike_id":"be64db6b-afcd-4e7c-a257-2e3015e007c5","system_id":"levelo_inurba_marseille","lat":43.295523,"lon":5.422926,"is_reserved":false,"is_disabled":false,"rental_uris":{"android":"levelo://app?vid=be64db6b-afcd-4e7c-a257-2e3015e007c5","ios":"levelo://app?vid=be64db6b-afcd-4e7c-a257-2e3015e007c5"},"vehicle_type_id":"4","last_reported":1685650017,"current_range_meters":24800,"station_id":"ce4bhph2rcd13ifvqhdg","pricing_plan_id":"free"},{"bike_id":"ad14d362-7cf7-464e-97d9-12b4e0764fc1","system_id":"levelo_inurba_marseille","lat":43.29494,"lon":5.42264,"is_reserved":false,"is_disabled":false,"rental_uris":{"android":"levelo://app?vid=ad14d362-7cf7-464e-97d9-12b4e0764fc1","ios":"levelo://app?vid=ad14d362-7cf7-464e-97d9-12b4e0764fc1"},"vehicle_type_id":"4","last_reported":1685650017,"current_range_meters":10000,"station_id":"","pricing_plan_id":"free"},{"bike_id":"f2ccad2d-a8f5-4192-b9b2-f16f5816884b","system_id":"levelo_inurba_marseille","lat":43.278128,"lon":5.407195,"is_reserved":false,"is_disabled":false,"rental_uris":{"android":"levelo://app?vid=f2ccad2d-a8f5-4192-b9b2-f16f5816884b","ios":"levelo://app?vid=f2ccad2d-a8f5-4192-b9b2-f16f5816884b"},"vehicle_type_id":"4","last_reported":1685650017,"current_range_meters":19600,"station_id":"ce4bhnh2rcd13ifvqgtg","pricing_plan_id":"free"},