{"last_updated":1730621495,"ttl":60,"version":"2.2","data":{"bikes":[{"bike_id":"daa5500f-6039-4d77-bf02-00710b3acec6","system_id":"levelo_inurba_marseille","lat":43.25931,"lon":5.40907,"is_reserved":false,"is_disabled":false,"rental_uris":{"android":"levelo://app?vid=daa5500f-6039-4d77-bf02-00710b3acec6","ios":"levelo://app?vid=daa5500f-6039-4d77-bf02-00710b3acec6"},"vehicle_type_id":"4","last_reported":1730621495,"current_range_meters":6400,"station_id":"ce4bhm92rcd13ifvqglg","pricing_plan_id":"cebpf4jnsgd1na2vs0mg"},{"bike_id":"2acfc2b2-8dbb-4e8e-88cd-56d90f75bbc8","system_id":"levelo_inurba_marseille","lat":43.27808,"lon":5.40752,"is_reserved":false,"is_disabled":false,"rental_uris":{"android":"levelo://app?vid=2acfc2b2-8dbb-4e8e-88cd-56d90f75bbc8","ios":"levelo://app?vid=2acfc2b2-8dbb-4e8e-88cd-56d90f75bbc8"},"vehicle_type_id":"4","last_reported":1730621495,"current_range_meters":38400,"station_id":"ce4bhnh2rcd13ifvqgtg","pricing_plan_id":"cebpf4jnsgd1na2vs0mg"},{"bike_id":"b2208492-3a90-45d4-9964-766200fbca1d","system_id":"levelo_inurba_marseille","lat":43.30592,"lon":5.37211,"is_reserved":false,"is_disabled":false,"rental_uris":{"android":"levelo://app?vid=b2208492-3a90-45d4-9964-766200fbca1d","ios":"levelo://app?vid=b2208492-3a90-45d4-9964-766200fbca1d"},"vehicle_type_id":"4","last_reported":1730621495,"current_range_meters":36400,"station_id":"ce4bgqh2rcd13ifvqc4g","pricing_plan_id":"cebpf4jnsgd1na2vs0mg"},{"bike_id":"5662c3ec-16ac-4646-ad92-7b800105b64d","system_id":"levelo_inurba_marseille","lat":43.2511,"lon":5.40325,"is_reserved":false,"is_disabled":false,"rental_uris":{"android":"levelo://app?vid=5662c3ec-16ac-4646-ad92-7b800105b64d","ios":"levelo://app?vid=5662c3ec-16ac-4646-ad92-7b800105b64d"},"vehicle_type_id":"4","last_reported":1730621495,"current_range_meters":8000,"station_id":"ce4bhlh2rcd13ifvqgig","pricing_plan_id":"cebpf4jnsgd1na2vs0mg"},{"bike_id":"ef905ccb-094d-49fd-89b7-9c270a631138","system_id":"levelo_inurba_marseille","lat":43.30257,"lon":5.40081,"is_reserved":false,"is_disabled":false,"rental_uris":{"android":"levelo://app?vid=ef905ccb-094d-49fd-89b7-9c270a631138","ios":"levelo://app?vid=ef905ccb-094d-49fd-89b7-9c270a631138"},"vehicle_type_id":"4","last_reported":1730621495,"current_range_meters":30800,"station_id":"ce4bgvh2rcd13ifvqcs0","pricing_plan_id":"cebpf4jnsgd1na2vs0mg"},{"bike_id":"c9135176-387e-46e9-a941-0ebcd8259ed9","system_id":"levelo_inurba_marseille","lat":43.29245,"lon":5.40905,"is_reserved":false,"is_disabled":false,"rental_uris":{"android":"levelo://app?vid=c9135176-387e-46e9-a941-0ebcd8259ed9","ios":"levelo://app?vid=c9135176-387e-46e9-a941-0ebcd8259ed9"},"vehicle_type_id":"4","last_reported":1730621495,"current_range_meters":31200,"station_id":"ce4bh192rcd13ifvqdc0","pricing_plan_id":"cebpf4jnsgd1na2vs0mg"},{"bike_id":"4c6246a4-6094-437e-8304-0ef2ce800373","system_id":"levelo_inurba_marseille","lat":43.26196,"lon":5.3745,"is_reserved":false,"is_disabled":false,"rental_uris":{"android":"levelo://app?vid=4c6246a4-6094-437e-8304-0ef2ce800373","ios":"levelo://app?vid=4c6246a4-6094-437e-8304-0ef2ce800373"},"vehicle_type_id":"4","last_reported":1730621495,"current_range_meters":38800,"station_id":"ce4bhgp2rcd13ifvqfc0","pricing_plan_id":"cebpf4jnsgd1na2vs0mg"},{"bike_id":"28aa8fa8-f63b-4178-8926-c2a33a53a040","system_id":"levelo_inurba_marseille","lat":43.28458,"lon":5.358857,"is_reserved":false,"is_disabled":false,"rental_uris":{"android":"levelo://app?vid=28aa8fa8-f63b-4178-8926-c2a33a53a040","ios":"levelo://app?vid=28aa8fa8-f63b-4178-8926-c2a33a53a040"},"vehicle_type_id":"4","last_reported":1730621495,"current_range_meters":36800,"station_id":"ce4bhah2rcd13ifvqei0","pricing_plan_id":"cebpf4jnsgd1na2vs0mg"},{"bike_id":"d8474b11-3da8-4703-9e3c-f7203eda963e","system_id":"levelo_inurba_marseille","lat":43.29435,"lon":5.39755,"is_reserved":false,"is_disabled":false,"rental_uris":{"android":"levelo://app?vid=d8474b11-3da8-4703-9e3c-f7203eda963e","ios":"levelo://app?vid=d8474b11-3da8-4703-9e3c-f7203eda963e"},"vehicle_type_id":"4","last_reported":1730621495,"current_range_meters":33600,"station_id":"ce4bh3h2rcd13ifvqdo0","pricing_plan_id":"cebpf4jnsgd1na2vs0mg"},{"bike_id":"f09a2e3e-a687-4ccb-9ce7-accc19389448","system_id":"levelo_inurba_marseille","lat":43.2396,"lon":5.36636,"is_reserved":false,"is_disabled":false,"rental_uris":{"android":"levelo://app?vid=f09a2e3e-a687-4ccb-9ce7-accc19389448","ios":"levelo://app?vid=f09a2e3e-a687-4ccb-9ce7-accc19389448"},"vehicle_type_id":"4","last_reported":1730621495,"current_range_meters":38800,"station_id":"ce4bhi12rcd13ifvqfp0","pricing_plan_id":"cebpf4jnsgd1na2vs0mg"},{"bike_id":"29ef4c2b-e550-4530-abb4-7811695ea410","system_id":"levelo_inurba_marseille","lat":43.28607,"lon":5.39142,"is_reserved":false,"is_disabled":false,"rental_uris":{"android":"levelo://app?vid=29ef4c2b-e550-4530-abb4-7811695ea410","ios":"levelo://app?vid=29ef4c2b-e550-4530-abb4-7811695ea410"},"vehicle_type_id":"4","last_reported":1730621495,"current_range_meters":30000,"station_id":"ce4bhoh2rcd13ifvqh5g","pricing_plan_id":"cebpf4jnsgd1na2vs0mg"},{"bike_id":"c8510f52-755d-4904-97e5-da8d5e0f4e03","system_id":"levelo_inurba_marseille","lat":43.28947,"lon":5.36411,"is_reserved":false,"is_disabled":false,"rental_uris":{"android":"levelo://app?vid=c8510f52-755d-4904-97e5-da8d5e0f4e03","ios":"levelo://app?vid=c8510f52-755d-4904-97e5-da8d5e0f4e03"},"vehicle_type_id":"4","last_reported":1730621495,"current_range_meters":24800,"station_id":"ce4bhc92rcd13ifvqetg","pricing_plan_id":"cebpf4jnsgd1na2vs0mg"},{"bike_id":"8046bb52-c3f9-4f3e-8dcd-85d26e44f16e","system_id":"levelo_inurba_marseille","lat":43.27913,"lon":5.39577,"is_reserved":false,"is_disabled":false,"rental_uris":{"android":"levelo://app?vid=8046bb52-c3f9-4f3e-8dcd-85d26e44f16e","ios":"levelo://app?vid=8046bb52-c3f9-4f3e-8dcd-85d26e44f16e"},"vehicle_type_id":"4","last_reported":1730621495,"current_range_meters":30000,"station_id":"ce4bhf92rcd13ifvqf40","pricing_plan_id":"cebpf4jnsgd1na2vs0mg"},{"bike_id":"463a5fa2-247f-46f7-a9ca-b55d6029c4c8","system_id":"levelo_inurba_marseille","lat":43.27491,"lon":5.42459,"is_reserved":false,"is_disabled":false,"rental_uris":{"android":"levelo://app?vid=463a5fa2-247f-46f7-a9ca-b55d6029c4c8","ios":"levelo://app?vid=463a5fa2-247f-46f7-a9ca-b55d6029c4c8"},"vehicle_type_id":"4","last_reported":1730621495,"current_range_meters":38800,"station_id":"ce4bhn92rcd13ifvqgrg","pricing_plan_id":"cebpf4jnsgd1na2vs0mg"},{"bike_id":"70d0eb74-7e1e-429b-809a-299b75aad810","system_id":"levelo_inurba_marseille","lat":43.27554,"lon":5.38435,"is_reserved":false,"is_disabled":false,"rental_uris":{"android":"levelo://app?vid=70d0eb74-7e1e-429b-809a-299b75aad810","ios":"levelo://app?vid=70d0eb74-7e1e-429b-809a-299b75aad810"},"vehicle_type_id":"4","last_reported":1730621495,"current_range_meters":33600,"station_id":"ce4bhh92rcd13ifvqfi0","pricing_plan_id":"cebpf4jnsgd1na2vs0mg"},{"bike_id":"349640ab-a259-4535-8677-fa1a5c63992f","system_id":"levelo_inurba_marseille","lat":43.3107,"lon":5.38343,"is_reserved":false,"is_disabled":false,"rental_uris":{"android":"levelo://app?vid=349640ab-a259-4535-8677-fa1a5c63992f","ios":"levelo://app?vid=349640ab-a259-4535-8677-fa1a5c63992f"},"vehicle_type_id":"4","last_reported":1730621495,"current_range_meters":22800,"station_id":"ce4bgv92rcd13ifvqcr0","pricing_plan_id":"cebpf4jnsgd1na2vs0mg"},{"bike_id":"e144e1df-d688-47fd-b9b8-8449f8de3b99","system_id":"levelo_inurba_marseille","lat":43.28941,"lon":5.3639,"is_reserved":false,"is_disabled":false,"rental_uris":{"android":"levelo://app?vid=e144e1df-d688-47fd-b9b8-8449f8de3b99","ios":"levelo://app?vid=e144e1df-d688-47fd-b9b8-8449f8de3b99"},"vehicle_type_id":"4","last_reported":1730621495,"current_range_meters":34000,"station_id":"ce4bhc92rcd13ifvqetg","pricing_plan_id":"cebpf4jnsgd1na2vs0mg"},{"bike_id":"7c742342-036e-4e20-af2f-732ff5eef3fe","system_id":"levelo_inurba_marseille","lat":43.30597,"lon":5.37223,"is_reserved":false,"is_disabled":false,"rental_uris":{"android":"levelo://app?vid=7c742342-036e-4e20-af2f-732ff5eef3fe","ios":"levelo://app?vid=7c742342-036e-4e20-af2f-732ff5eef3fe"},"vehicle_type_id":"4","last_reported":1730621495,"current_range_meters":39200,"station_id":"ce4bgqh2rcd13ifvqc4g","pricing_plan_id":"cebpf4jnsgd1na2vs0mg"},{"bike_id":"16869cb2-a83c-40e2-9d7b-80e1114c2015","system_id":"levelo_inurba_marseille","lat":43.22921,"lon":5.35379,"is_reserved":false,"is_disabled":false,"rental_uris":{"android":"levelo://app?vid=16869cb2-a83c-40e2-9d7b-80e1114c2015","ios":"levelo://app?vid=16869cb2-a83c-40e2-9d7b-80e1114c2015"},"vehicle_type_id":"4","last_reported":1730621495,"current_range_meters":38000,"station_id":"cpo3532slgdg3j2ikp40","pricing_plan_id":"cebpf4jnsgd1na2vs0mg"},{"bike_id":"5818a6ac-2d40-4bf0-a920-aefa2e8a89fa","system_id":"levelo_inurba_marseille","lat":43.2649,"lon":5.39549,"is_reserved":false,"is_disabled":false,"rental_uris":{"android":"levelo://app?vid=5818a6ac-2d40-4bf0-a920-aefa2e8a89fa","ios":"levelo://app?vid=5818a6ac-2d40-4bf0-a920-aefa2e8a89fa"},"vehicle_type_id":"4","last_reported":1730621495,"current_range_meters":24800,"station_id":"ce4bhi12rcd13ifvqfq0","pricing_plan_id":"cebpf4jnsgd1na2vs0mg"},{"bike_id":"19635d09-a8d1-4f0d-8934-de2bc8e9e9f6","system_id":"levelo_inurba_marseille","lat":43.28348,"lon":5.38112,"is_reserved":false,"is_disabled":false,"rental_uris":{"android":"levelo://app?vid=19635d09-a8d1-4f0d-8934-de2bc8e9e9f6","ios":"levelo://app?vid=19635d09-a8d1-4f0d-8934-de2bc8e9e9f6"},"vehicle_type_id":"4","last_reported":1730621495,"current_range_meters":39200,"station_id":"ce4bh412rcd13ifvqdr0","pricing_plan_id":"cebpf4jnsgd1na2vs0mg"},{"bike_id":"ca24fe88-b330-4350-a8e2-62306e0ea695","system_id":"levelo_inurba_marseille","lat":43.27054,"lon":5.40263,"is_reserved":false,"is_disabled":false,"rental_uris":{"android":"levelo://app?vid=ca24fe88-b330-4350-a8e2-62306e0ea695","ios":"levelo://app?vid=ca24fe88-b330-4350-a8e2-62306e0ea695"},"vehicle_type_id":"4","last_reported":1730621495,"current_range_meters":5600,"station_id":"ce4bhk92rcd13ifvqgc0","pricing_plan_id":"cebpf4jnsgd1na2vs0mg"},{"bike_id":"3aae935e-f19b-4b82-860a-9e86c4796487","system_id":"levelo_inurba_marseille","lat":43.25863,"lon":5.39898,"is_reserved":false,"is_disabled":false,"rental_uris":{"android":"levelo://app?vid=3aae935e-f19b-4b82-860a-9e86c4796487","ios":"levelo://app?vid=3aae935e-f19b-4b82-860a-9e86c4796487"},"vehicle_type_id":"4","last_reported":1730621495,"current_range_meters":5600,"station_id":"ce4bhl92rcd13ifvqghg","pricing_plan_id":"cebpf4jnsgd1na2vs0mg"},{"bike_id":"09cd329c-1fa7-4b20-a274-2cdef2d8cd4f","system_id":"levelo_inurba_marseille","lat":43.24073,"lon":5.37756,"is_reserved":false,"is_disabled":false,"rental_uris":{"android":"levelo://app?vid=09cd329c-1fa7-4b20-a274-2cdef2d8cd4f","ios":"levelo://app?vid=09cd329c-1fa7-4b20-a274-2cdef2d8cd4f"},"vehicle_type_id":"4","last_reported":1730621495,"current_range_meters":38000,"station_id":"ce4bhnp2rcd13ifvqgvg","pricing_plan_id":"cebpf4jnsgd1na2vs0mg"},{"bike_id":"60b1bb62-9591-4289-b228-572329c85e90","system_id":"levelo_inurba_marseille","lat":43.3025,"lon":5.40072,"is_reserved":false,"is_disabled":false,"rental_uris":{"android":"levelo://app?vid=60b1bb62-9591-4289-b228-572329c85e90","ios":"levelo://app?vid=60b1bb62-9591-4289-b228-572329c85e90"},"vehicle_type_id":"4","last_reported":1730621495,"current_range_meters":18800,"station_id":"ce4bgvh2rcd13ifvqcs0","pricing_plan_id":"cebpf4jnsgd1na2vs0mg"},{"bike_id":"750ef8cf-4e1b-4907-b457-aebbb2bb1456","system_id":"levelo_inurba_marseille","lat":43.26946,"lon":5.40251,"is_reserved":false,"is_disabled":false,"rental_uris":{"android":"levelo://app?vid=750ef8cf-4e1b-4907-b457-aebbb2bb1456","ios":"levelo://app?vid=750ef8cf-4e1b-4907-b457-aebbb2bb1456"},"vehicle_type_id":"4","last_reported":1730621495,"current_range_meters":30800,"station_id":"cjm6bp8fraef2m0cb0m0","pricing_plan_id":"cebpf4jnsgd1na2vs0mg"},{"bike_id":"3c330f08-508b-4866-b688-f0374209e3dc","system_id":"levelo_inurba_marseille","lat":43.25115,"lon":5.40328,"is_reserved":false,"is_disabled":false,"rental_uris":{"android":"levelo://app?vid=3c330f08-508b-4866-b688-f0374209e3dc","ios":"levelo://app?vid=3c330f08-508b-4866-b688-f0374209e3dc"},"vehicle_type_id":"4","last_reported":1730621495,"current_range_meters":15200,"station_id":"ce4bhlh2rcd13ifvqgig","pricing_plan_id":"cebpf4jnsgd1na2vs0mg"},{"bike_id":"4147bbfb-4b14-4aca-b782-8ec6c0473609","system_id":"levelo_inurba_marseille","lat":43.23598,"lon":5.4036,"is_reserved":false,"is_disabled":false,"rental_uris":{"android":"levelo://app?vid=4147bbfb-4b14-4aca-b782-8ec6c0473609","ios":"levelo://app?vid=4147bbfb-4b14-4aca-b782-8ec6c0473609"},"vehicle_type_id":"4","last_reported":1730621495,"current_range_meters":22800,"station_id":"","pricing_plan_id":"cebpf4jnsgd1na2vs0mg"},{"bike_id":"bb92c81b-2e92-47dc-af6e-50ad7bcac2f7","system_id":"levelo_inurba_marseille","lat":43.26197,"lon":5.3793,"is_reserved":false,"is_disabled":false,"rental_uris":{"android":"levelo://app?vid=bb92c81b-2e92-47dc-af6e-50ad7bcac2f7","ios":"levelo://app?vid=bb92c81b-2e92-47dc-af6e-50ad7bcac2f7"},"vehicle_type_id":"4","last_reported":1730621495,"current_range_meters":35200,"station_id":"ce4bhjp2rcd13ifvqg90","pricing_plan_id":"cebpf4jnsgd1na2vs0mg"},{"bike_id":"544023ec-9270-4974-8448-54ce637c9af0","system_id":"levelo_inurba_marseille","lat":43.28846,"lon":5.35847,"is_reserved":false,"is_disabled":false,"rental_uris":{"android":"levelo://app?vid=544023ec-9270-4974-8448-54ce637c9af0","ios":"levelo://app?vid=544023ec-9270-4974-8448-54ce637c9af0"},"vehicle_type_id":"4","last_reported":1730621495,"current_range_meters":39200,"station_id":"ce4bhb12rcd13ifvqem0","pricing_plan_id":"cebpf4jnsgd1na2vs0mg"},{"bike_id":"fb62e655-6485-4749-be49-e44175ee17de","system_id":"levelo_inurba_marseille","lat":43.29905,"lon":5.38143,"is_reserved":false,"is_disabled":false,"rental_uris":{"android":"levelo://app?vid=fb62e655-6485-4749-be49-e44175ee17de","ios":"levelo://app?vid=fb62e655-6485-4749-be49-e44175ee17de"},"vehicle_type_id":"4","last_reported":1730621495,"current_range_meters":28400,"station_id":"ce4bgj12rcd13ifvqbc0","pricing_plan_id":"cebpf4jnsgd1na2vs0mg"},{"bike_id":"22cb7bf5-d924-4c42-b792-42240584238f","system_id":"levelo_inurba_marseille","lat":43.23149,"lon":5.43713,"is_reserved":false,"is_disabled":false,"rental_uris":{"android":"levelo://app?vid=22cb7bf5-d924-4c42-b792-42240584238f","ios":"levelo://app?vid=22cb7bf5-d924-4c42-b792-42240584238f"},"vehicle_type_id":"4","last_reported":1730621495,"current_range_meters":37600,"station_id":"ce4bhmp2rcd13ifvqgog","pricing_plan_id":"cebpf4jnsgd1na2vs0mg"},{"bike_id":"f3644f25-acbb-49ac-ab9c-e91b11f01fa4","system_id":"levelo_inurba_marseille","lat":43.25859,"lon":5.399,"is_reserved":false,"is_disabled":false,"rental_uris":{"android":"levelo://app?vid=f3644f25-acbb-49ac-ab9c-e91b11f01fa4","ios":"levelo://app?vid=f3644f25-acbb-49ac-ab9c-e91b11f01fa4"},"vehicle_type_id":"4","last_reported":1730621495,"current_range_meters":26800,"station_id":"ce4bhl92rcd13ifvqghg","pricing_plan_id":"cebpf4jnsgd1na2vs0mg"},{"bike_id":"eeda0a49-c95e-447a-b118-263faeb6a58f","system_id":"levelo_inurba_marseille","lat":43.31464,"lon":5.37371,"is_reserved":false,"is_disabled":false,"rental_uris":{"android":"levelo://app?vid=eeda0a49-c95e-447a-b118-263faeb6a58f","ios":"levelo://app?vid=eeda0a49-c95e-447a-b118-263faeb6a58f"},"vehicle_type_id":"4","last_reported":1730621495,"current_range_meters":16400,"station_id":"","pricing_plan_id":"cebpf4jnsgd1na2vs0mg"},{"bike_id":"027401ef-440e-4512-8a98-114934251273","system_id":"levelo_inurba_marseille","lat":43.27059,"lon":5.40265,"is_reserved":false,"is_disabled":false,"rental_uris":{"android":"levelo://app?vid=027401ef-440e-4512-8a98-114934251273","ios":"levelo://app?vid=027401ef-440e-4512-8a98-114934251273"},"vehicle_type_id":"4","last_reported":1730621495,"current_range_meters":28800,"station_id":"ce4bhk92rcd13ifvqgc0","pricing_plan_id":"cebpf4jnsgd1na2vs0mg"},{"bike_id":"09e4ac93-c051-4f9c-994d-21b05dffda9c","system_id":"levelo_inurba_marseille","lat":43.25111,"lon":5.40318,"is_reserved":false,"is_disabled":false,"rental_uris":{"android":"levelo://app?vid=09e4ac93-c051-4f9c-994d-21b05dffda9c","ios":"levelo://app?vid=09e4ac93-c051-4f9c-994d-21b05dffda9c"},"vehicle_type_id":"4","last_reported":1730621495,"current_range_meters":30400,"station_id":"ce4bhlh2rcd13ifvqgig","pricing_plan_id":"cebpf4jnsgd1na2vs0mg"},{"bike_id":"1c491c83-6d95-4733-bcd3-d913645851d2","system_id":"levelo_inurba_marseille","lat":43.28401,"lon":5.37519,"is_reserved":false,"is_disabled":false,"rental_uris":{"android":"levelo://app?vid=1c491c83-6d95-4733-bcd3-d913645851d2","ios":"levelo://app?vid=1c491c83-6d95-4733-bcd3-d913645851d2"},"vehicle_type_id":"4","last_reported":1730621495,"current_range_meters":38800,"station_id":"ce4bh412rcd13ifvqds0","pricing_plan_id":"cebpf4jnsgd1na2vs0mg"},{"bike_id":"8c700365-5361-436a-a6a9-30a114bbca07","system_id":"levelo_inurba_marseille","lat":43.2846,"lon":5.35879,"is_reserved":false,"is_disabled":false,"rental_uris":{"android":"levelo://app?vid=8c700365-5361-436a-a6a9-30a114bbca07","ios":"levelo://app?vid=8c700365-5361-436a-a6a9-30a114bbca07"},"vehicle_type_id":"4","last_reported":1730621495,"current_range_meters":25200,"station_id":"ce4bhah2rcd13ifvqei0","pricing_plan_id":"cebpf4jnsgd1na2vs0mg"},{"bike_id":"19a6d47e-53d7-42cf-9934-34fc3fd9053c","system_id":"levelo_inurba_marseille","lat":43.3229,"lon":5.3827,"is_reserved":false,"is_disabled":false,"rental_uris":{"android":"levelo://app?vid=19a6d47e-53d7-42cf-9934-34fc3fd9053c","ios":"levelo://app?vid=19a6d47e-53d7-42cf-9934-34fc3fd9053c"},"vehicle_type_id":"4","last_reported":1730621495,"current_range_meters":36400,"station_id":"ce4bhr12rcd13ifvqhqg","pricing_plan_id":"cebpf4jnsgd1na2vs0mg"},{"bike_id":"6e2c93b7-ebb4-422a-b427-e48707211c9b","system_id":"levelo_inurba_marseille","lat":43.3042,"lon":5.41274,"is_reserved":false,"is_disabled":false,"rental_uris":{"android":"levelo://app?vid=6e2c93b7-ebb4-422a-b427-e48707211c9b","ios":"levelo://app?vid=6e2c93b7-ebb4-422a-b427-e48707211c9b"},"vehicle_type_id":"4","last_reported":1730621495,"current_range_meters":39200,"station_id":"ce4bhop2rcd13ifvqh8g","pricing_plan_id":"cebpf4jnsgd1na2vs0mg"},{"bike_id":"9261d8fd-2b22-40f2-b50d-5da3e250e66c","system_id":"levelo_inurba_marseille","lat":43.27615,"lon":5.36115,"is_reserved":false,"is_disabled":false,"rental_uris":{"android":"levelo://app?vid=9261d8fd-2b22-40f2-b50d-5da3e250e66c","ios":"levelo://app?vid=9261d8fd-2b22-40f2-b50d-5da3e250e66c"},"vehicle_type_id":"4","last_reported":1730621495,"current_range_meters":6800,"station_id":"ce4bgj92rcd13ifvqbe0","pricing_plan_id":"cebpf4jnsgd1na2vs0mg"},{"bike_id":"3ff434e7-d97e-42fe-864b-d72cec550722","system_id":"levelo_inurba_marseille","lat":43.2511,"lon":5.40332,"is_reserved":false,"is_disabled":false,"rental_uris":{"android":"levelo://app?vid=3ff434e7-d97e-42fe-864b-d72cec550722","ios":"levelo://app?vid=3ff434e7-d97e-42fe-864b-d72cec550722"},"vehicle_type_id":"4","last_reported":1730621495,"current_range_meters":27600,"station_id":"ce4bhlh2rcd13ifvqgig","pricing_plan_id":"cebpf4jnsgd1na2vs0mg"},{"bike_id":"62567c44-6575-4800-85dc-335520f77987","system_id":"levelo_inurba_marseille","lat":43.28848,"lon":5.35852,"is_reserved":false,"is_disabled":false,"rental_uris":{"android":"levelo://app?vid=62567c44-6575-4800-85dc-335520f77987","ios":"levelo://app?vid=62567c44-6575-4800-85dc-335520f77987"},"vehicle_type_id":"4","last_reported":1730621495,"current_range_meters":39200,"station_id":"ce4bhb12rcd13ifvqem0","pricing_plan_id":"cebpf4jnsgd1na2vs0mg"},{"bike_id":"a3ff93bb-1257-42af-aa61-6a8dc0551888","system_id":"levelo_inurba_marseille","lat":43.3172,"lon":5.42402,"is_reserved":false,"is_disabled":false,"rental_uris":{"android":"levelo://app?vid=a3ff93bb-1257-42af-aa61-6a8dc0551888","ios":"levelo://app?vid=a3ff93bb-1257-42af-aa61-6a8dc0551888"},"vehicle_type_id":"4","last_reported":1730621495,"current_range_meters":14000,"station_id":"ce4bhp92rcd13ifvqhbg","pricing_plan_id":"cebpf4jnsgd1na2vs0mg"},{"bike_id":"dba3c29b-3433-4dd1-a290-c8b09348f9fc","system_id":"levelo_inurba_marseille","lat":43.26057,"lon":5.39398,"is_reserved":false,"is_disabled":false,"rental_uris":{"android":"levelo://app?vid=dba3c29b-3433-4dd1-a290-c8b09348f9fc","ios":"levelo://app?vid=dba3c29b-3433-4dd1-a290-c8b09348f9fc"},"vehicle_type_id":"4","last_reported":1730621495,"current_range_meters":39200,"station_id":"ce4bhh92rcd13ifvqfj0","pricing_plan_id":"cebpf4jnsgd1na2vs0mg"},{"bike_id":"6323ae90-eaed-4799-998b-6223d9f08d3d","system_id":"levelo_inurba_marseille","lat":43.29202,"lon":5.39312,"is_reserved":false,"is_disabled":false,"rental_uris":{"android":"levelo://app?vid=6323ae90-eaed-4799-998b-6223d9f08d3d","ios":"levelo://app?vid=6323ae90-eaed-4799-998b-6223d9f08d3d"},"vehicle_type_id":"4","last_reported":1730621495,"current_range_meters":37600,"station_id":"ce4bh192rcd13ifvqdd0","pricing_plan_id":"cebpf4jnsgd1na2vs0mg"},{"bike_id":"598535da-1e32-42e0-bd65-4ba25549dd70","system_id":"levelo_inurba_marseille","lat":43.3145,"lon":5.37375,"is_reserved":false,"is_disabled":false,"rental_uris":{"android":"levelo://app?vid=598535da-1e32-42e0-bd65-4ba25549dd70","ios":"levelo://app?vid=598535da-1e32-42e0-bd65-4ba25549dd70"},"vehicle_type_id":"4","last_reported":1730621495,"current_range_meters":31200,"station_id":"","pricing_plan_id":"cebpf4jnsgd1na2vs0mg"},{"bike_id":"2378f453-72a7-4eb2-ab3b-946285d406fd","system_id":"levelo_inurba_marseille","lat":43.29218,"lon":5.37738,"is_reserved":false,"is_disabled":false,"rental_uris":{"android":"levelo://app?vid=2378f453-72a7-4eb2-ab3b-946285d406fd","ios":"levelo://app?vid=2378f453-72a7-4eb2-ab3b-946285d406fd"},"vehicle_type_id":"4","last_reported":1730621495,"current_range_meters":14800,"station_id":"ce4bgi12rcd13ifvqb70","pricing_plan_id":"cebpf4jnsgd1na2vs0mg"},{"bike_id":"f352d086-3fd5-4a9f-a7f3-51eaabaab438","system_id":"levelo_inurba_marseille","lat":43.25107,"lon":5.40327,"is_reserved":false,"is_disabled":false,"rental_uris":{"android":"levelo://app?vid=f352d086-3fd5-4a9f-a7f3-51eaabaab438","ios":"levelo://app?vid=f352d086-3fd5-4a9f-a7f3-51eaabaab438"},"vehicle_type_id":"4","last_reported":1730621495,"current_range_meters":2000,"station_id":"ce4bhlh2rcd13ifvqgig","pricing_plan_id":"cebpf4jnsgd1na2vs0mg"},{"bike_id":"2fecd123-2276-416f-a249-18b8dca5a399","system_id":"levelo_inurba_marseille","lat":43.32366,"lon":5.38893,"is_reserved":false,"is_disabled":false,"rental_uris":{"android":"levelo://app?vid=2fecd123-2276-416f-a249-18b8dca5a399","ios":"levelo://app?vid=2fecd123-2276-416f-a249-18b8dca5a399"},"vehicle_type_id":"4","last_reported":1730621495,"current_range_meters":12800,"station_id":"ce4bhqp2rcd13ifvqhog","pricing_plan_id":"cebpf4jnsgd1na2vs0mg"},{"bike_id":"73c275bf-7a27-4795-a2af-ee837a10340a","system_id":"levelo_inurba_marseille","lat":43.29193,"lon":5.39337,"is_reserved":false,"is_disabled":false,"rental_uris":{"android":"levelo://app?vid=73c275bf-7a27-4795-a2af-ee837a10340a","ios":"levelo://app?vid=73c275bf-7a27-4795-a2af-ee837a10340a"},"vehicle_type_id":"4","last_reported":1730621495,"current_range_meters":38400,"station_id":"ce4bh192rcd13ifvqdd0","pricing_plan_id":"cebpf4jnsgd1na2vs0mg"},{"bike_id":"ea6eac24-7b51-434a-8f51-d28eece06440","system_id":"levelo_inurba_marseille","lat":43.28796,"lon":5.36103,"is_reserved":false,"is_disabled":false,"rental_uris":{"android":"levelo://app?vid=ea6eac24-7b51-434a-8f51-d28eece06440","ios":"levelo://app?vid=ea6eac24-7b51-434a-8f51-d28eece06440"},"vehicle_type_id":"4","last_reported":1730621495,"current_range_meters":9600,"station_id":"","pricing_plan_id":"cebpf4jnsgd1na2vs0mg"},{"bike_id":"c4a45cbb-76d1-47d6-9e12-d00fca8f40d1","system_id":"levelo_inurba_marseille","lat":43.2904,"lon":5.39959,"is_reserved":false,"is_disabled":false,"rental_uris":{"android":"levelo://app?vid=c4a45cbb-76d1-47d6-9e12-d00fca8f40d1","ios":"levelo://app?vid=c4a45cbb-76d1-47d6-9e12-d00fca8f40d1"},"vehicle_type_id":"4","last_reported":1730621495,"current_range_meters":39200,"station_id":"ce4bh392rcd13ifvqdm0","pricing_plan_id":"cebpf4jnsgd1na2vs0mg"},{"bike_id":"88bc7c59-ad9c-448a-9b4a-619aaa55841c","system_id":"levelo_inurba_marseille","lat":43.27316,"lon":5.39082,"is_reserved":false,"is_disabled":false,"rental_uris":{"android":"levelo://app?vid=88bc7c59-ad9c-448a-9b4a-619aaa55841c","ios":"levelo://app?vid=88bc7c59-ad9c-448a-9b4a-619aaa55841c"},"vehicle_type_id":"4","last_reported":1730621495,"current_range_meters":39200,"station_id":"ce4bhgp2rcd13ifvqfe0","pricing_plan_id":"cebpf4jnsgd1na2vs0mg"},{"bike_id":"76ba84d0-dc5b-448d-ad77-dd1f6b9fbaa7","system_id":"levelo_inurba_marseille","lat":43.26958,"lon":5.38626,"is_reserved":false,"is_disabled":false,"rental_uris":{"android":"levelo://app?vid=76ba84d0-dc5b-448d-ad77-dd1f6b9fbaa7","ios":"levelo://app?vid=76ba84d0-dc5b-448d-ad77-dd1f6b9fbaa7"},"vehicle_type_id":"4","last_reported":1730621495,"current_range_meters":38800,"station_id":"ce4bhh92rcd13ifvqfh0","pricing_plan_id":"cebpf4jnsgd1na2vs0mg"},{"bike_id":"fe9bdb47-6f8e-4f20-a423-4923a6a7af7f","system_id":"levelo_inurba_marseille","lat":43.31711,"lon":5.4371,"is_reserved":false,"is_disabled":false,"rental_uris":{"android":"levelo://app?vid=fe9bdb47-6f8e-4f20-a423-4923a6a7af7f","ios":"levelo://app?vid=fe9bdb47-6f8e-4f20-a423-4923a6a7af7f"},"vehicle_type_id":"4","last_reported":1730621495,"current_range_meters":4400,"station_id":"ce4bhp92rcd13ifvqhcg","pricing_plan_id":"cebpf4jnsgd1na2vs0mg"},{"bike_id":"fb60f436-07fe-4450-a0d1-374a6c3171e4","system_id":"levelo_inurba_marseille","lat":43.29006,"lon":5.35611,"is_reserved":false,"is_disabled":false,"rental_uris":{"android":"levelo://app?vid=fb60f436-07fe-4450-a0d1-374a6c3171e4","ios":"levelo://app?vid=fb60f436-07fe-4450-a0d1-374a6c3171e4"},"vehicle_type_id":"4","last_reported":1730621495,"current_range_meters":33600,"station_id":"ce4bhb92rcd13ifvqen0","pricing_plan_id":"cebpf4jnsgd1na2vs0mg"},{"bike_id":"45128a6c-7b99-4871-a606-b7ebfd083c59","system_id":"levelo_inurba_marseille","lat":43.304,"lon":5.4011,"is_reserved":false,"is_disabled":false,"rental_uris":{"android":"levelo://app?vid=45128a6c-7b99-4871-a606-b7ebfd083c59","ios":"levelo://app?vid=45128a6c-7b99-4871-a606-b7ebfd083c59"},"vehicle_type_id":"4","last_reported":1730621495,"current_range_meters":9200,"station_id":"","pricing_plan_id":"cebpf4jnsgd1na2vs0mg"},{"bike_id":"a1f78ab3-4e75-44e2-a948-d2b63dc06c7f","system_id":"levelo_inurba_marseille","lat":43.31323,"lon":5.39707,"is_reserved":false,"is_disabled":false,"rental_uris":{"android":"levelo://app?vid=a1f78ab3-4e75-44e2-a948-d2b63dc06c7f","ios":"levelo://app?vid=a1f78ab3-4e75-44e2-a948-d2b63dc06c7f"},"vehicle_type_id":"4","last_reported":1730621495,"current_range_meters":38000,"station_id":"ce4bgvp2rcd13ifvqcu0","pricing_plan_id":"cebpf4jnsgd1na2vs0mg"},{"bike_id":"c8893d8e-f81f-4744-85fb-448d69741653","system_id":"levelo_inurba_marseille","lat":43.27617,"lon":5.36102,"is_reserved":false,"is_disabled":false,"rental_uris":{"android":"levelo://app?vid=c8893d8e-f81f-4744-85fb-448d69741653","ios":"levelo://app?vid=c8893d8e-f81f-4744-85fb-448d69741653"},"vehicle_type_id":"4","last_reported":1730621495,"current_range_meters":8000,"station_id":"ce4bgj92rcd13ifvqbe0","pricing_plan_id":"cebpf4jnsgd1na2vs0mg"},{"bike_id":"91c2fc9b-f4a8-48d8-8406-b54bc4bec169","system_id":"levelo_inurba_marseille","lat":43.2919,"lon":5.35792,"is_reserved":false,"is_disabled":false,"rental_uris":{"android":"levelo://app?vid=91c2fc9b-f4a8-48d8-8406-b54bc4bec169","ios":"levelo://app?vid=91c2fc9b-f4a8-48d8-8406-b54bc4bec169"},"vehicle_type_id":"4","last_reported":1730621495,"current_range_meters":38800,"station_id":"ce4bhb12rcd13ifvqel0","pricing_plan_id":"cebpf4jnsgd1na2vs0mg"},{"bike_id":"28a1f131-18c7-4a58-81ac-573655f32bef","system_id":"levelo_inurba_marseille","lat":43.2869,"lon":5.37393,"is_reserved":false,"is_disabled":false,"rental_uris":{"android":"levelo://app?vid=28a1f131-18c7-4a58-81ac-573655f32bef","ios":"levelo://app?vid=28a1f131-18c7-4a58-81ac-573655f32bef"},"vehicle_type_id":"4","last_reported":1730621495,"current_range_meters":34000,"station_id":"ce4bh3p2rcd13ifvqdq0","pricing_plan_id":"cebpf4jnsgd1na2vs0mg"},{"bike_id":"d5bdf440-de6f-4bf3-9aaa-d81dd81e2ef7","system_id":"levelo_inurba_marseille","lat":43.31725,"lon":5.42404,"is_reserved":false,"is_disabled":false,"rental_uris":{"android":"levelo://app?vid=d5bdf440-de6f-4bf3-9aaa-d81dd81e2ef7","ios":"levelo://app?vid=d5bdf440-de6f-4bf3-9aaa-d81dd81e2ef7"},"vehicle_type_id":"4","last_reported":1730621495,"current_range_meters":37600,"station_id":"ce4bhp92rcd13ifvqhbg","pricing_plan_id":"cebpf4jnsgd1na2vs0mg"},{"bike_id":"264d4768-e819-437b-8292-2e4e716c0b1e","system_id":"levelo_inurba_marseille","lat":43.28853,"lon":5.39312,"is_reserved":false,"is_disabled":false,"rental_uris":{"android":"levelo://app?vid=264d4768-e819-437b-8292-2e4e716c0b1e","ios":"levelo://app?vid=264d4768-e819-437b-8292-2e4e716c0b1e"},"vehicle_type_id":"4","last_reported":1730621495,"current_range_meters":37600,"station_id":"ce4bh2p2rcd13ifvqdi0","pricing_plan_id":"cebpf4jnsgd1na2vs0mg"},{"bike_id":"3b7b5df4-9521-42f4-847d-dc13fd129948","system_id":"levelo_inurba_marseille","lat":43.2837,"lon":5.3863,"is_reserved":false,"is_disabled":false,"rental_uris":{"android":"levelo://app?vid=3b7b5df4-9521-42f4-847d-dc13fd129948","ios":"levelo://app?vid=3b7b5df4-9521-42f4-847d-dc13fd129948"},"vehicle_type_id":"4","last_reported":1730621495,"current_range_meters":38800,"station_id":"ce4bh492rcd13ifvqdvg","pricing_plan_id":"cebpf4jnsgd1na2vs0mg"},{"bike_id":"60b2fd11-3cbf-4232-bd92-7ecebd78b656","system_id":"levelo_inurba_marseille","lat":43.28345,"lon":5.38117,"is_reserved":false,"is_disabled":false,"rental_uris":{"android":"levelo://app?vid=60b2fd11-3cbf-4232-bd92-7ecebd78b656","ios":"levelo://app?vid=60b2fd11-3cbf-4232-bd92-7ecebd78b656"},"vehicle_type_id":"4","last_reported":1730621495,"current_range_meters":38000,"station_id":"ce4bh412rcd13ifvqdr0","pricing_plan_id":"cebpf4jnsgd1na2vs0mg"},{"bike_id":"15dfa336-cdc5-4e32-a889-621804f040c0","system_id":"levelo_inurba_marseille","lat":43.27814,"lon":5.40711,"is_reserved":false,"is_disabled":false,"rental_uris":{"android":"levelo://app?vid=15dfa336-cdc5-4e32-a889-621804f040c0","ios":"levelo://app?vid=15dfa336-cdc5-4e32-a889-621804f040c0"},"vehicle_type_id":"4","last_reported":1730621495,"current_range_meters":37600,"station_id":"ce4bhnh2rcd13ifvqgtg","pricing_plan_id":"cebpf4jnsgd1na2vs0mg"},{"bike_id":"229d9a32-79b7-4f8e-8885-55369bff5631","system_id":"levelo_inurba_marseille","lat":43.29039,"lon":5.39962,"is_reserved":false,"is_disabled":false,"rental_uris":{"android":"levelo://app?vid=229d9a32-79b7-4f8e-8885-55369bff5631","ios":"levelo://app?vid=229d9a32-79b7-4f8e-8885-55369bff5631"},"vehicle_type_id":"4","last_reported":1730621495,"current_range_meters":31200,"station_id":"ce4bh392rcd13ifvqdm0","pricing_plan_id":"cebpf4jnsgd1na2vs0mg"},{"bike_id":"75576e24-6890-4288-9aa5-db2804891d6f","system_id":"levelo_inurba_marseille","lat":43.26941,"lon":5.40245,"is_reserved":false,"is_disabled":false,"rental_uris":{"android":"levelo://app?vid=75576e24-6890-4288-9aa5-db2804891d6f","ios":"levelo://app?vid=75576e24-6890-4288-9aa5-db2804891d6f"},"vehicle_type_id":"4","last_reported":1730621495,"current_range_meters":38400,"station_id":"cjm6bp8fraef2m0cb0m0","pricing_plan_id":"cebpf4jnsgd1na2vs0mg"},{"bike_id":"16aadc4e-b8d8-4453-beb4-5fb42f3f7fad","system_id":"levelo_inurba_marseille","lat":43.28475,"lon":5.38549,"is_reserved":false,"is_disabled":false,"rental_uris":{"android":"levelo://app?vid=16aadc4e-b8d8-4453-beb4-5fb42f3f7fad","ios":"levelo://app?vid=16aadc4e-b8d8-4453-beb4-5fb42f3f7fad"},"vehicle_type_id":"4","last_reported":1730621495,"current_range_meters":25200,"station_id":"ce4bh8p2rcd13ifvqeb0","pricing_plan_id":"cebpf4jnsgd1na2vs0mg"},{"bike_id":"54337fac-085e-4782-bad6-db9a84abd2e2","system_id":"levelo_inurba_marseille","lat":43.31701,"lon":5.3775,"is_reserved":false,"is_disabled":false,"rental_uris":{"android":"levelo://app?vid=54337fac-085e-4782-bad6-db9a84abd2e2","ios":"levelo://app?vid=54337fac-085e-4782-bad6-db9a84abd2e2"},"vehicle_type_id":"4","last_reported":1730621495,"current_range_meters":38400,"station_id":"ce4bgth2rcd13ifvqch0","pricing_plan_id":"cebpf4jnsgd1na2vs0mg"},{"bike_id":"067f8d51-b65c-422f-9eef-fff392264ea6","system_id":"levelo_inurba_marseille","lat":43.28938,"lon":5.36392,"is_reserved":false,"is_disabled":false,"rental_uris":{"android":"levelo://app?vid=067f8d51-b65c-422f-9eef-fff392264ea6","ios":"levelo://app?vid=067f8d51-b65c-422f-9eef-fff392264ea6"},"vehicle_type_id":"4","last_reported":1730621495,"current_range_meters":32800,"station_id":"ce4bhc92rcd13ifvqetg","pricing_plan_id":"cebpf4jnsgd1na2vs0mg"},{"bike_id":"cd63f975-9bb0-44f7-998a-c21a699d8a27","system_id":"levelo_inurba_marseille","lat":43.30465,"lon":5.379,"is_reserved":false,"is_disabled":false,"rental_uris":{"android":"levelo://app?vid=cd63f975-9bb0-44f7-998a-c21a699d8a27","ios":"levelo://app?vid=cd63f975-9bb0-44f7-998a-c21a699d8a27"},"vehicle_type_id":"4","last_reported":1730621495,"current_range_meters":38800,"station_id":"ce4bgup2rcd13ifvqcn0","pricing_plan_id":"cebpf4jnsgd1na2vs0mg"},{"bike_id":"d2390fcf-1b09-4d16-a427-06351b89cb5e","system_id":"levelo_inurba_marseille","lat":43.27211,"lon":5.3918,"is_reserved":false,"is_disabled":false,"rental_uris":{"android":"levelo://app?vid=d2390fcf-1b09-4d16-a427-06351b89cb5e","ios":"levelo://app?vid=d2390fcf-1b09-4d16-a427-06351b89cb5e"},"vehicle_type_id":"4","last_reported":1730621495,"current_range_meters":38000,"station_id":"ce4bhhp2rcd13ifvqfm0","pricing_plan_id":"cebpf4jnsgd1na2vs0mg"},{"bike_id":"551b2b3f-bd56-485c-8f32-235c28833653","system_id":"levelo_inurba_marseille","lat":43.27997,"lon":5.41664,"is_reserved":false,"is_disabled":false,"rental_uris":{"android":"levelo://app?vid=551b2b3f-bd56-485c-8f32-235c28833653","ios":"levelo://app?vid=551b2b3f-bd56-485c-8f32-235c28833653"},"vehicle_type_id":"4","last_reported":1730621495,"current_range_meters":36400,"station_id":"ce4bho12rcd13ifvqh1g","pricing_plan_id":"cebpf4jnsgd1na2vs0mg"},{"bike_id":"242a0022-7ff2-4146-b8c8-168460a54332","system_id":"levelo_inurba_marseille","lat":43.28693,"lon":5.37402,"is_reserved":false,"is_disabled":false,"rental_uris":{"android":"levelo://app?vid=242a0022-7ff2-4146-b8c8-168460a54332","ios":"levelo://app?vid=242a0022-7ff2-4146-b8c8-168460a54332"},"vehicle_type_id":"4","last_reported":1730621495,"current_range_meters":38400,"station_id":"ce4bh3p2rcd13ifvqdq0","pricing_plan_id":"cebpf4jnsgd1na2vs0mg"},{"bike_id":"052d16ea-253c-406a-928f-191dda2705f5","system_id":"levelo_inurba_marseille","lat":43.31709,"lon":5.4371,"is_reserved":false,"is_disabled":false,"rental_uris":{"android":"levelo://app?vid=052d16ea-253c-406a-928f-191dda2705f5","ios":"levelo://app?vid=052d16ea-253c-406a-928f-191dda2705f5"},"vehicle_type_id":"4","last_reported":1730621495,"current_range_meters":38800,"station_id":"ce4bhp92rcd13ifvqhcg","pricing_plan_id":"cebpf4jnsgd1na2vs0mg"},{"bike_id":"933e88ac-d979-43a7-a64b-221565f81a6f","system_id":"levelo_inurba_marseille","lat":43.23961,"lon":5.36621,"is_reserved":false,"is_disabled":false,"rental_uris":{"android":"levelo://app?vid=933e88ac-d979-43a7-a64b-221565f81a6f","ios":"levelo://app?vid=933e88ac-d979-43a7-a64b-221565f81a6f"},"vehicle_type_id":"4","last_reported":1730621495,"current_range_meters":38000,"station_id":"ce4bhi12rcd13ifvqfp0","pricing_plan_id":"cebpf4jnsgd1na2vs0mg"},{"bike_id":"0de993bb-b64a-4032-abce-b87c2b2ec7e9","system_id":"levelo_inurba_marseille","lat":43.28163,"lon":5.42642,"is_reserved":false,"is_disabled":false,"rental_uris":{"android":"levelo://app?vid=0de993bb-b64a-4032-abce-b87c2b2ec7e9","ios":"levelo://app?vid=0de993bb-b64a-4032-abce-b87c2b2ec7e9"},"vehicle_type_id":"4","last_reported":1730621495,"current_range_meters":38400,"station_id":"ce4bhnh2rcd13ifvqgug","pricing_plan_id":"cebpf4jnsgd1na2vs0mg"},{"bike_id":"65e17e59-ae4d-48d0-9406-a4f2ed496e4c","system_id":"levelo_inurba_marseille","lat":43.29001,"lon":5.35609,"is_reserved":false,"is_disabled":false,"rental_uris":{"android":"levelo://app?vid=65e17e59-ae4d-48d0-9406-a4f2ed496e4c","ios":"levelo://app?vid=65e17e59-ae4d-48d0-9406-a4f2ed496e4c"},"vehicle_type_id":"4","last_reported":1730621495,"current_range_meters":36400,"station_id":"ce4bhb92rcd13ifvqen0","pricing_plan_id":"cebpf4jnsgd1na2vs0mg"},{"bike_id":"69295eff-cedc-4c7f-b846-077388dbe1b6","system_id":"levelo_inurba_marseille","lat":43.29792,"lon":5.39049,"is_reserved":false,"is_disabled":false,"rental_uris":{"android":"levelo://app?vid=69295eff-cedc-4c7f-b846-077388dbe1b6","ios":"levelo://app?vid=69295eff-cedc-4c7f-b846-077388dbe1b6"},"vehicle_type_id":"4","last_reported":1730621495,"current_range_meters":18800,"station_id":"","pricing_plan_id":"cebpf4jnsgd1na2vs0mg"},{"bike_id":"bb9b565f-2eb1-4d10-ba15-9ef6218a6f53","system_id":"levelo_inurba_marseille","lat":43.29844,"lon":5.36266,"is_reserved":false,"is_disabled":false,"rental_uris":{"android":"levelo://app?vid=bb9b565f-2eb1-4d10-ba15-9ef6218a6f53","ios":"levelo://app?vid=bb9b565f-2eb1-4d10-ba15-9ef6218a6f53"},"vehicle_type_id":"4","last_reported":1730621495,"current_range_meters":30800,"station_id":"ce4bgpp2rcd13ifvqc3g","pricing_plan_id":"cebpf4jnsgd1na2vs0mg"},{"bike_id":"dfbeb4ca-f4c3-4a31-8e01-8734c9cc8ae5","system_id":"levelo_inurba_marseille","lat":43.31607,"lon":5.39035,"is_reserved":false,"is_disabled":false,"rental_uris":{"android":"levelo://app?vid=dfbeb4ca-f4c3-4a31-8e01-8734c9cc8ae5","ios":"levelo://app?vid=dfbeb4ca-f4c3-4a31-8e01-8734c9cc8ae5"},"vehicle_type_id":"4","last_reported":1730621495,"current_range_meters":22000,"station_id":"ce4bhqp2rcd13ifvqhng","pricing_plan_id":"cebpf4jnsgd1na2vs0mg"},{"bike_id":"42d4fa3c-acb2-424b-ad52-1533fe8cedac","system_id":"levelo_inurba_marseille","lat":43.31483,"lon":5.37308,"is_reserved":false,"is_disabled":false,"rental_uris":{"android":"levelo://app?vid=42d4fa3c-acb2-424b-ad52-1533fe8cedac","ios":"levelo://app?vid=42d4fa3c-acb2-424b-ad52-1533fe8cedac"},"vehicle_type_id":"4","last_reported":1730621495,"current_range_meters":38000,"station_id":"ce4bgt12rcd13ifvqcd0","pricing_plan_id":"cebpf4jnsgd1na2vs0mg"},{"bike_id":"72f10202-c93f-45e3-a105-895815dcd66f","system_id":"levelo_inurba_marseille","lat":43.27613,"lon":5.36112,"is_reserved":false,"is_disabled":false,"rental_uris":{"android":"levelo://app?vid=72f10202-c93f-45e3-a105-895815dcd66f","ios":"levelo://app?vid=72f10202-c93f-45e3-a105-895815dcd66f"},"vehicle_type_id":"4","last_reported":1730621495,"current_range_meters":37600,"station_id":"ce4bgj92rcd13ifvqbe0","pricing_plan_id":"cebpf4jnsgd1na2vs0mg"},{"bike_id":"b9fd93d9-e34c-46a8-83b6-0d0cc667a268","system_id":"levelo_inurba_marseille","lat":43.24807,"lon":5.37454,"is_reserved":false,"is_disabled":false,"rental_uris":{"android":"levelo://app?vid=b9fd93d9-e34c-46a8-83b6-0d0cc667a268","ios":"levelo://app?vid=b9fd93d9-e34c-46a8-83b6-0d0cc667a268"},"vehicle_type_id":"4","last_reported":1730621495,"current_range_meters":37600,"station_id":"ce4bhgh2rcd13ifvqfb0","pricing_plan_id":"cebpf4jnsgd1na2vs0mg"},{"bike_id":"2006c763-5d5d-4a90-b0eb-2cbd7baf8745","system_id":"levelo_inurba_marseille","lat":43.29706,"lon":5.39158,"is_reserved":false,"is_disabled":false,"rental_uris":{"android":"levelo://app?vid=2006c763-5d5d-4a90-b0eb-2cbd7baf8745","ios":"levelo://app?vid=2006c763-5d5d-4a90-b0eb-2cbd7baf8745"},"vehicle_type_id":"4","last_reported":1730621495,"current_range_meters":20800,"station_id":"","pricing_plan_id":"cebpf4jnsgd1na2vs0mg"},{"bike_id":"255ea6d3-7ac6-4345-8335-502748145960","system_id":"levelo_inurba_marseille","lat":43.2418,"lon":5.39736,"is_reserved":false,"is_disabled":false,"rental_uris":{"android":"levelo://app?vid=255ea6d3-7ac6-4345-8335-502748145960","ios":"levelo://app?vid=255ea6d3-7ac6-4345-8335-502748145960"},"vehicle_type_id":"4","last_reported":1730621495,"current_range_meters":33600,"station_id":"ce4bhn12rcd13ifvqgpg","pricing_plan_id":"cebpf4jnsgd1na2vs0mg"},{"bike_id":"b71aec61-79a9-4056-9e3a-b2a2b46e4408","system_id":"levelo_inurba_marseille","lat":43.28152,"lon":5.42641,"is_reserved":false,"is_disabled":false,"rental_uris":{"android":"levelo://app?vid=b71aec61-79a9-4056-9e3a-b2a2b46e4408","ios":"levelo://app?vid=b71aec61-79a9-4056-9e3a-b2a2b46e4408"},"vehicle_type_id":"4","last_reported":1730621495,"current_range_meters":17600,"station_id":"ce4bhnh2rcd13ifvqgug","pricing_plan_id":"cebpf4jnsgd1na2vs0mg"},{"bike_id":"a5e5686b-78b3-4a90-88b3-8326b4aff7e8","system_id":"levelo_inurba_marseille","lat":43.31068,"lon":5.38344,"is_reserved":false,"is_disabled":false,"rental_uris":{"android":"levelo://app?vid=a5e5686b-78b3-4a90-88b3-8326b4aff7e8","ios":"levelo://app?vid=a5e5686b-78b3-4a90-88b3-8326b4aff7e8"},"vehicle_type_id":"4","last_reported":1730621495,"current_range_meters":33600,"station_id":"ce4bgv92rcd13ifvqcr0","pricing_plan_id":"cebpf4jnsgd1na2vs0mg"},{"bike_id":"d44c011e-46f8-493c-be76-a26178c2219f","system_id":"levelo_inurba_marseille","lat":43.2866,"lon":5.36359,"is_reserved":false,"is_disabled":false,"rental_uris":{"android":"levelo://app?vid=d44c011e-46f8-493c-be76-a26178c2219f","ios":"levelo://app?vid=d44c011e-46f8-493c-be76-a26178c2219f"},"vehicle_type_id":"4","last_reported":1730621495,"current_range_meters":38800,"station_id":"ce4bhah2rcd13ifvqej0","pricing_plan_id":"cebpf4jnsgd1na2vs0mg"},{"bike_id":"8365c946-beae-47ce-87c4-1094a86c3535","system_id":"levelo_inurba_marseille","lat":43.25113,"lon":5.40323,"is_reserved":false,"is_disabled":false,"rental_uris":{"android":"levelo://app?vid=8365c946-beae-47ce-87c4-1094a86c3535","ios":"levelo://app?vid=8365c946-beae-47ce-87c4-1094a86c3535"},"vehicle_type_id":"4","last_reported":1730621495,"current_range_meters":39200,"station_id":"ce4bhlh2rcd13ifvqgig","pricing_plan_id":"cebpf4jnsgd1na2vs0mg"},{"bike_id":"1891da9e-84eb-4db0-8985-88dfff9d5a7d","system_id":"levelo_inurba_marseille","lat":43.30417,"lon":5.41284,"is_reserved":false,"is_disabled":false,"rental_uris":{"android":"levelo://app?vid=1891da9e-84eb-4db0-8985-88dfff9d5a7d","ios":"levelo://app?vid=1891da9e-84eb-4db0-8985-88dfff9d5a7d"},"vehicle_type_id":"4","last_reported":1730621495,"current_range_meters":39200,"station_id":"ce4bhop2rcd13ifvqh8g","pricing_plan_id":"cebpf4jnsgd1na2vs0mg"},{"bike_id":"5a16a1d7-fcff-4bbb-a040-afd12b10f6b1","system_id":"levelo_inurba_marseille","lat":43.30813,"lon":5.38161,"is_reserved":false,"is_disabled":false,"rental_uris":{"android":"levelo://app?vid=5a16a1d7-fcff-4bbb-a040-afd12b10f6b1","ios":"levelo://app?vid=5a16a1d7-fcff-4bbb-a040-afd12b10f6b1"},"vehicle_type_id":"4","last_reported":1730621495,"current_range_meters":39200,"station_id":"ce4bgt12rcd13ifvqce0","pricing_plan_id":"cebpf4jnsgd1na2vs0mg"},{"bike_id":"1b760ddd-e34d-491f-9c82-3266310982c8","system_id":"levelo_inurba_marseille","lat":43.26555,"lon":5.37281,"is_reserved":false,"is_disabled":false,"rental_uris":{"android":"levelo://app?vid=1b760ddd-e34d-491f-9c82-3266310982c8","ios":"levelo://app?vid=1b760ddd-e34d-491f-9c82-3266310982c8"},"vehicle_type_id":"4","last_reported":1730621495,"current_range_meters":3600,"station_id":"ce4bhg12rcd13ifvqf70","pricing_plan_id":"cebpf4jnsgd1na2vs0mg"},{"bike_id":"f23be71f-f673-44e6-b886-5c52a18cc4aa","system_id":"levelo_inurba_marseille","lat":43.28404,"lon":5.37523,"is_reserved":false,"is_disabled":false,"rental_uris":{"android":"levelo://app?vid=f23be71f-f673-44e6-b886-5c52a18cc4aa","ios":"levelo://app?vid=f23be71f-f673-44e6-b886-5c52a18cc4aa"},"vehicle_type_id":"4","last_reported":1730621495,"current_range_meters":38400,"station_id":"ce4bh412rcd13ifvqds0","pricing_plan_id":"cebpf4jnsgd1na2vs0mg"},{"bike_id":"af7e1e73-b78a-4b06-a5a4-0f2c5b6bfded","system_id":"levelo_inurba_marseille","lat":43.30467,"lon":5.37902,"is_reserved":false,"is_disabled":false,"rental_uris":{"android":"levelo://app?vid=af7e1e73-b78a-4b06-a5a4-0f2c5b6bfded","ios":"levelo://app?vid=af7e1e73-b78a-4b06-a5a4-0f2c5b6bfded"},"vehicle_type_id":"4","last_reported":1730621495,"current_range_meters":23200,"station_id":"ce4bgup2rcd13ifvqcn0","pricing_plan_id":"cebpf4jnsgd1na2vs0mg"},{"bike_id":"9e3a49e4-250c-4ac6-b1c4-cf1702ad648f","system_id":"levelo_inurba_marseille","lat":43.2958,"lon":5.36732,"is_reserved":false,"is_disabled":false,"rental_uris":{"android":"levelo://app?vid=9e3a49e4-250c-4ac6-b1c4-cf1702ad648f","ios":"levelo://app?vid=9e3a49e4-250c-4ac6-b1c4-cf1702ad648f"},"vehicle_type_id":"4","last_reported":1730621495,"current_range_meters":37600,"station_id":"ce4bgph2rcd13ifvqc2g","pricing_plan_id":"cebpf4jnsgd1na2vs0mg"},{"bike_id":"d3ae8054-535d-4288-b44c-84c3071021e3","system_id":"levelo_inurba_marseille","lat":43.25112,"lon":5.40324,"is_reserved":false,"is_disabled":false,"rental_uris":{"android":"levelo://app?vid=d3ae8054-535d-4288-b44c-84c3071021e3","ios":"levelo://app?vid=d3ae8054-535d-4288-b44c-84c3071021e3"},"vehicle_type_id":"4","last_reported":1730621495,"current_range_meters":16000,"station_id":"ce4bhlh2rcd13ifvqgig","pricing_plan_id":"cebpf4jnsgd1na2vs0mg"},{"bike_id":"38f76228-741a-4f06-9884-77f77e60cf4a","system_id":"levelo_inurba_marseille","lat":43.23071,"lon":5.40508,"is_reserved":false,"is_disabled":false,"rental_uris":{"android":"levelo://app?vid=38f76228-741a-4f06-9884-77f77e60cf4a","ios":"levelo://app?vid=38f76228-741a-4f06-9884-77f77e60cf4a"},"vehicle_type_id":"4","last_reported":1730621495,"current_range_meters":6800,"station_id":"","pricing_plan_id":"cebpf4jnsgd1na2vs0mg"},{"bike_id":"1e337e8c-1ba4-4386-ae7f-0381fae966f8","system_id":"levelo_inurba_marseille","lat":43.31702,"lon":5.377657,"is_reserved":false,"is_disabled":false,"rental_uris":{"android":"levelo://app?vid=1e337e8c-1ba4-4386-ae7f-0381fae966f8","ios":"levelo://app?vid=1e337e8c-1ba4-4386-ae7f-0381fae966f8"},"vehicle_type_id":"4","last_reported":1730621495,"current_range_meters":32000,"station_id":"ce4bgth2rcd13ifvqch0","pricing_plan_id":"cebpf4jnsgd1na2vs0mg"},{"bike_id":"61497ec0-6b91-4085-893e-2dc4cbab5392","system_id":"levelo_inurba_marseille","lat":43.32369,"lon":5.38898,"is_reserved":false,"is_disabled":false,"rental_uris":{"android":"levelo://app?vid=61497ec0-6b91-4085-893e-2dc4cbab5392","ios":"levelo://app?vid=61497ec0-6b91-4085-893e-2dc4cbab5392"},"vehicle_type_id":"4","last_reported":1730621495,"current_range_meters":24000,"station_id":"ce4bhqp2rcd13ifvqhog","pricing_plan_id":"cebpf4jnsgd1na2vs0mg"},{"bike_id":"21f0deb2-cc7f-4625-b4fb-7f1b443a14ac","system_id":"levelo_inurba_marseille","lat":43.28378,"lon":5.38633,"is_reserved":false,"is_disabled":false,"rental_uris":{"android":"levelo://app?vid=21f0deb2-cc7f-4625-b4fb-7f1b443a14ac","ios":"levelo://app?vid=21f0deb2-cc7f-4625-b4fb-7f1b443a14ac"},"vehicle_type_id":"4","last_reported":1730621495,"current_range_meters":32000,"station_id":"ce4bh492rcd13ifvqdvg","pricing_plan_id":"cebpf4jnsgd1na2vs0mg"},{"bike_id":"889215a8-e707-4816-a3e4-27d415c3aab1","system_id":"levelo_inurba_marseille","lat":43.2927,"lon":5.4013,"is_reserved":false,"is_disabled":false,"rental_uris":{"android":"levelo://app?vid=889215a8-e707-4816-a3e4-27d415c3aab1","ios":"levelo://app?vid=889215a8-e707-4816-a3e4-27d415c3aab1"},"vehicle_type_id":"4","last_reported":1730621495,"current_range_meters":38400,"station_id":"ce4bh312rcd13ifvqdk0","pricing_plan_id":"cebpf4jnsgd1na2vs0mg"},{"bike_id":"2d1b510e-28ee-43bd-99a9-d8972623938f","system_id":"levelo_inurba_marseille","lat":43.28407,"lon":5.37516,"is_reserved":false,"is_disabled":false,"rental_uris":{"android":"levelo://app?vid=2d1b510e-28ee-43bd-99a9-d8972623938f","ios":"levelo://app?vid=2d1b510e-28ee-43bd-99a9-d8972623938f"},"vehicle_type_id":"4","last_reported":1730621495,"current_range_meters":10800,"station_id":"ce4bh412rcd13ifvqds0","pricing_plan_id":"cebpf4jnsgd1na2vs0mg"},{"bike_id":"e55d8d6f-7394-4584-af8a-c65aaa7989ef","system_id":"levelo_inurba_marseille","lat":43.26068,"lon":5.39393,"is_reserved":false,"is_disabled":false,"rental_uris":{"android":"levelo://app?vid=e55d8d6f-7394-4584-af8a-c65aaa7989ef","ios":"levelo://app?vid=e55d8d6f-7394-4584-af8a-c65aaa7989ef"},"vehicle_type_id":"4","last_reported":1730621495,"current_range_meters":6800,"station_id":"ce4bhh92rcd13ifvqfj0","pricing_plan_id":"cebpf4jnsgd1na2vs0mg"},{"bike_id":"2171b370-882b-48fc-80a1-24884f7d3b56","system_id":"levelo_inurba_marseille","lat":43.30544,"lon":5.38431,"is_reserved":false,"is_disabled":false,"rental_uris":{"android":"levelo://app?vid=2171b370-882b-48fc-80a1-24884f7d3b56","ios":"levelo://app?vid=2171b370-882b-48fc-80a1-24884f7d3b56"},"vehicle_type_id":"4","last_reported":1730621495,"current_range_meters":38800,"station_id":"ce4bgg92rcd13ifvqb30","pricing_plan_id":"cebpf4jnsgd1na2vs0mg"},{"bike_id":"d3f56f17-ac1a-464c-b9d7-9bc3311153ab","system_id":"levelo_inurba_marseille","lat":43.2466,"lon":5.3816,"is_reserved":false,"is_disabled":false,"rental_uris":{"android":"levelo://app?vid=d3f56f17-ac1a-464c-b9d7-9bc3311153ab","ios":"levelo://app?vid=d3f56f17-ac1a-464c-b9d7-9bc3311153ab"},"vehicle_type_id":"4","last_reported":1730621495,"current_range_meters":5600,"station_id":"ce4bhih2rcd13ifvqfr0","pricing_plan_id":"cebpf4jnsgd1na2vs0mg"},{"bike_id":"c9836de4-dae6-4bfc-aef6-8b7c0c537e63","system_id":"levelo_inurba_marseille","lat":43.25869,"lon":5.39898,"is_reserved":false,"is_disabled":false,"rental_uris":{"android":"levelo://app?vid=c9836de4-dae6-4bfc-aef6-8b7c0c537e63","ios":"levelo://app?vid=c9836de4-dae6-4bfc-aef6-8b7c0c537e63"},"vehicle_type_id":"4","last_reported":1730621495,"current_range_meters":38800,"station_id":"ce4bhl92rcd13ifvqghg","pricing_plan_id":"cebpf4jnsgd1na2vs0mg"},{"bike_id":"3a63cdb9-541a-46b5-b98d-4808f2a40168","system_id":"levelo_inurba_marseille","lat":43.29437,"lon":5.39752,"is_reserved":false,"is_disabled":false,"rental_uris":{"android":"levelo://app?vid=3a63cdb9-541a-46b5-b98d-4808f2a40168","ios":"levelo://app?vid=3a63cdb9-541a-46b5-b98d-4808f2a40168"},"vehicle_type_id":"4","last_reported":1730621495,"current_range_meters":20000,"station_id":"ce4bh3h2rcd13ifvqdo0","pricing_plan_id":"cebpf4jnsgd1na2vs0mg"},{"bike_id":"38475408-a590-43ad-9d81-70bf6c6edf3e","system_id":"levelo_inurba_marseille","lat":43.28279,"lon":5.35073,"is_reserved":false,"is_disabled":false,"rental_uris":{"android":"levelo://app?vid=38475408-a590-43ad-9d81-70bf6c6edf3e","ios":"levelo://app?vid=38475408-a590-43ad-9d81-70bf6c6edf3e"},"vehicle_type_id":"4","last_reported":1730621495,"current_range_meters":38800,"station_id":"ce4bhbp2rcd13ifvqerg","pricing_plan_id":"cebpf4jnsgd1na2vs0mg"},{"bike_id":"529faf86-6b7c-4adc-b233-8e2adc8826d2","system_id":"levelo_inurba_marseille","lat":43.24804,"lon":5.37459,"is_reserved":false,"is_disabled":false,"rental_uris":{"android":"levelo://app?vid=529faf86-6b7c-4adc-b233-8e2adc8826d2","ios":"levelo://app?vid=529faf86-6b7c-4adc-b233-8e2adc8826d2"},"vehicle_type_id":"4","last_reported":1730621495,"current_range_meters":38000,"station_id":"ce4bhgh2rcd13ifvqfb0","pricing_plan_id":"cebpf4jnsgd1na2vs0mg"},{"bike_id":"76867c33-2a30-4764-ab43-24e998b967a2","system_id":"levelo_inurba_marseille","lat":43.25,"lon":5.38931,"is_reserved":false,"is_disabled":false,"rental_uris":{"android":"levelo://app?vid=76867c33-2a30-4764-ab43-24e998b967a2","ios":"levelo://app?vid=76867c33-2a30-4764-ab43-24e998b967a2"},"vehicle_type_id":"4","last_reported":1730621495,"current_range_meters":38800,"station_id":"ce4bhgp2rcd13ifvqfd0","pricing_plan_id":"cebpf4jnsgd1na2vs0mg"},{"bike_id":"e712b4bf-48ef-4b84-aa58-a26dceb1077d","system_id":"levelo_inurba_marseille","lat":43.24665,"lon":5.38163,"is_reserved":false,"is_disabled":false,"rental_uris":{"android":"levelo://app?vid=e712b4bf-48ef-4b84-aa58-a26dceb1077d","ios":"levelo://app?vid=e712b4bf-48ef-4b84-aa58-a26dceb1077d"},"vehicle_type_id":"4","last_reported":1730621495,"current_range_meters":32000,"station_id":"ce4bhih2rcd13ifvqfr0","pricing_plan_id":"cebpf4jnsgd1na2vs0mg"},{"bike_id":"49f0f2d2-d3bb-4098-8c41-801a52b040be","system_id":"levelo_inurba_marseille","lat":43.28341,"lon":5.38116,"is_reserved":false,"is_disabled":false,"rental_uris":{"android":"levelo://app?vid=49f0f2d2-d3bb-4098-8c41-801a52b040be","ios":"levelo://app?vid=49f0f2d2-d3bb-4098-8c41-801a52b040be"},"vehicle_type_id":"4","last_reported":1730621495,"current_range_meters":37600,"station_id":"ce4bh412rcd13ifvqdr0","pricing_plan_id":"cebpf4jnsgd1na2vs0mg"},{"bike_id":"d4472d20-9c4b-4c70-ad00-3a005519a429","system_id":"levelo_inurba_marseille","lat":43.35425,"lon":5.35711,"is_reserved":false,"is_disabled":false,"rental_uris":{"android":"levelo://app?vid=d4472d20-9c4b-4c70-ad00-3a005519a429","ios":"levelo://app?vid=d4472d20-9c4b-4c70-ad00-3a005519a429"},"vehicle_type_id":"4","last_reported":1730621495,"current_range_meters":16400,"station_id":"","pricing_plan_id":"cebpf4jnsgd1na2vs0mg"},{"bike_id":"6338020e-474a-4c99-b365-eea26fe54739","system_id":"levelo_inurba_marseille","lat":43.32288,"lon":5.382833,"is_reserved":false,"is_disabled":false,"rental_uris":{"android":"levelo://app?vid=6338020e-474a-4c99-b365-eea26fe54739","ios":"levelo://app?vid=6338020e-474a-4c99-b365-eea26fe54739"},"vehicle_type_id":"4","last_reported":1730621495,"current_range_meters":38800,"station_id":"ce4bhr12rcd13ifvqhqg","pricing_plan_id":"cebpf4jnsgd1na2vs0mg"},{"bike_id":"7dc33034-781d-4ebf-9295-58711817662e","system_id":"levelo_inurba_marseille","lat":43.28708,"lon":5.39983,"is_reserved":false,"is_disabled":false,"rental_uris":{"android":"levelo://app?vid=7dc33034-781d-4ebf-9295-58711817662e","ios":"levelo://app?vid=7dc33034-781d-4ebf-9295-58711817662e"},"vehicle_type_id":"4","last_reported":1730621495,"current_range_meters":18000,"station_id":"ce4bho92rcd13ifvqh3g","pricing_plan_id":"cebpf4jnsgd1na2vs0mg"},{"bike_id":"4b222da4-8442-4555-b643-ea7c217414d0","system_id":"levelo_inurba_marseille","lat":43.27561,"lon":5.38426,"is_reserved":false,"is_disabled":false,"rental_uris":{"android":"levelo://app?vid=4b222da4-8442-4555-b643-ea7c217414d0","ios":"levelo://app?vid=4b222da4-8442-4555-b643-ea7c217414d0"},"vehicle_type_id":"4","last_reported":1730621495,"current_range_meters":6800,"station_id":"ce4bhh92rcd13ifvqfi0","pricing_plan_id":"cebpf4jnsgd1na2vs0mg"},{"bike_id":"ccf8f0af-3836-45e1-85d1-316001fc9f42","system_id":"levelo_inurba_marseille","lat":43.28693,"lon":5.3739,"is_reserved":false,"is_disabled":false,"rental_uris":{"android":"levelo://app?vid=ccf8f0af-3836-45e1-85d1-316001fc9f42","ios":"levelo://app?vid=ccf8f0af-3836-45e1-85d1-316001fc9f42"},"vehicle_type_id":"4","last_reported":1730621495,"current_range_meters":38800,"station_id":"ce4bh3p2rcd13ifvqdq0","pricing_plan_id":"cebpf4jnsgd1na2vs0mg"},{"bike_id":"99081d31-0c8e-498b-8e95-c319e84336b8","system_id":"levelo_inurba_marseille","lat":43.29008,"lon":5.3561,"is_reserved":false,"is_disabled":false,"rental_uris":{"android":"levelo://app?vid=99081d31-0c8e-498b-8e95-c319e84336b8","ios":"levelo://app?vid=99081d31-0c8e-498b-8e95-c319e84336b8"},"vehicle_type_id":"4","last_reported":1730621495,"current_range_meters":38800,"station_id":"ce4bhb92rcd13ifvqen0","pricing_plan_id":"cebpf4jnsgd1na2vs0mg"},{"bike_id":"e0624165-2dad-4331-bf4d-d984a7de7861","system_id":"levelo_inurba_marseille","lat":43.24075,"lon":5.37755,"is_reserved":false,"is_disabled":false,"rental_uris":{"android":"levelo://app?vid=e0624165-2dad-4331-bf4d-d984a7de7861","ios":"levelo://app?vid=e0624165-2dad-4331-bf4d-d984a7de7861"},"vehicle_type_id":"4","last_reported":1730621495,"current_range_meters":32400,"station_id":"ce4bhnp2rcd13ifvqgvg","pricing_plan_id":"cebpf4jnsgd1na2vs0mg"},{"bike_id":"4d838921-ecf0-47e9-891e-f3ee5c37121f","system_id":"levelo_inurba_marseille","lat":43.28271,"lon":5.35072,"is_reserved":false,"is_disabled":false,"rental_uris":{"android":"levelo://app?vid=4d838921-ecf0-47e9-891e-f3ee5c37121f","ios":"levelo://app?vid=4d838921-ecf0-47e9-891e-f3ee5c37121f"},"vehicle_type_id":"4","last_reported":1730621495,"current_range_meters":36000,"station_id":"ce4bhbp2rcd13ifvqerg","pricing_plan_id":"cebpf4jnsgd1na2vs0mg"},{"bike_id":"72376235-6028-4de4-9dcf-027dcc193d0c","system_id":"levelo_inurba_marseille","lat":43.28943,"lon":5.36636,"is_reserved":false,"is_disabled":false,"rental_uris":{"android":"levelo://app?vid=72376235-6028-4de4-9dcf-027dcc193d0c","ios":"levelo://app?vid=72376235-6028-4de4-9dcf-027dcc193d0c"},"vehicle_type_id":"4","last_reported":1730621495,"current_range_meters":37600,"station_id":"ce4bhap2rcd13ifvqek0","pricing_plan_id":"cebpf4jnsgd1na2vs0mg"},{"bike_id":"2e3a04c4-b206-4842-a51a-85ba5903e151","system_id":"levelo_inurba_marseille","lat":43.28271,"lon":5.35073,"is_reserved":false,"is_disabled":false,"rental_uris":{"android":"levelo://app?vid=2e3a04c4-b206-4842-a51a-85ba5903e151","ios":"levelo://app?vid=2e3a04c4-b206-4842-a51a-85ba5903e151"},"vehicle_type_id":"4","last_reported":1730621495,"current_range_meters":37600,"station_id":"ce4bhbp2rcd13ifvqerg","pricing_plan_id":"cebpf4jnsgd1na2vs0mg"},{"bike_id":"d38e2970-cd95-460c-8752-b0514e97e786","system_id":"levelo_inurba_marseille","lat":43.30649,"lon":5.40082,"is_reserved":false,"is_disabled":false,"rental_uris":{"android":"levelo://app?vid=d38e2970-cd95-460c-8752-b0514e97e786","ios":"levelo://app?vid=d38e2970-cd95-460c-8752-b0514e97e786"},"vehicle_type_id":"4","last_reported":1730621495,"current_range_meters":33600,"station_id":"ce4bh112rcd13ifvqda0","pricing_plan_id":"cebpf4jnsgd1na2vs0mg"},{"bike_id":"7d1d8b3c-0803-4bf6-9721-d7161499653f","system_id":"levelo_inurba_marseille","lat":43.24074,"lon":5.37757,"is_reserved":false,"is_disabled":false,"rental_uris":{"android":"levelo://app?vid=7d1d8b3c-0803-4bf6-9721-d7161499653f","ios":"levelo://app?vid=7d1d8b3c-0803-4bf6-9721-d7161499653f"},"vehicle_type_id":"4","last_reported":1730621495,"current_range_meters":20800,"station_id":"ce4bhnp2rcd13ifvqgvg","pricing_plan_id":"cebpf4jnsgd1na2vs0mg"},{"bike_id":"f35cd096-8317-409a-9875-97da0ea574d4","system_id":"levelo_inurba_marseille","lat":43.32532,"lon":5.41452,"is_reserved":false,"is_disabled":false,"rental_uris":{"android":"levelo://app?vid=f35cd096-8317-409a-9875-97da0ea574d4","ios":"levelo://app?vid=f35cd096-8317-409a-9875-97da0ea574d4"},"vehicle_type_id":"4","last_reported":1730621495,"current_range_meters":36800,"station_id":"ce4bhq12rcd13ifvqhhg","pricing_plan_id":"cebpf4jnsgd1na2vs0mg"},{"bike_id":"75dcde3b-e30e-49c9-94a8-71caa44482f1","system_id":"levelo_inurba_marseille","lat":43.315329,"lon":5.380411,"is_reserved":false,"is_disabled":false,"rental_uris":{"android":"levelo://app?vid=75dcde3b-e30e-49c9-94a8-71caa44482f1","ios":"levelo://app?vid=75dcde3b-e30e-49c9-94a8-71caa44482f1"},"vehicle_type_id":"4","last_reported":1730621495,"current_range_meters":38800,"station_id":"ce4bhsp2rcd13ifvqi50","pricing_plan_id":"cebpf4jnsgd1na2vs0mg"},{"bike_id":"5ec9569d-01b1-4aba-bf03-e3eddfda84e3","system_id":"levelo_inurba_marseille","lat":43.2678,"lon":5.39412,"is_reserved":false,"is_disabled":false,"rental_uris":{"android":"levelo://app?vid=5ec9569d-01b1-4aba-bf03-e3eddfda84e3","ios":"levelo://app?vid=5ec9569d-01b1-4aba-bf03-e3eddfda84e3"},"vehicle_type_id":"4","last_reported":1730621495,"current_range_meters":22000,"station_id":"ce4bhh12rcd13ifvqfg0","pricing_plan_id":"cebpf4jnsgd1na2vs0mg"},{"bike_id":"52bcb0fe-5ce2-4820-8e93-6e6840ada134","system_id":"levelo_inurba_marseille","lat":43.30465,"lon":5.37902,"is_reserved":false,"is_disabled":false,"rental_uris":{"android":"levelo://app?vid=52bcb0fe-5ce2-4820-8e93-6e6840ada134","ios":"levelo://app?vid=52bcb0fe-5ce2-4820-8e93-6e6840ada134"},"vehicle_type_id":"4","last_reported":1730621495,"current_range_meters":38000,"station_id":"ce4bgup2rcd13ifvqcn0","pricing_plan_id":"cebpf4jnsgd1na2vs0mg"},{"bike_id":"1ddde7ff-3953-4942-bfab-1d2712b93546","system_id":"levelo_inurba_marseille","lat":43.31709,"lon":5.3775,"is_reserved":false,"is_disabled":false,"rental_uris":{"android":"levelo://app?vid=1ddde7ff-3953-4942-bfab-1d2712b93546","ios":"levelo://app?vid=1ddde7ff-3953-4942-bfab-1d2712b93546"},"vehicle_type_id":"4","last_reported":1730621495,"current_range_meters":38800,"station_id":"ce4bgth2rcd13ifvqch0","pricing_plan_id":"cebpf4jnsgd1na2vs0mg"},{"bike_id":"7261abbc-bef1-40b4-8225-29e060af6a97","system_id":"levelo_inurba_marseille","lat":43.27991,"lon":5.41662,"is_reserved":false,"is_disabled":false,"rental_uris":{"android":"levelo://app?vid=7261abbc-bef1-40b4-8225-29e060af6a97","ios":"levelo://app?vid=7261abbc-bef1-40b4-8225-29e060af6a97"},"vehicle_type_id":"4","last_reported":1730621495,"current_range_meters":38000,"station_id":"ce4bho12rcd13ifvqh1g","pricing_plan_id":"cebpf4jnsgd1na2vs0mg"},{"bike_id":"5ade47a9-b029-4ecf-91d2-2e3313b2a4a2","system_id":"levelo_inurba_marseille","lat":43.28881,"lon":5.39471,"is_reserved":false,"is_disabled":false,"rental_uris":{"android":"levelo://app?vid=5ade47a9-b029-4ecf-91d2-2e3313b2a4a2","ios":"levelo://app?vid=5ade47a9-b029-4ecf-91d2-2e3313b2a4a2"},"vehicle_type_id":"4","last_reported":1730621495,"current_range_meters":26800,"station_id":"ce4bh3h2rcd13ifvqdn0","pricing_plan_id":"cebpf4jnsgd1na2vs0mg"},{"bike_id":"8c49e0c8-76c2-4929-8677-b5382f87f37a","system_id":"levelo_inurba_marseille","lat":43.30461,"lon":5.37898,"is_reserved":false,"is_disabled":false,"rental_uris":{"android":"levelo://app?vid=8c49e0c8-76c2-4929-8677-b5382f87f37a","ios":"levelo://app?vid=8c49e0c8-76c2-4929-8677-b5382f87f37a"},"vehicle_type_id":"4","last_reported":1730621495,"current_range_meters":9600,"station_id":"ce4bgup2rcd13ifvqcn0","pricing_plan_id":"cebpf4jnsgd1na2vs0mg"},{"bike_id":"18402065-9e87-476b-95ad-30853de181a0","system_id":"levelo_inurba_marseille","lat":43.32455,"lon":5.45543,"is_reserved":false,"is_disabled":false,"rental_uris":{"android":"levelo://app?vid=18402065-9e87-476b-95ad-30853de181a0","ios":"levelo://app?vid=18402065-9e87-476b-95ad-30853de181a0"},"vehicle_type_id":"4","last_reported":1730621495,"current_range_meters":4400,"station_id":"","pricing_plan_id":"cebpf4jnsgd1na2vs0mg"},{"bike_id":"2573c78b-8e91-4015-bba1-598cab8ef4ef","system_id":"levelo_inurba_marseille","lat":43.29267,"lon":5.40136,"is_reserved":false,"is_disabled":false,"rental_uris":{"android":"levelo://app?vid=2573c78b-8e91-4015-bba1-598cab8ef4ef","ios":"levelo://app?vid=2573c78b-8e91-4015-bba1-598cab8ef4ef"},"vehicle_type_id":"4","last_reported":1730621495,"current_range_meters":36800,"station_id":"ce4bh312rcd13ifvqdk0","pricing_plan_id":"cebpf4jnsgd1na2vs0mg"},{"bike_id":"7bafc7f7-e8f4-4480-9bef-1de7e451aa42","system_id":"levelo_inurba_marseille","lat":43.28616,"lon":5.35107,"is_reserved":false,"is_disabled":false,"rental_uris":{"android":"levelo://app?vid=7bafc7f7-e8f4-4480-9bef-1de7e451aa42","ios":"levelo://app?vid=7bafc7f7-e8f4-4480-9bef-1de7e451aa42"},"vehicle_type_id":"4","last_reported":1730621495,"current_range_meters":27600,"station_id":"ce4bhch2rcd13ifvqeug","pricing_plan_id":"cebpf4jnsgd1na2vs0mg"},{"bike_id":"4eb01b0d-49fc-48ee-b782-54d621657f1b","system_id":"levelo_inurba_marseille","lat":43.31888,"lon":5.40748,"is_reserved":false,"is_disabled":false,"rental_uris":{"android":"levelo://app?vid=4eb01b0d-49fc-48ee-b782-54d621657f1b","ios":"levelo://app?vid=4eb01b0d-49fc-48ee-b782-54d621657f1b"},"vehicle_type_id":"4","last_reported":1730621495,"current_range_meters":32000,"station_id":"ce4bhq12rcd13ifvqhig","pricing_plan_id":"cebpf4jnsgd1na2vs0mg"},{"bike_id":"f90730aa-8241-4aad-86b2-c4b4611fa5ea","system_id":"levelo_inurba_marseille","lat":43.25929,"lon":5.40904,"is_reserved":false,"is_disabled":false,"rental_uris":{"android":"levelo://app?vid=f90730aa-8241-4aad-86b2-c4b4611fa5ea","ios":"levelo://app?vid=f90730aa-8241-4aad-86b2-c4b4611fa5ea"},"vehicle_type_id":"4","last_reported":1730621495,"current_range_meters":16400,"station_id":"ce4bhm92rcd13ifvqglg","pricing_plan_id":"cebpf4jnsgd1na2vs0mg"},{"bike_id":"28770d90-a747-4aa7-b51e-4e499c6f7582","system_id":"levelo_inurba_marseille","lat":43.33729,"lon":5.39174,"is_reserved":false,"is_disabled":false,"rental_uris":{"android":"levelo://app?vid=28770d90-a747-4aa7-b51e-4e499c6f7582","ios":"levelo://app?vid=28770d90-a747-4aa7-b51e-4e499c6f7582"},"vehicle_type_id":"4","last_reported":1730621495,"current_range_meters":29600,"station_id":"ce4bhr92rcd13ifvqhsg","pricing_plan_id":"cebpf4jnsgd1na2vs0mg"},{"bike_id":"d85910d8-d412-4b12-a122-3b51215851f8","system_id":"levelo_inurba_marseille","lat":43.31081,"lon":5.3835,"is_reserved":false,"is_disabled":false,"rental_uris":{"android":"levelo://app?vid=d85910d8-d412-4b12-a122-3b51215851f8","ios":"levelo://app?vid=d85910d8-d412-4b12-a122-3b51215851f8"},"vehicle_type_id":"4","last_reported":1730621495,"current_range_meters":30800,"station_id":"ce4bgv92rcd13ifvqcr0","pricing_plan_id":"cebpf4jnsgd1na2vs0mg"},{"bike_id":"61f26f1a-3012-4bcc-bbf3-435c78ebab81","system_id":"levelo_inurba_marseille","lat":43.27926,"lon":5.39572,"is_reserved":false,"is_disabled":false,"rental_uris":{"android":"levelo://app?vid=61f26f1a-3012-4bcc-bbf3-435c78ebab81","ios":"levelo://app?vid=61f26f1a-3012-4bcc-bbf3-435c78ebab81"},"vehicle_type_id":"4","last_reported":1730621495,"current_range_meters":27600,"station_id":"ce4bhf92rcd13ifvqf40","pricing_plan_id":"cebpf4jnsgd1na2vs0mg"},{"bike_id":"641b0db7-7360-4136-aa22-f190f407c863","system_id":"levelo_inurba_marseille","lat":43.29784,"lon":5.39343,"is_reserved":false,"is_disabled":false,"rental_uris":{"android":"levelo://app?vid=641b0db7-7360-4136-aa22-f190f407c863","ios":"levelo://app?vid=641b0db7-7360-4136-aa22-f190f407c863"},"vehicle_type_id":"4","last_reported":1730621495,"current_range_meters":25600,"station_id":"chh1huq6cuj3fo74tm60","pricing_plan_id":"cebpf4jnsgd1na2vs0mg"},{"bike_id":"751eec01-23b0-49aa-a2a3-e2d658155f8b","system_id":"levelo_inurba_marseille","lat":43.27178,"lon":5.40985,"is_reserved":false,"is_disabled":false,"rental_uris":{"android":"levelo://app?vid=751eec01-23b0-49aa-a2a3-e2d658155f8b","ios":"levelo://app?vid=751eec01-23b0-49aa-a2a3-e2d658155f8b"},"vehicle_type_id":"4","last_reported":1730621495,"current_range_meters":38800,"station_id":"ce4bhl12rcd13ifvqgf0","pricing_plan_id":"cebpf4jnsgd1na2vs0mg"},{"bike_id":"c7a6a60a-ebc3-43dc-847c-5817f23f3b49","system_id":"levelo_inurba_marseille","lat":43.25723,"lon":5.41105,"is_reserved":false,"is_disabled":false,"rental_uris":{"android":"levelo://app?vid=c7a6a60a-ebc3-43dc-847c-5817f23f3b49","ios":"levelo://app?vid=c7a6a60a-ebc3-43dc-847c-5817f23f3b49"},"vehicle_type_id":"4","last_reported":1730621495,"current_range_meters":6800,"station_id":"ce4bhkp2rcd13ifvqgd0","pricing_plan_id":"cebpf4jnsgd1na2vs0mg"},{"bike_id":"1b22afb1-e566-455d-9848-d8ff891e663e","system_id":"levelo_inurba_marseille","lat":43.25115,"lon":5.40322,"is_reserved":false,"is_disabled":false,"rental_uris":{"android":"levelo://app?vid=1b22afb1-e566-455d-9848-d8ff891e663e","ios":"levelo://app?vid=1b22afb1-e566-455d-9848-d8ff891e663e"},"vehicle_type_id":"4","last_reported":1730621495,"current_range_meters":24800,"station_id":"ce4bhlh2rcd13ifvqgig","pricing_plan_id":"cebpf4jnsgd1na2vs0mg"},{"bike_id":"2d7cf0bd-f581-4576-a46e-1b0ef1769b3b","system_id":"levelo_inurba_marseille","lat":43.30945,"lon":5.3905,"is_reserved":false,"is_disabled":false,"rental_uris":{"android":"levelo://app?vid=2d7cf0bd-f581-4576-a46e-1b0ef1769b3b","ios":"levelo://app?vid=2d7cf0bd-f581-4576-a46e-1b0ef1769b3b"},"vehicle_type_id":"4","last_reported":1730621495,"current_range_meters":30400,"station_id":"ce4bgup2rcd13ifvqco0","pricing_plan_id":"cebpf4jnsgd1na2vs0mg"},{"bike_id":"0bbdb248-f4da-4d2c-bd87-5a0fa0739dd4","system_id":"levelo_inurba_marseille","lat":43.24068,"lon":5.3776,"is_reserved":false,"is_disabled":false,"rental_uris":{"android":"levelo://app?vid=0bbdb248-f4da-4d2c-bd87-5a0fa0739dd4","ios":"levelo://app?vid=0bbdb248-f4da-4d2c-bd87-5a0fa0739dd4"},"vehicle_type_id":"4","last_reported":1730621495,"current_range_meters":10000,"station_id":"ce4bhnp2rcd13ifvqgvg","pricing_plan_id":"cebpf4jnsgd1na2vs0mg"},{"bike_id":"37fe25be-a49e-4e62-a3e8-43f60282b067","system_id":"levelo_inurba_marseille","lat":43.28611,"lon":5.3706,"is_reserved":false,"is_disabled":false,"rental_uris":{"android":"levelo://app?vid=37fe25be-a49e-4e62-a3e8-43f60282b067","ios":"levelo://app?vid=37fe25be-a49e-4e62-a3e8-43f60282b067"},"vehicle_type_id":"4","last_reported":1730621495,"current_range_meters":22400,"station_id":"ce4bht12rcd13ifvqi60","pricing_plan_id":"cebpf4jnsgd1na2vs0mg"},{"bike_id":"c1e3f1fb-a976-4c88-946a-c0964acf9cad","system_id":"levelo_inurba_marseille","lat":43.27568,"lon":5.38425,"is_reserved":false,"is_disabled":false,"rental_uris":{"android":"levelo://app?vid=c1e3f1fb-a976-4c88-946a-c0964acf9cad","ios":"levelo://app?vid=c1e3f1fb-a976-4c88-946a-c0964acf9cad"},"vehicle_type_id":"4","last_reported":1730621495,"current_range_meters":38800,"station_id":"ce4bhh92rcd13ifvqfi0","pricing_plan_id":"cebpf4jnsgd1na2vs0mg"},{"bike_id":"3c142b9f-6d00-4e72-b257-549ba12f3702","system_id":"levelo_inurba_marseille","lat":43.29251,"lon":5.40899,"is_reserved":false,"is_disabled":false,"rental_uris":{"android":"levelo://app?vid=3c142b9f-6d00-4e72-b257-549ba12f3702","ios":"levelo://app?vid=3c142b9f-6d00-4e72-b257-549ba12f3702"},"vehicle_type_id":"4","last_reported":1730621495,"current_range_meters":32800,"station_id":"ce4bh192rcd13ifvqdc0","pricing_plan_id":"cebpf4jnsgd1na2vs0mg"},{"bike_id":"dfcf6a89-a923-4ca9-beae-4b01cfe38b57","system_id":"levelo_inurba_marseille","lat":43.31068,"lon":5.38349,"is_reserved":false,"is_disabled":false,"rental_uris":{"android":"levelo://app?vid=dfcf6a89-a923-4ca9-beae-4b01cfe38b57","ios":"levelo://app?vid=dfcf6a89-a923-4ca9-beae-4b01cfe38b57"},"vehicle_type_id":"4","last_reported":1730621495,"current_range_meters":20800,"station_id":"ce4bgv92rcd13ifvqcr0","pricing_plan_id":"cebpf4jnsgd1na2vs0mg"},{"bike_id":"4addb393-0f42-41ab-9a9c-32e4a28c4f71","system_id":"levelo_inurba_marseille","lat":43.26214,"lon":5.37439,"is_reserved":false,"is_disabled":false,"rental_uris":{"android":"levelo://app?vid=4addb393-0f42-41ab-9a9c-32e4a28c4f71","ios":"levelo://app?vid=4addb393-0f42-41ab-9a9c-32e4a28c4f71"},"vehicle_type_id":"4","last_reported":1730621495,"current_range_meters":35600,"station_id":"ce4bhgp2rcd13ifvqfc0","pricing_plan_id":"cebpf4jnsgd1na2vs0mg"},{"bike_id":"67f27790-369c-496e-9dda-769f0bfe7cd4","system_id":"levelo_inurba_marseille","lat":43.254991,"lon":5.376529,"is_reserved":false,"is_disabled":false,"rental_uris":{"android":"levelo://app?vid=67f27790-369c-496e-9dda-769f0bfe7cd4","ios":"levelo://app?vid=67f27790-369c-496e-9dda-769f0bfe7cd4"},"vehicle_type_id":"4","last_reported":1730621495,"current_range_meters":39200,"station_id":"ce4bhh12rcd13ifvqff0","pricing_plan_id":"cebpf4jnsgd1na2vs0mg"},{"bike_id":"e4076913-25a7-4304-83b4-9b1933c6ed9b","system_id":"levelo_inurba_marseille","lat":43.27995,"lon":5.40016,"is_reserved":false,"is_disabled":false,"rental_uris":{"android":"levelo://app?vid=e4076913-25a7-4304-83b4-9b1933c6ed9b","ios":"levelo://app?vid=e4076913-25a7-4304-83b4-9b1933c6ed9b"},"vehicle_type_id":"4","last_reported":1730621495,"current_range_meters":38400,"station_id":"ce4bho92rcd13ifvqh4g","pricing_plan_id":"cebpf4jnsgd1na2vs0mg"},{"bike_id":"7a8298bd-3024-4bfc-9fde-c6d025892cde","system_id":"levelo_inurba_marseille","lat":43.30923,"lon":5.40166,"is_reserved":false,"is_disabled":false,"rental_uris":{"android":"levelo://app?vid=7a8298bd-3024-4bfc-9fde-c6d025892cde","ios":"levelo://app?vid=7a8298bd-3024-4bfc-9fde-c6d025892cde"},"vehicle_type_id":"4","last_reported":1730621495,"current_range_meters":36800,"station_id":"ce4bgvp2rcd13ifvqct0","pricing_plan_id":"cebpf4jnsgd1na2vs0mg"},{"bike_id":"24ffd7c5-6473-484d-9c6b-b6420825c8ed","system_id":"levelo_inurba_marseille","lat":43.29898,"lon":5.43665,"is_reserved":false,"is_disabled":false,"rental_uris":{"android":"levelo://app?vid=24ffd7c5-6473-484d-9c6b-b6420825c8ed","ios":"levelo://app?vid=24ffd7c5-6473-484d-9c6b-b6420825c8ed"},"vehicle_type_id":"4","last_reported":1730621495,"current_range_meters":38800,"station_id":"ce4bhpp2rcd13ifvqhfg","pricing_plan_id":"cebpf4jnsgd1na2vs0mg"},{"bike_id":"977219da-76a7-4d8f-a196-6e4f2d9787c4","system_id":"levelo_inurba_marseille","lat":43.26782,"lon":5.3942,"is_reserved":false,"is_disabled":false,"rental_uris":{"android":"levelo://app?vid=977219da-76a7-4d8f-a196-6e4f2d9787c4","ios":"levelo://app?vid=977219da-76a7-4d8f-a196-6e4f2d9787c4"},"vehicle_type_id":"4","last_reported":1730621495,"current_range_meters":40000,"station_id":"ce4bhh12rcd13ifvqfg0","pricing_plan_id":"cebpf4jnsgd1na2vs0mg"},{"bike_id":"85a63d61-293f-4adc-846f-079a8da5970c","system_id":"levelo_inurba_marseille","lat":43.28344,"lon":5.38117,"is_reserved":false,"is_disabled":false,"rental_uris":{"android":"levelo://app?vid=85a63d61-293f-4adc-846f-079a8da5970c","ios":"levelo://app?vid=85a63d61-293f-4adc-846f-079a8da5970c"},"vehicle_type_id":"4","last_reported":1730621495,"current_range_meters":14400,"station_id":"ce4bh412rcd13ifvqdr0","pricing_plan_id":"cebpf4jnsgd1na2vs0mg"},{"bike_id":"3e83e42e-84a1-4fa6-80cb-e77919db3747","system_id":"levelo_inurba_marseille","lat":43.2512,"lon":5.40319,"is_reserved":false,"is_disabled":false,"rental_uris":{"android":"levelo://app?vid=3e83e42e-84a1-4fa6-80cb-e77919db3747","ios":"levelo://app?vid=3e83e42e-84a1-4fa6-80cb-e77919db3747"},"vehicle_type_id":"4","last_reported":1730621495,"current_range_meters":19200,"station_id":"ce4bhlh2rcd13ifvqgig","pricing_plan_id":"cebpf4jnsgd1na2vs0mg"},{"bike_id":"6e6c1416-464f-4f03-9742-bebcc8a06f1e","system_id":"levelo_inurba_marseille","lat":43.31752,"lon":5.39025,"is_reserved":false,"is_disabled":false,"rental_uris":{"android":"levelo://app?vid=6e6c1416-464f-4f03-9742-bebcc8a06f1e","ios":"levelo://app?vid=6e6c1416-464f-4f03-9742-bebcc8a06f1e"},"vehicle_type_id":"4","last_reported":1730621495,"current_range_meters":38800,"station_id":"ce4bhqp2rcd13ifvqhng","pricing_plan_id":"cebpf4jnsgd1na2vs0mg"},{"bike_id":"68ee4823-8219-4e40-934b-3c46becc94f7","system_id":"levelo_inurba_marseille","lat":43.31071,"lon":5.38351,"is_reserved":false,"is_disabled":false,"rental_uris":{"android":"levelo://app?vid=68ee4823-8219-4e40-934b-3c46becc94f7","ios":"levelo://app?vid=68ee4823-8219-4e40-934b-3c46becc94f7"},"vehicle_type_id":"4","last_reported":1730621495,"current_range_meters":30400,"station_id":"ce4bgv92rcd13ifvqcr0","pricing_plan_id":"cebpf4jnsgd1na2vs0mg"},{"bike_id":"c14b910d-c438-4986-9edc-d74caf84b8bd","system_id":"levelo_inurba_marseille","lat":43.25825,"lon":5.39432,"is_reserved":false,"is_disabled":false,"rental_uris":{"android":"levelo://app?vid=c14b910d-c438-4986-9edc-d74caf84b8bd","ios":"levelo://app?vid=c14b910d-c438-4986-9edc-d74caf84b8bd"},"vehicle_type_id":"4","last_reported":1730621495,"current_range_meters":38800,"station_id":"ce4bhip2rcd13ifvqft0","pricing_plan_id":"cebpf4jnsgd1na2vs0mg"},{"bike_id":"92c54c22-1b80-485c-bf71-bfc1e98b94d2","system_id":"levelo_inurba_marseille","lat":43.29036,"lon":5.39963,"is_reserved":false,"is_disabled":false,"rental_uris":{"android":"levelo://app?vid=92c54c22-1b80-485c-bf71-bfc1e98b94d2","ios":"levelo://app?vid=92c54c22-1b80-485c-bf71-bfc1e98b94d2"},"vehicle_type_id":"4","last_reported":1730621495,"current_range_meters":34000,"station_id":"ce4bh392rcd13ifvqdm0","pricing_plan_id":"cebpf4jnsgd1na2vs0mg"},{"bike_id":"4b775463-cf5a-40b4-8149-f6b055abd79c","system_id":"levelo_inurba_marseille","lat":43.26487,"lon":5.39552,"is_reserved":false,"is_disabled":false,"rental_uris":{"android":"levelo://app?vid=4b775463-cf5a-40b4-8149-f6b055abd79c","ios":"levelo://app?vid=4b775463-cf5a-40b4-8149-f6b055abd79c"},"vehicle_type_id":"4","last_reported":1730621495,"current_range_meters":38400,"station_id":"ce4bhi12rcd13ifvqfq0","pricing_plan_id":"cebpf4jnsgd1na2vs0mg"},{"bike_id":"60c0224e-40df-4570-b982-feea48a1f83b","system_id":"levelo_inurba_marseille","lat":43.28606,"lon":5.37065,"is_reserved":false,"is_disabled":false,"rental_uris":{"android":"levelo://app?vid=60c0224e-40df-4570-b982-feea48a1f83b","ios":"levelo://app?vid=60c0224e-40df-4570-b982-feea48a1f83b"},"vehicle_type_id":"4","last_reported":1730621495,"current_range_meters":24000,"station_id":"ce4bht12rcd13ifvqi60","pricing_plan_id":"cebpf4jnsgd1na2vs0mg"},{"bike_id":"c2a10759-4af8-4ab4-b6db-82c0a31b18c1","system_id":"levelo_inurba_marseille","lat":43.29273,"lon":5.40119,"is_reserved":false,"is_disabled":false,"rental_uris":{"android":"levelo://app?vid=c2a10759-4af8-4ab4-b6db-82c0a31b18c1","ios":"levelo://app?vid=c2a10759-4af8-4ab4-b6db-82c0a31b18c1"},"vehicle_type_id":"4","last_reported":1730621495,"current_range_meters":30800,"station_id":"ce4bh312rcd13ifvqdk0","pricing_plan_id":"cebpf4jnsgd1na2vs0mg"},{"bike_id":"b2d284dc-f1c7-4801-80ea-9b41b504091e","system_id":"levelo_inurba_marseille","lat":43.30597,"lon":5.37216,"is_reserved":false,"is_disabled":false,"rental_uris":{"android":"levelo://app?vid=b2d284dc-f1c7-4801-80ea-9b41b504091e","ios":"levelo://app?vid=b2d284dc-f1c7-4801-80ea-9b41b504091e"},"vehicle_type_id":"4","last_reported":1730621495,"current_range_meters":32400,"station_id":"ce4bgqh2rcd13ifvqc4g","pricing_plan_id":"cebpf4jnsgd1na2vs0mg"},{"bike_id":"5bed4c60-b912-42f6-b099-933c6ebb8aca","system_id":"levelo_inurba_marseille","lat":43.2583,"lon":5.3943,"is_reserved":false,"is_disabled":false,"rental_uris":{"android":"levelo://app?vid=5bed4c60-b912-42f6-b099-933c6ebb8aca","ios":"levelo://app?vid=5bed4c60-b912-42f6-b099-933c6ebb8aca"},"vehicle_type_id":"4","last_reported":1730621495,"current_range_meters":36400,"station_id":"ce4bhip2rcd13ifvqft0","pricing_plan_id":"cebpf4jnsgd1na2vs0mg"},{"bike_id":"f83073ed-6616-4982-9b44-90dc927b86fa","system_id":"levelo_inurba_marseille","lat":43.30246,"lon":5.40074,"is_reserved":false,"is_disabled":false,"rental_uris":{"android":"levelo://app?vid=f83073ed-6616-4982-9b44-90dc927b86fa","ios":"levelo://app?vid=f83073ed-6616-4982-9b44-90dc927b86fa"},"vehicle_type_id":"4","last_reported":1730621495,"current_range_meters":27600,"station_id":"ce4bgvh2rcd13ifvqcs0","pricing_plan_id":"cebpf4jnsgd1na2vs0mg"},{"bike_id":"7c52dca3-7bef-4bad-9fba-b9cb071437ae","system_id":"levelo_inurba_marseille","lat":43.30807,"lon":5.38147,"is_reserved":false,"is_disabled":false,"rental_uris":{"android":"levelo://app?vid=7c52dca3-7bef-4bad-9fba-b9cb071437ae","ios":"levelo://app?vid=7c52dca3-7bef-4bad-9fba-b9cb071437ae"},"vehicle_type_id":"4","last_reported":1730621495,"current_range_meters":29600,"station_id":"ce4bgt12rcd13ifvqce0","pricing_plan_id":"cebpf4jnsgd1na2vs0mg"},{"bike_id":"e4c327ef-91e6-45d8-acea-b018f56189b1","system_id":"levelo_inurba_marseille","lat":43.28719,"lon":5.39991,"is_reserved":false,"is_disabled":false,"rental_uris":{"android":"levelo://app?vid=e4c327ef-91e6-45d8-acea-b018f56189b1","ios":"levelo://app?vid=e4c327ef-91e6-45d8-acea-b018f56189b1"},"vehicle_type_id":"4","last_reported":1730621495,"current_range_meters":36800,"station_id":"ce4bho92rcd13ifvqh3g","pricing_plan_id":"cebpf4jnsgd1na2vs0mg"},{"bike_id":"0ed19e93-f1b8-43b5-bce6-546c496d7ed7","system_id":"levelo_inurba_marseille","lat":43.29719,"lon":5.37685,"is_reserved":false,"is_disabled":false,"rental_uris":{"android":"levelo://app?vid=0ed19e93-f1b8-43b5-bce6-546c496d7ed7","ios":"levelo://app?vid=0ed19e93-f1b8-43b5-bce6-546c496d7ed7"},"vehicle_type_id":"4","last_reported":1730621495,"current_range_meters":38000,"station_id":"ce4bgkh2rcd13ifvqbl0","pricing_plan_id":"cebpf4jnsgd1na2vs0mg"},{"bike_id":"391ffe5e-43fd-4312-9196-a8696c38e0ab","system_id":"levelo_inurba_marseille","lat":43.33733,"lon":5.39178,"is_reserved":false,"is_disabled":false,"rental_uris":{"android":"levelo://app?vid=391ffe5e-43fd-4312-9196-a8696c38e0ab","ios":"levelo://app?vid=391ffe5e-43fd-4312-9196-a8696c38e0ab"},"vehicle_type_id":"4","last_reported":1730621495,"current_range_meters":33200,"station_id":"ce4bhr92rcd13ifvqhsg","pricing_plan_id":"cebpf4jnsgd1na2vs0mg"},{"bike_id":"44062d9d-68c9-40e6-abbd-6934a4ae966d","system_id":"levelo_inurba_marseille","lat":43.28942,"lon":5.36629,"is_reserved":false,"is_disabled":false,"rental_uris":{"android":"levelo://app?vid=44062d9d-68c9-40e6-abbd-6934a4ae966d","ios":"levelo://app?vid=44062d9d-68c9-40e6-abbd-6934a4ae966d"},"vehicle_type_id":"4","last_reported":1730621495,"current_range_meters":36000,"station_id":"ce4bhap2rcd13ifvqek0","pricing_plan_id":"cebpf4jnsgd1na2vs0mg"},{"bike_id":"e8cde378-5cb9-4ffa-a43d-c43c1abf1735","system_id":"levelo_inurba_marseille","lat":43.272,"lon":5.39189,"is_reserved":false,"is_disabled":false,"rental_uris":{"android":"levelo://app?vid=e8cde378-5cb9-4ffa-a43d-c43c1abf1735","ios":"levelo://app?vid=e8cde378-5cb9-4ffa-a43d-c43c1abf1735"},"vehicle_type_id":"4","last_reported":1730621495,"current_range_meters":16400,"station_id":"ce4bhhp2rcd13ifvqfm0","pricing_plan_id":"cebpf4jnsgd1na2vs0mg"},{"bike_id":"8c67d340-801d-46e5-b910-2f8aff3ff078","system_id":"levelo_inurba_marseille","lat":43.33318,"lon":5.37079,"is_reserved":false,"is_disabled":false,"rental_uris":{"android":"levelo://app?vid=8c67d340-801d-46e5-b910-2f8aff3ff078","ios":"levelo://app?vid=8c67d340-801d-46e5-b910-2f8aff3ff078"},"vehicle_type_id":"4","last_reported":1730621495,"current_range_meters":7200,"station_id":"","pricing_plan_id":"cebpf4jnsgd1na2vs0mg"},{"bike_id":"4a54db5d-2977-47eb-bcae-c8880baddda0","system_id":"levelo_inurba_marseille","lat":43.24994,"lon":5.38944,"is_reserved":false,"is_disabled":false,"rental_uris":{"android":"levelo://app?vid=4a54db5d-2977-47eb-bcae-c8880baddda0","ios":"levelo://app?vid=4a54db5d-2977-47eb-bcae-c8880baddda0"},"vehicle_type_id":"4","last_reported":1730621495,"current_range_meters":31200,"station_id":"ce4bhgp2rcd13ifvqfd0","pricing_plan_id":"cebpf4jnsgd1na2vs0mg"},{"bike_id":"54cc4ec6-c46d-4e95-9bf2-2a04f02a40ab","system_id":"levelo_inurba_marseille","lat":43.28408,"lon":5.37514,"is_reserved":false,"is_disabled":false,"rental_uris":{"android":"levelo://app?vid=54cc4ec6-c46d-4e95-9bf2-2a04f02a40ab","ios":"levelo://app?vid=54cc4ec6-c46d-4e95-9bf2-2a04f02a40ab"},"vehicle_type_id":"4","last_reported":1730621495,"current_range_meters":37600,"station_id":"ce4bh412rcd13ifvqds0","pricing_plan_id":"cebpf4jnsgd1na2vs0mg"},{"bike_id":"921069e2-e506-477e-8730-9e0ff76dae61","system_id":"levelo_inurba_marseille","lat":43.2407,"lon":5.37758,"is_reserved":false,"is_disabled":false,"rental_uris":{"android":"levelo://app?vid=921069e2-e506-477e-8730-9e0ff76dae61","ios":"levelo://app?vid=921069e2-e506-477e-8730-9e0ff76dae61"},"vehicle_type_id":"4","last_reported":1730621495,"current_range_meters":36800,"station_id":"ce4bhnp2rcd13ifvqgvg","pricing_plan_id":"cebpf4jnsgd1na2vs0mg"},{"bike_id":"e2634b22-5f17-4345-a889-22a44b7f45e9","system_id":"levelo_inurba_marseille","lat":43.27997,"lon":5.40021,"is_reserved":false,"is_disabled":false,"rental_uris":{"android":"levelo://app?vid=e2634b22-5f17-4345-a889-22a44b7f45e9","ios":"levelo://app?vid=e2634b22-5f17-4345-a889-22a44b7f45e9"},"vehicle_type_id":"4","last_reported":1730621495,"current_range_meters":18000,"station_id":"ce4bho92rcd13ifvqh4g","pricing_plan_id":"cebpf4jnsgd1na2vs0mg"},{"bike_id":"61414efe-131d-4b67-88a9-f5b9c1773029","system_id":"levelo_inurba_marseille","lat":43.28485,"lon":5.38553,"is_reserved":false,"is_disabled":false,"rental_uris":{"android":"levelo://app?vid=61414efe-131d-4b67-88a9-f5b9c1773029","ios":"levelo://app?vid=61414efe-131d-4b67-88a9-f5b9c1773029"},"vehicle_type_id":"4","last_reported":1730621495,"current_range_meters":15200,"station_id":"ce4bh8p2rcd13ifvqeb0","pricing_plan_id":"cebpf4jnsgd1na2vs0mg"},{"bike_id":"704eba55-73fe-495c-8b3d-68b1d87c8902","system_id":"levelo_inurba_marseille","lat":43.29792,"lon":5.40415,"is_reserved":false,"is_disabled":false,"rental_uris":{"android":"levelo://app?vid=704eba55-73fe-495c-8b3d-68b1d87c8902","ios":"levelo://app?vid=704eba55-73fe-495c-8b3d-68b1d87c8902"},"vehicle_type_id":"4","last_reported":1730621495,"current_range_meters":22800,"station_id":"ce4bh112rcd13ifvqd90","pricing_plan_id":"cebpf4jnsgd1na2vs0mg"},{"bike_id":"b736ea7c-6257-4899-803a-bdba215cd35b","system_id":"levelo_inurba_marseille","lat":43.29532,"lon":5.39043,"is_reserved":false,"is_disabled":false,"rental_uris":{"android":"levelo://app?vid=b736ea7c-6257-4899-803a-bdba215cd35b","ios":"levelo://app?vid=b736ea7c-6257-4899-803a-bdba215cd35b"},"vehicle_type_id":"4","last_reported":1730621495,"current_range_meters":20800,"station_id":"ce4bh3p2rcd13ifvqdp0","pricing_plan_id":"cebpf4jnsgd1na2vs0mg"},{"bike_id":"3c90fc8f-ed1d-4e88-8797-d27a0c30fd70","system_id":"levelo_inurba_marseille","lat":43.25721,"lon":5.41112,"is_reserved":false,"is_disabled":false,"rental_uris":{"android":"levelo://app?vid=3c90fc8f-ed1d-4e88-8797-d27a0c30fd70","ios":"levelo://app?vid=3c90fc8f-ed1d-4e88-8797-d27a0c30fd70"},"vehicle_type_id":"4","last_reported":1730621495,"current_range_meters":38800,"station_id":"ce4bhkp2rcd13ifvqgd0","pricing_plan_id":"cebpf4jnsgd1na2vs0mg"},{"bike_id":"d16597ad-1553-4bf6-a420-22d1707e70d3","system_id":"levelo_inurba_marseille","lat":43.32655,"lon":5.40991,"is_reserved":false,"is_disabled":false,"rental_uris":{"android":"levelo://app?vid=d16597ad-1553-4bf6-a420-22d1707e70d3","ios":"levelo://app?vid=d16597ad-1553-4bf6-a420-22d1707e70d3"},"vehicle_type_id":"4","last_reported":1730621495,"current_range_meters":38800,"station_id":"ce4bhpp2rcd13ifvqhgg","pricing_plan_id":"cebpf4jnsgd1na2vs0mg"},{"bike_id":"4046578d-64b0-4da2-a67a-24cc0a3c974f","system_id":"levelo_inurba_marseille","lat":43.304392,"lon":5.388967,"is_reserved":false,"is_disabled":false,"rental_uris":{"android":"levelo://app?vid=4046578d-64b0-4da2-a67a-24cc0a3c974f","ios":"levelo://app?vid=4046578d-64b0-4da2-a67a-24cc0a3c974f"},"vehicle_type_id":"4","last_reported":1730621495,"current_range_meters":39200,"station_id":"ce4bgk12rcd13ifvqbi0","pricing_plan_id":"cebpf4jnsgd1na2vs0mg"},{"bike_id":"1b76da04-24af-4551-be92-5b5e0e7c5288","system_id":"levelo_inurba_marseille","lat":43.27495,"lon":5.42449,"is_reserved":false,"is_disabled":false,"rental_uris":{"android":"levelo://app?vid=1b76da04-24af-4551-be92-5b5e0e7c5288","ios":"levelo://app?vid=1b76da04-24af-4551-be92-5b5e0e7c5288"},"vehicle_type_id":"4","last_reported":1730621495,"current_range_meters":38800,"station_id":"ce4bhn92rcd13ifvqgrg","pricing_plan_id":"cebpf4jnsgd1na2vs0mg"},{"bike_id":"c1b4d2a8-17a7-49f2-bf22-053042230b7f","system_id":"levelo_inurba_marseille","lat":43.29791,"lon":5.38117,"is_reserved":false,"is_disabled":false,"rental_uris":{"android":"levelo://app?vid=c1b4d2a8-17a7-49f2-bf22-053042230b7f","ios":"levelo://app?vid=c1b4d2a8-17a7-49f2-bf22-053042230b7f"},"vehicle_type_id":"4","last_reported":1730621495,"current_range_meters":19200,"station_id":"ce4bgip2rcd13ifvqbb0","pricing_plan_id":"cebpf4jnsgd1na2vs0mg"},{"bike_id":"540e2233-9952-44d3-9e22-d0acfe51609d","system_id":"levelo_inurba_marseille","lat":43.30431,"lon":5.38888,"is_reserved":false,"is_disabled":false,"rental_uris":{"android":"levelo://app?vid=540e2233-9952-44d3-9e22-d0acfe51609d","ios":"levelo://app?vid=540e2233-9952-44d3-9e22-d0acfe51609d"},"vehicle_type_id":"4","last_reported":1730621495,"current_range_meters":38800,"station_id":"ce4bgk12rcd13ifvqbi0","pricing_plan_id":"cebpf4jnsgd1na2vs0mg"},{"bike_id":"03523498-bdf2-43d9-aa27-669f03c4fc00","system_id":"levelo_inurba_marseille","lat":43.28934,"lon":5.36397,"is_reserved":false,"is_disabled":false,"rental_uris":{"android":"levelo://app?vid=03523498-bdf2-43d9-aa27-669f03c4fc00","ios":"levelo://app?vid=03523498-bdf2-43d9-aa27-669f03c4fc00"},"vehicle_type_id":"4","last_reported":1730621495,"current_range_meters":15200,"station_id":"ce4bhc92rcd13ifvqetg","pricing_plan_id":"cebpf4jnsgd1na2vs0mg"},{"bike_id":"aec75234-6564-49c7-9ae2-e5c212e97cf0","system_id":"levelo_inurba_marseille","lat":43.30646,"lon":5.40078,"is_reserved":false,"is_disabled":false,"rental_uris":{"android":"levelo://app?vid=aec75234-6564-49c7-9ae2-e5c212e97cf0","ios":"levelo://app?vid=aec75234-6564-49c7-9ae2-e5c212e97cf0"},"vehicle_type_id":"4","last_reported":1730621495,"current_range_meters":38800,"station_id":"ce4bh112rcd13ifvqda0","pricing_plan_id":"cebpf4jnsgd1na2vs0mg"},{"bike_id":"45fa1b33-66ed-4883-9036-7e15fc0d5afb","system_id":"levelo_inurba_marseille","lat":43.25105,"lon":5.40323,"is_reserved":false,"is_disabled":false,"rental_uris":{"android":"levelo://app?vid=45fa1b33-66ed-4883-9036-7e15fc0d5afb","ios":"levelo://app?vid=45fa1b33-66ed-4883-9036-7e15fc0d5afb"},"vehicle_type_id":"4","last_reported":1730621495,"current_range_meters":33600,"station_id":"ce4bhlh2rcd13ifvqgig","pricing_plan_id":"cebpf4jnsgd1na2vs0mg"},{"bike_id":"d5324ca5-5a3a-4892-bb8c-7dbf331e6ea6","system_id":"levelo_inurba_marseille","lat":43.324793,"lon":5.365716,"is_reserved":false,"is_disabled":false,"rental_uris":{"android":"levelo://app?vid=d5324ca5-5a3a-4892-bb8c-7dbf331e6ea6","ios":"levelo://app?vid=d5324ca5-5a3a-4892-bb8c-7dbf331e6ea6"},"vehicle_type_id":"4","last_reported":1730621495,"current_range_meters":39200,"station_id":"ce4bhs12rcd13ifvqhvg","pricing_plan_id":"cebpf4jnsgd1na2vs0mg"},{"bike_id":"82b4023e-4bad-457d-9620-38412ab10fb2","system_id":"levelo_inurba_marseille","lat":43.301896,"lon":5.36622,"is_reserved":false,"is_disabled":false,"rental_uris":{"android":"levelo://app?vid=82b4023e-4bad-457d-9620-38412ab10fb2","ios":"levelo://app?vid=82b4023e-4bad-457d-9620-38412ab10fb2"},"vehicle_type_id":"4","last_reported":1730621495,"current_range_meters":37600,"station_id":"ce4bhb92rcd13ifvqen0","pricing_plan_id":"cebpf4jnsgd1na2vs0mg"},{"bike_id":"6be7270a-2704-4485-a493-6b103dd8c08b","system_id":"levelo_inurba_marseille","lat":43.28931,"lon":5.36632,"is_reserved":false,"is_disabled":false,"rental_uris":{"android":"levelo://app?vid=6be7270a-2704-4485-a493-6b103dd8c08b","ios":"levelo://app?vid=6be7270a-2704-4485-a493-6b103dd8c08b"},"vehicle_type_id":"4","last_reported":1730621495,"current_range_meters":38800,"station_id":"ce4bhap2rcd13ifvqek0","pricing_plan_id":"cebpf4jnsgd1na2vs0mg"},{"bike_id":"dfcb9461-c6d0-4c24-a33c-16bd314908ae","system_id":"levelo_inurba_marseille","lat":43.28707,"lon":5.39988,"is_reserved":false,"is_disabled":false,"rental_uris":{"android":"levelo://app?vid=dfcb9461-c6d0-4c24-a33c-16bd314908ae","ios":"levelo://app?vid=dfcb9461-c6d0-4c24-a33c-16bd314908ae"},"vehicle_type_id":"4","last_reported":1730621495,"current_range_meters":36400,"station_id":"ce4bho92rcd13ifvqh3g","pricing_plan_id":"cebpf4jnsgd1na2vs0mg"},{"bike_id":"5c74527c-010a-411f-8275-f8d2754af41e","system_id":"levelo_inurba_marseille","lat":43.28155,"lon":5.42641,"is_reserved":false,"is_disabled":false,"rental_uris":{"android":"levelo://app?vid=5c74527c-010a-411f-8275-f8d2754af41e","ios":"levelo://app?vid=5c74527c-010a-411f-8275-f8d2754af41e"},"vehicle_type_id":"4","last_reported":1730621495,"current_range_meters":38000,"station_id":"ce4bhnh2rcd13ifvqgug","pricing_plan_id":"cebpf4jnsgd1na2vs0mg"},{"bike_id":"3a179b56-77d5-4b59-92ba-5b4c95fb8e6c","system_id":"levelo_inurba_marseille","lat":43.26786,"lon":5.39411,"is_reserved":false,"is_disabled":false,"rental_uris":{"android":"levelo://app?vid=3a179b56-77d5-4b59-92ba-5b4c95fb8e6c","ios":"levelo://app?vid=3a179b56-77d5-4b59-92ba-5b4c95fb8e6c"},"vehicle_type_id":"4","last_reported":1730621495,"current_range_meters":30000,"station_id":"ce4bhh12rcd13ifvqfg0","pricing_plan_id":"cebpf4jnsgd1na2vs0mg"},{"bike_id":"92ce6d4a-e55a-47e8-9fd5-0286331b069e","system_id":"levelo_inurba_marseille","lat":43.2573,"lon":5.41109,"is_reserved":false,"is_disabled":false,"rental_uris":{"android":"levelo://app?vid=92ce6d4a-e55a-47e8-9fd5-0286331b069e","ios":"levelo://app?vid=92ce6d4a-e55a-47e8-9fd5-0286331b069e"},"vehicle_type_id":"4","last_reported":1730621495,"current_range_meters":38400,"station_id":"ce4bhkp2rcd13ifvqgd0","pricing_plan_id":"cebpf4jnsgd1na2vs0mg"},{"bike_id":"5dd3f8d7-6964-43bc-bebc-19e5b69fb24e","system_id":"levelo_inurba_marseille","lat":43.29039,"lon":5.3996,"is_reserved":false,"is_disabled":false,"rental_uris":{"android":"levelo://app?vid=5dd3f8d7-6964-43bc-bebc-19e5b69fb24e","ios":"levelo://app?vid=5dd3f8d7-6964-43bc-bebc-19e5b69fb24e"},"vehicle_type_id":"4","last_reported":1730621495,"current_range_meters":32800,"station_id":"ce4bh392rcd13ifvqdm0","pricing_plan_id":"cebpf4jnsgd1na2vs0mg"},{"bike_id":"ef99b779-9220-4b62-8f05-a9f54a9fbdcd","system_id":"levelo_inurba_marseille","lat":43.30595,"lon":5.39355,"is_reserved":false,"is_disabled":false,"rental_uris":{"android":"levelo://app?vid=ef99b779-9220-4b62-8f05-a9f54a9fbdcd","ios":"levelo://app?vid=ef99b779-9220-4b62-8f05-a9f54a9fbdcd"},"vehicle_type_id":"4","last_reported":1730621495,"current_range_meters":14800,"station_id":"ce4bh0p2rcd13ifvqd80","pricing_plan_id":"cebpf4jnsgd1na2vs0mg"},{"bike_id":"c36500d8-3c1b-40b4-b412-de69c457b9cb","system_id":"levelo_inurba_marseille","lat":43.27611,"lon":5.41743,"is_reserved":false,"is_disabled":false,"rental_uris":{"android":"levelo://app?vid=c36500d8-3c1b-40b4-b412-de69c457b9cb","ios":"levelo://app?vid=c36500d8-3c1b-40b4-b412-de69c457b9cb"},"vehicle_type_id":"4","last_reported":1730621495,"current_range_meters":8400,"station_id":"","pricing_plan_id":"cebpf4jnsgd1na2vs0mg"},{"bike_id":"477d9759-9655-4541-82c7-c27c886d0ee2","system_id":"levelo_inurba_marseille","lat":43.27812,"lon":5.40721,"is_reserved":false,"is_disabled":false,"rental_uris":{"android":"levelo://app?vid=477d9759-9655-4541-82c7-c27c886d0ee2","ios":"levelo://app?vid=477d9759-9655-4541-82c7-c27c886d0ee2"},"vehicle_type_id":"4","last_reported":1730621495,"current_range_meters":36800,"station_id":"ce4bhnh2rcd13ifvqgtg","pricing_plan_id":"cebpf4jnsgd1na2vs0mg"},{"bike_id":"944fddd6-b40e-4821-9ea8-a89df4cf3005","system_id":"levelo_inurba_marseille","lat":43.28708,"lon":5.37393,"is_reserved":false,"is_disabled":false,"rental_uris":{"android":"levelo://app?vid=944fddd6-b40e-4821-9ea8-a89df4cf3005","ios":"levelo://app?vid=944fddd6-b40e-4821-9ea8-a89df4cf3005"},"vehicle_type_id":"4","last_reported":1730621495,"current_range_meters":26000,"station_id":"ce4bh3p2rcd13ifvqdq0","pricing_plan_id":"cebpf4jnsgd1na2vs0mg"},{"bike_id":"0ccb3142-79fe-4218-9a43-31a24baec800","system_id":"levelo_inurba_marseille","lat":43.28408,"lon":5.37515,"is_reserved":false,"is_disabled":false,"rental_uris":{"android":"levelo://app?vid=0ccb3142-79fe-4218-9a43-31a24baec800","ios":"levelo://app?vid=0ccb3142-79fe-4218-9a43-31a24baec800"},"vehicle_type_id":"4","last_reported":1730621495,"current_range_meters":27600,"station_id":"ce4bh412rcd13ifvqds0","pricing_plan_id":"cebpf4jnsgd1na2vs0mg"},{"bike_id":"5fccdc8c-66d4-4706-9e7b-ab05bf10c1d2","system_id":"levelo_inurba_marseille","lat":43.27941,"lon":5.41039,"is_reserved":false,"is_disabled":false,"rental_uris":{"android":"levelo://app?vid=5fccdc8c-66d4-4706-9e7b-ab05bf10c1d2","ios":"levelo://app?vid=5fccdc8c-66d4-4706-9e7b-ab05bf10c1d2"},"vehicle_type_id":"4","last_reported":1730621495,"current_range_meters":9600,"station_id":"ce4bhnp2rcd13ifvqh0g","pricing_plan_id":"cebpf4jnsgd1na2vs0mg"},{"bike_id":"ab9cb399-eeb7-4811-b418-db73fb440597","system_id":"levelo_inurba_marseille","lat":43.26201,"lon":5.37932,"is_reserved":false,"is_disabled":false,"rental_uris":{"android":"levelo://app?vid=ab9cb399-eeb7-4811-b418-db73fb440597","ios":"levelo://app?vid=ab9cb399-eeb7-4811-b418-db73fb440597"},"vehicle_type_id":"4","last_reported":1730621495,"current_range_meters":38800,"station_id":"ce4bhjp2rcd13ifvqg90","pricing_plan_id":"cebpf4jnsgd1na2vs0mg"},{"bike_id":"7f708895-ae9d-4c2a-9981-bf6833a6bb38","system_id":"levelo_inurba_marseille","lat":43.28699,"lon":5.39983,"is_reserved":false,"is_disabled":false,"rental_uris":{"android":"levelo://app?vid=7f708895-ae9d-4c2a-9981-bf6833a6bb38","ios":"levelo://app?vid=7f708895-ae9d-4c2a-9981-bf6833a6bb38"},"vehicle_type_id":"4","last_reported":1730621495,"current_range_meters":38800,"station_id":"ce4bho92rcd13ifvqh3g","pricing_plan_id":"cebpf4jnsgd1na2vs0mg"},{"bike_id":"ace45a37-cd21-442d-a052-72e120b857af","system_id":"levelo_inurba_marseille","lat":43.30605,"lon":5.37231,"is_reserved":false,"is_disabled":false,"rental_uris":{"android":"levelo://app?vid=ace45a37-cd21-442d-a052-72e120b857af","ios":"levelo://app?vid=ace45a37-cd21-442d-a052-72e120b857af"},"vehicle_type_id":"4","last_reported":1730621495,"current_range_meters":36800,"station_id":"ce4bgqh2rcd13ifvqc4g","pricing_plan_id":"cebpf4jnsgd1na2vs0mg"},{"bike_id":"48faa90a-11ad-4837-84e3-3f4e90d782ef","system_id":"levelo_inurba_marseille","lat":43.29295,"lon":5.37441,"is_reserved":false,"is_disabled":false,"rental_uris":{"android":"levelo://app?vid=48faa90a-11ad-4837-84e3-3f4e90d782ef","ios":"levelo://app?vid=48faa90a-11ad-4837-84e3-3f4e90d782ef"},"vehicle_type_id":"4","last_reported":1730621495,"current_range_meters":38800,"station_id":"ce4bgi12rcd13ifvqb70","pricing_plan_id":"cebpf4jnsgd1na2vs0mg"},{"bike_id":"f2f9ef3e-4b55-45e3-afa3-4f3d55a22f74","system_id":"levelo_inurba_marseille","lat":43.26939,"lon":5.38916,"is_reserved":false,"is_disabled":false,"rental_uris":{"android":"levelo://app?vid=f2f9ef3e-4b55-45e3-afa3-4f3d55a22f74","ios":"levelo://app?vid=f2f9ef3e-4b55-45e3-afa3-4f3d55a22f74"},"vehicle_type_id":"4","last_reported":1730621495,"current_range_meters":37600,"station_id":"ce4bhhh2rcd13ifvqfl0","pricing_plan_id":"cebpf4jnsgd1na2vs0mg"},{"bike_id":"638eff34-bb0f-474e-915a-230b21dabca4","system_id":"levelo_inurba_marseille","lat":43.27377,"lon":5.3626,"is_reserved":false,"is_disabled":false,"rental_uris":{"android":"levelo://app?vid=638eff34-bb0f-474e-915a-230b21dabca4","ios":"levelo://app?vid=638eff34-bb0f-474e-915a-230b21dabca4"},"vehicle_type_id":"4","last_reported":1730621495,"current_range_meters":21600,"station_id":"ce4bhbh2rcd13ifvqeo0","pricing_plan_id":"cebpf4jnsgd1na2vs0mg"},{"bike_id":"e00640ae-541b-4c5c-8874-ec585b782b26","system_id":"levelo_inurba_marseille","lat":43.31268,"lon":5.40173,"is_reserved":false,"is_disabled":false,"rental_uris":{"android":"levelo://app?vid=e00640ae-541b-4c5c-8874-ec585b782b26","ios":"levelo://app?vid=e00640ae-541b-4c5c-8874-ec585b782b26"},"vehicle_type_id":"4","last_reported":1730621495,"current_range_meters":9200,"station_id":"ce4bh092rcd13ifvqd30","pricing_plan_id":"cebpf4jnsgd1na2vs0mg"},{"bike_id":"bbb2ac86-e448-4e03-90c6-76cb2d1a5c56","system_id":"levelo_inurba_marseille","lat":43.29283,"lon":5.36845,"is_reserved":false,"is_disabled":false,"rental_uris":{"android":"levelo://app?vid=bbb2ac86-e448-4e03-90c6-76cb2d1a5c56","ios":"levelo://app?vid=bbb2ac86-e448-4e03-90c6-76cb2d1a5c56"},"vehicle_type_id":"4","last_reported":1730621495,"current_range_meters":32800,"station_id":"ce4bhbp2rcd13ifvqesg","pricing_plan_id":"cebpf4jnsgd1na2vs0mg"},{"bike_id":"cee612fc-dab8-4d06-802a-af943d753732","system_id":"levelo_inurba_marseille","lat":43.30609,"lon":5.37233,"is_reserved":false,"is_disabled":false,"rental_uris":{"android":"levelo://app?vid=cee612fc-dab8-4d06-802a-af943d753732","ios":"levelo://app?vid=cee612fc-dab8-4d06-802a-af943d753732"},"vehicle_type_id":"4","last_reported":1730621495,"current_range_meters":20800,"station_id":"ce4bgqh2rcd13ifvqc4g","pricing_plan_id":"cebpf4jnsgd1na2vs0mg"},{"bike_id":"03335dd2-34ff-4af2-aeb1-4f22c5fa6d64","system_id":"levelo_inurba_marseille","lat":43.28455,"lon":5.3589,"is_reserved":false,"is_disabled":false,"rental_uris":{"android":"levelo://app?vid=03335dd2-34ff-4af2-aeb1-4f22c5fa6d64","ios":"levelo://app?vid=03335dd2-34ff-4af2-aeb1-4f22c5fa6d64"},"vehicle_type_id":"4","last_reported":1730621495,"current_range_meters":27600,"station_id":"ce4bhah2rcd13ifvqei0","pricing_plan_id":"cebpf4jnsgd1na2vs0mg"},{"bike_id":"0ef112d8-a539-4651-bdce-19f00e9b8704","system_id":"levelo_inurba_marseille","lat":43.30248,"lon":5.40075,"is_reserved":false,"is_disabled":false,"rental_uris":{"android":"levelo://app?vid=0ef112d8-a539-4651-bdce-19f00e9b8704","ios":"levelo://app?vid=0ef112d8-a539-4651-bdce-19f00e9b8704"},"vehicle_type_id":"4","last_reported":1730621495,"current_range_meters":24800,"station_id":"ce4bgvh2rcd13ifvqcs0","pricing_plan_id":"cebpf4jnsgd1na2vs0mg"},